6,102,35,15,08,304,35,24,05,300,
34,25,10,059,34,0*63
$GPGSV,3,3,11,26,25,310,35,27,60,308,36,28
,64,149,36,0*5E
$BDGSV,1,1,02,0
8,11,214,,09,08,255,,0*7A
$GNRMC,151916.000,A,2959.99987,N,1200
0.00006,E,0.00,0.00,140121,,,A,V
*02
$GNVTG,0.00,T,,M,0.00,N,0.00,K,A*23
$GNZDA,151916.000,14,0
1,2021,00,00*46
$GPTXT,01,01,01,ANTENNA SHORT*63

$GNGGA,151917.000,2959.99986,N,1
2000.00006,E,1,11,0.9,-6.1,M,7.2,M,,*5B
$GNGLL,2959.99986,N,120
00.00006,E,151917.000,A,A*48
$G
NGSA,A,3,02,07,08,10,13,15,24,25,26,27,28,,1.3,0.9,1.0,1*3B
$GN
GSA,A,3,,,,,,,,,,,,,1.3,0.9,1.0,
4*3E
$GPGSV,3,1,11,02,09,228,34,07,26,049,35,08,59,016,36,10,55
,294,36,0*66
$GPGSV,3,2,11,13,1
6,102,34,15,08,304,35,24,05,300,34,25,10,059,35,0*63
$GPGSV,3,3
,11,26,25,310,35,27,60,308,36,28,64,149,36,0*5E
$BDGSV,1,1,02,0
8,11,214,,09,08,255,,0*7A
$GNRM
C,151917.000,A,2959.99986,N,12000.00006,E,0.00,0.00,140121,,,A,V
*02
$GNVTG,0.00,T,,M,0.00,N,0.0
0,K,A*23
$GNZDA,151917.000,14,01,2021,00,00*47
$GPTXT,01,01,01
,ANTENNA SHORT*63

$GNGGA,151918.000,2959.99986,N,1
2000.00006,E,1,11,0.9,-6.2,M,7.2,M,,*57
$GNGLL,2959.99986,N,120
00.00006,E,151918.000,A,A*47
$G
NGSA,A,3,02,07,08,10,13,15,24,25,26,27,28,,1.3,0.9,1.0,1*3B
$GN
GSA,A,3,,,,,,,,,,,,,1.3,0.9,1.0,
4*3E
$GPGSV,3,1,11,02,09,228,34,07,26,049,35,08,59,016,36,10,55
,294,36,0*66
$GPGSV,3,2,11,13,1
6,102,34,15,08,304,35,24,05,300,34,25,10,059,35,0*63
$GPGSV,3,3
,11,26,25,310,35,27,60,308,36,28,64,149,36,0*5E
$BDGSV,1,1,02,0
8,11,214,,09,08,255,,0*7A
$GNRM
C,151918.000,A,2959.99986,N,12000.00006,E,0.00,0.00,140121,,,A,V
*0D
$GNVTG,0.00,T,,M,0.00,N,0.0
0,K,A*23
$GNZDA,151918.000,14,01,2021,00,00*48
$GPTXT,01,01,01
,ANTENNA SHORT*63

$GNGGA,151919.000,2959.99987,N,1
2000.00006,E,1,11,0.9,-6.2,M,7.2,M,,*57
$GNGLL,2959.99987,N,120
00.00006,E,151919.000,A,A*47
$G
NGSA,A,3,02,07,08,10,13,15,24,25,26,27,28,,1.3,0.9,1.0,1*3B
$GN
GSA,A,3,,,,,,,,,,,,,1.3,0.9,1.0,
4*3E
$GPGSV,3,1,11,02,09,228,34,07,26,049,35,08,59,016,36,10,55
,294,36,0*66
$GPGSV,3,2,11,13,1
6,102,34,15,08,304,35,24,05,300,34,25,10,059,35,0*63
$GPGSV,3,3
,11,26,25,310,35,27,60,308,36,28,64,149,36,0*5E
$BDGSV,1,1,02,0
8,11,214,,09,08,255,,0*7A
$GNRM
C,151919.000,A,2959.99987,N,12000.00006,E,0.00,0.00,140121,,,A,V
*0D
$GNVTG,0.00,T,,M,0.00,N,0.0
0,K,A*23
$GNZDA,151919.000,14,01,2021,00,00*49
$GPTXT,01,01,01
,ANTENNA SHORT*63

$GNGGA,151920.000,2959.99988,N,1
2000.00005,E,1,11,0.9,-6.2,M,7.2,M,,*51
$GNGLL,2959.99988,N,120
00.00005,E,151920.000,A,A*41
$G
NGSA,A,3,02,07,08,10,13,15,24,25,26,27,28,,1.3,0.9,1.0,1*3B
$GN
GSA,A,3,,,,,,,,,,,,,1.3,0.9,1.0,
4*3E
$GPGSV,3,1,11,02,09,228,34,07,26,049,35,08,59,016,36,10,55
,294,36,0*66
$GPGSV,3,2,11,13,1
6,102,34,15,08,305,34,24,05,300,34,25,10,059,35,0*63
$GPGSV,3,3
,11,26,25,310,35,27,60,308,36,28
,64,149,36,0*5E
$BDGSV,1,1,02,08,11,214,,09,08,255,,0*7A
$GNRM
C,151920.000,A,2959.99988,N,1200
0.00005,E,0.00,0.00,140121,,,A,V*0B
$GNVTG,0.00,T,,M,0.00,N,0.0
0,K,A*23
$GNZDA,151920.000,14,0
1,2021,00,00*43
$GPTXT,01,01,01,ANTENNA SHORT*63

$GNGGA,151921.000,2959.99989,N,1
2000.00005,E,1,11,0.9,-6.3,M,7.2,M,,*50
$GNGLL,2959.99989,N,120
00.00005,E,151921.000,A,A*41
$G
NGSA,A,3,02,07,08,10,13,15,24,25,26,27,28,,1.3,0.9,1.0,1*3B
$GN
GSA,A,3,,,,,,,,,,,,,1.3,0.9,1.0,
4*3E
$GPGSV,3,1,11,02,09,228,34,07,26,049,35,08,59,016,36,10,55
,294,36,0*66
$GPGSV,3,2,11,13,1
6,102,35,15,08,305,34,24,05,300,34,25,10,059,34,0*63
$GPGSV,3,3
,11,26,25,310,35,27,60,308,36,28,64,149,36,0*5E
$BDGSV,1,1,02,0
8,11,214,,09,08,255,,0*7A
$GNRM
C,151921.000,A,2959.99989,N,12000.00005,E,0.00,0.00,140121,,,A,V
*0B
$GNVTG,0.00,T,,M,0.00,N,0.0
0,K,A*23
$GNZDA,151921.000,14,01,2021,00,00*42
$GPTXT,01,01,01
,ANTENNA SHORT*63

$GNGGA,151922.000,2959.99990,N,1
2000.00004,E,1,11,0.9,-6.3,M,7.2,M,,*5A
$GNGLL,2959.99990,N,120
00.00004,E,151922.000,A,A*4B
$G
NGSA,A,3,02,07,08,10,13,15,24,25,26,27,28,,1.3,0.9,1.0,1*3B
$GN
GSA,A,3,,,,,,,,,,,,,1.3,0.9,1.0,
4*3E
$GPGSV,3,1,11,02,09,228,34,07,26,049,35,08,59,016,36,10,55
,294,36,0*66
$GPGSV,3,2,11,13,1
6,102,35,15,08,305,34,24,05,300,34,25,10,059,34,0*63
$GPGSV,3,3
,11,26,25,310,35,27,60,308,36,28,64,149,36,0*5E
$BDGSV,1,1,02,0
8,11,214,,09,08,255,,0*7A
$GNRM
C,151922.000,A,2959.99990,N,12000.00004,E,0.00,0.00,140121,,,A,V
*01
$GNVTG,0.00,T,,M,0.00,N,0.0
0,K,A*23
$GNZDA,151922.000,14,01,2021,00,00*41
$GPTXT,01,01,01
,ANTENNA SHORT*63

$GNGGA,151923.000,2959.99991,N,1
2000.00003,E,1,11,0.9,-6.4,M,7.2,M,,*5A
$GNGLL,2959.99991,N,120
00.00003,E,151923.000,A,A*4C
$G
NGSA,A,3,02,07,08,10,13,15,24,25,26,27,28,,1.3,0.9,1.0,1*3B
$GN
GSA,A,3,,,,,,,,,,,,,1.3,0.9,1.0,
4*3E
$GPGSV,3,1,11,02,09,228,34,07,26,049,35,08,59,016,36,10,55
,294,36,0*66
$GPGSV,3,2,11,13,1
6,102,35,15,08,305,34,24,05,300,34,25,10,059,34,0*63
$GPGSV,3,3
,11,26,25,310,35,27,60,308,36,28
,64,149,36,0*5E
$BDGSV,1,1,02,08,11,214,,09,08,255,,0*7A
$GNRM
C,151923.000,A,2959.99991,N,12000.00003,E,0.00,0.00,140121,,,A,V
*06
$GNVTG,0.00,T,,M,0.00,N,0.0
0,K,A*23
$GNZDA,151923.000,14,01,2021,00,00*40
$GPTXT,01,01,01
,ANTENNA SHORT*63

$GNGGA,151924.000,2959.99992,N,1
2000.00002,E,1,11,0.9,-6.4,M,7.2,M,,*5F
$GNGLL,2959.99992,N,120
00.00002,E,151924.000,A,A*49
$G
NGSA,A,3,02,07,08,10,13,15,24,25,26,27,28,,1.3,0.9,1.0,1*3B
$GN
GSA,A,3,,,,,,,,,,,,,1.3,0.9,1.0,
4*3E
$GPGSV,3,1,11,02,09,228,34,07,26,049,35,08,59,016,36,10,55
,294,36,0*66
$GPGSV,3,2,11,13,1
6,102,35,15,08,305,35,24,05,300,34,25,10,059,34,0*62
$GPGSV,3,3
,11,26,25,310,35,27,60,308,36,28,64,149,36,0*5E
$BDGSV,1,1,02,0
8,11,214,,09,08,255,,0*7A
$GNRM
C,151924.000,A,2959.99992,N,12000.00002,E,0.00,0.00,140121,,,A,V*03
$GNVTG,0.00,T,,M,0.00,N,0.00,K,A*23
$GNZDA,151924.000,14,0
1,2021,00,00*47
$GPTXT,01,01,01,ANTENNA SHORT*63

$GNGGA,151925.000,2959.99993,N,1
2000.00002,E,1,11,0.9,-6.4,M,7.2,M,,*5F
$GNGLL,2959.99993,N,120
00.00002,E,151925.000,A,A*49
$G
NGSA,A,3,02,07,08,10,13,15,24,25,26,27,28,,1.3,0.9,1.0,1*3B
$GN
GSA,A,3,,,,,,,,,,,,,1.3,0.9,1.0,4*3E
$GPGSV,3,1,11,02,09,228,34
,07,26,049,35,08,59,016,36,10,55
,294,36,0*66
$GPGSV,3,2,11,13,16,102,34,15,08,305,35,24,05,300,
34,25,10,059,34,0*63
$GPGSV,3,3
,11,26,25,310,35,27,60,308,36,28,64,149,36,0*5E
$BDGSV,1,1,02,0
8,11,214,,09,08,255,,0*7A
$GNRMC,151925.000,A,2959.99993,N,1200
0.00002,E,0.00,0.00,140121,,,A,V
*03
$GNVTG,0.00,T,,M,0.00,N,0.00,K,A*23
$GNZDA,151925.000,14,0
1,2021,00,00*46
$GPTXT,01,01,01,ANTENNA SHORT*63

$GNGGA,151926.000,2959.99994,N,1
2000.00002,E,1,11,0.9,-6.4,M,7.2,M,,*5B
$GNGLL,2959.99994,N,120
00.00002,E,151926.000,A,A*4D
$G
NGSA,A,3,02,07,08,10,13,15,24,25,26,27,28,,1.3,0.9,1.0,1*3B
$GN
GSA,A,3,,,,,,,,,,,,,1.3,0.9,1.0,
4*3E
$GPGSV,3,1,11,02,09,228,34,07,26,049,35,08,59,016,36,10,55
,294,36,0*66
$GPGSV,3,2,11,13,1
6,102,34,15,08,305,35,24,05,300,34,25,10,059,34,0*63
$GPGSV,3,3
,11,26,25,310,35,27,60,308,36,28,64,149,36,0*5E
$BDGSV,1,1,02,0
8,11,214,,09,08,255,,0*7A
$GNRM
C,151926.000,A,2959.99994,N,12000.00002,E,0.00,0.00,140121,,,A,V
*07
$GNVTG,0.00,T,,M,0.00,N,0.0
0,K,A*23
$GNZDA,151926.000,14,01,2021,00,00*45
$GPTXT,01,01,01
,ANTENNA SHORT*63

$GNGGA,151927.000,2959.99994,N,1
2000.00002,E,1,11,0.9,-6.5,M,7.2,M,,*5B
$GNGLL,2959.99994,N,120
00.00002,E,151927.000,A,A*4C
$G
NGSA,A,3,02,07,08,10,13,15,24,25,26,27,28,,1.3,0.9,1.0,1*3B
$GN
GSA,A,3,,,,,,,,,,,,,1.3,0.9,1.0,
4*3E
$GPGSV,3,1,11,02,09,228,34,07,26,049,35,08,59,016,36,10,55
,294,36,0*66
$GPGSV,3,2,11,13,1
6,102,34,15,08,305,35,24,05,300,34,25,10,059,34,0*63
$GPGSV,3,3
,11,26,25,310,35,27,60,308,36,28,64,149,36,0*5E
$BDGSV,1,1,02,0
8,11,214,,09,08,255,,0*7A
$GNRM
C,151927.000,A,2959.99994,N,12000.00002,E,0.00,0.00,140121,,,A,V
*06
$GNVTG,0.00,T,,M,0.00,N,0.0
0,K,A*23
$GNZDA,151927.000,14,01,2021,00,00*44
$GPTXT,01,01,01
,ANTENNA SHORT*63

$GNGGA,151928.000,2959.99995,N,1
2000.00003,E,1,11,0.9,-6.5,M,7.2,M,,*54
$GNGLL,2959.99995,N,120
00.00003,E,151928.000,A,A*43
$G
NGSA,A,3,02,07,08,10,13,15,24,25,26,27,28,,1.3,0.9,1.0,1*3B
$GN
GSA,A,3,,,,,,,,,,,,,1.3,0.9,1.0,4*3E
$GPGSV,3,1,11,02,09,228,34
,07,26,049,35,08,59,016,36,10,55
,294,36,0*66
$GPGSV,3,2,11,13,16,102,35,15,08,305,34,24,05,300,
34,25,10,059,34,0*63
$GPGSV,3,3
,11,26,25,310,35,27,60,308,36,28,64,149,36,0*5E
$BDGSV,1,1,02,0
8,11,214,,09,08,255,,0*7A
$GNRM
C,151928.000,A,2959.99995,N,12000.00003,E,0.00,0.00,140121,,,A,V
*09
$GNVTG,0.00,T,,M,0.00,N,0.0
0,K,A*23
$GNZDA,151928.000,14,01,2021,00,00*4B
$GPTXT,01,01,01
,ANTENNA SHORT*63

$GNGGA,151929.000,2959.99995,N,1
2000.00003,E,1,11,0.9,-6.5,M,7.2,M,,*55
$GNGLL,2959.99995,N,120
00.00003,E,151929.000,A,A*42
$G
NGSA,A,3,02,07,08,10,13,15,24,25,26,27,28,,1.3,0.9,1.0,1*3B
$GN
GSA,A,3,,,,,,,,,,,,,1.3,0.9,1.0,
4*3E
$GPGSV,3,1,11,02,09,228,34,07,26,049,35,08,59,016,36,10,55
,294,36,0*66
$GPGSV,3,2,11,13,1
6,102,35,15,08,305,34,24,05,300,34,25,10,059,34,0*63
$GPGSV,3,3
,11,26,25,310,35,27,60,308,36,28,64,149,36,0*5E
$BDGSV,1,1,02,0
8,11,214,,09,08,255,,0*7A
$GNRM
C,151929.000,A,2959.99995,N,12000.00003,E,0.00,0.00,140121,,,A,V
*08
$GNVTG,0.00,T,,M,0.00,N,0.0
0,K,A*23
$GNZDA,151929.000,14,01,2021,00,00*4A
$GPTXT,01,01,01
,ANTENNA SHORT*63

$GNGGA,151930.000,2959.99994,N,1
2000.00003,E,1,11,0.9,-6.5,M,7.2,M,,*5C
$GNGLL,2959.99994,N,120
00.00003,E,151930.000,A,A*4B
$G
NGSA,A,3,02,07,08,10,13,15,24,25,26,27,28,,1.3,0.9,1.0,1*3B
$GN
GSA,A,3,,,,,,,,,,,,,1.3,0.9,1.0,
4*3E
$GPGSV,3,1,11,02,09,228,34,07,26,049,35,08,59,016,36,10,55
,294,36,0*66
$GPGSV,3,2,11,13,1
6,102,35,15,08,305,34,24,05,300,34,25,10,059,34,0*63
$GPGSV,3,3
,11,26,25,310,35,27,60,308,36,28,64,149,36,0*5E
$BDGSV,1,1,02,0
8,11,214,,09,08,255,,0*7A
$GNRM
C,151930.000,A,2959.99994,N,12000.00003,E,0.00,0.00,140121,,,A,V
*01
$GNVTG,0.00,T,,M,0.00,N,0.0
0,K,A*23
$GNZDA,151930.000,14,01,2021,00,00*42
$GPTXT,01,01,01
,ANTENNA SHORT*63

$GNGGA,151931.000,2959.99994,N,1
2000.00003,E,1,11,0.9,-6.5,M,7.2,M,,*5D
$GNGLL,2959.99994,N,120
00.00003,E,151931.000,A,A*4A
$GNGSA,A,3,02,07,08,10,13,15,24,25
,26,27,28,,1.3,0.9,1.0,1*3B
$GN
GSA,A,3,,,,,,,,,,,,,1.3,0.9,1.0,4*3E
$GPGSV,3,1,11,02,09,228,34
,07,26,049,35,08,59,016,36,10,55
,294,36,0*66
$GPGSV,3,2,11,13,16,102,35,15,08,305,34,24,05,300,
34,25,10,059,34,0*63
$GPGSV,3,3,11,26,25,310,35,27,60,308,36,28
,64,149,36,0*5E
$BDGSV,1,1,02,0
8,11,214,,09,08,255,,0*7A
$GNRMC,151931.000,A,2959.99994,N,1200
0.00003,E,0.00,0.00,140121,,,A,V
*00
$GNVTG,0.00,T,,M,0.00,N,0.00,K,A*23
$GNZDA,151931.000,14,0
1,2021,00,00*43
$GPTXT,01,01,01,ANTENNA SHORT*63

$GNGGA,151932.000,2959.99994,N,1
2000.00003,E,1,11,0.9,-6.5,M,7.2,M,,*5E
$GNGLL,2959.99994,N,120
00.00003,E,151932.000,A,A*49
$GNGSA,A,3,02,07,08,10,13,15,24,25
,26,27,28,,1.3,0.9,1.0,1*3B
$GN
GSA,A,3,,,,,,,,,,,,,1.3,0.9,1.0,4*3E
$GPGSV,3,1,11,02,09,228,34
,07,26,049,35,08,59,016,36,10,55,294,36,0*66
$GPGSV,3,2,11,13,1
6,102,35,15,08,305,34,24,05,300,34,25,10,059,34,0*63
$GPGSV,3,3
,11,26,25,310,35,27,60,308,36,28
,64,149,36,0*5E
$BDGSV,1,1,02,08,11,214,,09,08,255,,0*7A
$GNRM
C,151932.000,A,2959.99994,N,12000.00003,E,0.00,0.00,140121,,,A,V
*03
$GNVTG,0.00,T,,M,0.00,N,0.0
0,K,A*23
$GNZDA,151932.000,14,01,2021,00,00*40
$GPTXT,01,01,01
,ANTENNA SHORT*63

$GNGGA,151933.000,2959.99994,N,1
2000.00004,E,1,11,0.9,-6.5,M,7.2,M,,*58
$GNGLL,2959.99994,N,120
00.00004,E,151933.000,A,A*4F
$GNGSA,A,3,02,07,08,10,13,15,24,25
,26,27,28,,1.3,0.9,1.0,1*3B
$GN
GSA,A,3,,,,,,,,,,,,,1.3,0.9,1.0,4*3E
$GPGSV,3,1,11,02,09,228,34
,07,26,049,35,08,59,016,36,10,55,294,36,0*66
$GPGSV,3,2,11,13,1
6,102,35,15,08,305,34,24,05,300,
34,25,10,059,34,0*63
$GPGSV,3,3,11,26,25,310,35,27,60,308,36,28
,64,149,36,0*5E
$BDGSV,1,1,02,0
8,11,214,,09,08,255,,0*7A
$GNRMC,151933.000,A,2959.99994,N,1200
0.00004,E,0.00,0.00,140121,,,A,V
*05
$GNVTG,0.00,T,,M,0.00,N,0.00,K,A*23
$GNZDA,151933.000,14,0
1,2021,00,00*41
$GPTXT,01,01,01,ANTENNA SHORT*63

$GNGGA,151934.000,2959.99995,N,1
2000.00003,E,1,11,0.9,-6.5,M,7.2,M,,*59
$GNGLL,2959.99995,N,120
00.00003,E,151934.000,A,A*4E
$G
NGSA,A,3,02,07,08,10,13,15,24,25,26,27,28,,1.3,0.9,1.0,1*3B
$GN
GSA,A,3,,,,,,,,,,,,,1.3,0.9,1.0,
4*3E
$GPGSV,3,1,11,02,09,228,35,07,26,049,35,08,59,016,36,10,55
,294,36,0*67
$GPGSV,3,2,11,13,1
6,102,35,15,08,305,34,24,05,300,34,25,10,059,34,0*63
$GPGSV,3,3
,11,26,25,310,35,27,60,308,36,28,64,149,36,0*5E
$BDGSV,1,1,02,0
8,11,214,,09,08,255,,0*7A
$GNRM
C,151934.000,A,2959.99995,N,12000.00003,E,0.00,0.00,140121,,,A,V
*04
$GNVTG,0.00,T,,M,0.00,N,0.0
0,K,A*23
$GNZDA,151934.000,14,01,2021,00,00*46
$GPTXT,01,01,01
,ANTENNA SHORT*63

$GNGGA,151935.000,2959.99995,N,1
2000.00003,E,1,11,0.9,-6.5,M,7.2,M,,*58
$GNGLL,2959.99995,N,120
00.00003,E,151935.000,A,A*4F
$G
NGSA,A,3,02,07,08,10,13,15,24,25,26,27,28,,1.3,0.9,1.0,1*3B
$GN
GSA,A,3,,,,,,,,,,,,,1.3,0.9,1.0,
4*3E
$GPGSV,3,1,11,02,09,228,35,07,26,049,35,08,59,016,36,10,55
,294,36,0*67
$GPGSV,3,2,11,13,1
6,102,35,15,08,305,34,24,05,300,34,25,10,059,34,0*63
$GPGSV,3,3
,11,26,25,310,35,27,60,308,36,28,64,149,36,0*5E
$BDGSV,1,1,02,0
8,11,214,,09,08,255,,0*7A
$GNRM
C,151935.000,A,2959.99995,N,12000.00003,E,0.00,0.00,140121,,,A,V
*05
$GNVTG,0.00,T,,M,0.00,N,0.0
0,K,A*23
$GNZDA,151935.000,14,01,2021,00,00*47
$GPTXT,01,01,01
,ANTENNA SHORT*63

$GNGGA,151936.000,2959.99994,N,1
2000.00003,E,1,11,0.9,-6.5,M,7.2,M,,*5A
$GNGLL,2959.99994,N,120
00.00003,E,151936.000,A,A*4D
$G
NGSA,A,3,02,07,08,10,13,15,24,25,26,27,28,,1.3,0.9,1.0,1*3B
$GN
GSA,A,3,,,,,,,,,,,,,1.3,0.9,1.0,
4*3E
$GPGSV,3,1,11,02,09,228,34,07,26,049,35,08,59,016,36,10,55
,294,36,0*66
$GPGSV,3,2,11,13,1
6,102,34,15,08,305,34,24,05,300,34,25,10,059,34,0*62
$GPGSV,3,3
,11,26,25,310,35,27,60,308,36,28,64,149,36,0*5E
$BDGSV,1,1,02,0
8,11,214,,09,08,255,,0*7A
$GNRM
C,151936.000,A,2959.99994,N,12000.00003,E,0.00,0.00,140121,,,A,V
*07
$GNVTG,0.00,T,,M,0.00,N,0.0
0,K,A*23
$GNZDA,151936.000,14,01,2021,00,00*44
$GPTXT,01,01,01
,ANTENNA SHORT*63

$GNGGA,151937.000,2959.99994,N,1
2000.00003,E,1,11,0.9,-6.5,M,7.2,M,,*5B
$GNGLL,2959.99994,N,120
00.00003,E,151937.000,A,A*4C
$GNGSA,A,3,02,07,08,10,13,15,24,25
,26,27,28,,1.3,0.9,1.0,1*3B
$GN
GSA,A,3,,,,,,,,,,,,,1.3,0.9,1.0,4*3E
$GPGSV,3,1,11,02,09,228,34
,07,26,049,35,08,59,016,36,10,55
,294,36,0*66
$GPGSV,3,2,11,13,16,102,34,15,08,305,34,24,05,300,
34,25,10,059,34,0*62
$GPGSV,3,3,11,26,25,310,35,27,60,308,36,28
,64,149,36,0*5E
$BDGSV,1,1,02,0
8,11,214,,09,08,255,,0*7A
$GNRMC,151937.000,A,2959.99994,N,1200
0.00003,E,0.00,0.00,140121,,,A,V
*06
$GNVTG,0.00,T,,M,0.00,N,0.00,K,A*23
$GNZDA,151937.000,14,0
1,2021,00,00*45
$GPTXT,01,01,01,ANTENNA SHORT*63

$GNGGA,151938.000,2959.99994,N,1
2000.00003,E,1,11,0.9,-6.5,M,7.2,M,,*54
$GNGLL,2959.99994,N,120
00.00003,E,151938.000,A,A*43
$GNGSA,A,3,02,07,08,10,13,15,24,25
,26,27,28,,1.3,0.9,1.0,1*3B
$GN
GSA,A,3,,,,,,,,,,,,,1.3,0.9,1.0,4*3E
$GPGSV,3,1,11,02,09,228,34
,07,26,049,35,08,59,016,36,10,55
,294,36,0*66
$GPGSV,3,2,11,13,16,102,34,15,08,305,34,24,05,300,
34,25,10,059,34,0*62
$GPGSV,3,3,11,26,25,310,35,27,60,308,36,28
,64,149,36,0*5E
$BDGSV,1,1,02,0
8,11,214,,09,08,255,,0*7A
$GNRMC,151938.000,A,2959.99994,N,1200
0.00003,E,0.00,0.00,140121,,,A,V
*09
$GNVTG,0.00,T,,M,0.00,N,0.00,K,A*23
$GNZDA,151938.000,14,0
1,2021,00,00*4A
$GPTXT,01,01,01,ANTENNA SHORT*63

$GNGGA,151939.000,2959.99995,N,1
2000.00003,E,1,11,0.9,-6.5,M,7.2,M,,*54
$GNGLL,2959.99995,N,120
00.00003,E,151939.000,A,A*43
$G
NGSA,A,3,02,07,08,10,13,15,24,25,26,27,28,,1.3,0.9,1.0,1*3B
$GN
GSA,A,3,,,,,,,,,,,,,1.3,0.9,1.0,
4*3E
$GPGSV,3,1,11,02,09,228,34,07,26,049,35,08,59,016,36,10,55
,294,36,0*66
$GPGSV,3,2,11,13,16,102,34,15,08,305,34,24,05,300,
34,25,10,059,34,0*62
$GPGSV,3,3
,11,26,25,310,35,27,60,308,36,28,64,149,36,0*5E
$BDGSV,1,1,02,0
8,11,214,,09,08,255,,0*7A
$GNRM
C,151939.000,A,2959.99995,N,12000.00003,E,0.00,0.00,140121,,,A,V
*09
$GNVTG,0.00,T,,M,0.00,N,0.0
0,K,A*23
$GNZDA,151939.000,14,01,2021,00,00*4B
$GPTXT,01,01,01
,ANTENNA SHORT*63

$GNGGA,151940.000,2959.99995,N,1
2000.00003,E,1,11,0.9,-6.5,M,7.2,M,,*5A
$GNGLL,2959.99995,N,120
00.00003,E,151940.000,A,A*4D
$G
NGSA,A,3,02,07,08,10,13,15,24,25,26,27,28,,1.3,0.9,1.0,1*3B
$GN
GSA,A,3,,,,,,,,,,,,,1.3,0.9,1.0,4*3E
$GPGSV,3,1,11,02,09,228,34
,07,26,049,35,08,59,016,36,10,55
,294,36,0*66
$GPGSV,3,2,11,13,16,102,34,15,08,305,34,24,05,300,
34,25,10,059,34,0*62
$GPGSV,3,3
,11,26,25,310,35,27,60,308,36,28,64,149,34,0*5C
$BDGSV,1,1,02,0
8,11,214,,09,08,255,,0*7A
$GNRM
C,151940.000,A,2959.99995,N,12000.00003,E,0.00,0.00,140121,,,A,V
*07
$GNVTG,0.00,T,,M,0.00,N,0.0
0,K,A*23
$GNZDA,151940.000,14,01,2021,00,00*45
$GPTXT,01,01,01
,ANTENNA SHORT*63

$GNGGA,151941.000,2959.99995,N,1
2000.00003,E,1,11,0.9,-6.5,M,7.2,M,,*5B
$GNGLL,2959.99995,N,120
00.00003,E,151941.000,A,A*4C
$GNGSA,A,3,02,07,08,10,13,15,24,25
,26,27,28,,1.3,0.9,1.0,1*3B
$GN
GSA,A,3,,,,,,,,,,,,,1.3,0.9,1.0,4*3E
$GPGSV,3,1,11,02,09,228,33
,07,26,049,32,08,59,016,36,10,55
,294,36,0*66
$GPGSV,3,2,11,13,15,102,34,15,08,305,14,24,05,299,
34,25,10,059,34,0*62
$GPGSV,3,3,11,26,25,310,33,27,60,308,34,28
,64,149,34,0*58
$BDGSV,1,1,02,0
8,11,214,,09,08,255,,0*7A
$GNRMC,151941.000,A,2959.99995,N,1200
0.00003,E,0.00,0.00,140121,,,A,V
*06
$GNVTG,0.00,T,,M,0.00,N,0.00,K,A*23
$GNZDA,151941.000,14,0
1,2021,00,00*44
$GPTXT,01,01,01,ANTENNA SHORT*63

$GNGGA,151942.000,2959.99995,N,1
2000.00003,E,1,11,0.9,-6.5,M,7.2,M,,*58
$GNGLL,2959.99995,N,120
00.00003,E,151942.000,A,A*4F
$GNGSA,A,3,02,07,08,10,13,15,24,25
,26,27,28,,1.3,0.9,1.0,1*3B
$GN
GSA,A,3,,,,,,,,,,,,,1.3,0.9,1.0,4*3E
$GPGSV,3,1,11,02,09,228,33
,07,26,049,32,08,59,016,33,10,55
,294,32,0*67
$GPGSV,3,2,11,13,15,102,34,15,08,305,14,24,05,299,
31,25,10,059,32,0*61
$GPGSV,3,3,11,26,25,310,33,27,60,308,34,28
,64,149,34,0*58
$BDGSV,1,1,02,0
8,11,214,,09,08,255,,0*7A
$GNRMC,151942.000,A,2959.99995,N,1200
0.00003,E,0.00,0.00,140121,,,A,V
*05
$GNVTG,0.00,T,,M,0.00,N,0.00,K,A*23
$GNZDA,151942.000,14,0
1,2021,00,00*47
$GPTXT,01,01,01,ANTENNA SHORT*63

$GNGGA,151943.000,2959.99995,N,1
2000.00003,E,1,07,1.0,-6.5,M,7.2,M,,*56
$GNGLL,2959.99995,N,120
00.00003,E,151943.000,A,A*4E
$GNGSA,A,3,02,07,08,13,25,26,28,,,
,,,1.7,1.0,1.3,1*32
$GNGSA,A,3,
,,,,,,,,,,,,1.7,1.0,1.3,4*31
$GPGSV,3,1,11,02,09,228,33,07,26,0
49,32,08,59,016,33,10,55,294,32,
0*67
$GPGSV,3,2,11,13,15,102,32,15,08,305,14,24,05,299,31,25,10
,059,32,0*67
$GPGSV,3,3,11,26,2
5,310,33,27,60,308,11,28,65,149,12,0*5A
$BDGSV,1,1,02,08,11,214
,,09,08,255,,0*7A
$GNRMC,151943
.000,A,2959.99995,N,12000.00003,E,0.00,0.00,140121,,,A,V*04
$GN
VTG,0.00,T,,M,0.00,N,0.00,K,A*23

$GNZDA,151943.000,14,01,2021,00,00*46
$GPTXT,01,01,01,ANTENNA
 SHORT*63

$GNGGA,151944.000,,,,,0,02,1.0,,
,,,,*47
$GNGLL,,,,,151944.000,V,N*68
$GNGSA,A,1,13,28,,,,,,,,,
,,1.7,1.0,1.3,1*3E
$GNGSA,A,1,,
,,,,,,,,,,,1.7,1.0,1.3,4*33
$GPGSV,3,1,11,02,09,228,13,07,26,04
9,03,08,58,016,06,10,55,294,08,0
*69
$GPGSV,3,2,11,13,15,102,32,15,08,305,14,24,05,299,31,25,10,
059,03,0*65
$GPGSV,3,3,11,26,25
,310,03,27,60,308,11,28,65,149,12,0*59
$BDGSV,1,1,02,08,11,214,
,09,08,255,,0*7A
$GNRMC,151944.000,V,,,,,,,140121,,,N,V*22
$GN
VTG,,,,,,,,,N*2E
$GNZDA,151944.
000,14,01,2021,00,00*41
$GPTXT,01,01,01,ANTENNA SHORT*63

$GNGGA,151945.000,,,,,0,00,1.0,,
,,,,*44
$GNGLL,,,,,151945.000,V,N*69
$GNGSA,A,1,,,,,,,,,,,,,1.
7,1.0,1.3,1*36
$GNGSA,A,1,,,,,,
,,,,,,,1.7,1.0,1.3,4*33
$GPGSV,3,1,11,02,09,228,13,07,26,049,03
,08,58,016,06,10,55,294,08,0*69

$GPGSV,3,2,11,13,15,102,03,15,08,305,14,24,05,299,06,25,10,059,
03,0*63
$GPGSV,3,3,11,26,25,310
,03,27,60,308,11,28,65,149,12,0*59
$BDGSV,1,1,02,08,11,214,,09,
08,255,,0*7A
$GNRMC,151945.000,
V,,,,,,,140121,,,N,V*23
$GNVTG,,,,,,,,,N*2E
$GNZDA,151945.000,
14,01,2021,00,00*40
$GPTXT,01,01,01,ANTENNA SHORT*63

$GNGGA,151946.000,,,,,0,00,1.0,,
,,,,*47
$GNGLL,,,,,151946.000,V,N*6A
$GNGSA,A,1,,,,,,,,,,,,,1.
7,1.0,1.3,1*36
$GNGSA,A,1,,,,,,
,,,,,,,1.7,1.0,1.3,4*33
$GPGSV,3,1,11,02,09,228,13,07,26,049,03
,08,58,016,06,10,55,294,08,0*69
$GPGSV,3,2,11,13,15,102,03,15,0
8,305,06,24,05,299,06,25,10,059,
03,0*60
$GPGSV,3,3,11,26,25,310,03,27,60,308,11,28,65,149,12,0*
59
$BDGSV,1,1,02,08,11,214,,09,
08,255,,0*7A
$GNRMC,151946.000,V,,,,,,,140121,,,N,V*20
$GNVTG,
,,,,,,,,N*2E
$GNZDA,151946.000,14,01,2021,00,00*43
$GPTXT,01,0
1,01,ANTENNA SHORT*63

$GNGGA,151947.000,,,,,0,00,1.0,,,,,,*46
$GNGLL,,,,,151947.000,V
,N*6B
$GNGSA,A,1,,,,,,,,,,,,,1.
7,1.0,1.3,1*36
$GNGSA,A,1,,,,,,,,,,,,,1.7,1.0,1.3,4*33
$GPGSV,
3,1,11,02,09,228,13,07,26,049,03
,08,58,016,06,10,55,294,08,0*69
$GPGSV,3,2,11,13,15,102,03,15,0
8,305,06,24,05,299,06,25,10,059,
03,0*60
$GPGSV,3,3,11,26,25,310,03,27,60,308,11,28,65,149,12,0*
59
$BDGSV,1,1,02,08,11,214,,09,
08,255,,0*7A
$GNRMC,151947.000,V,,,,,,,140121,,,N,V*21
$GNVTG,
,,,,,,,,N*2E
$GNZDA,151947.000,
14,01,2021,00,00*42
$GPTXT,01,01,01,ANTENNA SHORT*63

$GNGGA,151948.000,,,,,0,00,1.0,,,,,,*49
$GNGLL,,,,,151948.000,V
,N*64
$GNGSA,A,1,,,,,,,,,,,,,1.
7,1.0,1.3,1*36
$GNGSA,A,1,,,,,,,,,,,,,1.7,1.0,1.3,4*33
$GPGSV,
3,1,11,02,09,228,06,07,26,049,03
,08,58,016,06,10,55,294,08,0*6D
$GPGSV,3,2,11,13,15,102,03,15,0
8,305,06,24,05,299,06,25,10,059,03,0*60
$GPGSV,3,3,11,26,25,310
,03,27,60,308,04,28,65,149,03,0*
5D
$BDGSV,1,1,02,08,11,214,,09,08,255,,0*7A
$GNRMC,151948.000,
V,,,,,,,140121,,,N,V*2E
$GNVTG,
,,,,,,,,N*2E
$GNZDA,151948.000,14,01,2021,00,00*4D
$GPTXT,01,0
1,01,ANTENNA SHORT*63

$GNGGA,151949.000,,,,,0,00,1.0,,
,,,,*48
$GNGLL,,,,,151949.000,V,N*65
$GNGSA,A,1,,,,,,,,,,,,,1.
7,1.0,1.3,1*36
$GNGSA,A,1,,,,,,
,,,,,,,1.7,1.0,1.3,4*33
$GPGSV,3,1,11,02,09,228,06,07,26,049,03
,08,58,016,06,10,55,294,08,0*6D
$GPGSV,3,2,11,13,15,102,03,15,0
8,305,06,24,05,299,06,25,10,059,
03,0*60
$GPGSV,3,3,11,26,25,310,11,27,60,309,04,28,65,149,03,0*
5F
$BDGSV,1,1,02,08,11,214,,09,
08,255,,0*7A
$GNRMC,151949.000,V,,,,,,,140121,,,N,V*2F
$GNVTG,
,,,,,,,,N*2E
$GNZDA,151949.000,14,01,2021,00,00*4C
$GPTXT,01,0
1,01,ANTENNA SHORT*63

$GNGGA,151950.000,,,,,0,00,1.0,,
,,,,*40
$GNGLL,,,,,151950.000,V,N*6D
$GNGSA,A,1,,,,,,,,,,,,,1.
7,1.0,1.3,1*36
$GNGSA,A,1,,,,,,
,,,,,,,1.7,1.0,1.3,4*33
$GPGSV,3,1,11,02,09,228,06,07,26,049,03
,08,58,016,06,10,55,294,08,0*6D
$GPGSV,3,2,11,13,15,102,03,15,0
8,305,06,24,05,299,06,25,10,059,
03,0*60
$GPGSV,3,3,11,26,25,310,11,27,60,309,04,28,65,149,03,0*
5F
$BDGSV,1,1,02,08,11,214,,09,
08,255,,0*7A
$GNRMC,151950.000,V,,,,,,,140121,,,N,V*27
$GNVTG,
,,,,,,,,N*2E
$GNZDA,151950.000,14,01,2021,00,00*44
$GPTXT,01,0
1,01,ANTENNA SHORT*63

$GNGGA,151951.000,,,,,0,00,1.0,,
,,,,*41
$GNGLL,,,,,151951.000,V,N*6C
$GNGSA,A,1,,,,,,,,,,,,,1.
7,1.0,1.3,1*36
$GNGSA,A,1,,,,,,
,,,,,,,1.7,1.0,1.3,4*33
$GPGSV,3,1,11,02,09,228,06,07,26,049,03
,08,58,016,06,10,55,294,08,0*6D
$GPGSV,3,2,11,13,15,102,03,15,0
8,305,06,24,05,299,06,25,10,059,
03,0*60
$GPGSV,3,3,11,26,25,310,11,27,60,309,,28,65,149,03,0*5B

$BDGSV,1,1,02,08,11,214,,09,08
,255,,0*7A
$GNRMC,151951.000,V,,,,,,,140121,,,N,V*26
$GNVTG,,,
,,,,,,N*2E
$GNZDA,151951.000,14,01,2021,00,00*45
$GPTXT,01,01,
01,ANTENNA SHORT*63

$GNGGA,151952.000,,,,,0,00,1.0,,
,,,,*42
$GNGLL,,,,,151952.000,V,N*6F
$GNGSA,A,1,,,,,,,,,,,,,1.
7,1.0,1.3,1*36
$GNGSA,A,1,,,,,,
,,,,,,,1.7,1.0,1.3,4*33
$GPGSV,3,1,11,02,09,228,06,07,26,049,,0
8,58,016,06,10,55,294,08,0*6E
$GPGSV,3,2,11,13,15,102,03,15,08,
305,06,24,05,299,06,25,10,059,,0
*63
$GPGSV,3,3,11,26,25,310,,27,60,309,,28,65,149,03,0*5B
$BDG
SV,1,1,02,08,11,214,,09,08,255,,
0*7A
$GNRMC,151952.000,V,,,,,,,140121,,,N,V*25
$GNVTG,,,,,,,,,
N*2E
$GNZDA,151952.000,14,01,2021,00,00*46
$GPTXT,01,01,01,ANT
ENNA SHORT*63

$GNGGA,151953.000,,,,,0,00,1.0,,
,,,,*43
$GNGLL,,,,,151953.000,V,N*6E
$GNGSA,A,1,,,,,,,,,,,,,1.
7,1.0,1.3,1*36
$GNGSA,A,1,,,,,,
,,,,,,,1.7,1.0,1.3,4*33
$GPGSV,3,1,11,02,09,228,06,07,26,049,,0
8,58,016,06,10,55,294,08,0*6E
$GPGSV,3,2,11,13,15,102,,15,08,30
5,06,24,05,299,06,25,10,059,,0*6
0
$GPGSV,3,3,11,26,25,310,,27,60,309,,28,65,149,03,0*5B
$BDGSV
,1,1,02,08,11,214,,09,08,255,,0*
7A
$GNRMC,151953.000,V,,,,,,,140121,,,N,V*24
$GNVTG,,,,,,,,,N*
2E
$GNZDA,151953.000,14,01,2021,00,00*47
$GPTXT,01,01,01,ANTEN
NA SHORT*63

$GNGGA,151954.000,,,,,0,00,1.0,,,,,,*44
$GNGLL,,,,,151954.000,V
,N*69
$GNGSA,A,1,,,,,,,,,,,,,1.
7,1.0,1.3,1*36
$GNGSA,A,1,,,,,,,,,,,,,1.7,1.0,1.3,4*33
$GPGSV,
3,1,11,02,09,228,06,07,26,049,,0
8,58,016,06,10,55,294,04,0*62
$GPGSV,3,2,11,13,15,102,,15,08,30
5,06,24,05,299,06,25,10,059,,0*6
0
$GPGSV,3,3,11,26,25,310,,27,60,309,,28,65,149,03,0*5B
$BDGSV
,1,1,02,08,11,214,,09,08,255,,0*
7A
$GNRMC,151954.000,V,,,,,,,140121,,,N,V*23
$GNVTG,,,,,,,,,N*
2E
$GNZDA,151954.000,14,01,2021,00,00*40
$GPTXT,01,01,01,ANTEN
NA SHORT*63

$GNGGA,151955.000,,,,,0,00,1.0,,
,,,,*45
$GNGLL,,,,,151955.000,V,N*68
$GNGSA,A,1,,,,,,,,,,,,,1.
7,1.0,1.3,1*36
$GNGSA,A,1,,,,,,
,,,,,,,1.7,1.0,1.3,4*33
$GPGSV,3,1,11,02,09,228,06,07,26,049,,0
8,58,016,06,10,55,294,,0*66
$GP
GSV,3,2,11,13,15,102,,15,08,305,06,24,05,299,06,25,10,059,,0*60

$GPGSV,3,3,11,26,25,310,,27,60,
309,,28,65,149,03,0*5B
$BDGSV,1,1,02,08,11,214,,09,08,255,,0*7A

$GNRMC,151955.000,V,,,,,,,1401
21,,,N,V*22
$GNVTG,,,,,,,,,N*2E
$GNZDA,151955.000,14,01,2021,0
0,00*41
$GPTXT,01,01,01,ANTENNA SHORT*63

$GNGGA,151956.000,,,,,0,00,1.0,,,,,,*46
$GNGLL,,,,,151956.000,V
,N*6B
$GNGSA,A,1,,,,,,,,,,,,,1.
7,1.0,1.3,1*36
$GNGSA,A,1,,,,,,,,,,,,,1.7,1.0,1.3,4*33
$GPGSV,
3,1,11,02,09,228,06,07,26,049,,0
8,58,016,,10,55,294,,0*60
$GPGSV,3,2,11,13,15,102,,15,08,305,06
,24,05,299,06,25,10,059,,0*60
$
GPGSV,3,3,11,26,25,310,,27,60,309,,28,65,149,03,0*5B
$BDGSV,1,1
,02,08,11,214,,09,08,255,,0*7A

$GNRMC,151956.000,V,,,,,,,140121,,,N,V*21
$GNVTG,,,,,,,,,N*2E

$GNZDA,151956.000,14,01,2021,00,00*42
$GPTXT,01,01,01,ANTENNA S
HORT*63

$GNGGA,151957.000,,,,,0,00,1.0,,,,,,*47
$GNGLL,,,,,151957.000,V
,N*6A
$GNGSA,A,1,,,,,,,,,,,,,1.
7,1.0,1.3,1*36
$GNGSA,A,1,,,,,,,,,,,,,1.7,1.0,1.3,4*33
$GPGSV,
3,1,11,02,09,228,06,07,26,049,,0
8,58,016,,10,55,294,,0*60
$GPGSV,3,2,11,13,15,102,,15,08,305,06
,24,05,299,06,25,10,059,,0*60
$GPGSV,3,3,11,26,25,310,,27,60,30
9,,28,65,149,03,0*5B
$BDGSV,1,1
,02,08,11,214,,09,08,255,,0*7A
$GNRMC,151957.000,V,,,,,,,140121
,,,N,V*20
$GNVTG,,,,,,,,,N*2E

$GNZDA,151957.000,14,01,2021,00,00*43
$GPTXT,01,01,01,ANTENNA S
HORT*63

$GNGGA,151958.000,,,,,0,00,1.0,,,,,,*48
$GNGLL,,,,,151958.000,V
,N*65
$GNGSA,A,1,,,,,,,,,,,,,1.
7,1.0,1.3,1*36
$GNGSA,A,1,,,,,,,,,,,,,1.7,1.0,1.3,4*33
$GPGSV,
3,1,11,02,09,228,06,07,26,049,,0
8,58,016,,10,55,294,,0*60
$GPGSV,3,2,11,13,15,102,,15,08,305,06
,24,05,299,04,25,10,059,,0*62
$GPGSV,3,3,11,26,25,310,,27,60,30
9,,28,65,149,06,0*5E
$BDGSV,1,1
,02,08,11,214,,09,08,255,,0*7A
$GNRMC,151958.000,V,,,,,,,140121
,,,N,V*2F
$GNVTG,,,,,,,,,N*2E

$GNZDA,151958.000,14,01,2021,00,00*4C
$GPTXT,01,01,01,ANTENNA S
HORT*63

$GNGGA,151959.000,,,,,0,00,1.0,,,,,,*49
$GNGLL,,,,,151959.000,V
,N*64
$GNGSA,A,1,,,,,,,,,,,,,1.
7,1.0,1.3,1*36
$GNGSA,A,1,,,,,,,,,,,,,1.7,1.0,1.3,4*33
$GPGSV,
3,1,11,02,09,228,06,07,26,049,,0
8,58,016,,10,55,294,,0*60
$GPGSV,3,2,11,13,15,102,,15,08,305,06
,24,05,299,04,25,10,059,,0*62
$
GPGSV,3,3,11,26,25,310,,27,60,309,,28,65,149,06,0*5E
$BDGSV,1,1
,02,08,11,214,,09,08,255,,0*7A

$GNRMC,151959.000,V,,,,,,,140121,,,N,V*2E
$GNVTG,,,,,,,,,N*2E

$GNZDA,151959.000,14,01,2021,00,
