,,25,10,059,35,26,25,310,35,0*63

$GPGSV,3,3,10,27,60,308,36,28,64,150,36,0*60
$BDGSV,1,1,01,08,11,214,31,0*48
$GNRMC,151904.000,A,3000.00233,N,12000.00430,E,0.01,205.46,140121,,,A,V*04
$GNVTG,205.46,T,,M,0.01,N,0.01,K,A*26
$GNZDA,151904.000,14,01,2021,00,00*45
$GPTXT,01,01,01,ANTENNA SHORT*63

$GNGGA,151905.000,3000.00213,N,12000.00365,E,1,07,2.4,-7.4,M,7.2,M,,*51
$GNGLL,3000.00213,N,12000.00365,E,151905.000,A,A*4E
$GNGSA,A,3,08,10,15,26,27,28,,,,,,,3.3,2.4,2.3,1*30
$GNGSA,A,3,08,,,,,,,,,,,,3.3,2.4,2.3,4*3B
$GPGSV,3,1,10,02,,,34,08,59,015,36,10,55,295,36,13,,,35,0*68
$GPGSV,3,2,10,15,08,304,34,24,05,300,,25,10,059,35,26,25,310,35,0*62

$GPGSV,3,3,10,27,60,308,36,28,64,150,36,0*60
$BDGSV,1,1,01,08,11,214,31,0*48
$GNRMC,151905.000,A,3000.00213,N,12000.00365,E,0.09,205.46,140121,,,A,V*08
$GNVTG,205.46,T,,M,0.09,N,0.16,K,A*28
$GNZDA,151905.000,14,01,2021,00,00*44
$GPTXT,01,01,01,ANTENNA SHORT*63

$GNGGA,151906.000,3000.00191,N,1
2000.00308,E,1,07,2.4,-7.7,M,7.2
,M,,*53
$GNGLL,3000.00191,N,120
00.00308,E,151906.000,A,A*4F
$GNGSA,A,3,08,10,15,26,27,28,,,,,,
,3.3,2.4,2.3,1*30
$GNGSA,A,3,08,,,,,,,,,,,,3.3,2.4,2.3,4*3B
$G
PGSV,3,1,10,02,,,35,08,59,015,36
,10,55,295,36,13,,,35,0*69
$GPG
SV,3,2,10,15,08,304,34,24,05,300
,,25,10,059,35,26,25,310,35,0*62

$GPGSV,3,3,10,27,60,308,36,28,
64,150,36,0*60
$BDGSV,1,1,01,08
,11,214,31,0*48
$GNRMC,151906.000,A,3000.00191,N,12000.00308,E,
0.04,205.46,140121,,,A,V*04
$GN
VTG,205.46,T,,M,0.04,N,0.07,K,A*
25
$GNZDA,151906.000,14,01,2021
,00,00*47
$GPTXT,01,01,01,ANTENNA SHORT*63

$GNGGA,151907.000,3000.00169,N,1
2000.00254,E,1,07,2.4,-8.1,M,7.2
,M,,*54
$GNGLL,3000.00169,N,120
00.00254,E,151907.000,A,A*41
$G
NGSA,A,3,08,10,15,26,27,28,,,,,,
,3.3,2.4,2.3,1*30
$GNGSA,A,3,08,,,,,,,,,,,,3.3,2.4,2.3,4*3B
$G
PGSV,3,1,10,02,,,35,08,59,015,36
,10,55,295,36,13,,,35,0*69
$GPG
SV,3,2,10,15,08,304,34,24,05,300
,,25,10,059,35,26,25,310,35,0*62

$GPGSV,3,3,10,27,60,308,36,28,
64,150,36,0*60
$BDGSV,1,1,01,08
,11,214,31,0*48
$GNRMC,151907.000,A,3000.00169,N,12000.00254,E,
0.05,205.46,140121,,,A,V*0B
$GN
VTG,205.46,T,,M,0.05,N,0.10,K,A*22
$GNZDA,151907.000,14,01,2021
,00,00*46
$GPTXT,01,01,01,ANTENNA SHORT*63

$GNGGA,151908.000,3000.00140,N,1
2000.00212,E,1,07,2.4,-8.3,M,7.2,M,,*50
$GNGLL,3000.00140,N,120
00.00212,E,151908.000,A,A*47
$G
NGSA,A,3,08,10,15,26,27,28,,,,,,
,3.3,2.4,2.3,1*30
$GNGSA,A,3,08
,,,,,,,,,,,,3.3,2.4,2.3,4*3B
$G
PGSV,3,1,10,02,,,35,08,59,015,36
,10,55,295,36,13,,,35,0*69
$GPGSV,3,2,10,15,08,304,35,24,05,300
,,25,10,059,35,26,25,310,35,0*63

$GPGSV,3,3,10,27,60,308,36,28,
64,150,36,0*60
$BDGSV,1,1,01,08
,11,214,31,0*48
$GNRMC,151908.0
00,A,3000.00140,N,12000.00212,E,
0.00,205.46,140121,,,A,V*08
$GN
VTG,205.46,T,,M,0.00,N,0.00,K,A*26
$GNZDA,151908.000,14,01,2021
,00,00*49
$GPTXT,01,01,01,ANTENNA SHORT*63

$GNGGA,151909.000,3000.00110,N,1
2000.00183,E,1,07,2.4,-8.6,M,7.2,M,,*5A
$GNGLL,3000.00110,N,120
00.00183,E,151909.000,A,A*48
$G
NGSA,A,3,08,10,15,26,27,28,,,,,,
,3.3,2.4,2.3,1*30
$GNGSA,A,3,08
,,,,,,,,,,,,3.3,2.4,2.3,4*3B
$G
PGSV,3,1,10,02,,,34,08,59,015,36
,10,55,295,36,13,,,35,0*68
$GPGSV,3,2,10,15,08,304,35,24,05,300
,,25,10,059,35,26,25,310,35,0*63

$GPGSV,3,3,10,27,60,308,36,28,
64,150,36,0*60
$BDGSV,1,1,01,08
,11,214,31,0*48
$GNRMC,151909.0
00,A,3000.00110,N,12000.00183,E,
0.00,205.46,140121,,,A,V*07
$GN
VTG,205.46,T,,M,0.00,N,0.00,K,A*26
$GNZDA,151909.000,14,01,2021
,00,00*48
$GPTXT,01,01,01,ANTENNA SHORT*63

$GNGGA,151910.000,3000.00087,N,1
2000.00156,E,1,07,2.4,-8.8,M,7.2,M,,*5B
$GNGLL,3000.00087,N,120
00.00156,E,151910.000,A,A*47
$G
NGSA,A,3,08,10,15,26,27,28,,,,,,
,3.3,2.4,2.3,1*30
$GNGSA,A,3,08
,,,,,,,,,,,,3.3,2.4,2.3,4*3B
$G
PGSV,3,1,11,02,,,34,07,,,34,08,5
9,015,36,10,55,295,36,0*6D
$GPGSV,3,2,11,13,,,35,15,08,304,35,2
4,05,300,,25,10,059,35,0*51
$GP
GSV,3,3,11,26,25,310,35,27,60,30
8,36,28,64,150,36,0*56
$BDGSV,1
,1,01,08,11,214,31,0*48
$GNRMC,
151910.000,A,3000.00087,N,12000.00156,E,0.00,205.46,140121,,,A,V
*08
$GNVTG,205.46,T,,M,0.00,N,0.00,K,A*26
$GNZDA,151910.000,14
,01,2021,00,00*40
$GPTXT,01,01,01,ANTENNA SHORT*63

$GNGGA,151911.000,3000.00073,N,12000.00142,E,1,07,2.4,-8.8,M,7.2
,M,,*54
$GNGLL,3000.00073,N,120
00.00142,E,151911.000,A,A*48
$G
NGSA,A,3,08,10,15,26,27,28,,,,,,
,3.3,2.4,2.3,1*30
$GNGSA,A,3,08
,,,,,,,,,,,,3.3,2.4,2.3,4*3B
$G
PGSV,3,1,11,02,,,34,07,,,34,08,5
9,015,36,10,55,295,36,0*6D
$GPGSV,3,2,11,13,,,35,15,08,304,35,2
4,05,300,,25,10,059,35,0*51
$GP
GSV,3,3,11,26,25,310,35,27,60,30
8,36,28,64,150,36,0*56
$BDGSV,1
,1,01,08,11,214,31,0*48
$GNRMC,151911.000,A,3000.00073,N,12000.
00142,E,0.00,205.46,140121,,,A,V
*07
$GNVTG,205.46,T,,M,0.00,N,0
.00,K,A*26
$GNZDA,151911.000,14
,01,2021,00,00*41
$GPTXT,01,01,01,ANTENNA SHORT*63

$GNGGA,151912.000,3000.00066,N,1
2000.00137,E,1,07,2.4,-8.8,M,7.2
,M,,*51
$GNGLL,3000.00066,N,12000.00137,E,151912.000,A,A*4D
$G
NGSA,A,3,08,10,15,26,27,28,,,,,,
,3.3,2.4,2.3,1*30
$GNGSA,A,3,08
,,,,,,,,,,,,3.3,2.4,2.3,4*3B
$G
PGSV,3,1,11,02,,,34,07,,,35,08,5
9,015,36,10,55,295,36,0*6C
$GPG
SV,3,2,11,13,,,35,15,08,304,34,2
4,05,300,,25,10,059,35,0*50
$GPGSV,3,3,11,26,25,310,35,27,60,30
8,36,28,64,150,36,0*56
$BDGSV,1
,1,01,08,11,214,31,0*48
$GNRMC,151912.000,A,3000.00066,N,12000.
00137,E,0.00,205.46,140121,,,A,V
*02
$GNVTG,205.46,T,,M,0.00,N,0
.00,K,A*26
$GNZDA,151912.000,14,01,2021,00,00*42
$GPTXT,01,01,
01,ANTENNA SHORT*63

$GNGGA,151913.000,3000.00060,N,1
2000.00131,E,1,07,2.4,-8.8,M,7.2
,M,,*50
$GNGLL,3000.00060,N,120
00.00131,E,151913.000,A,A*4C
$G
NGSA,A,3,08,10,15,26,27,28,,,,,,,3.3,2.4,2.3,1*30
$GNGSA,A,3,08
,,,,,,,,,,,,3.3,2.4,2.3,4*3B
$G
PGSV,3,1,11,02,09,228,34,07,,,35
,08,59,016,36,10,55,295,36,0*5E

$GPGSV,3,2,11,13,,,35,15,08,304
,34,24,05,300,34,25,10,059,35,0*
57
$GPGSV,3,3,11,26,25,310,35,2
7,60,308,36,28,64,149,36,0*5E
$BDGSV,1,1,01,08,11,214,31,0*48

$GNRMC,151913.000,A,3000.00060,N
,12000.00131,E,0.00,205.46,14012
1,,,A,V*03
$GNVTG,205.46,T,,M,0
.00,N,0.00,K,A*26
$GNZDA,151913
.000,14,01,2021,00,00*43
$GPTXT
,01,01,01,ANTENNA SHORT*63

$GNGGA,151914.000,3000.00051,N,1
2000.00118,E,1,07,2.4,-8.6,M,7.2
,M,,*50
$GNGLL,3000.00051,N,120
00.00118,E,151914.000,A,A*42
$GNGSA,A,3,08,10,15,26,27,28,,,,,,
,3.3,2.4,2.3,1*30
$GNGSA,A,3,08
,,,,,,,,,,,,3.3,2.4,2.3,4*3B
$G
PGSV,3,1,11,02,09,228,34,07,,,35
,08,59,016,36,10,55,295,36,0*5E

$GPGSV,3,2,11,13,,,35,15,08,304
,34,24,05,300,34,25,10,059,34,0*56
$GPGSV,3,3,11,26,25,310,35,2
7,60,308,36,28,64,149,36,0*5E
$
BDGSV,1,1,01,08,11,214,31,0*48

$GNRMC,151914.000,A,3000.00051,N
,12000.00118,E,0.00,205.46,14012
1,,,A,V*0D
$GNVTG,205.46,T,,M,0
.00,N,0.00,K,A*26
$GNZDA,151914
.000,14,01,2021,00,00*44
$GPTXT,01,01,01,ANTENNA SHORT*63

$GNGGA,151915.000,3000.00044,N,1
2000.00109,E,1,07,2.4,-8.6,M,7.2
,M,,*55
$GNGLL,3000.00044,N,120
00.00109,E,151915.000,A,A*47
$GNGSA,A,3,08,10,15,26,27,28,,,,,,
,3.3,2.4,2.3,1*30
$GNGSA,A,3,08
,,,,,,,,,,,,3.3,2.4,2.3,4*3B
$G
PGSV,3,1,11,02,09,228,34,07,,,35
,08,59,016,36,10,55,295,36,0*5E

$GPGSV,3,2,11,13,,,35,15,08,304
,34,24,05,300,34,25,10,059,34,0*
56
$GPGSV,3,3,11,26,25,310,35,2
7,60,308,36,28,64,149,36,0*5E
$
BDGSV,1,1,01,08,11,214,31,0*48
$GNRMC,151915.000,A,3000.00044,N
,12000.00109,E,0.00,205.46,140121,,,A,V*08
$GNVTG,205.46,T,,M,0
.00,N,0.00,K,A*26
$GNZDA,151915
.000,14,01,2021,00,00*45
$GPTXT
,01,01,01,ANTENNA SHORT*63

$GNGGA,151916.000,3000.00037,N,12000.00101,E,1,07,2.4,-8.5,M,7.2
,M,,*59
$GNGLL,3000.00037,N,120
00.00101,E,151916.000,A,A*48
$G
NGSA,A,3,08,10,15,26,27,28,,,,,,,3.3,2.4,2.3,1*30
$GNGSA,A,3,08
,,,,,,,,,,,,3.3,2.4,2.3,4*3B
$G
PGSV,3,1,11,02,09,228,34,07,,,35,08,59,016,36,10,55,294,36,0*5F

$GPGSV,3,2,11,13,16,102,35,15,0
8,304,34,24,05,300,34,25,10,059,35,0*63
$GPGSV,3,3,11,26,25,310,35,27,60,308,36,28,64,149,36,0*5E
$BDGSV,1,1,01,08,11,214,31,0
*48
$GNRMC,151916.000,A,3000.00037,N,12000.00101,E,0.00,205.46,
140121,,,A,V*07
$GNVTG,205.46,T
,,M,0.00,N,0.00,K,A*26
$GNZDA,151916.000,14,01,2021,00,00*46
$
GPTXT,01,01,01,ANTENNA SHORT*63

$GNGGA,151917.000,3000.00030,N,1
2000.00079,E,1,08,1.9,-8.1,M,7.2
,M,,*54
$GNGLL,3000.00030,N,12000.00079,E,151917.000,A,A*40
$G
NGSA,A,3,08,10,13,15,26,27,28,,,,,,2.3,1.9,1.3,1*3E
$GNGSA,A,3,
08,,,,,,,,,,,,2.3,1.9,1.3,4*37

$GPGSV,3,1,11,02,09,228,35,07,,,
35,08,59,016,36,10,55,294,36,0*5
E
$GPGSV,3,2,11,13,16,102,35,15
,08,304,34,24,05,300,34,25,10,05
9,35,0*63
$GPGSV,3,3,11,26,25,310,35,27,60,308,36,28,64,149,36,
0*5E
$BDGSV,1,1,01,08,11,214,31
,0*48
$GNRMC,151917.000,A,3000.
00030,N,12000.00079,E,0.00,205.4
6,140121,,,A,V*0F
$GNVTG,205.46
,T,,M,0.00,N,0.00,K,A*26
$GNZDA
,151917.000,14,01,2021,00,00*47

$GPTXT,01,01,01,ANTENNA SHORT*63

$GNGGA,151918.000,3000.00025,N,1
2000.00062,E,1,08,1.9,-7.9,M,7.2
,M,,*52
$GNGLL,3000.00025,N,120
00.00062,E,151918.000,A,A*41
$G
NGSA,A,3,08,10,13,15,26,27,28,,,
4,149,36,0*5E
$BDGSV,1,1,01,08,
11,214,31,0*48
$GNRMC,151927.00
0,A,3000.00006,N,12000.00001,E,0
.00,205.46,140121,,,A,V*06
$GNVTG,205.46,T,,M,0.00,N,0.00,K,A*2
6
$GNZDA,151927.000,14,01,2021,
00,00*44
$GPTXT,01,01,01,ANTENNA SHORT*63

$GNGGA,151928.000,3000.00005,N,1
2000.00000,E,1,10,1.3,-7.2,M,7.2
,M,,*5F
$GNGLL,3000.00005,N,120
00.00000,E,151928.000,A,A*44
$GNGSA,A,3,07,08,10,13,15,25,26,27
,28,,,,1.8,1.3,1.3,1*3C
$GNGSA,
A,3,08,,,,,,,,,,,,1.8,1.3,1.3,4*
35
$GPGSV,3,1,11,02,09,228,35,0
7,26,049,35,08,59,016,36,10,55,2
94,36,0*67
$GPGSV,3,2,11,13,16,
102,35,15,08,305,35,24,05,300,35,25,10,059,35,0*62
$GPGSV,3,3,1
1,26,25,310,35,27,60,308,36,28,6
4,149,36,0*5E
$BDGSV,1,1,01,08,11,214,31,0*48
$GNRMC,151928.00
0,A,3000.00005,N,12000.00000,E,0
.00,205.46,140121,,,A,V*0B
$GNV
TG,205.46,T,,M,0.00,N,0.00,K,A*2
6
$GNZDA,151928.000,14,01,2021,00,00*4B
$GPTXT,01,01,01,ANTENN
A SHORT*63

$GNGGA,151929.000,3000.00003,N,11959.99997,E,1,11,0.9,-7.2,M,7.2
,M,,*53
$GNGLL,3000.00003,N,119
59.99997,E,151929.000,A,A*42
$G
NGSA,A,3,02,07,08,10,13,15,25,26,27,28,,,1.4,0.9,1.0,1*3A
$GNGS
A,A,3,08,,,,,,,,,,,,1.4,0.9,1.0,
4*31
$GPGSV,3,1,11,02,09,228,35,07,26,049,35,08,59,016,36,10,55
,294,36,0*67
$GPGSV,3,2,11,13,1
6,102,35,15,08,305,35,24,05,300,35,25,10,059,35,0*62
$GPGSV,3,3
,11,26,25,310,35,27,60,308,36,28
,64,149,36,0*5E
$BDGSV,1,1,01,0
8,11,214,31,0*48
$GNRMC,151929.000,A,3000.00003,N,11959.99997,E
,0.00,205.46,140121,,,A,V*0D
$G
NVTG,205.46,T,,M,0.00,N,0.00,K,A
*26
$GNZDA,151929.000,14,01,202
1,00,00*4A
$GPTXT,01,01,01,ANTENNA SHORT*63

59.99991,E,151933.000,A,A*4E
$G
NGSA,A,3,02,07,08,10,13,15,25,26
,27,28,,,1.4,0.9,1.0,1*3A
$GNGS
A,A,3,08,,,,,,,,,,,,1.4,0.9,1.0,4*31
$GPGSV,3,1,11,02,09,228,34
,07,26,049,35,08,59,016,36,10,55
,294,36,0*66
$GPGSV,3,2,11,13,1
6,102,35,15,08,305,34,24,05,300,34,25,10,059,34,0*63
$GPGSV,3,3
,11,26,25,310,35,27,60,308,36,28
,64,149,36,0*5E
$BDGSV,1,1,01,08,11,214,31,0*48
$GNRMC,151933.
000,A,2959.99996,N,11959.99991,E
,0.00,205.46,140121,,,A,V*01
$G
NVTG,205.46,T,,M,0.00,N,0.00,K,A
*26
$GNZDA,151933.000,14,01,202
1,00,00*41
$GPTXT,01,01,01,ANTENNA SHORT*63

$GNGGA,151934.000,2959.99994,N,1
1959.99991,E,1,11,0.9,-7.2,M,7.2
,M,,*5A
$GNGLL,2959.99994,N,119
59.99991,E,151934.000,A,A*4B
$G
NGSA,A,3,02,07,08,10,13,15,25,26,27,28,,,1.4,0.9,1.0,1*3A
$GNGS
A,A,3,08,,,,,,,,,,,,1.4,0.9,1.0,4*31
$GPGSV,3,1,11,02,09,228,34
,07,26,049,35,08,59,016,36,10,55
,294,36,0*66
$GPGSV,3,2,11,13,1
6,102,35,15,08,305,34,24,05,300,
34,25,10,059,34,0*63
$GPGSV,3,3
,11,26,25,310,35,27,60,308,36,28
,64,149,36,0*5E
$BDGSV,1,1,01,08,11,214,31,0*48
$GNRMC,151934.
000,A,2959.99994,N,11959.99991,E
,0.00,205.46,140121,,,A,V*04
$G
NVTG,205.46,T,,M,0.00,N,0.00,K,A
*26
$GNZDA,151934.000,14,01,202
1,00,00*46
$GPTXT,01,01,01,ANTENNA SHORT*63

$GNGGA,151935.000,2959.99991,N,1
1959.99991,E,1,11,0.9,-7.2,M,7.2
,M,,*5E
$GNGLL,2959.99991,N,119
59.99991,E,151935.000,A,A*4F
$G
NGSA,A,3,02,07,08,10,13,15,25,26,27,28,,,1.4,0.9,1.0,1*3A
$GNGS
A,A,3,08,,,,,,,,,,,,1.4,0.9,1.0,4*31
$GPGSV,3,1,11,02,09,228,35
34,25,10,059,34,0*63
$GPGSV,3,3
,11,26,25,310,35,27,60,308,36,28
,64,149,36,0*5E
$BDGSV,1,1,01,0
8,11,214,31,0*48
$GNRMC,151936.
000,A,2959.99989,N,11959.99990,E
,0.00,205.46,140121,,,A,V*0B
$GNVTG,205.46,T,,M,0.00,N,0.00,K,A
*26
$GNZDA,151936.000,14,01,202
1,00,00*44
$GPTXT,01,01,01,ANTENNA SHORT*63

$GNGGA,151937.000,2959.99986,N,1
1959.99990,E,1,11,0.9,-7.2,M,7.2,M,,*5B
$GNGLL,2959.99986,N,119
59.99990,E,151937.000,A,A*4A
$G
NGSA,A,3,02,07,08,10,13,15,25,26
,27,28,,,1.4,0.9,1.0,1*3A
$GNGS
A,A,3,08,,,,,,,,,,,,1.4,0.9,1.0,
4*31
$GPGSV,3,1,11,02,09,228,35
,07,26,049,35,08,59,016,36,10,55
,294,36,0*67
$GPGSV,3,2,11,13,16,102,35,15,08,305,34,24,05,300,
34,25,10,059,34,0*63
$GPGSV,3,3
,11,26,25,310,35,27,60,308,36,28,64,149,36,0*5E
$BDGSV,1,1,01,0
8,11,214,31,0*48
$GNRMC,151937.
000,A,2959.99986,N,11959.99990,E
,0.00,205.46,140121,,,A,V*05
$GNVTG,205.46,T,,M,0.00,N,0.00,K,A
*26
$GNZDA,151937.000,14,01,202
1,00,00*45
$GPTXT,01,01,01,ANTENNA SHORT*63

$GNGGA,151938.000,2959.99985,N,1
1959.99990,E,1,11,0.9,-7.2,M,7.2,M,,*57
$GNGLL,2959.99985,N,119
59.99990,E,151938.000,A,A*46
$G
NGSA,A,3,02,07,08,10,13,15,25,26
,27,28,,,1.4,0.9,1.0,1*3A
$GNGS
A,A,3,08,,,,,,,,,,,,1.4,0.9,1.0,
4*31
$GPGSV,3,1,11,02,09,228,35
,07,26,049,35,08,59,016,36,10,55
,294,36,0*67
$GPGSV,3,2,11,13,16,102,35,15,08,305,34,24,05,300,
34,25,10,059,34,0*63
$GPGSV,3,3
,11,26,25,310,35,27,60,308,36,28,64,149,36,0*5E
$BDGSV,1,1,01,0
8,11,214,31,0*48
$GNRMC,151938.
000,A,2959.99985,N,11959.99990,E,0.00,205.46,140121,,,A,V*09
$G
NVTG,205.46,T,,M,0.00,N,0.00,K,A*26
$GNZDA,151938.000,14,01,202
1,00,00*4A
$GPTXT,01,01,01,ANTENNA SHORT*63

$GNGGA,151939.000,2959.99985,N,1
1959.99990,E,1,11,0.9,-7.2,M,7.2,M,,*56
$GNGLL,2959.99985,N,119
59.99990,E,151939.000,A,A*47
$G
NGSA,A,3,02,07,08,10,13,15,25,26
,27,28,,,1.4,0.9,1.0,1*3A
$GNGS
A,A,3,08,,,,,,,,,,,,1.4,0.9,1.0,
4*31
$GPGSV,3,1,11,02,09,228,34
,07,26,049,35,08,59,016,36,10,55,294,36,0*66
$GPGSV,3,2,11,13,1
6,102,35,15,08,305,35,24,05,300,
34,25,10,059,35,0*63
$GPGSV,3,3
,11,26,25,310,35,27,60,308,36,28,64,149,36,0*5E
$BDGSV,1,1,01,0
8,11,214,31,0*48
$GNRMC,151939.
000,A,2959.99985,N,11959.99990,E
,0.00,205.46,140121,,,A,V*08
$GNVTG,205.46,T,,M,0.00,N,0.00,K,A
*26
$GNZDA,151939.000,14,01,202
1,00,00*4B
$GPTXT,01,01,01,ANTENNA SHORT*63

34,25,10,059,35,0*63
$GPGSV,3,3
,11,26,25,310,35,27,60,308,36,28
,64,149,36,0*5E
$BDGSV,1,1,01,0
8,11,214,31,0*48
$GNRMC,151940.
000,A,2959.99985,N,11959.99991,E
,0.00,205.46,140121,,,A,V*07
$GNVTG,205.46,T,,M,0.00,N,0.00,K,A
*26
$GNZDA,151940.000,14,01,202
1,00,00*45
$GPTXT,01,01,01,ANTENNA SHORT*63

$GNGGA,151941.000,2959.99985,N,1
1959.99992,E,1,11,0.9,-7.1,M,7.2,M,,*58
$GNGLL,2959.99985,N,119
59.99992,E,151941.000,A,A*4A
$G
NGSA,A,3,02,07,08,10,13,15,25,26
,27,28,,,1.4,0.9,1.0,1*3A
$GNGS
A,A,3,08,,,,,,,,,,,,1.4,0.9,1.0,
4*31
$GPGSV,3,1,11,02,09,228,35
,07,26,049,35,08,59,016,36,10,55
,294,36,0*67
$GPGSV,3,2,11,13,15,102,35,15,08,305,35,24,05,300,
34,25,10,059,35,0*60
$GPGSV,3,3
,11,26,25,310,35,27,60,308,36,28
,64,149,36,0*5E
$BDGSV,1,1,01,0
8,11,214,31,0*48
$GNRMC,151941.
000,A,2959.99985,N,11959.99992,E
,0.00,205.46,140121,,,A,V*05
$GNVTG,205.46,T,,M,0.00,N,0.00,K,A
*26
$GNZDA,151941.000,14,01,202
1,00,00*44
$GPTXT,01,01,01,ANTENNA SHORT*63

$GNGGA,151942.000,2959.99986,N,1
1959.99992,E,1,11,0.9,-7.1,M,7.2
,M,,*58
$GNGLL,2959.99986,N,11959.99992,E,151942.000,A,A*4A
$G
NGSA,A,3,02,07,08,10,13,15,25,26
,27,28,,,1.4,0.9,1.0,1*3A
$GNGS
A,A,3,08,,,,,,,,,,,,1.4,0.9,1.0,
4*31
$GPGSV,3,1,11,02,09,228,35
,07,26,049,35,08,59,016,36,10,55,294,36,0*67
$GPGSV,3,2,11,13,1
5,102,35,15,08,305,35,24,05,300,
34,25,10,059,35,0*60
$GPGSV,3,3
,11,26,25,310,35,27,60,308,36,28,64,149,36,0*5E
$BDGSV,1,1,01,0
8,11,214,31,0*48
$GNRMC,151942.
000,A,2959.99986,N,11959.99992,E,0.00,205.46,140121,,,A,V*05
$G
NVTG,205.46,T,,M,0.00,N,0.00,K,A*26
$GNZDA,151942.000,14,01,202
1,00,00*47
$GPTXT,01,01,01,ANTENNA SHORT*63

$GNGGA,151943.000,2959.99987,N,1
1959.99993,E,1,11,0.9,-7.1,M,7.2,M,,*59
$GNGLL,2959.99987,N,119
59.99993,E,151943.000,A,A*4B
$G
NGSA,A,3,02,07,08,10,13,15,25,26
,27,28,,,1.4,0.9,1.0,1*3A
$GNGSA,A,3,08,,,,,,,,,,,,1.4,0.9,1.0,
4*31
$GPGSV,3,1,11,02,09,228,35
,07,26,049,35,08,59,016,36,10,55
,294,36,0*67
$GPGSV,3,2,11,13,15,102,35,15,08,305,35,24,05,300,
34,25,10,059,34,0*61
$GPGSV,3,3
,11,26,25,310,35,27,60,308,36,28,65,149,36,0*5F
$BDGSV,1,1,01,0
8,11,214,31,0*48
$GNRMC,151943.
000,A,2959.99987,N,11959.99993,E
,0.00,205.46,140121,,,A,V*04
$GNVTG,205.46,T,,M,0.00,N,0.00,K,A
*26
$GNZDA,151943.000,14,01,202
1,00,00*46
$GPTXT,01,01,01,ANTENNA SHORT*63

$GNGGA,151944.000,2959.99988,N,1
1959.99993,E,1,12,0.9,-7.1,M,7.2
,M,,*52
$GNGLL,2959.99988,N,119
59.99993,E,151944.000,A,A*43
$G
NGSA,A,3,02,07,08,10,13,15,24,25
,26,27,28,,1.3,0.9,1.0,1*3B
$GN
GSA,A,3,08,,,,,,,,,,,,1.3,0.9,1.0,4*36
$GPGSV,3,1,11,02,09,228,
34,07,26,049,35,08,58,016,36,10,
55,294,36,0*67
$GPGSV,3,2,11,13
,15,102,35,15,08,305,35,24,05,299,34,25,10,059,34,0*60
$GPGSV,3
,3,11,26,25,310,35,27,60,308,36,
28,65,149,36,0*5F
$BDGSV,1,1,01
,08,11,214,31,0*48
$GNRMC,151944.000,A,2959.99988,N,11959.99993
,E,0.00,205.46,140121,,,A,V*0C

$GNVTG,205.46,T,,M,0.00,N,0.00,K
,A*26
$GNZDA,151944.000,14,01,2
021,00,00*41
$GPTXT,01,01,01,ANTENNA SHORT*63

$GNGGA,151945.000,2959.99989,N,1
1959.99994,E,1,12,0.9,-7.1,M,7.2
,M,,*55
$GNGLL,2959.99989,N,119
59.99994,E,151945.000,A,A*44
$G
NGSA,A,3,02,07,08,10,13,15,24,25
,26,27,28,,1.3,0.9,1.0,1*3B
$GN
GSA,A,3,08,,,,,,,,,,,,1.3,0.9,1.
0,4*36
$GPGSV,3,1,11,02,09,228,34,07,26,049,35,08,58,016,36,10,
55,294,36,0*67
$GPGSV,3,2,11,13
,15,102,35,15,08,305,35,24,05,299,34,25,10,059,34,0*60
$GPGSV,3
,3,11,26,25,310,35,27,60,308,36,
28,65,149,36,0*5F
$BDGSV,1,1,01
,08,11,214,31,0*48
$GNRMC,151945.000,A,2959.99989,N,11959.99994
,E,0.00,205.46,140121,,,A,V*0B

$GNVTG,205.46,T,,M,0.00,N,0.00,K
,A*26
$GNZDA,151945.000,14,01,2021,00,00*40
$GPTXT,01,01,01,AN
TENNA SHORT*63

$GNGGA,151946.000,2959.99990,N,1
1959.99994,E,1,12,0.9,-7.1,M,7.2,M,,*5E
$GNGLL,2959.99990,N,119
59.99994,E,151946.000,A,A*4F
$G
NGSA,A,3,02,07,08,10,13,15,24,25,26,27,28,,1.3,0.9,1.0,1*3B
$GN
GSA,A,3,08,,,,,,,,,,,,1.3,0.9,1.
0,4*36
$GPGSV,3,1,11,02,09,228,
34,07,26,049,35,08,58,016,36,10,55,294,36,0*67
$GPGSV,3,2,11,13
,15,102,35,15,08,305,35,24,05,29
9,34,25,10,059,34,0*60
$GPGSV,3
,3,11,26,25,310,35,27,60,308,36,28,65,149,36,0*5F
$BDGSV,1,1,01
,08,11,214,31,0*48
$GNRMC,15194
6.000,A,2959.99990,N,11959.99994,E,0.00,205.46,140121,,,A,V*00

$GNVTG,205.46,T,,M,0.00,N,0.00,K
,A*26
$GNZDA,151946.000,14,01,2
021,00,00*43
$GPTXT,01,01,01,ANTENNA SHORT*63

$GNGGA,151947.000,2959.99990,N,11959.99994,E,1,12,0.9,-7.0,M,7.2
,M,,*5E
$GNGLL,2959.99990,N,119
59.99994,E,151947.000,A,A*4E
$G
NGSA,A,3,02,07,08,10,13,15,24,25,26,27,28,,1.3,0.9,1.0,1*3B
$GN
GSA,A,3,08,,,,,,,,,,,,1.3,0.9,1.
0,4*36
$GPGSV,3,1,11,02,09,228,
34,07,26,049,35,08,58,016,36,10,55,294,36,0*67
$GPGSV,3,2,11,13
,15,102,35,15,08,305,34,24,05,29
9,34,25,10,059,34,0*61
$GPGSV,3,3,11,26,25,310,35,27,60,308,36,
28,65,149,36,0*5F
$BDGSV,1,1,01
,08,11,214,31,0*48
$GNRMC,15194
7.000,A,2959.99990,N,11959.99994,E,0.00,205.46,140121,,,A,V*01

$GNVTG,205.46,T,,M,0.00,N,0.00,K
,A*26
$GNZDA,151947.000,14,01,2
021,00,00*42
$GPTXT,01,01,01,ANTENNA SHORT*63

$GNGGA,151948.000,2959.99991,N,1
1959.99993,E,1,12,0.9,-7.0,M,7.2,M,,*57
$GNGLL,2959.99991,N,119
59.99993,E,151948.000,A,A*47
$G
NGSA,A,3,02,07,08,10,13,15,24,25,26,27,28,,1.3,0.9,1.0,1*3B
$GN
GSA,A,3,08,,,,,,,,,,,,1.3,0.9,1.
0,4*36
$GPGSV,3,1,11,02,09,228,
34,07,26,049,35,08,58,016,36,10,55,294,36,0*67
$GPGSV,3,2,11,13
,15,102,35,15,08,305,34,24,05,29
9,34,25,10,059,34,0*61
$GPGSV,3
,3,11,26,25,310,35,27,60,308,36,28,65,149,36,0*5F
$BDGSV,1,1,01
,08,11,214,31,0*48
$GNRMC,15194
8.000,A,2959.99991,N,11959.99993,E,0.00,205.46,140121,,,A,V*08

$GNVTG,205.46,T,,M,0.00,N,0.00,K
,A*26
$GNZDA,151948.000,14,01,2
021,00,00*4D
$GPTXT,01,01,01,ANTENNA SHORT*63

$GNGGA,151949.000,2959.99992,N,1
1959.99993,E,1,12,0.9,-7.0,M,7.2,M,,*55
$GNGLL,2959.99992,N,119
59.99993,E,151949.000,A,A*45
$G
NGSA,A,3,02,07,08,10,13,15,24,25,26,27,28,,1.3,0.9,1.0,1*3B
$GN
GSA,A,3,08,,,,,,,,,,,,1.3,0.9,1.
0,4*36
$GPGSV,3,1,11,02,09,228,
34,07,26,049,35,08,58,016,36,10,55,294,36,0*67
$GPGSV,3,2,11,13
,15,102,35,15,08,305,34,24,05,29
9,34,25,10,059,34,0*61
$GPGSV,3,3,11,26,25,310,35,27,60,309,36,
28,65,149,36,0*5E
$BDGSV,1,1,01,08,11,214,31,0*48
$GNRMC,15194
9.000,A,2959.99992,N,11959.99993
,E,0.00,205.46,140121,,,A,V*0A
$GNVTG,205.46,T,,M,0.00,N,0.00,K
,A*26
$GNZDA,151949.000,14,01,2
021,00,00*4C
$GPTXT,01,01,01,ANTENNA SHORT*63

$GNGGA,151950.000,2959.99993,N,1
1959.99993,E,1,12,0.9,-6.9,M,7.2,M,,*54
$GNGLL,2959.99993,N,119
59.99993,E,151950.000,A,A*4C
$GNGSA,A,3,02,07,08,10,13,15,24,25
,26,27,28,,1.3,0.9,1.0,1*3B
$GN
GSA,A,3,08,,,,,,,,,,,,1.3,0.9,1.0,4*36
$GPGSV,3,1,11,02,09,228,
34,07,26,049,35,08,58,016,36,10,
55,294,36,0*67
$GPGSV,3,2,11,13
,15,102,35,15,08,305,34,24,05,299,34,25,10,059,34,0*61
$GPGSV,3
,3,11,26,25,310,35,27,60,309,36,
28,65,149,36,0*5E
$BDGSV,1,1,01,08,11,214,31,0*48
$GNRMC,15195
0.000,A,2959.99993,N,11959.99993
,E,0.00,205.46,140121,,,A,V*03

$GNVTG,205.46,T,,M,0.00,N,0.00,K
,A*26
$GNZDA,151950.000,14,01,2
021,00,00*44
$GPTXT,01,01,01,ANTENNA SHORT*63

$GNGGA,151951.000,2959.99995,N,1
1959.99993,E,1,12,0.9,-6.9,M,7.2
,M,,*53
$GNGLL,2959.99995,N,11959.99993,E,151951.000,A,A*4B
$G
NGSA,A,3,02,07,08,10,13,15,24,25
,26,27,28,,1.3,0.9,1.0,1*3B
$GN
GSA,A,3,08,,,,,,,,,,,,1.3,0.9,1.0,4*36
$GPGSV,3,1,11,02,09,228,
34,07,26,049,35,08,58,016,36,10,
55,294,36,0*67
$GPGSV,3,2,11,13,15,102,35,15,08,305,34,24,05,29
9,35,25,10,059,34,0*60
$GPGSV,3
,3,11,26,25,310,35,27,60,309,36,
28,65,149,36,0*5E
$BDGSV,1,1,01,08,11,214,31,0*48
$GNRMC,15195
1.000,A,2959.99995,N,11959.99993
,E,0.00,205.46,140121,,,A,V*04

$GNVTG,205.46,T,,M,0.00,N,0.00,K,A*26
$GNZDA,151951.000,14,01,2
021,00,00*45
$GPTXT,01,01,01,ANTENNA SHORT*63

$GNGGA,151952.000,2959.99996,N,1
1959.99993,E,1,12,0.9,-6.9,M,7.2,M,,*53
$GNGLL,2959.99996,N,119
59.99993,E,151952.000,A,A*4B
$G
NGSA,A,3,02,07,08,10,13,15,24,25
,26,27,28,,1.3,0.9,1.0,1*3B
$GNGSA,A,3,08,,,,,,,,,,,,1.3,0.9,1.
0,4*36
$GPGSV,3,1,11,02,09,228,
35,07,26,049,35,08,58,016,36,10,55,294,36,0*66
$GPGSV,3,2,11,13
,15,102,35,15,08,305,34,24,05,29
9,35,25,10,059,34,0*60
$GPGSV,3
,3,11,26,25,310,35,27,60,309,36,
28,65,149,36,0*5E
$BDGSV,1,1,01,08,11,214,31,0*48
$GNRMC,15195
2.000,A,2959.99996,N,11959.99993
,E,0.00,205.46,140121,,,A,V*04

$GNVTG,205.46,T,,M,0.00,N,0.00,K
,A*26
$GNZDA,151952.000,14,01,2
021,00,00*46
$GPTXT,01,01,01,ANTENNA SHORT*63

$GNGGA,151953.000,2959.99997,N,11959.99993,E,1,12,0.9,-6.9,M,7.2
,M,,*53
$GNGLL,2959.99997,N,119
59.99993,E,151953.000,A,A*4B
$G
NGSA,A,3,02,07,08,10,13,15,24,25
,26,27,28,,1.3,0.9,1.0,1*3B
$GN
GSA,A,3,08,,,,,,,,,,,,1.3,0.9,1.0,4*36
$GPGSV,3,1,11,02,09,228,
35,07,26,049,35,08,58,016,36,10,
55,294,36,0*66
$GPGSV,3,2,11,13
,15,102,35,15,08,305,34,24,05,299,35,25,10,059,34,0*60
$GPGSV,3
,3,11,26,25,310,35,27,60,309,36,
28,65,149,36,0*5E
$BDGSV,1,1,01,08,11,214,31,0*48
$GNRMC,15195
3.000,A,2959.99997,N,11959.99993,E,0.00,205.46,140121,,,A,V*04

$GNVTG,205.46,T,,M,0.00,N,0.00,K
,A*26
$GNZDA,151953.000,14,01,2
021,00,00*47
$GPTXT,01,01,01,ANTENNA SHORT*63

$GNGGA,151954.000,2959.99999,N,1
1959.99992,E,1,12,0.9,-6.9,M,7.2
,M,,*5B
$GNGLL,2959.99999,N,119
59.99992,E,151954.000,A,A*43
$G
NGSA,A,3,02,07,08,10,13,15,24,25
,26,27,28,,1.3,0.9,1.0,1*3B
$GN
GSA,A,3,08,,,,,,,,,,,,1.3,0.9,1.0,4*36
$GPGSV,3,1,11,02,09,228,
35,07,26,049,35,08,58,016,36,10,
55,294,36,0*66
$GPGSV,3,2,11,13,15,102,35,15,08,305,34,24,05,29
9,34,25,10,059,34,0*61
$GPGSV,3
,3,11,26,25,310,35,27,60,309,36,
28,65,149,36,0*5E
$BDGSV,1,1,01,08,11,214,31,0*48
$GNRMC,15195
4.000,A,2959.99999,N,11959.99992
,E,0.00,205.46,140121,,,A,V*0C

$GNVTG,205.46,T,,M,0.00,N,0.00,K
,A*26
$GNZDA,151954.000,14,01,2
021,00,00*40
$GPTXT,01,01,01,ANTENNA SHORT*63

$GNGGA,151955.000,3000.00000,N,1
1959.99993,E,1,12,0.9,-6.8,M,7.2
,M,,*57
$GNGLL,3000.00000,N,119
59.99993,E,151955.000,A,A*4E
$G
NGSA,A,3,02,07,08,10,13,15,24,25,26,27,28,,1.3,0.9,1.0,1*3B
$GN
GSA,A,3,08,,,,,,,,,,,,1.3,0.9,1.
0,4*36
$GPGSV,3,1,11,02,09,228,35,07,26,049,35,08,58,016,36,10,
55,294,36,0*66
$GPGSV,3,2,11,13
,15,102,35,15,08,305,34,24,05,299,34,25,10,059,34,0*61
$GPGSV,3
,3,11,26,25,310,35,27,60,309,36,
28,65,149,36,0*5E
$BDGSV,1,1,01
,08,11,214,31,0*48
$GNRMC,15195
5.000,A,3000.00000,N,11959.99993,E,0.00,205.46,140121,,,A,V*01

$GNVTG,205.46,T,,M,0.00,N,0.00,K
,A*26
$GNZDA,151955.000,14,01,2
021,00,00*41
$GPTXT,01,01,01,ANTENNA SHORT*63

$GNGGA,151956.000,3000.00002,N,1
1959.99993,E,1,12,0.9,-6.8,M,7.2
,M,,*56
$GNGLL,3000.00002,N,11959.99993,E,151956.000,A,A*4F
$G
NGSA,A,3,02,07,08,10,13,15,24,25
,26,27,28,,1.3,0.9,1.0,1*3B
$GN
GSA,A,3,08,,,,,,,,,,,,1.3,0.9,1.
0,4*36
$GPGSV,3,1,11,02,09,228,
34,07,26,049,35,08,58,016,36,10,
55,294,36,0*67
$GPGSV,3,2,11,13,15,102,35,15,08,305,34,24,05,29
9,34,25,10,059,34,0*61
$GPGSV,3
,3,11,26,25,310,35,27,60,309,36,
28,65,149,36,0*5E
$BDGSV,1,1,01
,08,11,214,31,0*48
$GNRMC,15195
6.000,A,3000.00002,N,11959.99993,E,0.00,205.46,140121,,,A,V*00

$GNVTG,205.46,T,,M,0.00,N,0.00,K,A*26
$GNZDA,151956.000,14,01,2
021,00,00*42
$GPTXT,01,01,01,ANTENNA SHORT*63

$GNGGA,151957.000,3000.00003,N,1
1959.99993,E,1,12,0.9,-6.8,M,7.2,M,,*56
$GNGLL,3000.00003,N,119
59.99993,E,151957.000,A,A*4F
$G
NGSA,A,3,02,07,08,10,13,15,24,25
,26,27,28,,1.3,0.9,1.0,1*3B
$GN
GSA,A,3,08,,,,,,,,,,,,1.3,0.9,1.
0,4*36
$GPGSV,3,1,11,02,09,228,
34,07,26,049,35,08,58,016,36,10,55,294,36,0*67
$GPGSV,3,2,11,13
,15,102,35,15,08,305,34,24,05,29
9,34,25,10,059,34,0*61
$GPGSV,3
,3,11,26,25,310,35,27,60,309,36,
28,65,149,36,0*5E
$BDGSV,1,1,01
,08,11,214,31,0*48
$GNRMC,151957.000,A,3000.00003,N,11959.99993
,E,0.00,205.46,140121,,,A,V*00
$GNVTG,205.46,T,,M,0.00,N,0.00,K
,A*26
$GNZDA,151957.000,14,01,2
021,00,00*43
$GPTXT,01,01,01,ANTENNA SHORT*63

$GNGGA,151958.000,3000.00004,N,1
1959.99993,E,1,12,0.9,-6.8,M,7.2,M,,*5E
$GNGLL,3000.00004,N,119
59.99993,E,151958.000,A,A*47
$G
NGSA,A,3,02,07,08,10,13,15,24,25
,26,27,28,,1.3,0.9,1.0,1*3B
$GN
GSA,A,3,08,,,,,,,,,,,,1.3,0.9,1.0,4*36
$GPGSV,3,1,11,02,09,228,
34,07,26,049,35,08,58,016,36,10,
55,294,36,0*67
$GPGSV,3,2,11,13
,15,102,35,15,08,305,35,24,05,29
9,35,25,10,059,35,0*60
$GPGSV,3
,3,11,26,25,310,35,27,60,309,36,
28,65,149,36,0*5E
$BDGSV,1,1,01
,08,11,214,31,0*48
$GNRMC,151958.000,A,3000.00004,N,11959.99993
,E,0.00,205.46,140121,,,A,V*08

$GNVTG,205.46,T,,M,0.00,N,0.00,K
,A*26
$GNZDA,151958.000,14,01,2
021,00,00*4C
$GPTXT,01,01,01,ANTENNA SHORT*63

$GNGGA,151959.000,3000.00005,N,1
1959.99994,E,1,12,0.9,-6.8,M,7.2,M,,*59
$GNGLL,3000.00005,N,119
59.99994,E,151959.000,A,A*40
$G
NGSA,A,3,02,07,08,10,13,15,24,25
,26,27,28,,1.3,0.9,1.0,1*3B
$GNGSA,A,3,08,,,,,,,,,,,,1.3,0.9,1.
0,4*36
$GPGSV,3,1,11,02,09,228,
34,07,26,049,35,08,58,016,36,10,55,294,36,0*67
$GPGSV,3,2,11,13
,15,102,35,15,08,305,35,24,05,29
9,35,25,10,059,35,0*60
$GPGSV,3
,3,11,26,25,310,35,27,60,309,36,
28,65,149,36,0*5E
$BDGSV,1,1,01
,08,11,214,31,0*48
$GNRMC,15195
9.000,A,3000.00005,N,11959.99994
,E,0.00,205.46,140121,,,A,V*0F
$GNVTG,205.46,T,,M,0.00,N,0.00,K
,A*26
$GNZDA,151959.000,14,01,2
021,00,00*4D
$GPTXT,01,01,01,ANTENNA SHORT*63

$GNGGA,152000.000,3000.00005,N,1
1959.99994,E,1,12,0.9,-6.8,M,7.2
,M,,*5F
$GNGLL,3000.00005,N,119
59.99994,E,152000.000,A,A*46
$GNGSA,A,3,02,07,08,10,13,15,24,25
,26,27,28,,1.3,0.9,1.0,1*3B
$GN
GSA,A,3,08,,,,,,,,,,,,1.3,0.9,1.0,4*36
$GPGSV,3,1,11,02,09,228,
35,07,26,049,35,08,58,016,36,10,
55,294,36,0*66
$GPGSV,3,2,11,13
,15,102,35,15,08,305,35,24,05,299,35,25,10,059,35,0*60
$GPGSV,3
,3,11,26,25,310,35,27,60,309,36,
28,65,149,36,0*5E
$BDGSV,1,1,01,08,11,214,31,0*48
$GNRMC,15200
0.000,A,3000.00005,N,11959.99994
,E,0.00,205.46,140121,,,A,V*09
$GNVTG,205.46,T,,M,0.00,N,0.00,K
,A*26
$GNZDA,152000.000,14,01,2
021,00,00*4B
$GPTXT,01,01,01,ANTENNA SHORT*63

$GNGGA,152001.000,3000.00006,N,1
1959.99995,E,1,12,0.9,-6.8,M,7.2
,M,,*5C
$GNGLL,3000.00006,N,119
59.99995,E,152001.000,A,A*45
$GNGSA,A,3,02,07,08,10,13,15,24,25
,26,27,28,,1.3,0.9,1.0,1*3B
$GN
GSA,A,3,08,,,,,,,,,,,,1.3,0.9,1.
0,4*36
$GPGSV,3,1,11,02,09,228,35,07,26,049,35,08,58,016,36,10,
55,294,36,0*66
$GPGSV,3,2,11,13
,15,102,35,15,08,305,35,24,05,299,35,25,10,059,35,0*60
$GPGSV,3
,3,11,26,25,310,35,27,60,309,36,
28,65,149,36,0*5E
$BDGSV,1,1,01
,08,11,214,31,0*48
$GNRMC,152001.000,A,3000.00006,N,11959.99995
,E,0.00,205.46,140121,,,A,V*0A

$GNVTG,205.46,T,,M,0.00,N,0.00,K,A*26
$GNZDA,152001.000,14,01,2
021,00,00*4A
$GPTXT,01,01,01,ANTENNA SHORT*63

$GNGGA,152002.000,3000.00007,N,1
1959.99995,E,1,12,0.9,-6.8,M,7.2
,M,,*5E
$GNGLL,3000.00007,N,119
59.99995,E,152002.000,A,A*47
$GNGSA,A,3,02,07,08,10,13,15,24,25
,26,27,28,,1.3,0.9,1.0,1*3B
$GN
GSA,A,3,08,,,,,,,,,,,,1.3,0.9,1.
0,4*36
$GPGSV,3,1,11,02,09,228,35,07,26,049,35,08,58,016,36,10,
55,294,36,0*66
$GPGSV,3,2,11,13
,15,102,35,15,08,305,34,24,05,299,35,25,10,059,34,0*60
$GPGSV,3
,3,11,26,25,310,35,27,60,309,36,
28,65,149,36,0*5E
$BDGSV,1,1,01,08,11,214,31,0*48
$GNRMC,15200
2.000,A,3000.00007,N,11959.99995
,E,0.00,205.46,140121,,,A,V*08

$GNVTG,205.46,T,,M,0.00,N,0.00,K
,A*26
$GNZDA,152002.000,14,01,2
021,00,00*49
$GPTXT,01,01,01,ANTENNA SHORT*63

$GNGGA,152003.000,3000.00007,N,1
1959.99995,E,1,12,0.9,-6.8,M,7.2
,M,,*5F
$GNGLL,3000.00007,N,119
59.99995,E,152003.000,A,A*46
$GNGSA,A,3,02,07,08,10,13,15,24,25
,26,27,28,,1.3,0.9,1.0,1*3B
$GN
GSA,A,3,08,,,,,,,,,,,,1.3,0.9,1.0,4*36
$GPGSV,3,1,11,02,09,228,
35,07,26,049,35,08,58,016,36,10,
55,294,36,0*66
$GPGSV,3,2,11,13
,15,102,35,15,08,305,34,24,05,299,35,25,10,059,34,0*60
$GPGSV,3
,3,11,26,25,310,35,27,60,309,36,
28,65,149,36,0*5E
$BDGSV,1,1,01,08,11,214,31,0*48
$GNRMC,15200
3.000,A,3000.00007,N,11959.99995
,E,0.00,205.46,140121,,,A,V*09
$GNVTG,205.46,T,,M,0.00,N,0.00,K
,A*26
$GNZDA,152003.000,14,01,2021,00,00*48
$GPTXT,01,01,01,AN
TENNA SHORT*63

$GNGGA,152004.000,3000.00008,N,1
1959.99995,E,1,12,0.9,-6.8,M,7.2
,M,,*57
$GNGLL,3000.00008,N,11959.99995,E,152004.000,A,A*4E
$G
NGSA,A,3,02,07,08,10,13,15,24,25
,26,27,28,,1.3,0.9,1.0,1*3B
$GN
GSA,A,3,08,,,,,,,,,,,,1.3,0.9,1.0,4*36
$GPGSV,3,1,11,02,09,228,
35,07,26,049,35,08,58,016,36,10,
55,294,36,0*66
$GPGSV,3,2,11,13
,15,102,35,15,08,305,34,24,05,299,35,25,10,059,34,0*60
$GPGSV,3
,3,11,26,25,310,35,27,60,309,36,
28,65,149,36,0*5E
$BDGSV,1,1,01,08,11,214,31,0*48
$GNRMC,15200
4.000,A,3000.00008,N,11959.99995
,E,0.00,205.46,140121,,,A,V*01

$GNVTG,205.46,T,,M,0.00,N,0.00,K,A*26
$GNZDA,152004.000,14,01,2
021,00,00*4F
$GPTXT,01,01,01,ANTENNA SHORT*63

$GNGGA,152005.000,3000.00008,N,1
1959.99995,E,1,12,0.9,-6.8,M,7.2
,M,,*56
$GNGLL,3000.00008,N,119
59.99995,E,152005.000,A,A*4F
$GNGSA,A,3,02,07,08,10,13,15,24,25
,26,27,28,,1.3,0.9,1.0,1*3B
$GN
GSA,A,3,08,,,,,,,,,,,,1.3,0.9,1.
0,4*36
$GPGSV,3,1,11,02,09,228,
35,07,26,049,35,08,58,016,36,10,
55,294,36,0*66
$GPGSV,3,2,11,13
,15,102,35,15,08,305,34,24,05,299,35,25,10,059,34,0*60
$GPGSV,3
,3,11,26,25,310,35,27,60,309,36,
28,65,149,36,0*5E
$BDGSV,1,1,01
,08,11,214,31,0*48
$GNRMC,152005.000,A,3000.00008,N,11959.99995
,E,0.00,205.46,140121,,,A,V*00

$GNVTG,205.46,T,,M,0.00,N,0.00,K,A*26
$GNZDA,152005.000,14,01,2
021,00,00*4E
$GPTXT,01,01,01,ANTENNA SHORT*63

$GNGGA,152006.000,3000.00008,N,11959.99995,E,1,12,0.9,-6.8,M,7.2
,M,,*55
$GNGLL,3000.00008,N,119
59.99995,E,152006.000,A,A*4C
$GNGSA,A,3,02,07,08,10,13,15,24,25
,26,27,28,,1.3,0.9,1.0,1*3B
$GN
GSA,A,3,08,,,,,,,,,,,,1.3,0.9,1.
0,4*36
$GPGSV,3,1,11,02,09,228,35,07,26,049,35,08,58,016,36,10,
55,294,36,0*66
$GPGSV,3,2,11,13
,15,102,35,15,08,305,35,24,05,299,34,25,10,059,35,0*61
$GPGSV,3
,3,11,26,25,310,35,27,60,309,36,
28,65,149,36,0*5E
$BDGSV,1,1,01
,08,11,214,31,0*48
$GNRMC,15200
6.000,A,3000.00008,N,11959.99995,E,0.00,205.46,140121,,,A,V*03

$GNVTG,205.46,T,,M,0.00,N,0.00,K
,A*26
$GNZDA,152006.000,14,01,2
021,00,00*4D
$GPTXT,01,01,01,ANTENNA SHORT*63

$GNGGA,152007.000,3000.00009,N,1
1959.99995,E,1,12,0.9,-6.8,M,7.2,M,,*55
$GNGLL,3000.00009,N,119
59.99995,E,152007.000,A,A*4C
$G
NGSA,A,3,02,07,08,10,13,15,24,25
,26,27,28,,1.3,0.9,1.0,1*3B
$GNGSA,A,3,08,,,,,,,,,,,,1.3,0.9,1.
0,4*36
$GPGSV,3,1,11,02,09,228,35,07,26,049,35,08,58,016,36,10,
55,294,36,0*66
$GPGSV,3,2,11,13
,15,102,35,15,08,305,35,24,05,299,34,25,10,059,35,0*61
$GPGSV,3
,3,11,26,25,310,35,27,60,309,36,
28,65,149,36,0*5E
$BDGSV,1,1,01
,08,11,214,31,0*48
$GNRMC,152007.000,A,3000.00009,N,11959.99995
,E,0.00,205.46,140121,,,A,V*03

$GNVTG,205.46,T,,M,0.00,N,0.00,K
,A*26
$GNZDA,152007.000,14,01,2
021,00,00*4C
$GPTXT,01,01,01,ANTENNA SHORT*63

$GNGGA,152008.000,3000.00008,N,11959.99995,E,1,12,0.9,-6.8,M,7.2
,M,,*5B
$GNGLL,3000.00008,N,119
59.99995,E,152008.000,A,A*42
$G
NGSA,A,3,02,07,08,10,13,15,24,25
,26,27,28,,1.3,0.9,1.0,1*3B
$GN
GSA,A,3,08,,,,,,,,,,,,1.3,0.9,1.0,4*36
$GPGSV,3,1,11,02,09,228,
35,07,26,049,35,08,58,016,36,10,
55,294,36,0*66
$GPGSV,3,2,11,13
,15,102,35,15,08,305,35,24,05,29
9,34,25,10,059,35,0*61
$GPGSV,3
,3,11,26,25,310,35,27,60,309,36,
28,65,149,36,0*5E
$BDGSV,1,1,01
,08,11,214,31,0*48
$GNRMC,152008.000,A,3000.00008,N,11959.99995
,E,0.00,205.46,140121,,,A,V*0D

$GNVTG,205.46,T,,M,0.00,N,0.00,K,A*26
$GNZDA,152008.000,14,01,2
021,00,00*43
$GPTXT,01,01,01,ANTENNA SHORT*63

$GNGGA,152009.000,3000.00008,N,11959.99995,E,1,12,0.9,-6.8,M,7.2
,M,,*5A
$GNGLL,3000.00008,N,119
59.99995,E,152009.000,A,A*43
$G
NGSA,A,3,02,07,08,10,13,15,24,25,26,27,28,,1.3,0.9,1.0,1*3B
$GN
GSA,A,3,08,,,,,,,,,,,,1.3,0.9,1.
0,4*36
$GPGSV,3,1,11,02,09,228,35,07,26,049,35,08,58,016,36,10,
55,294,36,0*66
$GPGSV,3,2,11,13
,15,102,35,15,08,305,35,24,05,299,34,25,10,059,35,0*61
$GPGSV,3
,3,11,26,25,310,35,27,60,309,36,
28,65,149,36,0*5E
$BDGSV,1,1,01
,08,11,214,31,0*48
$GNRMC,152009.000,A,3000.00008,N,11959.99995
,E,0.00,205.46,140121,,,A,V*0C

$GNVTG,205.46,T,,M,0.00,N,0.00,K
,A*26
$GNZDA,152009.000,14,01,2
021,00,00*42
$GPTXT,01,01,01,ANTENNA SHORT*63

$GNGGA,152010.000,3000.00008,N,1
1959.99995,E,1,12,0.9,-6.8,M,7.2
,M,,*52
$GNGLL,3000.00008,N,11959.99995,E,152010.000,A,A*4B
$G
NGSA,A,3,02,07,08,10,13,15,24,25
,26,27,28,,1.3,0.9,1.0,1*3B
$GN
GSA,A,3,08,,,,,,,,,,,,1.3,0.9,1.0,4*36
$GPGSV,3,1,11,02,09,228,
35,07,26,049,35,08,58,016,36,10,
55,294,36,0*66
$GPGSV,3,2,11,13
,15,102,35,15,08,305,34,24,05,299,34,25,10,059,35,0*60
$GPGSV,3
,3,11,26,25,310,35,27,60,309,36,
28,65,149,36,0*5E
$BDGSV,1,1,01,08,11,214,31,0*48
$GNRMC,15201
0.000,A,3000.00008,N,11959.99995,E,0.00,205.46,140121,,,A,V*04

$GNVTG,205.46,T,,M,0.00,N,0.00,K
,A*26
$GNZDA,152010.000,14,01,2
021,00,00*4A
$GPTXT,01,01,01,ANTENNA SHORT*63

$GNGGA,152011.000,3000.00008,N,1
1959.99995,E,1,12,0.9,-6.8,M,7.2,M,,*53
$GNGLL,3000.00008,N,119
59.99995,E,152011.000,A,A*4A
$G
NGSA,A,3,02,07,08,10,13,15,24,25
,26,27,28,,1.3,0.9,1.0,1*3B
$GN
GSA,A,3,08,,,,,,,,,,,,1.3,0.9,1.0,4*36
$GPGSV,3,1,11,02,09,228,
35,07,26,049,35,08,58,016,36,10,
55,294,36,0*66
$GPGSV,3,2,11,13,15,102,35,15,08,305,34,24,05,29
9,34,25,10,059,35,0*60
$GPGSV,3
,3,11,26,25,310,35,27,60,309,36,28,65,149,36,0*5E
$BDGSV,1,1,01
,08,11,214,31,0*48
$GNRMC,15201
1.000,A,3000.00008,N,11959.99995
,E,0.00,205.46,140121,,,A,V*05
$GNVTG,205.46,T,,M,0.00,N,0.00,K
,A*26
$GNZDA,152011.000,14,01,2
021,00,00*4B
$GPTXT,01,01,01,ANTENNA SHORT*63

$GNGGA,152012.000,3000.00008,N,11959.99995,E,1,12,0.9,-6.7,M,7.2
,M,,*5F
$GNGLL,3000.00008,N,119
59.99995,E,152012.000,A,A*49
$G
NGSA,A,3,02,07,08,10,13,15,24,25,26,27,28,,1.3,0.9,1.0,1*3B
$GN
GSA,A,3,08,,,,,,,,,,,,1.3,0.9,1.
0,4*36
$GPGSV,3,1,11,02,09,228,35,07,26,049,35,08,58,016,36,10,
55,294,36,0*66
$GPGSV,3,2,11,13
,15,102,35,15,08,305,34,24,05,29
9,34,25,10,059,35,0*60
$GPGSV,3
,3,11,26,25,310,35,27,60,309,36,
28,65,149,36,0*5E
$BDGSV,1,1,01
,08,11,214,31,0*48
$GNRMC,15201
2.000,A,3000.00008,N,11959.99995,E,0.00,205.46,140121,,,A,V*06

$GNVTG,205.46,T,,M,0.00,N,0.00,K
,A*26
$GNZDA,152012.000,14,01,2
021,00,00*48
$GPTXT,01,01,01,ANTENNA SHORT*63

$GNGGA,152013.000,3000.00007,N,11959.99995,E,1,12,0.9,-6.7,M,7.2
,M,,*51
$GNGLL,3000.00007,N,119
59.99995,E,152013.000,A,A*47
$GNGSA,A,3,02,07,08,10,13,15,24,25
,26,27,28,,1.3,0.9,1.0,1*3B
$GN
GSA,A,3,08,,,,,,,,,,,,1.3,0.9,1.
0,4*36
$GPGSV,3,1,11,02,09,228,35,07,26,049,35,08,58,016,36,10,
55,294,36,0*66
$GPGSV,3,2,11,13
,15,102,35,15,08,305,34,24,05,299,34,25,10,059,35,0*60
$GPGSV,3
,3,11,26,25,310,35,27,60,309,36,
28,65,149,36,0*5E
$BDGSV,1,1,01
,08,11,214,31,0*48
$GNRMC,152013.000,A,3000.00007,N,11959.99995
,E,0.00,205.46,140121,,,A,V*08

$GNVTG,205.46,T,,M,0.00,N,0.00,K
,A*26
$GNZDA,152013.000,14,01,2
021,00,00*49
$GPTXT,01,01,01,ANTENNA SHORT*63

$GNGGA,152014.000,3000.00007,N,1
1959.99995,E,1,12,0.9,-6.7,M,7.2
,M,,*56
$GNGLL,3000.00007,N,119
59.99995,E,152014.000,A,A*40
$GNGSA,A,3,02,07,08,10,13,15,24,25
,26,27,28,,1.3,0.9,1.0,1*3B
$GN
GSA,A,3,08,,,,,,,,,,,,1.3,0.9,1.0,4*36
$GPGSV,3,1,11,02,09,228,
35,07,26,049,35,08,58,016,36,10,
55,294,36,0*66
$GPGSV,3,2,11,13
,15,102,35,15,08,305,34,24,05,299,34,25,10,059,35,0*60
$GPGSV,3
,3,11,26,25,310,35,27,60,309,36,
28,65,149,36,0*5E
$BDGSV,1,1,01
,08,11,214,31,0*48
$GNRMC,152014.000,A,3000.00007,N,11959.99995
,E,0.00,205.46,140121,,,A,V*0F

$GNVTG,205.46,T,,M,0.00,N,0.00,K,A*26
$GNZDA,152014.000,14,01,2
021,00,00*4E
$GPTXT,01,01,01,ANTENNA SHORT*63

$GNGGA,152015.000,3000.00007,N,11959.99994,E,1,12,0.9,-6.7,M,7.2
,M,,*56
$GNGLL,3000.00007,N,119
59.99994,E,152015.000,A,A*40
$GNGSA,A,3,02,07,08,10,13,15,24,25
,26,27,28,,1.3,0.9,1.0,1*3B
$GN
GSA,A,3,08,,,,,,,,,,,,1.3,0.9,1.
0,4*36
$GPGSV,3,1,11,02,09,228,
35,07,26,049,35,08,58,016,36,10,55,294,36,0*66
$GPGSV,3,2,11,13
,15,102,35,15,08,305,34,24,05,29
9,34,25,10,059,35,0*60
$GPGSV,3,3,11,26,25,310,35,27,60,309,36,
28,65,149,36,0*5E
$BDGSV,1,1,02
,01,,,32,08,11,214,31,0*4B
$GNRMC,152015.000,A,3000.00007,N,119
59.99994,E,0.00,205.46,140121,,,
A,V*0F
$GNVTG,205.46,T,,M,0.00,N,0.00,K,A*26
$GNZDA,152015.000
,14,01,2021,00,00*4F
$GPTXT,01,01,01,ANTENNA SHORT*63

$GNGGA,152016.000,3000.00007,N,1
1959.99993,E,1,12,0.9,-6.7,M,7.2
,M,,*52
$GNGLL,3000.00007,N,119
59.99993,E,152016.000,A,A*44
$G
NGSA,A,3,02,07,08,10,13,15,24,25,26,27,28,,1.3,0.9,1.0,1*3B
$GN
GSA,A,3,08,,,,,,,,,,,,1.3,0.9,1.
0,4*36
$GPGSV,3,1,11,02,09,228,35,07,25,049,35,08,58,016,36,10,
55,294,36,0*65
$GPGSV,3,2,11,13
,15,102,35,15,08,305,34,24,05,29
9,34,25,10,059,35,0*60
$GPGSV,3,3,11,26,25,311,35,27,60,309,36,
28,65,149,36,0*5F
$BDGSV,1,1,02,01,,,32,08,11,214,31,0*4B
$GNR
MC,152016.000,A,3000.00007,N,119
59.99993,E,0.00,205.46,140121,,,
A,V*0B
$GNVTG,205.46,T,,M,0.00,
N,0.00,K,A*26
$GNZDA,152016.000,14,01,2021,00,00*4C
$GPTXT,01,
01,01,ANTENNA SHORT*63

$GNGGA,152017.000,3000.00007,N,1
1959.99993,E,1,12,0.9,-6.7,M,7.2
,M,,*53
$GNGLL,3000.00007,N,11959.99993,E,152017.000,A,A*45
$G
NGSA,A,3,02,07,08,10,13,15,24,25
,26,27,28,,1.3,0.9,1.0,1*3B
$GNGSA,A,3,08,,,,,,,,,,,,1.3,0.9,1.
0,4*36
$GPGSV,3,1,11,02,09,228,
35,07,25,049,35,08,58,016,36,10,
55,294,36,0*65
$GPGSV,3,2,11,13
,15,102,35,15,08,305,35,24,05,299,34,25,10,059,35,0*61
$GPGSV,3
,3,11,26,25,311,35,27,60,309,36,
28,65,149,36,0*5F
$BDGSV,1,1,02,01,,,32,08,11,214,31,0*4B
$GNR
MC,152017.000,A,3000.00007,N,119
59.99993,E,0.00,205.46,140121,,,
A,V*0A
$GNVTG,205.46,T,,M,0.00,
N,0.00,K,A*26
$GNZDA,152017.000,14,01,2021,00,00*4D
$GPTXT,01,
01,01,ANTENNA SHORT*63

$GNGGA,152018.000,3000.00007,N,1
1959.99993,E,1,12,0.9,-6.7,M,7.2
,M,,*5C
$GNGLL,3000.00007,N,11959.99993,E,152018.000,A,A*4A
$G
NGSA,A,3,02,07,08,10,13,15,24,25
,26,27,28,,1.3,0.9,1.0,1*3B
$GN
GSA,A,3,08,,,,,,,,,,,,1.3,0.9,1.0,4*36
$GPGSV,3,1,11,02,09,228,
35,07,25,049,35,08,58,016,36,10,
55,294,36,0*65
$GPGSV,3,2,11,13
,15,102,35,15,08,305,35,24,05,299,34,25,10,060,35,0*6B
$GPGSV,3
,3,11,26,26,311,35,27,60,309,36,
28,65,149,36,0*5C
$BDGSV,1,1,02,01,,,32,08,11,214,31,0*4B
$GNR
MC,152018.000,A,3000.00007,N,119
59.99993,E,0.00,205.46,140121,,,A,V*05
$GNVTG,205.46,T,,M,0.00,
N,0.00,K,A*26
$GNZDA,152018.000
,14,01,2021,00,00*42
$GPTXT,01,01,01,ANTENNA SHORT*63

$GNGGA,152019.000,3000.00006,N,1
1959.99993,E,1,12,0.9,-6.7,M,7.2,M,,*5C
$GNGLL,3000.00006,N,119
59.99993,E,152019.000,A,A*4A
$G
NGSA,A,3,02,07,08,10,13,15,24,25,26,27,28,,1.3,0.9,1.0,1*3B
$GN
GSA,A,3,08,,,,,,,,,,,,1.3,0.9,1.0,4*36
$GPGSV,3,1,11,02,09,228,
35,07,25,049,35,08,58,016,36,10,
55,294,36,0*65
$GPGSV,3,2,11,13,15,102,35,15,08,305,35,24,05,29
9,34,25,10,060,35,0*6B
$GPGSV,3
,3,11,26,26,311,35,27,60,309,36,
28,65,149,36,0*5C
$BDGSV,1,1,02,01,,,32,08,11,214,31,0*4B
$GNR
MC,152019.000,A,3000.00006,N,119
59.99993,E,0.00,205.46,140121,,,A,V*05
$GNVTG,205.46,T,,M,0.00,
N,0.00,K,A*26
$GNZDA,152019.000
,14,01,2021,00,00*43
$GPTXT,01,01,01,ANTENNA SHORT*63

$GNGGA,152020.000,3000.00006,N,11959.99992,E,1,12,0.9,-6.7,M,7.2
,M,,*57
$GNGLL,3000.00006,N,119
59.99992,E,152020.000,A,A*41
$G
NGSA,A,3,02,07,08,10,13,15,24,25
,26,27,28,,1.3,0.9,1.0,1*3B
$GN
GSA,A,3,08,,,,,,,,,,,,1.3,0.9,1.0,4*36
$GPGSV,3,1,11,02,09,228,
35,07,25,049,35,08,58,016,36,10,
55,294,36,0*65
$GPGSV,3,2,11,13
,15,102,35,15,08,305,35,24,05,299,34,25,10,060,35,0*6B
$GPGSV,3
,3,11,26,26,311,35,27,60,309,36,
28,65,149,36,0*5C
$BDGSV,1,1,02
,01,,,32,08,11,214,31,0*4B
$GNR
MC,152020.000,A,3000.00006,N,11959.99992,E,0.00,205.46,140121,,,
A,V*0E
$GNVTG,205.46,T,,M,0.00,
N,0.00,K,A*26
$GNZDA,152020.000,14,01,2021,00,00*49
$GPTXT,01,
01,01,ANTENNA SHORT*63

$GNGGA,152021.000,3000.00006,N,11959.99992,E,1,12,0.9,-6.7,M,7.2
,M,,*56
$GNGLL,3000.00006,N,119
59.99992,E,152021.000,A,A*40
$GNGSA,A,3,02,07,08,10,13,15,24,25
,26,27,28,,1.3,0.9,1.0,1*3B
$GN
GSA,A,3,08,,,,,,,,,,,,1.3,0.9,1.
0,4*36
$GPGSV,3,1,11,02,09,228,
35,07,25,049,35,08,58,016,36,10,55,294,36,0*65
$GPGSV,3,2,11,13
,15,102,35,15,08,305,34,24,05,29
9,34,25,10,060,34,0*6B
$GPGSV,3,3,11,26,26,311,35,27,60,309,36,
28,65,149,36,0*5C
$BDGSV,1,1,02
,01,,,32,08,11,214,31,0*4B
$GNRMC,152021.000,A,3000.00006,N,119
59.99992,E,0.00,205.46,140121,,,
A,V*0F
$GNVTG,205.46,T,,M,0.00,
N,0.00,K,A*26
$GNZDA,152021.000
,14,01,2021,00,00*48
$GPTXT,01,01,01,ANTENNA SHORT*63

$GNGGA,152022.000,3000.00005,N,1
1959.99992,E,1,12,0.9,-6.7,M,7.2
,M,,*56
$GNGLL,3000.00005,N,119
59.99992,E,152022.000,A,A*40
$GNGSA,A,3,02,07,08,10,13,15,24,25
,26,27,28,,1.3,0.9,1.0,1*3B
$GNGSA,A,3,08,,,,,,,,,,,,1.3,0.9,1.
0,4*36
$GPGSV,3,1,11,02,09,228,
35,07,25,049,35,08,58,016,36,10,55,294,36,0*65
$GPGSV,3,2,11,13
,15,102,35,15,08,305,34,24,05,29
9,34,25,10,060,34,0*6B
$GPGSV,3,3,11,26,26,311,35,27,60,309,36,
28,65,149,36,0*5C
$BDGSV,1,1,02,01,,,32,08,11,214,31,0*4B
$GNR
MC,152022.000,A,3000.00005,N,119
59.99992,E,0.00,205.46,140121,,,A,V*0F
$GNVTG,205.46,T,,M,0.00,
N,0.00,K,A*26
$GNZDA,152022.000
,14,01,2021,00,00*4B
$GPTXT,01,01,01,ANTENNA SHORT*63

$GNGGA,152023.000,3000.00005,N,1
1959.99992,E,1,12,0.9,-6.7,M,7.2,M,,*57
$GNGLL,3000.00005,N,119
59.99992,E,152023.000,A,A*41
$G
NGSA,A,3,02,07,08,10,13,15,24,25,26,27,28,,1.3,0.9,1.0,1*3B
$GN
GSA,A,3,08,,,,,,,,,,,,1.3,0.9,1.
0,4*36
$GPGSV,3,1,11,02,09,228,35,07,25,049,35,08,58,016,36,10,
55,294,36,0*65
$GPGSV,3,2,11,13
,15,102,35,15,08,305,34,24,05,299,34,25,10,060,34,0*6B
$GPGSV,3
,3,11,26,26,311,35,27,60,309,36,
28,65,149,36,0*5C
$BDGSV,1,1,03,01,,,32,02,,,30,08,11,214,31,0*
4B
$GNRMC,152023.000,A,3000.000
05,N,11959.99992,E,0.00,205.46,1
40121,,,A,V*0E
$GNVTG,205.46,T,
,M,0.00,N,0.00,K,A*26
$GNZDA,15
2023.000,14,01,2021,00,00*4A
$GPTXT,01,01,01,ANTENNA SHORT*63

$GNGGA,152024.000,3000.00005,N,1
1959.99992,E,1,12,0.9,-6.7,M,7.2
,M,,*50
$GNGLL,3000.00005,N,119
59.99992,E,152024.000,A,A*46
$GNGSA,A,3,02,07,08,10,13,15,24,25
,26,27,28,,1.3,0.9,1.0,1*3B
$GNGSA,A,3,08,,,,,,,,,,,,1.3,0.9,1.
0,4*36
$GPGSV,3,1,11,02,09,228,
35,07,25,049,35,08,58,016,36,10,
55,294,36,0*65
$GPGSV,3,2,11,13
,15,102,35,15,08,305,35,24,05,299,34,25,10,060,35,0*6B
$GPGSV,3
,3,11,26,26,311,35,27,60,309,36,28,65,149,36,0*5C
$BDGSV,1,1,03
,01,,,32,02,,,30,08,11,214,31,0*
4B
$GNRMC,152024.000,A,3000.000
05,N,11959.99992,E,0.00,205.46,140121,,,A,V*09
$GNVTG,205.46,T,
,M,0.00,N,0.00,K,A*26
$GNZDA,15
2024.000,14,01,2021,00,00*4D
$GPTXT,01,01,01,ANTENNA SHORT*63

$GNGGA,152025.000,3000.00005,N,1
1959.99992,E,1,12,0.9,-6.7,M,7.2,M,,*51
$GNGLL,3000.00005,N,119
59.99992,E,152025.000,A,A*47
$G
NGSA,A,3,02,07,08,10,13,15,24,25,26,27,28,,1.3,0.9,1.0,1*3B
$GN
GSA,A,3,08,,,,,,,,,,,,1.3,0.9,1.
0,4*36
$GPGSV,3,1,11,02,09,228,
35,07,25,049,35,08,58,016,36,10,
55,294,36,0*65
$GPGSV,3,2,11,13
,15,102,35,15,08,305,35,24,05,29
9,35,25,10,060,35,0*6A
$GPGSV,3,3,11,26,26,311,35,27,60,309,36,
28,65,149,36,0*5C
$BDGSV,1,1,03
,01,,,32,02,,,30,08,11,214,31,0*4B
$GNRMC,152025.000,A,3000.000
05,N,11959.99992,E,0.00,205.46,1
40121,,,A,V*08
$GNVTG,205.46,T,,M,0.00,N,0.00,K,A*26
$GNZDA,15
2025.000,14,01,2021,00,00*4C
$G
PTXT,01,01,01,ANTENNA SHORT*63

$GNGGA,152026.000,3000.00005,N,1
1959.99991,E,1,12,0.9,-6.7,M,7.2
,M,,*51
$GNGLL,3000.00005,N,119
59.99991,E,152026.000,A,A*47
$G
NGSA,A,3,02,07,08,10,13,15,24,25,26,27,28,,1.3,0.9,1.0,1*3B
$GN
GSA,A,3,08,,,,,,,,,,,,1.3,0.9,1.
0,4*36
$GPGSV,3,1,11,02,09,228,
35,07,25,049,35,08,58,016,36,10,55,294,36,0*65
$GPGSV,3,2,11,13
,15,102,35,15,08,305,35,24,05,29
9,35,25,10,060,35,0*6A
$GPGSV,3,3,11,26,26,311,35,27,60,309,36,
28,65,149,36,0*5C
$BDGSV,1,1,03
,01,,,32,02,,,30,08,11,214,31,0*4B
$GNRMC,152026.000,A,3000.000
05,N,11959.99991,E,0.00,205.46,1
40121,,,A,V*08
$GNVTG,205.46,T,
,M,0.00,N,0.00,K,A*26
$GNZDA,152026.000,14,01,2021,00,00*4F
$G
PTXT,01,01,01,ANTENNA SHORT*63

$GNGGA,152027.000,3000.00005,N,1
1959.99992,E,1,12,0.9,-6.7,M,7.2,M,,*53
$GNGLL,3000.00005,N,119
59.99992,E,152027.000,A,A*45
$G
NGSA,A,3,02,07,08,10,13,15,24,25,26,27,28,,1.3,0.9,1.0,1*3B
$GN
GSA,A,3,08,,,,,,,,,,,,1.3,0.9,1.
0,4*36
$GPGSV,3,1,11,02,09,228,35,07,25,049,35,08,58,016,36,10,
55,294,36,0*65
$GPGSV,3,2,11,13
,15,102,35,15,08,305,35,24,05,299,35,25,10,060,35,0*6A
$GPGSV,3
,3,11,26,26,311,35,27,60,309,36,
28,65,149,36,0*5C
$BDGSV,1,1,03,01,,,32,02,,,30,08,11,214,31,0*
4B
$GNRMC,152027.000,A,3000.000
05,N,11959.99992,E,0.00,205.46,140121,,,A,V*0A
$GNVTG,205.46,T,
,M,0.00,N,0.00,K,A*26
$GNZDA,15
2027.000,14,01,2021,00,00*4E
$GPTXT,01,01,01,ANTENNA SHORT*63

$GNGGA,152028.000,3000.00005,N,1
1959.99992,E,1,12,0.9,-6.7,M,7.2
,M,,*5C
$GNGLL,3000.00005,N,119
59.99992,E,152028.000,A,A*4A
$G
NGSA,A,3,02,07,08,10,13,15,24,25,26,27,28,,1.3,0.9,1.0,1*3B
$GN
GSA,A,3,08,,,,,,,,,,,,1.3,0.9,1.0,4*36
$GPGSV,3,1,11,02,09,228,
35,07,25,049,35,08,58,016,36,10,
55,294,36,0*65
$GPGSV,3,2,11,13
,15,102,35,15,08,305,34,24,05,29
9,34,25,10,060,34,0*6B
$GPGSV,3,3,11,26,26,311,35,27,60,309,36,
28,65,149,36,0*5C
$BDGSV,1,1,03,01,,,32,02,,,30,08,11,214,31,0*
4B
$GNRMC,152028.000,A,3000.000
05,N,11959.99992,E,0.00,205.46,140121,,,A,V*05
$GNVTG,205.46,T,
,M,0.00,N,0.00,K,A*26
$GNZDA,15
2028.000,14,01,2021,00,00*41
$GPTXT,01,01,01,ANTENNA SHORT*63

$GNGGA,152029.000,3000.00005,N,1
1959.99992,E,1,12,0.9,-6.7,M,7.2
,M,,*5D
$GNGLL,3000.00005,N,119
59.99992,E,152029.000,A,A*4B
$GNGSA,A,3,02,07,08,10,13,15,24,25
,26,27,28,,1.3,0.9,1.0,1*3B
$GN
GSA,A,3,08,,,,,,,,,,,,1.3,0.9,1.0,4*36
$GPGSV,3,1,11,02,09,228,
35,07,25,049,35,08,58,016,36,10,
55,294,36,0*65
$GPGSV,3,2,11,13
,15,103,35,15,08,305,34,24,05,29
9,34,25,10,060,34,0*6A
$GPGSV,3,3,11,26,26,311,35,27,60,309,36,
28,65,149,36,0*5C
$BDGSV,1,1,03
,01,,,32,02,,,30,08,11,214,31,0*4B
$GNRMC,152029.000,A,3000.000
05,N,11959.99992,E,0.00,205.46,1
40121,,,A,V*04
$GNVTG,205.46,T,
,M,0.00,N,0.00,K,A*26
$GNZDA,152029.000,14,01,2021,00,00*40
$G
PTXT,01,01,01,ANTENNA SHORT*63

$GNGGA,152030.000,3000.00005,N,1
1959.99993,E,1,12,0.9,-6.7,M,7.2
,M,,*54
$GNGLL,3000.00005,N,119
59.99993,E,152030.000,A,A*42
$G
NGSA,A,3,02,07,08,10,13,15,24,25
,26,27,28,,1.3,0.9,1.0,1*3B
$GNGSA,A,3,08,,,,,,,,,,,,1.3,0.9,1.
0,4*36
$GPGSV,3,1,11,02,09,228,
35,07,25,049,35,08,58,016,36,10,
55,294,36,0*65
$GPGSV,3,2,11,13
,15,103,35,15,08,305,34,24,05,299,34,25,10,060,34,0*6A
$GPGSV,3
,3,11,26,26,311,35,27,60,309,36,
28,65,149,36,0*5C
$BDGSV,1,1,03,01,,,32,02,,,32,08,11,214,31,0*
49
$GNRMC,152030.000,A,3000.000
05,N,11959.99993,E,0.00,205.46,140121,,,A,V*0D
$GNVTG,205.46,T,
,M,0.00,N,0.00,K,A*26
$GNZDA,15
2030.000,14,01,2021,00,00*48
$GPTXT,01,01,01,ANTENNA SHORT*63

$GNGGA,152031.000,3000.00006,N,1
1959.99993,E,1,12,0.9,-6.7,M,7.2
,M,,*56
$GNGLL,3000.00006,N,11959.99993,E,152031.000,A,A*40
$G
NGSA,A,3,02,07,08,10,13,15,24,25
,26,27,28,,1.3,0.9,1.0,1*3B
$GNGSA,A,3,08,,,,,,,,,,,,1.3,0.9,1.
0,4*36
$GPGSV,3,1,11,02,09,228,
35,07,25,049,35,08,58,016,36,10,55,294,36,0*65
$GPGSV,3,2,11,13
,15,103,35,15,08,305,34,24,05,29
9,34,25,10,060,34,0*6A
$GPGSV,3,3,11,26,26,311,35,27,60,309,36,
28,65,149,36,0*5C
$BDGSV,1,1,03,01,,,32,02,,,32,08,11,214,31,0*
49
$GNRMC,152031.000,A,3000.000
06,N,11959.99993,E,0.00,205.46,1
40121,,,A,V*0F
$GNVTG,205.46,T,,M,0.00,N,0.00,K,A*26
$GNZDA,15
2031.000,14,01,2021,00,00*49
$G
PTXT,01,01,01,ANTENNA SHORT*63

$GNGGA,152032.000,3000.00006,N,1
1959.99994,E,1,12,0.9,-6.7,M,7.2
,M,,*52
$GNGLL,3000.00006,N,119
59.99994,E,152032.000,A,A*44
$G
NGSA,A,3,02,07,08,10,13,15,24,25,26,27,28,,1.3,0.9,1.0,1*3B
$GN
GSA,A,3,08,,,,,,,,,,,,1.3,0.9,1.0,4*36
$GPGSV,3,1,11,02,09,228,
35,07,25,049,35,08,58,016,36,10,
55,294,36,0*65
$GPGSV,3,2,11,13
,15,103,35,15,08,305,35,24,05,29
9,34,25,10,060,35,0*6A
$GPGSV,3,3,11,26,26,311,35,27,60,309,36,
28,65,149,36,0*5C
$BDGSV,1,1,03,01,,,32,02,,,32,08,11,214,31,0*
49
$GNRMC,152032.000,A,3000.000
06,N,11959.99994,E,0.00,205.46,1
40121,,,A,V*0B
$GNVTG,205.46,T,
,M,0.00,N,0.00,K,A*26
$GNZDA,15
2032.000,14,01,2021,00,00*4A
$G
PTXT,01,01,01,ANTENNA SHORT*63

$GNGGA,152033.000,3000.00007,N,1
1959.99994,E,1,12,0.9,-6.7,M,7.2
,M,,*52
$GNGLL,3000.00007,N,119
59.99994,E,152033.000,A,A*44
$G
NGSA,A,3,02,07,08,10,13,15,24,25
,26,27,28,,1.3,0.9,1.0,1*3B
$GNGSA,A,3,08,,,,,,,,,,,,1.3,0.9,1.
0,4*36
$GPGSV,3,1,11,02,09,228,
35,07,25,049,35,08,58,016,36,10,
55,294,36,0*65
$GPGSV,3,2,11,13
,15,103,35,15,08,305,35,24,05,29
9,34,25,10,060,35,0*6A
$GPGSV,3,3,11,26,26,311,35,27,60,309,36,
28,65,149,36,0*5C
$BDGSV,1,1,03,01,,,32,02,,,32,08,11,214,31,0*
49
$GNRMC,152033.000,A,3000.000
07,N,11959.99994,E,0.00,205.46,140121,,,A,V*0B
$GNVTG,205.46,T,
,M,0.00,N,0.00,K,A*26
$GNZDA,15
2033.000,14,01,2021,00,00*4B
$GPTXT,01,01,01,ANTENNA SHORT*63

$GNGGA,152034.000,3000.00007,N,1
1959.99995,E,1,12,0.9,-6.7,M,7.2,M,,*54
$GNGLL,3000.00007,N,119
59.99995,E,152034.000,A,A*42
$G
NGSA,A,3,02,07,08,10,13,15,24,25
,26,27,28,,1.3,0.9,1.0,1*3B
$GNGSA,A,3,08,,,,,,,,,,,,1.3,0.9,1.
0,4*36
$GPGSV,3,1,11,02,09,228,
34,07,25,049,35,08,58,016,36,10,55,294,36,0*64
$GPGSV,3,2,11,13
,15,103,35,15,08,305,35,24,05,29
9,34,25,10,060,35,0*6A
$GPGSV,3,3,11,26,26,311,35,27,60,309,36,
28,65,149,36,0*5C
$BDGSV,1,1,03
,01,,,32,02,,,32,08,11,214,31,0*
49
$GNRMC,152034.000,A,3000.000
07,N,11959.99995,E,0.00,205.46,1
40121,,,A,V*0D
$GNVTG,205.46,T,
,M,0.00,N,0.00,K,A*26
$GNZDA,152034.000,14,01,2021,00,00*4C
$G
PTXT,01,01,01,ANTENNA SHORT*63

$GNGGA,152035.000,3000.00007,N,1
1959.99995,E,1,12,0.9,-6.7,M,7.2
,M,,*55
$GNGLL,3000.00007,N,119
59.99995,E,152035.000,A,A*43
$GNGSA,A,3,02,07,08,10,13,15,24,25
,26,27,28,,1.3,0.9,1.0,1*3B
$GNGSA,A,3,08,,,,,,,,,,,,1.3,0.9,1.
0,4*36
$GPGSV,3,1,11,02,09,228,
34,07,25,049,35,08,58,016,36,10,
55,294,36,0*64
$GPGSV,3,2,11,13
,15,103,35,15,08,305,35,24,05,299,34,25,10,060,35,0*6A
$GPGSV,3
,3,11,26,26,311,35,27,60,309,36,
28,65,149,36,0*5C
$BDGSV,1,1,03,01,,,32,02,,,32,08,11,214,31,0*
49
$GNRMC,152035.000,A,3000.000
07,N,11959.99995,E,0.00,205.46,140121,,,A,V*0C
$GNVTG,205.46,T,
,M,0.00,N,0.00,K,A*26
$GNZDA,15
2035.000,14,01,2021,00,00*4D
$GPTXT,01,01,01,ANTENNA SHORT*63

$GNGGA,152036.000,3000.00007,N,1
1959.99995,E,1,12,0.9,-6.7,M,7.2
,M,,*56
$GNGLL,3000.00007,N,119
59.99995,E,152036.000,A,A*40
$GNGSA,A,3,02,07,08,10,13,15,24,25
,26,27,28,,1.3,0.9,1.0,1*3B
$GNGSA,A,3,08,,,,,,,,,,,,1.3,0.9,1.
0,4*36
$GPGSV,3,1,11,02,09,228,
34,07,25,049,35,08,58,016,36,10,55,294,36,0*64
$GPGSV,3,2,11,13
,15,103,35,15,08,305,34,24,05,29
9,34,25,10,060,34,0*6A
$GPGSV,3,3,11,26,26,311,35,27,60,309,36,
28,65,149,36,0*5C
$BDGSV,1,1,03
,01,,,32,02,,,32,08,11,214,31,0*49
$GNRMC,152036.000,A,3000.000
07,N,11959.99995,E,0.00,205.46,1
40121,,,A,V*0F
$GNVTG,205.46,T,,M,0.00,N,0.00,K,A*26
$GNZDA,15
2036.000,14,01,2021,00,00*4E
$G
PTXT,01,01,01,ANTENNA SHORT*63

$GNGGA,152037.000,3000.00007,N,1
1959.99995,E,1,12,0.9,-6.7,M,7.2,M,,*57
$GNGLL,3000.00007,N,119
59.99995,E,152037.000,A,A*41
$G
NGSA,A,3,02,07,08,10,13,15,24,25,26,27,28,,1.3,0.9,1.0,1*3B
$GN
GSA,A,3,08,,,,,,,,,,,,1.3,0.9,1.0,4*36
$GPGSV,3,1,11,02,09,228,
34,07,25,049,35,08,58,016,36,10,
55,294,36,0*64
$GPGSV,3,2,11,13
,15,103,35,15,08,305,34,24,05,299,34,25,10,060,34,0*6A
$GPGSV,3
,3,11,26,26,311,35,27,60,309,36,
28,65,149,36,0*5C
$BDGSV,1,1,03,01,,,32,02,,,32,08,11,214,31,0*
49
$GNRMC,152037.000,A,3000.000
07,N,11959.99995,E,0.00,205.46,140121,,,A,V*0E
$GNVTG,205.46,T,
,M,0.00,N,0.00,K,A*26
$GNZDA,15
2037.000,14,01,2021,00,00*4F
$G
PTXT,01,01,01,ANTENNA SHORT*63

$GNGGA,152038.000,3000.00007,N,1
1959.99995,E,1,12,0.9,-6.7,M,7.2,M,,*58
$GNGLL,3000.00007,N,119
59.99995,E,152038.000,A,A*4E
$G
NGSA,A,3,02,07,08,10,13,15,24,25,26,27,28,,1.3,0.9,1.0,1*3B
$GN
GSA,A,3,08,,,,,,,,,,,,1.3,0.9,1.0,4*36
$GPGSV,3,1,11,02,09,228,
34,07,25,049,35,08,58,016,36,10,
55,294,36,0*64
$GPGSV,3,2,11,13
,15,103,35,15,08,305,34,24,05,299,34,25,10,060,34,0*6A
$GPGSV,3
,3,11,26,26,311,35,27,60,309,36,
28,65,149,36,0*5C
$BDGSV,1,1,03
,01,,,32,02,,,32,08,11,214,31,0*49
$GNRMC,152038.000,A,3000.000
07,N,11959.99995,E,0.00,205.46,1
40121,,,A,V*01
$GNVTG,205.46,T,
,M,0.00,N,0.00,K,A*26
$GNZDA,152038.000,14,01,2021,00,00*40
$G
PTXT,01,01,01,ANTENNA SHORT*63

$GNGGA,152039.000,3000.00007,N,1
1959.99996,E,1,12,0.9,-6.7,M,7.2
,M,,*5A
$GNGLL,3000.00007,N,119
59.99996,E,152039.000,A,A*4C
$GNGSA,A,3,02,07,08,10,13,15,24,25
,26,27,28,,1.3,0.9,1.0,1*3B
$GN
GSA,A,3,08,,,,,,,,,,,,1.3,0.9,1.0,4*36
$GPGSV,3,1,11,02,09,228,
34,07,25,049,35,08,58,016,36,10,
55,293,36,0*63
$GPGSV,3,2,11,13
,15,103,35,15,08,305,34,24,05,29
9,34,25,10,060,35,0*6B
$GPGSV,3,3,11,26,26,311,35,27,60,309,36,
28,65,149,36,0*5C
$BDGSV,1,1,03
,01,,,32,02,,,32,08,11,214,31,0*49
$GNRMC,152039.000,A,3000.000
07,N,11959.99996,E,0.00,205.46,1
40121,,,A,V*03
$GNVTG,205.46,T,
,M,0.00,N,0.00,K,A*26
$GNZDA,15
2039.000,14,01,2021,00,00*41
$GPTXT,01,01,01,ANTENNA SHORT*63

$GNGGA,152040.000,3000.00008,N,1
1959.99996,E,1,12,0.9,-6.7,M,7.2,M,,*5B
$GNGLL,3000.00008,N,119
59.99996,E,152040.000,A,A*4D
$G
NGSA,A,3,02,07,08,10,13,15,24,25,26,27,28,,1.3,0.9,1.0,1*3B
$GN
GSA,A,3,08,,,,,,,,,,,,1.3,0.9,1.
0,4*36
$GPGSV,3,1,11,02,09,228,
34,07,25,049,35,08,58,016,36,10,
55,293,36,0*63
$GPGSV,3,2,11,13
,15,103,35,15,08,305,34,24,05,29
9,34,25,10,060,35,0*6B
$GPGSV,3,3,11,26,26,311,35,27,60,309,36,
28,65,148,36,0*5D
$BDGSV,1,1,03
,01,,,32,02,,,32,08,11,214,31,0*49
$GNRMC,152040.000,A,3000.000
08,N,11959.99996,E,0.00,205.46,1
40121,,,A,V*02
$GNVTG,205.46,T,
,M,0.00,N,0.00,K,A*26
$GNZDA,15
2040.000,14,01,2021,00,00*4F
$GPTXT,01,01,01,ANTENNA SHORT*63

$GNGGA,152041.000,3000.00008,N,1
1959.99996,E,1,12,0.9,-6.7,M,7.2,M,,*5A
$GNGLL,3000.00008,N,119
59.99996,E,152041.000,A,A*4C
$G
NGSA,A,3,02,07,08,10,13,15,24,25,26,27,28,,1.3,0.9,1.0,1*3B
$GN
GSA,A,3,08,,,,,,,,,,,,1.3,0.9,1.0,4*36
$GPGSV,3,1,11,02,09,228,
34,07,25,049,35,08,58,016,36,10,
55,293,36,0*63
$GPGSV,3,2,11,13,15,103,35,15,08,305,34,24,05,29
9,34,25,10,060,35,0*6B
$GPGSV,3
,3,11,26,26,311,35,27,60,309,36,
28,65,148,36,0*5D
$BDGSV,1,1,03,01,,,32,02,,,32,08,11,214,31,0*
49
$GNRMC,152041.000,A,3000.000
08,N,11959.99996,E,0.00,205.46,140121,,,A,V*03
$GNVTG,205.46,T,
,M,0.00,N,0.00,K,A*26
$GNZDA,15
2041.000,14,01,2021,00,00*4E
$GPTXT,01,01,01,ANTENNA SHORT*63

$GNGGA,152042.000,3000.00008,N,1
1959.99997,E,1,12,0.9,-6.7,M,7.2,M,,*58
$GNGLL,3000.00008,N,119
59.99997,E,152042.000,A,A*4E
$G
NGSA,A,3,02,07,08,10,13,15,24,25,26,27,28,,1.3,0.9,1.0,1*3B
$GN
GSA,A,3,08,,,,,,,,,,,,1.3,0.9,1.
0,4*36
$GPGSV,3,1,11,02,09,228,
34,07,25,049,35,08,58,016,36,10,55,293,36,0*63
$GPGSV,3,2,11,13
,15,103,35,15,08,305,34,24,05,29
9,34,25,10,060,35,0*6B
$GPGSV,3,3,11,26,26,311,35,27,60,309,36,
28,65,148,36,0*5D
$BDGSV,1,1,03
,01,,,32,02,,,32,08,11,214,31,0*49
$GNRMC,152042.000,A,3000.000
08,N,11959.99997,E,0.00,205.46,1
40121,,,A,V*01
$GNVTG,205.46,T,
,M,0.00,N,0.00,K,A*26
$GNZDA,152042.000,14,01,2021,00,00*4D
$G
PTXT,01,01,01,ANTENNA SHORT*63

$GNGGA,152043.000,3000.00008,N,1
1959.99997,E,1,12,0.9,-6.7,M,7.2
,M,,*59
$GNGLL,3000.00008,N,11959.99997,E,152043.000,A,A*4F
$G
NGSA,A,3,02,07,08,10,13,15,24,25
,26,27,28,,1.3,0.9,1.0,1*3B
$GN
GSA,A,3,08,,,,,,,,,,,,1.3,0.9,1.
0,4*36
$GPGSV,3,1,11,02,09,228,34,07,25,049,35,08,58,016,36,10,
55,293,36,0*63
$GPGSV,3,2,11,13
,15,103,35,15,08,305,34,24,05,299,34,25,10,060,34,0*6A
$GPGSV,3
,3,11,26,26,311,35,27,60,309,36,
28,65,148,36,0*5D
$BDGSV,1,1,03,01,,,32,02,,,32,08,11,214,31,0*
49
$GNRMC,152043.000,A,3000.000
08,N,11959.99997,E,0.00,205.46,140121,,,A,V*00
$GNVTG,205.46,T,
,M,0.00,N,0.00,K,A*26
$GNZDA,152043.000,14,01,2021,00,00*4C
$G
PTXT,01,01,01,ANTENNA SHORT*63

$GNGGA,152044.000,3000.00008,N,1
1959.99997,E,1,12,0.9,-6.7,M,7.2,M,,*5E
$GNGLL,3000.00008,N,119
59.99997,E,152044.000,A,A*48
$G
NGSA,A,3,02,07,08,10,13,15,24,25,26,27,28,,1.3,0.9,1.0,1*3B
$GN
GSA,A,3,08,,,,,,,,,,,,1.3,0.9,1.
0,4*36
$GPGSV,3,1,11,02,09,228,
34,07,25,049,35,08,58,016,36,10,
55,293,36,0*63
$GPGSV,3,2,11,13
,15,103,35,15,08,305,34,24,05,299,34,25,10,060,34,0*6A
$GPGSV,3
,3,11,26,26,311,35,27,60,309,36,
28,65,148,36,0*5D
$BDGSV,1,1,04,01,,,32,02,,,32,04,,,31,08,11,2
14,31,0*48
$GNRMC,152044.000,A,
3000.00008,N,11959.99997,E,0.00,205.46,140121,,,A,V*07
$GNVTG,2
05.46,T,,M,0.00,N,0.00,K,A*26
$
GNZDA,152044.000,14,01,2021,00,00*4B
$GPTXT,01,01,01,ANTENNA SH
ORT*63

$GNGGA,152045.000,3000.00008,N,1
1959.99997,E,1,12,0.9,-6.7,M,7.2
,M,,*5F
$GNGLL,3000.00008,N,11959.99997,E,152045.000,A,A*49
$G
NGSA,A,3,02,07,08,10,13,15,24,25
,26,27,28,,1.3,0.9,1.0,1*3B
$GNGSA,A,3,08,,,,,,,,,,,,1.3,0.9,1.
0,4*36
$GPGSV,3,1,11,02,09,228,
34,07,25,049,35,08,58,016,36,10,55,293,36,0*63
$GPGSV,3,2,11,13
,15,103,35,15,08,305,34,24,05,29
9,34,25,10,060,34,0*6A
$GPGSV,3,3,11,26,26,311,35,27,60,309,36,
28,65,148,36,0*5D
$BDGSV,1,1,04
,01,,,32,02,,,32,04,,,31,08,11,214,31,0*48
$GNRMC,152045.000,A,
3000.00008,N,11959.99997,E,0.00,
205.46,140121,,,A,V*06
$GNVTG,205.46,T,,M,0.00,N,0.00,K,A*26
$
GNZDA,152045.000,14,01,2021,00,00*4A
$GPTXT,01,01,01,ANTENNA SH
ORT*63

