
$串口初始化：20210614 10:26:34$

$串口初始化：20210614 10:28:30$
$GPGGA,151943,3000.00000,N,12000.00000,E,3,16,0.85,-7.86,M,7.86,M,,*6C
$GPRMC,151943,A,3000.00000,N,12000.00000,E,0.000,0.000,140121,0.000,E,A,V*6D
$GPGGA,151944,3000.00000,N,12000.00000,E,3,16,0.85,-7.86,M,7.86,M,,*6B
$GPRMC,151944,A,3000.00000,N,12000.00000,E,0.000,0.000,140121,0.000,E,A,V*6A
$GPGGA,151945,3000.00000,N,12000.00000,E,3,16,0.85,-7.86,M,7.86,M,,*6A
$GPRMC,151945,A,3000.00000,N,12000.00000,E,0.000,0.000,140121,0.000,E,A,V*6B
$GPGGA,151946,3000.00000,N,12000.00000,E,3,16,0.85,-7.86,M,7.86,M,,*69
$GPRMC,151946,A,3000.00000,N,12000.00000,E,0.000,0.000,140121,0.000,E,A,V*68
$GPGGA,151947,3000.00000,N,12000.00000,E,3,16,0.85,-7.86,M,7.86,M,,*68
$GPRMC,151947,A,3000.00000,N,12000.00000,E,0.000,0.000,140121,0.000,E,A,V*69
$GPGGA,151948,3000.00000,N,12000.00000,E,3,16,0.85,-7.86,M,7.86,M,,*67
$GPRMC,151948,A,3000.00000,N,12000.00000,E,0.000,0.000,140121,0.000,E,A,V*66
$GPGGA,151949,3000.00000,N,12000.00000,E,3,16,0.85,-7.86,M,7.86,M,,*66
$GPRMC,151949,A,3000.00000,N,12000.00000,E,0.000,0.000,140121,0.000,E,A,V*67
$GPGGA,151950,3000.00000,N,12000.00000,E,3,16,0.85,-7.86,M,7.86,M,,*6E
$GPRMC,151950,A,3000.00000,N,12000.00000,E,0.000,0.000,140121,0.000,E,A,V*6F
$GPGGA,151951,3000.00000,N,12000.00000,E,3,16,0.85,-7.86,M,7.86,M,,*6F
$GPRMC,151951,A,3000.00000,N,12000.00000,E,0.000,0.000,140121,0.000,E,A,V*6E
$GPGGA,151952,3000.00000,N,12000.00000,E,3,16,0.85,-7.86,M,7.86,M,,*6C
$GPRMC,151952,A,3000.00000,N,12000.00000,E,0.000,0.000,140121,0.000,E,A,V*6D
$GPGGA,151953,3000.00000,N,12000.00000,E,3,16,0.85,-7.86,M,7.86,M,,*6D
$GPRMC,151953,A,3000.00000,N,12000.00000,E,0.000,0.000,140121,0.000,E,A,V*6C
$GPGGA,151954,3000.00000,N,12000.00000,E,3,16,0.85,-7.86,M,7.86,M,,*6A
$GPRMC,151954,A,3000.00000,N,12000.00000,E,0.000,0.000,140121,0.000,E,A,V*6B
$GPGGA,151955,3000.00000,N,12000.00000,E,3,16,0.85,-7.86,M,7.86,M,,*6B
$GPRMC,151955,A,3000.00000,N,12000.00000,E,0.000,0.000,140121,0.000,E,A,V*6A
$GPGGA,151956,3000.00000,N,12000.00000,E,3,16,0.85,-7.86,M,7.86,M,,*68
$GPRMC,151956,A,3000.00000,N,12000.00000,E,0.000,0.000,140121,0.000,E,A,V*69
$GPGGA,151957,3000.00000,N,12000.00000,E,3,16,0.85,-7.86,M,7.86,M,,*69
$GPRMC,151957,A,3000.00000,N,12000.00000,E,0.000,0.000,140121,0.000,E,A,V*68
$GPGGA,151958,3000.00000,N,12000.00000,E,3,16,0.85,-7.86,M,7.86,M,,*66
$GPRMC,151958,A,3000.00000,N,12000.00000,E,0.000,0.000,140121,0.000,E,A,V*67
$GPGGA,151959,3000.00000,N,12000.00000,E,3,16,0.85,-7.86,M,7.86,M,,*67
$GPRMC,151959,A,3000.00000,N,12000.00000,E,0.000,0.000,140121,0.000,E,A,V*66
$GPGGA,152000,3000.00000,N,12000.00000,E,3,16,0.85,-7.86,M,7.86,M,,*61
$GPRMC,152000,A,3000.00000,N,12000.00000,E,0.000,0.000,140121,0.000,E,A,V*60
$GPGGA,152001,3000.00000,N,12000.00000,E,3,16,0.85,-7.86,M,7.86,M,,*60
$GPRMC,152001,A,3000.00000,N,12000.00000,E,0.000,0.000,140121,0.000,E,A,V*61
$GPGGA,152002,3000.00000,N,12000.00000,E,3,16,0.85,-7.86,M,7.86,M,,*63
$GPRMC,152002,A,3000.00000,N,12000.00000,E,0.000,0.000,140121,0.000,E,A,V*62
$GPGGA,152003,3000.00000,N,12000.00000,E,3,16,0.85,-7.86,M,7.86,M,,*62
$GPRMC,152003,A,3000.00000,N,12000.00000,E,0.000,0.000,140121,0.000,E,A,V*63
$GPGGA,152004,3000.00000,N,12000.00000,E,3,16,0.85,-7.86,M,7.86,M,,*65
$GPRMC,152004,A,3000.00000,N,12000.00000,E,0.000,0.000,140121,0.000,E,A,V*64
$GPGGA,152005,3000.00000,N,12000.00000,E,3,16,0.85,-7.86,M,7.86,M,,*64
$GPRMC,152005,A,3000.00000,N,12000.00000,E,0.000,0.000,140121,0.000,E,A,V*65
$GPGGA,152006,3000.00000,N,12000.00000,E,3,16,0.85,-7.86,M,7.86,M,,*67
$GPRMC,152006,A,3000.00000,N,12000.00000,E,0.000,0.000,140121,0.000,E,A,V*66
$GPGGA,152007,3000.00000,N,12000.00000,E,3,16,0.85,-7.86,M,7.86,M,,*66
$GPRMC,152007,A,3000.00000,N,12000.00000,E,0.000,0.000,140121,0.000,E,A,V*67
$GPGGA,152008,3000.00000,N,12000.00000,E,3,16,0.85,-7.86,M,7.86,M,,*69
$GPRMC,152008,A,3000.00000,N,12000.00000,E,0.000,0.000,140121,0.000,E,A,V*68
$GPGGA,152009,3000.00000,N,12000.00000,E,3,16,0.85,-7.86,M,7.86,M,,*68
$GPRMC,152009,A,3000.00000,N,12000.00000,E,0.000,0.000,140121,0.000,E,A,V*69
$GPGGA,152010,3000.00000,N,12000.00000,E,3,16,0.85,-7.86,M,7.86,M,,*60
$GPRMC,152010,A,3000.00000,N,12000.00000,E,0.000,0.000,140121,0.000,E,A,V*61
$GPGGA,152011,3000.00000,N,12000.00000,E,3,16,0.85,-7.86,M,7.86,M,,*61
$GPRMC,152011,A,3000.00000,N,12000.00000,E,0.000,0.000,140121,0.000,E,A,V*60
$GPGGA,152012,3000.00000,N,12000.00000,E,3,16,0.85,-7.86,M,7.86,M,,*62
$GPRMC,152012,A,3000.00000,N,12000.00000,E,0.000,0.000,140121,0.000,E,A,V*63
$GPGGA,152013,3000.00000,N,12000.00000,E,3,16,0.85,-7.86,M,7.86,M,,*63
$GPRMC,152013,A,3000.00000,N,12000.00000,E,0.000,0.000,140121,0.000,E,A,V*62
$GPGGA,152014,3000.00000,N,12000.00000,E,3,16,0.85,-7.86,M,7.86,M,,*64
$GPRMC,152014,A,3000.00000,N,12000.00000,E,0.000,0.000,140121,0.000,E,A,V*65
$GPGGA,152015,3000.00000,N,12000.00000,E,3,16,0.85,-7.86,M,7.86,M,,*65
$GPRMC,152015,A,3000.00000,N,12000.00000,E,0.000,0.000,140121,0.000,E,A,V*64
$GPGGA,152016,3000.00000,N,12000.00000,E,3,16,0.85,-7.86,M,7.86,M,,*66
$GPRMC,152016,A,3000.00000,N,12000.00000,E,0.000,0.000,140121,0.000,E,A,V*67
$GPGGA,152017,3000.00000,N,12000.00000,E,3,16,0.85,-7.86,M,7.86,M,,*67
$GPRMC,152017,A,3000.00000,N,12000.00000,E,0.000,0.000,140121,0.000,E,A,V*66
$GPGGA,152018,3000.00000,N,12000.00000,E,3,16,0.85,-7.86,M,7.86,M,,*68
$GPRMC,152018,A,3000.00000,N,12000.00000,E,0.000,0.000,140121,0.000,E,A,V*69
$GPGGA,152019,3000.00000,N,12000.00000,E,3,16,0.85,-7.86,M,7.86,M,,*69
$GPRMC,152019,A,3000.00000,N,12000.00000,E,0.000,0.000,140121,0.000,E,A,V*68
$GPGGA,152020,3000.00000,N,12000.00000,E,3,16,0.85,-7.86,M,7.86,M,,*63
$GPRMC,152020,A,3000.00000,N,12000.00000,E,0.000,0.000,140121,0.000,E,A,V*62
$GPGGA,152021,3000.00000,N,12000.00000,E,3,16,0.85,-7.86,M,7.86,M,,*62
$GPRMC,152021,A,3000.00000,N,12000.00000,E,0.000,0.000,140121,0.000,E,A,V*63
$GPGGA,152022,3000.00000,N,12000.00000,E,3,16,0.85,-7.86,M,7.86,M,,*61
$GPRMC,152022,A,3000.00000,N,12000.00000,E,0.000,0.000,140121,0.000,E,A,V*60
$GPGGA,152023,3000.00000,N,12000.00000,E,3,16,0.85,-7.86,M,7.86,M,,*60
$GPRMC,152023,A,3000.00000,N,12000.00000,E,0.000,0.000,140121,0.000,E,A,V*61
$GPGGA,152024,3000.00000,N,12000.00000,E,3,16,0.85,-7.86,M,7.86,M,,*67
$GPRMC,152024,A,3000.00000,N,12000.00000,E,0.000,0.000,140121,0.000,E,A,V*66
$GPGGA,152025,3000.00000,N,12000.00000,E,3,16,0.85,-7.86,M,7.86,M,,*66
$GPRMC,152025,A,3000.00000,N,12000.00000,E,0.000,0.000,140121,0.000,E,A,V*67
$GPGGA,152026,3000.00000,N,12000.00000,E,3,16,0.85,-7.86,M,7.86,M,,*65
$GPRMC,152026,A,3000.00000,N,12000.00000,E,0.000,0.000,140121,0.000,E,A,V*64
$GPGGA,152027,3000.00000,N,12000.00000,E,3,16,0.85,-7.86,M,7.86,M,,*64
$GPRMC,152027,A,3000.00000,N,12000.00000,E,0.000,0.000,140121,0.000,E,A,V*65
$GPGGA,152028,3000.00000,N,12000.00000,E,3,16,0.85,-7.86,M,7.86,M,,*6B
$GPRMC,152028,A,3000.00000,N,12000.00000,E,0.000,0.000,140121,0.000,E,A,V*6A
$GPGGA,152029,3000.00000,N,12000.00000,E,3,16,0.85,-7.86,M,7.86,M,,*6A
$GPRMC,152029,A,3000.00000,N,12000.00000,E,0.000,0.000,140121,0.000,E,A,V*6B
$GPGGA,152030,3000.00000,N,12000.00000,E,3,16,0.85,-7.86,M,7.86,M,,*62
$GPRMC,152030,A,3000.00000,N,12000.00000,E,0.000,0.000,140121,0.000,E,A,V*63
$GPGGA,152031,3000.00000,N,12000.00000,E,3,16,0.85,-7.86,M,7.86,M,,*63
$GPRMC,152031,A,3000.00000,N,12000.00000,E,0.000,0.000,140121,0.000,E,A,V*62
$GPGGA,152032,3000.00000,N,12000.00000,E,3,16,0.85,-7.86,M,7.86,M,,*60
$GPRMC,152032,A,3000.00000,N,12000.00000,E,0.000,0.000,140121,0.000,E,A,V*61
$GPGGA,152033,3000.00000,N,12000.00000,E,3,16,0.85,-7.86,M,7.86,M,,*61
$GPRMC,152033,A,3000.00000,N,12000.00000,E,0.000,0.000,140121,0.000,E,A,V*60
$GPGGA,152034,3000.00000,N,12000.00000,E,3,16,0.85,-7.86,M,7.86,M,,*66
$GPRMC,152034,A,3000.00000,N,12000.00000,E,0.000,0.000,140121,0.000,E,A,V*67
$GPGGA,152035,3000.00000,N,12000.00000,E,3,16,0.85,-7.86,M,7.86,M,,*67
$GPRMC,152035,A,3000.00000,N,12000.00000,E,0.000,0.000,140121,0.000,E,A,V*66
$GPGGA,152036,3000.00000,N,12000.00000,E,3,16,0.85,-7.86,M,7.86,M,,*64
$GPRMC,152036,A,3000.00000,N,12000.00000,E,0.000,0.000,140121,0.000,E,A,V*65
$GPGGA,152037,3000.00000,N,12000.00000,E,3,16,0.85,-7.86,M,7.86,M,,*65
$GPRMC,152037,A,3000.00000,N,12000.00000,E,0.000,0.000,140121,0.000,E,A,V*64
$GPGGA,152038,3000.00000,N,12000.00000,E,3,16,0.85,-7.86,M,7.86,M,,*6A
$GPRMC,152038,A,3000.00000,N,12000.00000,E,0.000,0.000,140121,0.000,E,A,V*6B
$GPGGA,152039,3000.00000,N,12000.00000,E,3,16,0.85,-7.86,M,7.86,M,,*6B
$GPRMC,152039,A,3000.00000,N,12000.00000,E,0.000,0.000,140121,0.000,E,A,V*6A
$GPGGA,152040,3000.00000,N,12000.00000,E,3,16,0.85,-7.86,M,7.86,M,,*65
$GPRMC,152040,A,3000.00000,N,12000.00000,E,0.000,0.000,140121,0.000,E,A,V*64
$GPGGA,152041,3000.00000,N,12000.00000,E,3,16,0.85,-7.86,M,7.86,M,,*64
$GPRMC,152041,A,3000.00000,N,12000.00000,E,0.000,0.000,140121,0.000,E,A,V*65
$GPGGA,152042,3000.00000,N,12000.00000,E,3,16,0.85,-7.86,M,7.86,M,,*67
$GPRMC,152042,A,3000.00000,N,12000.00000,E,0.000,0.000,140121,0.000,E,A,V*66
$GPGGA,152043,3000.00000,N,12000.00000,E,3,16,0.85,-7.86,M,7.86,M,,*66
$GPRMC,152043,A,3000.00000,N,12000.00000,E,0.000,0.000,140121,0.000,E,A,V*67
$GPGGA,152044,3000.00000,N,12000.00000,E,3,16,0.85,-7.86,M,7.86,M,,*61
$GPRMC,152044,A,3000.00000,N,12000.00000,E,0.000,0.000,140121,0.000,E,A,V*60
$GPGGA,152045,3000.00000,N,12000.00000,E,3,16,0.85,-7.86,M,7.86,M,,*60
$GPRMC,152045,A,3000.00000,N,12000.00000,E,0.000,0.000,140121,0.000,E,A,V*61
$GPGGA,152046,3000.00000,N,12000.00000,E,3,16,0.85,-7.86,M,7.86,M,,*63
$GPRMC,152046,A,3000.00000,N,12000.00000,E,0.000,0.000,140121,0.000,E,A,V*62
$GPGGA,152047,3000.00000,N,12000.00000,E,3,16,0.85,-7.86,M,7.86,M,,*62
$GPRMC,152047,A,3000.00000,N,12000.00000,E,0.000,0.000,140121,0.000,E,A,V*63
$GPGGA,152048,3000.00000,N,12000.00000,E,3,16,0.85,-7.86,M,7.86,M,,*6D
$GPRMC,152048,A,3000.00000,N,12000.00000,E,0.000,0.000,140121,0.000,E,A,V*6C
$GPGGA,152049,3000.00000,N,12000.00000,E,3,16,0.85,-7.86,M,7.86,M,,*6C
$GPRMC,152049,A,3000.00000,N,12000.00000,E,0.000,0.000,140121,0.000,E,A,V*6D
$GPGGA,152050,3000.00000,N,12000.00000,E,3,16,0.85,-7.86,M,7.86,M,,*64
$GPRMC,152050,A,3000.00000,N,12000.00000,E,0.000,0.000,140121,0.000,E,A,V*65
$GPGGA,152051,3000.00000,N,12000.00000,E,3,16,0.85,-7.86,M,7.86,M,,*65
$GPRMC,152051,A,3000.00000,N,12000.00000,E,0.000,0.000,140121,0.000,E,A,V*64
$GPGGA,152052,3000.00000,N,12000.00000,E,3,16,0.85,-7.86,M,7.86,M,,*66
$GPRMC,152052,A,3000.00000,N,12000.00000,E,0.000,0.000,140121,0.000,E,A,V*67
$GPGGA,152053,3000.00000,N,12000.00000,E,3,16,0.85,-7.86,M,7.86,M,,*67
$GPRMC,152053,A,3000.00000,N,12000.00000,E,0.000,0.000,140121,0.000,E,A,V*66
$GPGGA,152054,3000.00000,N,12000.00000,E,3,16,0.85,-7.86,M,7.86,M,,*60
$GPRMC,152054,A,3000.00000,N,12000.00000,E,0.000,0.000,140121,0.000,E,A,V*61
$GPGGA,152055,3000.00000,N,12000.00000,E,3,16,0.85,-7.86,M,7.86,M,,*61
$GPRMC,152055,A,3000.00000,N,12000.00000,E,0.000,0.000,140121,0.000,E,A,V*60
$GPGGA,152056,3000.00000,N,12000.00000,E,3,16,0.85,-7.86,M,7.86,M,,*62
$GPRMC,152056,A,3000.00000,N,12000.00000,E,0.000,0.000,140121,0.000,E,A,V*63
$GPGGA,152057,3000.00000,N,12000.00000,E,3,16,0.85,-7.86,M,7.86,M,,*63
$GPRMC,152057,A,3000.00000,N,12000.00000,E,0.000,0.000,140121,0.000,E,A,V*62
$GPGGA,152058,3000.00000,N,12000.00000,E,3,16,0.85,-7.86,M,7.86,M,,*6C
$GPRMC,152058,A,3000.00000,N,12000.00000,E,0.000,0.000,140121,0.000,E,A,V*6D
$GPGGA,152059,3000.00000,N,12000.00000,E,3,16,0.85,-7.86,M,7.86,M,,*6D
$GPRMC,152059,A,3000.00000,N,12000.00000,E,0.000,0.000,140121,0.000,E,A,V*6C
$GPGGA,152100,3000.00000,N,12000.00000,E,3,16,0.85,-7.86,M,7.86,M,,*60
$GPRMC,152100,A,3000.00000,N,12000.00000,E,0.000,0.000,140121,0.000,E,A,V*61
$GPGGA,152101,3000.00000,N,12000.00000,E,3,16,0.85,-7.86,M,7.86,M,,*61
$GPRMC,152101,A,3000.00000,N,12000.00000,E,0.000,0.000,140121,0.000,E,A,V*60
$GPGGA,152102,3000.00000,N,12000.00000,E,3,16,0.85,-7.86,M,7.86,M,,*62
$GPRMC,152102,A,3000.00000,N,12000.00000,E,0.000,0.000,140121,0.000,E,A,V*63
$GPGGA,152103,3000.00000,N,12000.00000,E,3,16,0.85,-7.86,M,7.86,M,,*63
$GPRMC,152103,A,3000.00000,N,12000.00000,E,0.000,0.000,140121,0.000,E,A,V*62
$GPGGA,152104,3000.00000,N,12000.00000,E,3,16,0.85,-7.86,M,7.86,M,,*64
$GPRMC,152104,A,3000.00000,N,12000.00000,E,0.000,0.000,140121,0.000,E,A,V*65
$GPGGA,152105,3000.00000,N,12000.00000,E,3,16,0.85,-7.86,M,7.86,M,,*65
$GPRMC,152105,A,3000.00000,N,12000.00000,E,0.000,0.000,140121,0.000,E,A,V*64
$GPGGA,152106,3000.00000,N,12000.00000,E,3,16,0.85,-7.86,M,7.86,M,,*66
$GPRMC,152106,A,3000.00000,N,12000.00000,E,0.000,0.000,140121,0.000,E,A,V*67
$GPGGA,152107,3000.00000,N,12000.00000,E,3,16,0.85,-7.86,M,7.86,M,,*67
$GPRMC,152107,A,3000.00000,N,12000.00000,E,0.000,0.000,140121,0.000,E,A,V*66
$GPGGA,152108,3000.00000,N,12000.00000,E,3,16,0.85,-7.86,M,7.86,M,,*68
$GPRMC,152108,A,3000.00000,N,12000.00000,E,0.000,0.000,140121,0.000,E,A,V*69
$GPGGA,152109,3000.00000,N,12000.00000,E,3,16,0.85,-7.86,M,7.86,M,,*69
$GPRMC,152109,A,3000.00000,N,12000.00000,E,0.000,0.000,140121,0.000,E,A,V*68
$GPGGA,152110,3000.00000,N,12000.00000,E,3,16,0.85,-7.86,M,7.86,M,,*61
$GPRMC,152110,A,3000.00000,N,12000.00000,E,0.000,0.000,140121,0.000,E,A,V*60
$GPGGA,152111,3000.00000,N,12000.00000,E,3,16,0.85,-7.86,M,7.86,M,,*60
$GPRMC,152111,A,3000.00000,N,12000.00000,E,0.000,0.000,140121,0.000,E,A,V*61
$GPGGA,152112,3000.00000,N,12000.00000,E,3,16,0.85,-7.86,M,7.86,M,,*63
$GPRMC,152112,A,3000.00000,N,12000.00000,E,0.000,0.000,140121,0.000,E,A,V*62
$GPGGA,152113,3000.00000,N,12000.00000,E,3,16,0.85,-7.86,M,7.86,M,,*62
$GPRMC,152113,A,3000.00000,N,12000.00000,E,0.000,0.000,140121,0.000,E,A,V*63
$GPGGA,152114,3000.00000,N,12000.00000,E,3,16,0.85,-7.86,M,7.86,M,,*65
$GPRMC,152114,A,3000.00000,N,12000.00000,E,0.000,0.000,140121,0.000,E,A,V*64
$GPGGA,152115,3000.00000,N,12000.00000,E,3,16,0.85,-7.86,M,7.86,M,,*64
$GPRMC,152115,A,3000.00000,N,12000.00000,E,0.000,0.000,140121,0.000,E,A,V*65
$GPGGA,152116,3000.00000,N,12000.00000,E,3,16,0.85,-7.86,M,7.86,M,,*67
$GPRMC,152116,A,3000.00000,N,12000.00000,E,0.000,0.000,140121,0.000,E,A,V*66
$GPGGA,152117,3000.00000,N,12000.00000,E,3,16,0.85,-7.86,M,7.86,M,,*66
$GPRMC,152117,A,3000.00000,N,12000.00000,E,0.000,0.000,140121,0.000,E,A,V*67
$GPGGA,152118,3000.00000,N,12000.00000,E,3,16,0.85,-7.86,M,7.86,M,,*69
$GPRMC,152118,A,3000.00000,N,12000.00000,E,0.000,0.000,140121,0.000,E,A,V*68
$GPGGA,152119,3000.00000,N,12000.00000,E,3,16,0.85,-7.86,M,7.86,M,,*68
$GPRMC,152119,A,3000.00000,N,12000.00000,E,0.000,0.000,140121,0.000,E,A,V*69
$GPGGA,152120,3000.00000,N,12000.00000,E,3,16,0.85,-7.86,M,7.86,M,,*62
$GPRMC,152120,A,3000.00000,N,12000.00000,E,0.000,0.000,140121,0.000,E,A,V*63
$GPGGA,152121,3000.00000,N,12000.00000,E,3,16,0.85,-7.86,M,7.86,M,,*63
$GPRMC,152121,A,3000.00000,N,12000.00000,E,0.000,0.000,140121,0.000,E,A,V*62
$GPGGA,152122,3000.00000,N,12000.00000,E,3,16,0.85,-7.86,M,7.86,M,,*60
$GPRMC,152122,A,3000.00000,N,12000.00000,E,0.000,0.000,140121,0.000,E,A,V*61
$GPGGA,152123,3000.00000,N,12000.00000,E,3,16,0.85,-7.86,M,7.86,M,,*61
$GPRMC,152123,A,3000.00000,N,12000.00000,E,0.000,0.000,140121,0.000,E,A,V*60
$GPGGA,152124,3000.00000,N,12000.00000,E,3,16,0.85,-7.86,M,7.86,M,,*66
$GPRMC,152124,A,3000.00000,N,12000.00000,E,0.000,0.000,140121,0.000,E,A,V*67
$GPGGA,152125,3000.00000,N,12000.00000,E,3,16,0.85,-7.86,M,7.86,M,,*67
$GPRMC,152125,A,3000.00000,N,12000.00000,E,0.000,0.000,140121,0.000,E,A,V*66
$GPGGA,152126,3000.00000,N,12000.00000,E,3,16,0.85,-7.86,M,7.86,M,,*64
$GPRMC,152126,A,3000.00000,N,12000.00000,E,0.000,0.000,140121,0.000,E,A,V*65
$GPGGA,152127,3000.00000,N,12000.00000,E,3,16,0.85,-7.86,M,7.86,M,,*65
$GPRMC,152127,A,3000.00000,N,12000.00000,E,0.000,0.000,140121,0.000,E,A,V*64
$GPGGA,152128,3000.00000,N,12000.00000,E,3,16,0.85,-7.86,M,7.86,M,,*6A
$GPRMC,152128,A,3000.00000,N,12000.00000,E,0.000,0.000,140121,0.000,E,A,V*6B
$GPGGA,152129,3000.00000,N,12000.00000,E,3,16,0.85,-7.86,M,7.86,M,,*6B
$GPRMC,152129,A,3000.00000,N,12000.00000,E,0.000,0.000,140121,0.000,E,A,V*6A
$GPGGA,152130,3000.00000,N,12000.00000,E,3,16,0.85,-7.86,M,7.86,M,,*63
$GPRMC,152130,A,3000.00000,N,12000.00000,E,0.000,0.000,140121,0.000,E,A,V*62
$GPGGA,152131,3000.00000,N,12000.00000,E,3,16,0.85,-7.86,M,7.86,M,,*62
$GPRMC,152131,A,3000.00000,N,12000.00000,E,0.000,0.000,140121,0.000,E,A,V*63
$GPGGA,152132,3000.00000,N,12000.00000,E,3,16,0.85,-7.86,M,7.86,M,,*61
$GPRMC,152132,A,3000.00000,N,12000.00000,E,0.000,0.000,140121,0.000,E,A,V*60
$GPGGA,152133,3000.00000,N,12000.00000,E,3,16,0.85,-7.86,M,7.86,M,,*60
$GPRMC,152133,A,3000.00000,N,12000.00000,E,0.000,0.000,140121,0.000,E,A,V*61
$GPGGA,152134,3000.00000,N,12000.00000,E,3,16,0.85,-7.86,M,7.86,M,,*67
$GPRMC,152134,A,3000.00000,N,12000.00000,E,0.000,0.000,140121,0.000,E,A,V*66
$GPGGA,152135,3000.00000,N,12000.00000,E,3,16,0.85,-7.86,M,7.86,M,,*66
$GPRMC,152135,A,3000.00000,N,12000.00000,E,0.000,0.000,140121,0.000,E,A,V*67
$GPGGA,152136,3000.00000,N,12000.00000,E,3,16,0.85,-7.86,M,7.86,M,,*65
$GPRMC,152136,A,3000.00000,N,12000.00000,E,0.000,0.000,140121,0.000,E,A,V*64
$GPGGA,152137,3000.00000,N,12000.00000,E,3,16,0.85,-7.86,M,7.86,M,,*64
$GPRMC,152137,A,3000.00000,N,12000.00000,E,0.000,0.000,140121,0.000,E,A,V*65
$GPGGA,152138,3000.00000,N,12000.00000,E,3,16,0.85,-7.86,M,7.86,M,,*6B
$GPRMC,152138,A,3000.00000,N,12000.00000,E,0.000,0.000,140121,0.000,E,A,V*6A
$GPGGA,152139,3000.00000,N,12000.00000,E,3,16,0.85,-7.86,M,7.86,M,,*6A
$GPRMC,152139,A,3000.00000,N,12000.00000,E,0.000,0.000,140121,0.000,E,A,V*6B
$GPGGA,152140,3000.00000,N,12000.00000,E,3,16,0.85,-7.86,M,7.86,M,,*64
$GPRMC,152140,A,3000.00000,N,12000.00000,E,0.000,0.000,140121,0.000,E,A,V*65
$GPGGA,152141,3000.00000,N,12000.00000,E,3,16,0.85,-7.86,M,7.86,M,,*65
$GPRMC,152141,A,3000.00000,N,12000.00000,E,0.000,0.000,140121,0.000,E,A,V*64
$GPGGA,152142,3000.00000,N,12000.00000,E,3,16,0.85,-7.86,M,7.86,M,,*66
$GPRMC,152142,A,3000.00000,N,12000.00000,E,0.000,0.000,140121,0.000,E,A,V*67
$GPGGA,152143,3000.00000,N,12000.00000,E,3,16,0.85,-7.86,M,7.86,M,,*67
$GPRMC,152143,A,3000.00000,N,12000.00000,E,0.000,0.000,140121,0.000,E,A,V*66
$GPGGA,152144,3000.00000,N,12000.00000,E,3,16,0.85,-7.86,M,7.86,M,,*60
$GPRMC,152144,A,3000.00000,N,12000.00000,E,0.000,0.000,140121,0.000,E,A,V*61
$GPGGA,152145,3000.00000,N,12000.00000,E,3,16,0.85,-7.86,M,7.86,M,,*61
$GPRMC,152145,A,3000.00000,N,12000.00000,E,0.000,0.000,140121,0.000,E,A,V*60
$GPGGA,152146,3000.00000,N,12000.00000,E,3,16,0.85,-7.86,M,7.86,M,,*62
$GPRMC,152146,A,3000.00000,N,12000.00000,E,0.000,0.000,140121,0.000,E,A,V*63
$GPGGA,152147,3000.00000,N,12000.00000,E,3,16,0.85,-7.86,M,7.86,M,,*63
$GPRMC,152147,A,3000.00000,N,12000.00000,E,0.000,0.000,140121,0.000,E,A,V*62
$GPGGA,152148,3000.00000,N,12000.00000,E,3,16,0.85,-7.86,M,7.86,M,,*6C
$GPRMC,152148,A,3000.00000,N,12000.00000,E,0.000,0.000,140121,0.000,E,A,V*6D
$GPGGA,152149,3000.00000,N,12000.00000,E,3,16,0.85,-7.86,M,7.86,M,,*6D
$GPRMC,152149,A,3000.00000,N,12000.00000,E,0.000,0.000,140121,0.000,E,A,V*6C
$GPGGA,152150,3000.00000,N,12000.00000,E,3,16,0.85,-7.86,M,7.86,M,,*65
$GPRMC,152150,A,3000.00000,N,12000.00000,E,0.000,0.000,140121,0.000,E,A,V*64
$GPGGA,152151,3000.00000,N,12000.00000,E,3,16,0.85,-7.86,M,7.86,M,,*64
$GPRMC,152151,A,3000.00000,N,12000.00000,E,0.000,0.000,140121,0.000,E,A,V*65
$GPGGA,152152,3000.00000,N,12000.00000,E,3,16,0.85,-7.86,M,7.86,M,,*67
$GPRMC,152152,A,3000.00000,N,12000.00000,E,0.000,0.000,140121,0.000,E,A,V*66
$GPGGA,152153,3000.00000,N,12000.00000,E,3,16,0.85,-7.86,M,7.86,M,,*66
$GPRMC,152153,A,3000.00000,N,12000.00000,E,0.000,0.000,140121,0.000,E,A,V*67
$GPGGA,152154,3000.00000,N,12000.00000,E,3,16,0.85,-7.86,M,7.86,M,,*61
$GPRMC,152154,A,3000.00000,N,12000.00000,E,0.000,0.000,140121,0.000,E,A,V*60
$GPGGA,152155,3000.00000,N,12000.00000,E,3,16,0.85,-7.86,M,7.86,M,,*60
$GPRMC,152155,A,3000.00000,N,12000.00000,E,0.000,0.000,140121,0.000,E,A,V*61
$GPGGA,152156,3000.00000,N,12000.00000,E,3,16,0.85,-7.86,M,7.86,M,,*63
$GPRMC,152156,A,3000.00000,N,12000.00000,E,0.000,0.000,140121,0.000,E,A,V*62
$GPGGA,152157,3000.00000,N,12000.00000,E,3,16,0.85,-7.86,M,7.86,M,,*62
$GPRMC,152157,A,3000.00000,N,12000.00000,E,0.000,0.000,140121,0.000,E,A,V*63
$GPGGA,152158,3000.00000,N,12000.00000,E,3,16,0.85,-7.86,M,7.86,M,,*6D
$GPRMC,152158,A,3000.00000,N,12000.00000,E,0.000,0.000,140121,0.000,E,A,V*6C
$GPGGA,152159,3000.00000,N,12000.00000,E,3,16,0.85,-7.86,M,7.86,M,,*6C
$GPRMC,152159,A,3000.00000,N,12000.00000,E,0.000,0.000,140121,0.000,E,A,V*6D
$GPGGA,152200,3000.00000,N,12000.00000,E,3,16,0.85,-7.86,M,7.86,M,,*63
$GPRMC,152200,A,3000.00000,N,12000.00000,E,0.000,0.000,140121,0.000,E,A,V*62
$GPGGA,152201,3000.00000,N,12000.00000,E,3,16,0.85,-7.86,M,7.86,M,,*62
$GPRMC,152201,A,3000.00000,N,12000.00000,E,0.000,0.000,140121,0.000,E,A,V*63
$GPGGA,152202,3000.00000,N,12000.00000,E,3,16,0.85,-7.86,M,7.86,M,,*61
$GPRMC,152202,A,3000.00000,N,12000.00000,E,0.000,0.000,140121,0.000,E,A,V*60
$GPGGA,152203,3000.00000,N,12000.00000,E,3,16,0.85,-7.86,M,7.86,M,,*60
$GPRMC,152203,A,3000.00000,N,12000.00000,E,0.000,0.000,140121,0.000,E,A,V*61
$GPGGA,152204,3000.00000,N,12000.00000,E,3,16,0.85,-7.86,M,7.86,M,,*67
$GPRMC,152204,A,3000.00000,N,12000.00000,E,0.000,0.000,140121,0.000,E,A,V*66
$GPGGA,152205,3000.00000,N,12000.00000,E,3,16,0.85,-7.86,M,7.86,M,,*66
$GPRMC,152205,A,3000.00000,N,12000.00000,E,0.000,0.000,140121,0.000,E,A,V*67
$GPGGA,152206,3000.00000,N,12000.00000,E,3,16,0.85,-7.86,M,7.86,M,,*65
$GPRMC,152206,A,3000.00000,N,12000.00000,E,0.000,0.000,140121,0.000,E,A,V*64
$GPGGA,152207,3000.00000,N,12000.00000,E,3,16,0.85,-7.86,M,7.86,M,,*64
$GPRMC,152207,A,3000.00000,N,12000.00000,E,0.000,0.000,140121,0.000,E,A,V*65
$GPGGA,152208,3000.00000,N,12000.00000,E,3,16,0.85,-7.86,M,7.86,M,,*6B
$GPRMC,152208,A,3000.00000,N,12000.00000,E,0.000,0.000,140121,0.000,E,A,V*6A
$GPGGA,152209,3000.00000,N,12000.00000,E,3,16,0.85,-7.86,M,7.86,M,,*6A
$GPRMC,152209,A,3000.00000,N,12000.00000,E,0.000,0.000,140121,0.000,E,A,V*6B
$GPGGA,152210,3000.00000,N,12000.00000,E,3,16,0.85,-7.86,M,7.86,M,,*62
$GPRMC,152210,A,3000.00000,N,12000.00000,E,0.000,0.000,140121,0.000,E,A,V*63
$GPGGA,152211,3000.00000,N,12000.00000,E,3,16,0.85,-7.86,M,7.86,M,,*63
$GPRMC,152211,A,3000.00000,N,12000.00000,E,0.000,0.000,140121,0.000,E,A,V*62
$GPGGA,152212,3000.00000,N,12000.00000,E,3,16,0.85,-7.86,M,7.86,M,,*60
$GPRMC,152212,A,3000.00000,N,12000.00000,E,0.000,0.000,140121,0.000,E,A,V*61
$GPGGA,152213,3000.00000,N,12000.00000,E,3,16,0.85,-7.86,M,7.86,M,,*61
$GPRMC,152213,A,3000.00000,N,12000.00000,E,0.000,0.000,140121,0.000,E,A,V*60
$GPGGA,152214,3000.00000,N,12000.00000,E,3,16,0.85,-7.86,M,7.86,M,,*66
$GPRMC,152214,A,3000.00000,N,12000.00000,E,0.000,0.000,140121,0.000,E,A,V*67
$GPGGA,152215,3000.00000,N,12000.00000,E,3,16,0.85,-7.86,M,7.86,M,,*67
$GPRMC,152215,A,3000.00000,N,12000.00000,E,0.000,0.000,140121,0.000,E,A,V*66
$GPGGA,152216,3000.00000,N,12000.00000,E,3,16,0.85,-7.86,M,7.86,M,,*64
$GPRMC,152216,A,3000.00000,N,12000.00000,E,0.000,0.000,140121,0.000,E,A,V*65
$GPGGA,152217,3000.00000,N,12000.00000,E,3,16,0.85,-7.86,M,7.86,M,,*65
$GPRMC,152217,A,3000.00000,N,12000.00000,E,0.000,0.000,140121,0.000,E,A,V*64
$GPGGA,152218,3000.00000,N,12000.00000,E,3,16,0.85,-7.86,M,7.86,M,,*6A
$GPRMC,152218,A,3000.00000,N,12000.00000,E,0.000,0.000,140121,0.000,E,A,V*6B
$GPGGA,152219,3000.00000,N,12000.00000,E,3,16,0.85,-7.86,M,7.86,M,,*6B
$GPRMC,152219,A,3000.00000,N,12000.00000,E,0.000,0.000,140121,0.000,E,A,V*6A
$GPGGA,152220,3000.00000,N,12000.00000,E,3,16,0.85,-7.86,M,7.86,M,,*61
$GPRMC,152220,A,3000.00000,N,12000.00000,E,0.000,0.000,140121,0.000,E,A,V*60
$GPGGA,152221,3000.00000,N,12000.00000,E,3,16,0.85,-7.86,M,7.86,M,,*60
$GPRMC,152221,A,3000.00000,N,12000.00000,E,0.000,0.000,140121,0.000,E,A,V*61
$GPGGA,152222,3000.00000,N,12000.00000,E,3,16,0.85,-7.86,M,7.86,M,,*63
$GPRMC,152222,A,3000.00000,N,12000.00000,E,0.000,0.000,140121,0.000,E,A,V*62
$GPGGA,152223,3000.00000,N,12000.00000,E,3,16,0.85,-7.86,M,7.86,M,,*62
$GPRMC,152223,A,3000.00000,N,12000.00000,E,0.000,0.000,140121,0.000,E,A,V*63
$GPGGA,152224,3000.00000,N,12000.00000,E,3,16,0.85,-7.86,M,7.86,M,,*65
$GPRMC,152224,A,3000.00000,N,12000.00000,E,0.000,0.000,140121,0.000,E,A,V*64
$GPGGA,152225,3000.00000,N,12000.00000,E,3,16,0.85,-7.86,M,7.86,M,,*64
$GPRMC,152225,A,3000.00000,N,12000.00000,E,0.000,0.000,140121,0.000,E,A,V*65
$GPGGA,152226,3000.00000,N,12000.00000,E,3,16,0.85,-7.86,M,7.86,M,,*67
$GPRMC,152226,A,3000.00000,N,12000.00000,E,0.000,0.000,140121,0.000,E,A,V*66
$GPGGA,152227,3000.00000,N,12000.00000,E,3,16,0.85,-7.86,M,7.86,M,,*66
$GPRMC,152227,A,3000.00000,N,12000.00000,E,0.000,0.000,140121,0.000,E,A,V*67
$GPGGA,152228,3000.00000,N,12000.00000,E,3,16,0.85,-7.86,M,7.86,M,,*69
$GPRMC,152228,A,3000.00000,N,12000.00000,E,0.000,0.000,140121,0.000,E,A,V*68
$GPGGA,152229,3000.00000,N,12000.00000,E,3,16,0.85,-7.86,M,7.86,M,,*68
$GPRMC,152229,A,3000.00000,N,12000.00000,E,0.000,0.000,140121,0.000,E,A,V*69
$GPGGA,152230,3000.00000,N,12000.00000,E,3,16,0.85,-7.86,M,7.86,M,,*60
$GPRMC,152230,A,3000.00000,N,12000.00000,E,0.000,0.000,140121,0.000,E,A,V*61
$GPGGA,152231,3000.00000,N,12000.00000,E,3,16,0.85,-7.86,M,7.86,M,,*61
$GPRMC,152231,A,3000.00000,N,12000.00000,E,0.000,0.000,140121,0.000,E,A,V*60
$GPGGA,152232,3000.00000,N,12000.00000,E,3,16,0.85,-7.86,M,7.86,M,,*62
$GPRMC,152232,A,3000.00000,N,12000.00000,E,0.000,0.000,140121,0.000,E,A,V*63
$GPGGA,152233,3000.00000,N,12000.00000,E,3,16,0.85,-7.86,M,7.86,M,,*63
$GPRMC,152233,A,3000.00000,N,12000.00000,E,0.000,0.000,140121,0.000,E,A,V*62
$GPGGA,152234,3000.00000,N,12000.00000,E,3,16,0.85,-7.86,M,7.86,M,,*64
$GPRMC,152234,A,3000.00000,N,12000.00000,E,0.000,0.000,140121,0.000,E,A,V*65
$GPGGA,152235,3000.00000,N,12000.00000,E,3,16,0.85,-7.86,M,7.86,M,,*65
$GPRMC,152235,A,3000.00000,N,12000.00000,E,0.000,0.000,140121,0.000,E,A,V*64
$GPGGA,152236,3000.00000,N,12000.00000,E,3,16,0.85,-7.86,M,7.86,M,,*66
$GPRMC,152236,A,3000.00000,N,12000.00000,E,0.000,0.000,140121,0.000,E,A,V*67
$GPGGA,152237,3000.00000,N,12000.00000,E,3,16,0.85,-7.86,M,7.86,M,,*67
$GPRMC,152237,A,3000.00000,N,12000.00000,E,0.000,0.000,140121,0.000,E,A,V*66
$GPGGA,152238,3000.00000,N,12000.00000,E,3,16,0.85,-7.86,M,7.86,M,,*68
$GPRMC,152238,A,3000.00000,N,12000.00000,E,0.000,0.000,140121,0.000,E,A,V*69
$GPGGA,152239,3000.00000,N,12000.00000,E,3,16,0.85,-7.86,M,7.86,M,,*69
$GPRMC,152239,A,3000.00000,N,12000.00000,E,0.000,0.000,140121,0.000,E,A,V*68
$GPGGA,152240,3000.00000,N,12000.00000,E,3,16,0.85,-7.86,M,7.86,M,,*67
$GPRMC,152240,A,3000.00000,N,12000.00000,E,0.000,0.000,140121,0.000,E,A,V*66
$GPGGA,152241,3000.00000,N,12000.00000,E,3,16,0.85,-7.86,M,7.86,M,,*66
$GPRMC,152241,A,3000.00000,N,12000.00000,E,0.000,0.000,140121,0.000,E,A,V*67
$GPGGA,152242,3000.00000,N,12000.00000,E,3,16,0.85,-7.86,M,7.86,M,,*65
$GPRMC,152242,A,3000.00000,N,12000.00000,E,0.000,0.000,140121,0.000,E,A,V*64
$GPGGA,152243,3000.00000,N,12000.00000,E,3,16,0.85,-7.86,M,7.86,M,,*64
$GPRMC,152243,A,3000.00000,N,12000.00000,E,0.000,0.000,140121,0.000,E,A,V*65
$GPGGA,152244,3000.00000,N,12000.00000,E,3,16,0.85,-7.86,M,7.86,M,,*63
$GPRMC,152244,A,3000.00000,N,12000.00000,E,0.000,0.000,140121,0.000,E,A,V*62
$GPGGA,152245,3000.00000,N,12000.00000,E,3,16,0.85,-7.86,M,7.86,M,,*62
$GPRMC,152245,A,3000.00000,N,12000.00000,E,0.000,0.000,140121,0.000,E,A,V*63
$GPGGA,152246,3000.00000,N,12000.00000,E,3,16,0.85,-7.86,M,7.86,M,,*61
$GPRMC,152246,A,3000.00000,N,12000.00000,E,0.000,0.000,140121,0.000,E,A,V*60
$GPGGA,152247,3000.00000,N,12000.00000,E,3,16,0.85,-7.86,M,7.86,M,,*60
$GPRMC,152247,A,3000.00000,N,12000.00000,E,0.000,0.000,140121,0.000,E,A,V*61
$GPGGA,152248,3000.00000,N,12000.00000,E,3,16,0.85,-7.86,M,7.86,M,,*6F
$GPRMC,152248,A,3000.00000,N,12000.00000,E,0.000,0.000,140121,0.000,E,A,V*6E
$GPGGA,152249,3000.00000,N,12000.00000,E,3,16,0.85,-7.86,M,7.86,M,,*6E
$GPRMC,152249,A,3000.00000,N,12000.00000,E,0.000,0.000,140121,0.000,E,A,V*6F
$GPGGA,152250,3000.00000,N,12000.00000,E,3,16,0.85,-7.86,M,7.86,M,,*66
$GPRMC,152250,A,3000.00000,N,12000.00000,E,0.000,0.000,140121,0.000,E,A,V*67
$GPGGA,152251,3000.00000,N,12000.00000,E,3,16,0.85,-7.86,M,7.86,M,,*67
$GPRMC,152251,A,3000.00000,N,12000.00000,E,0.000,0.000,140121,0.000,E,A,V*66
$GPGGA,152252,3000.00000,N,12000.00000,E,3,16,0.85,-7.86,M,7.86,M,,*64
$GPRMC,152252,A,3000.00000,N,12000.00000,E,0.000,0.000,140121,0.000,E,A,V*65
$GPGGA,152253,3000.00000,N,12000.00000,E,3,16,0.85,-7.86,M,7.86,M,,*65
$GPRMC,152253,A,3000.00000,N,12000.00000,E,0.000,0.000,140121,0.000,E,A,V*64
$GPGGA,152254,3000.00000,N,12000.00000,E,3,16,0.85,-7.86,M,7.86,M,,*62
$GPRMC,152254,A,3000.00000,N,12000.00000,E,0.000,0.000,140121,0.000,E,A,V*63
$GPGGA,152255,3000.00000,N,12000.00000,E,3,16,0.85,-7.86,M,7.86,M,,*63
$GPRMC,152255,A,3000.00000,N,12000.00000,E,0.000,0.000,140121,0.000,E,A,V*62
$GPGGA,152256,3000.00000,N,12000.00000,E,3,16,0.85,-7.86,M,7.86,M,,*60
$GPRMC,152256,A,3000.00000,N,12000.00000,E,0.000,0.000,140121,0.000,E,A,V*61
$GPGGA,152257,3000.00000,N,12000.00000,E,3,16,0.85,-7.86,M,7.86,M,,*61
$GPRMC,152257,A,3000.00000,N,12000.00000,E,0.000,0.000,140121,0.000,E,A,V*60
$GPGGA,152258,3000.00000,N,12000.00000,E,3,16,0.85,-7.86,M,7.86,M,,*6E
$GPRMC,152258,A,3000.00000,N,12000.00000,E,0.000,0.000,140121,0.000,E,A,V*6F
$GPGGA,152259,3000.00000,N,12000.00000,E,3,16,0.85,-7.86,M,7.86,M,,*6F
$GPRMC,152259,A,3000.00000,N,12000.00000,E,0.000,0.000,140121,0.000,E,A,V*6E
$GPGGA,152300,3000.00000,N,12000.00000,E,3,16,0.85,-7.86,M,7.86,M,,*62
$GPRMC,152300,A,3000.00000,N,12000.00000,E,0.000,0.000,140121,0.000,E,A,V*63
$GPGGA,152301,3000.00000,N,12000.00000,E,3,16,0.85,-7.86,M,7.86,M,,*63
$GPRMC,152301,A,3000.00000,N,12000.00000,E,0.000,0.000,140121,0.000,E,A,V*62
$GPGGA,152302,3000.00000,N,12000.00000,E,3,16,0.85,-7.86,M,7.86,M,,*60
$GPRMC,152302,A,3000.00000,N,12000.00000,E,0.000,0.000,140121,0.000,E,A,V*61
$GPGGA,152303,3000.00000,N,12000.00000,E,3,16,0.85,-7.86,M,7.86,M,,*61
$GPRMC,152303,A,3000.00000,N,12000.00000,E,0.000,0.000,140121,0.000,E,A,V*60
$GPGGA,152304,3000.00000,N,12000.00000,E,3,16,0.85,-7.86,M,7.86,M,,*66
$GPRMC,152304,A,3000.00000,N,12000.00000,E,0.000,0.000,140121,0.000,E,A,V*67
$GPGGA,152305,3000.00000,N,12000.00000,E,3,16,0.85,-7.86,M,7.86,M,,*67
$GPRMC,152305,A,3000.00000,N,12000.00000,E,0.000,0.000,140121,0.000,E,A,V*66
$GPGGA,152306,3000.00000,N,12000.00000,E,3,16,0.85,-7.86,M,7.86,M,,*64
$GPRMC,152306,A,3000.00000,N,12000.00000,E,0.000,0.000,140121,0.000,E,A,V*65
$GPGGA,152307,3000.00000,N,12000.00000,E,3,16,0.85,-7.86,M,7.86,M,,*65
$GPRMC,152307,A,3000.00000,N,12000.00000,E,0.000,0.000,140121,0.000,E,A,V*64
$GPGGA,152308,3000.00000,N,12000.00000,E,3,16,0.85,-7.86,M,7.86,M,,*6A
$GPRMC,152308,A,3000.00000,N,12000.00000,E,0.000,0.000,140121,0.000,E,A,V*6B
$GPGGA,152309,3000.00000,N,12000.00000,E,3,16,0.85,-7.86,M,7.86,M,,*6B
$GPRMC,152309,A,3000.00000,N,12000.00000,E,0.000,0.000,140121,0.000,E,A,V*6A
$GPGGA,152310,3000.00000,N,12000.00000,E,3,16,0.85,-7.86,M,7.86,M,,*63
$GPRMC,152310,A,3000.00000,N,12000.00000,E,0.000,0.000,140121,0.000,E,A,V*62
$GPGGA,152311,3000.00000,N,12000.00000,E,3,16,0.85,-7.86,M,7.86,M,,*62
$GPRMC,152311,A,3000.00000,N,12000.00000,E,0.000,0.000,140121,0.000,E,A,V*63
$GPGGA,152312,3000.00000,N,12000.00000,E,3,16,0.85,-7.86,M,7.86,M,,*61
$GPRMC,152312,A,3000.00000,N,12000.00000,E,0.000,0.000,140121,0.000,E,A,V*60
$GPGGA,152313,3000.00000,N,12000.00000,E,3,16,0.85,-7.86,M,7.86,M,,*60
$GPRMC,152313,A,3000.00000,N,12000.00000,E,0.000,0.000,140121,0.000,E,A,V*61
$GPGGA,152314,3000.00000,N,12000.00000,E,3,16,0.85,-7.86,M,7.86,M,,*67
$GPRMC,152314,A,3000.00000,N,12000.00000,E,0.000,0.000,140121,0.000,E,A,V*66
$GPGGA,152315,3000.00000,N,12000.00000,E,3,16,0.85,-7.86,M,7.86,M,,*66
$GPRMC,152315,A,3000.00000,N,12000.00000,E,0.000,0.000,140121,0.000,E,A,V*67
$GPGGA,152316,3000.00000,N,12000.00000,E,3,16,0.85,-7.86,M,7.86,M,,*65
$GPRMC,152316,A,3000.00000,N,12000.00000,E,0.000,0.000,140121,0.000,E,A,V*64
$GPGGA,152317,3000.00000,N,12000.00000,E,3,16,0.85,-7.86,M,7.86,M,,*64
$GPRMC,152317,A,3000.00000,N,12000.00000,E,0.000,0.000,140121,0.000,E,A,V*65
$GPGGA,152318,3000.00000,N,12000.00000,E,3,16,0.85,-7.86,M,7.86,M,,*6B
$GPRMC,152318,A,3000.00000,N,12000.00000,E,0.000,0.000,140121,0.000,E,A,V*6A
$GPGGA,152319,3000.00000,N,12000.00000,E,3,16,0.85,-7.86,M,7.86,M,,*6A
$GPRMC,152319,A,3000.00000,N,12000.00000,E,0.000,0.000,140121,0.000,E,A,V*6B
$GPGGA,152320,3000.00000,N,12000.00000,E,3,16,0.85,-7.86,M,7.86,M,,*60
$GPRMC,152320,A,3000.00000,N,12000.00000,E,0.000,0.000,140121,0.000,E,A,V*61
$GPGGA,152321,3000.00000,N,12000.00000,E,3,16,0.85,-7.86,M,7.86,M,,*61
$GPRMC,152321,A,3000.00000,N,12000.00000,E,0.000,0.000,140121,0.000,E,A,V*60
$GPGGA,152322,3000.00000,N,12000.00000,E,3,16,0.85,-7.86,M,7.86,M,,*62
$GPRMC,152322,A,3000.00000,N,12000.00000,E,0.000,0.000,140121,0.000,E,A,V*63
$GPGGA,152323,3000.00000,N,12000.00000,E,3,16,0.85,-7.86,M,7.86,M,,*63
$GPRMC,152323,A,3000.00000,N,12000.00000,E,0.000,0.000,140121,0.000,E,A,V*62
$GPGGA,152324,3000.00000,N,12000.00000,E,3,16,0.85,-7.86,M,7.86,M,,*64
$GPRMC,152324,A,3000.00000,N,12000.00000,E,0.000,0.000,140121,0.000,E,A,V*65
$GPGGA,152325,3000.00000,N,12000.00000,E,3,16,0.85,-7.86,M,7.86,M,,*65
$GPRMC,152325,A,3000.00000,N,12000.00000,E,0.000,0.000,140121,0.000,E,A,V*64
$GPGGA,152326,3000.00000,N,12000.00000,E,3,16,0.85,-7.86,M,7.86,M,,*66
$GPRMC,152326,A,3000.00000,N,12000.00000,E,0.000,0.000,140121,0.000,E,A,V*67
$GPGGA,152327,3000.00000,N,12000.00000,E,3,16,0.85,-7.86,M,7.86,M,,*67
$GPRMC,152327,A,3000.00000,N,12000.00000,E,0.000,0.000,140121,0.000,E,A,V*66
$GPGGA,152328,3000.00000,N,12000.00000,E,3,16,0.85,-7.86,M,7.86,M,,*68
$GPRMC,152328,A,3000.00000,N,12000.00000,E,0.000,0.000,140121,0.000,E,A,V*69
$GPGGA,152329,3000.00000,N,12000.00000,E,3,16,0.85,-7.86,M,7.86,M,,*69
$GPRMC,152329,A,3000.00000,N,12000.00000,E,0.000,0.000,140121,0.000,E,A,V*68
$GPGGA,152330,3000.00000,N,12000.00000,E,3,16,0.85,-7.86,M,7.86,M,,*61
$GPRMC,152330,A,3000.00000,N,12000.00000,E,0.000,0.000,140121,0.000,E,A,V*60
$GPGGA,152331,3000.00000,N,12000.00000,E,3,16,0.85,-7.86,M,7.86,M,,*60
$GPRMC,152331,A,3000.00000,N,12000.00000,E,0.000,0.000,140121,0.000,E,A,V*61
$GPGGA,152332,3000.00000,N,12000.00000,E,3,16,0.85,-7.86,M,7.86,M,,*63
$GPRMC,152332,A,3000.00000,N,12000.00000,E,0.000,0.000,140121,0.000,E,A,V*62
$GPGGA,152333,3000.00000,N,12000.00000,E,3,16,0.85,-7.86,M,7.86,M,,*62
$GPRMC,152333,A,3000.00000,N,12000.00000,E,0.000,0.000,140121,0.000,E,A,V*63
$GPGGA,152334,3000.00000,N,12000.00000,E,3,16,0.85,-7.86,M,7.86,M,,*65
$GPRMC,152334,A,3000.00000,N,12000.00000,E,0.000,0.000,140121,0.000,E,A,V*64
$GPGGA,152335,3000.00000,N,12000.00000,E,3,16,0.85,-7.86,M,7.86,M,,*64
$GPRMC,152335,A,3000.00000,N,12000.00000,E,0.000,0.000,140121,0.000,E,A,V*65
$GPGGA,152336,3000.00000,N,12000.00000,E,3,16,0.85,-7.86,M,7.86,M,,*67
$GPRMC,152336,A,3000.00000,N,12000.00000,E,0.000,0.000,140121,0.000,E,A,V*66
$GPGGA,152337,3000.00000,N,12000.00000,E,3,16,0.85,-7.86,M,7.86,M,,*66
$GPRMC,152337,A,3000.00000,N,12000.00000,E,0.000,0.000,140121,0.000,E,A,V*67
$GPGGA,152338,3000.00000,N,12000.00000,E,3,16,0.85,-7.86,M,7.86,M,,*69
$GPRMC,152338,A,3000.00000,N,12000.00000,E,0.000,0.000,140121,0.000,E,A,V*68
$GPGGA,152339,3000.00000,N,12000.00000,E,3,16,0.85,-7.86,M,7.86,M,,*68
$GPRMC,152339,A,3000.00000,N,12000.00000,E,0.000,0.000,140121,0.000,E,A,V*69
$GPGGA,152340,3000.00000,N,12000.00000,E,3,16,0.85,-7.86,M,7.86,M,,*66
$GPRMC,152340,A,3000.00000,N,12000.00000,E,0.000,0.000,140121,0.000,E,A,V*67
$GPGGA,152341,3000.00000,N,12000.00000,E,3,16,0.85,-7.86,M,7.86,M,,*67
$GPRMC,152341,A,3000.00000,N,12000.00000,E,0.000,0.000,140121,0.000,E,A,V*66
$GPGGA,152342,3000.00000,N,12000.00000,E,3,16,0.85,-7.86,M,7.86,M,,*64
$GPRMC,152342,A,3000.00000,N,12000.00000,E,0.000,0.000,140121,0.000,E,A,V*65
$GPGGA,152343,3000.00000,N,12000.00000,E,3,16,0.85,-7.86,M,7.86,M,,*65
$GPRMC,152343,A,3000.00000,N,12000.00000,E,0.000,0.000,140121,0.000,E,A,V*64
$GPGGA,152344,3000.00000,N,12000.00000,E,3,16,0.85,-7.86,M,7.86,M,,*62
$GPRMC,152344,A,3000.00000,N,12000.00000,E,0.000,0.000,140121,0.000,E,A,V*63
$GPGGA,152345,3000.00000,N,12000.00000,E,3,16,0.85,-7.86,M,7.86,M,,*63
$GPRMC,152345,A,3000.00000,N,12000.00000,E,0.000,0.000,140121,0.000,E,A,V*62
$GPGGA,152346,3000.00000,N,12000.00000,E,3,16,0.85,-7.86,M,7.86,M,,*60
$GPRMC,152346,A,3000.00000,N,12000.00000,E,0.000,0.000,140121,0.000,E,A,V*61
$GPGGA,152347,3000.00000,N,12000.00000,E,3,16,0.85,-7.86,M,7.86,M,,*61
$GPRMC,152347,A,3000.00000,N,12000.00000,E,0.000,0.000,140121,0.000,E,A,V*60
$GPGGA,152348,3000.00000,N,12000.00000,E,3,16,0.85,-7.86,M,7.86,M,,*6E
$GPRMC,152348,A,3000.00000,N,12000.00000,E,0.000,0.000,140121,0.000,E,A,V*6F
$GPGGA,152349,3000.00000,N,12000.00000,E,3,16,0.85,-7.86,M,7.86,M,,*6F
$GPRMC,152349,A,3000.00000,N,12000.00000,E,0.000,0.000,140121,0.000,E,A,V*6E
$GPGGA,152350,3000.00000,N,12000.00000,E,3,16,0.85,-7.86,M,7.86,M,,*67
$GPRMC,152350,A,3000.00000,N,12000.00000,E,0.000,0.000,140121,0.000,E,A,V*66
$GPGGA,152351,3000.00000,N,12000.00000,E,3,16,0.85,-7.86,M,7.86,M,,*66
$GPRMC,152351,A,3000.00000,N,12000.00000,E,0.000,0.000,140121,0.000,E,A,V*67
$GPGGA,152352,3000.00000,N,12000.00000,E,3,16,0.85,-7.86,M,7.86,M,,*65
$GPRMC,152352,A,3000.00000,N,12000.00000,E,0.000,0.000,140121,0.000,E,A,V*64
$GPGGA,152353,3000.00000,N,12000.00000,E,3,16,0.85,-7.86,M,7.86,M,,*64
$GPRMC,152353,A,3000.00000,N,12000.00000,E,0.000,0.000,140121,0.000,E,A,V*65
$GPGGA,152354,3000.00000,N,12000.00000,E,3,16,0.85,-7.86,M,7.86,M,,*63
$GPRMC,152354,A,3000.00000,N,12000.00000,E,0.000,0.000,140121,0.000,E,A,V*62
$GPGGA,152355,3000.00000,N,12000.00000,E,3,16,0.85,-7.86,M,7.86,M,,*62
$GPRMC,152355,A,3000.00000,N,12000.00000,E,0.000,0.000,140121,0.000,E,A,V*63
$GPGGA,152356,3000.00000,N,12000.00000,E,3,16,0.85,-7.86,M,7.86,M,,*61
$GPRMC,152356,A,3000.00000,N,12000.00000,E,0.000,0.000,140121,0.000,E,A,V*60
$GPGGA,152357,3000.00000,N,12000.00000,E,3,16,0.85,-7.86,M,7.86,M,,*60
$GPRMC,152357,A,3000.00000,N,12000.00000,E,0.000,0.000,140121,0.000,E,A,V*61
$GPGGA,152358,3000.00000,N,12000.00000,E,3,16,0.85,-7.86,M,7.86,M,,*6F
$GPRMC,152358,A,3000.00000,N,12000.00000,E,0.000,0.000,140121,0.000,E,A,V*6E
$GPGGA,152359,3000.00000,N,12000.00000,E,3,16,0.85,-7.86,M,7.86,M,,*6E
$GPRMC,152359,A,3000.00000,N,12000.00000,E,0.000,0.000,140121,0.000,E,A,V*6F
$GPGGA,152400,3000.00000,N,12000.00000,E,3,16,0.85,-7.86,M,7.86,M,,*65
$GPRMC,152400,A,3000.00000,N,12000.00000,E,0.000,0.000,140121,0.000,E,A,V*64
$GPGGA,152401,3000.00000,N,12000.00000,E,3,16,0.85,-7.86,M,7.86,M,,*64
$GPRMC,152401,A,3000.00000,N,12000.00000,E,0.000,0.000,140121,0.000,E,A,V*65
$GPGGA,152402,3000.00000,N,12000.00000,E,3,16,0.85,-7.86,M,7.86,M,,*67
$GPRMC,152402,A,3000.00000,N,12000.00000,E,0.000,0.000,140121,0.000,E,A,V*66
$GPGGA,152403,3000.00000,N,12000.00000,E,3,16,0.85,-7.86,M,7.86,M,,*66
$GPRMC,152403,A,3000.00000,N,12000.00000,E,0.000,0.000,140121,0.000,E,A,V*67
$GPGGA,152404,3000.00000,N,12000.00000,E,3,17,0.74,-7.86,M,7.86,M,,*6E
$GPRMC,152404,A,3000.00000,N,12000.00000,E,0.000,0.000,140121,0.000,E,A,V*60
$GPGGA,152405,3000.00000,N,12000.00000,E,3,17,0.74,-7.86,M,7.86,M,,*6F
$GPRMC,152405,A,3000.00000,N,12000.00000,E,0.000,0.000,140121,0.000,E,A,V*61
$GPGGA,152406,3000.00000,N,12000.00000,E,3,17,0.74,-7.86,M,7.86,M,,*6C
$GPRMC,152406,A,3000.00000,N,12000.00000,E,0.000,0.000,140121,0.000,E,A,V*62
$GPGGA,152407,3000.00000,N,12000.00000,E,3,17,0.74,-7.86,M,7.86,M,,*6D
$GPRMC,152407,A,3000.00000,N,12000.00000,E,0.000,0.000,140121,0.000,E,A,V*63
$GPGGA,152408,3000.00000,N,12000.00000,E,3,17,0.74,-7.86,M,7.86,M,,*62
$GPRMC,152408,A,3000.00000,N,12000.00000,E,0.000,0.000,140121,0.000,E,A,V*6C
$GPGGA,152409,3000.00000,N,12000.00000,E,3,17,0.74,-7.86,M,7.86,M,,*63
$GPRMC,152409,A,3000.00000,N,12000.00000,E,0.000,0.000,140121,0.000,E,A,V*6D
$GPGGA,152410,3000.00000,N,12000.00000,E,3,17,0.74,-7.86,M,7.86,M,,*6B
$GPRMC,152410,A,3000.00000,N,12000.00000,E,0.000,0.000,140121,0.000,E,A,V*65
$GPGGA,152411,3000.00000,N,12000.00000,E,3,17,0.74,-7.86,M,7.86,M,,*6A
$GPRMC,152411,A,3000.00000,N,12000.00000,E,0.000,0.000,140121,0.000,E,A,V*64
$GPGGA,152412,3000.00000,N,12000.00000,E,3,17,0.74,-7.86,M,7.86,M,,*69
$GPRMC,152412,A,3000.00000,N,12000.00000,E,0.000,0.000,140121,0.000,E,A,V*67
$GPGGA,152413,3000.00000,N,12000.00000,E,3,17,0.74,-7.86,M,7.86,M,,*68
$GPRMC,152413,A,3000.00000,N,12000.00000,E,0.000,0.000,140121,0.000,E,A,V*66
$GPGGA,152414,3000.00000,N,12000.00000,E,3,17,0.74,-7.86,M,7.86,M,,*6F
$GPRMC,152414,A,3000.00000,N,12000.00000,E,0.000,0.000,140121,0.000,E,A,V*61
$GPGGA,152415,3000.00000,N,12000.00000,E,3,17,0.74,-7.86,M,7.86,M,,*6E
$GPRMC,152415,A,3000.00000,N,12000.00000,E,0.000,0.000,140121,0.000,E,A,V*60
$GPGGA,152416,3000.00000,N,12000.00000,E,3,17,0.74,-7.86,M,7.86,M,,*6D
$GPRMC,152416,A,3000.00000,N,12000.00000,E,0.000,0.000,140121,0.000,E,A,V*63
$GPGGA,152417,3000.00000,N,12000.00000,E,3,17,0.74,-7.86,M,7.86,M,,*6C
$GPRMC,152417,A,3000.00000,N,12000.00000,E,0.000,0.000,140121,0.000,E,A,V*62
$GPGGA,152418,3000.00000,N,12000.00000,E,3,17,0.74,-7.86,M,7.86,M,,*63
$GPRMC,152418,A,3000.00000,N,12000.00000,E,0.000,0.000,140121,0.000,E,A,V*6D
$GPGGA,152419,3000.00000,N,12000.00000,E,3,17,0.74,-7.86,M,7.86,M,,*62
$GPRMC,152419,A,3000.00000,N,12000.00000,E,0.000,0.000,140121,0.000,E,A,V*6C
$GPGGA,152420,3000.00000,N,12000.00000,E,3,17,0.74,-7.86,M,7.86,M,,*68
$GPRMC,152420,A,3000.00000,N,12000.00000,E,0.000,0.000,140121,0.000,E,A,V*66
$GPGGA,152421,3000.00000,N,12000.00000,E,3,17,0.74,-7.86,M,7.86,M,,*69
$GPRMC,152421,A,3000.00000,N,12000.00000,E,0.000,0.000,140121,0.000,E,A,V*67
$GPGGA,152422,3000.00000,N,12000.00000,E,3,17,0.74,-7.86,M,7.86,M,,*6A
$GPRMC,152422,A,3000.00000,N,12000.00000,E,0.000,0.000,140121,0.000,E,A,V*64
$GPGGA,152423,3000.00000,N,12000.00000,E,3,17,0.74,-7.86,M,7.86,M,,*6B
$GPRMC,152423,A,3000.00000,N,12000.00000,E,0.000,0.000,140121,0.000,E,A,V*65
$GPGGA,152424,3000.00000,N,12000.00000,E,3,17,0.74,-7.86,M,7.86,M,,*6C
$GPRMC,152424,A,3000.00000,N,12000.00000,E,0.000,0.000,140121,0.000,E,A,V*62
$GPGGA,152425,3000.00000,N,12000.00000,E,3,17,0.74,-7.86,M,7.86,M,,*6D
$GPRMC,152425,A,3000.00000,N,12000.00000,E,0.000,0.000,140121,0.000,E,A,V*63
$GPGGA,152426,3000.00000,N,12000.00000,E,3,17,0.74,-7.86,M,7.86,M,,*6E
$GPRMC,152426,A,3000.00000,N,12000.00000,E,0.000,0.000,140121,0.000,E,A,V*60
$GPGGA,152427,3000.00000,N,12000.00000,E,3,17,0.74,-7.86,M,7.86,M,,*6F
$GPRMC,152427,A,3000.00000,N,12000.00000,E,0.000,0.000,140121,0.000,E,A,V*61
$GPGGA,152428,3000.00000,N,12000.00000,E,3,17,0.74,-7.86,M,7.86,M,,*60
$GPRMC,152428,A,3000.00000,N,12000.00000,E,0.000,0.000,140121,0.000,E,A,V*6E
$GPGGA,152429,3000.00000,N,12000.00000,E,3,17,0.74,-7.86,M,7.86,M,,*61
$GPRMC,152429,A,3000.00000,N,12000.00000,E,0.000,0.000,140121,0.000,E,A,V*6F
$GPGGA,152430,3000.00000,N,12000.00000,E,3,17,0.74,-7.86,M,7.86,M,,*69
$GPRMC,152430,A,3000.00000,N,12000.00000,E,0.000,0.000,140121,0.000,E,A,V*67
$GPGGA,152431,3000.00000,N,12000.00000,E,3,17,0.74,-7.86,M,7.86,M,,*68
$GPRMC,152431,A,3000.00000,N,12000.00000,E,0.000,0.000,140121,0.000,E,A,V*66
$GPGGA,152432,3000.00000,N,12000.00000,E,3,17,0.74,-7.86,M,7.86,M,,*6B
$GPRMC,152432,A,3000.00000,N,12000.00000,E,0.000,0.000,140121,0.000,E,A,V*65
$GPGGA,152433,3000.00000,N,12000.00000,E,3,17,0.74,-7.86,M,7.86,M,,*6A
$GPRMC,152433,A,3000.00000,N,12000.00000,E,0.000,0.000,140121,0.000,E,A,V*64
$GPGGA,152434,3000.00000,N,12000.00000,E,3,17,0.74,-7.86,M,7.86,M,,*6D
$GPRMC,152434,A,3000.00000,N,12000.00000,E,0.000,0.000,140121,0.000,E,A,V*63
$GPGGA,152435,3000.00000,N,12000.00000,E,3,17,0.74,-7.86,M,7.86,M,,*6C
$GPRMC,152435,A,3000.00000,N,12000.00000,E,0.000,0.000,140121,0.000,E,A,V*62
$GPGGA,152436,3000.00000,N,12000.00000,E,3,17,0.74,-7.86,M,7.86,M,,*6F
$GPRMC,152436,A,3000.00000,N,12000.00000,E,0.000,0.000,140121,0.000,E,A,V*61
$GPGGA,152437,3000.00000,N,12000.00000,E,3,17,0.74,-7.86,M,7.86,M,,*6E
$GPRMC,152437,A,3000.00000,N,12000.00000,E,0.000,0.000,140121,0.000,E,A,V*60
$GPGGA,152438,3000.00000,N,12000.00000,E,3,17,0.74,-7.86,M,7.86,M,,*61
$GPRMC,152438,A,3000.00000,N,12000.00000,E,0.000,0.000,140121,0.000,E,A,V*6F
$GPGGA,152439,3000.00000,N,12000.00000,E,3,17,0.74,-7.86,M,7.86,M,,*60
$GPRMC,152439,A,3000.00000,N,12000.00000,E,0.000,0.000,140121,0.000,E,A,V*6E
$GPGGA,152440,3000.00000,N,12000.00000,E,3,17,0.74,-7.86,M,7.86,M,,*6E
$GPRMC,152440,A,3000.00000,N,12000.00000,E,0.000,0.000,140121,0.000,E,A,V*60
$GPGGA,152441,3000.00000,N,12000.00000,E,3,17,0.74,-7.86,M,7.86,M,,*6F
$GPRMC,152441,A,3000.00000,N,12000.00000,E,0.000,0.000,140121,0.000,E,A,V*61
$GPGGA,152442,3000.00000,N,12000.00000,E,3,17,0.74,-7.86,M,7.86,M,,*6C
$GPRMC,152442,A,3000.00000,N,12000.00000,E,0.000,0.000,140121,0.000,E,A,V*62
$GPGGA,152443,3000.00000,N,12000.00000,E,3,17,0.74,-7.86,M,7.86,M,,*6D
$GPRMC,152443,A,3000.00000,N,12000.00000,E,0.000,0.000,140121,0.000,E,A,V*63
$GPGGA,152444,3000.00000,N,12000.00000,E,3,17,0.74,-7.86,M,7.86,M,,*6A
$GPRMC,152444,A,3000.00000,N,12000.00000,E,0.000,0.000,140121,0.000,E,A,V*64
$GPGGA,152445,3000.00000,N,12000.00000,E,3,17,0.74,-7.86,M,7.86,M,,*6B
$GPRMC,152445,A,3000.00000,N,12000.00000,E,0.000,0.000,140121,0.000,E,A,V*65
$GPGGA,152446,3000.00000,N,12000.00000,E,3,17,0.74,-7.86,M,7.86,M,,*68
$GPRMC,152446,A,3000.00000,N,12000.00000,E,0.000,0.000,140121,0.000,E,A,V*66
$GPGGA,152447,3000.00000,N,12000.00000,E,3,17,0.74,-7.86,M,7.86,M,,*69
$GPRMC,152447,A,3000.00000,N,12000.00000,E,0.000,0.000,140121,0.000,E,A,V*67
$GPGGA,152448,3000.00000,N,12000.00000,E,3,17,0.74,-7.86,M,7.86,M,,*66
$GPRMC,152448,A,3000.00000,N,12000.00000,E,0.000,0.000,140121,0.000,E,A,V*68
$GPGGA,152449,3000.00000,N,12000.00000,E,3,17,0.74,-7.86,M,7.86,M,,*67
$GPRMC,152449,A,3000.00000,N,12000.00000,E,0.000,0.000,140121,0.000,E,A,V*69
$GPGGA,152450,3000.00000,N,12000.00000,E,3,17,0.74,-7.86,M,7.86,M,,*6F
$GPRMC,152450,A,3000.00000,N,12000.00000,E,0.000,0.000,140121,0.000,E,A,V*61
$GPGGA,152451,3000.00000,N,12000.00000,E,3,17,0.74,-7.86,M,7.86,M,,*6E
$GPRMC,152451,A,3000.00000,N,12000.00000,E,0.000,0.000,140121,0.000,E,A,V*60
$GPGGA,152452,3000.00000,N,12000.00000,E,3,17,0.74,-7.86,M,7.86,M,,*6D
$GPRMC,152452,A,3000.00000,N,12000.00000,E,0.000,0.000,140121,0.000,E,A,V*63
$GPGGA,152453,3000.00000,N,12000.00000,E,3,17,0.74,-7.86,M,7.86,M,,*6C
$GPRMC,152453,A,3000.00000,N,12000.00000,E,0.000,0.000,140121,0.000,E,A,V*62
$GPGGA,152454,3000.00000,N,12000.00000,E,3,17,0.74,-7.86,M,7.86,M,,*6B
$GPRMC,152454,A,3000.00000,N,12000.00000,E,0.000,0.000,140121,0.000,E,A,V*65
$GPGGA,152455,3000.00000,N,12000.00000,E,3,17,0.74,-7.86,M,7.86,M,,*6A
$GPRMC,152455,A,3000.00000,N,12000.00000,E,0.000,0.000,140121,0.000,E,A,V*64
$GPGGA,152456,3000.00000,N,12000.00000,E,3,17,0.74,-7.86,M,7.86,M,,*69
$GPRMC,152456,A,3000.00000,N,12000.00000,E,0.000,0.000,140121,0.000,E,A,V*67
$GPGGA,152457,3000.00000,N,12000.00000,E,3,17,0.74,-7.86,M,7.86,M,,*68
$GPRMC,152457,A,3000.00000,N,12000.00000,E,0.000,0.000,140121,0.000,E,A,V*66
$GPGGA,152458,3000.00000,N,12000.00000,E,3,17,0.74,-7.86,M,7.86,M,,*67
$GPRMC,152458,A,3000.00000,N,12000.00000,E,0.000,0.000,140121,0.000,E,A,V*69
$GPGGA,152459,3000.00000,N,12000.00000,E,3,17,0.74,-7.86,M,7.86,M,,*66
$GPRMC,152459,A,3000.00000,N,12000.00000,E,0.000,0.000,140121,0.000,E,A,V*68
$GPGGA,152500,3000.00000,N,12000.00000,E,3,17,0.74,-7.86,M,7.86,M,,*6B
$GPRMC,152500,A,3000.00000,N,12000.00000,E,0.000,0.000,140121,0.000,E,A,V*65
$GPGGA,152501,3000.00000,N,12000.00000,E,3,17,0.74,-7.86,M,7.86,M,,*6A
$GPRMC,152501,A,3000.00000,N,12000.00000,E,0.000,0.000,140121,0.000,E,A,V*64
$GPGGA,152502,3000.00000,N,12000.00000,E,3,17,0.74,-7.86,M,7.86,M,,*69
$GPRMC,152502,A,3000.00000,N,12000.00000,E,0.000,0.000,140121,0.000,E,A,V*67
$GPGGA,152503,3000.00000,N,12000.00000,E,3,17,0.74,-7.86,M,7.86,M,,*68
$GPRMC,152503,A,3000.00000,N,12000.00000,E,0.000,0.000,140121,0.000,E,A,V*66
$GPGGA,152504,3000.00000,N,12000.00000,E,3,17,0.74,-7.86,M,7.86,M,,*6F
$GPRMC,152504,A,3000.00000,N,12000.00000,E,0.000,0.000,140121,0.000,E,A,V*61
$GPGGA,152505,3000.00000,N,12000.00000,E,3,17,0.74,-7.86,M,7.86,M,,*6E
$GPRMC,152505,A,3000.00000,N,12000.00000,E,0.000,0.000,140121,0.000,E,A,V*60
$GPGGA,152506,3000.00000,N,12000.00000,E,3,17,0.74,-7.86,M,7.86,M,,*6D
$GPRMC,152506,A,3000.00000,N,12000.00000,E,0.000,0.000,140121,0.000,E,A,V*63
$GPGGA,152507,3000.00000,N,12000.00000,E,3,17,0.74,-7.86,M,7.86,M,,*6C
$GPRMC,152507,A,3000.00000,N,12000.00000,E,0.000,0.000,140121,0.000,E,A,V*62
$GPGGA,152508,3000.00000,N,12000.00000,E,3,17,0.74,-7.86,M,7.86,M,,*63
$GPRMC,152508,A,3000.00000,N,12000.00000,E,0.000,0.000,140121,0.000,E,A,V*6D
$GPGGA,152509,3000.00000,N,12000.00000,E,3,17,0.74,-7.86,M,7.86,M,,*62
$GPRMC,152509,A,3000.00000,N,12000.00000,E,0.000,0.000,140121,0.000,E,A,V*6C
$GPGGA,152510,3000.00000,N,12000.00000,E,3,17,0.74,-7.86,M,7.86,M,,*6A
$GPRMC,152510,A,3000.00000,N,12000.00000,E,0.000,0.000,140121,0.000,E,A,V*64
$GPGGA,152511,3000.00000,N,12000.00000,E,3,17,0.74,-7.86,M,7.86,M,,*6B
$GPRMC,152511,A,3000.00000,N,12000.00000,E,0.000,0.000,140121,0.000,E,A,V*65
$GPGGA,152512,3000.00000,N,12000.00000,E,3,17,0.74,-7.86,M,7.86,M,,*68
$GPRMC,152512,A,3000.00000,N,12000.00000,E,0.000,0.000,140121,0.000,E,A,V*66
$GPGGA,152513,3000.00000,N,12000.00000,E,3,17,0.74,-7.86,M,7.86,M,,*69
$GPRMC,152513,A,3000.00000,N,12000.00000,E,0.000,0.000,140121,0.000,E,A,V*67
$GPGGA,152514,3000.00000,N,12000.00000,E,3,17,0.74,-7.86,M,7.86,M,,*6E
$GPRMC,152514,A,3000.00000,N,12000.00000,E,0.000,0.000,140121,0.000,E,A,V*60
$GPGGA,152515,3000.00000,N,12000.00000,E,3,17,0.74,-7.86,M,7.86,M,,*6F
$GPRMC,152515,A,3000.00000,N,12000.00000,E,0.000,0.000,140121,0.000,E,A,V*61
$GPGGA,152516,3000.00000,N,12000.00000,E,3,17,0.74,-7.86,M,7.86,M,,*6C
$GPRMC,152516,A,3000.00000,N,12000.00000,E,0.000,0.000,140121,0.000,E,A,V*62
$GPGGA,152517,3000.00000,N,12000.00000,E,3,17,0.74,-7.86,M,7.86,M,,*6D
$GPRMC,152517,A,3000.00000,N,12000.00000,E,0.000,0.000,140121,0.000,E,A,V*63
$GPGGA,152518,3000.00000,N,12000.00000,E,3,17,0.74,-7.86,M,7.86,M,,*62
$GPRMC,152518,A,3000.00000,N,12000.00000,E,0.000,0.000,140121,0.000,E,A,V*6C
$GPGGA,152519,3000.00000,N,12000.00000,E,3,17,0.74,-7.86,M,7.86,M,,*63
$GPRMC,152519,A,3000.00000,N,12000.00000,E,0.000,0.000,140121,0.000,E,A,V*6D
$GPGGA,152520,3000.00000,N,12000.00000,E,3,17,0.74,-7.86,M,7.86,M,,*69
$GPRMC,152520,A,3000.00000,N,12000.00000,E,0.000,0.000,140121,0.000,E,A,V*67
$GPGGA,152521,3000.00000,N,12000.00000,E,3,17,0.74,-7.86,M,7.86,M,,*68
$GPRMC,152521,A,3000.00000,N,12000.00000,E,0.000,0.000,140121,0.000,E,A,V*66
$GPGGA,152522,3000.00000,N,12000.00000,E,3,17,0.74,-7.86,M,7.86,M,,*6B
$GPRMC,152522,A,3000.00000,N,12000.00000,E,0.000,0.000,140121,0.000,E,A,V*65
$GPGGA,152523,3000.00000,N,12000.00000,E,3,17,0.74,-7.86,M,7.86,M,,*6A
$GPRMC,152523,A,3000.00000,N,12000.00000,E,0.000,0.000,140121,0.000,E,A,V*64
$GPGGA,152524,3000.00000,N,12000.00000,E,3,17,0.74,-7.86,M,7.86,M,,*6D
$GPRMC,152524,A,3000.00000,N,12000.00000,E,0.000,0.000,140121,0.000,E,A,V*63
$GPGGA,152525,3000.00000,N,12000.00000,E,3,17,0.74,-7.86,M,7.86,M,,*6C
$GPRMC,152525,A,3000.00000,N,12000.00000,E,0.000,0.000,140121,0.000,E,A,V*62
$GPGGA,152526,3000.00000,N,12000.00000,E,3,17,0.74,-7.86,M,7.86,M,,*6F
$GPRMC,152526,A,3000.00000,N,12000.00000,E,0.000,0.000,140121,0.000,E,A,V*61
$GPGGA,152527,3000.00000,N,12000.00000,E,3,17,0.74,-7.86,M,7.86,M,,*6E
$GPRMC,152527,A,3000.00000,N,12000.00000,E,0.000,0.000,140121,0.000,E,A,V*60
$GPGGA,152528,3000.00000,N,12000.00000,E,3,17,0.74,-7.86,M,7.86,M,,*61
$GPRMC,152528,A,3000.00000,N,12000.00000,E,0.000,0.000,140121,0.000,E,A,V*6F
$GPGGA,152529,3000.00000,N,12000.00000,E,3,17,0.74,-7.86,M,7.86,M,,*60
$GPRMC,152529,A,3000.00000,N,12000.00000,E,0.000,0.000,140121,0.000,E,A,V*6E
$GPGGA,152530,3000.00000,N,12000.00000,E,3,17,0.74,-7.86,M,7.86,M,,*68
$GPRMC,152530,A,3000.00000,N,12000.00000,E,0.000,0.000,140121,0.000,E,A,V*66
$GPGGA,152531,3000.00000,N,12000.00000,E,3,17,0.74,-7.86,M,7.86,M,,*69
$GPRMC,152531,A,3000.00000,N,12000.00000,E,0.000,0.000,140121,0.000,E,A,V*67
$GPGGA,152532,3000.00000,N,12000.00000,E,3,17,0.74,-7.86,M,7.86,M,,*6A
$GPRMC,152532,A,3000.00000,N,12000.00000,E,0.000,0.000,140121,0.000,E,A,V*64
