$GPGSA,A,1,,,,,,,,,,,,,,,*1E
$GNGSA,A,1,,,,,,,,,,,,,,,*00
$PQGSA,A,1,,,,,,,,,,,,,,,*08
$GPVTG,,T,,M,,N,,K,N*2C
$GPRMC,,V,,,,,,,,,,N*53
$GPGGA,,,,,,0,,,,,,,,*66
$GPGSV,1,1,0,1*54
$GLGSV,1,1,0,1*48
$GAGSV,1,1,0,7*43
$PQGSV,1,1,03,193,06,132,,194,45,126,,195,59,057,*6A
$PQGSV,1,1,0,0*43
$GPGSA,A,1,,,,,,,,,,,,,,,*1E
$GNGSA,A,1,,,,,,,,,,,,,,,*00
$PQGSA,A,1,,,,,,,,,,,,,,,*08
$GPVTG,,T,,M,,N,,K,N*2C
$GPRMC,,V,,,,,,,,,,N*53
$GPGGA,,,,,,0,,,,,,,,*66
$GPGSV,1,1,0,1*54
$GLGSV,1,1,0,1*48
$GAGSV,1,1,0,7*43
$PQGSV,1,1,03,193,06,132,,194,45,126,,195,59,057,*6A
$PQGSV,1,1,0,0*43
$GPGSA,A,1,,,,,,,,,,,,,,,*1E
$GNGSA,A,1,,,,,,,,,,,,,,,*00
$PQGSA,A,1,,,,,,,,,,,,,,,*08
$GPVTG,,T,,M,,N,,K,N*2C
$GPRMC,,V,,,,,,,,,,N*53
$GPGGA,,,,,,0,,,,,,,,*66
$GPGSV,1,1,0,1*54
$GLGSV,1,1,0,1*48
$GAGSV,1,1,0,7*43
$PQGSV,1,1,03,193,06,132,,194,45,126,,195,59,057,*6A
$PQGSV,1,1,0,0*43
$GPGSA,A,1,,,,,,,,,,,,,,,*1E
$GNGSA,A,1,,,,,,,,,,,,,,,*00
$PQGSA,A,1,,,,,,,,,,,,,,,*08
$GPVTG,,T,,M,,N,,K,N*2C
$GPRMC,,V,,,,,,,,,,N*53
$GPGGA,,,,,,0,,,,,,,,*66
$GPGSV,1,1,01,20,00,000,32*4B
$GLGSV,1,1,0,1*48
$GAGSV,1,1,0,7*43
$PQGSV,1,1,03,193,06,132,,194,45,126,,195,59,057,*6A
$PQGSV,1,1,0,0*43
$GPGSA,A,1,,,,,,,,,,,,,,,*1E
$GNGSA,A,1,,,,,,,,,,,,,,,*00
$PQGSA,A,1,,,,,,,,,,,,,,,*08
$GPVTG,,T,,M,,N,,K,N*2C
$GPRMC,,V,,,,,,,,,,N*53
$GPGGA,,,,,,0,,,,,,,,*66
$GPGSV,1,1,01,20,00,000,32*4B
$GLGSV,1,1,0,1*48
$GAGSV,1,1,0,7*43
$PQGSV,1,1,03,193,06,132,,194,45,126,,195,59,057,*6A
$PQGSV,1,1,0,0*43
$GPGSA,A,1,,,,,,,,,,,,,,,*1E
$GNGSA,A,1,,,,,,,,,,,,,,,*00
$PQGSA,A,1,,,,,,,,,,,,,,,*08
$GPVTG,,T,,M,,N,,K,N*2C
$GPRMC,,V,,,,,,,,,,N*53
$GPGGA,,,,,,0,,,,,,,,*66
$GPGSV,1,1,01,20,00,000,24*4C
$GLGSV,1,1,0,1*48
$GAGSV,1,1,0,7*43
$PQGSV,1,1,03,193,06,132,,194,45,126,,195,59,057,*6A
$PQGSV,1,1,0,0*43
$GPGSA,A,1,,,,,,,,,,,,,,,*1E
$GNGSA,A,1,,,,,,,,,,,,,,,*00
$PQGSA,A,1,,,,,,,,,,,,,,,*08
$GPVTG,,T,,M,,N,,K,N*2C
$GPRMC,,V,,,,,,,,,,N*53
$GPGGA,,,,,,0,,,,,,,,*66
$GPGSV,1,1,01,20,00,000,22*4A
$GLGSV,1,1,0,1*48
$GAGSV,1,1,0,7*43
$PQGSV,1,1,03,193,06,132,,194,45,126,,195,59,057,*6A
$PQGSV,1,1,0,0*43
$GPGSA,A,1,,,,,,,,,,,,,,,*1E
$GNGSA,A,1,,,,,,,,,,,,,,,*00
$PQGSA,A,1,,,,,,,,,,,,,,,*08
$GPVTG,,T,,M,,N,,K,N*2C
$GPRMC,,V,,,,,,,,,,N*53
$GPGGA,,,,,,0,,,,,,,,*66
$GPGSV,1,1,03,02,00,000,32,08,00,000,32,20,00,000,32*43
$GLGSV,1,1,0,1*48
$GAGSV,1,1,0,7*43
$PQGSV,1,1,03,193,06,132,,194,45,126,,195,59,057,*6A
$PQGSV,1,1,0,0*43
$GPGSA,A,1,,,,,,,,,,,,,,,*1E
$GNGSA,A,1,,,,,,,,,,,,,,,*00
$PQGSA,A,1,,,,,,,,,,,,,,,*08
$GPVTG,,T,,M,,N,,K,N*2C
$GPRMC,,V,,,,,,,,,,N*53
$GPGGA,,,,,,0,,,,,,,,*66
$GPGSV,1,1,04,02,00,000,33,07,00,000,32,08,00,000,32,20,00,000,33*72
$GLGSV,1,1,0,1*48
$GAGSV,1,1,0,7*43
$PQGSV,1,1,03,193,06,132,,194,45,126,,195,59,057,*6A
$PQGSV,1,1,0,0*43
$GPGSA,A,1,,,,,,,,,,,,,,,*1E
$GNGSA,A,1,,,,,,,,,,,,,,,*00
$PQGSA,A,1,,,,,,,,,,,,,,,*08
$GPVTG,,T,,M,,N,,K,N*2C
$GPRMC,,V,,,,,,,,,,N*53
$GPGGA,,,,,,0,,,,,,,,*66
$GPGSV,2,1,06,02,00,000,33,07,00,000,33,08,00,000,33,13,00,000,33*73
$GPGSV,2,2,06,20,00,000,33,27,00,000,32*79
$GLGSV,1,1,0,1*48
$GAGSV,1,1,0,7*43
$PQGSV,1,1,03,193,06,132,,194,45,126,,195,59,057,*6A
$PQGSV,1,1,0,0*43
$GPGSA,A,1,,,,,,,,,,,,,,,*1E
$GNGSA,A,1,,,,,,,,,,,,,,,*00
$PQGSA,A,1,,,,,,,,,,,,,,,*08
$GPVTG,,T,,M,,N,,K,N*2C
$GPRMC,,V,,,,,,,,,,N*53
$GPGGA,,,,,,0,,,,,,,,*66
$GPGSV,2,1,08,02,00,000,33,07,00,000,33,08,00,000,33,13,00,000,32*7C
$GPGSV,2,2,08,20,00,000,33,23,00,000,33,25,00,000,31,27,00,000,33*72
$GLGSV,1,1,0,1*48
$GAGSV,1,1,0,7*43
$PQGSV,1,1,03,193,06,132,,194,45,126,,195,59,057,*6A
$PQGSV,1,1,0,0*43
$GPGSA,A,1,,,,,,,,,,,,,,,*1E
$GNGSA,A,1,,,,,,,,,,,,,,,*00
$PQGSA,A,1,,,,,,,,,,,,,,,*08
$GPVTG,,T,,M,,N,,K,N*2C
$GPRMC,,V,,,,,,,,,,N*53
$GPGGA,,,,,,0,,,,,,,,*66
$GPGSV,2,1,08,02,00,000,33,07,00,000,33,08,00,000,33,13,00,000,33*7D
$GPGSV,2,2,08,20,00,000,33,23,00,000,33,25,00,000,35,27,00,000,33*76
$GLGSV,1,1,0,1*48
$GAGSV,1,1,0,7*43
$PQGSV,1,1,03,193,06,132,,194,45,126,,195,59,057,*6A
$PQGSV,1,1,0,0*43
$GPGSA,A,1,,,,,,,,,,,,,,,*1E
$GNGSA,A,1,,,,,,,,,,,,,,,*00
$PQGSA,A,1,,,,,,,,,,,,,,,*08
$GPVTG,,T,,M,,N,,K,N*2C
$GPRMC,,V,,,,,,,,,,N*53
$GPGGA,,,,,,0,,,,,,,,*66
$GPGSV,3,1,09,02,00,000,33,04,00,000,32,07,00,000,33,08,00,000,33*7A
$GPGSV,3,2,09,13,00,000,33,20,00,000,33,23,00,000,33,25,00,000,33*77
$GPGSV,3,3,09,27,00,000,33*45
$GLGSV,1,1,0,1*48
$GAGSV,1,1,0,7*43
$PQGSV,1,1,03,193,06,132,,194,45,126,,195,59,057,*6A
$PQGSV,1,1,0,0*43
$GPGSA,A,1,,,,,,,,,,,,,,,*1E
$GNGSA,A,1,,,,,,,,,,,,,,,*00
$PQGSA,A,1,,,,,,,,,,,,,,,*08
$GPVTG,,T,,M,,N,,K,N*2C
$GPRMC,,V,,,,,,,,,,N*53
$GPGGA,,,,,,0,,,,,,,,*66
$GPGSV,3,1,09,02,00,000,33,04,00,000,33,07,00,000,33,08,00,000,33*7B
$GPGSV,3,2,09,13,00,000,33,20,00,000,33,23,00,000,33,25,00,000,33*77
$GPGSV,3,3,09,27,00,000,33*45
$GLGSV,1,1,0,1*48
$GAGSV,1,1,0,7*43
$PQGSV,1,1,03,193,06,132,,194,45,126,,195,59,057,*6A
$PQGSV,1,1,0,0*43
$GPGSA,A,1,,,,,,,,,,,,,,,*1E
$GNGSA,A,1,,,,,,,,,,,,,,,*00
$PQGSA,A,1,,,,,,,,,,,,,,,*08
$GPVTG,,T,,M,,N,,K,N*2C
$GPRMC,,V,,,,,,,,,,N*53
$GPGGA,,,,,,0,,,,,,,,*66
$GPGSV,3,1,09,02,00,000,33,04,00,000,33,07,00,000,33,08,00,000,33*7B
$GPGSV,3,2,09,13,00,000,33,20,00,000,33,23,00,000,33,25,00,000,33*77
$GPGSV,3,3,09,27,00,000,33*45
$GLGSV,1,1,0,1*48
$GAGSV,1,1,0,7*43
$PQGSV,1,1,03,193,06,132,,194,45,126,,195,59,057,*6A
$PQGSV,1,1,0,0*43
$GPGSA,A,1,,,,,,,,,,,,,,,*1E
$GNGSA,A,1,,,,,,,,,,,,,,,*00
$PQGSA,A,1,,,,,,,,,,,,,,,*08
$GPVTG,,T,,M,,N,,K,N*2C
$GPRMC,,V,,,,,,,,,,N*53
$GPGGA,,,,,,0,,,,,,,,*66
$GPGSV,3,1,09,02,00,000,33,04,00,000,33,07,00,000,33,08,00,000,33*7B
$GPGSV,3,2,09,13,00,000,33,20,00,000,33,23,00,000,33,25,00,000,33*77
$GPGSV,3,3,09,27,00,000,33*45
$GLGSV,1,1,0,1*48
$GAGSV,1,1,0,7*43
$PQGSV,1,1,03,193,06,132,,194,45,126,,195,59,057,*6A
$PQGSV,1,1,0,0*43
$GPGSA,A,1,,,,,,,,,,,,,,,*1E
$GNGSA,A,1,,,,,,,,,,,,,,,*00
$PQGSA,A,1,,,,,,,,,,,,,,,*08
$GPVTG,,T,,M,,N,,K,N*2C
$GPRMC,,V,,,,,,,,,,N*53
$GPGGA,,,,,,0,,,,,,,,*66
$GPGSV,3,1,09,02,00,000,33,04,00,000,33,07,00,000,33,08,00,000,33*7B
$GPGSV,3,2,09,13,00,000,33,20,00,000,33,23,00,000,33,25,00,000,33*77
$GPGSV,3,3,09,27,00,000,33*45
$GLGSV,1,1,0,1*48
$GAGSV,1,1,0,7*43
$PQGSV,1,1,03,193,06,132,,194,45,126,,195,59,057,*6A
$PQGSV,1,1,0,0*43
$GPGSA,A,1,,,,,,,,,,,,,,,*1E
$GNGSA,A,1,,,,,,,,,,,,,,,*00
$PQGSA,A,1,,,,,,,,,,,,,,,*08
$GPVTG,,T,,M,,N,,K,N*2C
$GPRMC,,V,,,,,,,,,,N*53
$GPGGA,,,,,,0,,,,,,,,*66
$GPGSV,3,1,09,02,00,000,33,04,00,000,33,07,00,000,33,08,00,000,33*7B
$GPGSV,3,2,09,13,00,000,32,20,00,000,33,23,00,000,33,25,00,000,33*76
$GPGSV,3,3,09,27,00,000,33*45
$GLGSV,1,1,0,1*48
$GAGSV,1,1,0,7*43
$PQGSV,1,1,03,193,06,132,,194,45,126,,195,59,057,*6A
$PQGSV,1,1,0,0*43
$GPGSA,A,1,,,,,,,,,,,,,,,*1E
$GNGSA,A,1,,,,,,,,,,,,,,,*00
$PQGSA,A,1,,,,,,,,,,,,,,,*08
$GPVTG,,T,,M,,N,,K,N*2C
$GPRMC,,V,,,,,,,,,,N*53
$GPGGA,,,,,,0,,,,,,,,*66
$GPGSV,3,1,09,02,00,000,32,04,00,000,33,07,00,000,33,08,00,000,33*7A
$GPGSV,3,2,09,13,00,000,33,20,00,000,33,23,00,000,33,25,00,000,33*77
$GPGSV,3,3,09,27,00,000,33*45
$GLGSV,1,1,0,1*48
$GAGSV,1,1,0,7*43
$PQGSV,1,1,03,193,06,132,,194,45,126,,195,59,057,*6A
$PQGSV,1,1,0,0*43
$GPGSA,A,1,,,,,,,,,,,,,,,*1E
$GNGSA,A,1,,,,,,,,,,,,,,,*00
$PQGSA,A,1,,,,,,,,,,,,,,,*08
$GPVTG,,T,,M,,N,,K,N*2C
$GPRMC,,V,,,,,,,,,,N*53
$GPGGA,,,,,,0,,,,,,,,*66
$GPGSV,3,1,09,02,00,000,33,04,00,000,33,07,00,000,33,08,00,000,33*7B
$GPGSV,3,2,09,13,00,000,33,20,00,000,33,23,00,000,33,25,00,000,33*77
$GPGSV,3,3,09,27,00,000,33*45
$GLGSV,1,1,0,1*48
$GAGSV,1,1,0,7*43
$PQGSV,1,1,03,193,06,132,,194,45,126,,195,59,057,*6A
$PQGSV,1,1,0,0*43
$GPGSA,A,1,,,,,,,,,,,,,,,*1E
$GNGSA,A,1,,,,,,,,,,,,,,,*00
$PQGSA,A,1,,,,,,,,,,,,,,,*08
$GPVTG,,T,,M,,N,,K,N*2C
$GPRMC,,V,,,,,,,,,,N*53
$GPGGA,,,,,,0,,,,,,,,*66
$GPGSV,3,1,09,02,00,000,33,04,00,000,33,07,00,000,33,08,00,000,33*7B
$GPGSV,3,2,09,13,00,000,33,20,00,000,33,23,00,000,32,25,00,000,33*76
$GPGSV,3,3,09,27,00,000,33*45
$GLGSV,1,1,0,1*48
$GAGSV,1,1,0,7*43
$PQGSV,1,1,03,193,06,132,,194,45,126,,195,59,057,*6A
$PQGSV,1,1,0,0*43
$GPGSA,A,1,,,,,,,,,,,,,,,*1E
$GNGSA,A,1,,,,,,,,,,,,,,,*00
$PQGSA,A,1,,,,,,,,,,,,,,,*08
$GPVTG,,T,,M,,N,,K,N*2C
$GPRMC,,V,,,,,,,,,,N*53
$GPGGA,,,,,,0,,,,,,,,*66
$GPGSV,3,1,09,02,00,000,33,04,00,000,33,07,00,000,33,08,00,000,33*7B
$GPGSV,3,2,09,13,00,000,33,20,00,000,33,23,00,000,33,25,00,000,33*77
$GPGSV,3,3,09,27,00,000,32*44
$GLGSV,1,1,0,1*48
$GAGSV,1,1,0,7*43
$PQGSV,1,1,03,193,06,132,,194,45,126,,195,59,057,*6A
$PQGSV,1,1,0,0*43
$GPGSA,A,1,,,,,,,,,,,,,,,*1E
$GNGSA,A,1,,,,,,,,,,,,,,,*00
$PQGSA,A,1,,,,,,,,,,,,,,,*08
$GPVTG,,T,,M,,N,,K,N*2C
$GPRMC,,V,,,,,,,,,,N*53
$GPGGA,,,,,,0,,,,,,,,*66
$GPGSV,3,1,09,02,00,000,33,04,00,000,33,07,00,000,33,08,00,000,33*7B
$GPGSV,3,2,09,13,00,000,33,20,00,000,33,23,00,000,33,25,00,000,33*77
$GPGSV,3,3,09,27,00,000,32*44
$GLGSV,1,1,0,1*48
$GAGSV,1,1,0,7*43
$PQGSV,1,1,03,193,06,132,,194,45,126,,195,59,057,*6A
$PQGSV,1,1,0,0*43
$GPGSA,A,1,,,,,,,,,,,,,,,*1E
$GNGSA,A,1,,,,,,,,,,,,,,,*00
$PQGSA,A,1,,,,,,,,,,,,,,,*08
$GPVTG,,T,,M,,N,,K,N*2C
$GPRMC,,V,,,,,,,,,,N*53
$GPGGA,,,,,,0,,,,,,,,*66
$GPGSV,3,1,09,02,00,000,33,04,00,000,33,07,00,000,33,08,00,000,33*7B
$GPGSV,3,2,09,13,00,000,33,20,00,000,33,23,00,000,33,25,00,000,33*77
$GPGSV,3,3,09,27,00,000,32*44
$GLGSV,1,1,0,1*48
$GAGSV,1,1,0,7*43
$PQGSV,1,1,03,193,06,132,,194,45,126,,195,59,057,*6A
$PQGSV,1,1,0,0*43
$GPGSA,A,1,,,,,,,,,,,,,,,*1E
$GNGSA,A,1,,,,,,,,,,,,,,,*00
$PQGSA,A,1,,,,,,,,,,,,,,,*08
$GPVTG,,T,,M,,N,,K,N*2C
$GPRMC,,V,,,,,,,,,,N*53
$GPGGA,,,,,,0,,,,,,,,*66
$GPGSV,3,1,09,02,00,000,33,04,00,000,33,07,00,000,33,08,00,000,33*7B
$GPGSV,3,2,09,13,00,000,33,20,00,000,33,23,00,000,33,25,00,000,33*77
$GPGSV,3,3,09,27,00,000,33*45
$GLGSV,1,1,0,1*48
$GAGSV,1,1,0,7*43
$PQGSV,1,1,03,193,06,132,,194,45,126,,195,59,057,*6A
$PQGSV,1,1,0,0*43
$GPGSA,A,1,,,,,,,,,,,,,,,*1E
$GNGSA,A,1,,,,,,,,,,,,,,,*00
$PQGSA,A,1,,,,,,,,,,,,,,,*08
$GPVTG,,T,,M,,N,,K,N*2C
$GPRMC,,V,,,,,,,,,,N*53
$GPGGA,,,,,,0,,,,,,,,*66
$GPGSV,3,1,09,02,00,000,33,04,00,000,33,07,00,000,33,08,00,000,33*7B
$GPGSV,3,2,09,13,00,000,33,20,00,000,33,23,00,000,32,25,00,000,33*76
$GPGSV,3,3,09,27,00,000,33*45
$GLGSV,1,1,0,1*48
$GAGSV,1,1,0,7*43
$PQGSV,1,1,03,193,06,132,,194,45,126,,195,59,057,*6A
$PQGSV,1,1,0,0*43
$GPGSA,A,1,,,,,,,,,,,,,,,*1E
$GNGSA,A,1,,,,,,,,,,,,,,,*00
$PQGSA,A,1,,,,,,,,,,,,,,,*08
$GPVTG,,T,,M,,N,,K,N*2C
$GPRMC,,V,,,,,,,,,,N*53
$GPGGA,,,,,,0,,,,,,,,*66
$GPGSV,3,1,09,02,00,000,33,04,00,000,33,07,00,000,33,08,00,000,33*7B
$GPGSV,3,2,09,13,00,000,33,20,00,000,33,23,00,000,33,25,00,000,33*77
$GPGSV,3,3,09,27,00,000,33*45
$GLGSV,1,1,0,1*48
$GAGSV,1,1,0,7*43
$PQGSV,1,1,03,193,06,132,,194,45,126,,195,59,057,*6A
$PQGSV,1,1,0,0*43
$GPGSA,A,1,,,,,,,,,,,,,,,*1E
$GNGSA,A,1,,,,,,,,,,,,,,,*00
$PQGSA,A,1,,,,,,,,,,,,,,,*08
$GPVTG,,T,,M,,N,,K,N*2C
$GPRMC,,V,,,,,,,,,,N*53
$GPGGA,,,,,,0,,,,,,,,*66
$GPGSV,3,1,09,02,00,000,33,04,00,000,33,07,00,000,33,08,00,000,33*7B
$GPGSV,3,2,09,13,00,000,33,20,00,000,33,23,00,000,33,25,00,000,33*77
$GPGSV,3,3,09,27,00,000,33*45
$GLGSV,1,1,0,1*48
$GAGSV,1,1,0,7*43
$PQGSV,1,1,03,193,06,132,,194,45,126,,195,59,057,*6A
$PQGSV,1,1,0,0*43
$GPGSA,A,1,,,,,,,,,,,,,,,*1E
$GNGSA,A,1,,,,,,,,,,,,,,,*00
$PQGSA,A,1,,,,,,,,,,,,,,,*08
$GPVTG,,T,,M,,N,,K,N*2C
$GPRMC,,V,,,,,,,,,,N*53
$GPGGA,,,,,,0,,,,,,,,*66
$GPGSV,3,1,09,02,00,000,33,04,00,000,33,07,00,000,33,08,00,000,33*7B
$GPGSV,3,2,09,13,00,000,33,20,00,000,33,23,00,000,33,25,00,000,33*77
$GPGSV,3,3,09,27,00,000,33*45
$GLGSV,1,1,0,1*48
$GAGSV,1,1,0,7*43
$PQGSV,1,1,03,193,06,132,,194,45,126,,195,59,057,*6A
$PQGSV,1,1,0,0*43
$GPGSA,A,1,,,,,,,,,,,,,,,*1E
$GNGSA,A,1,,,,,,,,,,,,,,,*00
$PQGSA,A,1,,,,,,,,,,,,,,,*08
$GPVTG,,T,,M,,N,,K,N*2C
$GPRMC,,V,,,,,,,,,,N*53
$GPGGA,,,,,,0,,,,,,,,*66
$GPGSV,3,1,09,02,00,000,33,04,00,000,33,07,00,000,33,08,00,000,33*7B
$GPGSV,3,2,09,13,00,000,33,20,00,000,33,23,00,000,33,25,00,000,33*77
$GPGSV,3,3,09,27,00,000,32*44
$GLGSV,1,1,0,1*48
$GAGSV,1,1,0,7*43
$PQGSV,1,1,03,193,06,132,,194,45,126,,195,59,057,*6A
$PQGSV,1,1,0,0*43
$GPGSA,A,1,,,,,,,,,,,,,,,*1E
$GNGSA,A,1,,,,,,,,,,,,,,,*00
$PQGSA,A,1,,,,,,,,,,,,,,,*08
$GPVTG,,T,,M,,N,,K,N*2C
$GPRMC,,V,,,,,,,,,,N*53
$GPGGA,,,,,,0,,,,,,,,*66
$GPGSV,3,1,09,02,00,000,33,04,00,000,33,07,00,000,33,08,00,000,33*7B
$GPGSV,3,2,09,13,00,000,33,20,00,000,33,23,00,000,33,25,00,000,33*77
$GPGSV,3,3,09,27,00,000,33*45
$GLGSV,1,1,0,1*48
$GAGSV,1,1,0,7*43
$PQGSV,1,1,03,193,06,132,,194,45,126,,195,59,057,*6A
$PQGSV,1,1,0,0*43
$GPGSA,A,1,,,,,,,,,,,,,,,*1E
$GNGSA,A,1,,,,,,,,,,,,,,,*00
$PQGSA,A,1,,,,,,,,,,,,,,,*08
$GPVTG,,T,,M,,N,,K,N*2C
$GPRMC,,V,,,,,,,,,,N*53
$GPGGA,,,,,,0,,,,,,,,*66
$GPGSV,3,1,09,02,00,000,33,04,00,000,33,07,00,000,33,08,00,000,33*7B
$GPGSV,3,2,09,13,00,000,33,20,00,000,32,23,00,000,33,25,00,000,33*76
$GPGSV,3,3,09,27,00,000,33*45
$GLGSV,1,1,0,1*48
$GAGSV,1,1,0,7*43
$PQGSV,1,1,03,193,06,132,,194,45,126,,195,59,057,*6A
$PQGSV,1,1,0,0*43
$GPGSA,A,1,,,,,,,,,,,,,,,*1E
$GNGSA,A,1,,,,,,,,,,,,,,,*00
$PQGSA,A,1,,,,,,,,,,,,,,,*08
$GPVTG,,T,,M,,N,,K,N*2C
$GPRMC,,V,,,,,,,,,,N*53
$GPGGA,,,,,,0,,,,,,,,*66
$GPGSV,3,1,09,02,00,000,33,04,00,000,33,07,00,000,33,08,00,000,33*7B
$GPGSV,3,2,09,13,00,000,33,20,00,000,33,23,00,000,33,25,00,000,33*77
$GPGSV,3,3,09,27,00,000,33*45
$GLGSV,1,1,0,1*48
$GAGSV,1,1,0,7*43
$PQGSV,1,1,03,193,06,132,,194,45,126,,195,59,057,*6A
$PQGSV,1,1,0,0*43
$GPGSA,A,1,,,,,,,,,,,,,,,*1E
$GNGSA,A,1,,,,,,,,,,,,,,,*00
$PQGSA,A,1,,,,,,,,,,,,,,,*08
$GPVTG,,T,,M,,N,,K,N*2C
$GPRMC,,V,,,,,,,,,,N*53
$GPGGA,,,,,,0,,,,,,,,*66
$GPGSV,3,1,09,02,00,000,33,04,00,000,33,07,00,000,33,08,00,000,33*7B
$GPGSV,3,2,09,13,00,000,33,20,00,000,33,23,00,000,33,25,00,000,33*77
$GPGSV,3,3,09,27,00,000,33*45
$GLGSV,1,1,0,1*48
$GAGSV,1,1,0,7*43
$PQGSV,1,1,03,193,06,132,,194,45,126,,195,59,057,*6A
$PQGSV,1,1,0,0*43
$GPGSA,A,1,,,,,,,,,,,,,,,*1E
$GNGSA,A,1,,,,,,,,,,,,,,,*00
$PQGSA,A,1,,,,,,,,,,,,,,,*08
$GPVTG,,T,,M,,N,,K,N*2C
$GPRMC,,V,,,,,,,,,,N*53
$GPGGA,,,,,,0,,,,,,,,*66
$GPGSV,3,1,09,02,00,000,33,04,00,000,33,07,00,000,33,08,00,000,33*7B
$GPGSV,3,2,09,13,00,000,33,20,00,000,33,23,00,000,33,25,00,000,33*77
$GPGSV,3,3,09,27,00,000,33*45
$GLGSV,1,1,0,1*48
$GAGSV,1,1,0,7*43
$PQGSV,1,1,03,193,02,137,,194,46,115,,195,60,061,*67
$PQGSV,1,1,0,0*43
$GPGSA,A,1,,,,,,,,,,,,,,,*1E
$GNGSA,A,1,,,,,,,,,,,,,,,*00
$PQGSA,A,1,,,,,,,,,,,,,,,*08
$GPVTG,,T,,M,,N,,K,N*2C
$GPRMC,,V,,,,,,,,,,N*53
$GPGGA,,,,,,0,,,,,,,,*66
$GPGSV,3,1,09,02,00,000,33,04,00,000,33,07,00,000,33,08,00,000,33*7B
$GPGSV,3,2,09,13,00,000,33,20,00,000,32,23,00,000,33,25,00,000,33*76
$GPGSV,3,3,09,27,00,000,33*45
$GLGSV,1,1,0,1*48
$GAGSV,1,1,0,7*43
$PQGSV,1,1,03,193,02,137,,194,46,115,,195,60,061,*67
$PQGSV,1,1,0,0*43
$GPGSA,A,1,,,,,,,,,,,,,,,*1E
$GNGSA,A,1,,,,,,,,,,,,,,,*00
$PQGSA,A,1,,,,,,,,,,,,,,,*08
$GPVTG,,T,,M,,N,,K,N*2C
$GPRMC,,V,,,,,,,,,,N*53
$GPGGA,,,,,,0,,,,,,,,*66
$GPGSV,3,1,09,02,00,000,33,04,00,000,32,07,00,000,33,08,00,000,33*7A
$GPGSV,3,2,09,13,00,000,33,20,00,000,33,23,00,000,32,25,00,000,33*76
$GPGSV,3,3,09,27,00,000,33*45
$GLGSV,1,1,0,1*48
$GAGSV,1,1,0,7*43
$PQGSV,1,1,03,193,02,137,,194,46,115,,195,60,061,*67
$PQGSV,1,1,0,0*43
$GPGSA,A,1,,,,,,,,,,,,,,,*1E
$GNGSA,A,1,,,,,,,,,,,,,,,*00
$PQGSA,A,1,,,,,,,,,,,,,,,*08
$GPVTG,,T,,M,,N,,K,N*2C
$GPRMC,,V,,,,,,,,,,N*53
$GPGGA,,,,,,0,,,,,,,,*66
$GPGSV,3,1,09,02,00,000,33,04,00,000,33,07,00,000,33,08,00,000,33*7B
$GPGSV,3,2,09,13,00,000,33,20,00,000,33,23,00,000,33,25,00,000,33*77
$GPGSV,3,3,09,27,00,000,33*45
$GLGSV,1,1,0,1*48
$GAGSV,1,1,0,7*43
$PQGSV,1,1,03,193,02,137,,194,46,115,,195,60,061,*67
$PQGSV,1,1,0,0*43
$GPGSA,A,1,,,,,,,,,,,,,,,*1E
$GNGSA,A,1,,,,,,,,,,,,,,,*00
$PQGSA,A,1,,,,,,,,,,,,,,,*08
$GPVTG,,T,,M,,N,,K,N*2C
$GPRMC,,V,,,,,,,,,,N*53
$GPGGA,,,,,,0,,,,,,,,*66
$GPGSV,3,1,09,02,00,000,33,04,00,000,33,07,00,000,33,08,00,000,33*7B
$GPGSV,3,2,09,13,00,000,33,20,00,000,33,23,00,000,33,25,00,000,33*77
$GPGSV,3,3,09,27,00,000,33*45
$GLGSV,1,1,0,1*48
$GAGSV,1,1,0,7*43
$PQGSV,1,1,03,193,02,137,,194,46,115,,195,60,061,*67
$PQGSV,1,1,0,0*43
$GPGSA,A,1,,,,,,,,,,,,,,,*1E
$GNGSA,A,1,,,,,,,,,,,,,,,*00
$PQGSA,A,1,,,,,,,,,,,,,,,*08
$GPVTG,,T,,M,,N,,K,N*2C
$GPRMC,,V,,,,,,,,,,N*53
$GPGGA,,,,,,0,,,,,,,,*66
$GPGSV,3,1,09,02,45,299,33,04,00,000,33,07,00,000,33,08,00,000,33*78
$GPGSV,3,2,09,13,00,000,33,20,08,108,32,23,00,000,33,25,00,000,33*77
$GPGSV,3,3,09,27,00,000,32*44
$GLGSV,1,1,0,1*48
$GAGSV,1,1,02,23,61,209,,24,59,043,*6A
$PQGSV,1,1,03,193,02,137,,194,46,115,,195,60,061,*67
$PQGSV,1,1,0,0*43
$GPGSA,A,1,,,,,,,,,,,,,,,*1E
$GNGSA,A,1,,,,,,,,,,,,,,,*00
$PQGSA,A,1,,,,,,,,,,,,,,,*08
$GPVTG,,T,,M,,N,,K,N*2C
$GPRMC,,V,,,,,,,,,,N*53
$GPGGA,,,,,,0,,,,,,,,*66
$GPGSV,3,1,09,02,45,299,33,04,00,000,33,07,00,000,33,08,49,175,33*76
$GPGSV,3,2,09,13,00,000,33,20,08,108,33,23,00,000,33,25,00,000,33*76
$GPGSV,3,3,09,27,00,000,33*45
$GLGSV,1,1,0,1*48
$GAGSV,1,1,02,23,61,209,,24,59,043,*6A
$PQGSV,1,1,03,193,02,137,,194,46,115,,195,60,061,*67
$PQGSV,1,1,0,0*43
$GPGSA,A,1,,,,,,,,,,,,,,,*1E
$GNGSA,A,1,,,,,,,,,,,,,,,*00
$PQGSA,A,1,,,,,,,,,,,,,,,*08
$GPVTG,,T,,M,,N,,K,N*2C
$GPRMC,,V,,,,,,,,,,N*53
$GPGGA,,,,,,0,,,,,,,,*66
$GPGSV,3,1,09,02,45,299,33,04,00,000,33,07,00,000,33,08,49,175,33*76
$GPGSV,3,2,09,13,00,000,33,20,08,108,33,23,00,000,33,25,00,000,33*76
$GPGSV,3,3,09,27,00,000,33*45
$GLGSV,1,1,0,1*48
$GAGSV,1,1,02,23,61,209,,24,59,043,*6A
$PQGSV,1,1,03,193,02,137,,194,46,115,,195,60,061,*67
$PQGSV,1,1,0,0*43
$GPGSA,A,1,,,,,,,,,,,,,,,*1E
$GNGSA,A,1,,,,,,,,,,,,,,,*00
$PQGSA,A,1,,,,,,,,,,,,,,,*08
$GPVTG,,T,,M,,N,,K,N*2C
$GPRMC,,V,,,,,,,,,,N*53
$GPGGA,,,,,,0,,,,,,,,*66
$GPGSV,3,1,09,02,45,299,33,04,00,000,33,07,65,091,33,08,49,175,33*7D
$GPGSV,3,2,09,13,39,037,33,20,08,108,33,23,00,000,33,25,00,000,33*78
$GPGSV,3,3,09,27,25,201,33*41
$GLGSV,1,1,0,1*48
$GAGSV,1,1,02,23,61,209,,24,59,043,*6A
$PQGSV,1,1,03,193,02,137,,194,46,115,,195,60,061,*67
$PQGSV,1,1,0,0*43
$GPVTG,203.0,T,203.0,M,75.6,N,140.0,K,A*12
$GPDTM,P90,,0000.000022,S,00000.000001,W,0.988,W84*5A
$GPRMC,000027.59,A,2959.895954,N,12000.596854,E,75.6,203.0,230721,4.3,W,A*12
$GPGGA,000027.59,2959.895954,N,12000.596854,E,1,00,1.2,-5.3,M,7.0,M,,*71
$GPVTG,203.0,T,203.0,M,75.6,N,140.0,K,A*12
$GPDTM,P90,,0000.000022,S,00000.000001,W,0.988,W84*5A
$GPRMC,000028.92,A,2959.870549,N,12000.584437,E,75.6,203.0,230721,4.3,W,A*1B
$GPGGA,000028.92,2959.870549,N,12000.584437,E,1,00,1.2,-5.3,M,7.0,M,,*78
$GPGSV,3,1,09,02,31,299,33,04,00,000,33,07,83,118,33,08,46,206,33*7E
$GPGSV,3,2,09,13,48,029,33,20,22,120,33,23,26,056,33,25,65,042,33*71
$GPGSV,3,3,09,27,17,217,33*47
$GLGSV,1,1,0,1*48
$GAGSV,1,1,02,23,49,237,,24,68,018,*61
$PQGSV,1,1,03,193,10,149,,194,59,137,,195,73,046,*64
$PQGSV,1,1,0,0*43
$GPGSA,A,3,02,07,08,13,20,27,,,,,,,1.3,1.0,0.8*31
$GPVTG,210.8,T,210.8,M,75.6,N,139.9,K,A*15
$GPDTM,P90,,0000.000022,S,00000.000001,W,0.988,W84*5A
$GPRMC,000030.00,A,2959.850211,N,12000.568509,E,75.6,210.8,230721,4.3,W,A*15
$GPGGA,000030.00,2959.850211,N,12000.568509,E,1,06,1.0,-4.8,M,7.0,M,,*72
$GPGSV,3,1,09,02,31,298,33,04,50,246,33,07,83,116,33,08,46,206,33*74
$GPGSV,3,2,09,13,48,029,33,20,22,120,32,23,26,056,33,25,65,042,33*70
$GPGSV,3,3,09,27,17,217,33*47
$GLGSV,1,1,0,1*48
$GAGSV,1,1,02,23,49,237,,24,68,018,*61
$PQGSV,1,1,03,193,10,149,,194,59,137,,195,73,046,*64
$PQGSV,1,1,0,0*43
$GPGSA,A,3,02,07,08,13,20,23,25,27,,,,,1.3,1.0,0.8*37
$GPVTG,215.5,T,215.5,M,75.6,N,140.0,K,A*12
$GPDTM,P90,,0000.000022,S,00000.000001,W,0.988,W84*5A
$GPRMC,000031.00,A,2959.832762,N,12000.554147,E,75.6,215.5,230721,4.3,W,A*18
$GPGGA,000031.00,2959.832762,N,12000.554147,E,1,08,1.0,-3.6,M,7.0,M,,*70
$GPGSV,3,1,09,02,31,298,32,04,50,246,33,07,83,116,33,08,46,206,33*75
$GPGSV,3,2,09,13,48,029,33,20,22,120,33,23,26,056,33,25,65,042,33*71
$GPGSV,3,3,09,27,17,217,34*40
$GLGSV,1,1,0,1*48
$GAGSV,1,1,02,23,49,237,,24,68,018,*61
$PQGSV,1,1,03,193,10,149,,194,59,137,,195,73,046,*64
$PQGSV,1,1,0,0*43
$GPGSA,A,3,02,04,07,08,13,20,23,25,27,,,,1.3,1.0,0.8*33
$GPVTG,222.7,T,222.7,M,75.8,N,140.4,K,A*18
$GPDTM,P90,,0000.000022,S,00000.000001,W,0.988,W84*5A
$GPRMC,000032.00,A,2959.817154,N,12000.537710,E,75.8,222.7,230721,4.3,W,A*16
$GPGGA,000032.00,2959.817154,N,12000.537710,E,1,09,1.0,-4.4,M,7.0,M,,*72
$GPGSV,3,1,09,02,31,298,33,04,50,246,33,07,83,116,33,08,46,206,33*74
$GPGSV,3,2,09,13,48,029,33,20,22,120,33,23,26,056,33,25,65,042,33*71
$GPGSV,3,3,09,27,17,217,33*47
$GLGSV,1,1,0,1*48
$GAGSV,1,1,02,23,49,237,,24,68,018,*61
$PQGSV,1,1,03,193,10,149,,194,59,137,,195,73,046,*64
$PQGSV,1,1,0,0*43
$GPGSA,A,3,02,04,07,08,13,20,23,25,27,,,,1.3,1.0,0.8*33
$GPVTG,227.1,T,227.1,M,75.8,N,140.4,K,A*18
$GPDTM,P90,,0000.000022,S,00000.000001,W,0.988,W84*5A
$GPRMC,000033.00,A,2959.801729,N,12000.521217,E,75.8,227.1,230721,4.3,W,A*1A
$GPGGA,000033.00,2959.801729,N,12000.521217,E,1,09,1.0,-4.8,M,7.0,M,,*71
$GPGSV,3,1,09,02,31,298,33,04,50,246,33,07,83,116,33,08,46,206,33*74
$GPGSV,3,2,09,13,48,029,33,20,22,120,32,23,26,056,33,25,65,042,33*70
$GPGSV,3,3,09,27,17,217,33*47
$GLGSV,1,1,0,1*48
$GAGSV,1,1,02,23,49,237,,24,68,018,*61
$PQGSV,1,1,03,193,10,149,,194,59,137,,195,73,046,*64
$PQGSV,1,1,0,0*43
$GPGSA,A,3,02,04,07,08,13,20,23,25,27,,,,1.3,1.0,0.8*33
$GPVTG,231.6,T,231.6,M,75.8,N,140.4,K,A*18
$GPDTM,P90,,0000.000022,S,00000.000001,W,0.988,W84*5A
$GPRMC,000034.00,A,2959.788074,N,12000.502794,E,75.8,231.6,230721,4.3,W,A*13
$GPGGA,000034.00,2959.788074,N,12000.502794,E,1,09,1.0,-4.3,M,7.0,M,,*73
$GPGSV,3,1,09,02,31,298,33,04,50,246,33,07,83,116,33,08,46,206,33*74
$GPGSV,3,2,09,13,48,029,33,20,22,120,33,23,26,056,33,25,65,042,33*71
$GPGSV,3,3,09,27,17,217,33*47
$GLGSV,1,1,0,1*48
$GAGSV,1,1,02,23,49,237,,24,68,018,*61
$PQGSV,1,1,03,193,10,149,,194,59,137,,195,73,046,*64
$PQGSV,1,1,0,0*43
$GPGSA,A,3,02,04,07,08,13,20,23,25,27,,,,1.3,1.0,0.8*33
$GPVTG,236.0,T,236.0,M,75.8,N,140.4,K,A*18
$GPDTM,P90,,0000.000022,S,00000.000001,W,0.988,W84*5A
$GPRMC,000035.00,A,2959.775811,N,12000.483686,E,75.8,236.0,230721,4.3,W,A*10
$GPGGA,000035.00,2959.775811,N,12000.483686,E,1,09,1.0,-4.5,M,7.0,M,,*77
$GPGSV,3,1,09,02,31,298,33,04,50,246,34,07,83,116,33,08,46,206,33*73
$GPGSV,3,2,09,13,48,029,33,20,22,120,33,23,26,056,33,25,65,042,33*71
$GPGSV,3,3,09,27,17,217,33*47
$GLGSV,1,1,0,1*48
$GAGSV,1,1,02,23,49,237,,24,68,018,*61
$PQGSV,1,1,03,193,10,149,,194,59,137,,195,73,046,*64
$PQGSV,1,1,0,0*43
$GPGSA,A,3,02,04,07,08,13,20,23,25,27,,,,1.3,1.0,0.8*33
$GPVTG,240.5,T,240.5,M,75.8,N,140.4,K,A*18
$GPDTM,P90,,0000.000022,S,00000.000001,W,0.988,W84*5A
$GPRMC,000036.00,A,2959.764770,N,12000.463190,E,75.8,240.5,230721,4.3,W,A*11
$GPGGA,000036.00,2959.764770,N,12000.463190,E,1,09,1.0,-4.6,M,7.0,M,,*71
$GPGSV,3,1,09,02,31,298,33,04,50,246,33,07,83,116,33,08,46,206,33*74
$GPGSV,3,2,09,13,48,029,33,20,22,120,33,23,26,056,33,25,65,042,33*71
$GPGSV,3,3,09,27,17,217,33*47
$GLGSV,1,1,0,1*48
$GAGSV,1,1,02,23,49,237,,24,68,018,*61
$PQGSV,1,1,03,193,10,149,,194,59,137,,195,73,046,*64
$PQGSV,1,1,0,0*43
$GPGSA,A,3,02,04,07,08,13,20,23,25,27,,,,1.3,1.0,0.8*33
$GPVTG,244.9,T,244.9,M,75.8,N,140.3,K,A*1F
$GPDTM,P90,,0000.000022,S,00000.000001,W,0.988,W84*5A
$GPRMC,000037.00,A,2959.755151,N,12000.441695,E,75.8,244.9,230721,4.3,W,A*1D
$GPGGA,000037.00,2959.755151,N,12000.441695,E,1,09,1.0,-4.2,M,7.0,M,,*71
$GPGSV,3,1,09,02,31,298,33,04,50,246,33,07,83,116,33,08,46,206,33*74
$GPGSV,3,2,09,13,48,029,33,20,22,120,33,23,26,056,33,25,65,042,33*71
$GPGSV,3,3,09,27,17,217,33*47
$GLGSV,1,1,0,1*48
$GAGSV,1,1,02,23,49,237,,24,68,018,*61
$PQGSV,1,1,03,193,10,149,,194,59,137,,195,73,046,*64
$PQGSV,1,1,0,0*43
$GPGSA,A,3,02,04,07,08,13,20,23,25,27,,,,1.3,1.0,0.8*33
$GPVTG,249.4,T,249.4,M,75.8,N,140.4,K,A*18
$GPDTM,P90,,0000.000022,S,00000.000001,W,0.988,W84*5A
$GPRMC,000038.00,A,2959.746945,N,12000.419459,E,75.8,249.4,230721,4.3,W,A*12
$GPGGA,000038.00,2959.746945,N,12000.419459,E,1,09,1.0,-3.9,M,7.0,M,,*72
$GPGSV,3,1,09,02,31,298,33,04,50,246,33,07,83,116,33,08,46,206,33*74
$GPGSV,3,2,09,13,48,029,33,20,22,120,33,23,26,056,33,25,65,042,33*71
$GPGSV,3,3,09,27,17,217,33*47
$GLGSV,1,1,0,1*48
$GAGSV,1,1,02,23,49,237,,24,68,018,*61
$PQGSV,1,1,03,193,10,149,,194,59,137,,195,73,046,*64
$PQGSV,1,1,0,0*43
$GPGSA,A,3,02,04,07,08,13,20,23,25,27,,,,1.3,1.0,0.8*33
$GPVTG,253.8,T,253.8,M,75.8,N,140.4,K,A*18
$GPDTM,P90,,0000.000022,S,00000.000001,W,0.988,W84*5A
$GPRMC,000039.00,A,2959.740433,N,12000.396383,E,75.8,253.8,230721,4.3,W,A*1E
$GPGGA,000039.00,2959.740433,N,12000.396383,E,1,09,1.0,-4.2,M,7.0,M,,*75
$GPGSV,3,1,09,02,31,298,33,04,50,246,33,07,83,116,33,08,46,206,33*74
$GPGSV,3,2,09,13,48,029,33,20,22,120,33,23,26,056,33,25,65,042,32*70
$GPGSV,3,3,09,27,17,217,33*47
$GLGSV,1,1,0,1*48
$GAGSV,1,1,02,23,49,237,,24,68,018,*61
$PQGSV,1,1,03,193,10,149,,194,59,137,,195,73,046,*64
$PQGSV,1,1,0,0*43
$GPGSA,A,3,02,04,07,08,13,20,23,25,27,,,,1.3,1.0,0.8*33
$GPVTG,258.3,T,258.3,M,75.8,N,140.4,K,A*18
$GPDTM,P90,,0000.000022,S,00000.000001,W,0.988,W84*5A
$GPRMC,000040.00,A,2959.735449,N,12000.372950,E,75.8,258.3,230721,4.3,W,A*11
$GPGGA,000040.00,2959.735449,N,12000.372950,E,1,09,1.0,-4.6,M,7.0,M,,*7E
$GPGSV,3,1,09,02,31,298,33,04,50,246,33,07,83,116,33,08,46,206,33*74
$GPGSV,3,2,09,13,48,029,33,20,22,120,33,23,26,056,33,25,65,042,33*71
$GPGSV,3,3,09,27,17,217,33*47
$GLGSV,1,1,0,1*48
$GAGSV,1,1,02,23,49,237,,24,68,018,*61
$PQGSV,1,1,03,193,10,149,,194,59,137,,195,73,046,*64
$PQGSV,1,1,0,0*43
$GPGSA,A,3,02,04,07,08,13,20,23,25,27,,,,1.3,1.0,0.8*33
$GPVTG,262.7,T,262.7,M,75.8,N,140.3,K,A*1F
$GPDTM,P90,,0000.000022,S,00000.000001,W,0.988,W84*5A
$GPRMC,000041.00,A,2959.731888,N,12000.349218,E,75.8,262.7,230721,4.3,W,A*17
$GPGGA,000041.00,2959.731888,N,12000.349218,E,1,09,1.0,-4.8,M,7.0,M,,*7B
$GPGSV,3,1,09,02,31,298,33,04,50,246,33,07,83,116,33,08,46,206,33*74
$GPGSV,3,2,09,13,48,029,33,20,22,120,33,23,26,056,33,25,65,042,33*71
$GPGSV,3,3,09,27,17,217,33*47
$GLGSV,1,1,0,1*48
$GAGSV,1,1,02,23,49,237,,24,68,018,*61
$PQGSV,1,1,03,193,10,149,,194,59,137,,195,73,046,*64
$PQGSV,1,1,0,0*43
$GPGSA,A,3,02,04,07,08,13,20,23,25,27,,,,1.3,1.0,0.8*33
$GPVTG,267.2,T,267.2,M,75.8,N,140.4,K,A*18
$GPDTM,P90,,0000.000022,S,00000.000001,W,0.988,W84*5A
$GPRMC,000042.00,A,2959.729912,N,12000.325170,E,75.8,267.2,230721,4.3,W,A*18
$GPGGA,000042.00,2959.729912,N,12000.325170,E,1,09,1.0,-4.8,M,7.0,M,,*74
$GPGSV,3,1,09,02,31,298,33,04,50,246,33,07,83,116,33,08,46,206,33*74
$GPGSV,3,2,09,13,48,029,33,20,22,120,33,23,26,056,33,25,65,042,33*71
$GPGSV,3,3,09,27,17,217,33*47
$GLGSV,1,1,0,1*48
$GAGSV,1,1,02,23,49,237,,24,68,018,*61
$PQGSV,1,1,03,193,10,149,,194,59,137,,195,73,046,*64
$PQGSV,1,1,0,0*43
$GPGSA,A,3,02,04,07,08,13,20,23,25,27,,,,1.3,1.0,0.8*33
$GPVTG,271.6,T,271.6,M,75.8,N,140.4,K,A*18
$GPDTM,P90,,0000.000022,S,00000.000001,W,0.988,W84*5A
$GPRMC,000043.00,A,2959.729405,N,12000.301120,E,75.8,271.6,230721,4.3,W,A*12
$GPGGA,000043.00,2959.729405,N,12000.301120,E,1,09,1.0,-4.4,M,7.0,M,,*71
$GPGSV,3,1,09,02,31,298,33,04,50,246,33,07,83,116,33,08,46,206,33*74
$GPGSV,3,2,09,13,48,029,33,20,22,120,33,23,26,056,33,25,65,042,33*71
$GPGSV,3,3,09,27,17,217,33*47
$GLGSV,1,1,0,1*48
$GAGSV,1,1,02,23,49,237,,24,68,018,*61
$PQGSV,1,1,03,193,10,149,,194,59,137,,195,73,046,*64
$PQGSV,1,1,0,0*43
$GPGSA,A,3,02,04,07,08,13,20,23,25,27,,,,1.3,1.0,0.8*33
$GPVTG,276.1,T,276.1,M,75.8,N,140.4,K,A*18
$GPDTM,P90,,0000.000022,S,00000.000001,W,0.988,W84*5A
$GPRMC,000044.00,A,2959.730969,N,12000.277073,E,75.8,276.1,230721,4.3,W,A*1D
$GPGGA,000044.00,2959.730969,N,12000.277073,E,1,09,1.0,-5.0,M,7.0,M,,*7B
$GPGSV,3,1,09,02,31,298,33,04,50,246,33,07,83,116,33,08,46,206,33*74
$GPGSV,3,2,09,13,48,029,33,20,22,120,33,23,26,056,33,25,65,042,33*71
$GPGSV,3,3,09,27,17,217,33*47
$GLGSV,1,1,0,1*48
$GAGSV,1,1,02,23,49,237,,24,68,018,*61
$PQGSV,1,1,03,193,10,149,,194,59,137,,195,73,046,*64
$PQGSV,1,1,0,0*43
$GPGSA,A,3,02,04,07,08,13,20,23,25,27,,,,1.3,1.0,0.8*33
$GPVTG,280.6,T,280.6,M,75.8,N,140.3,K,A*1F
$GPDTM,P90,,0000.000022,S,00000.000001,W,0.988,W84*5A
$GPRMC,000045.00,A,2959.733925,N,12000.253073,E,75.8,280.6,230721,4.3,W,A*1F
$GPGGA,000045.00,2959.733925,N,12000.253073,E,1,09,1.0,-4.9,M,7.0,M,,*7F
$GPGSV,3,1,09,02,31,298,33,04,50,246,33,07,83,116,33,08,46,206,33*74
$GPGSV,3,2,09,13,48,029,33,20,22,120,33,23,26,056,33,25,65,042,33*71
$GPGSV,3,3,09,27,17,217,33*47
$GLGSV,1,1,0,1*48
$GAGSV,1,1,02,23,49,237,,24,68,018,*61
$PQGSV,1,1,03,193,10,149,,194,59,137,,195,73,046,*64
$PQGSV,1,1,0,0*43
$GPGSA,A,3,02,04,07,08,13,20,23,25,27,,,,1.3,1.0,0.8*33
$GPVTG,285.1,T,285.1,M,75.8,N,140.4,K,A*18
$GPDTM,P90,,0000.000022,S,00000.000001,W,0.988,W84*5A
$GPRMC,000046.00,A,2959.739009,N,12000.229664,E,75.8,285.1,230721,4.3,W,A*1E
$GPGGA,000046.00,2959.739009,N,12000.229664,E,1,09,1.0,-5.0,M,7.0,M,,*74
$GPGSV,3,1,09,02,31,298,33,04,50,246,33,07,83,116,33,08,46,206,33*74
$GPGSV,3,2,09,13,48,029,33,20,22,120,33,23,26,056,33,25,65,042,33*71
$GPGSV,3,3,09,27,17,217,33*47
$GLGSV,1,1,0,1*48
$GAGSV,1,1,02,23,49,237,,24,68,018,*61
$PQGSV,1,1,03,193,10,149,,194,59,137,,195,73,046,*64
$PQGSV,1,1,0,0*43
$GPGSA,A,3,02,04,07,08,13,20,23,25,27,,,,1.3,1.0,0.8*33
$GPVTG,289.5,T,289.5,M,75.8,N,140.3,K,A*1F
$GPDTM,P90,,0000.000022,S,00000.000001,W,0.988,W84*5A
$GPRMC,000047.00,A,2959.745209,N,12000.206531,E,75.8,289.5,230721,4.3,W,A*10
$GPGGA,000047.00,2959.745209,N,12000.206531,E,1,09,1.0,-4.9,M,7.0,M,,*7A
$GPGSV,3,1,09,02,31,298,33,04,50,246,33,07,83,116,33,08,46,206,33*74
$GPGSV,3,2,09,13,48,029,33,20,22,120,33,23,26,056,33,25,65,042,33*71
$GPGSV,3,3,09,27,17,217,33*47
$GLGSV,1,1,0,1*48
$GAGSV,1,1,02,23,49,237,,24,68,018,*61
$PQGSV,1,1,03,193,10,149,,194,59,137,,195,73,046,*64
$PQGSV,1,1,0,0*43
$GPGSA,A,3,02,04,07,08,13,20,23,25,27,,,,1.3,1.0,0.8*33
$GPVTG,293.9,T,293.9,M,75.8,N,140.4,K,A*18
$GPDTM,P90,,0000.000022,S,00000.000001,W,0.988,W84*5A
$GPRMC,000048.00,A,2959.753151,N,12000.184181,E,75.8,293.9,230721,4.3,W,A*17
$GPGGA,000048.00,2959.753151,N,12000.184181,E,1,09,1.0,-4.4,M,7.0,M,,*77
$GPGSV,3,1,09,02,31,298,33,04,50,246,32,07,83,116,33,08,46,206,33*75
$GPGSV,3,2,09,13,48,029,32,20,22,120,33,23,26,056,33,25,65,042,33*70
$GPGSV,3,3,09,27,17,217,33*47
$GLGSV,1,1,0,1*48
$GAGSV,1,1,02,23,49,237,,24,68,018,*61
$PQGSV,1,1,03,193,10,149,,194,59,137,,195,73,046,*64
$PQGSV,1,1,0,0*43
$GPGSA,A,3,02,04,07,08,13,20,23,25,27,,,,1.3,1.0,0.8*33
$GPVTG,298.4,T,298.4,M,75.8,N,140.4,K,A*18
$GPDTM,P90,,0000.000022,S,00000.000001,W,0.988,W84*5A
$GPRMC,000049.00,A,2959.762538,N,12000.162318,E,75.8,298.4,230721,4.3,W,A*13
$GPGGA,000049.00,2959.762538,N,12000.162318,E,1,09,1.0,-4.1,M,7.0,M,,*70
$GPGSV,3,1,09,02,31,298,33,04,50,246,33,07,83,116,33,08,46,206,33*74
$GPGSV,3,2,09,13,48,029,33,20,22,120,33,23,26,056,33,25,65,042,33*71
$GPGSV,3,3,09,27,17,217,33*47
$GLGSV,1,1,0,1*48
$GAGSV,1,1,02,23,49,237,,24,68,018,*61
$PQGSV,1,1,03,193,10,149,,194,59,137,,195,73,046,*64
$PQGSV,1,1,0,0*43
$GPGSA,A,3,02,04,07,08,13,20,23,25,27,,,,1.3,1.0,0.8*33
$GPVTG,302.8,T,302.8,M,75.8,N,140.3,K,A*1F
$GPDTM,P90,,0000.000022,S,00000.000001,W,0.988,W84*5A
$GPRMC,000050.00,A,2959.773486,N,12000.141585,E,75.8,302.8,230721,4.3,W,A*12
$GPGGA,000050.00,2959.773486,N,12000.141585,E,1,09,1.0,-4.6,M,7.0,M,,*78
$GPGSV,3,1,09,02,31,298,33,04,50,246,33,07,83,116,33,08,46,206,33*74
$GPGSV,3,2,09,13,48,029,33,20,22,120,33,23,26,056,33,25,65,042,33*71
$GPGSV,3,3,09,27,17,217,33*47
$GLGSV,1,1,0,1*48
$GAGSV,1,1,02,23,49,237,,24,68,018,*61
$PQGSV,1,1,03,193,10,149,,194,59,137,,195,73,046,*64
$PQGSV,1,1,0,0*43
$GPGSA,A,3,02,04,07,08,13,20,23,25,27,,,,1.3,1.0,0.8*33
$GPVTG,307.3,T,307.3,M,75.8,N,140.5,K,A*19
$GPDTM,P90,,0000.000022,S,00000.000001,W,0.988,W84*5A
$GPRMC,000051.00,A,2959.785817,N,12000.121921,E,75.8,307.3,230721,4.3,W,A*14
$GPGGA,000051.00,2959.785817,N,12000.121921,E,1,09,1.0,-4.4,M,7.0,M,,*72
$GPGSV,3,1,09,02,31,298,33,04,50,246,33,07,83,116,33,08,46,206,33*74
$GPGSV,3,2,09,13,48,029,33,20,22,120,33,23,26,056,33,25,65,042,33*71
$GPGSV,3,3,09,27,17,217,33*47
$GLGSV,1,1,0,1*48
$GAGSV,1,1,02,23,49,237,,24,68,018,*61
$PQGSV,1,1,03,193,10,149,,194,59,137,,195,73,046,*64
$PQGSV,1,1,0,0*43
$GPGSA,A,3,02,04,07,08,13,20,23,25,27,,,,1.3,1.0,0.8*33
$GPVTG,311.8,T,311.8,M,75.8,N,140.3,K,A*1F
$GPDTM,P90,,0000.000022,S,00000.000001,W,0.988,W84*5A
$GPRMC,000052.00,A,2959.799358,N,12000.103176,E,75.8,311.8,230721,4.3,W,A*1C
$GPGGA,000052.00,2959.799358,N,12000.103176,E,1,09,1.0,-4.2,M,7.0,M,,*70
$GPGSV,3,1,09,02,31,298,33,04,50,246,33,07,83,116,33,08,46,206,33*74
$GPGSV,3,2,09,13,48,029,33,20,22,120,33,23,26,056,32,25,65,042,33*70
$GPGSV,3,3,09,27,17,217,33*47
$GLGSV,1,1,0,1*48
$GAGSV,1,1,02,23,49,237,,24,68,018,*61
$PQGSV,1,1,03,193,10,149,,194,59,137,,195,73,046,*64
$PQGSV,1,1,0,0*43
$GPGSA,A,3,02,04,07,08,13,20,23,25,27,,,,1.3,1.0,0.8*33
$GPVTG,316.2,T,316.2,M,75.8,N,140.4,K,A*18
$GPDTM,P90,,0000.000022,S,00000.000001,W,0.988,W84*5A
$GPRMC,000053.00,A,2959.814002,N,12000.085913,E,75.8,316.2,230721,4.3,W,A*12
$GPGGA,000053.00,2959.814002,N,12000.085913,E,1,09,1.0,-3.9,M,7.0,M,,*7F
$GPGSV,3,1,09,02,31,298,33,04,50,246,33,07,83,116,33,08,46,206,33*74
$GPGSV,3,2,09,13,48,029,33,20,22,120,33,23,26,056,33,25,65,042,33*71
$GPGSV,3,3,09,27,17,217,33*47
$GLGSV,1,1,0,1*48
$GAGSV,1,1,02,23,49,237,,24,68,018,*61
$PQGSV,1,1,03,193,10,149,,194,59,137,,195,73,046,*64
$PQGSV,1,1,0,0*43
$GPGSA,A,3,02,04,07,08,13,20,23,25,27,,,,1.3,1.0,0.8*33
$GPVTG,320.7,T,320.7,M,75.8,N,140.4,K,A*18
$GPDTM,P90,,0000.000022,S,00000.000001,W,0.988,W84*5A
$GPRMC,000054.00,A,2959.829831,N,12000.069860,E,75.8,320.7,230721,4.3,W,A*14
$GPGGA,000054.00,2959.829831,N,12000.069860,E,1,09,1.0,-4.0,M,7.0,M,,*77
$GPGSV,3,1,09,02,31,298,33,04,50,246,33,07,83,116,33,08,46,206,33*74
$GPGSV,3,2,09,13,48,029,33,20,22,120,33,23,26,056,33,25,65,042,33*71
$GPGSV,3,3,09,27,17,217,32*46
$GLGSV,1,1,0,1*48
$GAGSV,1,1,02,23,49,237,,24,68,018,*61
$PQGSV,1,1,03,193,10,149,,194,59,137,,195,73,046,*64
$PQGSV,1,1,0,0*43
$GPGSA,A,3,02,04,07,08,13,20,23,25,27,,,,1.3,1.0,0.8*33
$GPVTG,325.1,T,325.1,M,75.8,N,140.4,K,A*18
$GPDTM,P90,,0000.000022,S,00000.000001,W,0.988,W84*5A
$GPRMC,000055.00,A,2959.846639,N,12000.055222,E,75.8,325.1,230721,4.3,W,A*1A
$GPGGA,000055.00,2959.846639,N,12000.055222,E,1,09,1.0,-3.8,M,7.0,M,,*75
$GPGSV,3,1,09,02,31,298,33,04,50,246,33,07,83,116,33,08,46,206,33*74
$GPGSV,3,2,09,13,48,029,33,20,22,120,33,23,26,056,33,25,65,042,33*71
$GPGSV,3,3,09,27,17,217,33*47
$GLGSV,1,1,0,1*48
$GAGSV,1,1,02,23,49,237,,24,68,018,*61
$PQGSV,1,1,03,193,10,149,,194,59,137,,195,73,046,*64
$PQGSV,1,1,0,0*43
$GPGSA,A,3,02,04,07,08,13,20,23,25,27,,,,1.3,1.0,0.8*33
$GPVTG,329.6,T,329.6,M,75.8,N,140.4,K,A*18
$GPDTM,P90,,0000.000022,S,00000.000001,W,0.988,W84*5A
$GPRMC,000056.00,A,2959.864464,N,12000.042232,E,75.8,329.6,230721,4.3,W,A*1F
$GPGGA,000056.00,2959.864464,N,12000.042232,E,1,09,1.0,-4.1,M,7.0,M,,*75
$GPGSV,3,1,09,02,31,298,33,04,50,246,33,07,83,116,33,08,46,206,33*74
$GPGSV,3,2,09,13,48,029,33,20,22,120,33,23,26,056,33,25,65,042,33*71
$GPGSV,3,3,09,27,17,217,33*47
$GLGSV,1,1,0,1*48
$GAGSV,1,1,02,23,49,237,,24,68,018,*61
$PQGSV,1,1,03,193,10,149,,194,59,137,,195,73,046,*64
$PQGSV,1,1,0,0*43
$GPGSA,A,3,02,04,07,08,13,20,23,25,27,,,,1.3,1.0,0.8*33
$GPVTG,334.1,T,334.1,M,75.8,N,140.4,K,A*18
$GPDTM,P90,,0000.000022,S,00000.000001,W,0.988,W84*5A
$GPRMC,000057.00,A,2959.883117,N,12000.030867,E,75.8,334.1,230721,4.3,W,A*12
$GPGGA,000057.00,2959.883117,N,12000.030867,E,1,09,1.0,-4.1,M,7.0,M,,*73
$GPGSV,3,1,09,02,31,298,33,04,50,246,33,07,83,116,34,08,46,206,33*73
$GPGSV,3,2,09,13,48,029,32,20,22,120,33,23,26,056,33,25,65,042,33*70
$GPGSV,3,3,09,27,17,217,33*47
$GLGSV,1,1,0,1*48
$GAGSV,1,1,02,23,49,237,,24,68,018,*61
$PQGSV,1,1,03,193,10,149,,194,59,137,,195,73,046,*64
$PQGSV,1,1,0,0*43
$GPGSA,A,3,02,04,07,08,13,20,23,25,27,,,,1.3,1.0,0.8*33
$GPVTG,338.5,T,338.5,M,75.7,N,140.3,K,A*10
$GPDTM,P90,,0000.000022,S,00000.000001,W,0.988,W84*5A
$GPRMC,000058.00,A,2959.902197,N,12000.021259,E,75.7,338.5,230721,4.3,W,A*1D
$GPGGA,000058.00,2959.902197,N,12000.021259,E,1,09,1.0,-4.2,M,7.0,M,,*78
$GPGSV,3,1,09,02,31,298,33,04,50,246,33,07,83,116,33,08,46,206,33*74
$GPGSV,3,2,09,13,48,029,33,20,22,120,33,23,26,056,33,25,65,042,33*71
$GPGSV,3,3,09,27,17,217,33*47
$GLGSV,1,1,0,1*48
$GAGSV,1,1,02,23,49,237,,24,68,018,*61
$PQGSV,1,1,03,193,10,149,,194,59,137,,195,73,046,*64
$PQGSV,1,1,0,0*43
$GPGSA,A,3,02,04,07,08,13,20,23,25,27,,,,1.3,1.0,0.8*33
$GPVTG,343.0,T,343.0,M,75.8,N,140.4,K,A*18
$GPDTM,P90,,0000.000022,S,00000.000001,W,0.988,W84*5A
$GPRMC,000059.00,A,2959.922039,N,12000.013234,E,75.8,343.0,230721,4.3,W,A*17
$GPGGA,000059.00,2959.922039,N,12000.013234,E,1,09,1.0,-3.9,M,7.0,M,,*78
$GPGSV,3,1,09,02,31,298,33,04,50,246,33,07,83,116,33,08,46,206,33*74
$GPGSV,3,2,09,13,48,029,33,20,22,120,33,23,26,056,33,25,65,042,33*71
$GPGSV,3,3,09,27,17,217,33*47
$GLGSV,1,1,0,1*48
$GAGSV,1,1,02,23,49,237,,24,68,018,*61
$PQGSV,1,1,03,193,10,149,,194,59,137,,195,73,046,*64
$PQGSV,1,1,0,0*43
$GPGSA,A,3,02,04,07,08,13,20,23,25,27,,,,1.3,1.0,0.8*33
$GPVTG,347.4,T,347.4,M,75.8,N,140.4,K,A*18
$GPDTM,P90,,0000.000022,S,00000.000001,W,0.988,W84*5A
$GPRMC,000100.00,A,2959.942157,N,12000.007132,E,75.8,347.4,230721,4.3,W,A*15
$GPGGA,000100.00,2959.942157,N,12000.007132,E,1,09,1.0,-3.9,M,7.0,M,,*7A
$GPGSV,3,1,09,02,31,298,33,04,50,246,33,07,83,116,33,08,46,206,33*74
$GPGSV,3,2,09,13,48,029,33,20,22,120,33,23,26,056,33,25,65,042,32*70
$GPGSV,3,3,09,27,17,217,32*46
$GLGSV,1,1,0,1*48
$GAGSV,1,1,02,23,49,237,,24,68,018,*61
$PQGSV,1,1,03,193,10,149,,194,59,137,,195,73,046,*64
$PQGSV,1,1,0,0*43
$GPGSA,A,3,02,04,07,08,13,20,23,25,27,,,,1.3,1.0,0.8*33
$GPVTG,351.9,T,351.9,M,75.8,N,140.4,K,A*18
$GPDTM,P90,,0000.000022,S,00000.000001,W,0.988,W84*5A
$GPRMC,000101.00,A,2959.962997,N,12000.002809,E,75.8,351.9,230721,4.3,W,A*1C
$GPGGA,000101.00,2959.962997,N,12000.002809,E,1,09,1.0,-3.9,M,7.0,M,,*79
$GPGSV,3,1,09,02,31,298,33,04,50,246,33,07,83,116,33,08,46,206,33*74
$GPGSV,3,2,09,13,48,029,33,20,22,120,32,23,26,056,33,25,65,042,33*70
$GPGSV,3,3,09,27,17,217,33*47
$GLGSV,1,1,0,1*48
$GAGSV,1,1,02,23,49,237,,24,68,018,*61
$PQGSV,1,1,03,193,10,149,,194,59,137,,195,73,046,*64
$PQGSV,1,1,0,0*43
$GPGSA,A,3,02,04,07,08,13,20,23,25,27,,,,1.3,1.0,0.8*33
$GPVTG,356.4,T,356.4,M,75.7,N,140.3,K,A*10
$GPDTM,P90,,0000.000022,S,00000.000001,W,0.988,W84*5A
$GPRMC,000102.00,A,2959.983951,N,12000.000631,E,75.7,356.4,230721,4.3,W,A*18
$GPGGA,000102.00,2959.983951,N,12000.000631,E,1,09,1.0,-3.9,M,7.0,M,,*78
$GPGSV,3,1,09,02,31,298,33,04,50,246,33,07,83,116,33,08,46,206,33*74
$GPGSV,3,2,09,13,48,029,33,20,22,120,33,23,26,056,33,25,65,042,33*71
$GPGSV,3,3,09,27,17,217,33*47
$GLGSV,1,1,0,1*48
$GAGSV,1,1,02,23,49,237,,24,68,018,*61
$PQGSV,1,1,03,193,10,149,,194,59,137,,195,73,046,*64
$PQGSV,1,1,0,0*43
$GPGSA,A,3,02,04,07,08,13,20,23,25,27,,,,1.3,1.0,0.8*33
$GPVTG,0.8,T,0.8,M,75.8,N,140.3,K,A*1F
$GPDTM,P90,,0000.000022,S,00000.000001,W,0.988,W84*5A
$GPRMC,000103.00,A,3000.005053,N,12000.000283,E,75.8,0.8,230721,4.3,W,A*1F
$GPGGA,000103.00,3000.005053,N,12000.000283,E,1,09,1.0,-4.0,M,7.0,M,,*72
$GPGSV,3,1,09,02,31,298,33,04,50,246,33,07,83,116,33,08,46,206,33*74
$GPGSV,3,2,09,13,48,029,33,20,22,120,33,23,26,056,33,25,65,042,33*71
$GPGSV,3,3,09,27,17,217,33*47
$GLGSV,1,1,0,1*48
$GAGSV,1,1,02,23,49,237,,24,68,018,*61
$PQGSV,1,1,03,193,10,149,,194,59,137,,195,73,046,*64
$PQGSV,1,1,0,0*43
$GPGSA,A,3,02,04,07,08,13,20,23,25,27,,,,1.3,1.0,0.8*33
$GPVTG,5.3,T,5.3,M,75.8,N,140.4,K,A*18
$GPDTM,P90,,0000.000022,S,00000.000001,W,0.988,W84*5A
$GPRMC,000104.00,A,3000.026294,N,12000.001511,E,75.8,5.3,230721,4.3,W,A*13
$GPGGA,000104.00,3000.026294,N,12000.001511,E,1,09,1.0,-3.9,M,7.0,M,,*7E
$GPGSV,3,1,09,02,31,298,33,04,50,246,33,07,83,116,33,08,46,206,33*74
$GPGSV,3,2,09,13,48,029,33,20,22,120,33,23,26,056,33,25,65,042,33*71
$GPGSV,3,3,09,27,17,217,33*47
$GLGSV,1,1,0,1*48
$GAGSV,1,1,02,23,49,237,,24,68,018,*61
$PQGSV,1,1,03,193,10,149,,194,59,137,,195,73,046,*64
$PQGSV,1,1,0,0*43
$GPGSA,A,3,02,04,07,08,13,20,23,25,27,,,,1.3,1.0,0.8*33
$GPVTG,9.7,T,9.7,M,75.8,N,140.4,K,A*18
$GPDTM,P90,,0000.000022,S,00000.000001,W,0.988,W84*5A
$GPRMC,000105.00,A,3000.046981,N,12000.004806,E,75.8,9.7,230721,4.3,W,A*1D
$GPGGA,000105.00,3000.046981,N,12000.004806,E,1,09,1.0,-4.1,M,7.0,M,,*77
$GPGSV,3,1,09,02,31,298,33,04,50,246,32,07,83,116,33,08,46,206,33*75
$GPGSV,3,2,09,13,48,029,33,20,22,120,33,23,26,056,33,25,65,042,33*71
$GPGSV,3,3,09,27,17,217,33*47
$GLGSV,1,1,0,1*48
$GAGSV,1,1,02,23,49,237,,24,68,018,*61
$PQGSV,1,1,03,193,10,149,,194,59,137,,195,73,046,*64
$PQGSV,1,1,0,0*43
$GPGSA,A,3,02,04,07,08,13,20,23,25,27,,,,1.3,1.0,0.8*33
$GPVTG,14.2,T,14.2,M,75.8,N,140.3,K,A*1F
$GPDTM,P90,,0000.000022,S,00000.000001,W,0.988,W84*5A
$GPRMC,000106.00,A,3000.067250,N,12000.009850,E,75.8,14.2,230721,4.3,W,A*2D
$GPGGA,000106.00,3000.067250,N,12000.009850,E,1,09,1.0,-4.3,M,7.0,M,,*7C
$GPGSV,3,1,09,02,31,298,33,04,50,246,33,07,83,116,33,08,46,206,33*74
$GPGSV,3,2,09,13,48,029,33,20,22,120,33,23,26,056,33,25,65,042,33*71
$GPGSV,3,3,09,27,17,217,33*47
$GLGSV,1,1,0,1*48
$GAGSV,1,1,02,23,49,237,,24,68,018,*61
$PQGSV,1,1,03,193,10,149,,194,59,137,,195,73,046,*64
$PQGSV,1,1,0,0*43
$GPGSA,A,3,02,04,07,08,13,20,23,25,27,,,,1.3,1.0,0.8*33
$GPVTG,18.6,T,18.6,M,75.8,N,140.3,K,A*1F
$GPDTM,P90,,0000.000022,S,00000.000001,W,0.988,W84*5A
$GPRMC,000107.00,A,3000.087415,N,12000.016356,E,75.8,18.6,230721,4.3,W,A*2E
$GPGGA,000107.00,3000.087415,N,12000.016356,E,1,09,1.0,-4.2,M,7.0,M,,*76
$GPGSV,3,1,09,02,31,298,33,04,50,246,33,07,83,116,33,08,46,206,33*74
$GPGSV,3,2,09,13,48,029,33,20,22,120,33,23,26,056,33,25,65,042,33*71
$GPGSV,3,3,09,27,17,217,32*46
$GLGSV,1,1,0,1*48
$GAGSV,1,1,02,23,49,237,,24,68,018,*61
$PQGSV,1,1,03,193,10,149,,194,59,137,,195,73,046,*64
$PQGSV,1,1,0,0*43
$GPGSA,A,3,02,04,07,08,13,20,23,25,27,,,,1.3,1.0,0.8*33
$GPVTG,23.1,T,23.1,M,75.8,N,140.4,K,A*18
$GPDTM,P90,,0000.000022,S,00000.000001,W,0.988,W84*5A
$GPRMC,000108.00,A,3000.106832,N,12000.025090,E,75.8,23.1,230721,4.3,W,A*26
$GPGGA,000108.00,3000.106832,N,12000.025090,E,1,09,1.0,-4.5,M,7.0,M,,*76
$GPGSV,3,1,09,02,31,298,33,04,50,246,33,07,83,116,33,08,46,206,33*74
$GPGSV,3,2,09,13,48,029,33,20,22,120,33,23,26,056,33,25,65,042,33*71
$GPGSV,3,3,09,27,17,217,33*47
$GLGSV,1,1,0,1*48
$GAGSV,1,1,02,23,49,237,,24,68,018,*61
$PQGSV,1,1,03,193,10,149,,194,59,137,,195,73,046,*64
$PQGSV,1,1,0,0*43
$GPGSA,A,3,02,04,07,08,13,20,23,25,27,,,,1.3,1.0,0.8*33
$GPVTG,27.5,T,27.5,M,75.8,N,140.4,K,A*18
$GPDTM,P90,,0000.000022,S,00000.000001,W,0.988,W84*5A
$GPRMC,000109.00,A,3000.125948,N,12000.035527,E,75.8,27.5,230721,4.3,W,A*22
$GPGGA,000109.00,3000.125948,N,12000.035527,E,1,09,1.0,-4.6,M,7.0,M,,*71
$GPGSV,3,1,09,02,31,298,33,04,50,246,33,07,83,116,33,08,46,206,33*74
$GPGSV,3,2,09,13,48,029,33,20,22,120,33,23,26,056,33,25,65,042,33*71
$GPGSV,3,3,09,27,17,217,32*46
$GLGSV,1,1,0,1*48
$GAGSV,1,1,02,23,49,237,,24,68,018,*61
$PQGSV,1,1,03,193,10,149,,194,59,137,,195,73,046,*64
$PQGSV,1,1,0,0*43
$GPGSA,A,3,02,04,07,08,13,20,23,25,27,,,,1.3,1.0,0.8*33
$GPVTG,32.0,T,32.0,M,75.8,N,140.4,K,A*18
$GPDTM,P90,,0000.000022,S,00000.000001,W,0.988,W84*5A
$GPRMC,000110.00,A,3000.144232,N,12000.047573,E,75.8,32.0,230721,4.3,W,A*2E
$GPGGA,000110.00,3000.144232,N,12000.047573,E,1,09,1.0,-5.0,M,7.0,M,,*7B
$GPGSV,3,1,09,02,31,298,33,04,50,246,33,07,83,116,33,08,46,206,33*74
$GPGSV,3,2,09,13,48,029,33,20,22,120,33,23,26,056,33,25,65,042,33*71
$GPGSV,3,3,09,27,17,217,33*47
$GLGSV,1,1,0,1*48
$GAGSV,1,1,02,23,49,237,,24,68,018,*61
$PQGSV,1,1,03,193,10,149,,194,59,137,,195,73,046,*64
$PQGSV,1,1,0,0*43
$GPGSA,A,3,02,04,07,08,13,20,23,25,27,,,,1.3,1.0,0.8*33
$GPVTG,36.5,T,36.5,M,75.8,N,140.4,K,A*18
$GPDTM,P90,,0000.000022,S,00000.000001,W,0.988,W84*5A
$GPRMC,000111.00,A,3000.161632,N,12000.061146,E,75.8,36.5,230721,4.3,W,A*2B
$GPGGA,000111.00,3000.161632,N,12000.061146,E,1,09,1.0,-5.3,M,7.0,M,,*7C
$GPGSV,3,1,09,02,31,298,33,04,50,246,33,07,83,116,33,08,46,206,33*74
$GPGSV,3,2,09,13,48,029,33,20,22,120,33,23,26,056,33,25,65,042,33*71
$GPGSV,3,3,09,27,17,217,33*47
$GLGSV,1,1,0,1*48
$GAGSV,1,1,02,23,49,237,,24,68,018,*61
$PQGSV,1,1,03,193,10,149,,194,59,137,,195,73,046,*64
$PQGSV,1,1,0,0*43
$GPGSA,A,3,02,04,07,08,13,20,23,25,27,,,,1.3,1.0,0.8*33
$GPVTG,40.9,T,40.9,M,75.8,N,140.4,K,A*18
$GPDTM,P90,,0000.000022,S,00000.000001,W,0.988,W84*5A
$GPRMC,000112.00,A,3000.178100,N,12000.076226,E,75.8,40.9,230721,4.3,W,A*28
$GPGGA,000112.00,3000.178100,N,12000.076226,E,1,09,1.0,-5.2,M,7.0,M,,*73
$GPGSV,3,1,09,02,31,298,33,04,50,246,33,07,83,116,33,08,46,206,33*74
$GPGSV,3,2,09,13,48,029,33,20,22,120,33,23,26,056,33,25,65,042,33*71
$GPGSV,3,3,09,27,17,217,33*47
$GLGSV,1,1,0,1*48
$GAGSV,1,1,02,23,49,237,,24,68,018,*61
$PQGSV,1,1,03,193,10,149,,194,59,137,,195,73,046,*64
$PQGSV,1,1,0,0*43
$GPGSA,A,3,02,04,07,08,13,20,23,25,27,,,,1.3,1.0,0.8*33
$GPVTG,45.4,T,45.4,M,75.8,N,140.3,K,A*1F
$GPDTM,P90,,0000.000022,S,00000.000001,W,0.988,W84*5A
$GPRMC,000113.00,A,3000.193475,N,12000.092790,E,75.8,45.4,230721,4.3,W,A*21
$GPGGA,000113.00,3000.193475,N,12000.092790,E,1,09,1.0,-5.0,M,7.0,M,,*70
$GPGSV,3,1,09,02,31,298,33,04,50,246,33,07,83,116,33,08,46,206,33*74
$GPGSV,3,2,09,13,48,029,33,20,22,120,33,23,26,056,33,25,65,042,33*71
$GPGSV,3,3,09,27,17,217,33*47
$GLGSV,1,1,0,1*48
$GAGSV,1,1,02,23,49,237,,24,68,018,*61
$PQGSV,1,1,03,193,10,149,,194,59,137,,195,73,046,*64
$PQGSV,1,1,0,0*43
$GPGSA,A,3,02,04,07,08,13,20,23,25,27,,,,1.3,1.0,0.8*33
$GPVTG,49.8,T,49.8,M,75.8,N,140.4,K,A*18
$GPDTM,P90,,0000.000022,S,00000.000001,W,0.988,W84*5A
$GPRMC,000114.00,A,3000.207609,N,12000.110699,E,75.8,49.8,230721,4.3,W,A*22
$GPGGA,000114.00,3000.207609,N,12000.110699,E,1,09,1.0,-5.1,M,7.0,M,,*72
$GPGSV,3,1,09,02,31,298,33,04,50,246,33,07,83,116,33,08,46,206,33*74
$GPGSV,3,2,09,13,48,029,33,20,22,120,33,23,26,056,33,25,65,042,33*71
$GPGSV,3,3,09,27,17,217,33*47
$GLGSV,1,1,0,1*48
$GAGSV,1,1,02,23,49,237,,24,68,018,*61
$PQGSV,1,1,03,193,10,149,,194,59,137,,195,73,046,*64
$PQGSV,1,1,0,0*43
$GPGSA,A,3,02,04,07,08,13,20,23,25,27,,,,1.3,1.0,0.8*33
$GPVTG,54.3,T,54.3,M,75.8,N,140.4,K,A*18
$GPDTM,P90,,0000.000022,S,00000.000001,W,0.988,W84*5A
$GPRMC,000115.00,A,3000.220475,N,12000.129603,E,75.8,54.3,230721,4.3,W,A*21
$GPGGA,000115.00,3000.220475,N,12000.129603,E,1,09,1.0,-5.2,M,7.0,M,,*75
$GPGSV,3,1,09,02,31,298,33,04,50,246,33,07,83,116,33,08,46,206,33*74
$GPGSV,3,2,09,13,48,029,33,20,22,120,33,23,26,056,33,25,65,042,33*71
$GPGSV,3,3,09,27,17,217,33*47
$GLGSV,1,1,0,1*48
$GAGSV,1,1,02,23,49,237,,24,68,018,*61
$PQGSV,1,1,03,193,10,149,,194,59,137,,195,73,046,*64
$PQGSV,1,1,0,0*43
$GPGSA,A,3,02,04,07,08,13,20,23,25,27,,,,1.3,1.0,0.8*33
$GPVTG,58.7,T,58.7,M,75.8,N,140.4,K,A*18
$GPDTM,P90,,0000.000022,S,00000.000001,W,0.988,W84*5A
$GPRMC,000116.00,A,3000.232163,N,12000.149898,E,75.8,58.7,230721,4.3,W,A*21
$GPGGA,000116.00,3000.232163,N,12000.149898,E,1,09,1.0,-4.9,M,7.0,M,,*77
$GPGSV,3,1,09,02,31,298,33,04,50,246,33,07,83,116,33,08,46,206,33*74
$GPGSV,3,2,09,13,48,029,33,20,22,120,33,23,26,056,33,25,65,042,33*71
$GPGSV,3,3,09,27,17,217,32*46
$GLGSV,1,1,0,1*48
$GAGSV,1,1,02,23,49,237,,24,68,018,*61
$PQGSV,1,1,03,193,10,149,,194,59,137,,195,73,046,*64
$PQGSV,1,1,0,0*43
$GPGSA,A,3,02,04,07,08,13,20,23,25,27,,,,1.3,1.0,0.8*33
$GPVTG,63.2,T,63.2,M,75.8,N,140.4,K,A*18
$GPDTM,P90,,0000.000022,S,00000.000001,W,0.988,W84*5A
$GPRMC,000117.00,A,3000.242116,N,12000.170914,E,75.8,63.2,230721,4.3,W,A*27
$GPGGA,000117.00,3000.242116,N,12000.170914,E,1,09,1.0,-4.4,M,7.0,M,,*71
$GPGSV,3,1,09,02,31,298,33,04,50,246,33,07,83,116,33,08,46,206,33*74
$GPGSV,3,2,09,13,48,029,33,20,22,120,33,23,26,056,33,25,65,042,33*71
$GPGSV,3,3,09,27,17,217,33*47
$GLGSV,1,1,0,1*48
$GAGSV,1,1,02,23,49,237,,24,68,018,*61
$PQGSV,1,1,03,193,10,149,,194,59,137,,195,73,046,*64
$PQGSV,1,1,0,0*43
$GPGSA,A,3,02,04,07,08,13,20,23,25,27,,,,1.3,1.0,0.8*33
$GPVTG,67.6,T,67.6,M,75.8,N,140.3,K,A*1F
$GPDTM,P90,,0000.000022,S,00000.000001,W,0.988,W84*5A
$GPRMC,000118.00,A,3000.250927,N,12000.192775,E,75.8,67.6,230721,4.3,W,A*24
$GPGGA,000118.00,3000.250927,N,12000.192775,E,1,09,1.0,-4.6,M,7.0,M,,*70
$GPGSV,3,1,09,02,31,298,33,04,50,246,33,07,83,116,33,08,46,206,33*74
$GPGSV,3,2,09,13,48,029,33,20,22,120,33,23,26,056,33,25,65,042,33*71
$GPGSV,3,3,09,27,17,217,33*47
$GLGSV,1,1,0,1*48
$GAGSV,1,1,02,23,49,237,,24,68,018,*61
$PQGSV,1,1,03,193,10,149,,194,59,137,,195,73,046,*64
$PQGSV,1,1,0,0*43
$GPGSA,A,3,02,04,07,08,13,20,23,25,27,,,,1.3,1.0,0.8*33
$GPVTG,72.1,T,72.1,M,75.8,N,140.4,K,A*18
$GPDTM,P90,,0000.000022,S,00000.000001,W,0.988,W84*5A
$GPRMC,000119.00,A,3000.258304,N,12000.215369,E,75.8,72.1,230721,4.3,W,A*20
$GPGGA,000119.00,3000.258304,N,12000.215369,E,1,09,1.0,-4.6,M,7.0,M,,*77
$GPGSV,3,1,09,02,31,298,33,04,50,246,33,07,83,116,33,08,46,206,33*74
$GPGSV,3,2,09,13,48,029,33,20,22,120,33,23,26,056,33,25,65,042,34*76
$GPGSV,3,3,09,27,17,217,33*47
$GLGSV,1,1,0,1*48
$GAGSV,1,1,02,23,49,237,,24,68,018,*61
$PQGSV,1,1,03,193,10,149,,194,59,137,,195,73,046,*64
$PQGSV,1,1,0,0*43
$GPGSA,A,3,02,04,07,08,13,20,23,25,27,,,,1.3,1.0,0.8*33
$GPVTG,76.6,T,76.6,M,75.8,N,140.4,K,A*18
$GPDTM,P90,,0000.000022,S,00000.000001,W,0.988,W84*5A
$GPRMC,000120.00,A,3000.264015,N,12000.238702,E,75.8,76.6,230721,4.3,W,A*23
$GPGGA,000120.00,3000.264015,N,12000.238702,E,1,09,1.0,-4.7,M,7.0,M,,*76
$GPGSV,3,1,09,02,31,298,32,04,50,246,33,07,83,116,33,08,46,206,33*75
$GPGSV,3,2,09,13,48,029,33,20,22,120,33,23,26,056,33,25,65,042,33*71
$GPGSV,3,3,09,27,17,217,33*47
$GLGSV,1,1,0,1*48
$GAGSV,1,1,02,23,49,237,,24,68,018,*61
$PQGSV,1,1,03,193,10,149,,194,59,137,,195,73,046,*64
$PQGSV,1,1,0,0*43
$GPGSA,A,3,02,04,07,08,13,20,23,25,27,,,,1.3,1.0,0.8*33
$GPVTG,81.0,T,81.0,M,75.8,N,140.4,K,A*18
$GPDTM,P90,,0000.000022,S,00000.000001,W,0.988,W84*5A
$GPRMC,000121.00,A,3000.267955,N,12000.262356,E,75.8,81.0,230721,4.3,W,A*28
$GPGGA,000121.00,3000.267955,N,12000.262356,E,1,09,1.0,-4.4,M,7.0,M,,*70
$GPGSV,3,1,09,02,31,298,33,04,50,246,33,07,83,116,33,08,46,206,33*74
$GPGSV,3,2,09,13,48,029,33,20,22,120,33,23,26,056,33,25,65,042,33*71
$GPGSV,3,3,09,27,17,217,33*47
$GLGSV,1,1,0,1*48
$GAGSV,1,1,02,23,49,237,,24,68,018,*61
$PQGSV,1,1,03,193,10,149,,194,59,137,,195,73,046,*64
$PQGSV,1,1,0,0*43
$GPGSA,A,3,02,04,07,08,13,20,23,25,27,,,,1.3,1.0,0.8*33
$GPVTG,85.5,T,85.5,M,75.8,N,140.4,K,A*18
$GPDTM,P90,,0000.000022,S,00000.000001,W,0.988,W84*5A
$GPRMC,000122.00,A,3000.270446,N,12000.286541,E,75.8,85.5,230721,4.3,W,A*29
$GPGGA,000122.00,3000.270446,N,12000.286541,E,1,09,1.0,-4.2,M,7.0,M,,*76
$GPGSV,3,1,09,02,31,298,33,04,50,246,33,07,83,116,33,08,46,206,33*74
$GPGSV,3,2,09,13,48,029,33,20,22,120,33,23,26,056,33,25,65,042,33*71
$GPGSV,3,3,09,27,17,217,33*47
$GLGSV,1,1,0,1*48
$GAGSV,1,1,02,23,49,237,,24,68,018,*61
$PQGSV,1,1,03,193,10,149,,194,59,137,,195,73,046,*64
$PQGSV,1,1,0,0*43
$GPGSA,A,3,02,04,07,08,13,20,23,25,27,,,,1.3,1.0,0.8*33
$GPVTG,90.0,T,90.0,M,75.8,N,140.4,K,A*18
$GPDTM,P90,,0000.000022,S,00000.000001,W,0.988,W84*5A
$GPRMC,000123.00,A,3000.271045,N,12000.310425,E,75.8,90.0,230721,4.3,W,A*22
$GPGGA,000123.00,3000.271045,N,12000.310425,E,1,09,1.0,-4.5,M,7.0,M,,*7B
$GPGSV,3,1,09,02,31,298,33,04,50,246,33,07,83,116,33,08,46,206,33*74
$GPGSV,3,2,09,13,48,029,33,20,22,120,33,23,26,056,33,25,65,042,33*71
$GPGSV,3,3,09,27,17,217,33*47
$GLGSV,1,1,0,1*48
$GAGSV,1,1,02,23,49,237,,24,68,018,*61
$PQGSV,1,1,03,193,10,149,,194,59,137,,195,73,046,*64
$PQGSV,1,1,0,0*43
$GPGSA,A,3,02,04,07,08,13,20,23,25,27,,,,1.3,1.0,0.8*33
$GPVTG,94.4,T,94.4,M,75.8,N,140.4,K,A*18
$GPDTM,P90,,0000.000022,S,00000.000001,W,0.988,W84*5A
$GPRMC,000124.00,A,3000.270338,N,12000.334604,E,75.8,94.4,230721,4.3,W,A*2A
$GPGGA,000124.00,3000.270338,N,12000.334604,E,1,09,1.0,-4.7,M,7.0,M,,*71
$GPGSV,3,1,09,02,31,298,33,04,50,246,33,07,83,116,33,08,46,206,33*74
$GPGSV,3,2,09,13,48,029,33,20,22,120,33,23,26,056,33,25,65,042,33*71
$GPGSV,3,3,09,27,17,217,33*47
$GLGSV,1,1,0,1*48
$GAGSV,1,1,02,23,49,237,,24,68,018,*61
$PQGSV,1,1,03,193,10,149,,194,59,137,,195,73,046,*64
$PQGSV,1,1,0,0*43
$GPGSA,A,3,02,04,07,08,13,20,23,25,27,,,,1.3,1.0,0.8*33
$GPVTG,98.8,T,98.8,M,75.8,N,140.4,K,A*18
$GPDTM,P90,,0000.000022,S,00000.000001,W,0.988,W84*5A
$GPRMC,000125.00,A,3000.267922,N,12000.358498,E,75.8,98.8,230721,4.3,W,A*21
$GPGGA,000125.00,3000.267922,N,12000.358498,E,1,09,1.0,-4.5,M,7.0,M,,*78
$GPGSV,3,1,09,02,31,298,33,04,50,246,33,07,83,116,33,08,46,206,33*74
$GPGSV,3,2,09,13,48,029,33,20,22,120,33,23,26,056,33,25,65,042,33*71
$GPGSV,3,3,09,27,17,217,33*47
$GLGSV,1,1,0,1*48
$GAGSV,1,1,02,23,49,237,,24,68,018,*61
$PQGSV,1,1,03,193,10,149,,194,59,137,,195,73,046,*64
$PQGSV,1,1,0,0*43
$GPGSA,A,3,02,04,07,08,13,20,23,25,27,,,,1.3,1.0,0.8*33
$GPVTG,103.3,T,103.3,M,75.8,N,140.4,K,A*18
$GPDTM,P90,,0000.000022,S,00000.000001,W,0.988,W84*5A
$GPRMC,000126.00,A,3000.263912,N,12000.382225,E,75.8,103.3,230721,4.3,W,A*1A
$GPGGA,000126.00,3000.263912,N,12000.382225,E,1,09,1.0,-4.3,M,7.0,M,,*7D
$GPGSV,3,1,09,02,31,298,33,04,50,246,33,07,83,116,33,08,46,206,33*74
$GPGSV,3,2,09,13,48,029,33,20,22,120,33,23,26,056,33,25,65,042,33*71
$GPGSV,3,3,09,27,17,217,33*47
$GLGSV,1,1,0,1*48
$GAGSV,1,1,02,23,49,237,,24,68,018,*61
$PQGSV,1,1,03,193,10,149,,194,59,137,,195,73,046,*64
$PQGSV,1,1,0,0*43
$GPGSA,A,3,02,04,07,08,13,20,23,25,27,,,,1.3,1.0,0.8*33
$GPVTG,107.7,T,107.7,M,75.8,N,140.4,K,A*18
$GPDTM,P90,,0000.000022,S,00000.000001,W,0.988,W84*5A
$GPRMC,000127.00,A,3000.258491,N,12000.405631,E,75.8,107.7,230721,4.3,W,A*1C
$GPGGA,000127.00,3000.258491,N,12000.405631,E,1,09,1.0,-4.6,M,7.0,M,,*7E
$GPGSV,3,1,09,02,31,298,33,04,50,246,33,07,83,116,33,08,46,206,33*74
$GPGSV,3,2,09,13,48,029,33,20,22,120,33,23,26,056,33,25,65,042,33*71
$GPGSV,3,3,09,27,17,217,32*46
$GLGSV,1,1,0,1*48
$GAGSV,1,1,02,23,49,237,,24,68,018,*61
$PQGSV,1,1,03,193,10,149,,194,59,137,,195,73,046,*64
$PQGSV,1,1,0,0*43
$GPGSA,A,3,02,04,07,08,13,20,23,25,27,,,,1.3,1.0,0.8*33
$GPVTG,112.2,T,112.2,M,75.8,N,140.4,K,A*18
$GPDTM,P90,,0000.000022,S,00000.000001,W,0.988,W84*5A
$GPRMC,000128.00,A,3000.251225,N,12000.428230,E,75.8,112.2,230721,4.3,W,A*18
$GPGGA,000128.00,3000.251225,N,12000.428230,E,1,09,1.0,-4.3,M,7.0,M,,*7E
$GPGSV,3,1,09,02,31,298,33,04,50,246,33,07,83,116,33,08,46,206,33*74
$GPGSV,3,2,09,13,48,029,33,20,22,120,33,23,26,056,33,25,65,042,33*71
$GPGSV,3,3,09,27,17,217,33*47
$GLGSV,1,1,0,1*48
$GAGSV,1,1,02,23,49,237,,24,68,018,*61
$PQGSV,1,1,03,193,10,149,,194,59,137,,195,73,046,*64
$PQGSV,1,1,0,0*43
$GPGSA,A,3,02,04,07,08,13,20,23,25,27,,,,1.3,1.0,0.8*33
$GPVTG,116.7,T,116.7,M,75.8,N,140.4,K,A*18
$GPDTM,P90,,0000.000022,S,00000.000001,W,0.988,W84*5A
$GPRMC,000129.00,A,3000.242503,N,12000.450226,E,75.8,116.7,230721,4.3,W,A*11
$GPGGA,000129.00,3000.242503,N,12000.450226,E,1,09,1.0,-4.3,M,7.0,M,,*76
$GPGSV,3,1,09,02,31,298,33,04,50,246,33,07,83,116,33,08,46,206,33*74
$GPGSV,3,2,09,13,48,029,33,20,22,120,33,23,26,056,33,25,65,042,33*71
$GPGSV,3,3,09,27,17,217,33*47
$GLGSV,1,1,0,1*48
$GAGSV,1,1,02,23,49,237,,24,68,018,*61
$PQGSV,1,1,03,193,10,149,,194,59,137,,195,73,046,*64
$PQGSV,1,1,0,0*43
$GPGSA,A,3,02,04,07,08,13,20,23,25,27,,,,1.3,1.0,0.8*33
$GPVTG,121.1,T,121.1,M,75.8,N,140.4,K,A*18
$GPDTM,P90,,0000.000022,S,00000.000001,W,0.988,W84*5A
$GPRMC,000130.00,A,3000.232371,N,12000.471152,E,75.8,121.1,230721,4.3,W,A*1C
$GPGGA,000130.00,3000.232371,N,12000.471152,E,1,09,1.0,-4.4,M,7.0,M,,*7E
$GPGSV,3,1,09,02,31,298,33,04,50,246,33,07,83,116,33,08,46,206,33*74
$GPGSV,3,2,09,13,48,029,33,20,22,120,33,23,26,056,33,25,65,042,33*71
$GPGSV,3,3,09,27,17,217,33*47
$GLGSV,1,1,0,1*48
$GAGSV,1,1,02,23,49,237,,24,68,018,*61
$PQGSV,1,1,03,193,10,149,,194,59,137,,195,73,046,*64
$PQGSV,1,1,0,0*43
$GPGSA,A,3,02,04,07,08,13,20,23,25,27,,,,1.3,1.0,0.8*33
$GPVTG,125.6,T,125.6,M,75.8,N,140.4,K,A*18
$GPDTM,P90,,0000.000022,S,00000.000001,W,0.988,W84*5A
$GPRMC,000131.00,A,3000.220724,N,12000.491240,E,75.8,125.6,230721,4.3,W,A*17
$GPGGA,000131.00,3000.220724,N,12000.491240,E,1,09,1.0,-4.7,M,7.0,M,,*75
$GPGSV,3,1,09,02,31,298,33,04,50,246,33,07,83,116,33,08,46,206,33*74
$GPGSV,3,2,09,13,48,029,33,20,22,120,33,23,26,056,32,25,65,042,33*70
$GPGSV,3,3,09,27,17,217,33*47
$GLGSV,1,1,0,1*48
$GAGSV,1,1,02,23,49,237,,24,68,018,*61
$PQGSV,1,1,03,193,10,149,,194,59,137,,195,73,046,*64
$PQGSV,1,1,0,0*43
$GPGSA,A,3,02,04,07,08,13,20,23,25,27,,,,1.3,1.0,0.8*33
$GPVTG,130.0,T,130.0,M,75.8,N,140.4,K,A*18
$GPDTM,P90,,0000.000022,S,00000.000001,W,0.988,W84*5A
$GPRMC,000132.00,A,3000.207835,N,12000.510379,E,75.8,130.0,230721,4.3,W,A*1F
$GPGGA,000132.00,3000.207835,N,12000.510379,E,1,09,1.0,-4.9,M,7.0,M,,*71
$GPGSV,3,1,09,02,31,298,33,04,50,246,33,07,83,116,33,08,46,206,33*74
$GPGSV,3,2,09,13,48,029,33,20,22,120,33,23,26,056,33,25,65,042,33*71
$GPGSV,3,3,09,27,17,217,33*47
$GLGSV,1,1,0,1*48
$GAGSV,1,1,02,23,49,237,,24,68,018,*61
$PQGSV,1,1,03,193,10,149,,194,59,137,,195,73,046,*64
$PQGSV,1,1,0,0*43
$GPGSA,A,3,02,04,07,08,13,20,23,25,27,,,,1.3,1.0,0.8*33
$GPVTG,134.5,T,134.5,M,75.8,N,140.3,K,A*1F
$GPDTM,P90,,0000.000022,S,00000.000001,W,0.988,W84*5A
$GPRMC,000133.00,A,3000.193578,N,12000.528026,E,75.8,134.5,230721,4.3,W,A*17
$GPGGA,000133.00,3000.193578,N,12000.528026,E,1,09,1.0,-5.0,M,7.0,M,,*70
$GPGSV,3,1,09,02,31,298,33,04,50,246,33,07,83,116,33,08,46,206,33*74
$GPGSV,3,2,09,13,48,029,32,20,22,120,33,23,26,056,33,25,65,042,33*70
$GPGSV,3,3,09,27,17,217,33*47
$GLGSV,1,1,0,1*48
$GAGSV,1,1,02,23,49,237,,24,68,018,*61
$PQGSV,1,1,03,193,10,149,,194,59,137,,195,73,046,*64
$PQGSV,1,1,0,0*43
$GPGSA,A,3,02,04,07,08,13,20,23,25,27,,,,1.3,1.0,0.8*33
$GPVTG,139.0,T,139.0,M,75.8,N,140.5,K,A*19
$GPDTM,P90,,0000.000022,S,00000.000001,W,0.988,W84*5A
$GPRMC,000134.00,A,3000.178222,N,12000.544524,E,75.8,139.0,230721,4.3,W,A*18
$GPGGA,000134.00,3000.178222,N,12000.544524,E,1,09,1.0,-4.8,M,7.0,M,,*7E
$GPGSV,3,1,09,02,31,298,33,04,50,246,33,07,83,116,33,08,46,206,32*75
$GPGSV,3,2,09,13,48,029,33,20,22,120,33,23,26,056,33,25,65,042,33*71
$GPGSV,3,3,09,27,17,217,33*47
$GLGSV,1,1,0,1*48
$GAGSV,1,1,02,23,49,237,,24,68,018,*61
$PQGSV,1,1,03,193,10,149,,194,59,137,,195,73,046,*64
$PQGSV,1,1,0,0*43
$GPGSA,A,3,02,04,07,08,13,20,23,25,27,,,,1.3,1.0,0.8*33
$GPVTG,143.4,T,143.4,M,75.8,N,140.3,K,A*1F
$GPDTM,P90,,0000.000022,S,00000.000001,W,0.988,W84*5A
$GPRMC,000135.00,A,3000.161803,N,12000.559871,E,75.8,143.4,230721,4.3,W,A*10
$GPGGA,000135.00,3000.161803,N,12000.559871,E,1,09,1.0,-4.7,M,7.0,M,,*70
$GPGSV,3,1,09,02,31,298,33,04,50,246,33,07,83,116,33,08,46,206,33*74
$GPGSV,3,2,09,13,48,029,33,20,22,120,33,23,26,056,32,25,65,042,33*70
$GPGSV,3,3,09,27,17,217,33*47
$GLGSV,1,1,0,1*48
$GAGSV,1,1,02,23,49,237,,24,68,018,*61
$PQGSV,1,1,03,193,10,149,,194,59,137,,195,73,046,*64
$PQGSV,1,1,0,0*43
$GPGSA,A,3,02,04,07,08,13,20,23,25,27,,,,1.3,1.0,0.8*33
$GPVTG,147.9,T,147.9,M,75.8,N,140.5,K,A*19
$GPDTM,P90,,0000.000022,S,00000.000001,W,0.988,W84*5A
$GPRMC,000136.00,A,3000.144329,N,12000.573687,E,75.8,147.9,230721,4.3,W,A*11
$GPGGA,000136.00,3000.144329,N,12000.573687,E,1,09,1.0,-5.1,M,7.0,M,,*7F
$GPGSV,3,1,09,02,31,298,33,04,50,246,33,07,83,116,33,08,46,206,33*74
$GPGSV,3,2,09,13,48,029,33,20,22,120,33,23,26,056,33,25,65,042,33*71
$GPGSV,3,3,09,27,17,217,33*47
$GLGSV,1,1,0,1*48
$GAGSV,1,1,02,23,49,237,,24,68,018,*61
$PQGSV,1,1,03,193,10,149,,194,59,137,,195,73,046,*64
$PQGSV,1,1,0,0*43
$GPGSA,A,3,02,04,07,08,13,20,23,25,27,,,,1.3,1.0,0.8*33
$GPVTG,152.3,T,152.3,M,75.8,N,140.3,K,A*1F
$GPDTM,P90,,0000.000022,S,00000.000001,W,0.988,W84*5A
$GPRMC,000137.00,A,3000.126053,N,12000.585550,E,75.8,152.3,230721,4.3,W,A*14
$GPGGA,000137.00,3000.126053,N,12000.585550,E,1,09,1.0,-4.8,M,7.0,M,,*7C
$GPGSV,3,1,09,02,31,298,33,04,50,246,33,07,83,116,33,08,46,206,33*74
$GPGSV,3,2,09,13,48,029,33,20,22,120,33,23,26,056,33,25,65,042,33*71
$GPGSV,3,3,09,27,17,217,33*47
$GLGSV,1,1,0,1*48
$GAGSV,1,1,02,23,49,237,,24,68,018,*61
$PQGSV,1,1,03,193,10,149,,194,59,137,,195,73,046,*64
$PQGSV,1,1,0,0*43
$GPGSA,A,3,02,04,07,08,13,20,23,25,27,,,,1.3,1.0,0.8*33
$GPVTG,156.8,T,156.8,M,75.9,N,140.5,K,A*18
$GPDTM,P90,,0000.000022,S,00000.000001,W,0.988,W84*5A
$GPRMC,000138.00,A,3000.107038,N,12000.596024,E,75.9,156.8,230721,4.3,W,A*1F
$GPGGA,000138.00,3000.107038,N,12000.596024,E,1,09,1.0,-4.7,M,7.0,M,,*76
$GPGSV,3,1,09,02,31,298,33,04,50,246,33,07,83,116,33,08,46,206,33*74
$GPGSV,3,2,09,13,48,029,33,20,22,120,33,23,26,056,33,25,65,042,33*71
$GPGSV,3,3,09,27,17,217,33*47
$GLGSV,1,1,0,1*48
$GAGSV,1,1,02,23,49,237,,24,68,018,*61
$PQGSV,1,1,03,193,10,149,,194,59,137,,195,73,046,*64
$PQGSV,1,1,0,0*43
$GPGSA,A,3,02,04,07,08,13,20,23,25,27,,,,1.3,1.0,0.8*33
$GPVTG,161.2,T,161.2,M,75.8,N,140.4,K,A*18
$GPDTM,P90,,0000.000022,S,00000.000001,W,0.988,W84*5A
$GPRMC,000139.00,A,3000.087382,N,12000.604925,E,75.8,161.2,230721,4.3,W,A*1A
$GPGGA,000139.00,3000.087382,N,12000.604925,E,1,09,1.0,-4.5,M,7.0,M,,*7E
$GPGSV,3,1,09,02,31,298,33,04,50,246,33,07,83,116,33,08,46,206,33*74
$GPGSV,3,2,09,13,48,029,33,20,22,120,33,23,26,056,33,25,65,042,33*71
$GPGSV,3,3,09,27,17,217,33*47
$GLGSV,1,1,0,1*48
