=~=~=~=~=~=~=~=~=~=~=~= PuTTY log 2021.09.13 16:15:04 =~=~=~=~=~=~=~=~=~=~=~=
$GNGGA,000922.045,8960.0000,N,00000.0000,E,0,0,,137.0,M,13.0,M,,*55
$GPGSA,A,1,,,,,,,,,,,,,99.99,99.99,99.99*30
$GLGSA,A,1,,,,,,,,,,,,,99.99,99.99,99.99*2C
$BDGSA,A,1,,,,,,,,,,,,,99.99,99.99,99.99*21
$GPGSV,1,1,4,07,,,31.8,13,,,35.0,08,,,34.8,02,,,33.4*45
$GLGSV,1,1,0*55
$BDGSV,1,1,0*58
$GNRMC,000922.045,V,8960.0000,N,00000.0000,E,0.000,0.00,230721,,,N*52
$GNVTG,0.00,T,,M,0.000,N,0.000,K,N*2C
$PMTKGEPH,0,0,0,0,0,0,0,0,0,0,0,0,0,0,0,0,0,0,0,0,0,0,0,0,0,0,0,0,0,0,0,0,0*04
$PMTKGALM,12,1,0,0,0,0,0,0,1,1,1,1,1,1,1,1,1,0,0,0,0,0,0,0,0,0,0,0,0,0,1,1,0*2A
$GNACCURACY,3162.1,179.9,3.5,499.9*2E
$PMTKAGC,000922.045,3048,2993,5962,5917,0,3,0*6E
$PMTKAG2,000922.045,5,0123,0,0,0,0,0,0,0,0,0,0,0,0*39
$GNGGA,000923.045,8960.0000,N,00000.0000,E,0,0,,137.0,M,13.0,M,,*54
$GPGSA,A,1,,,,,,,,,,,,,99.99,99.99,99.99*30
$GLGSA,A,1,,,,,,,,,,,,,99.99,99.99,99.99*2C
$BDGSA,A,1,,,,,,,,,,,,,99.99,99.99,99.99*21
$GPGSV,2,1,6,07,,,35.9,13,,,35.1,08,,,34.9,02,,,33.5*40
$GPGSV,2,2,6,25,,,35.6,04,,,33.4*48
$GLGSV,1,1,0*55
$BDGSV,1,1,0*58
$GNRMC,000923.045,V,8960.0000,N,00000.0000,E,0.000,0.00,230721,,,N*53
$GNVTG,0.00,T,,M,0.000,N,0.000,K,N*2C
$PMTKGEPH,0,0,0,0,0,0,0,0,0,0,0,0,0,0,0,0,0,0,0,0,0,0,0,0,0,0,0,0,0,0,0,0,0*04
$PMTKGALM,12,1,0,0,0,0,0,0,1,1,1,1,1,1,1,1,1,0,0,0,0,0,0,0,0,0,0,0,0,0,1,1,0*2A
$GNACCURACY,3162.1,179.9,3.5,499.9*2E
$PMTKAGC,000923.045,3105,3017,6022,6051,0,3,0*65
$PMTKAG2,000923.045,5,0123,0,0,0,0,0,0,0,0,0,0,0,0*38
$GNGGA,000924.045,8960.0000,N,00000.0000,E,0,0,,137.0,M,13.0,M,,*53
$GPGSA,A,1,,,,,,,,,,,,,99.99,99.99,99.99*30
$GLGSA,A,1,,,,,,,,,,,,,99.99,99.99,99.99*2C
$BDGSA,A,1,,,,,,,,,,,,,99.99,99.99,99.99*21
$GPGSV,2,1,6,07,,,36.1,13,,,35.0,08,,,34.8,02,,,34.4*4D
$GPGSV,2,2,6,25,,,34.4,04,,,35.1*48
$GLGSV,1,1,0*55
$BDGSV,1,1,0*58
$GNRMC,000924.045,V,8960.0000,N,00000.0000,E,0.000,0.00,230721,,,N*54
$GNVTG,0.00,T,,M,0.000,N,0.000,K,N*2C
$PMTKGEPH,0,0,0,0,0,0,0,0,0,0,0,0,0,0,0,0,0,0,0,0,0,0,0,0,0,0,0,0,0,0,0,0,0*04
$PMTKGALM,12,1,0,0,0,0,0,0,1,1,1,1,1,1,1,1,1,0,0,0,0,0,0,0,0,0,0,0,0,0,1,1,0*2A
$GNACCURACY,3162.1,179.9,3.5,499.9*2E
$PMTKAGC,000924.045,3155,3045,5969,5972,0,3,0*6E
$PMTKAG2,000924.045,5,0123,0,0,0,0,0,0,0,0,0,0,0,0*3F
$GNGGA,000925.045,8960.0000,N,00000.0000,E,0,0,,137.0,M,13.0,M,,*52
$GPGSA,A,1,,,,,,,,,,,,,99.99,99.99,99.99*30
$GLGSA,A,1,,,,,,,,,,,,,99.99,99.99,99.99*2C
$BDGSA,A,1,,,,,,,,,,,,,99.99,99.99,99.99*21
$GPGSV,2,1,6,07,,,35.7,13,,,35.0,08,,,34.6,02,,,34.2*40
$GPGSV,2,2,6,25,,,35.7,04,,,34.9*43
$GLGSV,1,1,0*55
$BDGSV,1,1,0*58
$GNRMC,000925.045,V,8960.0000,N,00000.0000,E,0.000,0.00,230721,,,N*55
$GNVTG,0.00,T,,M,0.000,N,0.000,K,N*2C
$PMTKGEPH,0,0,0,0,0,0,0,0,0,0,0,0,0,0,0,0,0,0,0,0,0,0,0,0,0,0,0,0,0,0,0,0,0*04
$PMTKGALM,12,1,0,0,0,0,0,0,1,1,1,1,1,1,1,1,1,0,0,0,0,0,0,0,0,0,0,0,0,0,1,1,0*2A
$GNACCURACY,3162.1,179.9,3.5,499.9*2E
$PMTKAGC,000925.045,3101,3106,6003,5973,0,3,0*6F
$PMTKAG2,000925.045,5,0123,0,0,0,0,0,0,0,0,0,0,0,0*3E
$GNGGA,000925.258,8960.0000,N,00000.0000,E,0,0,,137.0,M,13.0,M,,*5C
$GPGSA,A,1,,,,,,,,,,,,,99.99,99.99,99.99*30
$GLGSA,A,1,,,,,,,,,,,,,99.99,99.99,99.99*2C
$BDGSA,A,1,,,,,,,,,,,,,99.99,99.99,99.99*21
$GPGSV,2,1,6,07,,,35.8,13,,,35.1,08,,,34.5,02,,,33.9*41
$GPGSV,2,2,6,25,,,35.7,04,,,34.6*4C
$GLGSV,1,1,0*55
$BDGSV,1,1,0*58
$GNRMC,000925.258,V,8960.0000,N,00000.0000,E,0.000,0.00,230721,,,N*5B
$GNVTG,0.00,T,,M,0.000,N,0.000,K,N*2C
$PMTKGEPH,0,0,0,0,0,0,0,0,0,0,0,0,0,0,0,0,0,0,0,0,0,0,0,0,0,0,0,0,0,0,0,0,0*04
$PMTKGALM,12,1,0,0,0,0,0,0,1,1,1,1,1,1,1,1,1,0,0,0,0,0,0,0,0,0,0,0,0,0,1,1,0*2A
$GNACCURACY,3162.1,179.9,3.5,499.9*2E
$PMTKAGC,000925.258,3133,2862,6038,5984,0,3,0*6A
$PMTKAG2,000925.258,5,0123,0,0,0,0,0,0,0,0,0,0,0,0*30
$GNGGA,000926.258,8960.0000,N,00000.0000,E,0,0,,137.0,M,13.0,M,,*5F
$GPGSA,A,1,,,,,,,,,,,,,99.99,99.99,99.99*30
$GLGSA,A,1,,,,,,,,,,,,,99.99,99.99,99.99*2C
$BDGSA,A,1,,,,,,,,,,,,,99.99,99.99,99.99*21
$GPGSV,2,1,6,07,,,35.5,13,,,35.0,08,,,34.4,02,,,34.7*45
$GPGSV,2,2,6,25,,,35.5,04,,,35.5*4C
$GLGSV,1,1,0*55
$BDGSV,1,1,0*58
$GNRMC,000926.258,V,8960.0000,N,00000.0000,E,0.000,0.00,230721,,,N*58
$GNVTG,0.00,T,,M,0.000,N,0.000,K,N*2C
$PMTKGEPH,0,0,0,0,0,0,0,0,0,0,0,0,0,0,0,0,0,0,0,0,0,0,0,0,0,0,0,0,0,0,0,0,0*04
$PMTKGALM,12,1,0,0,0,0,0,0,1,1,1,1,1,1,1,1,1,0,0,0,0,0,0,0,0,0,0,0,0,0,1,1,0*2A
$GNACCURACY,3162.1,179.9,3.5,499.9*2E
$PMTKAGC,000926.258,3102,3196,6015,5971,0,3,0*6D
$PMTKAG2,000926.258,5,0123,0,0,0,0,0,0,0,0,0,0,0,0*33
$GNGGA,000032.261,8960.0000,N,00000.0000,E,0,0,,137.0,M,13.0,M,,*59
$GPGSA,A,1,,,,,,,,,,,,,99.99,99.99,99.99*30
$GLGSA,A,1,,,,,,,,,,,,,99.99,99.99,99.99*2C
$BDGSA,A,1,,,,,,,,,,,,,99.99,99.99,99.99*21
$GPGSV,2,1,6,07,,,34.9,13,,,34.7,08,,,34.2,02,,,34.3*4C
$GPGSV,2,2,6,25,,,35.6,04,,,35.0*4A
$GLGSV,1,1,0*55
$BDGSV,1,1,0*58
$GNRMC,000032.261,V,8960.0000,N,00000.0000,E,0.000,0.00,230721,,,N*5E
$GNVTG,0.00,T,,M,0.000,N,0.000,K,N*2C
$PMTKGEPH,0,0,0,0,0,0,0,0,0,0,0,0,0,0,0,0,0,0,0,0,0,0,0,0,0,0,0,0,0,0,0,0,0*04
$PMTKGALM,12,1,0,0,0,0,0,0,1,1,1,1,1,1,1,1,1,0,0,0,0,0,0,0,0,0,0,0,0,0,1,1,0*2A
$GNACCURACY,3162.1,179.9,3.5,499.9*2E
$PMTKAGC,000032.261,3234,3011,5994,5989,0,3,0*67
$PMTKAG2,000032.261,5,0123,0,0,0,0,0,0,0,0,0,0,0,0*35
$GNGGA,000033.261,8960.0000,N,00000.0000,E,0,0,,137.0,M,13.0,M,,*58
$GPGSA,A,1,,,,,,,,,,,,,99.99,99.99,99.99*30
$GLGSA,A,1,,,,,,,,,,,,,99.99,99.99,99.99*2C
$BDGSA,A,1,,,,,,,,,,,,,99.99,99.99,99.99*21
$GPGSV,2,1,6,07,,,35.3,13,,,34.4,08,,,34.3,02,,,34.1*47
$GPGSV,2,2,6,25,,,35.3,04,,,34.9*47
$GLGSV,1,1,0*55
$BDGSV,1,1,0*58
$GNRMC,000033.261,V,8960.0000,N,00000.0000,E,0.000,0.00,230721,,,N*5F
$GNVTG,0.00,T,,M,0.000,N,0.000,K,N*2C
$PMTKGEPH,0,0,0,0,0,0,0,0,0,0,0,0,0,0,0,0,0,0,0,0,0,0,0,0,0,0,0,0,0,0,0,0,0*04
$PMTKGALM,12,1,0,0,0,0,0,0,1,1,1,1,1,1,1,1,1,0,0,0,0,0,0,0,0,0,0,0,0,0,1,1,0*2A
$GNACCURACY,3162.1,179.9,3.5,499.9*2E
$PMTKAGC,000033.261,2985,3104,5999,5880,0,3,0*66
$PMTKAG2,000033.261,5,0123,0,0,0,0,0,0,0,0,0,0,0,0*34
$GNGGA,000034.261,8960.0000,N,00000.0000,E,0,0,,137.0,M,13.0,M,,*5F
$GPGSA,A,1,,,,,,,,,,,,,99.99,99.99,99.99*30
$GLGSA,A,1,,,,,,,,,,,,,99.99,99.99,99.99*2C
$BDGSA,A,1,,,,,,,,,,,,,99.99,99.99,99.99*21
$GPGSV,2,1,6,07,,,35.8,13,,,34.4,08,,,34.5,02,,,34.3*48
$GPGSV,2,2,6,25,,,35.2,04,,,35.1*4F
$GLGSV,1,1,0*55
$BDGSV,1,1,0*58
$GNRMC,000034.261,V,8960.0000,N,00000.0000,E,0.000,0.00,230721,,,N*58
$GNVTG,0.00,T,,M,0.000,N,0.000,K,N*2C
$PMTKGEPH,0,0,0,0,0,0,0,0,0,0,0,0,0,0,0,0,0,0,0,0,0,0,0,0,0,0,0,0,0,0,0,0,0*04
$PMTKGALM,12,1,0,0,0,0,0,0,1,1,1,1,1,1,1,1,1,0,0,0,0,0,0,0,0,0,0,0,0,0,1,1,0*2A
$GNACCURACY,3162.1,179.9,3.5,499.9*2E
$PMTKAGC,000034.261,2925,3142,6037,6181,0,3,0*6C
$PMTKAG2,000034.261,5,0123,0,0,0,0,0,0,0,0,0,0,0,0*33
$GNGGA,000035.261,8960.0000,N,00000.0000,E,0,0,,137.0,M,13.0,M,,*5E
$GPGSA,A,1,,,,,,,,,,,,,99.99,99.99,99.99*30
$GLGSA,A,1,,,,,,,,,,,,,99.99,99.99,99.99*2C
$BDGSA,A,1,,,,,,,,,,,,,99.99,99.99,99.99*21
$GPGSV,2,1,6,07,,,35.4,13,,,34.3,08,,,34.6,02,,,34.3*40
$GPGSV,2,2,6,25,,,35.1,04,,,35.0*4D
$GLGSV,1,1,0*55
$BDGSV,1,1,0*58
$GNRMC,000035.261,V,8960.0000,N,00000.0000,E,0.000,0.00,230721,,,N*59
$GNVTG,0.00,T,,M,0.000,N,0.000,K,N*2C
$PMTKGEPH,0,0,0,0,0,0,0,0,0,0,0,0,0,0,0,0,0,0,0,0,0,0,0,0,0,0,0,0,0,0,0,0,0*04
$PMTKGALM,12,1,0,0,0,0,0,0,1,1,1,1,1,1,1,1,1,0,0,0,0,0,0,0,0,0,0,0,0,0,1,1,0*2A
$GNACCURACY,3162.1,179.9,3.5,499.9*2E
$PMTKAGC,000035.261,2943,3185,6025,6041,0,3,0*68
$PMTKAG2,000035.261,5,0123,0,0,0,0,0,0,0,0,0,0,0,0*32
$GNGGA,000036.092,8960.0000,N,00000.0000,E,0,0,,137.0,M,13.0,M,,*53
$GPGSA,A,1,,,,,,,,,,,,,99.99,99.99,99.99*30
$GLGSA,A,1,,,,,,,,,,,,,99.99,99.99,99.99*2C
$BDGSA,A,1,,,,,,,,,,,,,99.99,99.99,99.99*21
$GPGSV,2,1,6,07,,,35.6,13,,,34.4,08,,,34.8,02,,,34.3*4B
$GPGSV,2,2,6,25,,,35.3,04,,,35.0*4F
$GLGSV,1,1,0*55
$BDGSV,1,1,0*58
$GNRMC,000036.092,V,8960.0000,N,00000.0000,E,0.000,0.00,230721,,,N*54
$GNVTG,0.00,T,,M,0.000,N,0.000,K,N*2C
$PMTKGEPH,0,0,0,0,0,0,0,0,0,0,0,0,0,0,0,0,0,0,0,0,0,0,0,0,0,0,0,0,0,0,0,0,0*04
$PMTKGALM,13,1,0,0,0,0,0,0,1,1,1,1,1,1,1,1,1,0,0,0,0,0,0,0,0,1,0,0,0,0,1,1,0*2A
$GNACCURACY,3162.1,179.9,3.5,499.9*2E
$PMTKAGC,000036.092,2909,3114,6009,6053,0,3,0*6E
$PMTKAG2,000036.092,5,0123,0,0,0,0,0,0,0,0,0,0,0,0*3F
$GNGGA,000037.092,8960.0000,N,00000.0000,E,0,0,,137.0,M,13.0,M,,*52
$GPGSA,A,1,,,,,,,,,,,,,99.99,99.99,99.99*30
$GLGSA,A,1,,,,,,,,,,,,,99.99,99.99,99.99*2C
$BDGSA,A,1,,,,,,,,,,,,,99.99,99.99,99.99*21
$GPGSV,2,1,6,07,,,35.7,13,,,34.6,08,,,35.1,02,,,34.3*40
$GPGSV,2,2,6,25,,,35.2,04,,,35.1*4F
$GLGSV,1,1,0*55
$BDGSV,1,1,0*58
$GNRMC,000037.092,V,8960.0000,N,00000.0000,E,0.000,0.00,230721,,,N*55
$GNVTG,0.00,T,,M,0.000,N,0.000,K,N*2C
$PMTKGEPH,0,0,0,0,0,0,0,0,0,0,0,0,0,0,0,0,0,0,0,0,0,0,0,0,0,0,0,0,0,0,0,0,0*04
$PMTKGALM,13,1,0,0,0,0,0,0,1,1,1,1,1,1,1,1,1,0,0,0,0,0,0,0,0,1,0,0,0,0,1,1,0*2A
$GNACCURACY,3162.1,179.9,3.5,499.9*2E
$PMTKAGC,000037.092,3052,3098,6014,5932,0,3,0*6D
$PMTKAG2,000037.092,5,0122,0,0,0,0,0,0,0,0,0,0,0,0*3F
$GNGGA,000038.092,8960.0000,N,00000.0000,E,0,0,,137.0,M,13.0,M,,*5D
$GPGSA,A,1,,,,,,,,,,,,,99.99,99.99,99.99*30
$GLGSA,A,1,,,,,,,,,,,,,99.99,99.99,99.99*2C
$BDGSA,A,1,,,,,,,,,,,,,99.99,99.99,99.99*21
$GPGSV,2,1,6,07,,,35.7,13,,,34.8,08,,,35.1,02,,,34.5*48
$GPGSV,2,2,6,25,,,35.3,04,,,35.2*4D
$GLGSV,1,1,0*55
$BDGSV,1,1,0*58
$GNRMC,000038.092,V,8960.0000,N,00000.0000,E,0.000,0.00,230721,,,N*5A
$GNVTG,0.00,T,,M,0.000,N,0.000,K,N*2C
$PMTKGEPH,0,0,0,0,0,0,0,0,0,0,0,0,0,0,0,0,0,0,0,0,0,0,0,0,0,0,0,0,0,0,0,0,0*04
$PMTKGALM,13,1,0,0,0,0,0,0,1,1,1,1,1,1,1,1,1,0,0,0,0,0,0,0,0,1,0,0,0,0,1,1,0*2A
$GNACCURACY,3162.1,179.9,3.5,499.9*2E
$PMTKAGC,000038.092,2924,3240,5917,6017,0,3,0*68
$PMTKAG2,000038.092,5,0123,0,0,0,0,0,0,0,0,0,0,0,0*31
$GNGGA,000039.092,8960.0000,N,00000.0000,E,0,0,,137.0,M,13.0,M,,*5C
$GPGSA,A,1,,,,,,,,,,,,,99.99,99.99,99.99*30
$GLGSA,A,1,,,,,,,,,,,,,99.99,99.99,99.99*2C
$BDGSA,A,1,,,,,,,,,,,,,99.99,99.99,99.99*21
$GPGSV,2,1,6,07,,,35.4,13,,,34.7,08,,,35.0,02,,,34.5*45
$GPGSV,2,2,6,25,,,35.3,04,,,35.2*4D
$GLGSV,1,1,0*55
$BDGSV,1,1,0*58
$GNRMC,000039.092,V,8960.0000,N,00000.0000,E,0.000,0.00,230721,,,N*5B
$GNVTG,0.00,T,,M,0.000,N,0.000,K,N*2C
$PMTKGEPH,0,0,0,0,0,0,0,0,0,0,0,0,0,0,0,0,0,0,0,0,0,0,0,0,0,0,0,0,0,0,0,0,0*04
$PMTKGALM,13,1,0,0,0,0,0,0,1,1,1,1,1,1,1,1,1,0,0,0,0,0,0,0,0,1,0,0,0,0,1,1,0*2A
$GNACCURACY,3162.1,179.9,3.5,499.9*2E
$PMTKAGC,000039.092,2976,3360,6144,5851,0,3,0*69
$PMTKAG2,000039.092,5,0122,0,0,0,0,0,0,0,0,0,0,0,0*31
$GNGGA,000040.092,8960.0000,N,00000.0000,E,0,0,,137.0,M,13.0,M,,*52
$GPGSA,A,1,,,,,,,,,,,,,99.99,99.99,99.99*30
$GLGSA,A,1,,,,,,,,,,,,,99.99,99.99,99.99*2C
$BDGSA,A,1,,,,,,,,,,,,,99.99,99.99,99.99*21
$GPGSV,2,1,6,07,,,35.6,13,,,34.8,08,,,34.9,02,,,34.5*40
$GPGSV,2,2,6,25,,,35.3,04,,,35.3*4C
$GLGSV,1,1,0*55
$BDGSV,1,1,0*58
$GNRMC,000040.092,V,8960.0000,N,00000.0000,E,0.000,0.00,230721,,,N*55
$GNVTG,0.00,T,,M,0.000,N,0.000,K,N*2C
$PMTKGEPH,0,0,0,0,0,0,0,0,0,0,0,0,0,0,0,0,0,0,0,0,0,0,0,0,0,0,0,0,0,0,0,0,0*04
$PMTKGALM,13,1,0,0,0,0,0,0,1,1,1,1,1,1,1,1,1,0,0,0,0,0,0,0,0,1,0,0,0,0,1,1,0*2A
$GNACCURACY,3162.1,179.9,3.5,499.9*2E
$PMTKAGC,000040.092,2928,2909,5974,6042,0,3,0*69
$PMTKAG2,000040.092,5,0122,0,0,0,0,0,0,0,0,0,0,0,0*3F
$GNGGA,000041.092,8960.0000,N,00000.0000,E,0,0,,137.0,M,13.0,M,,*53
$GPGSA,A,1,,,,,,,,,,,,,99.99,99.99,99.99*30
$GLGSA,A,1,,,,,,,,,,,,,99.99,99.99,99.99*2C
$BDGSA,A,1,,,,,,,,,,,,,99.99,99.99,99.99*21
$GPGSV,2,1,6,07,,,35.6,13,,,34.7,08,,,34.8,02,,,34.3*48
$GPGSV,2,2,6,25,,,35.4,04,,,35.3*4B
$GLGSV,1,1,0*55
$BDGSV,1,1,0*58
$GNRMC,000041.092,V,8960.0000,N,00000.0000,E,0.000,0.00,230721,,,N*54
$GNVTG,0.00,T,,M,0.000,N,0.000,K,N*2C
$PMTKGEPH,0,0,0,0,0,0,0,0,0,0,0,0,0,0,0,0,0,0,0,0,0,0,0,0,0,0,0,0,0,0,0,0,0*04
$PMTKGALM,13,1,0,0,0,0,0,0,1,1,1,1,1,1,1,1,1,0,0,0,0,0,0,0,0,1,0,0,0,0,1,1,0*2A
$GNACCURACY,3162.1,179.9,3.5,499.9*2E
$PMTKAGC,000041.092,3187,3037,6020,6065,0,3,0*6F
$PMTKAG2,000041.092,5,0123,0,0,0,0,0,0,0,0,0,0,0,0*3F
$GNGGA,000042.088,8960.0000,N,00000.0000,E,0,0,,137.0,M,13.0,M,,*5B
$GPGSA,A,1,,,,,,,,,,,,,99.99,99.99,99.99*30
$GLGSA,A,1,,,,,,,,,,,,,99.99,99.99,99.99*2C
$BDGSA,A,1,,,,,,,,,,,,,99.99,99.99,99.99*21
$GPGSV,2,1,6,07,,,35.6,13,,,34.8,08,,,34.7,02,,,34.5*4E
$GPGSV,2,2,6,25,,,35.3,04,,,35.3*4C
$GLGSV,1,1,0*55
$BDGSV,1,1,0*58
$GNRMC,000042.088,V,8960.0000,N,00000.0000,E,0.000,0.00,230721,,,N*5C
$GNVTG,0.00,T,,M,0.000,N,0.000,K,N*2C
$PMTKGEPH,0,0,0,0,0,0,0,0,0,0,0,0,0,0,0,0,0,0,0,0,0,0,0,0,0,0,0,0,0,0,0,0,0*04
$PMTKGALM,14,1,1,0,0,0,0,0,1,1,1,1,1,1,1,1,1,0,0,0,0,0,0,0,0,1,0,0,0,0,1,1,0*2C
$GNACCURACY,3162.1,179.9,3.5,499.9*2E
$PMTKAGC,000042.088,3131,3227,5938,5931,0,3,0*61
$PMTKAG2,000042.088,5,0123,0,0,0,0,0,0,0,0,0,0,0,0*37
$GNGGA,000043.088,8960.0000,N,00000.0000,E,0,0,,137.0,M,13.0,M,,*5A
$GPGSA,A,1,,,,,,,,,,,,,99.99,99.99,99.99*30
$GLGSA,A,1,,,,,,,,,,,,,99.99,99.99,99.99*2C
$BDGSA,A,1,,,,,,,,,,,,,99.99,99.99,99.99*21
$GPGSV,2,1,6,07,,,35.6,13,,,34.8,08,,,34.7,02,,,34.5*4E
$GPGSV,2,2,6,25,,,35.3,04,,,35.4*4B
$GLGSV,1,1,0*55
$BDGSV,1,1,0*58
$GNRMC,000043.088,V,8960.0000,N,00000.0000,E,0.000,0.00,230721,,,N*5D
$GNVTG,0.00,T,,M,0.000,N,0.000,K,N*2C
$PMTKGEPH,0,0,0,0,0,0,0,0,0,0,0,0,0,0,0,0,0,0,0,0,0,0,0,0,0,0,0,0,0,0,0,0,0*04
$PMTKGALM,14,1,1,0,0,0,0,0,1,1,1,1,1,1,1,1,1,0,0,0,0,0,0,0,0,1,0,0,0,0,1,1,0*2C
$GNACCURACY,3162.1,179.9,3.5,499.9*2E
$PMTKAGC,000043.088,3140,3271,5944,5982,0,3,0*66
$PMTKAG2,000043.088,5,0123,0,0,0,0,0,0,0,0,0,0,0,0*36
$GNGGA,000044.088,8960.0000,N,00000.0000,E,0,0,,137.0,M,13.0,M,,*5D
$GPGSA,A,1,,,,,,,,,,,,,99.99,99.99,99.99*30
$GLGSA,A,1,,,,,,,,,,,,,99.99,99.99,99.99*2C
$BDGSA,A,1,,,,,,,,,,,,,99.99,99.99,99.99*21
$GPGSV,2,1,6,07,,,35.7,13,,,34.8,08,,,34.7,02,,,34.3*49
$GPGSV,2,2,6,25,,,35.4,04,,,35.3*4B
$GLGSV,1,1,0*55
$BDGSV,1,1,0*58
$GNRMC,000044.088,V,8960.0000,N,00000.0000,E,0.000,0.00,230721,,,N*5A
$GNVTG,0.00,T,,M,0.000,N,0.000,K,N*2C
$PMTKGEPH,0,0,0,0,0,0,0,0,0,0,0,0,0,0,0,0,0,0,0,0,0,0,0,0,0,0,0,0,0,0,0,0,0*04
$PMTKGALM,14,1,1,0,0,0,0,0,1,1,1,1,1,1,1,1,1,0,0,0,0,0,0,0,0,1,0,0,0,0,1,1,0*2C
$GNACCURACY,3162.1,179.9,3.5,499.9*2E
$PMTKAGC,000044.088,3128,3070,6028,5971,0,3,0*60
$PMTKAG2,000044.088,5,0123,0,0,0,0,0,0,0,0,0,0,0,0*31
$GNGGA,000045.088,8960.0000,N,00000.0000,E,0,0,,137.0,M,13.0,M,,*5C
$GPGSA,A,1,,,,,,,,,,,,,99.99,99.99,99.99*30
$GLGSA,A,1,,,,,,,,,,,,,99.99,99.99,99.99*2C
$BDGSA,A,1,,,,,,,,,,,,,99.99,99.99,99.99*21
$GPGSV,2,1,6,07,,,35.5,13,,,34.7,08,,,34.7,02,,,34.2*45
$GPGSV,2,2,6,25,,,35.4,04,,,35.2*4A
$GLGSV,1,1,0*55
$BDGSV,1,1,0*58
$GNRMC,000045.088,V,8960.0000,N,00000.0000,E,0.000,0.00,230721,,,N*5B
$GNVTG,0.00,T,,M,0.000,N,0.000,K,N*2C
$PMTKGEPH,0,0,0,0,0,0,0,0,0,0,0,0,0,0,0,0,0,0,0,0,0,0,0,0,0,0,0,0,0,0,0,0,0*04
$PMTKGALM,14,1,1,0,0,0,0,0,1,1,1,1,1,1,1,1,1,0,0,0,0,0,0,0,0,1,0,0,0,0,1,1,0*2C
$GNACCURACY,3162.1,179.9,3.5,499.9*2E
$PMTKAGC,000045.088,3009,3064,6056,5962,0,3,0*6D
$PMTKAG2,000045.088,5,0123,0,0,0,0,0,0,0,0,0,0,0,0*30
$GNGGA,000046.088,8960.0000,N,00000.0000,E,0,0,,137.0,M,13.0,M,,*5F
$GPGSA,A,1,,,,,,,,,,,,,99.99,99.99,99.99*30
$GLGSA,A,1,,,,,,,,,,,,,99.99,99.99,99.99*2C
$BDGSA,A,1,,,,,,,,,,,,,99.99,99.99,99.99*21
$GPGSV,2,1,6,07,,,35.4,13,,,34.8,08,,,34.7,02,,,34.5*4C
$GPGSV,2,2,6,25,,,35.3,04,,,35.1*4E
$GLGSV,1,1,0*55
$BDGSV,1,1,0*58
$GNRMC,000046.088,V,8960.0000,N,00000.0000,E,0.000,0.00,230721,,,N*58
$GNVTG,0.00,T,,M,0.000,N,0.000,K,N*2C
$PMTKGEPH,0,0,0,0,0,0,0,0,0,0,0,0,0,0,0,0,0,0,0,0,0,0,0,0,0,0,0,0,0,0,0,0,0*04
$PMTKGALM,14,1,1,0,0,0,0,0,1,1,1,1,1,1,1,1,1,0,0,0,0,0,0,0,0,1,0,0,0,0,1,1,0*2C
$GNACCURACY,3162.1,179.9,3.5,499.9*2E
$PMTKAGC,000046.088,3042,3004,5862,5967,0,3,0*6E
$PMTKAG2,000046.088,5,0123,0,0,0,0,0,0,0,0,0,0,0,0*33
$GNGGA,000047.088,8960.0000,N,00000.0000,E,0,0,,137.0,M,13.0,M,,*5E
$GPGSA,A,1,,,,,,,,,,,,,99.99,99.99,99.99*30
$GLGSA,A,1,,,,,,,,,,,,,99.99,99.99,99.99*2C
$BDGSA,A,1,,,,,,,,,,,,,99.99,99.99,99.99*21
$GPGSV,2,1,6,07,,,35.3,13,,,34.8,08,,,34.7,02,,,34.4*4A
$GPGSV,2,2,6,25,,,35.5,04,,,35.0*49
$GLGSV,1,1,0*55
$BDGSV,1,1,0*58
$GNRMC,000047.088,V,8960.0000,N,00000.0000,E,0.000,0.00,230721,,,N*59
$GNVTG,0.00,T,,M,0.000,N,0.000,K,N*2C
$PMTKGEPH,0,0,0,0,0,0,0,0,0,0,0,0,0,0,0,0,0,0,0,0,0,0,0,0,0,0,0,0,0,0,0,0,0*04
$PMTKGALM,14,1,1,0,0,0,0,0,1,1,1,1,1,1,1,1,1,0,0,0,0,0,0,0,0,1,0,0,0,0,1,1,0*2C
$GNACCURACY,3162.1,179.9,3.5,499.9*2E
$PMTKAGC,000047.088,3023,3069,5999,6045,0,3,0*6C
$PMTKAG2,000047.088,5,0122,0,0,0,0,0,0,0,0,0,0,0,0*33
$GNGGA,000048.088,8960.0000,N,00000.0000,E,0,0,,137.0,M,13.0,M,,*51
$GPGSA,A,1,,,,,,,,,,,,,99.99,99.99,99.99*30
$GLGSA,A,1,,,,,,,,,,,,,99.99,99.99,99.99*2C
$BDGSA,A,1,,,,,,,,,,,,,99.99,99.99,99.99*21
$GPGSV,2,1,6,07,,,35.2,13,,,34.8,08,,,34.7,02,,,34.4*4B
$GPGSV,2,2,6,25,,,35.5,04,,,35.0*49
$GLGSV,1,1,0*55
$BDGSV,1,1,0*58
$GNRMC,000048.088,V,8960.0000,N,00000.0000,E,0.000,0.00,230721,,,N*56
$GNVTG,0.00,T,,M,0.000,N,0.000,K,N*2C
$PMTKGEPH,0,0,0,0,0,0,0,0,0,0,0,0,0,0,0,0,0,0,0,0,0,0,0,0,0,0,0,0,0,0,0,0,0*04
$PMTKGALM,14,1,1,0,0,0,0,0,1,1,1,1,1,1,1,1,1,0,0,0,0,0,0,0,0,1,0,0,0,0,1,1,0*2C
$GNACCURACY,3162.1,179.9,3.5,499.9*2E
$PMTKAGC,000048.088,3240,3032,5892,5999,0,3,0*6B
$PMTKAG2,000048.088,5,0123,0,0,0,0,0,0,0,0,0,0,0,0*3D
$GNGGA,000049.088,8960.0000,N,00000.0000,E,0,0,,137.0,M,13.0,M,,*50
$GPGSA,A,1,,,,,,,,,,,,,99.99,99.99,99.99*30
$GLGSA,A,1,,,,,,,,,,,,,99.99,99.99,99.99*2C
$BDGSA,A,1,,,,,,,,,,,,,99.99,99.99,99.99*21
$GPGSV,2,1,6,07,,,35.2,13,,,34.8,08,,,34.8,02,,,34.4*44
$GPGSV,2,2,6,25,,,35.3,04,,,35.1*4E
$GLGSV,1,1,0*55
$BDGSV,1,1,0*58
$GNRMC,000049.088,V,8960.0000,N,00000.0000,E,0.000,0.00,230721,,,N*57
$GNVTG,0.00,T,,M,0.000,N,0.000,K,N*2C
$PMTKGEPH,0,0,0,0,0,0,0,0,0,0,0,0,0,0,0,0,0,0,0,0,0,0,0,0,0,0,0,0,0,0,0,0,0*04
$PMTKGALM,14,1,1,0,0,0,0,0,1,1,1,1,1,1,1,1,1,0,0,0,0,0,0,0,0,1,0,0,0,0,1,1,0*2C
$GNACCURACY,3162.1,179.9,3.5,499.9*2E
$PMTKAGC,000049.088,3138,3084,6016,5940,0,3,0*68
$PMTKAG2,000049.088,5,0123,0,0,0,0,0,0,0,0,0,0,0,0*3C
$GNGGA,000050.088,8960.0000,N,00000.0000,E,0,0,,137.0,M,13.0,M,,*58
$GPGSA,A,1,,,,,,,,,,,,,99.99,99.99,99.99*30
$GLGSA,A,1,,,,,,,,,,,,,99.99,99.99,99.99*2C
$BDGSA,A,1,,,,,,,,,,,,,99.99,99.99,99.99*21
$GPGSV,2,1,6,07,,,35.4,13,,,34.8,08,,,34.8,02,,,34.4*42
$GPGSV,2,2,6,25,,,35.3,04,,,35.2*4D
$GLGSV,1,1,0*55
$BDGSV,1,1,0*58
$GNRMC,000050.088,V,8960.0000,N,00000.0000,E,0.000,0.00,230721,,,N*5F
$GNVTG,0.00,T,,M,0.000,N,0.000,K,N*2C
$PMTKGEPH,0,0,0,0,0,0,0,0,0,0,0,0,0,0,0,0,0,0,0,0,0,0,0,0,0,0,0,0,0,0,0,0,0*04
$PMTKGALM,14,1,1,0,0,0,0,0,1,1,1,1,1,1,1,1,1,0,0,0,0,0,0,0,0,1,0,0,0,0,1,1,0*2C
$GNACCURACY,3162.1,179.9,3.5,499.9*2E
$PMTKAGC,000050.088,2984,3114,5964,5888,0,3,0*6C
$PMTKAG2,000050.088,5,0123,0,0,0,0,0,0,0,0,0,0,0,0*34
$GNGGA,000051.088,8960.0000,N,00000.0000,E,0,0,,137.0,M,13.0,M,,*59
$GPGSA,A,1,,,,,,,,,,,,,99.99,99.99,99.99*30
$GLGSA,A,1,,,,,,,,,,,,,99.99,99.99,99.99*2C
$BDGSA,A,1,,,,,,,,,,,,,99.99,99.99,99.99*21
$GPGSV,2,1,6,07,,,35.4,13,,,34.8,08,,,34.8,02,,,34.3*45
$GPGSV,2,2,6,25,,,35.4,04,,,35.2*4A
$GLGSV,1,1,0*55
$BDGSV,1,1,0*58
$GNRMC,000051.088,V,8960.0000,N,00000.0000,E,0.000,0.00,230721,,,N*5E
$GNVTG,0.00,T,,M,0.000,N,0.000,K,N*2C
$PMTKGEPH,0,0,0,0,0,0,0,0,0,0,0,0,0,0,0,0,0,0,0,0,0,0,0,0,0,0,0,0,0,0,0,0,0*04
$PMTKGALM,14,1,1,0,0,0,0,0,1,1,1,1,1,1,1,1,1,0,0,0,0,0,0,0,0,1,0,0,0,0,1,1,0*2C
$GNACCURACY,3162.1,179.9,3.5,499.9*2E
$PMTKAGC,000051.088,2998,3027,6066,5993,0,3,0*62
$PMTKAG2,000051.088,5,0123,0,0,0,0,0,0,0,0,0,0,0,0*35
$GNGGA,000052.088,8960.0000,N,00000.0000,E,0,0,,137.0,M,13.0,M,,*5A
$GPGSA,A,1,,,,,,,,,,,,,99.99,99.99,99.99*30
$GLGSA,A,1,,,,,,,,,,,,,99.99,99.99,99.99*2C
$BDGSA,A,1,,,,,,,,,,,,,99.99,99.99,99.99*21
$GPGSV,2,1,6,07,,,35.5,13,,,34.8,08,,,34.9,02,,,34.4*42
$GPGSV,2,2,6,25,,,35.4,04,,,35.2*4A
$GLGSV,1,1,0*55
$BDGSV,1,1,0*58
$GNRMC,000052.088,V,8960.0000,N,00000.0000,E,0.000,0.00,230721,,,N*5D
$GNVTG,0.00,T,,M,0.000,N,0.000,K,N*2C
$PMTKGEPH,0,0,0,0,0,0,0,0,0,0,0,0,0,0,0,0,0,0,0,0,0,0,0,0,0,0,0,0,0,0,0,0,0*04
$PMTKGALM,14,1,1,0,0,0,0,0,1,1,1,1,1,1,1,1,1,0,0,0,0,0,0,0,0,1,0,0,0,0,1,1,0*2C
$GNACCURACY,3162.1,179.9,3.5,499.9*2E
$PMTKAGC,000052.088,2999,2957,6109,5968,0,3,0*63
$PMTKAG2,000052.088,5,0123,0,0,0,0,0,0,0,0,0,0,0,0*36
$GNGGA,000053.088,8960.0000,N,00000.0000,E,0,0,,137.0,M,13.0,M,,*5B
$GPGSA,A,1,,,,,,,,,,,,,99.99,99.99,99.99*30
$GLGSA,A,1,,,,,,,,,,,,,99.99,99.99,99.99*2C
$BDGSA,A,1,,,,,,,,,,,,,99.99,99.99,99.99*21
$GPGSV,2,1,6,07,,,35.4,13,,,34.9,08,,,34.8,02,,,34.4*43
$GPGSV,2,2,6,25,,,35.4,04,,,35.2*4A
$GLGSV,1,1,0*55
$BDGSV,1,1,0*58
$GNRMC,000053.088,V,8960.0000,N,00000.0000,E,0.000,0.00,230721,,,N*5C
$GNVTG,0.00,T,,M,0.000,N,0.000,K,N*2C
$PMTKGEPH,0,0,0,0,0,0,0,0,0,0,0,0,0,0,0,0,0,0,0,0,0,0,0,0,0,0,0,0,0,0,0,0,0*04
$PMTKGALM,14,1,1,0,0,0,0,0,1,1,1,1,1,1,1,1,1,0,0,0,0,0,0,0,0,1,0,0,0,0,1,1,0*2C
$GNACCURACY,3162.1,179.9,3.5,499.9*2E
$PMTKAGC,000053.088,2980,3095,5958,6067,0,3,0*66
$PMTKAG2,000053.088,5,0123,0,0,0,0,0,0,0,0,0,0,0,0*37
$GNGGA,000054.087,8960.0000,N,00000.0000,E,0,0,,137.0,M,13.0,M,,*53
$GPGSA,A,1,,,,,,,,,,,,,99.99,99.99,99.99*30
$GLGSA,A,1,,,,,,,,,,,,,99.99,99.99,99.99*2C
$BDGSA,A,1,,,,,,,,,,,,,99.99,99.99,99.99*21
$GPGSV,2,1,6,07,,,35.5,13,,,34.9,08,,,34.9,02,,,34.4*43
$GPGSV,2,2,6,25,,,35.4,04,,,35.2*4A
$GLGSV,1,1,0*55
$BDGSV,1,1,0*58
$GNRMC,000054.087,V,8960.0000,N,00000.0000,E,0.000,0.00,230721,,,N*54
$GNVTG,0.00,T,,M,0.000,N,0.000,K,N*2C
$PMTKGEPH,2,0,0,0,0,0,0,0,1,0,0,0,0,1,0,0,0,0,0,0,0,0,0,0,0,0,0,0,0,0,0,0,0*06
$PMTKGALM,14,1,1,0,0,0,0,0,1,1,1,1,1,1,1,1,1,0,0,0,0,0,0,0,0,1,0,0,0,0,1,1,0*2C
$GNACCURACY,3162.1,179.9,3.5,499.9*2E
$PMTKAGC,000054.087,3074,2905,6083,6017,0,3,0*67
$PMTKAG2,000054.087,5,0123,0,0,0,0,0,0,0,0,0,0,0,0*3F
$GNGGA,000055.087,8960.0000,N,00000.0000,E,0,0,,137.0,M,13.0,M,,*52
$GPGSA,A,1,,,,,,,,,,,,,99.99,99.99,99.99*30
$GLGSA,A,1,,,,,,,,,,,,,99.99,99.99,99.99*2C
$BDGSA,A,1,,,,,,,,,,,,,99.99,99.99,99.99*21
$GPGSV,2,1,6,07,,,35.5,13,,,34.9,08,,,34.8,02,,,34.4*42
$GPGSV,2,2,6,25,,,35.4,04,,,35.2*4A
$GLGSV,1,1,0*55
$BDGSV,1,1,0*58
$GNRMC,000055.087,V,8960.0000,N,00000.0000,E,0.000,0.00,230721,,,N*55
$GNVTG,0.00,T,,M,0.000,N,0.000,K,N*2C
$PMTKGEPH,2,0,0,0,0,0,0,0,1,0,0,0,0,1,0,0,0,0,0,0,0,0,0,0,0,0,0,0,0,0,0,0,0*06
$PMTKGALM,14,1,1,0,0,0,0,0,1,1,1,1,1,1,1,1,1,0,0,0,0,0,0,0,0,1,0,0,0,0,1,1,0*2C
$GNACCURACY,3162.1,179.9,3.5,499.9*2E
$PMTKAGC,000055.087,3223,2943,6059,5930,0,3,0*6C
$PMTKAG2,000055.087,5,0123,0,0,0,0,0,0,0,0,0,0,0,0*3E
$GNGGA,000056.087,8960.0000,N,00000.0000,E,0,0,,137.0,M,13.0,M,,*51
$GPGSA,A,1,,,,,,,,,,,,,99.99,99.99,99.99*30
$GLGSA,A,1,,,,,,,,,,,,,99.99,99.99,99.99*2C
$BDGSA,A,1,,,,,,,,,,,,,99.99,99.99,99.99*21
$GPGSV,2,1,6,07,,,35.4,13,,,34.9,08,,,34.8,02,,,34.4*43
$GPGSV,2,2,6,25,,,35.4,04,,,35.2*4A
$GLGSV,1,1,0*55
$BDGSV,1,1,0*58
$GNRMC,000056.087,V,8960.0000,N,00000.0000,E,0.000,0.00,230721,,,N*56
$GNVTG,0.00,T,,M,0.000,N,0.000,K,N*2C
$PMTKGEPH,2,0,0,0,0,0,0,0,1,0,0,0,0,1,0,0,0,0,0,0,0,0,0,0,0,0,0,0,0,0,0,0,0*06
$PMTKGALM,14,1,1,0,0,0,0,0,1,1,1,1,1,1,1,1,1,0,0,0,0,0,0,0,0,1,0,0,0,0,1,1,0*2C
$GNACCURACY,3162.1,179.9,3.5,499.9*2E
$PMTKAGC,000056.087,3132,3096,5956,6101,0,3,0*60
$PMTKAG2,000056.087,5,0123,0,0,0,0,0,0,0,0,0,0,0,0*3D
$GNGGA,000057.087,8960.0000,N,00000.0000,E,0,0,,137.0,M,13.0,M,,*50
$GPGSA,A,1,,,,,,,,,,,,,99.99,99.99,99.99*30
$GLGSA,A,1,,,,,,,,,,,,,99.99,99.99,99.99*2C
$BDGSA,A,1,,,,,,,,,,,,,99.99,99.99,99.99*21
$GPGSV,2,1,6,07,,,35.4,13,,,35.0,08,,,34.8,02,,,34.4*4B
$GPGSV,2,2,6,25,,,35.4,04,,,35.1*49
$GLGSV,1,1,0*55
$BDGSV,1,1,0*58
$GNRMC,000057.087,V,8960.0000,N,00000.0000,E,0.000,0.00,230721,,,N*57
$GNVTG,0.00,T,,M,0.000,N,0.000,K,N*2C
$PMTKGEPH,2,0,0,0,0,0,0,0,1,0,0,0,0,1,0,0,0,0,0,0,0,0,0,0,0,0,0,0,0,0,0,0,0*06
$PMTKGALM,14,1,1,0,0,0,0,0,1,1,1,1,1,1,1,1,1,0,0,0,0,0,0,0,0,1,0,0,0,0,1,1,0*2C
$GNACCURACY,3162.1,179.9,3.5,499.9*2E
$PMTKAGC,000057.087,3142,3068,5898,6085,0,3,0*69
$PMTKAG2,000057.087,5,0123,0,0,0,0,0,0,0,0,0,0,0,0*3C
$GNGGA,000058.087,8960.0000,N,00000.0000,E,0,0,,137.0,M,13.0,M,,*5F
$GPGSA,A,1,,,,,,,,,,,,,99.99,99.99,99.99*30
$GLGSA,A,1,,,,,,,,,,,,,99.99,99.99,99.99*2C
$BDGSA,A,1,,,,,,,,,,,,,99.99,99.99,99.99*21
$GPGSV,2,1,6,04,,,35.1,07,,,35.4,13,,,35.0,08,,,34.7*46
$GPGSV,2,2,6,02,,,34.4,25,,,35.4*4B
$GLGSV,1,1,0*55
$BDGSV,1,1,0*58
$GNRMC,000058.087,V,8960.0000,N,00000.0000,E,0.000,0.00,230721,,,N*58
$GNVTG,0.00,T,,M,0.000,N,0.000,K,N*2C
$PMTKGEPH,2,0,0,0,0,0,0,0,1,0,0,0,0,1,0,0,0,0,0,0,0,0,0,0,0,0,0,0,0,0,0,0,0*06
$PMTKGALM,14,1,1,0,0,0,0,0,1,1,1,1,1,1,1,1,1,0,0,0,0,0,0,0,0,1,0,0,0,0,1,1,0*2C
$GNACCURACY,3162.1,179.9,3.5,499.9*2E
$PMTKAGC,000058.087,3151,2989,5916,5945,0,3,0*62
$PMTKAG2,000058.087,5,0122,0,0,0,0,0,0,0,0,0,0,0,0*32
$GNGGA,000059.087,8960.0000,N,00000.0000,E,0,0,,137.0,M,13.0,M,,*5E
$GPGSA,A,1,,,,,,,,,,,,,99.99,99.99,99.99*30
$GLGSA,A,1,,,,,,,,,,,,,99.99,99.99,99.99*2C
$BDGSA,A,1,,,,,,,,,,,,,99.99,99.99,99.99*21
$GPGSV,2,1,6,04,,,35.1,07,,,35.5,13,,,35.0,08,,,34.7*47
$GPGSV,2,2,6,02,,,34.4,25,,,35.4*4B
$GLGSV,1,1,0*55
$BDGSV,1,1,0*58
$GNRMC,000059.087,V,8960.0000,N,00000.0000,E,0.000,0.00,230721,,,N*59
$GNVTG,0.00,T,,M,0.000,N,0.000,K,N*2C
$PMTKGEPH,2,0,0,0,0,0,0,0,1,0,0,0,0,1,0,0,0,0,0,0,0,0,0,0,0,0,0,0,0,0,0,0,0*06
$PMTKGALM,14,1,1,0,0,0,0,0,1,1,1,1,1,1,1,1,1,0,0,0,0,0,0,0,0,1,0,0,0,0,1,1,0*2C
$GNACCURACY,3162.1,179.9,3.5,499.9*2E
$PMTKAGC,000059.087,3102,3211,5939,5997,0,3,0*6C
$PMTKAG2,000059.087,5,0123,0,0,0,0,0,0,0,0,0,0,0,0*32
$GNGGA,000100.083,2133.9765,N,12152.1544,E,0,0,,128.2,M,21.8,M,,*5A
$GPGSA,A,1,,,,,,,,,,,,,7.87,6.99,3.62*09
$GLGSA,A,1,,,,,,,,,,,,,7.87,6.99,3.62*15
$BDGSA,A,1,,,,,,,,,,,,,7.87,6.99,3.62*18
$GPGSV,2,1,6,04,,,35.1,07,,,35.4,13,,,35.0,08,,,34.8*49
$GPGSV,2,2,6,02,,,34.3,25,,,35.4*4C
$GLGSV,1,1,0*55
$BDGSV,1,1,0*58
$GNRMC,000100.083,V,2133.9765,N,12152.1544,E,0.000,0.00,230721,,,N*58
$GNVTG,0.00,T,,M,0.000,N,0.000,K,N*2C
$PMTKGEPH,5,0,0,0,1,0,0,1,1,0,0,0,0,1,0,0,0,0,0,0,0,0,0,0,0,1,0,0,0,0,0,0,0*00
$PMTKGALM,14,1,1,0,0,0,0,0,1,1,1,1,1,1,1,1,1,0,0,0,0,0,0,0,0,1,0,0,0,0,1,1,0*2C
$GNACCURACY,3162.1,179.9,3.5,499.9*2E
$PMTKAGC,000100.083,3172,3025,6012,5929,0,3,0*61
$PMTKAG2,000100.083,5,0123,0,0,0,0,0,0,0,0,0,0,0,0*3B
$PMTK767,1,1000,15*2C
$GNGGA,000100.295,2959.9994,N,12000.0000,E,1,6,1.55,-9.0,M,7.0,M,,*50
$GPGSA,A,3,07,13,08,02,25,04,,,,,,,1.84,1.55,0.98*03
$GLGSA,A,3,,,,,,,,,,,,,1.84,1.55,0.98*13
$BDGSA,A,3,,,,,,,,,,,,,1.84,1.55,0.98*1E
$GPGSV,3,1,12,07,85,116,35.3,25,67,043,35.3,04,52,247,35.1,13,50,031,35.0*73
$GPGSV,3,2,12,08,47,207,34.7,02,33,299,34.4,39,20,251,,16,01,039,*74
$GPGSV,3,3,12,10,01,310,,193,,,,194,,,,195,,,*72
$GLGSV,3,1,11,87,61,300,,77,56,328,,65,35,332,,69,35,332,*6A
$GLGSV,3,2,11,76,35,332,,80,35,332,,86,34,025,,88,20,243,*64
$GLGSV,3,3,11,75,11,153,,78,06,331,,71,01,081,*56
$BDGSV,1,1,0*58
$GNRMC,000100.295,A,2959.9994,N,12000.0000,E,0.000,0.00,230721,,,A*43
$GNVTG,0.00,T,,M,0.000,N,0.000,K,A*23
$PMTKGEPH,6,0,1,0,1,0,0,1,1,0,0,0,0,1,0,0,0,0,0,0,0,0,0,0,0,1,0,0,0,0,0,0,0*02
$PMTKGALM,14,1,1,0,0,0,0,0,1,1,1,1,1,1,1,1,1,0,0,0,0,0,0,0,0,1,0,0,0,0,1,1,0*2C
$GNACCURACY,6.6,179.9,2.1,126.0*14
$PMTKAGC,000100.295,3098,3151,6074,5951,0,3,0*6C
$PMTKAG2,000100.295,5,0123,0,0,0,0,0,0,0,0,0,0,0,0*3E
$PMTK001,768,2*38
$GNGGA,000101.295,2959.9995,N,12000.0002,E,1,6,1.55,-6.9,M,7.0,M,,*54
$GPGSA,A,3,07,13,08,02,25,04,,,,,,,1.84,1.55,0.98*03
$GLGSA,A,3,,,,,,,,,,,,,1.84,1.55,0.98*13
$BDGSA,A,3,,,,,,,,,,,,,1.84,1.55,0.98*1E
$GPGSV,3,1,12,07,85,116,35.3,25,67,043,35.4,04,52,247,35.1,13,50,031,35.0*74
$GPGSV,3,2,12,08,47,207,34.8,02,33,299,34.3,39,20,251,,16,01,039,*7C
$GPGSV,3,3,12,10,01,310,,193,,,,194,,,,195,,,*72
$GLGSV,3,1,11,87,61,300,,77,56,328,,65,35,332,,69,35,332,*6A
$GLGSV,3,2,11,76,35,332,,80,35,332,,86,34,025,,88,20,243,*64
$GLGSV,3,3,11,75,11,153,,78,06,331,,71,01,081,*56
$BDGSV,1,1,0*58
$GNRMC,000101.295,A,2959.9995,N,12000.0002,E,0.000,0.00,230721,,,A*41
$GNVTG,0.00,T,,M,0.000,N,0.000,K,A*23
$PMTKGEPH,6,0,1,0,1,0,0,1,1,0,0,0,0,1,0,0,0,0,0,0,0,0,0,0,0,1,0,0,0,0,0,0,0*02
$PMTKGALM,14,1,1,0,0,0,0,0,1,1,1,1,1,1,1,1,1,0,0,0,0,0,0,0,0,1,0,0,0,0,1,1,0*2C
$GNACCURACY,5.5,179.9,1.7,107.3*11
$PMTKAGC,000101.295,3215,3064,5922,6097,0,3,0*64
$PMTKAG2,000101.295,5,0123,0,0,0,0,0,0,0,0,0,0,0,0*3F
$GNGGA,000103.000,2959.9999,N,11960.0000,E,1,6,1.55,-5.9,M,7.0,M,,*59
$GPGSA,A,3,07,13,08,02,25,04,,,,,,,1.84,1.55,0.98*03
$GLGSA,A,3,,,,,,,,,,,,,1.84,1.55,0.98*13
$BDGSA,A,3,,,,,,,,,,,,,1.84,1.55,0.98*1E
$GPGSV,3,1,12,07,85,116,35.3,25,67,043,35.4,04,52,247,35.0,13,50,031,35.0*75
$GPGSV,3,2,12,08,47,207,34.8,02,33,299,34.4,39,20,251,,16,01,039,*7B
$GPGSV,3,3,12,10,01,310,,193,,,,194,,,,195,,,*72
$GLGSV,3,1,11,87,61,300,,77,56,328,,65,35,332,,69,35,332,*6A
$GLGSV,3,2,11,76,35,332,,80,35,332,,86,34,025,,88,20,243,*64
$GLGSV,3,3,11,75,11,153,,78,06,331,,71,01,081,*56
$BDGSV,1,1,0*58
$GNRMC,000103.000,A,2959.9999,N,11960.0000,E,0.116,280.44,230721,,,A*43
$GNVTG,280.44,T,,M,0.116,N,0.215,K,A*29
$PMTKGEPH,6,0,1,0,1,0,0,1,1,0,0,0,0,1,0,0,0,0,0,0,0,0,0,0,0,1,0,0,0,0,0,0,0*02
$PMTKGALM,14,1,1,0,0,0,0,0,1,1,1,1,1,1,1,1,1,0,0,0,0,0,0,0,0,1,0,0,0,0,1,1,0*2C
$GNACCURACY,5.0,179.9,1.4,100.9*1A
$PMTKAGC,000103.000,3188,3249,6008,5934,0,3,0*63
$PMTKAG2,000103.000,5,0123,0,0,0,0,0,0,0,0,0,0,0,0*33
$GNGGA,000104.000,2960.0000,N,11959.9998,E,1,6,1.55,-4.3,M,7.0,M,,*54
$GPGSA,A,3,07,13,08,02,25,04,,,,,,,1.84,1.55,0.98*03
$GLGSA,A,3,,,,,,,,,,,,,1.84,1.55,0.98*13
$BDGSA,A,3,,,,,,,,,,,,,1.84,1.55,0.98*1E
$GPGSV,3,1,12,07,85,116,35.3,25,67,043,35.3,04,52,247,35.0,13,50,031,35.0*72
$GPGSV,3,2,12,08,47,207,34.8,02,33,299,34.4,39,20,251,,16,01,039,*7B
$GPGSV,3,3,12,10,01,310,,193,,,,194,,,,195,,,*72
$GLGSV,3,1,11,87,61,300,,77,56,328,,65,35,332,,69,35,332,*6A
$GLGSV,3,2,11,76,35,332,,80,35,332,,86,34,025,,88,20,243,*64
$GLGSV,3,3,11,75,11,153,,78,06,331,,71,01,081,*56
$BDGSV,1,1,0*58
$GNRMC,000104.000,A,2960.0000,N,11959.9998,E,0.070,261.46,230721,,,A*49
$GNVTG,261.46,T,,M,0.070,N,0.130,K,A*21
$PMTKGEPH,6,0,1,0,1,0,0,1,1,0,0,0,0,1,0,0,0,0,0,0,0,0,0,0,0,1,0,0,0,0,0,0,0*02
$PMTKGALM,14,1,1,0,0,0,0,0,1,1,1,1,1,1,1,1,1,0,0,0,0,0,0,0,0,1,0,0,0,0,1,1,0*2C
$GNACCURACY,4.6,179.9,1.1,96.7*28
$PMTKAGC,000104.000,3105,2970,6023,6048,0,3,0*69
$PMTKAG2,000104.000,5,0123,0,0,0,0,0,0,0,0,0,0,0,0*34
$GNGGA,000105.000,3000.0002,N,11959.9996,E,1,6,1.56,-2.8,M,7.0,M,,*59
$GPGSA,A,3,07,13,08,02,25,04,,,,,,,1.84,1.56,0.98*00
$GLGSA,A,3,,,,,,,,,,,,,1.84,1.56,0.98*10
$BDGSA,A,3,,,,,,,,,,,,,1.84,1.56,0.98*1D
$GPGSV,3,1,12,07,85,116,35.3,25,67,043,35.3,04,52,247,35.1,13,50,031,35.0*73
$GPGSV,3,2,12,08,47,207,34.8,02,33,299,34.4,39,20,251,,16,01,039,*7B
$GPGSV,3,3,12,10,01,310,,193,,,,194,,,,195,,,*72
$GLGSV,3,1,11,87,61,300,,77,56,328,,65,35,332,,69,35,332,*6A
$GLGSV,3,2,11,76,35,332,,80,35,332,,86,34,025,,88,20,243,*64
$GLGSV,3,3,11,75,11,153,,78,06,331,,71,01,081,*56
$BDGSV,1,1,0*58
$GNRMC,000105.000,A,3000.0002,N,11959.9996,E,0.037,299.44,230721,,,A*4C
$GNVTG,299.44,T,,M,0.037,N,0.069,K,A*2A
$PMTKGEPH,6,0,1,0,1,0,0,1,1,0,0,0,0,1,0,0,0,0,0,0,0,0,0,0,0,1,0,0,0,0,0,0,0*02
$PMTKGALM,14,1,1,0,0,0,0,0,1,1,1,1,1,1,1,1,1,0,0,0,0,0,0,0,0,1,0,0,0,0,1,1,0*2C
$GNACCURACY,4.3,179.9,0.2,94.9*23
$PMTKAGC,000105.000,3095,3112,5985,5868,0,3,0*62
$PMTKAG2,000105.000,5,0123,0,0,0,0,0,0,0,0,0,0,0,0*35
$GNGGA,000106.000,3000.0001,N,11959.9999,E,1,6,1.55,-4.1,M,7.0,M,,*5A
$GPGSA,A,3,07,13,08,02,25,04,,,,,,,1.84,1.55,0.98*03
$GLGSA,A,3,,,,,,,,,,,,,1.84,1.55,0.98*13
$BDGSA,A,3,,,,,,,,,,,,,1.84,1.55,0.98*1E
$GPGSV,3,1,12,07,85,116,35.3,25,67,043,35.3,04,52,247,35.1,13,50,031,34.9*7B
$GPGSV,3,2,12,08,47,207,34.8,02,33,299,34.4,39,20,251,,16,01,039,*7B
$GPGSV,3,3,12,10,01,310,,193,,,,194,,,,195,,,*72
$GLGSV,3,1,11,87,61,300,,77,56,328,,65,35,332,,69,35,332,*6A
$GLGSV,3,2,11,76,35,332,,80,35,332,,86,34,025,,88,20,243,*64
$GLGSV,3,3,11,75,11,153,,78,06,331,,71,01,081,*56
$BDGSV,1,1,0*58
$GNRMC,000106.000,A,3000.0001,N,11959.9999,E,0.007,66.75,230721,,,A*70
$GNVTG,66.75,T,,M,0.007,N,0.013,K,A*14
$PMTKGEPH,6,0,1,0,1,0,0,1,1,0,0,0,0,1,0,0,0,0,0,0,0,0,0,0,0,1,0,0,0,0,0,0,0*02
$PMTKGALM,14,1,1,0,0,0,0,0,1,1,1,1,1,1,1,1,1,0,0,0,0,0,0,0,0,1,0,0,0,0,1,1,0*2C
$GNACCURACY,4.1,179.9,0.2,93.1*2E
$PMTKAGC,000106.000,3056,3110,5896,6064,0,3,0*68
$PMTKAG2,000106.000,5,0123,0,0,0,0,0,0,0,0,0,0,0,0*36
$GNGGA,000107.000,3000.0002,N,11959.9999,E,1,6,1.55,-4.2,M,7.0,M,,*5B
$GPGSA,A,3,07,13,08,02,25,04,,,,,,,1.84,1.55,0.98*03
$GLGSA,A,3,,,,,,,,,,,,,1.84,1.55,0.98*13
$BDGSA,A,3,,,,,,,,,,,,,1.84,1.55,0.98*1E
$GPGSV,3,1,12,07,85,116,35.4,25,67,043,35.3,04,52,247,35.0,13,50,031,34.9*7D
$GPGSV,3,2,12,08,47,207,34.8,02,33,299,34.4,39,20,251,,16,01,039,*7B
$GPGSV,3,3,12,10,01,310,,193,,,,194,,,,195,,,*72
$GLGSV,3,1,11,87,61,300,,77,56,328,,65,35,332,,69,35,332,*6A
$GLGSV,3,2,11,76,35,332,,80,35,332,,86,34,025,,88,20,243,*64
$GLGSV,3,3,11,75,11,153,,78,06,331,,71,01,081,*56
$BDGSV,1,1,0*58
$GNRMC,000107.000,A,3000.0002,N,11959.9999,E,0.007,350.33,230721,,,A*46
$GNVTG,350.33,T,,M,0.007,N,0.012,K,A*21
$PMTKGEPH,6,0,1,0,1,0,0,1,1,0,0,0,0,1,0,0,0,0,0,0,0,0,0,0,0,1,0,0,0,0,0,0,0*02
$PMTKGALM,15,1,1,0,0,0,0,0,1,1,1,1,1,1,1,1,1,0,0,0,0,0,0,0,0,1,1,0,0,0,1,1,0*2C
$GNACCURACY,4.0,179.9,0.2,91.7*2B
$PMTKAGC,000107.000,3159,3061,5997,5943,0,3,0*6F
$PMTKAG2,000107.000,5,0123,0,0,0,0,0,0,0,0,0,0,0,0*37
$GNGGA,000108.000,3000.0004,N,11959.9996,E,1,6,1.56,-3.7,M,7.0,M,,*5C
$GPGSA,A,3,07,13,08,02,25,04,,,,,,,1.84,1.56,0.98*00
$GLGSA,A,3,,,,,,,,,,,,,1.84,1.56,0.98*10
$BDGSA,A,3,,,,,,,,,,,,,1.84,1.56,0.98*1D
$GPGSV,3,1,12,07,85,115,35.3,25,67,043,35.3,04,52,247,35.0,13,50,031,34.9*79
$GPGSV,3,2,12,08,47,207,34.8,02,33,299,34.4,39,20,251,,16,01,039,*7B
$GPGSV,3,3,12,10,01,310,,193,,,,194,,,,195,,,*72
$GLGSV,3,1,11,87,61,300,,77,56,328,,65,35,332,,69,35,332,*6A
$GLGSV,3,2,11,76,35,332,,80,35,332,,86,34,025,,88,20,243,*64
$GLGSV,3,3,11,75,11,153,,78,06,331,,71,01,081,*56
$BDGSV,1,1,0*58
$GNRMC,000108.000,A,3000.0004,N,11959.9996,E,0.024,229.64,230721,,,A*4C
$GNVTG,229.64,T,,M,0.024,N,0.044,K,A*2E
$PMTKGEPH,6,0,1,0,1,0,0,1,1,0,0,0,0,1,0,0,0,0,0,0,0,0,0,0,0,1,0,0,0,0,0,0,0*02
$PMTKGALM,15,1,1,0,0,0,0,0,1,1,1,1,1,1,1,1,1,0,0,0,0,0,0,0,0,1,1,0,0,0,1,1,0*2C
$GNACCURACY,3.8,179.9,0.2,91.3*20
$PMTKAGC,000108.000,2858,3253,6076,6140,0,3,0*67
$PMTKAG2,000108.000,5,0123,0,0,0,0,0,0,0,0,0,0,0,0*38
$GNGGA,000109.000,3000.0005,N,11959.9996,E,1,6,1.56,-4.0,M,7.0,M,,*5C
$GPGSA,A,3,07,13,08,02,25,04,,,,,,,1.84,1.56,0.98*00
$GLGSA,A,3,,,,,,,,,,,,,1.84,1.56,0.98*10
$BDGSA,A,3,,,,,,,,,,,,,1.84,1.56,0.98*1D
$GPGSV,3,1,12,07,85,115,35.4,25,67,043,35.4,04,52,247,35.1,13,50,031,34.9*78
$GPGSV,3,2,12,08,47,207,34.8,02,33,299,34.4,39,20,251,,16,01,039,*7B
$GPGSV,3,3,12,10,01,310,,193,,,,194,,,,195,,,*72
$GLGSV,3,1,11,87,61,300,,77,56,328,,65,35,332,,69,35,332,*6A
$GLGSV,3,2,11,76,35,332,,80,35,332,,86,34,025,,88,20,243,*64
$GLGSV,3,3,11,75,11,153,,78,06,331,,71,01,081,*56
$BDGSV,1,1,0*58
$GNRMC,000109.000,A,3000.0005,N,11959.9996,E,0.031,1.35,230721,,,A*44
$GNVTG,1.35,T,,M,0.031,N,0.058,K,A*2B
$PMTKGEPH,6,0,1,0,1,0,0,1,1,0,0,0,0,1,0,0,0,0,0,0,0,0,0,0,0,1,0,0,0,0,0,0,0*02
$PMTKGALM,15,1,1,0,0,0,0,0,1,1,1,1,1,1,1,1,1,0,0,0,0,0,0,0,0,1,1,0,0,0,1,1,0*2C
$GNACCURACY,3.7,179.9,0.2,90.2*2F
$PMTKAGC,000109.000,2971,2934,5962,6071,0,3,0*6B
$PMTKAG2,000109.000,5,0122,0,0,0,0,0,0,0,0,0,0,0,0*38
$GNGGA,000110.000,3000.0005,N,11959.9996,E,1,6,1.56,-4.1,M,7.0,M,,*55
$GPGSA,A,3,07,13,08,02,25,04,,,,,,,1.84,1.56,0.98*00
$GLGSA,A,3,,,,,,,,,,,,,1.84,1.56,0.98*10
$BDGSA,A,3,,,,,,,,,,,,,1.84,1.56,0.98*1D
$GPGSV,3,1,12,07,85,115,38.7,25,67,043,38.4,04,52,247,38.3,13,50,031,37.9*77
$GPGSV,3,2,12,08,47,207,37.8,02,33,299,38.2,39,20,251,,16,01,039,*72
$GPGSV,3,3,12,10,01,310,,193,,,,194,,,,195,,,*72
$GLGSV,3,1,11,87,61,300,,77,56,328,,65,35,332,,69,35,332,*6A
$GLGSV,3,2,11,76,35,332,,80,35,332,,86,34,025,,88,20,243,*64
$GLGSV,3,3,11,75,11,153,,78,06,331,,71,01,081,*56
$BDGSV,1,1,0*58
$GNRMC,000110.000,A,3000.0005,N,11959.9996,E,0.011,194.21,230721,,,A*46
$GNVTG,194.21,T,,M,0.011,N,0.021,K,A*2F
$PMTKGEPH,6,0,1,0,1,0,0,1,1,0,0,0,0,1,0,0,0,0,0,0,0,0,0,0,0,1,0,0,0,0,0,0,0*02
$PMTKGALM,15,1,1,0,0,0,0,0,1,1,1,1,1,1,1,1,1,0,0,0,0,0,0,0,0,1,1,0,0,0,1,1,0*2C
$GNACCURACY,3.6,179.9,0.2,89.6*22
$PMTKAGC,000110.000,3113,3002,5928,6054,0,3,0*6A
$PMTKAG2,000110.000,5,0122,0,0,0,0,0,0,0,0,0,0,0,0*30
$GNGGA,000111.000,3000.0005,N,11959.9996,E,1,6,1.56,-4.0,M,7.0,M,,*55
$GPGSA,A,3,07,13,08,02,25,04,,,,,,,1.84,1.56,0.98*00
$GLGSA,A,3,,,,,,,,,,,,,1.84,1.56,0.98*10
$BDGSA,A,3,,,,,,,,,,,,,1.84,1.56,0.98*1D
$GPGSV,3,1,12,07,85,115,38.1,25,67,043,37.9,04,52,247,38.5,13,50,031,38.1*72
$GPGSV,3,2,12,08,47,207,38.0,02,33,299,38.0,39,20,251,,16,01,039,*77
$GPGSV,3,3,12,10,01,310,,193,,,,194,,,,195,,,*72
$GLGSV,3,1,11,87,61,300,,77,56,328,,65,35,332,,69,35,332,*6A
$GLGSV,3,2,11,76,35,332,,80,35,332,,86,34,025,,88,20,243,*64
$GLGSV,3,3,11,75,11,153,,78,06,331,,71,01,081,*56
$BDGSV,1,1,0*58
$GNRMC,000111.000,A,3000.0005,N,11959.9996,E,0.033,116.27,230721,,,A*4B
$GNVTG,116.27,T,,M,0.033,N,0.061,K,A*27
$PMTKGEPH,6,0,1,0,1,0,0,1,1,0,0,0,0,1,0,0,0,0,0,0,0,0,0,0,0,1,0,0,0,0,0,0,0*02
$PMTKGALM,15,1,1,0,0,0,0,0,1,1,1,1,1,1,1,1,1,0,0,0,0,0,0,0,0,1,1,0,0,0,1,1,0*2C
$GNACCURACY,3.5,179.9,0.2,89.8*2F
$PMTKAGC,000111.000,3284,2964,6084,6026,0,3,0*67
$PMTKAG2,000111.000,5,0122,0,0,0,0,0,0,0,0,0,0,0,0*31
$GNGGA,000112.000,3000.0005,N,11959.9996,E,1,6,1.56,-3.8,M,7.0,M,,*59
$GPGSA,A,3,07,13,08,02,25,04,,,,,,,1.84,1.56,0.98*00
$GLGSA,A,3,,,,,,,,,,,,,1.84,1.56,0.98*10
$BDGSA,A,3,,,,,,,,,,,,,1.84,1.56,0.98*1D
$GPGSV,3,1,12,07,85,115,38.5,25,67,043,38.2,04,52,247,38.7,13,50,031,38.6*77
$GPGSV,3,2,12,08,47,207,38.5,02,33,299,38.1,39,20,251,,16,01,039,*73
$GPGSV,3,3,12,10,01,310,,193,,,,194,,,,195,,,*72
$GLGSV,3,1,11,87,61,300,,77,56,328,,65,35,332,,69,35,332,*6A
$GLGSV,3,2,11,76,35,332,,80,35,332,,86,34,025,,88,20,243,*64
$GLGSV,3,3,11,75,11,153,,78,06,331,,71,01,081,*56
$BDGSV,1,1,0*58
$GNRMC,000112.000,A,3000.0005,N,11959.9996,E,0.039,319.78,230721,,,A*45
$GNVTG,319.78,T,,M,0.039,N,0.071,K,A*2B
$PMTKGEPH,6,0,1,0,1,0,0,1,1,0,0,0,0,1,0,0,0,0,0,0,0,0,0,0,0,1,0,0,0,0,0,0,0*02
$PMTKGALM,15,1,1,0,0,0,0,0,1,1,1,1,1,1,1,1,1,0,0,0,0,0,0,0,0,1,1,0,0,0,1,1,0*2C
$GNACCURACY,3.4,179.9,0.2,88.7*20
$PMTKAGC,000112.000,3131,3101,6158,5947,0,3,0*6E
$PMTKAG2,000112.000,5,0122,0,0,0,0,0,0,0,0,0,0,0,0*32
$GNGGA,000113.000,3000.0005,N,11959.9996,E,1,6,1.56,-3.9,M,7.0,M,,*59
$GPGSA,A,3,07,13,08,02,25,04,,,,,,,1.84,1.56,0.98*00
$GLGSA,A,3,,,,,,,,,,,,,1.84,1.56,0.98*10
$BDGSA,A,3,,,,,,,,,,,,,1.84,1.56,0.98*1D
$GPGSV,3,1,12,07,85,115,38.8,25,67,043,38.5,04,52,247,38.4,13,50,031,38.3*7B
$GPGSV,3,2,12,08,47,207,38.5,02,33,299,37.8,39,20,251,,16,01,039,*75
$GPGSV,3,3,12,10,01,310,,193,,,,194,,,,195,,,*72
$GLGSV,3,1,11,87,61,300,,77,56,328,,65,35,332,,69,35,332,*6A
$GLGSV,3,2,11,76,35,332,,80,35,332,,86,34,025,,88,20,243,*64
$GLGSV,3,3,11,75,11,153,,78,06,331,,71,01,081,*56
$BDGSV,1,1,0*58
$GNRMC,000113.000,A,3000.0005,N,11959.9996,E,0.011,263.00,230721,,,A*4D
$GNVTG,263.00,T,,M,0.011,N,0.021,K,A*27
$PMTKGEPH,6,0,1,0,1,0,0,1,1,0,0,0,0,1,0,0,0,0,0,0,0,0,0,0,0,1,0,0,0,0,0,0,0*02
$PMTKGALM,16,1,1,1,0,0,0,0,1,1,1,1,1,1,1,1,1,0,0,0,0,0,0,0,0,1,1,0,0,0,1,1,0*2E
$GNACCURACY,3.3,179.9,0.2,89.3*22
$PMTKAGC,000113.000,3166,3061,6024,6042,0,3,0*6F
$PMTKAG2,000113.000,5,0122,0,0,0,0,0,0,0,0,0,0,0,0*33
$GNGGA,000114.000,3000.0005,N,11959.9995,E,1,6,1.56,-3.5,M,7.0,M,,*51
$GPGSA,A,3,07,13,08,02,25,04,,,,,,,1.84,1.56,0.98*00
$GLGSA,A,3,,,,,,,,,,,,,1.84,1.56,0.98*10
$BDGSA,A,3,,,,,,,,,,,,,1.84,1.56,0.98*1D
$GPGSV,3,1,12,07,85,115,38.4,25,67,043,38.3,04,52,247,38.5,13,50,031,38.3*70
$GPGSV,3,2,12,08,47,207,38.3,02,33,299,38.1,39,20,251,,16,01,039,*75
$GPGSV,3,3,12,10,01,310,,193,,,,194,,,,195,,,*72
$GLGSV,3,1,11,87,61,300,,77,56,328,,65,35,332,,69,35,332,*6A
$GLGSV,3,2,11,76,35,332,,80,35,332,,86,34,025,,88,20,243,*64
$GLGSV,3,3,11,75,11,153,,78,06,331,,71,01,081,*56
$BDGSV,1,1,0*58
$GNRMC,000114.000,A,3000.0005,N,11959.9995,E,0.016,77.38,230721,,,A*72
$GNVTG,77.38,T,,M,0.016,N,0.029,K,A*14
$PMTKGEPH,6,0,1,0,1,0,0,1,1,0,0,0,0,1,0,0,0,0,0,0,0,0,0,0,0,1,0,0,0,0,0,0,0*02
$PMTKGALM,16,1,1,1,0,0,0,0,1,1,1,1,1,1,1,1,1,0,0,0,0,0,0,0,0,1,1,0,0,0,1,1,0*2E
$GNACCURACY,3.2,179.9,0.2,88.2*23
$PMTKAGC,000114.000,3188,3086,6020,5995,0,3,0*65
$PMTKAG2,000114.000,5,0122,0,0,0,0,0,0,0,0,0,0,0,0*34
$GNGGA,000115.000,3000.0005,N,11959.9996,E,1,6,1.56,-3.9,M,7.0,M,,*5F
$GPGSA,A,3,07,13,08,02,25,04,,,,,,,1.84,1.56,0.98*00
$GLGSA,A,3,,,,,,,,,,,,,1.84,1.56,0.98*10
$BDGSA,A,3,,,,,,,,,,,,,1.84,1.56,0.98*1D
$GPGSV,3,1,12,07,85,115,38.4,25,67,043,38.3,04,52,247,38.6,13,50,031,38.3*73
$GPGSV,3,2,12,08,47,207,38.3,02,33,299,38.1,39,20,251,,16,01,039,*75
$GPGSV,3,3,12,10,01,310,,193,,,,194,,,,195,,,*72
$GLGSV,3,1,11,87,61,300,,77,56,328,,65,35,332,,69,35,332,*6A
$GLGSV,3,2,11,76,35,332,,80,35,332,,86,34,025,,88,20,243,*64
$GLGSV,3,3,11,75,11,153,,78,06,331,,71,01,081,*56
$BDGSV,1,1,0*58
$GNRMC,000115.000,A,3000.0005,N,11959.9996,E,0.019,179.91,230721,,,A*43
$GNVTG,179.91,T,,M,0.019,N,0.035,K,A*2A
$PMTKGEPH,6,0,1,0,1,0,0,1,1,0,0,0,0,1,0,0,0,0,0,0,0,0,0,0,0,1,0,0,0,0,0,0,0*02
$PMTKGALM,16,1,1,1,0,0,0,0,1,1,1,1,1,1,1,1,1,0,0,0,0,0,0,0,0,1,1,0,0,0,1,1,0*2E
$GNACCURACY,3.2,179.9,0.2,88.5*24
$PMTKAGC,000115.000,3133,3055,6093,5843,0,3,0*68
$PMTKAG2,000115.000,5,0122,0,0,0,0,0,0,0,0,0,0,0,0*35
$GNGGA,000116.000,3000.0005,N,11959.9995,E,1,6,1.56,-3.9,M,7.0,M,,*5F
$GPGSA,A,3,07,13,08,02,25,04,,,,,,,1.84,1.56,0.98*00
$GLGSA,A,3,,,,,,,,,,,,,1.84,1.56,0.98*10
$BDGSA,A,3,,,,,,,,,,,,,1.84,1.56,0.98*1D
$GPGSV,3,1,12,07,85,115,38.5,25,67,043,38.4,04,52,247,38.6,13,50,031,38.3*75
$GPGSV,3,2,12,08,47,207,38.2,02,33,299,38.1,39,20,251,,16,01,039,*74
$GPGSV,3,3,12,10,01,310,,193,,,,194,,,,195,,,*72
$GLGSV,3,1,11,87,61,300,,77,56,328,,65,35,332,,69,35,332,*6A
$GLGSV,3,2,11,76,35,332,,80,35,332,,86,34,025,,88,20,243,*64
$GLGSV,3,3,11,75,11,153,,78,06,331,,71,01,081,*56
$BDGSV,1,1,0*58
$GNRMC,000116.000,A,3000.0005,N,11959.9995,E,0.020,327.17,230721,,,A*4E
$GNVTG,327.17,T,,M,0.020,N,0.037,K,A*25
$PMTKGEPH,6,0,1,0,1,0,0,1,1,0,0,0,0,1,0,0,0,0,0,0,0,0,0,0,0,1,0,0,0,0,0,0,0*02
$PMTKGALM,16,1,1,1,0,0,0,0,1,1,1,1,1,1,1,1,1,0,0,0,0,0,0,0,0,1,1,0,0,0,1,1,0*2E
$GNACCURACY,3.1,179.9,0.2,88.3*21
$PMTKAGC,000116.000,3125,3054,5899,6017,0,3,0*66
$PMTKAG2,000116.000,5,0122,0,0,0,0,0,0,0,0,0,0,0,0*36
$GNGGA,000117.000,3000.0006,N,11959.9995,E,1,6,1.56,-3.9,M,7.0,M,,*5D
$GPGSA,A,3,07,13,08,02,25,04,,,,,,,1.84,1.56,0.98*00
$GLGSA,A,3,,,,,,,,,,,,,1.84,1.56,0.98*10
$BDGSA,A,3,,,,,,,,,,,,,1.84,1.56,0.98*1D
$GPGSV,3,1,12,07,85,115,38.3,25,67,043,38.4,04,52,247,38.6,13,50,031,38.3*73
$GPGSV,3,2,12,08,47,207,38.1,02,33,299,38.2,39,20,251,,16,01,039,*74
$GPGSV,3,3,12,10,01,310,,193,,,,194,,,,195,,,*72
$GLGSV,3,1,11,87,61,300,,77,56,328,,65,35,332,,69,35,332,*6A
$GLGSV,3,2,11,76,35,332,,80,35,332,,86,34,025,,88,20,243,*64
$GLGSV,3,3,11,75,11,153,,78,06,331,,71,01,081,*56
$BDGSV,1,1,0*58
$GNRMC,000117.000,A,3000.0006,N,11959.9995,E,0.016,114.80,230721,,,A*45
$GNVTG,114.80,T,,M,0.016,N,0.030,K,A*2B
$PMTKGEPH,6,0,1,0,1,0,0,1,1,0,0,0,0,1,0,0,0,0,0,0,0,0,0,0,0,1,0,0,0,0,0,0,0*02
$PMTKGALM,16,1,1,1,0,0,0,0,1,1,1,1,1,1,1,1,1,0,0,0,0,0,0,0,0,1,1,0,0,0,1,1,0*2E
$GNACCURACY,3.1,179.9,0.2,88.0*22
$PMTKAGC,000117.000,3141,3162,5955,5984,0,3,0*60
$PMTKAG2,000117.000,5,0122,0,0,0,0,0,0,0,0,0,0,0,0*37
$GNGGA,000118.000,3000.0005,N,11959.9995,E,1,6,1.56,-4.1,M,7.0,M,,*5E
$GPGSA,A,3,07,13,08,02,25,04,,,,,,,1.84,1.56,0.98*00
$GLGSA,A,3,,,,,,,,,,,,,1.84,1.56,0.98*10
$BDGSA,A,3,,,,,,,,,,,,,1.84,1.56,0.98*1D
$GPGSV,3,1,12,07,85,115,38.4,25,67,043,38.4,04,52,247,38.7,13,50,031,38.5*73
$GPGSV,3,2,12,08,47,207,38.2,02,33,299,38.4,39,20,251,,16,01,039,*71
$GPGSV,3,3,12,10,01,310,,193,,,,194,,,,195,,,*72
$GLGSV,3,1,11,87,61,300,,77,56,328,,65,35,332,,69,35,332,*6A
$GLGSV,3,2,11,76,35,332,,80,35,332,,86,34,025,,88,20,243,*64
$GLGSV,3,3,11,75,11,153,,78,06,331,,71,01,081,*56
$BDGSV,1,1,0*58
$GNRMC,000118.000,A,3000.0005,N,11959.9995,E,0.009,326.21,230721,,,A*4F
$GNVTG,326.21,T,,M,0.009,N,0.017,K,A*28
$PMTKGEPH,6,0,1,0,1,0,0,1,1,0,0,0,0,1,0,0,0,0,0,0,0,0,0,0,0,1,0,0,0,0,0,0,0*02
$PMTKGALM,16,1,1,1,0,0,0,0,1,1,1,1,1,1,1,1,1,0,0,0,0,0,0,0,0,1,1,0,0,0,1,1,0*2E
$GNACCURACY,3.0,179.9,0.2,87.8*24
$PMTKAGC,000118.000,3050,3076,5876,5893,0,3,0*6D
$PMTKAG2,000118.000,5,0122,0,0,0,0,0,0,0,0,0,0,0,0*38
$GNGGA,000119.000,3000.0005,N,11959.9996,E,1,6,1.56,-4.4,M,7.0,M,,*59
$GPGSA,A,3,07,13,08,02,25,04,,,,,,,1.84,1.56,0.98*00
$GLGSA,A,3,,,,,,,,,,,,,1.84,1.56,0.98*10
$BDGSA,A,3,,,,,,,,,,,,,1.84,1.56,0.98*1D
$GPGSV,3,1,12,07,85,115,38.5,25,67,043,38.4,04,52,247,38.6,13,50,031,38.4*72
$GPGSV,3,2,12,08,47,207,38.2,02,33,299,38.2,39,20,251,,16,01,039,*77
$GPGSV,3,3,12,10,01,310,,193,,,,194,,,,195,,,*72
$GLGSV,3,1,11,87,61,300,,77,56,328,,65,35,332,,69,35,332,*6A
$GLGSV,3,2,11,76,35,332,,80,35,332,,86,34,025,,88,20,243,*64
$GLGSV,3,3,11,75,11,153,,78,06,331,,71,01,081,*56
$BDGSV,1,1,0*58
$GNRMC,000119.000,A,3000.0005,N,11959.9996,E,0.030,9.61,230721,,,A*4D
$GNVTG,9.61,T,,M,0.030,N,0.056,K,A*2D
$PMTKGEPH,6,0,1,0,1,0,0,1,1,0,0,0,0,1,0,0,0,0,0,0,0,0,0,0,0,1,0,0,0,0,0,0,0*02
$PMTKGALM,16,1,1,1,0,0,0,0,1,1,1,1,1,1,1,1,1,0,0,0,0,0,0,0,0,1,1,0,0,0,1,1,0*2E
$GNACCURACY,3.0,179.9,0.2,88.2*21
$PMTKAGC,000119.000,3032,2912,5941,5966,0,3,0*6C
$PMTKAG2,000119.000,5,0122,0,0,0,0,0,0,0,0,0,0,0,0*39
$GNGGA,000120.000,3000.0004,N,11959.9995,E,1,6,1.56,-4.1,M,7.0,M,,*54
$GPGSA,A,3,07,13,08,02,25,04,,,,,,,1.84,1.56,0.98*00
$GLGSA,A,3,,,,,,,,,,,,,1.84,1.56,0.98*10
$BDGSA,A,3,,,,,,,,,,,,,1.84,1.56,0.98*1D
$GPGSV,3,1,12,07,85,115,38.5,25,67,043,38.4,04,52,247,38.7,13,50,031,38.5*72
$GPGSV,3,2,12,08,47,207,38.4,02,33,299,38.2,39,20,251,,16,01,039,*71
$GPGSV,3,3,12,10,01,310,,193,,,,194,,,,195,,,*72
$GLGSV,3,1,11,87,61,300,,77,56,328,,65,35,332,,69,35,332,*6A
$GLGSV,3,2,11,76,35,332,,80,35,332,,86,34,025,,88,20,243,*64
$GLGSV,3,3,11,75,11,153,,78,06,331,,71,01,081,*56
$BDGSV,1,1,0*58
$GNRMC,000120.000,A,3000.0004,N,11959.9995,E,0.031,194.55,230721,,,A*46
$GNVTG,194.55,T,,M,0.031,N,0.057,K,A*2F
$PMTKGEPH,6,0,1,0,1,0,0,1,1,0,0,0,0,1,0,0,0,0,0,0,0,0,0,0,0,1,0,0,0,0,0,0,0*02
$PMTKGALM,16,1,1,1,0,0,0,0,1,1,1,1,1,1,1,1,1,0,0,0,0,0,0,0,0,1,1,0,0,0,1,1,0*2E
$GNACCURACY,2.9,179.9,0.2,87.4*20
$PMTKAGC,000120.000,3008,3190,5935,5888,0,3,0*6E
$PMTKAG2,000120.000,5,0122,0,0,0,0,0,0,0,0,0,0,0,0*33
$GNGGA,000121.000,3000.0004,N,11959.9996,E,1,6,1.56,-4.3,M,7.0,M,,*54
$GPGSA,A,3,07,13,08,02,25,04,,,,,,,1.84,1.56,0.98*00
$GLGSA,A,3,,,,,,,,,,,,,1.84,1.56,0.98*10
$BDGSA,A,3,,,,,,,,,,,,,1.84,1.56,0.98*1D
$GPGSV,3,1,12,07,85,115,38.6,25,67,043,38.5,04,52,247,38.7,13,50,031,38.5*70
$GPGSV,3,2,12,08,47,207,38.5,02,33,299,38.4,39,20,251,,16,01,039,*76
$GPGSV,3,3,12,10,01,310,,193,,,,194,,,,195,,,*72
$GLGSV,3,1,11,87,61,300,,77,56,328,,65,35,332,,69,35,332,*6A
$GLGSV,3,2,11,76,35,332,,80,35,332,,86,34,025,,88,20,243,*64
$GLGSV,3,3,11,75,11,153,,78,06,331,,71,01,081,*56
$BDGSV,1,1,0*58
$GNRMC,000121.000,A,3000.0004,N,11959.9996,E,0.015,9.48,230721,,,A*4B
$GNVTG,9.48,T,,M,0.015,N,0.028,K,A*28
$PMTKGEPH,6,0,1,0,1,0,0,1,1,0,0,0,0,1,0,0,0,0,0,0,0,0,0,0,0,1,0,0,0,0,0,0,0*02
$PMTKGALM,16,1,1,1,0,0,0,0,1,1,1,1,1,1,1,1,1,0,0,0,0,0,0,0,0,1,1,0,0,0,1,1,0*2E
$GNACCURACY,2.9,179.9,0.2,87.7*23
$PMTKAGC,000121.000,3089,3105,6040,5937,0,3,0*67
$PMTKAG2,000121.000,5,0122,0,0,0,0,0,0,0,0,0,0,0,0*32
$GNGGA,000122.000,3000.0004,N,11959.9996,E,1,6,1.56,-4.3,M,7.0,M,,*57
$GPGSA,A,3,07,13,08,02,25,04,,,,,,,1.84,1.56,0.98*00
$GLGSA,A,3,,,,,,,,,,,,,1.84,1.56,0.98*10
$BDGSA,A,3,,,,,,,,,,,,,1.84,1.56,0.98*1D
$GPGSV,3,1,12,07,85,115,38.7,25,67,043,38.3,04,52,247,38.5,13,50,031,38.5*75
$GPGSV,3,2,12,08,47,207,38.5,02,33,299,38.4,39,20,251,,16,01,039,*76
$GPGSV,3,3,12,10,01,310,,193,,,,194,,,,195,,,*72
$GLGSV,3,1,11,87,61,300,,77,56,328,,65,35,332,,69,35,332,*6A
$GLGSV,3,2,11,76,35,332,,80,35,332,,86,34,025,,88,20,243,*64
$GLGSV,3,3,11,75,11,153,,78,06,331,,71,01,081,*56
$BDGSV,1,1,0*58
$GNRMC,000122.000,A,3000.0004,N,11959.9996,E,0.012,185.76,230721,,,A*47
$GNVTG,185.76,T,,M,0.012,N,0.022,K,A*2D
$PMTKGEPH,6,0,1,0,1,0,0,1,1,0,0,0,0,1,0,0,0,0,0,0,0,0,0,0,0,1,0,0,0,0,0,0,0*02
$PMTKGALM,16,1,1,1,0,0,0,0,1,1,1,1,1,1,1,1,1,0,0,0,0,0,0,0,0,1,1,0,0,0,1,1,0*2E
$GNACCURACY,2.8,179.9,0.2,87.2*27
$PMTKAGC,000122.000,3085,3355,6051,5976,0,3,0*6A
$PMTKAG2,000122.000,5,0122,0,0,0,0,0,0,0,0,0,0,0,0*31
$GNGGA,000123.000,3000.0004,N,11959.9996,E,1,6,1.56,-4.3,M,7.0,M,,*56
$GPGSA,A,3,07,13,08,02,25,04,,,,,,,1.84,1.56,0.98*00
$GLGSA,A,3,,,,,,,,,,,,,1.84,1.56,0.98*10
$BDGSA,A,3,,,,,,,,,,,,,1.84,1.56,0.98*1D
$GPGSV,3,1,12,07,85,115,38.6,25,67,043,38.3,04,52,247,38.5,13,50,031,38.2*73
$GPGSV,3,2,12,08,47,207,38.3,02,33,299,38.5,39,20,251,,16,01,039,*71
$GPGSV,3,3,12,10,01,310,,193,,,,194,,,,195,,,*72
$GLGSV,3,1,11,87,61,300,,77,56,328,,65,35,332,,69,35,332,*6A
$GLGSV,3,2,11,76,35,332,,80,35,332,,86,34,025,,88,20,243,*64
$GLGSV,3,3,11,75,11,153,,78,06,331,,71,01,081,*56
$BDGSV,1,1,0*58
$GNRMC,000123.000,A,3000.0004,N,11959.9996,E,0.011,8.31,230721,,,A*42
$GNVTG,8.31,T,,M,0.011,N,0.021,K,A*2A
$PMTKGEPH,6,0,1,0,1,0,0,1,1,0,0,0,0,1,0,0,0,0,0,0,0,0,0,0,0,1,0,0,0,0,0,0,0*02
$PMTKGALM,16,1,1,1,0,0,0,0,1,1,1,1,1,1,1,1,1,0,0,0,0,0,0,0,0,1,1,0,0,0,1,1,0*2E
$GNACCURACY,2.8,179.9,0.2,87.8*2D
$PMTKAGC,000123.000,2913,3122,5955,6056,0,3,0*68
$PMTKAG2,000123.000,5,0122,0,0,0,0,0,0,0,0,0,0,0,0*30
$GNGGA,000124.000,3000.0004,N,11959.9996,E,1,6,1.56,-4.2,M,7.0,M,,*50
$GPGSA,A,3,07,13,08,02,25,04,,,,,,,1.84,1.56,0.98*00
$GLGSA,A,3,,,,,,,,,,,,,1.84,1.56,0.98*10
$BDGSA,A,3,,,,,,,,,,,,,1.84,1.56,0.98*1D
$GPGSV,3,1,12,07,85,115,38.6,25,67,043,38.5,04,52,247,38.5,13,50,031,38.3*74
$GPGSV,3,2,12,08,47,207,38.3,02,33,299,38.6,39,20,251,,16,01,039,*72
$GPGSV,3,3,12,10,01,310,,193,,,,194,,,,195,,,*72
$GLGSV,3,1,11,87,61,300,,77,56,328,,65,35,332,,69,35,332,*6A
$GLGSV,3,2,11,76,35,332,,80,35,332,,86,34,025,,88,20,243,*64
$GLGSV,3,3,11,75,11,153,,78,06,331,,71,01,081,*56
$BDGSV,1,1,0*58
$GNRMC,000124.000,A,3000.0004,N,11959.9996,E,0.011,154.45,230721,,,A*4E
$GNVTG,154.45,T,,M,0.011,N,0.020,K,A*20
$PMTKGEPH,6,0,1,0,1,0,0,1,1,0,0,0,0,1,0,0,0,0,0,0,0,0,0,0,0,1,0,0,0,0,0,0,0*02
$PMTKGALM,16,1,1,1,0,0,0,0,1,1,1,1,1,1,1,1,1,0,0,0,0,0,0,0,0,1,1,0,0,0,1,1,0*2E
$GNACCURACY,2.8,179.9,0.2,87.1*24
$PMTKAGC,000124.000,3088,3173,5930,5882,0,3,0*60
$PMTKAG2,000124.000,5,0122,0,0,0,0,0,0,0,0,0,0,0,0*37
$GNGGA,000125.000,3000.0004,N,11959.9996,E,1,6,1.56,-4.3,M,7.0,M,,*50
$GPGSA,A,3,07,13,08,02,25,04,,,,,,,1.84,1.56,0.98*00
$GLGSA,A,3,,,,,,,,,,,,,1.84,1.56,0.98*10
$BDGSA,A,3,,,,,,,,,,,,,1.84,1.56,0.98*1D
$GPGSV,3,1,12,07,85,115,38.6,25,67,043,38.4,04,52,247,38.4,13,50,031,38.2*75
$GPGSV,3,2,12,08,47,207,38.3,02,33,299,38.7,39,20,251,,16,01,039,*73
$GPGSV,3,3,12,10,01,310,,193,,,,194,,,,195,,,*72
$GLGSV,3,1,11,87,61,300,,77,56,328,,65,35,332,,69,35,332,*6A
$GLGSV,3,2,11,76,35,332,,80,35,332,,86,34,025,,88,20,243,*64
$GLGSV,3,3,11,75,11,153,,78,06,331,,71,01,081,*56
$BDGSV,1,1,0*58
$GNRMC,000125.000,A,3000.0004,N,11959.9996,E,0.010,296.65,230721,,,A*41
$GNVTG,296.65,T,,M,0.010,N,0.018,K,A*25
$PMTKGEPH,6,0,1,0,1,0,0,1,1,0,0,0,0,1,0,0,0,0,0,0,0,0,0,0,0,1,0,0,0,0,0,0,0*02
$PMTKGALM,16,1,1,1,0,0,0,0,1,1,1,1,1,1,1,1,1,0,0,0,0,0,0,0,0,1,1,0,0,0,1,1,0*2E
$GNACCURACY,2.7,179.9,0.2,87.2*28
$PMTKAGC,000125.000,3286,2952,5982,6118,0,3,0*67
$PMTKAG2,000125.000,5,0122,0,0,0,0,0,0,0,0,0,0,0,0*36
$GNGGA,000126.000,3000.0003,N,11959.9997,E,1,6,1.56,-4.6,M,7.0,M,,*50
$GPGSA,A,3,07,13,08,02,25,04,,,,,,,1.84,1.56,0.98*00
$GLGSA,A,3,,,,,,,,,,,,,1.84,1.56,0.98*10
$BDGSA,A,3,,,,,,,,,,,,,1.84,1.56,0.98*1D
$GPGSV,3,1,12,07,85,115,38.5,25,66,042,38.4,04,52,247,38.3,13,50,031,38.2*71
$GPGSV,3,2,12,08,47,207,38.3,02,33,299,38.7,39,20,251,,16,01,039,*73
$GPGSV,3,3,12,10,01,310,,193,,,,194,,,,195,,,*72
$GLGSV,3,1,11,87,61,300,,77,56,328,,65,35,332,,69,35,332,*6A
$GLGSV,3,2,11,76,35,332,,80,35,332,,86,34,025,,88,20,243,*64
$GLGSV,3,3,11,75,11,153,,78,06,331,,71,01,081,*56
$BDGSV,1,1,0*58
$GNRMC,000126.000,A,3000.0003,N,11959.9997,E,0.009,317.85,230721,,,A*4A
$GNVTG,317.85,T,,M,0.009,N,0.016,K,A*25
$PMTKGEPH,6,0,1,0,1,0,0,1,1,0,0,0,0,1,0,0,0,0,0,0,0,0,0,0,0,1,0,0,0,0,0,0,0*02
$PMTKGALM,16,1,1,1,0,0,0,0,1,1,1,1,1,1,1,1,1,0,0,0,0,0,0,0,0,1,1,0,0,0,1,1,0*2E
$GNACCURACY,2.7,179.9,0.2,87.4*2E
$PMTKAGC,000126.000,3109,3149,5978,6029,0,3,0*65
$PMTKAG2,000126.000,5,0122,0,0,0,0,0,0,0,0,0,0,0,0*35
$GNGGA,000127.000,3000.0004,N,11959.9996,E,1,6,1.56,-4.2,M,7.0,M,,*53
$GPGSA,A,3,07,13,08,02,25,04,,,,,,,1.84,1.56,0.98*00
$GLGSA,A,3,,,,,,,,,,,,,1.84,1.56,0.98*10
$BDGSA,A,3,,,,,,,,,,,,,1.84,1.56,0.98*1D
$GPGSV,3,1,12,07,85,115,38.5,25,66,042,38.4,04,52,247,38.5,13,50,031,38.1*74
$GPGSV,3,2,12,08,47,207,38.3,02,33,299,38.5,39,20,251,,16,01,039,*71
$GPGSV,3,3,12,10,01,310,,193,,,,194,,,,195,,,*72
$GLGSV,3,1,11,87,61,300,,77,56,328,,65,35,332,,69,35,332,*6A
$GLGSV,3,2,11,76,35,332,,80,35,332,,86,34,025,,88,20,243,*64
$GLGSV,3,3,11,75,11,153,,78,06,331,,71,01,081,*56
$BDGSV,1,1,0*58
$GNRMC,000127.000,A,3000.0004,N,11959.9996,E,0.008,299.51,230721,,,A*42
$GNVTG,299.51,T,,M,0.008,N,0.014,K,A*28
$PMTKGEPH,6,0,1,0,1,0,0,1,1,0,0,0,0,1,0,0,0,0,0,0,0,0,0,0,0,1,0,0,0,0,0,0,0*02
$PMTKGALM,16,1,1,1,0,0,0,0,1,1,1,1,1,1,1,1,1,0,0,0,0,0,0,0,0,1,1,0,0,0,1,1,0*2E
$GNACCURACY,2.7,179.9,0.2,87.5*2F
$PMTKAGC,000127.000,3194,3033,6019,6068,0,3,0*64
$PMTKAG2,000127.000,5,0122,0,0,0,0,0,0,0,0,0,0,0,0*34
$GNGGA,000128.000,3000.0004,N,11959.9996,E,1,6,1.56,-4.2,M,7.0,M,,*5C
$GPGSA,A,3,07,13,08,02,25,04,,,,,,,1.84,1.56,0.98*00
$GLGSA,A,3,,,,,,,,,,,,,1.84,1.56,0.98*10
$BDGSA,A,3,,,,,,,,,,,,,1.84,1.56,0.98*1D
$GPGSV,3,1,12,07,85,115,38.6,25,66,042,38.4,04,52,247,38.5,13,50,031,38.4*72
$GPGSV,3,2,12,08,47,207,38.4,02,33,299,38.5,39,20,251,,16,01,039,*76
$GPGSV,3,3,12,10,01,310,,193,,,,194,,,,195,,,*72
$GLGSV,3,1,11,87,61,300,,77,56,328,,65,35,332,,69,35,332,*6A
$GLGSV,3,2,11,76,35,332,,80,35,332,,86,34,025,,88,20,243,*64
$GLGSV,3,3,11,75,11,153,,78,06,331,,71,01,081,*56
$BDGSV,1,1,0*58
$GNRMC,000128.000,A,3000.0004,N,11959.9996,E,0.009,115.31,230721,,,A*4D
$GNVTG,115.31,T,,M,0.009,N,0.016,K,A*2A
$PMTKGEPH,6,0,1,0,1,0,0,1,1,0,0,0,0,1,0,0,0,0,0,0,0,0,0,0,0,1,0,0,0,0,0,0,0*02
$PMTKGALM,16,1,1,1,0,0,0,0,1,1,1,1,1,1,1,1,1,0,0,0,0,0,0,0,0,1,1,0,0,0,1,1,0*2E
$GNACCURACY,2.7,179.9,0.2,86.8*23
$PMTKAGC,000128.000,3200,3211,6002,6019,0,3,0*6B
$PMTKAG2,000128.000,5,0122,0,0,0,0,0,0,0,0,0,0,0,0*3B
$GNGGA,000129.000,3000.0003,N,11959.9996,E,1,6,1.56,-4.2,M,7.0,M,,*5A
$GPGSA,A,3,07,13,08,02,25,04,,,,,,,1.84,1.56,0.98*00
$GLGSA,A,3,,,,,,,,,,,,,1.84,1.56,0.98*10
$BDGSA,A,3,,,,,,,,,,,,,1.84,1.56,0.98*1D
$GPGSV,3,1,12,07,85,115,38.5,25,66,042,38.4,04,52,247,38.5,13,50,031,38.3*76
$GPGSV,3,2,12,08,47,207,38.3,02,33,299,38.3,39,20,251,,16,01,039,*77
$GPGSV,3,3,12,10,01,310,,193,,,,194,,,,195,,,*72
$GLGSV,3,1,11,87,61,300,,77,56,328,,65,35,332,,69,35,332,*6A
$GLGSV,3,2,11,76,35,332,,80,35,332,,86,34,025,,88,20,243,*64
$GLGSV,3,3,11,75,11,153,,78,06,331,,71,01,081,*56
$BDGSV,1,1,0*58
$GNRMC,000129.000,A,3000.0003,N,11959.9996,E,0.010,359.07,230721,,,A*4C
$GNVTG,359.07,T,,M,0.010,N,0.019,K,A*22
$PMTKGEPH,6,0,1,0,1,0,0,1,1,0,0,0,0,1,0,0,0,0,0,0,0,0,0,0,0,1,0,0,0,0,0,0,0*02
$PMTKGALM,16,1,1,1,0,0,0,0,1,1,1,1,1,1,1,1,1,0,0,0,0,0,0,0,0,1,1,0,0,0,1,1,0*2E
$GNACCURACY,2.6,179.9,0.2,87.6*2D
$PMTKAGC,000129.000,3203,3165,6060,6068,0,3,0*6B
$PMTKAG2,000129.000,5,0122,0,0,0,0,0,0,0,0,0,0,0,0*3A
$GNGGA,000130.000,3000.0004,N,11959.9996,E,1,6,1.56,-3.9,M,7.0,M,,*59
$GPGSA,A,3,07,13,08,02,25,04,,,,,,,1.84,1.56,0.98*00
$GLGSA,A,3,,,,,,,,,,,,,1.84,1.56,0.98*10
$BDGSA,A,3,,,,,,,,,,,,,1.84,1.56,0.98*1D
$GPGSV,3,1,12,07,85,115,38.5,25,66,042,38.4,04,52,247,38.5,13,50,031,38.4*71
$GPGSV,3,2,12,08,47,207,38.3,02,33,299,38.4,39,20,251,,16,01,039,*70
$GPGSV,3,3,12,10,01,310,,193,,,,194,,,,195,,,*72
$GLGSV,3,1,11,87,61,300,,77,56,328,,65,35,332,,69,35,332,*6A
$GLGSV,3,2,11,76,35,332,,80,35,332,,86,34,025,,88,20,243,*64
$GLGSV,3,3,11,75,11,153,,78,06,331,,71,01,081,*56
$BDGSV,1,1,0*58
$GNRMC,000130.000,A,3000.0004,N,11959.9996,E,0.010,184.42,230721,,,A*40
$GNVTG,184.42,T,,M,0.010,N,0.018,K,A*20
$PMTKGEPH,6,0,1,0,1,0,0,1,1,0,0,0,0,1,0,0,0,0,0,0,0,0,0,0,0,1,0,0,0,0,0,0,0*02
$PMTKGALM,16,1,1,1,0,0,0,0,1,1,1,1,1,1,1,1,1,0,0,0,0,0,0,0,0,1,1,0,0,0,1,1,0*2E
$GNACCURACY,2.6,179.9,0.2,86.7*2D
$PMTKAGC,000130.000,2993,3191,5865,5976,0,3,0*60
$PMTKAG2,000130.000,5,0122,0,0,0,0,0,0,0,0,0,0,0,0*32
$GNGGA,000131.000,3000.0003,N,11959.9996,E,1,6,1.56,-3.9,M,7.0,M,,*5F
$GPGSA,A,3,07,13,08,02,25,04,,,,,,,1.84,1.56,0.98*00
$GLGSA,A,3,,,,,,,,,,,,,1.84,1.56,0.98*10
$BDGSA,A,3,,,,,,,,,,,,,1.84,1.56,0.98*1D
$GPGSV,3,1,12,07,85,115,38.6,25,66,042,38.4,04,52,247,38.5,13,50,031,38.4*72
$GPGSV,3,2,12,08,47,207,38.3,02,33,299,38.4,39,20,251,,16,01,039,*70
$GPGSV,3,3,12,10,01,310,,193,,,,194,,,,195,,,*72
$GLGSV,3,1,11,87,61,300,,77,56,328,,65,35,332,,69,35,332,*6A
$GLGSV,3,2,11,76,35,332,,80,35,332,,86,34,025,,88,20,243,*64
$GLGSV,3,3,11,75,11,153,,78,06,331,,71,01,081,*56
$BDGSV,1,1,0*58
$GNRMC,000131.000,A,3000.0003,N,11959.9996,E,0.009,320.19,230721,,,A*4C
$GNVTG,320.19,T,,M,0.009,N,0.017,K,A*25
$PMTKGEPH,6,0,1,0,1,0,0,1,1,0,0,0,0,1,0,0,0,0,0,0,0,0,0,0,0,1,0,0,0,0,0,0,0*02
$PMTKGALM,16,1,1,1,0,0,0,0,1,1,1,1,1,1,1,1,1,0,0,0,0,0,0,0,0,1,1,0,0,0,1,1,0*2E
$GNACCURACY,2.6,179.9,0.2,87.4*2F
$PMTKAGC,000131.000,2908,3271,6029,5971,0,3,0*6A
$PMTKAG2,000131.000,5,0122,0,0,0,0,0,0,0,0,0,0,0,0*33
$GNGGA,000132.000,3000.0003,N,11959.9996,E,1,6,1.56,-4.0,M,7.0,M,,*52
$GPGSA,A,3,07,13,08,02,25,04,,,,,,,1.84,1.56,0.98*00
$GLGSA,A,3,,,,,,,,,,,,,1.84,1.56,0.98*10
$BDGSA,A,3,,,,,,,,,,,,,1.84,1.56,0.98*1D
$GPGSV,3,1,12,07,85,115,38.5,25,66,042,38.4,04,52,247,38.5,13,50,031,38.3*76
$GPGSV,3,2,12,08,47,207,38.3,02,33,299,38.4,39,20,251,,16,01,039,*70
$GPGSV,3,3,12,10,01,310,,193,,,,194,,,,195,,,*72
$GLGSV,3,1,11,87,61,300,,77,56,328,,65,35,332,,69,35,332,*6A
$GLGSV,3,2,11,76,35,332,,80,35,332,,86,34,025,,88,20,243,*64
$GLGSV,3,3,11,75,11,153,,78,06,331,,71,01,081,*56
$BDGSV,1,1,0*58
$GNRMC,000132.000,A,3000.0003,N,11959.9996,E,0.000,335.37,230721,,,A*4E
$GNVTG,335.37,T,,M,0.000,N,0.000,K,A*22
$PMTKGEPH,6,0,1,0,1,0,0,1,1,0,0,0,0,1,0,0,0,0,0,0,0,0,0,0,0,1,0,0,0,0,0,0,0*02
$PMTKGALM,16,1,1,1,0,0,0,0,1,1,1,1,1,1,1,1,1,0,0,0,0,0,0,0,0,1,1,0,0,0,1,1,0*2E
$GNACCURACY,2.6,179.9,0.2,86.8*22
$PMTKAGC,000132.000,2996,3070,5958,6005,0,3,0*68
$PMTKAG2,000132.000,5,0122,0,0,0,0,0,0,0,0,0,0,0,0*30
$GNGGA,000133.000,3000.0003,N,11959.9996,E,1,6,1.56,-4.2,M,7.0,M,,*51
$GPGSA,A,3,07,13,08,02,25,04,,,,,,,1.84,1.56,0.98*00
$GLGSA,A,3,,,,,,,,,,,,,1.84,1.56,0.98*10
$BDGSA,A,3,,,,,,,,,,,,,1.84,1.56,0.98*1D
$GPGSV,3,1,12,07,85,115,38.5,25,66,042,38.4,04,52,247,38.5,13,50,031,38.4*71
$GPGSV,3,2,12,08,47,207,38.3,02,33,299,38.4,39,20,251,,16,01,039,*70
$GPGSV,3,3,12,10,01,310,,193,,,,194,,,,195,,,*72
$GLGSV,3,1,11,87,61,300,,77,56,328,,65,35,332,,69,35,332,*6A
$GLGSV,3,2,11,76,35,332,,80,35,332,,86,34,025,,88,20,243,*64
$GLGSV,3,3,11,75,11,153,,78,06,331,,71,01,081,*56
$BDGSV,1,1,0*58
$GNRMC,000133.000,A,3000.0003,N,11959.9996,E,0.000,245.15,230721,,,A*49
$GNVTG,245.15,T,,M,0.000,N,0.000,K,A*24
$PMTKGEPH,6,0,1,0,1,0,0,1,1,0,0,0,0,1,0,0,0,0,0,0,0,0,0,0,0,1,0,0,0,0,0,0,0*02
$PMTKGALM,16,1,1,1,0,0,0,0,1,1,1,1,1,1,1,1,1,0,0,0,0,0,0,0,0,1,1,0,0,0,1,1,0*2E
$GNACCURACY,2.5,179.9,0.2,87.2*2A
$PMTKAGC,000133.000,3081,3090,6043,6005,0,3,0*69
$PMTKAG2,000133.000,5,0122,0,0,0,0,0,0,0,0,0,0,0,0*31
$GNGGA,000134.000,3000.0003,N,11959.9997,E,1,6,1.56,-4.4,M,7.0,M,,*51
$GPGSA,A,3,07,13,08,02,25,04,,,,,,,1.84,1.56,0.98*00
$GLGSA,A,3,,,,,,,,,,,,,1.84,1.56,0.98*10
$BDGSA,A,3,,,,,,,,,,,,,1.84,1.56,0.98*1D
$GPGSV,3,1,12,07,85,115,38.6,25,66,042,38.4,04,52,247,38.5,13,50,031,38.4*72
$GPGSV,3,2,12,08,47,207,38.3,02,33,299,38.4,39,20,251,,16,01,039,*70
$GPGSV,3,3,12,10,01,310,,193,,,,194,,,,195,,,*72
$GLGSV,3,1,11,87,61,300,,77,56,328,,65,35,332,,69,35,332,*6A
$GLGSV,3,2,11,76,35,332,,80,35,332,,86,34,025,,88,20,243,*64
$GLGSV,3,3,11,75,11,153,,78,06,331,,71,01,081,*56
$BDGSV,1,1,0*58
$GNRMC,000134.000,A,3000.0003,N,11959.9997,E,0.000,47.01,230721,,,A*7A
$GNVTG,47.01,T,,M,0.000,N,0.000,K,A*11
$PMTKGEPH,6,0,1,0,1,0,0,1,1,0,0,0,0,1,0,0,0,0,0,0,0,0,0,0,0,1,0,0,0,0,0,0,0*02
$PMTKGALM,16,1,1,1,0,0,0,0,1,1,1,1,1,1,1,1,1,0,0,0,0,0,0,0,0,1,1,0,0,0,1,1,0*2E
$GNACCURACY,2.5,179.9,0.2,87.1*29
$PMTKAGC,000134.000,3264,3020,5971,5874,0,3,0*6A
$PMTKAG2,000134.000,5,0122,0,0,0,0,0,0,0,0,0,0,0,0*36
$GNGGA,000135.000,3000.0003,N,11959.9997,E,1,6,1.56,-4.4,M,7.0,M,,*50
$GPGSA,A,3,07,13,08,02,25,04,,,,,,,1.84,1.56,0.98*00
$GLGSA,A,3,,,,,,,,,,,,,1.84,1.56,0.98*10
$BDGSA,A,3,,,,,,,,,,,,,1.84,1.56,0.98*1D
$GPGSV,3,1,12,07,85,115,38.5,25,66,042,38.4,04,52,247,38.5,13,50,031,38.4*71
$GPGSV,3,2,12,08,47,207,38.3,02,33,299,38.4,39,20,251,,16,01,039,*70
$GPGSV,3,3,12,10,01,310,,193,,,,194,,,,195,,,*72
$GLGSV,3,1,11,87,61,300,,77,56,328,,65,35,332,,69,35,332,*6A
