*6B
$GPGSV,11,6,11,30,35,117,0,31,53,236,62,3,7,280,60,5,12,128,60,6*53
$GPGSV,11,7,11,6,19,286,61,16,31,325,61,18,29,140,61,21,74,35,62,6*55
$GPGSV,11,8,11,22,15,172,60,24,28,39,61,29,28,49,61,30,35,117,0,6*65
$GPGSV,11,9,11,31,53,236,62,3,7,280,60,5,12,128,60,6,19,286,61,7*5A
$GPGSV,11,10,11,16,31,325,61,18,29,140,61,21,74,35,62,22,15,172,60,7*51
$GPGSV,11,11,11,24,28,39,61,29,28,49,61,30,35,117,0,31,53,236,62,7*5D
$GPGSA,A,3,03,05,06,16,18,21,22,24,29,30,31,,1.5,0.8,1.3,1*20
$GPZDA,115953.00,01,08,2021,-7,00*7E
$GPGGA,115954,2300.43106,N,11300.00000,E,3,44,0.76,57.53,M,-7.53,M,,*56
$GPRMC,115954,A,2300.43106,N,11300.00000,E,161.985,0.000,010821,0.000,E,A,V*66
$GPVTG,0.000,T,0.000,M,161.985,N,299.996,K*48
$GPGSV,11,1,11,3,7,280,60,5,12,128,60,6,19,286,61,16,31,325,61,1*55
$GPGSV,11,2,11,18,29,140,61,21,74,35,62,22,15,172,60,24,28,39,61,1*53
$GPGSV,11,3,11,29,27,49,61,30,35,117,0,31,53,236,62,3,7,280,60,5*5A
$GPGSV,11,4,11,5,12,128,60,6,19,286,61,16,31,325,61,18,29,140,61,5*5C
$GPGSV,11,5,11,21,74,35,62,22,15,172,60,24,28,39,61,29,27,49,61,5*64
$GPGSV,11,6,11,30,35,117,0,31,53,236,62,3,7,280,60,5,12,128,60,6*53
$GPGSV,11,7,11,6,19,286,61,16,31,325,61,18,29,140,61,21,74,35,62,6*55
$GPGSV,11,8,11,22,15,172,60,24,28,39,61,29,27,49,61,30,35,117,0,6*6A
$GPGSV,11,9,11,31,53,236,62,3,7,280,60,5,12,128,60,6,19,286,61,7*5A
$GPGSV,11,10,11,16,31,325,61,18,29,140,61,21,74,35,62,22,15,172,60,7*51
$GPGSV,11,11,11,24,28,39,61,29,27,49,61,30,35,117,0,31,53,236,62,7*52
$GPGSA,A,3,03,05,06,16,18,21,22,24,29,30,31,,1.5,0.8,1.3,1*20
$GPZDA,115954.00,01,08,2021,-7,00*79
$GPGGA,115955,2300.47620,N,11300.00000,E,3,44,0.76,57.53,M,-7.53,M,,*50
$GPRMC,115955,A,2300.47620,N,11300.00000,E,161.985,360.000,010821,0.000,E,A,V*65
$GPVTG,360.000,T,360.000,M,161.985,N,299.996,K*48
$GPGSV,11,1,11,3,7,280,60,5,12,128,60,6,19,286,61,16,31,325,61,1*55
$GPGSV,11,2,11,18,29,140,61,21,74,35,62,22,15,172,60,24,28,39,61,1*53
$GPGSV,11,3,11,29,27,49,61,30,35,117,0,31,53,236,62,3,7,280,60,5*5A
$GPGSV,11,4,11,5,12,128,60,6,19,286,61,16,31,325,61,18,29,140,61,5*5C
$GPGSV,11,5,11,21,74,35,62,22,15,172,60,24,28,39,61,29,27,49,61,5*64
$GPGSV,11,6,11,30,35,117,0,31,53,236,62,3,7,280,60,5,12,128,60,6*53
$GPGSV,11,7,11,6,19,286,61,16,31,325,61,18,29,140,61,21,74,35,62,6*55
$GPGSV,11,8,11,22,15,172,60,24,28,39,61,29,27,49,61,30,35,117,0,6*6A
$GPGSV,11,9,11,31,53,236,62,3,7,280,60,5,12,128,60,6,19,286,61,7*5A
$GPGSV,11,10,11,16,31,325,61,18,29,140,61,21,74,35,62,22,15,172,60,7*51
$GPGSV,11,11,11,24,28,39,61,29,27,49,61,30,35,117,0,31,53,236,62,7*52
$GPGSA,A,3,03,05,06,16,18,21,22,24,29,30,31,,1.5,0.8,1.3,1*20
$GPZDA,115955.00,01,08,2021,-7,00*78
$GPGGA,115956,2300.52135,N,11300.00000,E,3,44,0.76,57.53,M,-7.53,M,,*54
$GPRMC,115956,A,2300.52135,N,11300.00000,E,161.985,360.000,010821,0.000,E,A,V*61
$GPVTG,360.000,T,360.000,M,161.985,N,299.996,K*48
$GPGSV,11,1,11,3,7,280,60,5,12,128,60,6,19,286,61,16,31,325,61,1*55
$GPGSV,11,2,11,18,29,140,61,21,74,35,62,22,15,172,60,24,28,39,61,1*53
$GPGSV,11,3,11,29,27,49,61,30,35,117,0,31,53,236,62,3,7,280,60,5*5A
$GPGSV,11,4,11,5,12,128,60,6,19,286,61,16,31,325,61,18,29,140,61,5*5C
$GPGSV,11,5,11,21,74,35,62,22,15,172,60,24,28,39,61,29,27,49,61,5*64
$GPGSV,11,6,11,30,35,117,0,31,53,236,62,3,7,280,60,5,12,128,60,6*53
$GPGSV,11,7,11,6,19,286,61,16,31,325,61,18,29,140,61,21,74,35,62,6*55
$GPGSV,11,8,11,22,15,172,60,24,28,39,61,29,27,49,61,30,35,117,0,6*6A
$GPGSV,11,9,11,31,53,236,62,3,7,280,60,5,12,128,60,6,19,286,61,7*5A
$GPGSV,11,10,11,16,31,325,61,18,29,140,61,21,74,35,62,22,15,172,60,7*51
$GPGSV,11,11,11,24,28,39,61,29,27,49,61,30,35,117,0,31,53,236,62,7*52
$GPGSA,A,3,03,05,06,16,18,21,22,24,29,30,31,,1.5,0.8,1.3,1*20
$GPZDA,115956.00,01,08,2021,-7,00*7B
$GPGGA,115957,2300.56650,N,11300.00000,E,3,44,0.76,57.53,M,-7.53,M,,*55
$GPRMC,115957,A,2300.56650,N,11300.00000,E,161.985,360.000,010821,0.000,E,A,V*60
$GPVTG,360.000,T,360.000,M,161.985,N,299.996,K*48
$GPGSV,11,1,11,3,7,280,60,5,12,128,60,6,19,286,61,16,31,325,61,1*55
$GPGSV,11,2,11,18,29,140,61,21,74,35,62,22,15,172,60,24,28,39,61,1*53
$GPGSV,11,3,11,29,27,49,61,30,35,117,0,31,53,236,62,3,7,280,60,5*5A
$GPGSV,11,4,11,5,12,128,60,6,19,286,61,16,31,325,61,18,29,140,61,5*5C
$GPGSV,11,5,11,21,74,35,62,22,15,172,60,24,28,39,61,29,27,49,61,5*64
$GPGSV,11,6,11,30,35,117,0,31,53,236,62,3,7,280,60,5,12,128,60,6*53
$GPGSV,11,7,11,6,19,286,61,16,31,325,61,18,29,140,61,21,74,35,62,6*55
$GPGSV,11,8,11,22,15,172,60,24,28,39,61,29,27,49,61,30,35,117,0,6*6A
$GPGSV,11,9,11,31,53,236,62,3,7,280,60,5,12,128,60,6,19,286,61,7*5A
$GPGSV,11,10,11,16,31,325,61,18,29,140,61,21,74,35,62,22,15,172,60,7*51
$GPGSV,11,11,11,24,28,39,61,29,27,49,61,30,35,117,0,31,53,236,62,7*52
$GPGSA,A,3,03,05,06,16,18,21,22,24,29,30,31,,1.5,0.8,1.3,1*20
$GPZDA,115957.00,01,08,2021,-7,00*7A
$GPGGA,115958,2300.61165,N,11300.00000,E,3,44,0.76,57.53,M,-7.53,M,,*5F
$GPRMC,115958,A,2300.61165,N,11300.00000,E,161.985,0.000,010821,0.000,E,A,V*6F
$GPVTG,0.000,T,0.000,M,161.985,N,299.996,K*48
$GPGSV,11,1,11,3,7,280,60,5,12,128,60,6,19,286,61,16,31,325,61,1*55
$GPGSV,11,2,11,18,29,140,61,21,74,35,62,22,15,172,60,24,28,39,61,1*53
$GPGSV,11,3,11,29,27,49,61,30,35,117,0,31,53,236,62,3,7,280,60,5*5A
$GPGSV,11,4,11,5,12,128,60,6,19,286,61,16,31,325,61,18,29,140,61,5*5C
$GPGSV,11,5,11,21,74,35,62,22,15,172,60,24,28,39,61,29,27,49,61,5*64
$GPGSV,11,6,11,30,35,117,0,31,53,236,62,3,7,280,60,5,12,128,60,6*53
$GPGSV,11,7,11,6,19,286,61,16,31,325,61,18,29,140,61,21,74,35,62,6*55
$GPGSV,11,8,11,22,15,172,60,24,28,39,61,29,27,49,61,30,35,117,0,6*6A
$GPGSV,11,9,11,31,53,236,62,3,7,280,60,5,12,128,60,6,19,286,61,7*5A
$GPGSV,11,10,11,16,31,325,61,18,29,140,61,21,74,35,62,22,15,172,60,7*51
$GPGSV,11,11,11,24,28,39,61,29,27,49,61,30,35,117,0,31,53,236,62,7*52
$GPGSA,A,3,03,05,06,16,18,21,22,24,29,30,31,,1.5,0.8,1.3,1*20
$GPZDA,115958.00,01,08,2021,-7,00*75
$GPGGA,115959,2300.65680,N,11300.00000,E,3,44,0.76,57.53,M,-7.53,M,,*56
$GPRMC,115959,A,2300.65680,N,11300.00000,E,161.985,0.000,010821,0.000,E,A,V*66
$GPVTG,0.000,T,0.000,M,161.985,N,299.996,K*48
$GPGSV,11,1,11,3,7,280,60,5,12,128,60,6,19,286,61,16,31,325,61,1*55
$GPGSV,11,2,11,18,29,140,61,21,74,35,62,22,15,172,60,24,28,39,61,1*53
$GPGSV,11,3,11,29,27,49,61,30,35,117,0,31,53,236,62,3,7,280,60,5*5A
$GPGSV,11,4,11,5,12,128,60,6,19,286,61,16,31,325,61,18,29,140,61,5*5C
$GPGSV,11,5,11,21,74,35,62,22,15,172,60,24,28,39,61,29,27,49,61,5*64
$GPGSV,11,6,11,30,35,117,0,31,53,236,62,3,7,280,60,5,12,128,60,6*53
$GPGSV,11,7,11,6,19,286,61,16,31,325,61,18,29,140,61,21,74,35,62,6*55
$GPGSV,11,8,11,22,15,172,60,24,28,39,61,29,27,49,61,30,35,117,0,6*6A
$GPGSV,11,9,11,31,53,236,62,3,7,280,60,5,12,128,60,6,19,286,61,7*5A
$GPGSV,11,10,11,16,31,325,61,18,29,140,61,21,74,35,62,22,15,172,60,7*51
$GPGSV,11,11,11,24,28,39,61,29,27,49,61,30,35,117,0,31,53,236,62,7*52
$GPGSA,A,3,03,05,06,16,18,21,22,24,29,30,31,,1.5,0.8,1.3,1*20
$GPZDA,115959.00,01,08,2021,-7,00*74
$GPGGA,120000,2300.70195,N,11300.00000,E,3,44,0.76,57.53,M,-7.53,M,,*52
$GPRMC,120000,A,2300.70195,N,11300.00000,E,161.985,360.000,010821,0.000,E,A,V*67
$GPVTG,360.000,T,360.000,M,161.985,N,299.996,K*48
$GPGSV,11,1,11,3,7,280,60,5,12,128,60,6,19,286,61,16,31,325,61,1*55
$GPGSV,11,2,11,18,29,140,61,21,74,35,62,22,15,172,60,24,28,39,61,1*53
$GPGSV,11,3,11,29,27,49,61,30,35,117,0,31,53,236,62,3,7,280,60,5*5A
$GPGSV,11,4,11,5,12,128,60,6,19,286,61,16,31,325,61,18,29,140,61,5*5C
$GPGSV,11,5,11,21,74,35,62,22,15,172,60,24,28,39,61,29,27,49,61,5*64
$GPGSV,11,6,11,30,35,117,0,31,53,236,62,3,7,280,60,5,12,128,60,6*53
$GPGSV,11,7,11,6,19,286,61,16,31,325,61,18,29,140,61,21,74,35,62,6*55
$GPGSV,11,8,11,22,15,172,60,24,28,39,61,29,27,49,61,30,35,117,0,6*6A
$GPGSV,11,9,11,31,53,236,62,3,7,280,60,5,12,128,60,6,19,286,61,7*5A
$GPGSV,11,10,11,16,31,325,61,18,29,140,61,21,74,35,62,22,15,172,60,7*51
$GPGSV,11,11,11,24,28,39,61,29,27,49,61,30,35,117,0,31,53,236,62,7*52
$GPGSA,A,3,03,05,06,16,18,21,22,24,29,30,31,,1.5,0.8,1.3,1*20
$GPZDA,120000.00,01,08,2021,-7,00*77
$GPGGA,120001,2300.74710,N,11300.00000,E,3,44,0.76,57.53,M,-7.53,M,,*5C
$GPRMC,120001,A,2300.74710,N,11300.00000,E,161.985,0.000,010821,0.000,E,A,V*6C
$GPVTG,0.000,T,0.000,M,161.985,N,299.996,K*48
$GPGSV,11,1,11,3,7,280,60,5,12,128,60,6,19,286,61,16,31,325,61,1*55
$GPGSV,11,2,11,18,29,140,61,21,74,35,62,22,15,172,60,24,28,39,61,1*53
$GPGSV,11,3,11,29,27,49,61,30,35,117,0,31,53,236,62,3,7,280,60,5*5A
$GPGSV,11,4,11,5,12,128,60,6,19,286,61,16,31,325,61,18,29,140,61,5*5C
$GPGSV,11,5,11,21,74,35,62,22,15,172,60,24,28,39,61,29,27,49,61,5*64
$GPGSV,11,6,11,30,35,117,0,31,53,236,62,3,7,280,60,5,12,128,60,6*53
$GPGSV,11,7,11,6,19,286,61,16,31,325,61,18,29,140,61,21,74,35,62,6*55
$GPGSV,11,8,11,22,15,172,60,24,28,39,61,29,27,49,61,30,35,117,0,6*6A
$GPGSV,11,9,11,31,53,236,62,3,7,280,60,5,12,128,60,6,19,286,61,7*5A
$GPGSV,11,10,11,16,31,325,61,18,29,140,61,21,74,35,62,22,15,172,60,7*51
$GPGSV,11,11,11,24,28,39,61,29,27,49,61,30,35,117,0,31,53,236,62,7*52
$GPGSA,A,3,03,05,06,16,18,21,22,24,29,30,31,,1.5,0.8,1.3,1*20
$GPZDA,120001.00,01,08,2021,-7,00*76
$GPGGA,120002,2300.79224,N,11300.00000,E,3,44,0.76,57.53,M,-7.53,M,,*50
$GPRMC,120002,A,2300.79224,N,11300.00000,E,161.985,0.000,010821,0.000,E,A,V*60
$GPVTG,0.000,T,0.000,M,161.985,N,299.996,K*48
$GPGSV,11,1,11,3,7,280,60,5,12,128,60,6,19,286,61,16,31,325,61,1*55
$GPGSV,11,2,11,18,29,140,61,21,74,35,62,22,15,172,60,24,28,39,61,1*53
$GPGSV,11,3,11,29,27,49,61,30,35,117,0,31,53,236,62,3,7,280,60,5*5A
$GPGSV,11,4,11,5,12,128,60,6,19,286,61,16,31,325,61,18,29,140,61,5*5C
$GPGSV,11,5,11,21,74,35,62,22,15,172,60,24,28,39,61,29,27,49,61,5*64
$GPGSV,11,6,11,30,35,117,0,31,53,236,62,3,7,280,60,5,12,128,60,6*53
$GPGSV,11,7,11,6,19,286,61,16,31,325,61,18,29,140,61,21,74,35,62,6*55
$GPGSV,11,8,11,22,15,172,60,24,28,39,61,29,27,49,61,30,35,117,0,6*6A
$GPGSV,11,9,11,31,53,236,62,3,7,280,60,5,12,128,60,6,19,286,61,7*5A
$GPGSV,11,10,11,16,31,325,61,18,29,140,61,21,74,35,62,22,15,172,60,7*51
$GPGSV,11,11,11,24,28,39,61,29,27,49,61,30,35,117,0,31,53,236,62,7*52
$GPGSA,A,3,03,05,06,16,18,21,22,24,29,30,31,,1.5,0.8,1.3,1*20
$GPZDA,120002.00,01,08,2021,-7,00*75
$GPGGA,120003,2300.83739,N,11300.00000,E,3,44,0.76,57.53,M,-7.53,M,,*5D
$GPRMC,120003,A,2300.83739,N,11300.00000,E,161.985,0.000,010821,0.000,E,A,V*6D
$GPVTG,0.000,T,0.000,M,161.985,N,299.996,K*48
$GPGSV,11,1,11,3,7,280,60,5,12,128,60,6,19,286,61,16,31,325,61,1*55
$GPGSV,11,2,11,18,29,140,61,21,74,35,62,22,15,172,60,24,28,39,61,1*53
$GPGSV,11,3,11,29,27,49,61,30,35,117,0,31,53,236,62,3,7,280,60,5*5A
$GPGSV,11,4,11,5,12,128,60,6,19,286,61,16,31,325,61,18,29,140,61,5*5C
$GPGSV,11,5,11,21,74,35,62,22,15,172,60,24,28,39,61,29,27,49,61,5*64
$GPGSV,11,6,11,30,35,117,0,31,53,236,62,3,7,280,60,5,12,128,60,6*53
$GPGSV,11,7,11,6,19,286,61,16,31,325,61,18,29,140,61,21,74,35,62,6*55
$GPGSV,11,8,11,22,15,172,60,24,28,39,61,29,27,49,61,30,35,117,0,6*6A
$GPGSV,11,9,11,31,53,236,62,3,7,280,60,5,12,128,60,6,19,286,61,7*5A
$GPGSV,11,10,11,16,31,325,61,18,29,140,61,21,74,35,62,22,15,172,60,7*51
$GPGSV,11,11,11,24,28,39,61,29,27,49,61,30,35,117,0,31,53,236,62,7*52
$GPGSA,A,3,03,05,06,16,18,21,22,24,29,30,31,,1.5,0.8,1.3,1*20
$GPZDA,120003.00,01,08,2021,-7,00*74
$GPGGA,120004,2300.88254,N,11300.00000,E,3,44,0.76,57.53,M,-7.53,M,,*5F
$GPRMC,120004,A,2300.88254,N,11300.00000,E,161.985,0.000,010821,0.000,E,A,V*6F
$GPVTG,0.000,T,0.000,M,161.985,N,299.996,K*48
$GPGSV,11,1,11,3,7,280,60,5,12,128,60,6,19,286,61,16,31,325,61,1*55
$GPGSV,11,2,11,18,29,140,61,21,74,35,62,22,15,172,60,24,28,39,61,1*53
$GPGSV,11,3,11,29,27,49,61,30,35,117,0,31,53,236,62,3,7,280,60,5*5A
$GPGSV,11,4,11,5,12,128,60,6,19,286,61,16,31,325,61,18,29,140,61,5*5C
$GPGSV,11,5,11,21,74,35,62,22,15,172,60,24,28,39,61,29,27,49,61,5*64
$GPGSV,11,6,11,30,35,117,0,31,53,236,62,3,7,280,60,5,12,128,60,6*53
$GPGSV,11,7,11,6,19,286,61,16,31,325,61,18,29,140,61,21,74,35,62,6*55
$GPGSV,11,8,11,22,15,172,60,24,28,39,61,29,27,49,61,30,35,117,0,6*6A
$GPGSV,11,9,11,31,53,236,62,3,7,280,60,5,12,128,60,6,19,286,61,7*5A
$GPGSV,11,10,11,16,31,325,61,18,29,140,61,21,74,35,62,22,15,172,60,7*51
$GPGSV,11,11,11,24,28,39,61,29,27,49,61,30,35,117,0,31,53,236,62,7*52
$GPGSA,A,3,03,05,06,16,18,21,22,24,29,30,31,,1.5,0.8,1.3,1*20
$GPZDA,120004.00,01,08,2021,-7,00*73
$GPGGA,120005,2300.92769,N,11300.00000,E,3,44,0.76,57.53,M,-7.53,M,,*5E
$GPRMC,120005,A,2300.92769,N,11300.00000,E,161.985,0.000,010821,0.000,E,A,V*6E
$GPVTG,0.000,T,0.000,M,161.985,N,299.996,K*48
$GPGSV,11,1,11,3,7,280,60,5,12,128,60,6,19,286,61,16,31,325,61,1*55
$GPGSV,11,2,11,18,29,140,61,21,74,35,62,22,15,172,60,24,28,39,61,1*53
$GPGSV,11,3,11,29,27,49,61,30,35,117,0,31,53,236,62,3,7,280,60,5*5A
$GPGSV,11,4,11,5,12,128,60,6,19,286,61,16,31,325,61,18,29,140,61,5*5C
$GPGSV,11,5,11,21,74,35,62,22,15,172,60,24,28,39,61,29,27,49,61,5*64
$GPGSV,11,6,11,30,35,117,0,31,53,236,62,3,7,280,60,5,12,128,60,6*53
$GPGSV,11,7,11,6,19,286,61,16,31,325,61,18,29,140,61,21,74,35,62,6*55
$GPGSV,11,8,11,22,15,172,60,24,28,39,61,29,27,49,61,30,35,117,0,6*6A
$GPGSV,11,9,11,31,53,236,62,3,7,280,60,5,12,128,60,6,19,286,61,7*5A
$GPGSV,11,10,11,16,31,325,61,18,29,140,61,21,74,35,62,22,15,172,60,7*51
$GPGSV,11,11,11,24,28,39,61,29,27,49,61,30,35,117,0,31,53,236,62,7*52
$GPGSA,A,3,03,05,06,16,18,21,22,24,29,30,31,,1.5,0.8,1.3,1*20
$GPZDA,120005.00,01,08,2021,-7,00*72
$GPGGA,120006,2300.97284,N,11300.00000,E,3,44,0.76,57.53,M,-7.53,M,,*5E
$GPRMC,120006,A,2300.97284,N,11300.00000,E,161.985,0.000,010821,0.000,E,A,V*6E
$GPVTG,0.000,T,0.000,M,161.985,N,299.996,K*48
$GPGSV,11,1,11,3,7,280,60,5,12,128,60,6,19,286,61,16,31,325,61,1*55
$GPGSV,11,2,11,18,29,140,61,21,74,35,62,22,15,172,60,24,28,39,61,1*53
$GPGSV,11,3,11,29,27,49,61,30,35,117,0,31,53,236,62,3,7,280,60,5*5A
$GPGSV,11,4,11,5,12,128,60,6,19,286,61,16,31,325,61,18,29,140,61,5*5C
$GPGSV,11,5,11,21,74,35,62,22,15,172,60,24,28,39,61,29,27,49,61,5*64
$GPGSV,11,6,11,30,35,117,0,31,53,236,62,3,7,280,60,5,12,128,60,6*53
$GPGSV,11,7,11,6,19,286,61,16,31,325,61,18,29,140,61,21,74,35,62,6*55
$GPGSV,11,8,11,22,15,172,60,24,28,39,61,29,27,49,61,30,35,117,0,6*6A
$GPGSV,11,9,11,31,53,236,62,3,7,280,60,5,12,128,60,6,19,286,61,7*5A
$GPGSV,11,10,11,16,31,325,61,18,29,140,61,21,74,35,62,22,15,172,60,7*51
$GPGSV,11,11,11,24,28,39,61,29,27,49,61,30,35,117,0,31,53,236,62,7*52
$GPGSA,A,3,03,05,06,16,18,21,22,24,29,30,31,,1.5,0.8,1.3,1*20
$GPZDA,120006.00,01,08,2021,-7,00*71
$GPGGA,120007,2301.01799,N,11300.00000,E,3,44,0.76,57.53,M,-7.53,M,,*58
$GPRMC,120007,A,2301.01799,N,11300.00000,E,161.985,0.000,010821,0.000,E,A,V*68
$GPVTG,0.000,T,0.000,M,161.985,N,299.996,K*48
$GPGSV,11,1,11,3,7,280,60,5,12,128,60,6,19,286,61,16,31,325,61,1*55
$GPGSV,11,2,11,18,29,140,61,21,74,35,62,22,15,172,60,24,28,39,61,1*53
$GPGSV,11,3,11,29,27,49,61,30,35,117,0,31,53,236,61,3,7,280,60,5*59
$GPGSV,11,4,11,5,12,128,60,6,19,286,61,16,31,325,61,18,29,140,61,5*5C
$GPGSV,11,5,11,21,74,35,62,22,15,172,60,24,28,39,61,29,27,49,61,5*64
$GPGSV,11,6,11,30,35,117,0,31,53,236,61,3,7,280,60,5,12,128,60,6*50
$GPGSV,11,7,11,6,19,286,61,16,31,325,61,18,29,140,61,21,74,35,62,6*55
$GPGSV,11,8,11,22,15,172,60,24,28,39,61,29,27,49,61,30,35,117,0,6*6A
$GPGSV,11,9,11,31,53,236,61,3,7,280,60,5,12,128,60,6,19,286,61,7*59
$GPGSV,11,10,11,16,31,325,61,18,29,140,61,21,74,35,62,22,15,172,60,7*51
$GPGSV,11,11,11,24,28,39,61,29,27,49,61,30,35,117,0,31,53,236,61,7*51
$GPGSA,A,3,03,05,06,16,18,21,22,24,29,30,31,,1.5,0.8,1.3,1*20
$GPZDA,120007.00,01,08,2021,-7,00*70
$GPGGA,120008,2301.06314,N,11300.00000,E,3,44,0.76,57.53,M,-7.53,M,,*51
$GPRMC,120008,A,2301.06314,N,11300.00000,E,161.985,0.000,010821,0.000,E,A,V*61
$GPVTG,0.000,T,0.000,M,161.985,N,299.996,K*48
$GPGSV,11,1,11,3,7,280,60,5,12,128,60,6,19,286,61,16,31,325,61,1*55
$GPGSV,11,2,11,18,29,140,61,21,74,35,62,22,15,172,60,24,28,39,61,1*53
$GPGSV,11,3,11,29,27,49,61,30,35,117,0,31,53,236,61,3,7,280,60,5*59
$GPGSV,11,4,11,5,12,128,60,6,19,286,61,16,31,325,61,18,29,140,61,5*5C
$GPGSV,11,5,11,21,74,35,62,22,15,172,60,24,28,39,61,29,27,49,61,5*64
$GPGSV,11,6,11,30,35,117,0,31,53,236,61,3,7,280,60,5,12,128,60,6*50
$GPGSV,11,7,11,6,19,286,61,16,31,325,61,18,29,140,61,21,74,35,62,6*55
$GPGSV,11,8,11,22,15,172,60,24,28,39,61,29,27,49,61,30,35,117,0,6*6A
$GPGSV,11,9,11,31,53,236,61,3,7,280,60,5,12,128,60,6,19,286,61,7*59
$GPGSV,11,10,11,16,31,325,61,18,29,140,61,21,74,35,62,22,15,172,60,7*51
$GPGSV,11,11,11,24,28,39,61,29,27,49,61,30,35,117,0,31,53,236,61,7*51
$GPGSA,A,3,03,05,06,16,18,21,22,24,29,30,31,,1.5,0.8,1.3,1*20
$GPZDA,120008.00,01,08,2021,-7,00*7F
$GPGGA,120009,2301.10828,N,11300.00000,E,3,44,0.76,57.53,M,-7.53,M,,*53
$GPRMC,120009,A,2301.10828,N,11300.00000,E,161.985,360.000,010821,0.000,E,A,V*66
$GPVTG,360.000,T,360.000,M,161.985,N,299.996,K*48
$GPGSV,11,1,11,3,7,280,60,5,12,128,60,6,19,286,61,16,31,325,61,1*55
$GPGSV,11,2,11,18,29,140,61,21,74,35,62,22,15,172,60,24,28,39,61,1*53
$GPGSV,11,3,11,29,27,49,61,30,35,117,0,31,53,236,61,3,7,280,60,5*59
$GPGSV,11,4,11,5,12,128,60,6,19,286,61,16,31,325,61,18,29,140,61,5*5C
$GPGSV,11,5,11,21,74,35,62,22,15,172,60,24,28,39,61,29,27,49,61,5*64
$GPGSV,11,6,11,30,35,117,0,31,53,236,61,3,7,280,60,5,12,128,60,6*50
$GPGSV,11,7,11,6,19,286,61,16,31,325,61,18,29,140,61,21,74,35,62,6*55
$GPGSV,11,8,11,22,15,172,60,24,28,39,61,29,27,49,61,30,35,117,0,6*6A
$GPGSV,11,9,11,31,53,236,61,3,7,280,60,5,12,128,60,6,19,286,61,7*59
$GPGSV,11,10,11,16,31,325,61,18,29,140,61,21,74,35,62,22,15,172,60,7*51
$GPGSV,11,11,11,24,28,39,61,29,27,49,61,30,35,117,0,31,53,236,61,7*51
$GPGSA,A,3,03,05,06,16,18,21,22,24,29,30,31,,1.5,0.8,1.3,1*20
$GPZDA,120009.00,01,08,2021,-7,00*7E
$GPGGA,120010,2301.15343,N,11300.00000,E,3,44,0.76,57.53,M,-7.53,M,,*58
$GPRMC,120010,A,2301.15343,N,11300.00000,E,161.985,0.000,010821,0.000,E,A,V*68
$GPVTG,0.000,T,0.000,M,161.985,N,299.996,K*48
$GPGSV,11,1,11,3,7,280,60,5,12,128,60,6,19,286,61,16,31,325,61,1*55
$GPGSV,11,2,11,18,29,140,61,21,74,35,62,22,15,172,60,24,28,39,61,1*53
$GPGSV,11,3,11,29,27,49,61,30,35,117,0,31,53,236,61,3,7,280,60,5*59
$GPGSV,11,4,11,5,12,128,60,6,19,286,61,16,31,325,61,18,29,140,61,5*5C
$GPGSV,11,5,11,21,74,35,62,22,15,172,60,24,28,39,61,29,27,49,61,5*64
$GPGSV,11,6,11,30,35,117,0,31,53,236,61,3,7,280,60,5,12,128,60,6*50
$GPGSV,11,7,11,6,19,286,61,16,31,325,61,18,29,140,61,21,74,35,62,6*55
$GPGSV,11,8,11,22,15,172,60,24,28,39,61,29,27,49,61,30,35,117,0,6*6A
$GPGSV,11,9,11,31,53,236,61,3,7,280,60,5,12,128,60,6,19,286,61,7*59
$GPGSV,11,10,11,16,31,325,61,18,29,140,61,21,74,35,62,22,15,172,60,7*51
$GPGSV,11,11,11,24,28,39,61,29,27,49,61,30,35,117,0,31,53,236,61,7*51
$GPGSA,A,3,03,05,06,16,18,21,22,24,29,30,31,,1.5,0.8,1.3,1*20
$GPZDA,120010.00,01,08,2021,-7,00*76
$GPGGA,120011,2301.19858,N,11300.00000,E,3,44,0.76,57.53,M,-7.53,M,,*54
$GPRMC,120011,A,2301.19858,N,11300.00000,E,161.985,0.000,010821,0.000,E,A,V*64
$GPVTG,0.000,T,0.000,M,161.985,N,299.996,K*48
$GPGSV,11,1,11,3,7,280,60,5,12,128,60,6,19,286,61,16,31,325,61,1*55
$GPGSV,11,2,11,18,29,140,61,21,74,35,62,22,15,172,60,24,28,39,61,1*53
$GPGSV,11,3,11,29,27,49,61,30,35,117,0,31,53,236,61,3,7,280,60,5*59
$GPGSV,11,4,11,5,12,128,60,6,19,286,61,16,31,325,61,18,29,140,61,5*5C
$GPGSV,11,5,11,21,74,35,62,22,15,172,60,24,28,39,61,29,27,49,61,5*64
$GPGSV,11,6,11,30,35,117,0,31,53,236,61,3,7,280,60,5,12,128,60,6*50
$GPGSV,11,7,11,6,19,286,61,16,31,325,61,18,29,140,61,21,74,35,62,6*55
$GPGSV,11,8,11,22,15,172,60,24,28,39,61,29,27,49,61,30,35,117,0,6*6A
$GPGSV,11,9,11,31,53,236,61,3,7,280,60,5,12,128,60,6,19,286,61,7*59
$GPGSV,11,10,11,16,31,325,61,18,29,140,61,21,74,35,62,22,15,172,60,7*51
$GPGSV,11,11,11,24,28,39,61,29,27,49,61,30,35,117,0,31,53,236,61,7*51
$GPGSA,A,3,03,05,06,16,18,21,22,24,29,30,31,,1.5,0.8,1.3,1*20
$GPZDA,120011.00,01,08,2021,-7,00*77
$GPGGA,120012,2301.24373,N,11300.00000,E,3,44,0.76,57.53,M,-7.53,M,,*5B
$GPRMC,120012,A,2301.24373,N,11300.00000,E,161.985,360.000,010821,0.000,E,A,V*6E
$GPVTG,360.000,T,360.000,M,161.985,N,299.996,K*48
$GPGSV,11,1,11,3,7,280,60,5,12,128,60,6,19,286,61,16,31,325,61,1*55
$GPGSV,11,2,11,18,29,140,61,21,74,35,62,22,15,172,60,24,28,39,61,1*53
$GPGSV,11,3,11,29,27,49,61,30,35,117,0,31,53,236,61,3,7,280,60,5*59
$GPGSV,11,4,11,5,12,128,60,6,19,286,61,16,31,325,61,18,29,140,61,5*5C
$GPGSV,11,5,11,21,74,35,62,22,15,172,60,24,28,39,61,29,27,49,61,5*64
$GPGSV,11,6,11,30,35,117,0,31,53,236,61,3,7,280,60,5,12,128,60,6*50
$GPGSV,11,7,11,6,19,286,61,16,31,325,61,18,29,140,61,21,74,35,62,6*55
$GPGSV,11,8,11,22,15,172,60,24,28,39,61,29,27,49,61,30,35,117,0,6*6A
$GPGSV,11,9,11,31,53,236,61,3,7,280,60,5,12,128,60,6,19,286,61,7*59
$GPGSV,11,10,11,16,31,325,61,18,29,140,61,21,74,35,62,22,15,172,60,7*51
$GPGSV,11,11,11,24,28,39,61,29,27,49,61,30,35,117,0,31,53,236,61,7*51
$GPGSA,A,3,03,05,06,16,18,21,22,24,29,30,31,,1.5,0.8,1.3,1*20
$GPZDA,120012.00,01,08,2021,-7,00*74
$GPGGA,120013,2301.28888,N,11300.00000,E,3,44,0.76,57.53,M,-7.53,M,,*59
$GPRMC,120013,A,2301.28888,N,11300.00000,E,161.985,0.000,010821,0.000,E,A,V*69
$GPVTG,0.000,T,0.000,M,161.985,N,299.996,K*48
$GPGSV,11,1,11,3,7,280,60,5,12,128,60,6,19,286,61,16,31,325,61,1*55
$GPGSV,11,2,11,18,29,140,61,21,74,35,62,22,15,172,60,24,28,39,61,1*53
$GPGSV,11,3,11,29,27,49,61,30,35,117,0,31,53,236,61,3,7,280,60,5*59
$GPGSV,11,4,11,5,12,128,60,6,19,286,61,16,31,325,61,18,29,140,61,5*5C
$GPGSV,11,5,11,21,74,35,62,22,15,172,60,24,28,39,61,29,27,49,61,5*64
$GPGSV,11,6,11,30,35,117,0,31,53,236,61,3,7,280,60,5,12,128,60,6*50
$GPGSV,11,7,11,6,19,286,61,16,31,325,61,18,29,140,61,21,74,35,62,6*55
$GPGSV,11,8,11,22,15,172,60,24,28,39,61,29,27,49,61,30,35,117,0,6*6A
$GPGSV,11,9,11,31,53,236,61,3,7,280,60,5,12,128,60,6,19,286,61,7*59
$GPGSV,11,10,11,16,31,325,61,18,29,140,61,21,74,35,62,22,15,172,60,7*51
$GPGSV,11,11,11,24,28,39,61,29,27,49,61,30,35,117,0,31,53,236,61,7*51
$GPGSA,A,3,03,05,06,16,18,21,22,24,29,30,31,,1.5,0.8,1.3,1*20
$GPZDA,120013.00,01,08,2021,-7,00*75
$GPGGA,120014,2301.33403,N,11300.00000,E,3,44,0.76,57.53,M,-7.53,M,,*5B
$GPRMC,120014,A,2301.33403,N,11300.00000,E,161.985,360.000,010821,0.000,E,A,V*6E
$GPVTG,360.000,T,360.000,M,161.985,N,299.996,K*48
$GPGSV,11,1,11,3,7,280,60,5,12,128,60,6,19,286,61,16,31,325,61,1*55
$GPGSV,11,2,11,18,29,140,61,21,74,35,62,22,15,172,60,24,28,39,61,1*53
$GPGSV,11,3,11,29,27,49,61,30,35,117,0,31,53,236,61,3,7,280,60,5*59
$GPGSV,11,4,11,5,12,128,60,6,19,286,61,16,31,325,61,18,29,140,61,5*5C
$GPGSV,11,5,11,21,74,35,62,22,15,172,60,24,28,39,61,29,27,49,61,5*64
$GPGSV,11,6,11,30,35,117,0,31,53,236,61,3,7,280,60,5,12,128,60,6*50
$GPGSV,11,7,11,6,19,286,61,16,31,325,61,18,29,140,61,21,74,35,62,6*55
$GPGSV,11,8,11,22,15,172,60,24,28,39,61,29,27,49,61,30,35,117,0,6*6A
$GPGSV,11,9,11,31,53,236,61,3,7,280,60,5,12,128,60,6,19,286,61,7*59
$GPGSV,11,10,11,16,31,325,61,18,29,140,61,21,74,35,62,22,15,172,60,7*51
$GPGSV,11,11,11,24,28,39,61,29,27,49,61,30,35,117,0,31,53,236,61,7*51
$GPGSA,A,3,03,05,06,16,18,21,22,24,29,30,31,,1.5,0.8,1.3,1*20
$GPZDA,120014.00,01,08,2021,-7,00*72
$GPGGA,120015,2301.37918,N,11300.00000,E,3,44,0.76,57.53,M,-7.53,M,,*59
$GPRMC,120015,A,2301.37918,N,11300.00000,E,161.985,0.000,010821,0.000,E,A,V*69
$GPVTG,0.000,T,0.000,M,161.985,N,299.996,K*48
$GPGSV,11,1,11,3,7,280,60,5,12,128,60,6,19,286,61,16,31,325,61,1*55
$GPGSV,11,2,11,18,29,140,61,21,74,35,62,22,15,172,60,24,28,39,61,1*53
$GPGSV,11,3,11,29,27,49,61,30,35,117,0,31,53,236,61,3,7,280,60,5*59
$GPGSV,11,4,11,5,12,128,60,6,19,286,61,16,31,325,61,18,29,140,61,5*5C
$GPGSV,11,5,11,21,74,35,62,22,15,172,60,24,28,39,61,29,27,49,61,5*64
$GPGSV,11,6,11,30,35,117,0,31,53,236,61,3,7,280,60,5,12,128,60,6*50
$GPGSV,11,7,11,6,19,286,61,16,31,325,61,18,29,140,61,21,74,35,62,6*55
$GPGSV,11,8,11,22,15,172,60,24,28,39,61,29,27,49,61,30,35,117,0,6*6A
$GPGSV,11,9,11,31,53,236,61,3,7,280,60,5,12,128,60,6,19,286,61,7*59
$GPGSV,11,10,11,16,31,325,61,18,29,140,61,21,74,35,62,22,15,172,60,7*51
$GPGSV,11,11,11,24,28,39,61,29,27,49,61,30,35,117,0,31,53,236,61,7*51
$GPGSA,A,3,03,05,06,16,18,21,22,24,29,30,31,,1.5,0.8,1.3,1*20
$GPZDA,120015.00,01,08,2021,-7,00*73
$GPGGA,120016,2301.42432,N,11300.00000,E,3,44,0.76,57.53,M,-7.53,M,,*5D
$GPRMC,120016,A,2301.42432,N,11300.00000,E,161.985,0.000,010821,0.000,E,A,V*6D
$GPVTG,0.000,T,0.000,M,161.985,N,299.996,K*48
$GPGSV,11,1,11,3,7,280,60,5,12,128,60,6,19,286,61,16,31,325,61,1*55
$GPGSV,11,2,11,18,29,140,61,21,74,35,62,22,15,172,60,24,28,39,61,1*53
$GPGSV,11,3,11,29,27,49,61,30,35,117,0,31,53,236,61,3,7,280,60,5*59
$GPGSV,11,4,11,5,12,128,60,6,19,286,61,16,31,325,61,18,29,140,61,5*5C
$GPGSV,11,5,11,21,74,35,62,22,15,172,60,24,28,39,61,29,27,49,61,5*64
$GPGSV,11,6,11,30,35,117,0,31,53,236,61,3,7,280,60,5,12,128,60,6*50
$GPGSV,11,7,11,6,19,286,61,16,31,325,61,18,29,140,61,21,74,35,62,6*55
$GPGSV,11,8,11,22,15,172,60,24,28,39,61,29,27,49,61,30,35,117,0,6*6A
$GPGSV,11,9,11,31,53,236,61,3,7,280,60,5,12,128,60,6,19,286,61,7*59
$GPGSV,11,10,11,16,31,325,61,18,29,140,61,21,74,35,62,22,15,172,60,7*51
$GPGSV,11,11,11,24,28,39,61,29,27,49,61,30,35,117,0,31,53,236,61,7*51
$GPGSA,A,3,03,05,06,16,18,21,22,24,29,30,31,,1.5,0.8,1.3,1*20
$GPZDA,120016.00,01,08,2021,-7,00*70
$GPGGA,120017,2301.46947,N,11300.00000,E,3,44,0.76,57.53,M,-7.53,M,,*57
$GPRMC,120017,A,2301.46947,N,11300.00000,E,161.985,0.000,010821,0.000,E,A,V*67
$GPVTG,0.000,T,0.000,M,161.985,N,299.996,K*48
$GPGSV,11,1,11,3,7,280,60,5,12,128,60,6,19,286,61,16,31,325,61,1*55
$GPGSV,11,2,11,18,29,140,61,21,74,35,62,22,15,172,60,24,28,39,61,1*53
$GPGSV,11,3,11,29,27,49,61,30,35,117,0,31,53,236,61,3,7,280,60,5*59
$GPGSV,11,4,11,5,12,128,60,6,19,286,61,16,31,325,61,18,29,140,61,5*5C
$GPGSV,11,5,11,21,74,35,62,22,15,172,60,24,28,39,61,29,27,49,61,5*64
$GPGSV,11,6,11,30,35,117,0,31,53,236,61,3,7,280,60,5,12,128,60,6*50
$GPGSV,11,7,11,6,19,286,61,16,31,325,61,18,29,140,61,21,74,35,62,6*55
$GPGSV,11,8,11,22,15,172,60,24,28,39,61,29,27,49,61,30,35,117,0,6*6A
$GPGSV,11,9,11,31,53,236,61,3,7,280,60,5,12,128,60,6,19,286,61,7*59
$GPGSV,11,10,11,16,31,325,61,18,29,140,61,21,74,35,62,22,15,172,60,7*51
$GPGSV,11,11,11,24,28,39,61,29,27,49,61,30,35,117,0,31,53,236,61,7*51
$GPGSA,A,3,03,05,06,16,18,21,22,24,29,30,31,,1.5,0.8,1.3,1*20
$GPZDA,120017.00,01,08,2021,-7,00*71
$GPGGA,120018,2301.51462,N,11300.00000,E,3,44,0.76,57.53,M,-7.53,M,,*54
$GPRMC,120018,A,2301.51462,N,11300.00000,E,161.985,0.000,010821,0.000,E,A,V*64
$GPVTG,0.000,T,0.000,M,161.985,N,299.996,K*48
$GPGSV,11,1,11,3,7,280,60,5,12,128,60,6,19,286,61,16,31,325,61,1*55
$GPGSV,11,2,11,18,29,140,61,21,74,35,62,22,15,172,60,24,28,39,61,1*53
$GPGSV,11,3,11,29,27,49,61,30,35,117,0,31,53,235,61,3,7,280,60,5*5A
$GPGSV,11,4,11,5,12,128,60,6,19,286,61,16,31,325,61,18,29,140,61,5*5C
$GPGSV,11,5,11,21,74,35,62,22,15,172,60,24,28,39,61,29,27,49,61,5*64
$GPGSV,11,6,11,30,35,117,0,31,53,235,61,3,7,280,60,5,12,128,60,6*53
$GPGSV,11,7,11,6,19,286,61,16,31,325,61,18,29,140,61,21,74,35,62,6*55
$GPGSV,11,8,11,22,15,172,60,24,28,39,61,29,27,49,61,30,35,117,0,6*6A
$GPGSV,11,9,11,31,53,235,61,3,7,280,60,5,12,128,60,6,19,286,61,7*5A
$GPGSV,11,10,11,16,31,325,61,18,29,140,61,21,74,35,62,22,15,172,60,7*51
$GPGSV,11,11,11,24,28,39,61,29,27,49,61,30,35,117,0,31,53,235,61,7*52
$GPGSA,A,3,03,05,06,16,18,21,22,24,29,30,31,,1.5,0.8,1.3,1*20
$GPZDA,120018.00,01,08,2021,-7,00*7E
$GPGGA,120019,2301.55977,N,11300.00000,E,3,44,0.76,57.53,M,-7.53,M,,*58
$GPRMC,120019,A,2301.55977,N,11300.00000,E,161.985,0.000,010821,0.000,E,A,V*68
$GPVTG,0.000,T,0.000,M,161.985,N,299.996,K*48
$GPGSV,11,1,11,3,7,280,60,5,12,128,60,6,19,286,61,16,31,325,61,1*55
$GPGSV,11,2,11,18,29,140,61,21,74,35,62,22,15,172,60,24,28,39,61,1*53
$GPGSV,11,3,11,29,27,49,61,30,35,117,0,31,53,235,61,3,7,280,60,5*5A
$GPGSV,11,4,11,5,12,128,60,6,19,286,61,16,31,325,61,18,29,140,61,5*5C
$GPGSV,11,5,11,21,74,35,62,22,15,172,60,24,28,39,61,29,27,49,61,5*64
$GPGSV,11,6,11,30,35,117,0,31,53,235,61,3,7,280,60,5,12,128,60,6*53
$GPGSV,11,7,11,6,19,286,61,16,31,325,61,18,29,140,61,21,74,35,62,6*55
$GPGSV,11,8,11,22,15,172,60,24,28,39,61,29,27,49,61,30,35,117,0,6*6A
$GPGSV,11,9,11,31,53,235,61,3,7,280,60,5,12,128,60,6,19,286,61,7*5A
$GPGSV,11,10,11,16,31,325,61,18,29,140,61,21,74,35,62,22,15,172,60,7*51
$GPGSV,11,11,11,24,28,39,61,29,27,49,61,30,35,117,0,31,53,235,61,7*52
$GPGSA,A,3,03,05,06,16,18,21,22,24,29,30,31,,1.5,0.8,1.3,1*20
$GPZDA,120019.00,01,08,2021,-7,00*7F
$GPGGA,120020,2301.60492,N,11300.00000,E,3,44,0.76,57.53,M,-7.53,M,,*52
$GPRMC,120020,A,2301.60492,N,11300.00000,E,161.985,0.000,010821,0.000,E,A,V*62
$GPVTG,0.000,T,0.000,M,161.985,N,299.996,K*48
$GPGSV,11,1,11,3,7,280,60,5,12,128,60,6,19,286,61,16,31,325,61,1*55
$GPGSV,11,2,11,18,29,140,61,21,74,35,62,22,15,172,60,24,28,39,61,1*53
$GPGSV,11,3,11,29,27,49,61,30,35,117,0,31,53,235,61,3,7,280,60,5*5A
$GPGSV,11,4,11,5,12,128,60,6,19,286,61,16,31,325,61,18,29,140,61,5*5C
$GPGSV,11,5,11,21,74,35,62,22,15,172,60,24,28,39,61,29,27,49,61,5*64
$GPGSV,11,6,11,30,35,117,0,31,53,235,61,3,7,280,60,5,12,128,60,6*53
$GPGSV,11,7,11,6,19,286,61,16,31,325,61,18,29,140,61,21,74,35,62,6*55
$GPGSV,11,8,11,22,15,172,60,24,28,39,61,29,27,49,61,30,35,117,0,6*6A
$GPGSV,11,9,11,31,53,235,61,3,7,280,60,5,12,128,60,6,19,286,61,7*5A
$GPGSV,11,10,11,16,31,325,61,18,29,140,61,21,74,35,62,22,15,172,60,7*51
$GPGSV,11,11,11,24,28,39,61,29,27,49,61,30,35,117,0,31,53,235,61,7*52
$GPGSA,A,3,03,05,06,16,18,21,22,24,29,30,31,,1.5,0.8,1.3,1*20
$GPZDA,120020.00,01,08,2021,-7,00*75
$GPGGA,120021,2301.65007,N,11300.00000,E,3,44,0.76,57.53,M,-7.53,M,,*5E
$GPRMC,120021,A,2301.65007,N,11300.00000,E,161.985,0.000,010821,0.000,E,A,V*6E
$GPVTG,0.000,T,0.000,M,161.985,N,299.996,K*48
$GPGSV,11,1,11,3,7,280,60,5,12,128,60,6,19,286,61,16,31,325,61,1*55
$GPGSV,11,2,11,18,29,140,61,21,74,35,62,22,15,172,60,24,28,39,61,1*53
$GPGSV,11,3,11,29,27,49,61,30,35,117,0,31,53,235,61,3,7,280,60,5*5A
$GPGSV,11,4,11,5,12,128,60,6,19,286,61,16,31,325,61,18,29,140,61,5*5C
$GPGSV,11,5,11,21,74,35,62,22,15,172,60,24,28,39,61,29,27,49,61,5*64
$GPGSV,11,6,11,30,35,117,0,31,53,235,61,3,7,280,60,5,12,128,60,6*53
$GPGSV,11,7,11,6,19,286,61,16,31,325,61,18,29,140,61,21,74,35,62,6*55
$GPGSV,11,8,11,22,15,172,60,24,28,39,61,29,27,49,61,30,35,117,0,6*6A
$GPGSV,11,9,11,31,53,235,61,3,7,280,60,5,12,128,60,6,19,286,61,7*5A
$GPGSV,11,10,11,16,31,325,61,18,29,140,61,21,74,35,62,22,15,172,60,7*51
$GPGSV,11,11,11,24,28,39,61,29,27,49,61,30,35,117,0,31,53,235,61,7*52
$GPGSA,A,3,03,05,06,16,18,21,22,24,29,30,31,,1.5,0.8,1.3,1*20
$GPZDA,120021.00,01,08,2021,-7,00*74
$GPGGA,120022,2301.69521,N,11300.00000,E,3,44,0.76,57.53,M,-7.53,M,,*50
$GPRMC,120022,A,2301.69521,N,11300.00000,E,161.985,0.000,010821,0.000,E,A,V*60
$GPVTG,0.000,T,0.000,M,161.985,N,299.996,K*48
$GPGSV,11,1,11,3,7,280,60,5,12,128,60,6,19,286,61,16,31,325,61,1*55
$GPGSV,11,2,11,18,29,140,61,21,74,35,62,22,15,172,60,24,28,39,61,1*53
$GPGSV,11,3,11,29,27,49,61,30,35,117,0,31,53,235,61,3,7,280,60,5*5A
$GPGSV,11,4,11,5,12,128,60,6,19,286,61,16,31,325,61,18,29,140,61,5*5C
$GPGSV,11,5,11,21,74,35,62,22,15,172,60,24,28,39,61,29,27,49,61,5*64
$GPGSV,11,6,11,30,35,117,0,31,53,235,61,3,7,280,60,5,12,128,60,6*53
$GPGSV,11,7,11,6,19,286,61,16,31,325,61,18,29,140,61,21,74,35,62,6*55
$GPGSV,11,8,11,22,15,172,60,24,28,39,61,29,27,49,61,30,35,117,0,6*6A
$GPGSV,11,9,11,31,53,235,61,3,7,280,60,5,12,128,60,6,19,286,61,7*5A
$GPGSV,11,10,11,16,31,325,61,18,29,140,61,21,74,35,62,22,15,172,60,7*51
$GPGSV,11,11,11,24,28,39,61,29,27,49,61,30,35,117,0,31,53,235,61,7*52
$GPGSA,A,3,03,05,06,16,18,21,22,24,29,30,31,,1.5,0.8,1.3,1*20
$GPZDA,120022.00,01,08,2021,-7,00*77
$GPGGA,120023,2301.74036,N,11300.00000,E,3,44,0.76,57.53,M,-7.53,M,,*5E
$GPRMC,120023,A,2301.74036,N,11300.00000,E,161.985,360.000,010821,0.000,E,A,V*6B
$GPVTG,360.000,T,360.000,M,161.985,N,299.996,K*48
$GPGSV,11,1,11,3,7,280,60,5,12,128,60,6,19,286,61,16,31,325,61,1*55
$GPGSV,11,2,11,18,29,140,61,21,74,35,62,22,15,172,60,24,28,39,61,1*53
$GPGSV,11,3,11,29,27,49,61,30,35,117,0,31,53,235,61,3,7,280,60,5*5A
$GPGSV,11,4,11,5,12,128,60,6,19,286,61,16,31,325,61,18,29,140,61,5*5C
$GPGSV,11,5,11,21,74,35,62,22,15,172,60,24,28,39,61,29,27,49,61,5*64
$GPGSV,11,6,11,30,35,117,0,31,53,235,61,3,7,280,60,5,12,128,60,6*53
$GPGSV,11,7,11,6,19,286,61,16,31,325,61,18,29,140,61,21,74,35,62,6*55
$GPGSV,11,8,11,22,15,172,60,24,28,39,61,29,27,49,61,30,35,117,0,6*6A
$GPGSV,11,9,11,31,53,235,61,3,7,280,60,5,12,128,60,6,19,286,61,7*5A
$GPGSV,11,10,11,16,31,325,61,18,29,140,61,21,74,35,62,22,15,172,60,7*51
$GPGSV,11,11,11,24,28,39,61,29,27,49,61,30,35,117,0,31,53,235,61,7*52
$GPGSA,A,3,03,05,06,16,18,21,22,24,29,30,31,,1.5,0.8,1.3,1*20
$GPZDA,120023.00,01,08,2021,-7,00*76
$GPGGA,120024,2301.78551,N,11300.00000,E,3,44,0.76,57.53,M,-7.53,M,,*51
$GPRMC,120024,A,2301.78551,N,11300.00000,E,161.985,0.000,010821,0.000,E,A,V*61
$GPVTG,0.000,T,0.000,M,161.985,N,299.996,K*48
$GPGSV,11,1,11,3,7,280,60,5,12,128,60,6,19,286,61,16,31,325,61,1*55
$GPGSV,11,2,11,18,29,140,61,21,74,34,62,22,15,172,60,24,28,39,61,1*52
$GPGSV,11,3,11,29,27,49,61,30,35,117,0,31,53,235,61,3,7,280,60,5*5A
$GPGSV,11,4,11,5,12,128,60,6,19,286,61,16,31,325,61,18,29,140,61,5*5C
$GPGSV,11,5,11,21,74,34,62,22,15,172,60,24,28,39,61,29,27,49,61,5*65
$GPGSV,11,6,11,30,35,117,0,31,53,235,61,3,7,280,60,5,12,128,60,6*53
$GPGSV,11,7,11,6,19,286,61,16,31,325,61,18,29,140,61,21,74,34,62,6*54
$GPGSV,11,8,11,22,15,172,60,24,28,39,61,29,27,49,61,30,35,117,0,6*6A
$GPGSV,11,9,11,31,53,235,61,3,7,280,60,5,12,128,60,6,19,286,61,7*5A
$GPGSV,11,10,11,16,31,325,61,18,29,140,61,21,74,34,62,22,15,172,60,7*50
$GPGSV,11,11,11,24,28,39,61,29,27,49,61,30,35,117,0,31,53,235,61,7*52
$GPGSA,A,3,03,05,06,16,18,21,22,24,29,30,31,,1.5,0.8,1.3,1*20
$GPZDA,120024.00,01,08,2021,-7,00*71
$GPGGA,120025,2301.83066,N,11300.00000,E,3,44,0.76,57.53,M,-7.53,M,,*55
$GPRMC,120025,A,2301.83066,N,11300.00000,E,161.985,0.000,010821,0.000,E,A,V*65
$GPVTG,0.000,T,0.000,M,161.985,N,299.996,K*48
$GPGSV,11,1,11,3,7,280,60,5,12,128,60,6,19,286,61,16,31,325,61,1*55
$GPGSV,11,2,11,18,29,140,61,21,74,34,62,22,15,172,60,24,28,39,61,1*52
$GPGSV,11,3,11,29,27,49,61,30,35,117,0,31,53,235,61,3,7,280,60,5*5A
$GPGSV,11,4,11,5,12,128,60,6,19,286,61,16,31,325,61,18,29,140,61,5*5C
$GPGSV,11,5,11,21,74,34,62,22,15,172,60,24,28,39,61,29,27,49,61,5*65
$GPGSV,11,6,11,30,35,117,0,31,53,235,61,3,7,280,60,5,12,128,60,6*53
$GPGSV,11,7,11,6,19,286,61,16,31,325,61,18,29,140,61,21,74,34,62,6*54
$GPGSV,11,8,11,22,15,172,60,24,28,39,61,29,27,49,61,30,35,117,0,6*6A
$GPGSV,11,9,11,31,53,235,61,3,7,280,60,5,12,128,60,6,19,286,61,7*5A
$GPGSV,11,10,11,16,31,325,61,18,29,140,61,21,74,34,62,22,15,172,60,7*50
$GPGSV,11,11,11,24,28,39,61,29,27,49,61,30,35,117,0,31,53,235,61,7*52
$GPGSA,A,3,03,05,06,16,18,21,22,24,29,30,31,,1.5,0.8,1.3,1*20
$GPZDA,120025.00,01,08,2021,-7,00*70
$GPGGA,120026,2301.87581,N,11300.00000,E,3,44,0.76,57.53,M,-7.53,M,,*5E
$GPRMC,120026,A,2301.87581,N,11300.00000,E,161.985,0.000,010821,0.000,E,A,V*6E
$GPVTG,0.000,T,0.000,M,161.985,N,299.996,K*48
$GPGSV,11,1,11,3,7,280,60,5,12,128,60,6,19,286,61,16,31,325,61,1*55
$GPGSV,11,2,11,18,29,140,61,21,74,34,62,22,15,172,60,24,28,39,61,1*52
$GPGSV,11,3,11,29,27,49,61,30,35,117,0,31,53,235,61,3,7,280,60,5*5A
$GPGSV,11,4,11,5,12,128,60,6,19,286,61,16,31,325,61,18,29,140,61,5*5C
$GPGSV,11,5,11,21,74,34,62,22,15,172,60,24,28,39,61,29,27,49,61,5*65
$GPGSV,11,6,11,30,35,117,0,31,53,235,61,3,7,280,60,5,12,128,60,6*53
$GPGSV,11,7,11,6,19,286,61,16,31,325,61,18,29,140,61,21,74,34,62,6*54
$GPGSV,11,8,11,22,15,172,60,24,28,39,61,29,27,49,61,30,35,117,0,6*6A
$GPGSV,11,9,11,31,53,235,61,3,7,280,60,5,12,128,60,6,19,286,61,7*5A
$GPGSV,11,10,11,16,31,325,61,18,29,140,61,21,74,34,62,22,15,172,60,7*50
$GPGSV,11,11,11,24,28,39,61,29,27,49,61,30,35,117,0,31,53,235,61,7*52
$GPGSA,A,3,03,05,06,16,18,21,22,24,29,30,31,,1.5,0.8,1.3,1*20
$GPZDA,120026.00,01,08,2021,-7,00*73
$GPGGA,120027,2301.92096,N,11300.00000,E,3,44,0.76,57.53,M,-7.53,M,,*58
$GPRMC,120027,A,2301.92096,N,11300.00000,E,161.985,0.000,010821,0.000,E,A,V*68
$GPVTG,0.000,T,0.000,M,161.985,N,299.996,K*48
$GPGSV,11,1,11,3,7,280,60,5,12,128,60,6,19,286,61,16,31,325,61,1*55
$GPGSV,11,2,11,18,29,140,61,21,74,34,62,22,15,172,60,24,28,39,61,1*52
$GPGSV,11,3,11,29,27,49,61,30,35,117,0,31,53,235,61,3,7,280,60,5*5A
$GPGSV,11,4,11,5,12,128,60,6,19,286,61,16,31,325,61,18,29,140,61,5*5C
$GPGSV,11,5,11,21,74,34,62,22,15,172,60,24,28,39,61,29,27,49,61,5*65
$GPGSV,11,6,11,30,35,117,0,31,53,235,61,3,7,280,60,5,12,128,60,6*53
$GPGSV,11,7,11,6,19,286,61,16,31,325,61,18,29,140,61,21,74,34,62,6*54
$GPGSV,11,8,11,22,15,172,60,24,28,39,61,29,27,49,61,30,35,117,0,6*6A
$GPGSV,11,9,11,31,53,235,61,3,7,280,60,5,12,128,60,6,19,286,61,7*5A
$GPGSV,11,10,11,16,31,325,61,18,29,140,61,21,74,34,62,22,15,172,60,7*50
$GPGSV,11,11,11,24,28,39,61,29,27,49,61,30,35,117,0,31,53,235,61,7*52
$GPGSA,A,3,03,05,06,16,18,21,22,24,29,30,31,,1.5,0.8,1.3,1*20
$GPZDA,120027.00,01,08,2021,-7,00*72
$GPGGA,120028,2301.96611,N,11300.00000,E,3,44,0.76,57.53,M,-7.53,M,,*5A
$GPRMC,120028,A,2301.96611,N,11300.00000,E,161.985,0.000,010821,0.000,E,A,V*6A
$GPVTG,0.000,T,0.000,M,161.985,N,299.996,K*48
$GPGSV,11,1,11,3,7,280,60,5,12,128,60,6,19,286,61,16,31,325,61,1*55
$GPGSV,11,2,11,18,29,140,61,21,74,34,62,22,15,172,60,24,28,39,61,1*52
$GPGSV,11,3,11,29,27,49,61,30,35,117,0,31,53,235,61,3,7,280,60,5*5A
$GPGSV,11,4,11,5,12,128,60,6,19,286,61,16,31,325,61,18,29,140,61,5*5C
$GPGSV,11,5,11,21,74,34,62,22,15,172,60,24,28,39,61,29,27,49,61,5*65
$GPGSV,11,6,11,30,35,117,0,31,53,235,61,3,7,280,60,5,12,128,60,6*53
$GPGSV,11,7,11,6,19,286,61,16,31,325,61,18,29,140,61,21,74,34,62,6*54
$GPGSV,11,8,11,22,15,172,60,24,28,39,61,29,27,49,61,30,35,117,0,6*6A
$GPGSV,11,9,11,31,53,235,61,3,7,280,60,5,12,128,60,6,19,286,61,7*5A
$GPGSV,11,10,11,16,31,325,61,18,29,140,61,21,74,34,62,22,15,172,60,7*50
$GPGSV,11,11,11,24,28,39,61,29,27,49,61,30,35,117,0,31,53,235,61,7*52
$GPGSA,A,3,03,05,06,16,18,21,22,24,29,30,31,,1.5,0.8,1.3,1*20
$GPZDA,120028.00,01,08,2021,-7,00*7D
$GPGGA,120029,2302.01125,N,11300.00000,E,3,44,0.76,57.53,M,-7.53,M,,*56
$GPRMC,120029,A,2302.01125,N,11300.00000,E,161.985,0.000,010821,0.000,E,A,V*66
$GPVTG,0.000,T,0.000,M,161.985,N,299.996,K*48
$GPGSV,11,1,11,3,7,280,60,5,12,128,60,6,19,286,61,16,31,325,61,1*55
$GPGSV,11,2,11,18,29,140,61,21,74,34,62,22,15,172,60,24,28,39,61,1*52
$GPGSV,11,3,11,29,27,49,61,30,35,117,0,31,53,235,61,3,7,280,60,5*5A
$GPGSV,11,4,11,5,12,128,60,6,19,286,61,16,31,325,61,18,29,140,61,5*5C
$GPGSV,11,5,11,21,74,34,62,22,15,172,60,24,28,39,61,29,27,49,61,5*65
$GPGSV,11,6,11,30,35,117,0,31,53,235,61,3,7,280,60,5,12,128,60,6*53
$GPGSV,11,7,11,6,19,286,61,16,31,325,61,18,29,140,61,21,74,34,62,6*54
$GPGSV,11,8,11,22,15,172,60,24,28,39,61,29,27,49,61,30,35,117,0,6*6A
$GPGSV,11,9,11,31,53,235,61,3,7,280,60,5,12,128,60,6,19,286,61,7*5A
$GPGSV,11,10,11,16,31,325,61,18,29,140,61,21,74,34,62,22,15,172,60,7*50
$GPGSV,11,11,11,24,28,39,61,29,27,49,61,30,35,117,0,31,53,235,61,7*52
$GPGSA,A,3,03,05,06,16,18,21,22,24,29,30,31,,1.5,0.8,1.3,1*20
$GPZDA,120029.00,01,08,2021,-7,00*7C
$GPGGA,120030,2302.05640,N,11300.00000,E,3,44,0.76,57.53,M,-7.53,M,,*5E
$GPRMC,120030,A,2302.05640,N,11300.00000,E,161.985,0.000,010821,0.000,E,A,V*6E
$GPVTG,0.000,T,0.000,M,161.985,N,299.996,K*48
$GPGSV,11,1,11,3,7,280,60,5,12,128,60,6,19,286,61,16,31,325,61,1*55
$GPGSV,11,2,11,18,29,140,61,21,74,34,62,22,15,172,60,24,28,39,61,1*52
$GPGSV,11,3,11,29,27,49,61,30,35,117,0,31,53,235,61,3,7,280,60,5*5A
$GPGSV,11,4,11,5,12,128,60,6,19,286,61,16,31,325,61,18,29,140,61,5*5C
$GPGSV,11,5,11,21,74,34,62,22,15,172,60,24,28,39,61,29,27,49,61,5*65
$GPGSV,11,6,11,30,35,117,0,31,53,235,61,3,7,280,60,5,12,128,60,6*53
$GPGSV,11,7,11,6,19,286,61,16,31,325,61,18,29,140,61,21,74,34,62,6*54
$GPGSV,11,8,11,22,15,172,60,24,28,39,61,29,27,49,61,30,35,117,0,6*6A
$GPGSV,11,9,11,31,53,235,61,3,7,280,60,5,12,128,60,6,19,286,61,7*5A
$GPGSV,11,10,11,16,31,325,61,18,29,140,61,21,74,34,62,22,15,172,60,7*50
$GPGSV,11,11,11,24,28,39,61,29,27,49,61,30,35,117,0,31,53,235,61,7*52
$GPGSA,A,3,03,05,06,16,18,21,22,24,29,30,31,,1.5,0.8,1.3,1*20
$GPZDA,120030.00,01,08,2021,-7,00*74
$GPGGA,120031,2302.10155,N,11300.00000,E,3,44,0.76,57.53,M,-7.53,M,,*58
$GPRMC,120031,A,2302.10155,N,11300.00000,E,161.985,0.000,010821,0.000,E,A,V*68
$GPVTG,0.000,T,0.000,M,161.985,N,299.996,K*48
$GPGSV,11,1,11,3,7,280,60,5,12,128,60,6,19,286,61,16,31,325,61,1*55
$GPGSV,11,2,11,18,29,140,61,21,74,34,62,22,15,172,60,24,28,39,61,1*52
$GPGSV,11,3,11,29,27,49,61,30,35,117,0,31,53,235,61,3,7,280,60,5*5A
$GPGSV,11,4,11,5,12,128,60,6,19,286,61,16,31,325,61,18,29,140,61,5*5C
$GPGSV,11,5,11,21,74,34,62,22,15,172,60,24,28,39,61,29,27,49,61,5*65
$GPGSV,11,6,11,30,35,117,0,31,53,235,61,3,7,280,60,5,12,128,60,6*53
$GPGSV,11,7,11,6,19,286,61,16,31,325,61,18,29,140,61,21,74,34,62,6*54
$GPGSV,11,8,11,22,15,172,60,24,28,39,61,29,27,49,61,30,35,117,0,6*6A
$GPGSV,11,9,11,31,53,235,61,3,7,280,60,5,12,128,60,6,19,286,61,7*5A
$GPGSV,11,10,11,16,31,325,61,18,29,140,61,21,74,34,62,22,15,172,60,7*50
$GPGSV,11,11,11,24,28,39,61,29,27,49,61,30,35,117,0,31,53,235,61,7*52
$GPGSA,A,3,03,05,06,16,18,21,22,24,29,30,31,,1.5,0.8,1.3,1*20
$GPZDA,120031.00,01,08,2021,-7,00*75
$GPGGA,120032,2302.14670,N,11300.00000,E,3,44,0.76,57.53,M,-7.53,M,,*5F
$GPRMC,120032,A,2302.14670,N,11300.00000,E,161.985,0.000,010821,0.000,E,A,V*6F
$GPVTG,0.000,T,0.000,M,161.985,N,299.996,K*48
$GPGSV,11,1,11,3,7,280,60,5,12,128,60,6,19,286,61,16,31,325,61,1*55
$GPGSV,11,2,11,18,29,140,61,21,74,34,62,22,15,172,60,24,28,39,61,1*52
$GPGSV,11,3,11,29,27,49,61,30,35,117,0,31,53,235,61,3,7,280,60,5*5A
$GPGSV,11,4,11,5,12,128,60,6,19,286,61,16,31,325,61,18,29,140,61,5*5C
$GPGSV,11,5,11,21,74,34,62,22,15,172,60,24,28,39,61,29,27,49,61,5*65
$GPGSV,11,6,11,30,35,117,0,31,53,235,61,3,7,280,60,5,12,128,60,6*53
$GPGSV,11,7,11,6,19,286,61,16,31,325,61,18,29,140,61,21,74,34,62,6*54
$GPGSV,11,8,11,22,15,172,60,24,28,39,61,29,27,49,61,30,35,117,0,6*6A
$GPGSV,11,9,11,31,53,235,61,3,7,280,60,5,12,128,60,6,19,286,61,7*5A
$GPGSV,11,10,11,16,31,325,61,18,29,140,61,21,74,34,62,22,15,172,60,7*50
$GPGSV,11,11,11,24,28,39,61,29,27,49,61,30,35,117,0,31,53,235,61,7*52
$GPGSA,A,3,03,05,06,16,18,21,22,24,29,30,31,,1.5,0.8,1.3,1*20
$GPZDA,120032.00,01,08,2021,-7,00*76
$GPGGA,120033,2302.19185,N,11300.00000,E,3,44,0.76,57.53,M,-7.53,M,,*5E
$GPRMC,120033,A,2302.19185,N,11300.00000,E,161.985,0.000,010821,0.000,E,A,V*6E
$GPVTG,0.000,T,0.000,M,161.985,N,299.996,K*48
$GPGSV,11,1,11,3,7,280,60,5,12,128,60,6,19,286,61,16,31,325,61,1*55
$GPGSV,11,2,11,18,29,140,61,21,74,34,62,22,15,172,60,24,28,39,61,1*52
$GPGSV,11,3,11,29,27,49,61,30,35,117,0,31,53,235,61,3,7,280,60,5*5A
$GPGSV,11,4,11,5,12,128,60,6,19,286,61,16,31,325,61,18,29,140,61,5*5C
$GPGSV,11,5,11,21,74,34,62,22,15,172,60,24,28,39,61,29,27,49,61,5*65
$GPGSV,11,6,11,30,35,117,0,31,53,235,61,3,7,280,60,5,12,128,60,6*53
$GPGSV,11,7,11,6,19,286,61,16,31,325,61,18,29,140,61,21,74,34,62,6*54
$GPGSV,11,8,11,22,15,172,60,24,28,39,61,29,27,49,61,30,35,117,0,6*6A
$GPGSV,11,9,11,31,53,235,61,3,7,280,60,5,12,128,60,6,19,286,61,7*5A
$GPGSV,11,10,11,16,31,325,61,18,29,140,61,21,74,34,62,22,15,172,60,7*50
$GPGSV,11,11,11,24,28,39,61,29,27,49,61,30,35,117,0,31,53,235,61,7*52
$GPGSA,A,3,03,05,06,16,18,21,22,24,29,30,31,,1.5,0.8,1.3,1*20
$GPZDA,120033.00,01,08,2021,-7,00*77
$GPGGA,120034,2302.23700,N,11300.00000,E,3,44,0.76,57.53,M,-7.53,M,,*5B
$GPRMC,120034,A,2302.23700,N,11300.00000,E,161.985,360.000,010821,0.000,E,A,V*6E
$GPVTG,360.000,T,360.000,M,161.985,N,299.996,K*48
$GPGSV,11,1,11,3,7,280,60,5,12,128,60,6,19,286,61,16,31,325,61,1*55
$GPGSV,11,2,11,18,29,140,61,21,74,34,62,22,15,172,60,24,28,39,61,1*52
$GPGSV,11,3,11,29,27,49,61,30,35,117,0,31,53,235,61,3,7,280,60,5*5A
$GPGSV,11,4,11,5,12,128,60,6,19,286,61,16,31,325,61,18,29,140,61,5*5C
$GPGSV,11,5,11,21,74,34,62,22,15,172,60,24,28,39,61,29,27,49,61,5*65
$GPGSV,11,6,11,30,35,117,0,31,53,235,61,3,7,280,60,5,12,128,60,6*53
$GPGSV,11,7,11,6,19,286,61,16,31,325,61,18,29,140,61,21,74,34,62,6*54
$GPGSV,11,8,11,22,15,172,60,24,28,39,61,29,27,49,61,30,35,117,0,6*6A
$GPGSV,11,9,11,31,53,235,61,3,7,280,60,5,12,128,60,6,19,286,61,7*5A
$GPGSV,11,10,11,16,31,325,61,18,29,140,61,21,74,34,62,22,15,172,60,7*50
$GPGSV,11,11,11,24,28,39,61,29,27,49,61,30,35,117,0,31,53,235,61,7*52
$GPGSA,A,3,03,05,06,16,18,21,22,24,29,30,31,,1.5,0.8,1.3,1*20
$GPZDA,120034.00,01,08,2021,-7,00*70
$GPGGA,120035,2302.28214,N,11300.00000,E,3,44,0.76,57.53,M,-7.53,M,,*51
$GPRMC,120035,A,2302.28214,N,11300.00000,E,161.985,0.000,010821,0.000,E,A,V*61
$GPVTG,0.000,T,0.000,M,161.985,N,299.996,K*48
$GPGSV,11,1,11,3,7,280,60,5,12,128,60,6,19,286,61,16,31,325,61,1*55
$GPGSV,11,2,11,18,29,140,61,21,74,34,62,22,15,172,60,24,28,39,61,1*52
$GPGSV,11,3,11,29,27,49,61,30,35,117,0,31,53,235,61,3,7,280,60,5*5A
$GPGSV,11,4,11,5,12,128,60,6,19,286,61,16,31,325,61,18,29,140,61,5*5C
$GPGSV,11,5,11,21,74,34,62,22,15,172,60,24,28,39,61,29,27,49,61,5*65
$GPGSV,11,6,11,30,35,117,0,31,53,235,61,3,7,280,60,5,12,128,60,6*53
$GPGSV,11,7,11,6,19,286,61,16,31,325,61,18,29,140,61,21,74,34,62,6*54
$GPGSV,11,8,11,22,15,172,60,24,28,39,61,29,27,49,61,30,35,117,0,6*6A
$GPGSV,11,9,11,31,53,235,61,3,7,280,60,5,12,128,60,6,19,286,61,7*5A
$GPGSV,11,10,11,16,31,325,61,18,29,140,61,21,74,34,62,22,15,172,60,7*50
$GPGSV,11,11,11,24,28,39,61,29,27,49,61,30,35,117,0,31,53,235,61,7*52
$GPGSA,A,3,03,05,06,16,18,21,22,24,29,30,31,,1.5,0.8,1.3,1*20
$GPZDA,120035.00,01,08,2021,-7,00*71
$GPGGA,120036,2302.32729,N,11300.00000,E,3,44,0.76,57.53,M,-7.53,M,,*52
$GPRMC,120036,A,2302.32729,N,11300.00000,E,161.985,0.000,010821,0.000,E,A,V*62
$GPVTG,0.000,T,0.000,M,161.985,N,299.996,K*48
$GPGSV,11,1,11,3,7,280,60,5,12,128,60,6,19,286,61,16,31,325,61,1*55
$GPGSV,11,2,11,18,29,139,61,21,74,34,62,22,15,172,60,24,28,39,61,1*5C
$GPGSV,11,3,11,29,27,49,61,30,34,117,0,31,53,235,61,3,7,280,60,5*5B
$GPGSV,11,4,11,5,12,128,60,6,19,286,61,16,31,325,61,18,29,139,61,5*52
$GPGSV,11,5,11,21,74,34,62,22,15,172,60,24,28,39,61,29,27,49,61,5*65
$GPGSV,11,6,11,30,34,117,0,31,53,235,61,3,7,280,60,5,12,128,60,6*52
$GPGSV,11,7,11,6,19,286,61,16,31,325,61,18,29,139,61,21,74,34,62,6*5A
$GPGSV,11,8,11,22,15,172,60,24,28,39,61,29,27,49,61,30,34,117,0,6*6B
$GPGSV,11,9,11,31,53,235,61,3,7,280,60,5,12,128,60,6,19,286,61,7*5A
$GPGSV,11,10,11,16,31,325,61,18,29,139,61,21,74,34,62,22,15,172,60,7*5E
$GPGSV,11,11,11,24,28,39,61,29,27,49,61,30,34,117,0,31,53,235,61,7*53
$GPGSA,A,3,03,05,06,16,18,21,22,24,29,30,31,,1.5,0.8,1.3,1*20
$GPZDA,120036.00,01,08,2021,-7,00*72
$GPGGA,120037,2302.37244,N,11300.00000,E,3,44,0.76,57.54,M,-7.54,M,,*58
$GPRMC,120037,A,2302.37244,N,11300.00000,E,161.985,0.000,010821,0.000,E,A,V*68
$GPVTG,0.000,T,0.000,M,161.985,N,299.996,K*48
$GPGSV,11,1,11,3,7,280,60,5,12,128,60,6,19,286,61,16,31,325,61,1*55
$GPGSV,11,2,11,18,29,139,61,21,74,34,62,22,15,172,60,24,28,39,61,1*5C
$GPGSV,11,3,11,29,27,49,61,30,34,117,0,31,53,235,61,3,7,280,60,5*5B
$GPGSV,11,4,11,5,12,128,60,6,19,286,61,16,31,325,61,18,29,139,61,5*52
$GPGSV,11,5,11,21,74,34,62,22,15,172,60,24,28,39,61,29,27,49,61,5*65
$GPGSV,11,6,11,30,34,117,0,31,53,235,61,3,7,280,60,5,12,128,60,6*52
$GPGSV,11,7,11,6,19,286,61,16,31,325,61,18,29,139,61,21,74,34,62,6*5A
$GPGSV,11,8,11,22,15,172,60,24,28,39,61,29,27,49,61,30,34,117,0,6*6B
$GPGSV,11,9,11,31,53,235,61,3,7,280,60,5,12,128,60,6,19,286,61,7*5A
$GPGSV,11,10,11,16,31,325,61,18,29,139,61,21,74,34,62,22,15,172,60,7*5E
$GPGSV,11,11,11,24,28,39,61,29,27,49,61,30,34,117,0,31,53,235,61,7*53
$GPGSA,A,3,03,05,06,16,18,21,22,24,29,30,31,,1.5,0.8,1.3,1*20
$GPZDA,120037.00,01,08,2021,-7,00*73
$GPGGA,120038,2302.41759,N,11300.00000,E,3,44,0.76,57.54,M,-7.54,M,,*5F
$GPRMC,120038,A,2302.41759,N,11300.00000,E,161.985,360.000,010821,0.000,E,A,V*6A
$GPVTG,360.000,T,360.000,M,161.985,N,299.996,K*48
$GPGSV,11,1,11,3,7,280,60,5,12,128,60,6,19,286,61,16,31,325,61,1*55
$GPGSV,11,2,11,18,29,139,61,21,74,34,62,22,15,172,60,24,28,39,61,1*5C
$GPGSV,11,3,11,29,27,49,61,30,34,117,0,31,53,235,61,3,7,280,60,5*5B
$GPGSV,11,4,11,5,12,128,60,6,19,286,61,16,31,325,61,18,29,139,61,5*52
$GPGSV,11,5,11,21,74,34,62,22,15,172,60,24,28,39,61,29,27,49,61,5*65
$GPGSV,11,6,11,30,34,117,0,31,53,235,61,3,7,280,60,5,12,128,60,6*52
$GPGSV,11,7,11,6,19,286,61,16,31,325,61,18,29,139,61,21,74,34,62,6*5A
$GPGSV,11,8,11,22,15,172,60,24,28,39,61,29,27,49,61,30,34,117,0,6*6B
$GPGSV,11,9,11,31,53,235,61,3,7,280,60,5,12,128,60,6,19,286,61,7*5A
$GPGSV,11,10,11,16,31,325,61,18,29,139,61,21,74,34,62,22,15,172,60,7*5E
$GPGSV,11,11,11,24,28,39,61,29,27,49,61,30,34,117,0,31,53,235,61,7*53
$GPGSA,A,3,03,05,06,16,18,21,22,24,29,30,31,,1.5,0.8,1.3,1*20
$GPZDA,120038.00,01,08,2021,-7,00*7C
$GPGGA,120039,2302.46274,N,11300.00000,E,3,44,0.76,57.54,M,-7.54,M,,*53
$GPRMC,120039,A,2302.46274,N,11300.00000,E,161.985,360.000,010821,0.000,E,A,V*66
$GPVTG,360.000,T,360.000,M,161.985,N,299.996,K*48
$GPGSV,11,1,11,3,7,280,60,5,12,128,60,6,19,286,61,16,31,325,61,1*55
$GPGSV,11,2,11,18,29,139,61,21,74,34,62,22,15,172,60,24,28,39,61,1*5C
$GPGSV,11,3,11,29,27,49,61,30,34,117,0,31,53,235,61,3,7,280,60,5*5B
$GPGSV,11,4,11,5,12,128,60,6,19,286,61,16,31,325,61,18,29,139,61,5*52
$GPGSV,11,5,11,21,74,34,62,22,15,172,60,24,28,39,61,29,27,49,61,5*65
$GPGSV,11,6,11,30,34,117,0,31,53,235,61,3,7,280,60,5,12,128,60,6*52
$GPGSV,11,7,11,6,19,286,61,16,31,325,61,18,29,139,61,21,74,34,62,6*5A
$GPGSV,11,8,11,22,15,172,60,24,28,39,61,29,27,49,61,30,34,117,0,6*6B
$GPGSV,11,9,11,31,53,235,61,3,7,280,60,5,12,128,60,6,19,286,61,7*5A
$GPGSV,11,10,11,16,31,325,61,18,29,139,61,21,74,34,62,22,15,172,60,7*5E
$GPGSV,11,11,11,24,28,39,61,29,27,49,61,30,34,117,0,31,53,235,61,7*53
$GPGSA,A,3,03,05,06,16,18,21,22,24,29,30,31,,1.5,0.8,1.3,1*20
$GPZDA,120039.00,01,08,2021,-7,00*7D
$GPGGA,120040,2302.50789,N,11300.00000,E,3,44,0.76,57.54,M,-7.54,M,,*5D
$GPRMC,120040,A,2302.50789,N,11300.00000,E,161.985,0.000,010821,0.000,E,A,V*6D
$GPVTG,0.000,T,0.000,M,161.985,N,299.996,K*48
$GPGSV,11,1,11,3,7,280,60,5,12,128,60,6,19,286,61,16,31,325,61,1*55
$GPGSV,11,2,11,18,29,139,61,21,74,34,62,22,15,172,60,24,28,39,61,1*5C
$GPGSV,11,3,11,29,27,49,61,30,34,117,0,31,53,235,61,3,7,280,60,5*5B
$GPGSV,11,4,11,5,12,128,60,6,19,286,61,16,31,325,61,18,29,139,61,5*52
$GPGSV,11,5,11,21,74,34,62,22,15,172,60,24,28,39,61,29,27,49,61,5*65
$GPGSV,11,6,11,30,34,117,0,31,53,235,61,3,7,280,60,5,12,128,60,6*52
$GPGSV,11,7,11,6,19,286,61,16,31,325,61,18,29,139,61,21,74,34,62,6*5A
$GPGSV,11,8,11,22,15,172,60,24,28,39,61,29,27,49,61,30,34,117,0,6*6B
$GPGSV,11,9,11,31,53,235,61,3,7,280,60,5,12,128,60,6,19,286,61,7*5A
$GPGSV,11,10,11,16,31,325,61,18,29,139,61,21,74,34,62,22,15,172,60,7*5E
$GPGSV,11,11,11,24,28,39,61,29,27,49,61,30,34,117,0,31,53,235,61,7*53
$GPGSA,A,3,03,05,06,16,18,21,22,24,29,30,31,,1.5,0.8,1.3,1*20
$GPZDA,120040.00,01,08,2021,-7,00*73
$GPGGA,120041,2302.55303,N,11300.00000,E,3,44,0.76,57.54,M,-7.54,M,,*5F
$GPRMC,120041,A,2302.55303,N,11300.00000,E,161.985,0.000,010821,0.000,E,A,V*6F
$GPVTG,0.000,T,0.000,M,161.985,N,299.996,K*48
$GPGSV,11,1,11,3,7,280,60,5,12,128,60,6,19,286,61,16,31,325,61,1*55
$GPGSV,11,2,11,18,29,139,61,21,74,34,62,22,15,172,60,24,28,39,61,1*5C
$GPGSV,11,3,11,29,27,49,61,30,34,117,0,31,53,235,61,3,7,280,60,5*5B
$GPGSV,11,4,11,5,12,128,60,6,19,286,61,16,31,325,61,18,29,139,61,5*52
$GPGSV,11,5,11,21,74,34,62,22,15,172,60,24,28,39,61,29,27,49,61,5*65
$GPGSV,11,6,11,30,34,117,0,31,53,235,61,3,7,280,60,5,12,128,60,6*52
$GPGSV,11,7,11,6,19,286,61,16,31,325,61,18,29,139,61,21,74,34,62,6*5A
$GPGSV,11,8,11,22,15,172,60,24,28,39,61,29,27,49,61,30,34,117,0,6*6B
$GPGSV,11,9,11,31,53,235,61,3,7,280,60,5,12,128,60,6,19,286,61,7*5A
$GPGSV,11,10,11,16,31,325,61,18,29,139,61,21,74,34,62,22,15,172,60,7*5E
$GPGSV,11,11,11,24,28,39,61,29,27,49,61,30,34,117,0,31,53,235,61,7*53
$GPGSA,A,3,03,05,06,16,18,21,22,24,29,30,31,,1.5,0.8,1.3,1*20
$GPZDA,120041.00,01,08,2021,-7,00*72
$GPGGA,120042,2302.59818,N,11300.00000,E,3,44,0.76,57.54,M,-7.54,M,,*51
$GPRMC,120042,A,2302.59818,N,11300.00000,E,161.985,360.000,010821,0.000,E,A,V*64
$GPVTG,360.000,T,360.000,M,161.985,N,299.996,K*48
$GPGSV,11,1,11,3,7,280,60,5,12,128,60,6,19,286,61,16,31,325,61,1*55
$GPGSV,11,2,11,18,29,139,61,21,74,34,62,22,15,172,60,24,28,39,61,1*5C
$GPGSV,11,3,11,29,27,49,61,30,34,117,0,31,53,235,61,3,7,280,60,5*5B
$GPGSV,11,4,11,5,12,128,60,6,19,286,61,16,31,325,61,18,29,139,61,5*52
$GPGSV,11,5,11,21,74,34,62,22,15,172,60,24,28,39,61,29,27,49,61,5*65
$GPGSV,11,6,11,30,34,117,0,31,53,235,61,3,7,280,60,5,12,128,60,6*52
$GPGSV,11,7,11,6,19,286,61,16,31,325,61,18,29,139,61,21,74,34,62,6*5A
$GPGSV,11,8,11,22,15,172,60,24,28,39,61,29,27,49,61,30,34,117,0,6*6B
$GPGSV,11,9,11,31,53,235,61,3,7,280,60,5,12,128,60,6,19,286,61,7*5A
$GPGSV,11,10,11,16,31,325,61,18,29,139,61,21,74,34,62,22,15,172,60,7*5E
$GPGSV,11,11,11,24,28,39,61,29,27,49,61,30,34,117,0,31,53,235,61,7*53
$GPGSA,A,3,03,05,06,16,18,21,22,24,29,30,31,,1.5,0.8,1.3,1*20
$GPZDA,120042.00,01,08,2021,-7,00*71
$GPGGA,120043,2302.64333,N,11300.00000,E,3,44,0.76,57.54,M,-7.54,M,,*5C
$GPRMC,120043,A,2302.64333,N,11300.00000,E,161.985,360.000,010821,0.000,E,A,V*69
$GPVTG,360.000,T,360.000,M,161.985,N,299.996,K*48
$GPGSV,11,1,11,3,7,280,60,5,12,128,60,6,19,286,61,16,31,325,61,1*55
$GPGSV,11,2,11,18,29,139,61,21,74,34,62,22,15,172,60,24,28,39,61,1*5C
$GPGSV,11,3,11,29,27,49,61,30,34,117,0,31,53,235,61,3,7,280,60,5*5B
$GPGSV,11,4,11,5,12,128,60,6,19,286,61,16,31,325,61,18,29,139,61,5*52
$GPGSV,11,5,11,21,74,34,62,22,15,172,60,24,28,39,61,29,27,49,61,5*65
$GPGSV,11,6,11,30,34,117,0,31,53,235,61,3,7,280,60,5,12,128,60,6*52
$GPGSV,11,7,11,6,19,286,61,16,31,325,61,18,29,139,61,21,74,34,62,6*5A
$GPGSV,11,8,11,22,15,172,60,24,28,39,61,29,27,49,61,30,34,117,0,6*6B
$GPGSV,11,9,11,31,53,235,61,3,7,280,60,5,12,128,60,6,19,286,61,7*5A
$GPGSV,11,10,11,16,31,325,61,18,29,139,61,21,74,34,62,22,15,172,60,7*5E
$GPGSV,11,11,11,24,28,39,61,29,27,49,61,30,34,117,0,31,53,235,61,7*53
$GPGSA,A,3,03,05,06,16,18,21,22,24,29,30,31,,1.5,0.8,1.3,1*20
$GPZDA,120043.00,01,08,2021,-7,00*70
$GPGGA,120044,2302.68848,N,11300.00000,E,3,44,0.76,57.54,M,-7.54,M,,*50
$GPRMC,120044,A,2302.68848,N,11300.00000,E,161.985,0.000,010821,0.000,E,A,V*60
$GPVTG,0.000,T,0.000,M,161.985,N,299.996,K*48
$GPGSV,11,1,11,3,7,280,60,5,12,128,60,6,19,286,61,16,31,325,61,1*55
$GPGSV,11,2,11,18,29,139,61,21,74,34,62,22,15,172,60,24,28,39,61,1*5C
$GPGSV,11,3,11,29,27,49,61,30,34,117,0,31,53,235,61,3,7,280,60,5*5B
$GPGSV,11,4,11,5,12,128,60,6,19,286,61,16,31,325,61,18,29,139,61,5*52
$GPGSV,11,5,11,21,74,34,62,22,15,172,60,24,28,39,61,29,27,49,61,5*65
$GPGSV,11,6,11,30,34,117,0,31,53,235,61,3,7,280,60,5,12,128,60,6*52
$GPGSV,11,7,11,6,19,286,61,16,31,325,61,18,29,139,61,21,74,34,62,6*5A
$GPGSV,11,8,11,22,15,172,60,24,28,39,61,29,27,49,61,30,34,117,0,6*6B
$GPGSV,11,9,11,31,53,235,61,3,7,280,60,5,12,128,60,6,19,286,61,7*5A
$GPGSV,11,10,11,16,31,325,61,18,29,139,61,21,74,34,62,22,15,172,60,7*5E
$GPGSV,11,11,11,24,28,39,61,29,27,49,61,30,34,117,0,31,53,235,61,7*53
$GPGSA,A,3,03,05,06,16,18,21,22,24,29,30,31,,1.5,0.8,1.3,1*20
$GPZDA,120044.00,01,08,2021,-7,00*77
$GPGGA,120045,2302.73363,N,11300.00000,E,3,44,0.76,57.54,M,-7.54,M,,*59
$GPRMC,120045,A,2302.73363,N,11300.00000,E,161.985,0.000,010821,0.000,E,A,V*69
$GPVTG,0.000,T,0.000,M,161.985,N,299.996,K*48
$GPGSV,11,1,11,3,7,280,60,5,12,128,60,6,19,286,61,16,31,325,61,1*55
$GPGSV,11,2,11,18,29,139,61,21,74,34,62,22,15,172,60,24,28,39,61,1*5C
$GPGSV,11,3,11,29,27,49,61,30,34,117,0,31,53,235,61,3,7,280,60,5*5B
$GPGSV,11,4,11,5,12,128,60,6,19,286,61,16,31,325,61,18,29,139,61,5*52
$GPGSV,11,5,11,21,74,34,62,22,15,172,60,24,28,39,61,29,27,49,61,5*65
$GPGSV,11,6,11,30,34,117,0,31,53,235,61,3,7,280,60,5,12,128,60,6*52
$GPGSV,11,7,11,6,19,286,61,16,31,325,61,18,29,139,61,21,74,34,62,6*5A
$GPGSV,11,8,11,22,15,172,60,24,28,39,61,29,27,49,61,30,34,117,0,6*6B
$GPGSV,11,9,11,31,53,235,61,3,7,280,60,5,12,128,60,6,19,286,61,7*5A
$GPGSV,11,10,11,16,31,325,61,18,29,139,61,21,74,34,62,22,15,172,60,7*5E
$GPGSV,11,11,11,24,28,39,61,29,27,49,61,30,34,117,0,31,53,235,61,7*53
$GPGSA,A,3,03,05,06,16,18,21,22,24,29,30,31,,1.5,0.8,1.3,1*20
$GPZDA,120045.00,01,08,2021,-7,00*76
$GPGGA,120046,2302.77878,N,11300.00000,E,3,44,0.76,57.54,M,-7.54,M,,*5F
$GPRMC,120046,A,2302.77878,N,11300.00000,E,161.985,0.000,010821,0.000,E,A,V*6F
$GPVTG,0.000,T,0.000,M,161.985,N,299.996,K*48
$GPGSV,11,1,11,3,7,280,60,5,12,128,60,6,19,286,61,16,31,325,61,1*55
$GPGSV,11,2,11,18,29,139,61,21,74,34,62,22,15,172,60,24,28,39,61,1*5C
$GPGSV,11,3,11,29,27,49,61,30,34,117,0,31,53,235,61,3,7,280,60,5*5B
$GPGSV,11,4,11,5,12,128,60,6,19,286,61,16,31,325,61,18,29,139,61,5*52
$GPGSV,11,5,11,21,74,34,62,22,15,172,60,24,28,39,61,29,27,49,61,5*65
$GPGSV,11,6,11,30,34,117,0,31,53,235,61,3,7,280,60,5,12,128,60,6*52
$GPGSV,11,7,11,6,19,286,61,16,31,325,61,18,29,139,61,21,74,34,62,6*5A
$GPGSV,11,8,11,22,15,172,60,24,28,39,61,29,27,49,61,30,34,117,0,6*6B
$GPGSV,11,9,11,31,53,235,61,3,7,280,60,5,12,128,60,6,19,286,61,7*5A
$GPGSV,11,10,11,16,31,325,61,18,29,139,61,21,74,34,62,22,15,172,60,7*5E
$GPGSV,11,11,11,24,28,39,61,29,27,49,61,30,34,117,0,31,53,235,61,7*53
$GPGSA,A,3,03,05,06,16,18,21,22,24,29,30,31,,1.5,0.8,1.3,1*20
$GPZDA,120046.00,01,08,2021,-7,00*75
$GPGGA,120047,2302.82393,N,11300.00000,E,3,44,0.76,57.54,M,-7.54,M,,*5A
$GPRMC,120047,A,2302.82393,N,11300.00000,E,161.985,360.000,010821,0.000,E,A,V*6F
$GPVTG,360.000,T,360.000,M,161.985,N,299.996,K*48
$GPGSV,11,1,11,3,7,280,60,5,12,128,60,6,19,286,61,16,31,325,61,1*55
$GPGSV,11,2,11,18,29,139,61,21,74,34,62,22,15,172,60,24,28,39,61,1*5C
$GPGSV,11,3,11,29,27,49,61,30,34,117,0,31,53,235,61,3,7,280,60,5*5B
$GPGSV,11,4,11,5,12,128,60,6,19,286,61,16,31,325,61,18,29,139,61,5*52
$GPGSV,11,5,11,21,74,34,62,22,15,172,60,24,28,39,61,29,27,49,61,5*65
$GPGSV,11,6,11,30,34,117,0,31,53,235,61,3,7,280,60,5,12,128,60,6*52
$GPGSV,11,7,11,6,19,286,61,16,31,325,61,18,29,139,61,21,74,34,62,6*5A
$GPGSV,11,8,11,22,15,172,60,24,28,39,61,29,27,49,61,30,34,117,0,6*6B
$GPGSV,11,9,11,31,53,235,61,3,7,280,60,5,12,128,60,6,19,286,61,7*5A
$GPGSV,11,10,11,16,31,325,61,18,29,139,61,21,74,34,62,22,15,172,60,7*5E
$GPGSV,11,11,11,24,28,39,61,29,27,49,61,30,34,117,0,31,53,235,61,7*53
$GPGSA,A,3,03,05,06,16,18,21,22,24,29,30,31,,1.5,0.8,1.3,1*20
$GPZDA,120047.00,01,08,2021,-7,00*74
$GPGGA,120048,2302.86907,N,11300.00000,E,3,44,0.76,57.54,M,-7.54,M,,*56
$GPRMC,120048,A,2302.86907,N,11300.00000,E,161.985,0.000,010821,0.000,E,A,V*66
$GPVTG,0.000,T,0.000,M,161.985,N,299.996,K*48
$GPGSV,11,1,11,3,7,280,60,5,11,128,60,6,20,286,61,16,31,325,61,1*5C
$GPGSV,11,2,11,18,29,139,61,21,74,34,62,22,15,172,60,24,28,39,61,1*5C
$GPGSV,11,3,11,29,27,49,61,30,34,117,0,31,53,235,61,3,7,280,60,5*5B
$GPGSV,11,4,11,5,11,128,60,6,20,286,61,16,31,325,61,18,29,139,61,5*5B
$GPGSV,11,5,11,21,74,34,62,22,15,172,60,24,28,39,61,29,27,49,61,5*65
$GPGSV,11,6,11,30,34,117,0,31,53,235,61,3,7,280,60,5,11,128,60,6*51
$GPGSV,11,7,11,6,20,286,61,16,31,325,61,18,29,139,61,21,74,34,62,6*50
$GPGSV,11,8,11,22,15,172,60,24,28,39,61,29,27,49,61,30,34,117,0,6*6B
$GPGSV,11,9,11,31,53,235,61,3,7,280,60,5,11,128,60,6,20,286,61,7*53
$GPGSV,11,10,11,16,31,325,61,18,29,139,61,21,74,34,62,22,15,172,60,7*5E
$GPGSV,11,11,11,24,28,39,61,29,27,49,61,30,34,117,0,31,53,235,61,7*53
$GPGSA,A,3,03,05,06,16,18,21,22,24,29,30,31,,1.5,0.8,1.3,1*20
$GPZDA,120048.00,01,08,2021,-7,00*7B
$GPGGA,120049,2302.91422,N,11300.00000,E,3,44,0.76,57.54,M,-7.54,M,,*5B
$GPRMC,120049,A,2302.91422,N,11300.00000,E,161.985,0.000,010821,0.000,E,A,V*6B
$GPVTG,0.000,T,0.000,M,161.985,N,299.996,K*48
$GPGSV,11,1,11,3,7,280,60,5,11,128,60,6,20,286,61,16,31,325,61,1*5C
$GPGSV,11,2,11,18,29,139,61,21,74,34,62,22,15,172,60,24,28,39,61,1*5C
$GPGSV,11,3,11,29,27,49,61,30,34,117,0,31,53,235,61,3,7,280,60,5*5B
$GPGSV,11,4,11,5,11,128,60,6,20,286,61,16,31,325,61,18,29,139,61,5*5B
$GPGSV,11,5,11,21,74,34,62,22,15,172,60,24,28,39,61,29,27,49,61,5*65
$GPGSV,11,6,11,30,34,117,0,31,53,235,61,3,7,280,60,5,11,128,60,6*51
$GPGSV,11,7,11,6,20,286,61,16,31,325,61,18,29,139,61,21,74,34,62,6*50
$GPGSV,11,8,11,22,15,172,60,24,28,39,61,29,27,49,61,30,34,117,0,6*6B
$GPGSV,11,9,11,31,53,235,61,3,7,280,60,5,11,128,60,6,20,286,61,7*53
$GPGSV,11,10,11,16,31,325,61,18,29,139,61,21,74,34,62,22,15,172,60,7*5E
$GPGSV,11,11,11,24,28,39,61,29,27,49,61,30,34,117,0,31,53,235,61,7*53
$GPGSA,A,3,03,05,06,16,18,21,22,24,29,30,31,,1.5,0.8,1.3,1*20
$GPZDA,120049.00,01,08,2021,-7,00*7A
$GPGGA,120050,2302.95937,N,11300.00000,E,3,44,0.76,57.54,M,-7.54,M,,*5E
