=~=~=~=~=~=~=~=~=~=~=~= PuTTY log 2021.09.06 12:51:41 =~=~=~=~=~=~=~=~=~=~=~=
$GNGGA,002159.000,3000.0009,N,12000.0010,E,1,3,6.97,-6.5,M,7.0,M,,*57
$GPGSA,A,2,,,,,,,,,,,,,7.05,6.97,1.00*08
$GLGSA,A,2,,,,,,,,,,,,,7.05,6.97,1.00*14
$BDGSA,A,2,06,09,13,,,,,,,,,,7.05,6.97,1.00*14
$GPGSV,4,1,15,07,79,045,,25,58,038,,08,57,213,,04,46,233,*7F
$GPGSV,4,2,15,13,44,042,,02,36,289,,27,26,224,,23,22,065,*7C
$GPGSV,4,3,15,20,16,128,,10,08,314,,28,06,178,,193,,,*72
$GPGSV,4,4,15,194,,,,195,,,,34,,,*7B
$GLGSV,2,1,8,77,66,316,,87,59,323,,86,26,031,,88,26,253,*53
$GLGSV,2,2,8,78,15,331,,71,05,073,,75,02,156,,72,01,121,*54
$BDGSV,3,1,9,02,50,173,30.8,13,40,198,31.7,01,38,122,30.4,04,37,126,30.7*54
$BDGSV,3,2,9,09,35,282,31.4,06,32,215,31.1,11,24,124,,12,10,053,*56
$BDGSV,3,3,9,14,02,164,*65
$GNRMC,002159.000,A,3000.0009,N,12000.0010,E,0.000,166.36,230721,,,A*46
$GNVTG,166.36,T,,M,0.000,N,0.000,K,A*27
$PMTKGEPH,0,0,0,0,0,0,0,0,0,0,0,0,0,0,0,0,0,0,0,0,0,0,0,0,0,0,0,0,0,0,0,0,0*04
$PMTKGALM,31,1,1,1,1,1,1,1,1,1,1,1,1,1,1,1,1,1,1,1,1,1,1,1,1,1,1,1,1,1,1,1,0*2A
$GNACCURACY,5.6,179.9,3.0,36.4*23
$PMTKAGC,002159.000,2715,2886,5780,5779,0,3,0*66
$PMTKAG2,002159.000,5,0118,0,0,0,0,0,0,0,0,0,0,0,0*36
$GNGGA,002200.000,3000.0014,N,12000.0020,E,1,3,6.97,-6.5,M,7.0,M,,*57
$GPGSA,A,2,,,,,,,,,,,,,7.05,6.97,1.00*08
$GLGSA,A,2,,,,,,,,,,,,,7.05,6.97,1.00*14
$BDGSA,A,2,06,09,13,,,,,,,,,,7.05,6.97,1.00*14
$GPGSV,4,1,15,07,79,045,,25,58,038,,08,57,213,,04,46,233,*7F
$GPGSV,4,2,15,13,44,042,,02,36,289,,27,26,224,,23,22,065,*7C
$GPGSV,4,3,15,20,16,128,,10,08,314,,28,06,178,,193,,,*72
$GPGSV,4,4,15,194,,,,195,,,,34,,,*7B
$GLGSV,2,1,8,77,66,316,,87,59,323,,86,26,031,,88,26,253,*53
$GLGSV,2,2,8,78,15,331,,71,05,073,,75,02,156,,72,01,121,*54
$BDGSV,3,1,9,02,50,173,30.7,13,40,198,31.6,01,38,122,30.3,04,37,126,30.6*5C
$BDGSV,3,2,9,09,35,282,31.4,06,32,215,31.1,11,24,124,,12,10,053,*56
$BDGSV,3,3,9,14,02,164,*65
$GNRMC,002200.000,A,3000.0014,N,12000.0020,E,0.000,166.36,230721,,,A*46
$GNVTG,166.36,T,,M,0.000,N,0.000,K,A*27
$PMTKGEPH,0,0,0,0,0,0,0,0,0,0,0,0,0,0,0,0,0,0,0,0,0,0,0,0,0,0,0,0,0,0,0,0,0*04
$PMTKGALM,31,1,1,1,1,1,1,1,1,1,1,1,1,1,1,1,1,1,1,1,1,1,1,1,1,1,1,1,1,1,1,1,0*2A
$GNACCURACY,5.6,166.0,3.0,38.4*2A
$PMTKAGC,002200.000,2888,2792,5731,5716,0,3,0*6B
$PMTKAG2,002200.000,5,0118,0,0,0,0,0,0,0,0,0,0,0,0*39
$GNGGA,002201.000,3000.0010,N,12000.0014,E,1,3,6.97,-6.5,M,7.0,M,,*55
$GPGSA,A,2,,,,,,,,,,,,,7.05,6.97,1.00*08
$GLGSA,A,2,,,,,,,,,,,,,7.05,6.97,1.00*14
$BDGSA,A,2,06,09,13,,,,,,,,,,7.05,6.97,1.00*14
$GPGSV,4,1,15,07,79,045,,25,57,038,,08,57,213,,04,46,233,*70
$GPGSV,4,2,15,13,44,042,,02,36,289,,27,26,224,,23,22,065,*7C
$GPGSV,4,3,15,20,16,128,,10,08,314,,28,06,178,,193,,,*72
$GPGSV,4,4,15,194,,,,195,,,,34,,,*7B
$GLGSV,2,1,8,77,66,316,,87,59,323,,86,26,031,,88,26,253,*53
$GLGSV,2,2,8,78,15,331,,71,05,073,,75,02,156,,72,01,121,*54
$BDGSV,3,1,9,02,50,173,30.6,13,40,198,31.6,01,38,122,30.3,04,37,126,30.6*5D
$BDGSV,3,2,9,09,35,282,31.4,06,32,215,31.1,11,24,124,,12,10,053,*56
$BDGSV,3,3,9,14,02,164,*65
$GNRMC,002201.000,A,3000.0010,N,12000.0014,E,0.000,166.36,230721,,,A*44
$GNVTG,166.36,T,,M,0.000,N,0.000,K,A*27
$PMTKGEPH,0,0,0,0,0,0,0,0,0,0,0,0,0,0,0,0,0,0,0,0,0,0,0,0,0,0,0,0,0,0,0,0,0*04
$PMTKGALM,31,1,1,1,1,1,1,1,1,1,1,1,1,1,1,1,1,1,1,1,1,1,1,1,1,1,1,1,1,1,1,1,0*2A
$GNACCURACY,5.6,164.0,3.0,36.4*26
$PMTKAGC,002201.000,2714,2860,5811,5806,0,3,0*61
$PMTKAG2,002201.000,5,0118,0,0,0,0,0,0,0,0,0,0,0,0*38
$GNGGA,002202.000,3000.0009,N,12000.0015,E,1,3,6.97,-6.5,M,7.0,M,,*5F
$GPGSA,A,2,,,,,,,,,,,,,7.05,6.97,1.00*08
$GLGSA,A,2,,,,,,,,,,,,,7.05,6.97,1.00*14
$BDGSA,A,2,06,09,13,,,,,,,,,,7.05,6.97,1.00*14
$GPGSV,4,1,15,07,79,045,,25,57,038,,08,57,213,,04,46,233,*70
$GPGSV,4,2,15,13,44,042,,02,36,289,,27,26,224,,23,22,065,*7C
$GPGSV,4,3,15,20,16,128,,10,08,314,,28,06,178,,193,,,*72
$GPGSV,4,4,15,194,,,,195,,,,34,,,*7B
$GLGSV,2,1,8,77,66,316,,87,59,323,,86,26,031,,88,26,253,*53
$GLGSV,2,2,8,78,15,331,,71,05,073,,75,02,156,,72,01,121,*54
$BDGSV,3,1,9,02,50,173,30.6,13,40,198,31.6,01,38,122,30.4,04,37,126,30.6*5A
$BDGSV,3,2,9,09,35,282,31.3,06,32,215,31.1,11,24,124,,12,10,053,*51
$BDGSV,3,3,9,14,02,164,*65
$GNRMC,002202.000,A,3000.0009,N,12000.0015,E,0.000,166.36,230721,,,A*4E
$GNVTG,166.36,T,,M,0.000,N,0.000,K,A*27
$PMTKGEPH,0,0,0,0,0,0,0,0,0,0,0,0,0,0,0,0,0,0,0,0,0,0,0,0,0,0,0,0,0,0,0,0,0*04
$PMTKGALM,31,1,1,1,1,1,1,1,1,1,1,1,1,1,1,1,1,1,1,1,1,1,1,1,1,1,1,1,1,1,1,1,0*2A
$GNACCURACY,5.6,169.1,2.9,36.9*2F
$PMTKAGC,002202.000,2684,2888,5744,5874,0,3,0*66
$PMTKAG2,002202.000,5,0118,0,0,0,0,0,0,0,0,0,0,0,0*3B
$GNGGA,002203.000,3000.0008,N,12000.0014,E,1,3,6.99,-6.5,M,7.0,M,,*50
$GPGSA,A,2,,,,,,,,,,,,,7.06,6.99,1.00*05
$GLGSA,A,2,,,,,,,,,,,,,7.06,6.99,1.00*19
$BDGSA,A,2,06,09,13,,,,,,,,,,7.06,6.99,1.00*19
$GPGSV,4,1,15,07,79,045,,25,57,038,,08,57,213,,04,46,233,*70
$GPGSV,4,2,15,13,44,042,,02,36,289,,27,27,224,,23,22,065,*7D
$GPGSV,4,3,15,20,16,128,,10,08,314,,28,06,178,,193,,,*72
$GPGSV,4,4,15,194,,,,195,,,,34,,,*7B
$GLGSV,2,1,8,77,66,316,,87,59,323,,86,26,031,,88,26,253,*53
$GLGSV,2,2,8,78,15,331,,71,05,073,,75,02,156,,72,01,121,*54
$BDGSV,3,1,9,02,50,173,30.5,13,40,198,31.6,01,38,122,30.3,04,37,126,30.6*5E
$BDGSV,3,2,9,09,35,282,31.4,06,32,215,31.1,11,24,124,,12,10,053,*56
$BDGSV,3,3,9,14,02,164,*65
$GNRMC,002203.000,A,3000.0008,N,12000.0014,E,0.000,166.36,230721,,,A*4F
$GNVTG,166.36,T,,M,0.000,N,0.000,K,A*27
$PMTKGEPH,0,0,0,0,0,0,0,0,0,0,0,0,0,0,0,0,0,0,0,0,0,0,0,0,0,0,0,0,0,0,0,0,0*04
$PMTKGALM,31,1,1,1,1,1,1,1,1,1,1,1,1,1,1,1,1,1,1,1,1,1,1,1,1,1,1,1,1,1,1,1,0*2A
$GNACCURACY,5.6,179.9,3.1,38.0*28
$PMTKAGC,002203.000,2689,2779,5780,5704,0,3,0*6B
$PMTKAG2,002203.000,5,0118,0,0,0,0,0,0,0,0,0,0,0,0*3A
$GNGGA,002204.000,3000.0007,N,12000.0012,E,1,3,6.97,-6.5,M,7.0,M,,*50
$GPGSA,A,2,,,,,,,,,,,,,7.04,6.97,1.00*09
$GLGSA,A,2,,,,,,,,,,,,,7.04,6.97,1.00*15
$BDGSA,A,2,06,09,13,,,,,,,,,,7.04,6.97,1.00*15
$GPGSV,4,1,15,07,79,045,,25,57,038,,08,57,213,,04,46,233,*70
$GPGSV,4,2,15,13,44,042,,02,36,289,,27,27,224,,23,22,065,*7D
$GPGSV,4,3,15,20,16,128,,10,08,314,,28,07,177,,193,,,*7C
$GPGSV,4,4,15,194,,,,195,,,,35,,,*7A
$GLGSV,2,1,8,77,66,316,,87,59,323,,86,26,031,,88,26,253,*53
$GLGSV,2,2,8,78,15,331,,71,05,073,,75,02,156,,72,01,121,*54
$BDGSV,3,1,9,02,50,173,30.5,13,40,198,31.6,01,38,122,30.4,04,37,126,30.6*59
$BDGSV,3,2,9,09,35,282,31.3,06,32,215,31.1,11,24,124,,12,10,053,*51
$BDGSV,3,3,9,14,02,164,*65
$GNRMC,002204.000,A,3000.0007,N,12000.0012,E,0.000,166.36,230721,,,A*41
$GNVTG,166.36,T,,M,0.000,N,0.000,K,A*27
$PMTKGEPH,0,0,0,0,0,0,0,0,0,0,0,0,0,0,0,0,0,0,0,0,0,0,0,0,0,0,0,0,0,0,0,0,0*04
$PMTKGALM,31,1,1,1,1,1,1,1,1,1,1,1,1,1,1,1,1,1,1,1,1,1,1,1,1,1,1,1,1,1,1,1,0*2A
$GNACCURACY,5.6,179.9,3.0,36.4*23
$PMTKAGC,002204.000,2644,2687,5733,5864,0,3,0*6C
$PMTKAG2,002204.000,5,0118,0,0,0,0,0,0,0,0,0,0,0,0*3D
$GNGGA,002205.000,3000.0011,N,12000.0018,E,1,3,6.97,-6.5,M,7.0,M,,*5C
$GPGSA,A,2,,,,,,,,,,,,,7.05,6.97,1.00*08
$GLGSA,A,2,,,,,,,,,,,,,7.05,6.97,1.00*14
$BDGSA,A,2,06,09,13,,,,,,,,,,7.05,6.97,1.00*14
$GPGSV,4,1,15,07,79,045,,25,57,038,,08,57,213,,04,46,233,*70
$GPGSV,4,2,15,13,44,042,,02,36,289,,27,27,224,,23,22,065,*7D
$GPGSV,4,3,15,20,16,128,,10,08,314,,28,07,177,,193,,,*7C
$GPGSV,4,4,15,194,,,,195,,,,35,,,*7A
$GLGSV,2,1,8,77,66,316,,87,59,323,,86,26,031,,88,26,253,*53
$GLGSV,2,2,8,78,15,331,,71,05,073,,75,02,156,,72,01,121,*54
$BDGSV,3,1,9,02,50,173,30.5,13,40,198,31.6,01,38,122,30.4,04,37,126,30.6*59
$BDGSV,3,2,9,09,35,282,31.3,06,32,215,31.1,11,24,124,,12,10,053,*51
$BDGSV,3,3,9,14,02,164,*65
$GNRMC,002205.000,A,3000.0011,N,12000.0018,E,0.000,166.36,230721,,,A*4D
$GNVTG,166.36,T,,M,0.000,N,0.000,K,A*27
$PMTKGEPH,0,0,0,0,0,0,0,0,0,0,0,0,0,0,0,0,0,0,0,0,0,0,0,0,0,0,0,0,0,0,0,0,0*04
$PMTKGALM,31,1,1,1,1,1,1,1,1,1,1,1,1,1,1,1,1,1,1,1,1,1,1,1,1,1,1,1,1,1,1,1,0*2A
$GNACCURACY,5.6,179.9,3.0,36.4*23
$PMTKAGC,002205.000,2847,2648,5719,5810,0,3,0*68
$PMTKAG2,002205.000,5,0118,0,0,0,0,0,0,0,0,0,0,0,0*3C
$GNGGA,002206.000,3000.0015,N,12000.0027,E,1,3,6.99,-6.5,M,7.0,M,,*59
$GPGSA,A,2,,,,,,,,,,,,,7.06,6.99,1.00*05
$GLGSA,A,2,,,,,,,,,,,,,7.06,6.99,1.00*19
$BDGSA,A,2,06,09,13,,,,,,,,,,7.06,6.99,1.00*19
$GPGSV,4,1,15,07,79,045,,25,57,038,,08,57,213,,04,46,233,*70
$GPGSV,4,2,15,13,44,042,,02,36,289,,27,27,224,,23,22,065,*7D
$GPGSV,4,3,15,20,16,128,,10,08,314,,28,07,177,,193,,,*7C
$GPGSV,4,4,15,194,,,,195,,,,35,,,*7A
$GLGSV,2,1,8,77,66,316,,87,59,323,,86,26,031,,88,26,253,*53
$GLGSV,2,2,8,78,15,331,,71,05,073,,75,02,156,,72,01,121,*54
$BDGSV,3,1,9,02,50,173,30.5,13,40,198,31.5,01,38,122,30.3,04,37,126,30.6*5D
$BDGSV,3,2,9,09,35,282,31.3,06,32,215,31.1,11,24,124,,12,10,053,*51
$BDGSV,3,3,9,14,02,164,*65
$GNRMC,002206.000,A,3000.0015,N,12000.0027,E,0.000,166.36,230721,,,A*46
$GNVTG,166.36,T,,M,0.000,N,0.000,K,A*27
$PMTKGEPH,0,0,0,0,0,0,0,0,0,0,0,0,0,0,0,0,0,0,0,0,0,0,0,0,0,0,0,0,0,0,0,0,0*04
$PMTKGALM,31,1,1,1,1,1,1,1,1,1,1,1,1,1,1,1,1,1,1,1,1,1,1,1,1,1,1,1,1,1,1,1,0*2A
$GNACCURACY,5.6,167.9,3.0,36.5*2D
$PMTKAGC,002206.000,2990,2716,5776,5734,0,3,0*6A
$PMTKAG2,002206.000,5,0118,0,0,0,0,0,0,0,0,0,0,0,0*3F
$GNGGA,002207.000,3000.0016,N,12000.0029,E,1,3,6.98,-6.4,M,7.0,M,,*55
$GPGSA,A,2,,,,,,,,,,,,,7.05,6.98,1.00*07
$GLGSA,A,2,,,,,,,,,,,,,7.05,6.98,1.00*1B
$BDGSA,A,2,06,09,13,,,,,,,,,,7.05,6.98,1.00*1B
$GPGSV,4,1,15,07,79,045,,25,57,038,,08,57,213,,04,46,233,*70
$GPGSV,4,2,15,13,44,042,,02,36,289,,27,27,224,,23,22,065,*7D
$GPGSV,4,3,15,20,16,128,,10,08,314,,28,07,177,,193,,,*7C
$GPGSV,4,4,15,194,,,,195,,,,35,,,*7A
$GLGSV,2,1,8,77,66,316,,87,59,323,,86,26,031,,88,26,253,*53
$GLGSV,2,2,8,78,15,331,,71,05,073,,75,02,156,,72,01,121,*54
$BDGSV,3,1,9,02,50,173,30.6,13,40,198,31.6,01,38,122,30.3,04,37,126,30.5*5E
$BDGSV,3,2,9,09,35,282,31.2,06,32,215,31.1,11,24,124,,12,10,053,*50
$BDGSV,3,3,9,14,02,164,*65
$GNRMC,002207.000,A,3000.0016,N,12000.0029,E,0.000,166.36,230721,,,A*4A
$GNVTG,166.36,T,,M,0.000,N,0.000,K,A*27
$PMTKGEPH,0,0,0,0,0,0,0,0,0,0,0,0,0,0,0,0,0,0,0,0,0,0,0,0,0,0,0,0,0,0,0,0,0*04
$PMTKGALM,31,1,1,1,1,1,1,1,1,1,1,1,1,1,1,1,1,1,1,1,1,1,1,1,1,1,1,1,1,1,1,1,0*2A
$GNACCURACY,5.6,179.9,3.0,36.5*22
$PMTKAGC,002207.000,2713,2701,5869,5805,0,3,0*64
$PMTKAG2,002207.000,5,0118,0,0,0,0,0,0,0,0,0,0,0,0*3E
$GNGGA,002208.000,3000.0014,N,12000.0025,E,1,3,6.98,-6.4,M,7.0,M,,*54
$GPGSA,A,2,,,,,,,,,,,,,7.05,6.98,1.00*07
$GLGSA,A,2,,,,,,,,,,,,,7.05,6.98,1.00*1B
$BDGSA,A,2,06,09,13,,,,,,,,,,7.05,6.98,1.00*1B
$GPGSV,4,1,15,07,79,045,,25,57,038,,08,57,213,,04,46,233,*70
$GPGSV,4,2,15,13,44,042,,02,36,289,,27,27,224,,23,22,065,*7D
$GPGSV,4,3,15,20,16,128,,10,08,314,,28,07,177,,193,,,*7C
$GPGSV,4,4,15,194,,,,195,,,,35,,,*7A
$GLGSV,2,1,8,77,66,316,,87,59,323,,86,26,031,,88,26,253,*53
$GLGSV,2,2,8,78,15,331,,71,05,073,,75,02,156,,72,01,121,*54
$BDGSV,3,1,9,02,50,173,30.6,13,40,198,31.6,01,38,122,30.3,04,37,126,30.6*5D
$BDGSV,3,2,9,09,35,282,31.2,06,32,215,31.1,11,24,124,,12,10,053,*50
$BDGSV,3,3,9,14,02,164,*65
$GNRMC,002208.000,A,3000.0014,N,12000.0025,E,0.000,166.36,230721,,,A*4B
$GNVTG,166.36,T,,M,0.000,N,0.000,K,A*27
$PMTKGEPH,0,0,0,0,0,0,0,0,0,0,0,0,0,0,0,0,0,0,0,0,0,0,0,0,0,0,0,0,0,0,0,0,0*04
$PMTKGALM,31,1,1,1,1,1,1,1,1,1,1,1,1,1,1,1,1,1,1,1,1,1,1,1,1,1,1,1,1,1,1,1,0*2A
$GNACCURACY,5.6,179.9,3.0,36.5*22
$PMTKAGC,002208.000,2772,2774,5704,5757,0,3,0*62
$PMTKAG2,002208.000,5,0118,0,0,0,0,0,0,0,0,0,0,0,0*31
$GNGGA,002209.000,3000.0023,N,12000.0041,E,1,3,6.98,-6.4,M,7.0,M,,*53
$GPGSA,A,2,,,,,,,,,,,,,7.05,6.98,1.00*07
$GLGSA,A,2,,,,,,,,,,,,,7.05,6.98,1.00*1B
$BDGSA,A,2,06,09,13,,,,,,,,,,7.05,6.98,1.00*1B
$GPGSV,4,1,15,07,79,045,,25,57,038,,08,57,213,,04,46,233,*70
$GPGSV,4,2,15,13,44,042,,02,36,289,,27,27,224,,23,22,065,*7D
$GPGSV,4,3,15,20,16,128,,10,08,314,,28,07,177,,193,,,*7C
$GPGSV,4,4,15,194,,,,195,,,,35,,,*7A
$GLGSV,2,1,8,77,66,316,,87,59,323,,86,26,031,,88,26,253,*53
$GLGSV,2,2,8,78,15,331,,71,05,073,,75,02,156,,72,01,121,*54
$BDGSV,3,1,9,02,50,173,30.7,13,40,198,31.6,01,38,122,30.3,04,37,126,30.5*5F
$BDGSV,3,2,9,09,35,282,31.2,06,32,215,31.0,11,24,124,,12,10,053,*51
$BDGSV,3,3,9,14,02,164,*65
$GNRMC,002209.000,A,3000.0023,N,12000.0041,E,0.000,166.36,230721,,,A*4C
$GNVTG,166.36,T,,M,0.000,N,0.000,K,A*27
$PMTKGEPH,0,0,0,0,0,0,0,0,0,0,0,0,0,0,0,0,0,0,0,0,0,0,0,0,0,0,0,0,0,0,0,0,0*04
$PMTKGALM,31,1,1,1,1,1,1,1,1,1,1,1,1,1,1,1,1,1,1,1,1,1,1,1,1,1,1,1,1,1,1,1,0*2A
$GNACCURACY,5.6,124.6,3.0,36.5*25
$PMTKAGC,002209.000,2880,2778,5727,5821,0,3,0*62
$PMTKAG2,002209.000,5,0118,0,0,0,0,0,0,0,0,0,0,0,0*30
$GNGGA,002210.000,3000.0021,N,12000.0043,E,1,3,6.98,-6.4,M,7.0,M,,*5B
$GPGSA,A,2,,,,,,,,,,,,,7.05,6.98,1.00*07
$GLGSA,A,2,,,,,,,,,,,,,7.05,6.98,1.00*1B
$BDGSA,A,2,06,09,13,,,,,,,,,,7.05,6.98,1.00*1B
$GPGSV,4,1,15,07,79,045,,25,57,038,,08,57,213,,04,46,233,*70
$GPGSV,4,2,15,13,44,042,,02,36,289,,27,27,224,,23,22,065,*7D
$GPGSV,4,3,15,20,16,128,,10,08,314,,28,07,177,,193,,,*7C
$GPGSV,4,4,15,194,,,,195,,,,36,,,*79
$GLGSV,2,1,8,77,66,316,,87,59,323,,86,26,031,,88,26,253,*53
$GLGSV,2,2,8,78,15,331,,71,05,073,,75,02,156,,72,01,121,*54
$BDGSV,3,1,9,02,50,173,30.6,13,40,198,31.7,01,38,122,30.2,04,37,126,30.6*5D
$BDGSV,3,2,9,09,35,282,31.3,06,32,215,31.0,11,24,124,,12,10,053,*50
$BDGSV,3,3,9,14,02,164,*65
$GNRMC,002210.000,A,3000.0021,N,12000.0043,E,0.000,166.36,230721,,,A*44
$GNVTG,166.36,T,,M,0.000,N,0.000,K,A*27
$PMTKGEPH,0,0,0,0,0,0,0,0,0,0,0,0,0,0,0,0,0,0,0,0,0,0,0,0,0,0,0,0,0,0,0,0,0*04
$PMTKGALM,31,1,1,1,1,1,1,1,1,1,1,1,1,1,1,1,1,1,1,1,1,1,1,1,1,1,1,1,1,1,1,1,0*2A
$GNACCURACY,5.6,115.1,3.0,38.5*2E
$PMTKAGC,002210.000,2848,2653,5858,5763,0,3,0*68
$PMTKAG2,002210.000,5,0118,0,0,0,0,0,0,0,0,0,0,0,0*38
$GNGGA,002211.000,3000.0020,N,12000.0043,E,1,3,6.97,-6.4,M,7.0,M,,*54
$GPGSA,A,2,,,,,,,,,,,,,7.04,6.97,1.00*09
$GLGSA,A,2,,,,,,,,,,,,,7.04,6.97,1.00*15
$BDGSA,A,2,06,09,13,,,,,,,,,,7.04,6.97,1.00*15
$GPGSV,4,1,15,07,79,045,,25,57,038,,08,57,213,,04,46,233,*70
$GPGSV,4,2,15,13,44,042,,02,36,289,,27,27,224,,23,22,065,*7D
$GPGSV,4,3,15,20,16,128,,10,08,314,,28,07,177,,193,,,*7C
$GPGSV,4,4,15,194,,,,195,,,,36,,,*79
$GLGSV,2,1,8,77,66,316,,87,59,323,,86,26,031,,88,26,253,*53
$GLGSV,2,2,8,78,15,331,,71,05,073,,75,02,156,,72,01,121,*54
$BDGSV,3,1,9,02,50,173,30.7,13,40,198,31.7,01,38,122,30.3,04,37,126,30.6*5D
$BDGSV,3,2,9,09,35,282,31.3,06,32,215,31.0,11,24,124,,12,10,053,*50
$BDGSV,3,3,9,14,02,164,*65
$GNRMC,002211.000,A,3000.0020,N,12000.0043,E,0.000,166.36,230721,,,A*44
$GNVTG,166.36,T,,M,0.000,N,0.000,K,A*27
$PMTKGEPH,0,0,0,0,0,0,0,0,0,0,0,0,0,0,0,0,0,0,0,0,0,0,0,0,0,0,0,0,0,0,0,0,0*04
$PMTKGALM,31,1,1,1,1,1,1,1,1,1,1,1,1,1,1,1,1,1,1,1,1,1,1,1,1,1,1,1,1,1,1,1,0*2A
$GNACCURACY,5.6,128.3,3.0,36.5*2C
$PMTKAGC,002211.000,2830,2625,5799,5807,0,3,0*68
$PMTKAG2,002211.000,5,0118,0,0,0,0,0,0,0,0,0,0,0,0*39
$GNGGA,002212.000,3000.0023,N,12000.0052,E,1,3,6.97,-6.4,M,7.0,M,,*54
$GPGSA,A,2,,,,,,,,,,,,,7.04,6.97,1.00*09
$GLGSA,A,2,,,,,,,,,,,,,7.04,6.97,1.00*15
$BDGSA,A,2,06,09,13,,,,,,,,,,7.04,6.97,1.00*15
$GPGSV,4,1,15,07,79,045,,25,57,038,,08,57,213,,04,46,233,*70
$GPGSV,4,2,15,13,44,042,,02,36,289,,27,27,224,,23,22,065,*7D
$GPGSV,4,3,15,20,16,128,,10,08,314,,28,07,177,,193,,,*7C
$GPGSV,4,4,15,194,,,,195,,,,36,,,*79
$GLGSV,2,1,8,77,66,316,,87,59,323,,86,26,031,,88,26,253,*53
$GLGSV,2,2,8,78,15,331,,71,05,073,,75,02,156,,72,01,121,*54
$BDGSV,3,1,9,02,50,173,30.7,13,40,198,31.7,01,38,122,30.2,04,37,126,30.6*5C
$BDGSV,3,2,9,09,35,282,31.3,06,32,215,31.0,11,24,124,,12,10,053,*50
$BDGSV,3,3,9,14,02,164,*65
$GNRMC,002212.000,A,3000.0023,N,12000.0052,E,0.000,166.36,230721,,,A*44
$GNVTG,166.36,T,,M,0.000,N,0.000,K,A*27
$PMTKGEPH,0,0,0,0,0,0,0,0,0,0,0,0,0,0,0,0,0,0,0,0,0,0,0,0,0,0,0,0,0,0,0,0,0*04
$PMTKGALM,31,1,1,1,1,1,1,1,1,1,1,1,1,1,1,1,1,1,1,1,1,1,1,1,1,1,1,1,1,1,1,1,0*2A
$GNACCURACY,5.6,79.8,3.0,37.0*16
$PMTKAGC,002212.000,2701,2882,5788,5822,0,3,0*62
$PMTKAG2,002212.000,5,0118,0,0,0,0,0,0,0,0,0,0,0,0*3A
$GNGGA,002213.000,3000.0022,N,12000.0054,E,1,3,6.98,-6.4,M,7.0,M,,*5D
$GPGSA,A,2,,,,,,,,,,,,,7.05,6.98,1.00*07
$GLGSA,A,2,,,,,,,,,,,,,7.05,6.98,1.00*1B
$BDGSA,A,2,06,09,13,,,,,,,,,,7.05,6.98,1.00*1B
$GPGSV,4,1,15,07,79,045,,25,57,038,,08,57,213,,04,46,233,*70
$GPGSV,4,2,15,13,44,042,,02,36,289,,27,27,224,,23,22,065,*7D
$GPGSV,4,3,15,20,16,128,,10,08,314,,28,07,177,,193,,,*7C
$GPGSV,4,4,15,194,,,,195,,,,36,,,*79
$GLGSV,2,1,8,77,66,316,,87,59,323,,86,26,031,,88,26,253,*53
$GLGSV,2,2,8,78,15,331,,71,05,073,,75,02,156,,72,01,121,*54
$BDGSV,3,1,9,02,50,173,30.7,13,40,198,31.7,01,38,122,30.3,04,37,126,30.6*5D
$BDGSV,3,2,9,09,35,282,31.3,06,32,215,31.1,11,24,124,,12,10,053,*51
$BDGSV,3,3,9,14,02,164,*65
$GNRMC,002213.000,A,3000.0022,N,12000.0054,E,0.000,166.36,230721,,,A*42
$GNVTG,166.36,T,,M,0.000,N,0.000,K,A*27
$PMTKGEPH,0,0,0,0,0,0,0,0,0,0,0,0,0,0,0,0,0,0,0,0,0,0,0,0,0,0,0,0,0,0,0,0,0*04
$PMTKGALM,31,1,1,1,1,1,1,1,1,1,1,1,1,1,1,1,1,1,1,1,1,1,1,1,1,1,1,1,1,1,1,1,0*2A
$GNACCURACY,5.6,93.8,3.0,38.0*1D
$PMTKAGC,002213.000,2922,2757,5803,5810,0,3,0*66
$PMTKAG2,002213.000,5,0118,0,0,0,0,0,0,0,0,0,0,0,0*3B
$GNGGA,002214.000,3000.0020,N,12000.0055,E,1,3,6.97,-6.4,M,7.0,M,,*56
$GPGSA,A,2,,,,,,,,,,,,,7.04,6.97,1.00*09
$GLGSA,A,2,,,,,,,,,,,,,7.04,6.97,1.00*15
$BDGSA,A,2,06,09,13,,,,,,,,,,7.04,6.97,1.00*15
$GPGSV,4,1,15,07,79,045,,25,57,038,,08,57,213,,04,46,233,*70
$GPGSV,4,2,15,13,44,042,,02,36,289,,27,27,224,,23,22,065,*7D
$GPGSV,4,3,15,20,16,128,,10,08,314,,28,07,177,,193,,,*7C
$GPGSV,4,4,15,194,,,,195,,,,36,,,*79
$GLGSV,2,1,8,77,66,316,,87,59,323,,86,26,031,,88,26,253,*53
$GLGSV,2,2,8,78,15,331,,71,05,073,,75,02,156,,72,01,121,*54
$BDGSV,3,1,9,02,50,173,30.7,13,40,198,31.7,01,38,122,30.3,04,37,126,30.6*5D
$BDGSV,3,2,9,09,35,282,31.3,06,32,215,31.1,11,24,124,,12,10,053,*51
$BDGSV,3,3,9,14,02,164,*65
$GNRMC,002214.000,A,3000.0020,N,12000.0055,E,0.000,166.36,230721,,,A*46
$GNVTG,166.36,T,,M,0.000,N,0.000,K,A*27
$PMTKGEPH,0,0,0,0,0,0,0,0,0,0,0,0,0,0,0,0,0,0,0,0,0,0,0,0,0,0,0,0,0,0,0,0,0*04
$PMTKGALM,31,1,1,1,1,1,1,1,1,1,1,1,1,1,1,1,1,1,1,1,1,1,1,1,1,1,1,1,1,1,1,1,0*2A
$GNACCURACY,5.6,84.3,3.0,37.1*1E
$PMTKAGC,002214.000,2777,2849,5835,5723,0,3,0*65
$PMTKAG2,002214.000,5,0118,0,0,0,0,0,0,0,0,0,0,0,0*3C
$GNGGA,002215.000,3000.0022,N,12000.0057,E,1,3,6.97,-6.4,M,7.0,M,,*57
$GPGSA,A,2,,,,,,,,,,,,,7.05,6.97,1.00*08
$GLGSA,A,2,,,,,,,,,,,,,7.05,6.97,1.00*14
$BDGSA,A,2,06,09,13,,,,,,,,,,7.05,6.97,1.00*14
$GPGSV,4,1,15,07,79,045,,25,57,038,,08,57,213,,04,46,233,*70
$GPGSV,4,2,15,13,44,042,,02,36,289,,27,27,224,,23,22,065,*7D
$GPGSV,4,3,15,20,16,128,,10,08,314,,28,07,177,,193,,,*7C
$GPGSV,4,4,15,194,,,,195,,,,36,,,*79
$GLGSV,2,1,8,77,66,316,,87,59,323,,86,26,031,,88,26,253,*53
$GLGSV,2,2,8,78,15,331,,71,05,073,,75,02,156,,72,01,121,*54
$BDGSV,3,1,9,02,50,173,30.7,13,40,198,31.8,01,38,122,30.3,04,37,126,30.7*53
$BDGSV,3,2,9,09,35,282,31.3,06,32,215,31.1,11,24,124,,12,10,053,*51
$BDGSV,3,3,9,14,02,164,*65
$GNRMC,002215.000,A,3000.0022,N,12000.0057,E,0.000,166.36,230721,,,A*47
$GNVTG,166.36,T,,M,0.000,N,0.000,K,A*27
$PMTKGEPH,0,0,0,0,0,0,0,0,0,0,0,0,0,0,0,0,0,0,0,0,0,0,0,0,0,0,0,0,0,0,0,0,0*04
$PMTKGALM,31,1,1,1,1,1,1,1,1,1,1,1,1,1,1,1,1,1,1,1,1,1,1,1,1,1,1,1,1,1,1,1,0*2A
$GNACCURACY,5.6,145.7,3.0,38.1*29
$PMTKAGC,002215.000,2790,2754,5668,5798,0,3,0*68
$PMTKAG2,002215.000,5,0118,0,0,0,0,0,0,0,0,0,0,0,0*3D
$GNGGA,002216.000,3000.0020,N,12000.0052,E,1,3,6.98,-6.4,M,7.0,M,,*5C
$GPGSA,A,2,,,,,,,,,,,,,7.05,6.98,1.00*07
$GLGSA,A,2,,,,,,,,,,,,,7.05,6.98,1.00*1B
$BDGSA,A,2,06,09,13,,,,,,,,,,7.05,6.98,1.00*1B
$GPGSV,4,1,15,07,79,045,,25,57,038,,08,57,213,,04,46,233,*70
$GPGSV,4,2,15,13,44,042,,02,36,289,,27,27,224,,23,22,065,*7D
$GPGSV,4,3,15,20,16,128,,10,08,314,,28,07,177,,193,,,*7C
$GPGSV,4,4,15,194,,,,195,,,,38,,,*77
$GLGSV,2,1,8,77,66,316,,87,59,323,,86,26,031,,88,26,253,*53
$GLGSV,2,2,8,78,15,331,,71,05,073,,75,02,156,,72,01,121,*54
$BDGSV,3,1,9,02,50,173,30.7,13,40,198,31.7,01,38,122,30.3,04,37,126,30.6*5D
$BDGSV,3,2,9,09,35,282,31.2,06,32,215,31.2,11,24,124,,12,10,053,*53
$BDGSV,3,3,9,14,02,164,*65
$GNRMC,002216.000,A,3000.0020,N,12000.0052,E,0.000,166.36,230721,,,A*43
$GNVTG,166.36,T,,M,0.000,N,0.000,K,A*27
$PMTKGEPH,0,0,0,0,0,0,0,0,0,0,0,0,0,0,0,0,0,0,0,0,0,0,0,0,0,0,0,0,0,0,0,0,0*04
$PMTKGALM,31,1,1,1,1,1,1,1,1,1,1,1,1,1,1,1,1,1,1,1,1,1,1,1,1,1,1,1,1,1,1,1,0*2A
$GNACCURACY,5.6,179.9,3.0,37.1*27
$PMTKAGC,002216.000,2909,2866,5818,5836,0,3,0*69
$PMTKAG2,002216.000,5,0118,0,0,0,0,0,0,0,0,0,0,0,0*3E
$GNGGA,002217.000,3000.0017,N,12000.0047,E,1,3,6.97,-6.4,M,7.0,M,,*52
$GPGSA,A,2,,,,,,,,,,,,,7.04,6.97,1.00*09
$GLGSA,A,2,,,,,,,,,,,,,7.04,6.97,1.00*15
$BDGSA,A,2,06,09,13,,,,,,,,,,7.04,6.97,1.00*15
$GPGSV,4,1,15,07,79,045,,25,57,038,,08,57,213,,04,46,233,*70
$GPGSV,4,2,15,13,44,042,,02,36,289,,27,27,224,,23,22,065,*7D
$GPGSV,4,3,15,20,16,128,,10,08,314,,28,07,177,,193,,,*7C
$GPGSV,4,4,15,194,,,,195,,,,38,,,*77
$GLGSV,2,1,8,77,66,316,,87,59,323,,86,26,031,,88,26,253,*53
$GLGSV,2,2,8,78,15,331,,71,05,073,,75,02,156,,72,01,121,*54
$BDGSV,3,1,9,02,50,173,30.7,13,40,198,31.8,01,38,122,30.4,04,37,126,30.6*55
$BDGSV,3,2,9,09,35,282,31.2,06,32,215,31.2,11,24,124,,12,10,053,*53
$BDGSV,3,3,9,14,02,164,*65
$GNRMC,002217.000,A,3000.0017,N,12000.0047,E,0.000,166.36,230721,,,A*42
$GNVTG,166.36,T,,M,0.000,N,0.000,K,A*27
$PMTKGEPH,0,0,0,0,0,0,0,0,0,0,0,0,0,0,0,0,0,0,0,0,0,0,0,0,0,0,0,0,0,0,0,0,0*04
$PMTKGALM,31,1,1,1,1,1,1,1,1,1,1,1,1,1,1,1,1,1,1,1,1,1,1,1,1,1,1,1,1,1,1,1,0*2A
$GNACCURACY,5.6,179.9,3.0,38.2*2B
$PMTKAGC,002217.000,2805,2845,5790,5739,0,3,0*6B
$PMTKAG2,002217.000,5,0118,0,0,0,0,0,0,0,0,0,0,0,0*3F
$GNGGA,002218.000,3000.0019,N,12000.0049,E,1,3,6.99,-6.4,M,7.0,M,,*53
$GPGSA,A,2,,,,,,,,,,,,,7.06,6.99,1.00*05
$GLGSA,A,2,,,,,,,,,,,,,7.06,6.99,1.00*19
$BDGSA,A,2,06,09,13,,,,,,,,,,7.06,6.99,1.00*19
$GPGSV,4,1,15,07,79,045,,25,57,038,,08,57,213,,04,46,233,*70
$GPGSV,4,2,15,13,44,042,,02,36,289,,27,27,224,,23,22,065,*7D
$GPGSV,4,3,15,20,16,128,,10,08,314,,28,07,177,,193,,,*7C
$GPGSV,4,4,15,194,,,,195,,,,38,,,*77
$GLGSV,2,1,8,77,66,316,,87,59,323,,86,26,031,,88,26,253,*53
$GLGSV,2,2,8,78,15,331,,71,05,073,,75,02,156,,72,01,121,*54
$BDGSV,3,1,9,02,50,173,30.6,13,40,198,31.8,01,38,122,30.2,04,37,126,30.7*53
$BDGSV,3,2,9,09,35,282,31.3,06,32,215,31.2,11,24,124,,12,10,053,*52
$BDGSV,3,3,9,14,02,164,*65
$GNRMC,002218.000,A,3000.0019,N,12000.0049,E,0.000,166.36,230721,,,A*4D
$GNVTG,166.36,T,,M,0.000,N,0.000,K,A*27
$PMTKGEPH,0,0,0,0,0,0,0,0,0,0,0,0,0,0,0,0,0,0,0,0,0,0,0,0,0,0,0,0,0,0,0,0,0*04
$PMTKGALM,31,1,1,1,1,1,1,1,1,1,1,1,1,1,1,1,1,1,1,1,1,1,1,1,1,1,1,1,1,1,1,1,0*2A
$GNACCURACY,5.6,167.5,3.0,37.2*27
$PMTKAGC,002218.000,2691,2657,5636,5837,0,3,0*66
$PMTKAG2,002218.000,5,0118,0,0,0,0,0,0,0,0,0,0,0,0*30
$GNGGA,002219.000,3000.0022,N,12000.0052,E,1,3,6.97,-6.4,M,7.0,M,,*5E
$GPGSA,A,2,,,,,,,,,,,,,7.04,6.97,1.00*09
$GLGSA,A,2,,,,,,,,,,,,,7.04,6.97,1.00*15
$BDGSA,A,2,06,09,13,,,,,,,,,,7.04,6.97,1.00*15
$GPGSV,4,1,15,07,79,045,,25,57,038,,08,57,213,,04,46,233,*70
$GPGSV,4,2,15,13,44,042,,02,36,289,,27,27,224,,23,22,065,*7D
$GPGSV,4,3,15,20,16,128,,10,08,314,,28,07,177,,193,,,*7C
$GPGSV,4,4,15,194,,,,195,,,,38,,,*77
$GLGSV,2,1,8,77,66,316,,87,59,323,,86,26,031,,88,26,253,*53
$GLGSV,2,2,8,78,15,331,,71,05,073,,75,02,156,,72,01,121,*54
$BDGSV,3,1,9,02,50,173,30.6,13,40,198,31.7,01,38,122,30.2,04,37,126,30.7*5C
$BDGSV,3,2,9,09,35,282,31.3,06,32,215,31.1,11,24,124,,12,10,053,*51
$BDGSV,3,3,9,14,02,164,*65
$GNRMC,002219.000,A,3000.0022,N,12000.0052,E,0.000,166.36,230721,,,A*4E
$GNVTG,166.36,T,,M,0.000,N,0.000,K,A*27
$PMTKGEPH,0,0,0,0,0,0,0,0,0,0,0,0,0,0,0,0,0,0,0,0,0,0,0,0,0,0,0,0,0,0,0,0,0*04
$PMTKGALM,31,1,1,1,1,1,1,1,1,1,1,1,1,1,1,1,1,1,1,1,1,1,1,1,1,1,1,1,1,1,1,1,0*2A
$GNACCURACY,5.6,169.7,3.0,38.2*24
$PMTKAGC,002219.000,2797,2634,5791,5867,0,3,0*6C
$PMTKAG2,002219.000,5,0118,0,0,0,0,0,0,0,0,0,0,0,0*31
$GNGGA,002220.000,3000.0022,N,12000.0044,E,1,3,6.97,-6.4,M,7.0,M,,*53
$GPGSA,A,2,,,,,,,,,,,,,7.05,6.97,1.00*08
$GLGSA,A,2,,,,,,,,,,,,,7.05,6.97,1.00*14
$BDGSA,A,2,06,09,13,,,,,,,,,,7.05,6.97,1.00*14
$GPGSV,4,1,15,07,79,045,,25,57,038,,08,57,213,,04,46,233,*70
$GPGSV,4,2,15,13,44,042,,02,36,289,,27,27,224,,23,22,065,*7D
$GPGSV,4,3,15,20,16,128,,10,08,314,,28,07,177,,193,,,*7C
$GPGSV,4,4,15,194,,,,195,,,,38,,,*77
$GLGSV,2,1,8,77,66,316,,87,59,323,,86,26,031,,88,26,253,*53
$GLGSV,2,2,8,78,15,331,,71,05,073,,75,02,156,,72,01,121,*54
$BDGSV,3,1,9,02,50,173,30.6,13,40,198,31.7,01,38,122,30.2,04,37,126,30.7*5C
$BDGSV,3,2,9,09,35,282,31.3,06,32,215,31.2,11,24,124,,12,10,053,*52
$BDGSV,3,3,9,14,02,164,*65
$GNRMC,002220.000,A,3000.0022,N,12000.0044,E,0.000,166.36,230721,,,A*43
$GNVTG,166.36,T,,M,0.000,N,0.000,K,A*27
$PMTKGEPH,0,0,0,0,0,0,0,0,0,0,0,0,0,0,0,0,0,0,0,0,0,0,0,0,0,0,0,0,0,0,0,0,0*04
$PMTKGALM,31,1,1,1,1,1,1,1,1,1,1,1,1,1,1,1,1,1,1,1,1,1,1,1,1,1,1,1,1,1,1,1,0*2A
$GNACCURACY,5.6,179.9,3.0,37.3*25
$PMTKAGC,002220.000,2665,2705,5693,5881,0,3,0*62
$PMTKAG2,002220.000,5,0118,0,0,0,0,0,0,0,0,0,0,0,0*3B
$GNGGA,002221.000,3000.0024,N,12000.0048,E,1,3,6.97,-6.3,M,7.0,M,,*5F
$GPGSA,A,2,,,,,,,,,,,,,7.05,6.97,1.00*08
$GLGSA,A,2,,,,,,,,,,,,,7.05,6.97,1.00*14
$BDGSA,A,2,06,09,13,,,,,,,,,,7.05,6.97,1.00*14
$GPGSV,4,1,15,07,79,045,,25,57,038,,08,57,213,,04,46,233,*70
$GPGSV,4,2,15,13,44,042,,02,36,289,,27,27,224,,23,22,065,*7D
$GPGSV,4,3,15,20,16,128,,10,08,314,,28,07,177,,193,,,*7C
$GPGSV,4,4,15,194,,,,195,,,,38,,,*77
$GLGSV,2,1,8,77,66,316,,87,59,323,,86,26,031,,88,26,253,*53
$GLGSV,2,2,8,78,15,331,,71,05,073,,75,02,156,,72,01,121,*54
$BDGSV,3,1,9,02,50,173,30.6,13,40,198,31.8,01,38,122,30.2,04,37,126,30.7*53
$BDGSV,3,2,9,09,35,282,31.3,06,32,215,31.1,11,24,124,,12,10,053,*51
$BDGSV,3,3,9,14,02,164,*65
$GNRMC,002221.000,A,3000.0024,N,12000.0048,E,0.000,166.36,230721,,,A*48
$GNVTG,166.36,T,,M,0.000,N,0.000,K,A*27
$PMTKGEPH,0,0,0,0,0,0,0,0,0,0,0,0,0,0,0,0,0,0,0,0,0,0,0,0,0,0,0,0,0,0,0,0,0*04
$PMTKGALM,31,1,1,1,1,1,1,1,1,1,1,1,1,1,1,1,1,1,1,1,1,1,1,1,1,1,1,1,1,1,1,1,0*2A
$GNACCURACY,5.6,139.6,3.0,36.7*2B
$PMTKAGC,002221.000,2869,2735,5745,5753,0,3,0*68
$PMTKAG2,002221.000,5,0118,0,0,0,0,0,0,0,0,0,0,0,0*3A
$GNGGA,002222.000,3000.0028,N,12000.0058,E,1,3,6.97,-6.3,M,7.0,M,,*51
$GPGSA,A,2,,,,,,,,,,,,,7.05,6.97,1.00*08
$GLGSA,A,2,,,,,,,,,,,,,7.05,6.97,1.00*14
$BDGSA,A,2,06,09,13,,,,,,,,,,7.05,6.97,1.00*14
$GPGSV,4,1,15,07,79,045,,25,57,038,,08,57,213,,04,46,233,*70
$GPGSV,4,2,15,13,44,042,,02,36,289,,27,27,224,,23,22,065,*7D
$GPGSV,4,3,15,20,16,128,,10,08,314,,28,07,177,,193,,,*7C
$GPGSV,4,4,15,194,,,,195,,,,41,,,*79
$GLGSV,2,1,8,77,66,316,,87,59,323,,86,26,031,,88,26,253,*53
$GLGSV,2,2,8,78,15,331,,71,05,073,,75,02,156,,72,01,121,*54
$BDGSV,3,1,9,02,50,173,30.6,13,40,198,31.7,01,38,122,30.2,04,37,126,30.7*5C
$BDGSV,3,2,9,09,35,282,31.4,06,32,215,31.1,11,24,124,,12,10,053,*56
$BDGSV,3,3,9,14,02,164,*65
$GNRMC,002222.000,A,3000.0028,N,12000.0058,E,0.000,166.36,230721,,,A*46
$GNVTG,166.36,T,,M,0.000,N,0.000,K,A*27
$PMTKGEPH,0,0,0,0,0,0,0,0,0,0,0,0,0,0,0,0,0,0,0,0,0,0,0,0,0,0,0,0,0,0,0,0,0*04
$PMTKGALM,31,1,1,1,1,1,1,1,1,1,1,1,1,1,1,1,1,1,1,1,1,1,1,1,1,1,1,1,1,1,1,1,0*2A
$GNACCURACY,5.6,135.5,3.0,38.8*25
$PMTKAGC,002222.000,2663,2936,5788,5724,0,3,0*63
$PMTKAG2,002222.000,5,0118,0,0,0,0,0,0,0,0,0,0,0,0*39
$GNGGA,002223.000,3000.0029,N,12000.0057,E,1,3,6.97,-6.3,M,7.0,M,,*5E
$GPGSA,A,2,,,,,,,,,,,,,7.04,6.97,1.00*09
$GLGSA,A,2,,,,,,,,,,,,,7.04,6.97,1.00*15
$BDGSA,A,2,06,09,13,,,,,,,,,,7.04,6.97,1.00*15
$GPGSV,4,1,15,07,79,045,,25,57,038,,08,57,213,,04,46,233,*70
$GPGSV,4,2,15,13,44,042,,02,36,289,,27,27,224,,23,22,065,*7D
$GPGSV,4,3,15,20,16,128,,10,08,314,,28,07,177,,193,,,*7C
$GPGSV,4,4,15,194,,,,195,,,,41,,,*79
$GLGSV,2,1,8,77,66,316,,87,59,323,,86,26,031,,88,26,253,*53
$GLGSV,2,2,8,78,15,331,,71,05,073,,75,02,156,,72,01,121,*54
$BDGSV,3,1,9,02,50,173,30.7,13,40,198,31.7,01,38,122,30.2,04,37,126,30.7*5D
$BDGSV,3,2,9,09,35,282,31.4,06,32,215,31.1,11,24,124,,12,10,053,*56
$BDGSV,3,3,9,14,02,164,*65
$GNRMC,002223.000,A,3000.0029,N,12000.0057,E,0.000,166.36,230721,,,A*49
$GNVTG,166.36,T,,M,0.000,N,0.000,K,A*27
$PMTKGEPH,0,0,0,0,0,0,0,0,0,0,0,0,0,0,0,0,0,0,0,0,0,0,0,0,0,0,0,0,0,0,0,0,0*04
$PMTKGALM,31,1,1,1,1,1,1,1,1,1,1,1,1,1,1,1,1,1,1,1,1,1,1,1,1,1,1,1,1,1,1,1,0*2A
$GNACCURACY,5.6,179.9,3.0,36.7*20
$PMTKAGC,002223.000,2748,2827,5716,5653,0,3,0*6D
$PMTKAG2,002223.000,5,0118,0,0,0,0,0,0,0,0,0,0,0,0*38
$GNGGA,002224.000,3000.0021,N,12000.0042,E,1,3,6.97,-6.3,M,7.0,M,,*55
$GPGSA,A,2,,,,,,,,,,,,,7.04,6.97,1.00*09
$GLGSA,A,2,,,,,,,,,,,,,7.04,6.97,1.00*15
$BDGSA,A,2,06,09,13,,,,,,,,,,7.04,6.97,1.00*15
$GPGSV,4,1,15,07,79,045,,25,57,038,,08,57,213,,04,46,233,*70
$GPGSV,4,2,15,13,44,042,,02,36,289,,27,27,224,,23,22,065,*7D
$GPGSV,4,3,15,20,16,128,,10,08,314,,28,07,177,,193,,,*7C
$GPGSV,4,4,15,194,,,,195,,,,41,,,*79
$GLGSV,2,1,8,77,66,316,,87,59,323,,86,26,031,,88,26,253,*53
$GLGSV,2,2,8,78,15,331,,71,05,073,,75,02,156,,72,01,121,*54
$BDGSV,3,1,9,02,50,173,30.7,13,40,198,31.7,01,38,122,30.2,04,37,126,30.8*52
$BDGSV,3,2,9,09,35,282,31.4,06,32,215,31.1,11,24,124,,12,10,053,*56
$BDGSV,3,3,9,14,02,164,*65
$GNRMC,002224.000,A,3000.0021,N,12000.0042,E,0.000,166.36,230721,,,A*42
$GNVTG,166.36,T,,M,0.000,N,0.000,K,A*27
$PMTKGEPH,0,0,0,0,0,0,0,0,0,0,0,0,0,0,0,0,0,0,0,0,0,0,0,0,0,0,0,0,0,0,0,0,0*04
$PMTKGALM,31,1,1,1,1,1,1,1,1,1,1,1,1,1,1,1,1,1,1,1,1,1,1,1,1,1,1,1,1,1,1,1,0*2A
$GNACCURACY,5.6,179.9,3.0,37.2*24
$PMTKAGC,002224.000,3091,2758,5713,5851,0,3,0*66
$PMTKAG2,002224.000,5,0118,0,0,0,0,0,0,0,0,0,0,0,0*3F
$GNGGA,002225.000,3000.0023,N,12000.0048,E,1,3,6.97,-6.3,M,7.0,M,,*5C
$GPGSA,A,2,,,,,,,,,,,,,7.04,6.97,1.00*09
$GLGSA,A,2,,,,,,,,,,,,,7.04,6.97,1.00*15
$BDGSA,A,2,06,09,13,,,,,,,,,,7.04,6.97,1.00*15
$GPGSV,4,1,15,07,79,045,,25,57,038,,08,57,213,,04,46,233,*70
$GPGSV,4,2,15,13,44,042,,02,36,289,,27,27,224,,23,22,065,*7D
$GPGSV,4,3,15,20,16,128,,10,08,314,,28,07,177,,193,,,*7C
$GPGSV,4,4,15,194,,,,195,,,,41,,,*79
$GLGSV,2,1,8,77,66,316,,87,59,323,,86,26,031,,88,26,253,*53
$GLGSV,2,2,8,78,15,331,,71,05,073,,75,02,156,,72,01,121,*54
$BDGSV,3,1,9,02,50,173,30.8,13,40,198,31.8,01,38,122,30.3,04,37,126,30.8*53
$BDGSV,3,2,9,09,35,282,31.5,06,32,215,31.1,11,24,124,,12,10,053,*57
$BDGSV,3,3,9,14,02,164,*65
$GNRMC,002225.000,A,3000.0023,N,12000.0048,E,0.000,166.36,230721,,,A*4B
$GNVTG,166.36,T,,M,0.000,N,0.000,K,A*27
$PMTKGEPH,0,0,0,0,0,0,0,0,0,0,0,0,0,0,0,0,0,0,0,0,0,0,0,0,0,0,0,0,0,0,0,0,0*04
$PMTKGALM,31,1,1,1,1,1,1,1,1,1,1,1,1,1,1,1,1,1,1,1,1,1,1,1,1,1,1,1,1,1,1,1,0*2A
$GNACCURACY,5.6,164.3,3.0,38.3*2C
$PMTKAGC,002225.000,2831,2819,5694,5730,0,3,0*68
$PMTKAG2,002225.000,5,0118,0,0,0,0,0,0,0,0,0,0,0,0*3E
$GNGGA,002226.000,3000.0021,N,12000.0044,E,1,3,6.97,-6.3,M,7.0,M,,*51
$GPGSA,A,2,,,,,,,,,,,,,7.04,6.97,1.00*09
$GLGSA,A,2,,,,,,,,,,,,,7.04,6.97,1.00*15
$BDGSA,A,2,06,09,13,,,,,,,,,,7.04,6.97,1.00*15
$GPGSV,4,1,15,07,79,045,,25,57,038,,08,57,213,,04,46,233,*70
$GPGSV,4,2,15,13,44,042,,02,36,289,,27,27,224,,23,22,065,*7D
$GPGSV,4,3,15,20,16,128,,10,08,314,,28,07,177,,193,,,*7C
$GPGSV,4,4,15,194,,,,195,,,,41,,,*79
$GLGSV,2,1,8,77,66,316,,87,59,323,,86,26,031,,88,26,253,*53
$GLGSV,2,2,8,78,15,331,,71,05,073,,75,02,156,,72,01,121,*54
$BDGSV,3,1,9,02,50,173,30.8,13,40,198,31.8,01,38,122,30.3,04,37,126,30.8*53
$BDGSV,3,2,9,09,35,282,31.5,06,32,215,31.0,11,24,124,,12,10,053,*56
$BDGSV,3,3,9,14,02,164,*65
$GNRMC,002226.000,A,3000.0021,N,12000.0044,E,0.000,166.36,230721,,,A*46
$GNVTG,166.36,T,,M,0.000,N,0.000,K,A*27
$PMTKGEPH,0,0,0,0,0,0,0,0,0,0,0,0,0,0,0,0,0,0,0,0,0,0,0,0,0,0,0,0,0,0,0,0,0*04
$PMTKGALM,31,1,1,1,1,1,1,1,1,1,1,1,1,1,1,1,1,1,1,1,1,1,1,1,1,1,1,1,1,1,1,1,0*2A
$GNACCURACY,5.6,179.9,2.9,37.3*2D
$PMTKAGC,002226.000,2825,2676,5769,5793,0,3,0*63
$PMTKAG2,002226.000,5,0118,0,0,0,0,0,0,0,0,0,0,0,0*3D
$GNGGA,002227.000,3000.0026,N,12000.0052,E,1,3,6.97,-6.3,M,7.0,M,,*50
$GPGSA,A,2,,,,,,,,,,,,,7.04,6.97,1.00*09
$GLGSA,A,2,,,,,,,,,,,,,7.04,6.97,1.00*15
$BDGSA,A,2,06,09,13,,,,,,,,,,7.04,6.97,1.00*15
$GPGSV,4,1,15,07,79,045,,25,57,038,,08,57,213,,04,46,233,*70
$GPGSV,4,2,15,13,44,042,,02,36,289,,27,27,224,,23,22,065,*7D
$GPGSV,4,3,15,20,16,128,,10,08,314,,28,07,177,,193,,,*7C
$GPGSV,4,4,15,194,,,,195,,,,41,,,*79
$GLGSV,2,1,8,77,66,316,,87,59,323,,86,26,031,,88,26,253,*53
$GLGSV,2,2,8,78,15,331,,71,05,073,,75,02,156,,72,01,121,*54
$BDGSV,3,1,9,02,50,173,30.8,13,40,198,31.8,01,38,122,30.3,04,37,126,30.8*53
$BDGSV,3,2,9,09,35,282,31.5,06,32,215,31.0,11,24,124,,12,10,053,*56
$BDGSV,3,3,9,14,02,164,*65
$GNRMC,002227.000,A,3000.0026,N,12000.0052,E,0.000,166.36,230721,,,A*47
$GNVTG,166.36,T,,M,0.000,N,0.000,K,A*27
$PMTKGEPH,0,0,0,0,0,0,0,0,0,0,0,0,0,0,0,0,0,0,0,0,0,0,0,0,0,0,0,0,0,0,0,0,0*04
$PMTKGALM,31,1,1,1,1,1,1,1,1,1,1,1,1,1,1,1,1,1,1,1,1,1,1,1,1,1,1,1,1,1,1,1,0*2A
$GNACCURACY,5.6,171.4,3.0,38.3*2F
$PMTKAGC,002227.000,2726,2797,5660,5749,0,3,0*6F
$PMTKAG2,002227.000,5,0118,0,0,0,0,0,0,0,0,0,0,0,0*3C
$GNGGA,002228.000,3000.0024,N,12000.0048,E,1,3,6.98,-6.3,M,7.0,M,,*59
$GPGSA,A,2,,,,,,,,,,,,,7.05,6.98,1.00*07
$GLGSA,A,2,,,,,,,,,,,,,7.05,6.98,1.00*1B
$BDGSA,A,2,06,09,13,,,,,,,,,,7.05,6.98,1.00*1B
$GPGSV,4,1,15,07,79,045,,25,57,038,,08,57,213,,04,46,233,*70
$GPGSV,4,2,15,13,44,042,,02,36,289,,27,27,224,,23,22,065,*7D
$GPGSV,4,3,15,20,16,128,,10,08,314,,28,07,177,,193,,,*7C
$GPGSV,4,4,15,194,,,,195,,,,43,,,*7B
$GLGSV,2,1,8,77,66,316,,87,59,323,,86,26,031,,88,26,253,*53
$GLGSV,2,2,8,78,15,331,,71,05,073,,75,02,156,,72,01,121,*54
$BDGSV,3,1,9,02,50,173,30.7,13,40,198,31.8,01,38,122,30.3,04,37,126,30.8*5C
$BDGSV,3,2,9,09,35,282,31.5,06,32,215,31.1,11,24,124,,12,10,053,*57
$BDGSV,3,3,9,14,02,164,*65
$GNRMC,002228.000,A,3000.0024,N,12000.0048,E,0.000,166.36,230721,,,A*41
$GNVTG,166.36,T,,M,0.000,N,0.000,K,A*27
$PMTKGEPH,0,0,0,0,0,0,0,0,0,0,0,0,0,0,0,0,0,0,0,0,0,0,0,0,0,0,0,0,0,0,0,0,0*04
$PMTKGALM,31,1,1,1,1,1,1,1,1,1,1,1,1,1,1,1,1,1,1,1,1,1,1,1,1,1,1,1,1,1,1,1,0*2A
$GNACCURACY,5.6,163.9,3.0,37.4*29
$PMTKAGC,002228.000,2864,2928,5707,5746,0,3,0*6C
$PMTKAG2,002228.000,5,0118,0,0,0,0,0,0,0,0,0,0,0,0*33
$GNGGA,002229.000,3000.0025,N,12000.0050,E,1,3,6.98,-6.3,M,7.0,M,,*50
$GPGSA,A,2,,,,,,,,,,,,,7.05,6.98,1.00*07
$GLGSA,A,2,,,,,,,,,,,,,7.05,6.98,1.00*1B
$BDGSA,A,2,06,09,13,,,,,,,,,,7.05,6.98,1.00*1B
$GPGSV,4,1,15,07,79,045,,25,57,038,,08,57,213,,04,46,233,*70
$GPGSV,4,2,15,13,44,042,,02,36,289,,27,27,224,,23,22,065,*7D
$GPGSV,4,3,15,20,16,128,,10,08,314,,28,07,177,,193,,,*7C
$GPGSV,4,4,15,194,,,,195,,,,43,,,*7B
$GLGSV,2,1,8,77,66,316,,87,59,323,,86,26,031,,88,26,253,*53
$GLGSV,2,2,8,78,15,331,,71,05,073,,75,02,156,,72,01,121,*54
$BDGSV,3,1,9,02,50,173,30.8,13,40,198,31.8,01,38,122,30.4,04,37,126,30.9*55
$BDGSV,3,2,9,09,35,282,31.5,06,32,215,31.1,11,24,124,,12,10,053,*57
$BDGSV,3,3,9,14,02,164,*65
$GNRMC,002229.000,A,3000.0025,N,12000.0050,E,0.000,166.36,230721,,,A*48
$GNVTG,166.36,T,,M,0.000,N,0.000,K,A*27
$PMTKGEPH,0,0,0,0,0,0,0,0,0,0,0,0,0,0,0,0,0,0,0,0,0,0,0,0,0,0,0,0,0,0,0,0,0*04
$PMTKGALM,31,1,1,1,1,1,1,1,1,1,1,1,1,1,1,1,1,1,1,1,1,1,1,1,1,1,1,1,1,1,1,1,0*2A
$GNACCURACY,5.6,172.8,3.0,38.4*27
$PMTKAGC,002229.000,2696,2770,5742,5800,0,3,0*61
$PMTKAG2,002229.000,5,0118,0,0,0,0,0,0,0,0,0,0,0,0*32
$GNGGA,002230.000,3000.0024,N,12000.0049,E,1,3,6.97,-6.3,M,7.0,M,,*5E
$GPGSA,A,2,,,,,,,,,,,,,7.04,6.97,1.00*09
$GLGSA,A,2,,,,,,,,,,,,,7.04,6.97,1.00*15
$BDGSA,A,2,06,09,13,,,,,,,,,,7.04,6.97,1.00*15
$GPGSV,4,1,15,07,79,045,,25,57,038,,08,57,213,,04,46,233,*70
$GPGSV,4,2,15,13,44,042,,02,36,289,,27,27,224,,23,22,065,*7D
$GPGSV,4,3,15,20,16,128,,10,08,314,,28,07,177,,193,,,*7C
$GPGSV,4,4,15,194,,,,195,,,,43,,,*7B
$GLGSV,2,1,8,77,66,316,,87,59,323,,86,26,031,,88,26,253,*53
$GLGSV,2,2,8,78,15,331,,71,05,073,,75,02,156,,72,01,121,*54
$BDGSV,3,1,9,02,50,173,30.8,13,40,198,31.8,01,38,122,30.4,04,37,126,30.8*54
$BDGSV,3,2,9,09,35,282,31.4,06,32,215,31.1,11,24,124,,12,10,053,*56
$BDGSV,3,3,9,14,02,164,*65
$GNRMC,002230.000,A,3000.0024,N,12000.0049,E,0.000,166.36,230721,,,A*49
$GNVTG,166.36,T,,M,0.000,N,0.000,K,A*27
$PMTKGEPH,0,0,0,0,0,0,0,0,0,0,0,0,0,0,0,0,0,0,0,0,0,0,0,0,0,0,0,0,0,0,0,0,0*04
$PMTKGALM,31,1,1,1,1,1,1,1,1,1,1,1,1,1,1,1,1,1,1,1,1,1,1,1,1,1,1,1,1,1,1,1,0*2A
$GNACCURACY,5.6,176.8,3.0,37.4*2C
$PMTKAGC,002230.000,2765,2717,5692,5765,0,3,0*65
$PMTKAG2,002230.000,5,0118,0,0,0,0,0,0,0,0,0,0,0,0*3A
$GNGGA,002231.000,3000.0021,N,12000.0045,E,1,3,6.97,-6.3,M,7.0,M,,*56
$GPGSA,A,2,,,,,,,,,,,,,7.05,6.97,1.00*08
$GLGSA,A,2,,,,,,,,,,,,,7.05,6.97,1.00*14
$BDGSA,A,2,06,09,13,,,,,,,,,,7.05,6.97,1.00*14
$GPGSV,4,1,15,07,79,045,,25,57,038,,08,57,213,,04,46,233,*70
$GPGSV,4,2,15,13,44,042,,02,36,289,,27,27,224,,23,22,065,*7D
$GPGSV,4,3,15,20,16,128,,10,08,314,,28,07,177,,193,,,*7C
$GPGSV,4,4,15,194,,,,195,,,,43,,,*7B
$GLGSV,2,1,8,77,66,316,,87,59,323,,86,26,031,,88,26,253,*53
$GLGSV,2,2,8,78,15,331,,71,05,073,,75,02,156,,72,01,121,*54
$BDGSV,3,1,9,02,50,173,30.8,13,40,198,31.9,01,38,122,30.3,04,37,126,30.8*52
$BDGSV,3,2,9,09,35,282,31.4,06,32,215,31.1,11,24,124,,12,10,053,*56
$BDGSV,3,3,9,14,02,164,*65
$GNRMC,002231.000,A,3000.0021,N,12000.0045,E,0.000,166.36,230721,,,A*41
$GNVTG,166.36,T,,M,0.000,N,0.000,K,A*27
$PMTKGEPH,0,0,0,0,0,0,0,0,0,0,0,0,0,0,0,0,0,0,0,0,0,0,0,0,0,0,0,0,0,0,0,0,0*04
$PMTKGALM,31,1,1,1,1,1,1,1,1,1,1,1,1,1,1,1,1,1,1,1,1,1,1,1,1,1,1,1,1,1,1,1,0*2A
$GNACCURACY,5.6,179.9,2.9,36.8*27
$PMTKAGC,002231.000,2858,2876,5745,5789,0,3,0*64
$PMTKAG2,002231.000,5,0118,0,0,0,0,0,0,0,0,0,0,0,0*3B
$GNGGA,002232.000,3000.0019,N,12000.0044,E,1,3,6.98,-6.3,M,7.0,M,,*50
$GPGSA,A,2,,,,,,,,,,,,,7.05,6.98,1.00*07
$GLGSA,A,2,,,,,,,,,,,,,7.05,6.98,1.00*1B
$BDGSA,A,2,06,09,13,,,,,,,,,,7.05,6.98,1.00*1B
$GPGSV,4,1,15,07,79,045,,25,57,038,,08,57,213,,04,46,233,*70
$GPGSV,4,2,15,13,44,042,,02,36,289,,27,27,224,,23,22,065,*7D
$GPGSV,4,3,15,20,16,128,,10,08,314,,28,07,177,,193,,,*7C
$GPGSV,4,4,15,194,,,,195,,,,43,,,*7B
$GLGSV,2,1,8,77,66,316,,87,59,323,,86,26,031,,88,26,253,*53
$GLGSV,2,2,8,78,15,331,,71,05,073,,75,02,156,,72,01,121,*54
$BDGSV,3,1,9,02,50,173,30.9,13,40,198,31.8,01,38,122,30.4,04,37,126,30.8*55
$BDGSV,3,2,9,09,35,282,31.4,06,32,215,31.0,11,24,124,,12,10,053,*57
$BDGSV,3,3,9,14,02,164,*65
$GNRMC,002232.000,A,3000.0019,N,12000.0044,E,0.000,166.36,230721,,,A*48
$GNVTG,166.36,T,,M,0.000,N,0.000,K,A*27
$PMTKGEPH,0,0,0,0,0,0,0,0,0,0,0,0,0,0,0,0,0,0,0,0,0,0,0,0,0,0,0,0,0,0,0,0,0*04
$PMTKGALM,31,1,1,1,1,1,1,1,1,1,1,1,1,1,1,1,1,1,1,1,1,1,1,1,1,1,1,1,1,1,1,1,0*2A
$GNACCURACY,5.6,179.9,3.0,38.9*20
$PMTKAGC,002232.000,2663,2787,5783,5737,0,3,0*6F
$PMTKAG2,002232.000,5,0118,0,0,0,0,0,0,0,0,0,0,0,0*38
$GNGGA,002233.000,3000.0014,N,12000.0037,E,1,3,6.97,-6.3,M,7.0,M,,*57
$GPGSA,A,2,,,,,,,,,,,,,7.04,6.97,1.00*09
$GLGSA,A,2,,,,,,,,,,,,,7.04,6.97,1.00*15
$BDGSA,A,2,06,09,13,,,,,,,,,,7.04,6.97,1.00*15
$GPGSV,4,1,15,07,79,045,,25,57,038,,08,57,213,,04,46,233,*70
$GPGSV,4,2,15,13,44,042,,02,36,289,,27,27,224,,23,22,065,*7D
$GPGSV,4,3,15,20,16,128,,10,08,314,,28,07,177,,193,,,*7C
$GPGSV,4,4,15,194,,,,195,,,,43,,,*7B
$GLGSV,2,1,8,77,66,316,,87,59,323,,86,26,031,,88,26,253,*53
$GLGSV,2,2,8,78,15,331,,71,05,073,,75,02,156,,72,01,121,*54
$BDGSV,3,1,9,02,50,173,30.9,13,40,198,31.8,01,38,122,30.3,04,37,126,30.8*52
$BDGSV,3,2,9,09,35,282,31.4,06,32,215,31.0,11,24,124,,12,10,053,*57
$BDGSV,3,3,9,14,02,164,*65
$GNRMC,002233.000,A,3000.0014,N,12000.0037,E,0.000,166.36,230721,,,A*40
$GNVTG,166.36,T,,M,0.000,N,0.000,K,A*27
$PMTKGEPH,0,0,0,0,0,0,0,0,0,0,0,0,0,0,0,0,0,0,0,0,0,0,0,0,0,0,0,0,0,0,0,0,0*04
$PMTKGALM,31,1,1,1,1,1,1,1,1,1,1,1,1,1,1,1,1,1,1,1,1,1,1,1,1,1,1,1,1,1,1,1,0*2A
$GNACCURACY,5.6,179.9,3.0,36.9*2E
$PMTKAGC,002233.000,2749,2662,5780,5806,0,3,0*63
$PMTKAG2,002233.000,5,0118,0,0,0,0,0,0,0,0,0,0,0,0*39
$GNGGA,002234.000,3000.0017,N,12000.0041,E,1,3,6.97,-6.3,M,7.0,M,,*52
$GPGSA,A,2,,,,,,,,,,,,,7.04,6.97,1.00*09
$GLGSA,A,2,,,,,,,,,,,,,7.04,6.97,1.00*15
$BDGSA,A,2,06,09,13,,,,,,,,,,7.04,6.97,1.00*15
$GPGSV,4,1,15,07,79,045,,25,57,038,,08,57,213,,04,46,233,*70
$GPGSV,4,2,15,13,44,042,,02,36,289,,27,27,224,,23,22,065,*7D
$GPGSV,4,3,15,20,16,128,,10,08,314,,28,07,177,,193,,,*7C
$GPGSV,4,4,15,194,,,,195,,,,45,,,*7D
$GLGSV,2,1,8,77,66,316,,87,59,323,,86,26,031,,88,26,253,*53
$GLGSV,2,2,8,78,15,331,,71,05,073,,75,02,156,,72,01,121,*54
$BDGSV,3,1,9,02,50,173,30.9,13,40,198,31.8,01,38,122,30.3,04,37,126,30.7*5D
$BDGSV,3,2,9,09,35,282,31.4,06,32,215,31.0,11,24,124,,12,10,053,*57
$BDGSV,3,3,9,14,02,164,*65
$GNRMC,002234.000,A,3000.0017,N,12000.0041,E,0.000,166.36,230721,,,A*45
$GNVTG,166.36,T,,M,0.000,N,0.000,K,A*27
$PMTKGEPH,0,0,0,0,0,0,0,0,0,0,0,0,0,0,0,0,0,0,0,0,0,0,0,0,0,0,0,0,0,0,0,0,0*04
$PMTKGALM,31,1,1,1,1,1,1,1,1,1,1,1,1,1,1,1,1,1,1,1,1,1,1,1,1,1,1,1,1,1,1,1,0*2A
$GNACCURACY,5.6,179.9,3.0,36.9*2E
$PMTKAGC,002234.000,2652,2587,5799,5788,0,3,0*66
$PMTKAG2,002234.000,5,0118,0,0,0,0,0,0,0,0,0,0,0,0*3E
$GNGGA,002235.000,3000.0018,N,12000.0046,E,1,3,6.98,-6.3,M,7.0,M,,*54
$GPGSA,A,2,,,,,,,,,,,,,7.05,6.98,1.00*07
$GLGSA,A,2,,,,,,,,,,,,,7.05,6.98,1.00*1B
$BDGSA,A,2,06,09,13,,,,,,,,,,7.05,6.98,1.00*1B
$GPGSV,4,1,15,07,79,045,,25,57,038,,08,57,213,,04,46,233,*70
$GPGSV,4,2,15,13,44,042,,02,36,289,,27,27,224,,23,22,065,*7D
$GPGSV,4,3,15,20,16,128,,10,08,314,,28,07,177,,193,,,*7C
$GPGSV,4,4,15,194,,,,195,,,,45,,,*7D
$GLGSV,2,1,8,77,66,316,,87,59,323,,86,26,031,,88,26,253,*53
$GLGSV,2,2,8,78,15,331,,71,05,073,,75,02,156,,72,01,121,*54
$BDGSV,3,1,9,02,50,173,30.9,13,40,198,31.8,01,38,122,30.3,04,37,126,30.7*5D
$BDGSV,3,2,9,09,35,282,31.4,06,32,215,30.9,11,24,124,,12,10,053,*5F
$BDGSV,3,3,9,14,02,164,*65
$GNRMC,002235.000,A,3000.0018,N,12000.0046,E,0.000,166.36,230721,,,A*4C
$GNVTG,166.36,T,,M,0.000,N,0.000,K,A*27
$PMTKGEPH,0,0,0,0,0,0,0,0,0,0,0,0,0,0,0,0,0,0,0,0,0,0,0,0,0,0,0,0,0,0,0,0,0*04
$PMTKGALM,31,1,1,1,1,1,1,1,1,1,1,1,1,1,1,1,1,1,1,1,1,1,1,1,1,1,1,1,1,1,1,1,0*2A
$GNACCURACY,5.6,179.9,3.0,39.0*28
$PMTKAGC,002235.000,2913,2700,5749,5756,0,3,0*6E
$PMTKAG2,002235.000,5,0118,0,0,0,0,0,0,0,0,0,0,0,0*3F
$GNGGA,002236.000,3000.0016,N,12000.0043,E,1,3,6.97,-6.3,M,7.0,M,,*53
$GPGSA,A,2,,,,,,,,,,,,,7.04,6.97,1.00*09
$GLGSA,A,2,,,,,,,,,,,,,7.04,6.97,1.00*15
$BDGSA,A,2,06,09,13,,,,,,,,,,7.04,6.97,1.00*15
$GPGSV,4,1,15,07,79,045,,25,57,038,,08,57,213,,04,46,233,*70
$GPGSV,4,2,15,13,44,042,,02,36,289,,27,27,224,,23,22,065,*7D
$GPGSV,4,3,15,20,16,128,,10,08,314,,28,07,177,,193,,,*7C
$GPGSV,4,4,15,194,,,,195,,,,45,,,*7D
$GLGSV,2,1,8,77,66,316,,87,59,323,,86,26,031,,88,26,253,*53
$GLGSV,2,2,8,78,15,331,,71,05,073,,75,02,156,,72,01,121,*54
$BDGSV,3,1,9,02,50,173,30.8,13,40,198,31.8,01,38,122,30.4,04,37,126,30.7*5B
$BDGSV,3,2,9,09,35,282,31.4,06,32,215,30.8,11,24,124,,12,10,053,*5E
$BDGSV,3,3,9,14,02,164,*65
$GNRMC,002236.000,A,3000.0016,N,12000.0043,E,0.000,166.36,230721,,,A*44
$GNVTG,166.36,T,,M,0.000,N,0.000,K,A*27
$PMTKGEPH,0,0,0,0,0,0,0,0,0,0,0,0,0,0,0,0,0,0,0,0,0,0,0,0,0,0,0,0,0,0,0,0,0*04
$PMTKGALM,31,1,1,1,1,1,1,1,1,1,1,1,1,1,1,1,1,1,1,1,1,1,1,1,1,1,1,1,1,1,1,1,0*2A
$GNACCURACY,5.6,179.9,3.0,37.0*26
$PMTKAGC,002236.000,2728,2822,5693,5676,0,3,0*61
$PMTKAG2,002236.000,5,0118,0,0,0,0,0,0,0,0,0,0,0,0*3C
$GNGGA,002237.000,3000.0014,N,12000.0039,E,1,3,6.97,-6.3,M,7.0,M,,*5D
$GPGSA,A,2,,,,,,,,,,,,,7.05,6.97,1.00*08
$GLGSA,A,2,,,,,,,,,,,,,7.05,6.97,1.00*14
$BDGSA,A,2,06,09,13,,,,,,,,,,7.05,6.97,1.00*14
$GPGSV,4,1,15,07,79,045,,25,57,038,,08,57,213,,04,46,233,*70
$GPGSV,4,2,15,13,44,042,,02,36,289,,27,27,224,,23,22,065,*7D
$GPGSV,4,3,15,20,16,128,,10,08,314,,28,07,177,,193,,,*7C
$GPGSV,4,4,15,194,,,,195,,,,45,,,*7D
$GLGSV,2,1,8,77,66,316,,87,59,323,,86,26,031,,88,26,253,*53
$GLGSV,2,2,8,78,15,331,,71,05,073,,75,02,156,,72,01,121,*54
$BDGSV,3,1,9,02,50,173,30.8,13,40,198,31.8,01,38,122,30.3,04,37,126,30.7*5C
$BDGSV,3,2,9,09,35,282,31.4,06,32,215,30.9,11,24,124,,12,10,053,*5F
$BDGSV,3,3,9,14,02,164,*65
$GNRMC,002237.000,A,3000.0014,N,12000.0039,E,0.000,166.36,230721,,,A*4A
$GNVTG,166.36,T,,M,0.000,N,0.000,K,A*27
$PMTKGEPH,0,0,0,0,0,0,0,0,0,0,0,0,0,0,0,0,0,0,0,0,0,0,0,0,0,0,0,0,0,0,0,0,0*04
$PMTKGALM,31,1,1,1,1,1,1,1,1,1,1,1,1,1,1,1,1,1,1,1,1,1,1,1,1,1,1,1,1,1,1,1,0*2A
$GNACCURACY,5.6,179.9,3.0,39.1*29
$PMTKAGC,002237.000,2716,2693,5689,5731,0,3,0*60
$PMTKAG2,002237.000,5,0118,0,0,0,0,0,0,0,0,0,0,0,0*3D
$GNGGA,002238.000,3000.0016,N,12000.0047,E,1,3,6.98,-6.3,M,7.0,M,,*56
$GPGSA,A,2,,,,,,,,,,,,,7.05,6.98,1.00*07
$GLGSA,A,2,,,,,,,,,,,,,7.05,6.98,1.00*1B
$BDGSA,A,2,06,09,13,,,,,,,,,,7.05,6.98,1.00*1B
$GPGSV,4,1,15,07,79,045,,25,57,038,,08,57,213,,04,46,233,*70
$GPGSV,4,2,15,13,44,042,,02,36,289,,27,27,224,,23,22,065,*7D
$GPGSV,4,3,15,20,16,128,,10,08,314,,28,07,177,,193,,,*7C
$GPGSV,4,4,15,194,,,,195,,,,45,,,*7D
$GLGSV,2,1,8,77,66,316,,87,59,323,,86,26,031,,88,26,253,*53
$GLGSV,2,2,8,78,15,331,,71,05,073,,75,02,156,,72,01,121,*54
$BDGSV,3,1,9,02,50,173,30.9,13,40,198,31.8,01,38,122,30.5,04,37,126,30.7*5B
$BDGSV,3,2,9,09,35,282,31.4,06,32,215,30.9,11,24,124,,12,10,053,*5F
$BDGSV,3,3,9,14,02,164,*65
$GNRMC,002238.000,A,3000.0016,N,12000.0047,E,0.000,166.36,230721,,,A*4E
$GNVTG,166.36,T,,M,0.000,N,0.000,K,A*27
$PMTKGEPH,0,0,0,0,0,0,0,0,0,0,0,0,0,0,0,0,0,0,0,0,0,0,0,0,0,0,0,0,0,0,0,0,0*04
$PMTKGALM,31,1,1,1,1,1,1,1,1,1,1,1,1,1,1,1,1,1,1,1,1,1,1,1,1,1,1,1,1,1,1,1,0*2A
$GNACCURACY,5.6,162.3,3.0,37.0*26
$PMTKAGC,002238.000,2578,2746,5791,5705,0,3,0*63
$PMTKAG2,002238.000,5,0118,0,0,0,0,0,0,0,0,0,0,0,0*32
$GNGGA,002239.000,3000.0018,N,12000.0051,E,1,3,6.97,-6.3,M,7.0,M,,*51
$GPGSA,A,2,,,,,,,,,,,,,7.04,6.97,1.00*09
$GLGSA,A,2,,,,,,,,,,,,,7.04,6.97,1.00*15
$BDGSA,A,2,06,09,13,,,,,,,,,,7.04,6.97,1.00*15
$GPGSV,4,1,15,07,79,045,,25,57,038,,08,57,213,,04,46,233,*70
$GPGSV,4,2,15,13,44,042,,02,36,289,,27,27,224,,23,22,065,*7D
$GPGSV,4,3,15,20,16,128,,10,08,314,,28,07,177,,193,,,*7C
$GPGSV,4,4,15,194,,,,195,,,,45,,,*7D
$GLGSV,2,1,8,77,66,316,,87,59,323,,86,26,031,,88,26,253,*53
$GLGSV,2,2,8,78,15,331,,71,05,073,,75,02,156,,72,01,121,*54
$BDGSV,3,1,9,02,50,173,30.9,13,40,198,31.9,01,38,122,30.4,04,37,126,30.7*5B
$BDGSV,3,2,9,09,35,282,31.5,06,32,215,30.9,11,24,124,,12,10,053,*5E
$BDGSV,3,3,9,14,02,164,*65
$GNRMC,002239.000,A,3000.0018,N,12000.0051,E,0.000,166.36,230721,,,A*46
$GNVTG,166.36,T,,M,0.000,N,0.000,K,A*27
$PMTKGEPH,0,0,0,0,0,0,0,0,0,0,0,0,0,0,0,0,0,0,0,0,0,0,0,0,0,0,0,0,0,0,0,0,0*04
$PMTKGALM,31,1,1,1,1,1,1,1,1,1,1,1,1,1,1,1,1,1,1,1,1,1,1,1,1,1,1,1,1,1,1,1,0*2A
$GNACCURACY,5.6,179.9,3.0,37.0*26
$PMTKAGC,002239.000,2828,2724,5724,5766,0,3,0*65
$PMTKAG2,002239.000,5,0118,0,0,0,0,0,0,0,0,0,0,0,0*33
$GNGGA,002240.000,3000.0018,N,12000.0054,E,1,3,6.98,-6.3,M,7.0,M,,*55
$GPGSA,A,2,,,,,,,,,,,,,7.05,6.98,1.00*07
$GLGSA,A,2,,,,,,,,,,,,,7.05,6.98,1.00*1B
$BDGSA,A,2,06,09,13,,,,,,,,,,7.05,6.98,1.00*1B
$GPGSV,4,1,15,07,79,045,,25,57,038,,08,57,213,,04,46,233,*70
$GPGSV,4,2,15,13,44,042,,02,36,289,,27,27,224,,23,22,065,*7D
$GPGSV,4,3,15,20,16,128,,10,08,314,,28,07,177,,193,,,*7C
$GPGSV,4,4,15,194,,,,195,,,,46,,,*7E
$GLGSV,2,1,8,77,66,316,,87,59,323,,86,26,031,,88,26,253,*53
$GLGSV,2,2,8,78,15,331,,71,05,073,,75,02,156,,72,01,121,*54
$BDGSV,3,1,9,02,50,173,30.9,13,40,198,31.9,01,38,122,30.5,04,37,126,30.7*5A
$BDGSV,3,2,9,09,35,282,31.5,06,32,215,30.9,11,24,124,,12,10,053,*5E
$BDGSV,3,3,9,14,02,164,*65
$GNRMC,002240.000,A,3000.0018,N,12000.0054,E,0.000,166.36,230721,,,A*4D
$GNVTG,166.36,T,,M,0.000,N,0.000,K,A*27
$PMTKGEPH,0,0,0,0,0,0,0,0,0,0,0,0,0,0,0,0,0,0,0,0,0,0,0,0,0,0,0,0,0,0,0,0,0*04
$PMTKGALM,31,1,1,1,1,1,1,1,1,1,1,1,1,1,1,1,1,1,1,1,1,1,1,1,1,1,1,1,1,1,1,1,0*2A
$GNACCURACY,5.6,141.5,3.0,37.0*21
$PMTKAGC,002240.000,2689,2832,5797,5801,0,3,0*60
$PMTKAG2,002240.000,5,0118,0,0,0,0,0,0,0,0,0,0,0,0*3D
$GNGGA,002241.000,3000.0018,N,12000.0051,E,1,3,6.97,-6.3,M,7.0,M,,*5E
$GPGSA,A,2,,,,,,,,,,,,,7.04,6.97,1.00*09
$GLGSA,A,2,,,,,,,,,,,,,7.04,6.97,1.00*15
$BDGSA,A,2,06,09,13,,,,,,,,,,7.04,6.97,1.00*15
$GPGSV,4,1,15,07,79,045,,25,57,038,,08,57,213,,04,46,233,*70
$GPGSV,4,2,15,13,44,042,,02,36,289,,27,27,224,,23,22,065,*7D
$GPGSV,4,3,15,20,16,128,,10,08,314,,28,07,177,,193,,,*7C
$GPGSV,4,4,15,194,,,,195,,,,46,,,*7E
$GLGSV,2,1,8,77,66,316,,87,59,323,,86,26,031,,88,26,253,*53
$GLGSV,2,2,8,78,15,331,,71,05,073,,75,02,156,,72,01,121,*54
$BDGSV,3,1,9,02,50,173,31.0,13,40,198,31.9,01,38,122,30.5,04,37,126,30.7*52
$BDGSV,3,2,9,09,35,282,31.5,06,32,215,30.9,11,24,124,,12,10,053,*5E
$BDGSV,3,3,9,14,02,164,*65
$GNRMC,002241.000,A,3000.0018,N,12000.0051,E,0.000,166.36,230721,,,A*49
$GNVTG,166.36,T,,M,0.000,N,0.000,K,A*27
$PMTKGEPH,0,0,0,0,0,0,0,0,0,0,0,0,0,0,0,0,0,0,0,0,0,0,0,0,0,0,0,0,0,0,0,0,0*04
$PMTKGALM,31,1,1,1,1,1,1,1,1,1,1,1,1,1,1,1,1,1,1,1,1,1,1,1,1,1,1,1,1,1,1,1,0*2A
$GNACCURACY,5.6,179.9,3.0,37.0*26
$PMTKAGC,002241.000,2731,2748,5674,5890,0,3,0*65
$PMTKAG2,002241.000,5,0118,0,0,0,0,0,0,0,0,0,0,0,0*3C
$GNGGA,002242.000,3000.0018,N,12000.0052,E,1,3,6.97,-6.3,M,7.0,M,,*5E
$GPGSA,A,2,,,,,,,,,,,,,7.04,6.97,1.00*09
$GLGSA,A,2,,,,,,,,,,,,,7.04,6.97,1.00*15
$BDGSA,A,2,06,09,13,,,,,,,,,,7.04,6.97,1.00*15
$GPGSV,4,1,15,07,79,045,,25,57,038,,08,57,213,,04,46,233,*70
$GPGSV,4,2,15,13,44,042,,02,36,289,,27,27,224,,23,22,065,*7D
$GPGSV,4,3,15,20,16,128,,10,08,314,,28,07,177,,193,,,*7C
$GPGSV,4,4,15,194,,,,195,,,,46,,,*7E
$GLGSV,2,1,8,77,66,316,,87,59,323,,86,26,031,,88,26,253,*53
$GLGSV,2,2,8,78,15,331,,71,05,073,,75,02,156,,72,01,121,*54
$BDGSV,3,1,9,02,50,173,31.0,13,40,198,32.0,01,38,122,30.5,04,37,126,30.7*58
$BDGSV,3,2,9,09,35,282,31.5,06,32,215,31.0,11,24,124,,12,10,053,*56
$BDGSV,3,3,9,14,02,164,*65
$GNRMC,002242.000,A,3000.0018,N,12000.0052,E,0.000,166.36,230721,,,A*49
$GNVTG,166.36,T,,M,0.000,N,0.000,K,A*27
$PMTKGEPH,0,0,0,0,0,0,0,0,0,0,0,0,0,0,0,0,0,0,0,0,0,0,0,0,0,0,0,0,0,0,0,0,0*04
$PMTKGALM,31,1,1,1,1,1,1,1,1,1,1,1,1,1,1,1,1,1,1,1,1,1,1,1,1,1,1,1,1,1,1,1,0*2A
$GNACCURACY,5.6,175.9,3.0,39.1*25
$PMTKAGC,002242.000,2717,2744,5712,5812,0,3,0*65
$PMTKAG2,002242.000,5,0118,0,0,0,0,0,0,0,0,0,0,0,0*3F
$GNGGA,002243.000,3000.0021,N,12000.0056,E,1,3,6.97,-6.3,M,7.0,M,,*51
$GPGSA,A,2,,,,,,,,,,,,,7.04,6.97,1.00*09
$GLGSA,A,2,,,,,,,,,,,,,7.04,6.97,1.00*15
$BDGSA,A,2,06,09,13,,,,,,,,,,7.04,6.97,1.00*15
$GPGSV,4,1,15,07,79,045,,25,57,038,,08,57,213,,04,46,233,*70
$GPGSV,4,2,15,13,44,042,,02,36,289,,27,27,224,,23,22,065,*7D
$GPGSV,4,3,15,20,16,128,,10,08,314,,28,07,177,,193,,,*7C
$GPGSV,4,4,15,194,,,,195,,,,46,,,*7E
$GLGSV,2,1,8,77,66,316,,87,59,323,,86,26,031,,88,26,253,*53
$GLGSV,2,2,8,78,15,331,,71,05,073,,75,02,156,,72,01,121,*54
$BDGSV,3,1,9,02,50,173,30.9,13,40,198,32.0,01,38,122,30.5,04,37,126,30.7*50
$BDGSV,3,2,9,09,35,282,31.4,06,32,215,31.0,11,24,124,,12,10,053,*57
$BDGSV,3,3,9,14,02,164,*65
$GNRMC,002243.000,A,3000.0021,N,12000.0056,E,0.000,166.36,230721,,,A*46
$GNVTG,166.36,T,,M,0.000,N,0.000,K,A*27
$PMTKGEPH,0,0,0,0,0,0,0,0,0,0,0,0,0,0,0,0,0,0,0,0,0,0,0,0,0,0,0,0,0,0,0,0,0*04
$PMTKGALM,31,1,1,1,1,1,1,1,1,1,1,1,1,1,1,1,1,1,1,1,1,1,1,1,1,1,1,1,1,1,1,1,0*2A
$GNACCURACY,5.6,179.9,3.0,37.1*27
$PMTKAGC,002243.000,2598,2834,5791,5739,0,3,0*64
$PMTKAG2,002243.000,5,0118,0,0,0,0,0,0,0,0,0,0,0,0*3E
$GNGGA,002244.000,3000.0022,N,12000.0056,E,1,3,6.97,-6.3,M,7.0,M,,*55
$GPGSA,A,2,,,,,,,,,,,,,7.04,6.97,1.00*09
$GLGSA,A,2,,,,,,,,,,,,,7.04,6.97,1.00*15
$BDGSA,A,2,06,09,13,,,,,,,,,,7.04,6.97,1.00*15
$GPGSV,4,1,15,07,79,045,,25,57,038,,08,57,213,,04,46,233,*70
$GPGSV,4,2,15,13,44,042,,02,36,289,,27,27,224,,23,22,065,*7D
$GPGSV,4,3,15,20,16,128,,10,08,314,,28,07,177,,193,,,*7C
$GPGSV,4,4,15,194,,,,195,,,,46,,,*7E
$GLGSV,2,1,8,77,66,316,,87,59,323,,86,26,031,,88,26,253,*53
$GLGSV,2,2,8,78,15,331,,71,05,073,,75,02,156,,72,01,121,*54
$BDGSV,3,1,9,02,50,173,30.9,13,40,198,32.0,01,38,122,30.5,04,37,126,30.7*50
$BDGSV,3,2,9,09,35,282,31.4,06,32,215,31.0,11,24,124,,12,10,053,*57
$BDGSV,3,3,9,14,02,164,*65
$GNRMC,002244.000,A,3000.0022,N,12000.0056,E,0.000,166.36,230721,,,A*42
$GNVTG,166.36,T,,M,0.000,N,0.000,K,A*27
$PMTKGEPH,0,0,0,0,0,0,0,0,0,0,0,0,0,0,0,0,0,0,0,0,0,0,0,0,0,0,0,0,0,0,0,0,0*04
$PMTKGALM,31,1,1,1,1,1,1,1,1,1,1,1,1,1,1,1,1,1,1,1,1,1,1,1,1,1,1,1,1,1,1,1,0*2A
$GNACCURACY,5.6,174.9,3.0,37.0*2B
$PMTKAGC,002244.000,2937,2766,5674,5777,0,3,0*62
$PMTKAG2,002244.000,5,0118,0,0,0,0,0,0,0,0,0,0,0,0*39
$GNGGA,002245.000,3000.0018,N,12000.0045,E,1,3,6.97,-6.3,M,7.0,M,,*5F
$GPGSA,A,2,,,,,,,,,,,,,7.04,6.97,1.00*09
$GLGSA,A,2,,,,,,,,,,,,,7.04,6.97,1.00*15
$BDGSA,A,2,06,09,13,,,,,,,,,,7.04,6.97,1.00*15
$GPGSV,4,1,15,07,79,045,,25,57,038,,08,57,213,,04,46,233,*70
$GPGSV,4,2,15,13,44,042,,02,36,289,,27,27,224,,23,22,065,*7D
$GPGSV,4,3,15,20,16,128,,10,08,314,,28,07,177,,193,,,*7C
$GPGSV,4,4,15,194,,,,195,,,,46,,,*7E
$GLGSV,2,1,8,77,66,316,,87,59,323,,86,26,031,,88,26,253,*53
$GLGSV,2,2,8,78,15,331,,71,05,073,,75,02,156,,72,01,121,*54
$BDGSV,3,1,9,02,50,173,30.9,13,40,198,32.0,01,38,122,30.5,04,37,126,30.6*51
$BDGSV,3,2,9,09,35,282,31.4,06,32,215,31.0,11,24,124,,12,10,053,*57
$BDGSV,3,3,9,14,02,164,*65
$GNRMC,002245.000,A,3000.0018,N,12000.0045,E,0.000,166.36,230721,,,A*48
$GNVTG,166.36,T,,M,0.000,N,0.000,K,A*27
$PMTKGEPH,0,0,0,0,0,0,0,0,0,0,0,0,0,0,0,0,0,0,0,0,0,0,0,0,0,0,0,0,0,0,0,0,0*04
$PMTKGALM,31,1,1,1,1,1,1,1,1,1,1,1,1,1,1,1,1,1,1,1,1,1,1,1,1,1,1,1,1,1,1,1,0*2A
$GNACCURACY,5.6,179.9,3.0,39.1*29
$PMTKAGC,002245.000,2693,2791,5724,5734,0,3,0*69
$PMTKAG2,002245.000,5,0118,0,0,0,0,0,0,0,0,0,0,0,0*38
$GNGGA,002246.000,3000.0017,N,12000.0038,E,1,3,6.97,-6.3,M,7.0,M,,*59
$GPGSA,A,2,,,,,,,,,,,,,7.04,6.97,1.00*09
$GLGSA,A,2,,,,,,,,,,,,,7.04,6.97,1.00*15
$BDGSA,A,2,06,09,13,,,,,,,,,,7.04,6.97,1.00*15
$GPGSV,4,1,15,07,79,045,,25,57,038,,08,57,213,,04,46,233,*70
$GPGSV,4,2,15,13,44,042,,02,36,289,,27,27,224,,23,22,065,*7D
$GPGSV,4,3,15,20,16,128,,10,08,314,,28,07,177,,193,,,*7C
$GPGSV,4,4,15,194,,,,195,,,,47,,,*7F
$GLGSV,2,1,8,77,66,316,,87,59,323,,86,26,031,,88,26,253,*53
$GLGSV,2,2,8,78,15,331,,71,05,073,,75,02,156,,72,01,121,*54
$BDGSV,3,1,9,02,50,173,30.9,13,40,198,31.9,01,38,122,30.5,04,37,126,30.7*5A
$BDGSV,3,2,9,09,35,282,31.4,06,32,215,31.1,11,24,124,,12,10,053,*56
$BDGSV,3,3,9,14,02,164,*65
$GNRMC,002246.000,A,3000.0017,N,12000.0038,E,0.000,166.36,230721,,,A*4E
$GNVTG,166.36,T,,M,0.000,N,0.000,K,A*27
$PMTKGEPH,0,0,0,0,0,0,0,0,0,0,0,0,0,0,0,0,0,0,0,0,0,0,0,0,0,0,0,0,0,0,0,0,0*04
$PMTKGALM,31,1,1,1,1,1,1,1,1,1,1,1,1,1,1,1,1,1,1,1,1,1,1,1,1,1,1,1,1,1,1,1,0*2A
$GNACCURACY,5.6,179.9,3.0,37.1*27
$PMTKAGC,002246.000,2729,2810,5762,5675,0,3,0*6A
$PMTKAG2,002246.000,5,0118,0,0,0,0,0,0,0,0,0,0,0,0*3B
$GNGGA,002247.000,3000.0018,N,12000.0031,E,1,3,6.97,-6.3,M,7.0,M,,*5E
$GPGSA,A,2,,,,,,,,,,,,,7.04,6.97,1.00*09
$GLGSA,A,2,,,,,,,,,,,,,7.04,6.97,1.00*15
$BDGSA,A,2,06,09,13,,,,,,,,,,7.04,6.97,1.00*15
$GPGSV,4,1,15,07,79,045,,25,57,038,,08,57,213,,04,46,233,*70
$GPGSV,4,2,15,13,44,042,,02,36,289,,27,27,224,,23,22,065,*7D
$GPGSV,4,3,15,20,16,128,,10,08,314,,28,07,177,,193,,,*7C
$GPGSV,4,4,15,194,,,,195,,,,47,,,*7F
$GLGSV,2,1,8,77,66,316,,87,59,323,,86,26,031,,88,26,253,*53
$GLGSV,2,2,8,78,15,331,,71,05,073,,75,02,156,,72,01,121,*54
$BDGSV,3,1,9,02,50,173,30.9,13,40,198,31.9,01,38,122,30.5,04,37,126,30.7*5A
$BDGSV,3,2,9,09,35,282,31.5,06,32,215,31.1,11,24,124,,12,10,053,*57
$BDGSV,3,3,9,14,02,164,*65
$GNRMC,002247.000,A,3000.0018,N,12000.0031,E,0.000,166.36,230721,,,A*49
$GNVTG,166.36,T,,M,0.000,N,0.000,K,A*27
$PMTKGEPH,0,0,0,0,0,0,0,0,0,0,0,0,0,0,0,0,0,0,0,0,0,0,0,0,0,0,0,0,0,0,0,0,0*04
$PMTKGALM,31,1,1,1,1,1,1,1,1,1,1,1,1,1,1,1,1,1,1,1,1,1,1,1,1,1,1,1,1,1,1,1,0*2A
$GNACCURACY,5.6,153.3,2.9,37.0*2C
$PMTKAGC,002247.000,2662,2771,5779,5652,0,3,0*62
$PMTKAG2,002247.000,5,0118,0,0,0,0,0,0,0,0,0,0,0,0*3A
$GNGGA,002248.000,3000.0015,N,12000.0021,E,1,3,6.97,-6.3,M,7.0,M,,*5D
$GPGSA,A,2,,,,,,,,,,,,,7.04,6.97,1.00*09
$GLGSA,A,2,,,,,,,,,,,,,7.04,6.97,1.00*15
$BDGSA,A,2,06,09,13,,,,,,,,,,7.04,6.97,1.00*15
$GPGSV,4,1,15,07,79,045,,25,57,038,,08,57,213,,04,46,233,*70
$GPGSV,4,2,15,13,44,042,,02,36,289,,27,27,224,,23,22,065,*7D
$GPGSV,4,3,15,20,16,128,,10,08,314,,28,07,177,,193,,,*7C
$GPGSV,4,4,15,194,,,,195,,,,47,,,*7F
$GLGSV,2,1,8,77,66,316,,87,59,323,,86,26,031,,88,26,253,*53
$GLGSV,2,2,8,78,15,331,,71,06,072,,75,02,156,,72,01,121,*56
$BDGSV,3,1,9,02,50,173,30.9,13,40,198,31.9,01,38,122,30.5,04,37,126,30.7*5A
$BDGSV,3,2,9,09,35,282,31.5,06,32,215,31.1,11,24,124,,12,10,053,*57
$BDGSV,3,3,9,14,02,164,*65
$GNRMC,002248.000,A,3000.0015,N,12000.0021,E,0.000,166.36,230721,,,A*4A
$GNVTG,166.36,T,,M,0.000,N,0.000,K,A*27
$PMTKGEPH,0,0,0,0,0,0,0,0,0,0,0,0,0,0,0,0,0,0,0,0,0,0,0,0,0,0,0,0,0,0,0,0,0*04
$PMTKGALM,31,1,1,1,1,1,1,1,1,1,1,1,1,1,1,1,1,1,1,1,1,1,1,1,1,1,1,1,1,1,1,1,0*2A
$GNACCURACY,5.6,142.4,3.0,37.1*22
$PMTKAGC,002248.000,2903,2775,5762,5717,0,3,0*6B
$PMTKAG2,002248.000,5,0118,0,0,0,0,0,0,0,0,0,0,0,0*35
$GNGGA,002249.000,3000.0017,N,12000.0026,E,1,3,6.97,-6.3,M,7.0,M,,*59
$GPGSA,A,2,,,,,,,,,,,,,7.05,6.97,1.00*08
$GLGSA,A,2,,,,,,,,,,,,,7.05,6.97,1.00*14
$BDGSA,A,2,06,09,13,,,,,,,,,,7.05,6.97,1.00*14
$GPGSV,4,1,15,07,79,045,,25,57,038,,08,57,213,,04,46,233,*70
$GPGSV,4,2,15,13,44,042,,02,36,289,,27,27,224,,23,22,065,*7D
$GPGSV,4,3,15,20,16,128,,10,08,314,,28,07,177,,193,,,*7C
$GPGSV,4,4,15,194,,,,195,,,,47,,,*7F
$GLGSV,2,1,8,77,66,316,,87,59,323,,86,26,031,,88,26,253,*53
$GLGSV,2,2,8,78,15,331,,71,06,072,,72,02,120,,75,02,156,*54
$BDGSV,3,1,9,02,50,173,30.8,13,40,198,31.9,01,38,122,30.5,04,37,126,30.7*5B
$BDGSV,3,2,9,09,35,282,31.5,06,32,215,31.1,11,24,124,,12,10,053,*57
$BDGSV,3,3,9,14,02,164,*65
$GNRMC,002249.000,A,3000.0017,N,12000.0026,E,0.000,166.36,230721,,,A*4E
$GNVTG,166.36,T,,M,0.000,N,0.000,K,A*27
$PMTKGEPH,0,0,0,0,0,0,0,0,0,0,0,0,0,0,0,0,0,0,0,0,0,0,0,0,0,0,0,0,0,0,0,0,0*04
$PMTKGALM,31,1,1,1,1,1,1,1,1,1,1,1,1,1,1,1,1,1,1,1,1,1,1,1,1,1,1,1,1,1,1,1,0*2A
$GNACCURACY,5.6,179.9,3.0,37.1*27
$PMTKAGC,002249.000,2686,2880,5738,5757,0,3,0*66
$PMTKAG2,002249.000,5,0118,0,0,0,0,0,0,0,0,0,0,0,0*34
$GNGGA,002250.000,3000.0015,N,12000.0024,E,1,3,6.97,-6.3,M,7.0,M,,*51
$GPGSA,A,2,,,,,,,,,,,,,7.04,6.97,1.00*09
$GLGSA,A,2,,,,,,,,,,,,,7.04,6.97,1.00*15
$BDGSA,A,2,06,09,13,,,,,,,,,,7.04,6.97,1.00*15
$GPGSV,4,1,15,07,79,045,,25,57,038,,08,57,213,,04,46,233,*70
$GPGSV,4,2,15,13,44,042,,02,36,289,,27,27,224,,23,22,065,*7D
$GPGSV,4,3,15,20,16,128,,10,08,314,,28,07,177,,193,,,*7C
$GPGSV,4,4,15,194,,,,195,,,,47,,,*7F
$GLGSV,2,1,8,77,66,316,,87,59,323,,86,26,031,,88,26,253,*53
$GLGSV,2,2,8,78,15,331,,71,06,072,,72,02,120,,75,02,156,*54
$BDGSV,3,1,9,02,50,173,30.8,13,40,198,32.0,01,38,122,30.4,04,37,126,30.7*50
$BDGSV,3,2,9,09,35,282,31.5,06,32,215,31.1,11,24,124,,12,10,053,*57
$BDGSV,3,3,9,14,02,164,*65
$GNRMC,002250.000,A,3000.0015,N,12000.0024,E,0.000,166.36,230721,,,A*46
$GNVTG,166.36,T,,M,0.000,N,0.000,K,A*27
$PMTKGEPH,0,0,0,0,0,0,0,0,0,0,0,0,0,0,0,0,0,0,0,0,0,0,0,0,0,0,0,0,0,0,0,0,0*04
$PMTKGALM,31,1,1,1,1,1,1,1,1,1,1,1,1,1,1,1,1,1,1,1,1,1,1,1,1,1,1,1,1,1,1,1,0*2A
$GNACCURACY,5.6,179.9,3.0,37.0*26
$PMTKAGC,002250.000,2812,2754,5681,5600,0,3,0*6B
$PMTKAG2,002250.000,5,0118,0,0,0,0,0,0,0,0,0,0,0,0*3C
$GNGGA,002251.000,3000.0015,N,12000.0026,E,1,3,6.98,-6.3,M,7.0,M,,*5D
$GPGSA,A,2,,,,,,,,,,,,,7.05,6.98,1.00*07
$GLGSA,A,2,,,,,,,,,,,,,7.05,6.98,1.00*1B
$BDGSA,A,2,06,09,13,,,,,,,,,,7.05,6.98,1.00*1B
$GPGSV,4,1,15,07,79,045,,25,57,038,,08,57,213,,04,46,233,*70
$GPGSV,4,2,15,13,44,042,,02,36,289,,27,27,224,,23,22,065,*7D
$GPGSV,4,3,15,20,16,128,,10,08,314,,28,07,177,,193,,,*7C
$GPGSV,4,4,15,194,,,,195,,,,47,,,*7F
$GLGSV,2,1,8,77,66,316,,87,59,323,,86,26,031,,88,26,253,*53
$GLGSV,2,2,8,78,15,331,,71,06,072,,72,02,120,,75,02,156,*54
$BDGSV,3,1,9,02,50,173,30.7,13,40,198,31.9,01,38,122,30.4,04,37,126,30.7*55
$BDGSV,3,2,9,09,35,282,31.6,06,32,215,31.0,11,24,124,,12,10,053,*55
$BDGSV,3,3,9,14,02,164,*65
$GNRMC,002251.000,A,3000.0015,N,12000.0026,E,0.000,166.36,230721,,,A*45
$GNVTG,166.36,T,,M,0.000,N,0.000,K,A*27
$PMTKGEPH,0,0,0,0,0,0,0,0,0,0,0,0,0,0,0,0,0,0,0,0,0,0,0,0,0,0,0,0,0,0,0,0,0*04
$PMTKGALM,31,1,1,1,1,1,1,1,1,1,1,1,1,1,1,1,1,1,1,1,1,1,1,1,1,1,1,1,1,1,1,1,0*2A
$GNACCURACY,5.6,179.9,3.0,38.6*2F
$PMTKAGC,002251.000,2722,2984,5694,5830,0,3,0*6C
$PMTKAG2,002251.000,5,0118,0,0,0,0,0,0,0,0,0,0,0,0*3D
$GNGGA,002252.000,3000.0019,N,12000.0034,E,1,3,6.98,-6.3,M,7.0,M,,*51
$GPGSA,A,2,,,,,,,,,,,,,7.05,6.98,1.00*07
$GLGSA,A,2,,,,,,,,,,,,,7.05,6.98,1.00*1B
$BDGSA,A,2,06,09,13,,,,,,,,,,7.05,6.98,1.00*1B
$GPGSV,4,1,15,07,79,045,,25,57,038,,08,57,213,,04,46,233,*70
$GPGSV,4,2,15,13,44,042,,02,36,289,,27,27,224,,23,22,065,*7D
$GPGSV,4,3,15,20,16,128,,10,08,314,,28,07,177,,193,,,*7C
$GPGSV,4,4,15,194,,,,195,,,,49,,,*71
$GLGSV,2,1,8,77,66,316,,87,59,323,,86,26,031,,88,26,253,*53
$GLGSV,2,2,8,78,15,331,,71,06,072,,72,02,120,,75,01,156,*57
$BDGSV,3,1,9,02,50,173,30.6,13,40,198,31.9,01,38,122,30.4,04,37,126,30.7*54
$BDGSV,3,2,9,09,35,282,31.5,06,32,215,31.1,11,24,124,,12,10,053,*57
$BDGSV,3,3,9,14,02,164,*65
$GNRMC,002252.000,A,3000.0019,N,12000.0034,E,0.000,166.36,230721,,,A*49
$GNVTG,166.36,T,,M,0.000,N,0.000,K,A*27
