$GPGGA,000005,3000.26473,N,12000.37774,E,3,32,1.02,-7.86,M,7.86,M,,*6E
$GPRMC,000005,A,3000.26473,N,12000.37774,E,75.594,102.410,230721,0.000,E,A,V*59
$GLRMC,000005,A,3000.26473,N,12000.37774,E,75.594,102.410,230721,0.000,E,A,V*45
$GLGLL,3000.26473,N,12000.37774,E,000005,A*37
$GPGGA,000006,3000.25942,N,12000.40114,E,3,32,1.02,-7.86,M,7.86,M,,*61
$GPRMC,000006,A,3000.25942,N,12000.40114,E,75.594,106.866,230721,0.000,E,A,V*5F
$GLRMC,000006,A,3000.25942,N,12000.40114,E,75.594,106.866,230721,0.000,E,A,V*43
$GLGLL,3000.25942,N,12000.40114,E,000006,A*38
$GPGGA,000007,3000.25253,N,12000.42398,E,3,32,1.02,-7.86,M,7.86,M,,*6F
$GPRMC,000007,A,3000.25253,N,12000.42398,E,75.594,111.323,230721,0.000,E,A,V*5D
$GLRMC,000007,A,3000.25253,N,12000.42398,E,75.594,111.323,230721,0.000,E,A,V*41
$GLGLL,3000.25253,N,12000.42398,E,000007,A*36
$GPGGA,000008,3000.24413,N,12000.44615,E,3,32,1.02,-7.86,M,7.86,M,,*65
$GPRMC,000008,A,3000.24413,N,12000.44615,E,75.594,115.779,230721,0.000,E,A,V*58
$GLRMC,000008,A,3000.24413,N,12000.44615,E,75.594,115.779,230721,0.000,E,A,V*44
$GLGLL,3000.24413,N,12000.44615,E,000008,A*3C
$GPGGA,000009,3000.23425,N,12000.46750,E,3,32,1.02,-7.86,M,7.86,M,,*64
$GPRMC,000009,A,3000.23425,N,12000.46750,E,75.594,120.236,230721,0.000,E,A,V*51
$GLRMC,000009,A,3000.23425,N,12000.46750,E,75.594,120.236,230721,0.000,E,A,V*4D
$GLGLL,3000.23425,N,12000.46750,E,000009,A*3D
$GPGGA,000010,3000.22295,N,12000.48790,E,3,32,1.02,-7.86,M,7.86,M,,*62
$GPRMC,000010,A,3000.22295,N,12000.48790,E,75.594,124.692,230721,0.000,E,A,V*59
$GLRMC,000010,A,3000.22295,N,12000.48790,E,75.594,124.692,230721,0.000,E,A,V*45
$GLGLL,3000.22295,N,12000.48790,E,000010,A*3B
$GPGGA,000011,3000.21031,N,12000.50723,E,3,32,1.02,-7.86,M,7.86,M,,*6D
$GPRMC,000011,A,3000.21031,N,12000.50723,E,75.594,129.149,230721,0.000,E,A,V*5A
$GLRMC,000011,A,3000.21031,N,12000.50723,E,75.594,129.149,230721,0.000,E,A,V*46
$GLGLL,3000.21031,N,12000.50723,E,000011,A*34
$GPGGA,000012,3000.19640,N,12000.52537,E,3,32,1.02,-7.86,M,7.86,M,,*60
$GPRMC,000012,A,3000.19640,N,12000.52537,E,75.594,133.605,230721,0.000,E,A,V*53
$GLRMC,000012,A,3000.19640,N,12000.52537,E,75.594,133.605,230721,0.000,E,A,V*4F
$GLGLL,3000.19640,N,12000.52537,E,000012,A*39
$GPGGA,000013,3000.18131,N,12000.54222,E,3,32,1.02,-7.86,M,7.86,M,,*64
$GPRMC,000013,A,3000.18131,N,12000.54222,E,75.594,138.062,230721,0.000,E,A,V*5B
$GLRMC,000013,A,3000.18131,N,12000.54222,E,75.594,138.062,230721,0.000,E,A,V*47
$GLGLL,3000.18131,N,12000.54222,E,000013,A*3D
$GPGGA,000014,3000.16512,N,12000.55767,E,3,32,1.02,-7.86,M,7.86,M,,*6D
$GPRMC,000014,A,3000.16512,N,12000.55767,E,75.594,142.518,230721,0.000,E,A,V*57
$GLRMC,000014,A,3000.16512,N,12000.55767,E,75.594,142.518,230721,0.000,E,A,V*4B
$GLGLL,3000.16512,N,12000.55767,E,000014,A*34
$GPGGA,000015,3000.14794,N,12000.57162,E,3,32,1.02,-7.86,M,7.86,M,,*63
$GPRMC,000015,A,3000.14794,N,12000.57162,E,75.594,146.974,230721,0.000,E,A,V*5B
$GLRMC,000015,A,3000.14794,N,12000.57162,E,75.594,146.974,230721,0.000,E,A,V*47
$GLGLL,3000.14794,N,12000.57162,E,000015,A*3A
$GPGGA,000016,3000.12986,N,12000.58400,E,3,32,1.02,-7.86,M,7.86,M,,*65
$GPRMC,000016,A,3000.12986,N,12000.58400,E,75.594,151.431,230721,0.000,E,A,V*57
$GLRMC,000016,A,3000.12986,N,12000.58400,E,75.594,151.431,230721,0.000,E,A,V*4B
$GLGLL,3000.12986,N,12000.58400,E,000016,A*3C
$GPGGA,000017,3000.11100,N,12000.59473,E,3,32,1.02,-7.86,M,7.86,M,,*64
$GPRMC,000017,A,3000.11100,N,12000.59473,E,75.594,155.887,230721,0.000,E,A,V*53
$GLRMC,000017,A,3000.11100,N,12000.59473,E,75.594,155.887,230721,0.000,E,A,V*4F
$GLGLL,3000.11100,N,12000.59473,E,000017,A*3D
$GPGGA,000018,3000.09148,N,12000.60375,E,3,32,1.02,-7.86,M,7.86,M,,*65
$GPRMC,000018,A,3000.09148,N,12000.60375,E,75.594,160.344,230721,0.000,E,A,V*50
$GLRMC,000018,A,3000.09148,N,12000.60375,E,75.594,160.344,230721,0.000,E,A,V*4C
$GLGLL,3000.09148,N,12000.60375,E,000018,A*3C
$GPGGA,000019,3000.07140,N,12000.61099,E,3,32,1.02,-7.86,M,7.86,M,,*62
$GPRMC,000019,A,3000.07140,N,12000.61099,E,75.594,164.800,230721,0.000,E,A,V*58
$GLRMC,000019,A,3000.07140,N,12000.61099,E,75.594,164.800,230721,0.000,E,A,V*44
$GLGLL,3000.07140,N,12000.61099,E,000019,A*3B
$GPGGA,000020,3000.05089,N,12000.61642,E,3,32,1.02,-7.86,M,7.86,M,,*6E
$GPRMC,000020,A,3000.05089,N,12000.61642,E,75.594,169.256,230721,0.000,E,A,V*50
$GLRMC,000020,A,3000.05089,N,12000.61642,E,75.594,169.256,230721,0.000,E,A,V*4C
$GLGLL,3000.05089,N,12000.61642,E,000020,A*37
$GPGGA,000021,3000.03008,N,12000.62000,E,3,32,1.02,-7.86,M,7.86,M,,*63
$GPRMC,000021,A,3000.03008,N,12000.62000,E,75.594,173.713,230721,0.000,E,A,V*52
$GLRMC,000021,A,3000.03008,N,12000.62000,E,75.594,173.713,230721,0.000,E,A,V*4E
$GLGLL,3000.03008,N,12000.62000,E,000021,A*3A
$GPGGA,000022,3000.00909,N,12000.62172,E,3,32,1.02,-7.86,M,7.86,M,,*6F
$GPRMC,000022,A,3000.00909,N,12000.62172,E,75.594,178.169,230721,0.000,E,A,V*5E
$GLRMC,000022,A,3000.00909,N,12000.62172,E,75.594,178.169,230721,0.000,E,A,V*42
$GLGLL,3000.00909,N,12000.62172,E,000022,A*36
$GPGGA,000023,2959.98805,N,12000.62155,E,3,32,1.02,-7.86,M,7.86,M,,*63
$GPRMC,000023,A,2959.98805,N,12000.62155,E,75.594,182.625,230721,0.000,E,A,V*58
$GLRMC,000023,A,2959.98805,N,12000.62155,E,75.594,182.625,230721,0.000,E,A,V*44
$GLGLL,2959.98805,N,12000.62155,E,000023,A*3A
$GPGGA,000024,2959.96708,N,12000.61951,E,3,32,1.02,-7.86,M,7.86,M,,*67
$GPRMC,000024,A,2959.96708,N,12000.61951,E,75.594,187.082,230721,0.000,E,A,V*52
$GLRMC,000024,A,2959.96708,N,12000.61951,E,75.594,187.082,230721,0.000,E,A,V*4E
$GLGLL,2959.96708,N,12000.61951,E,000024,A*3E
$GPGGA,000025,2959.94631,N,12000.61560,E,3,32,1.02,-7.86,M,7.86,M,,*61
$GPRMC,000025,A,2959.94631,N,12000.61560,E,75.594,191.538,230721,0.000,E,A,V*57
$GLRMC,000025,A,2959.94631,N,12000.61560,E,75.594,191.538,230721,0.000,E,A,V*4B
$GLGLL,2959.94631,N,12000.61560,E,000025,A*38
$GPGGA,000026,2959.92587,N,12000.60985,E,3,32,1.02,-7.86,M,7.86,M,,*6C
$GPRMC,000026,A,2959.92587,N,12000.60985,E,75.594,195.994,230721,0.000,E,A,V*54
$GLRMC,000026,A,2959.92587,N,12000.60985,E,75.594,195.994,230721,0.000,E,A,V*48
$GLGLL,2959.92587,N,12000.60985,E,000026,A*35
$GPGGA,000027,2959.90588,N,12000.60229,E,3,32,1.02,-7.86,M,7.86,M,,*6D
$GPRMC,000027,A,2959.90588,N,12000.60229,E,75.594,200.451,230721,0.000,E,A,V*5E
$GLRMC,000027,A,2959.90588,N,12000.60229,E,75.594,200.451,230721,0.000,E,A,V*42
$GLGLL,2959.90588,N,12000.60229,E,000027,A*34
$GPGGA,000028,2959.88647,N,12000.59297,E,3,32,1.02,-7.86,M,7.86,M,,*64
$GPRMC,000028,A,2959.88647,N,12000.59297,E,75.594,204.907,230721,0.000,E,A,V*5D
$GLRMC,000028,A,2959.88647,N,12000.59297,E,75.594,204.907,230721,0.000,E,A,V*41
$GLGLL,2959.88647,N,12000.59297,E,000028,A*3D
$GPGGA,000029,2959.86774,N,12000.58194,E,3,32,1.02,-7.86,M,7.86,M,,*6B
$GPRMC,000029,A,2959.86774,N,12000.58194,E,75.594,209.363,230721,0.000,E,A,V*57
$GLRMC,000029,A,2959.86774,N,12000.58194,E,75.594,209.363,230721,0.000,E,A,V*4B
$GLGLL,2959.86774,N,12000.58194,E,000029,A*32
$GPGGA,000030,2959.84981,N,12000.56928,E,3,32,1.02,-7.86,M,7.86,M,,*64
$GPRMC,000030,A,2959.84981,N,12000.56928,E,75.594,213.819,230721,0.000,E,A,V*55
$GLRMC,000030,A,2959.84981,N,12000.56928,E,75.594,213.819,230721,0.000,E,A,V*49
$GLGLL,2959.84981,N,12000.56928,E,000030,A*3D
$GPGGA,000031,2959.83280,N,12000.55506,E,3,32,1.02,-7.86,M,7.86,M,,*6B
$GPRMC,000031,A,2959.83280,N,12000.55506,E,75.594,218.276,230721,0.000,E,A,V*52
$GLRMC,000031,A,2959.83280,N,12000.55506,E,75.594,218.276,230721,0.000,E,A,V*4E
$GLGLL,2959.83280,N,12000.55506,E,000031,A*32
$GPGGA,000032,2959.81679,N,12000.53935,E,3,32,1.02,-7.86,M,7.86,M,,*62
$GPRMC,000032,A,2959.81679,N,12000.53935,E,75.594,222.732,230721,0.000,E,A,V*57
$GLRMC,000032,A,2959.81679,N,12000.53935,E,75.594,222.732,230721,0.000,E,A,V*4B
$GLGLL,2959.81679,N,12000.53935,E,000032,A*3B
$GPGGA,000033,2959.80190,N,12000.52227,E,3,32,1.02,-7.86,M,7.86,M,,*6B
$GPRMC,000033,A,2959.80190,N,12000.52227,E,75.594,227.188,230721,0.000,E,A,V*5C
$GLRMC,000033,A,2959.80190,N,12000.52227,E,75.594,227.188,230721,0.000,E,A,V*40
$GLGLL,2959.80190,N,12000.52227,E,000033,A*32
$GPGGA,000034,2959.78821,N,12000.50391,E,3,32,1.02,-7.86,M,7.86,M,,*66
$GPRMC,000034,A,2959.78821,N,12000.50391,E,75.594,231.644,230721,0.000,E,A,V*51
$GLRMC,000034,A,2959.78821,N,12000.50391,E,75.594,231.644,230721,0.000,E,A,V*4D
$GLGLL,2959.78821,N,12000.50391,E,000034,A*3F
$GPGGA,000035,2959.77580,N,12000.48439,E,3,32,1.02,-7.86,M,7.86,M,,*62
$GPRMC,000035,A,2959.77580,N,12000.48439,E,75.594,236.100,230721,0.000,E,A,V*55
$GLRMC,000035,A,2959.77580,N,12000.48439,E,75.594,236.100,230721,0.000,E,A,V*49
$GLGLL,2959.77580,N,12000.48439,E,000035,A*3B
$GPGGA,000036,2959.76475,N,12000.46381,E,3,32,1.02,-7.86,M,7.86,M,,*61
$GPRMC,000036,A,2959.76475,N,12000.46381,E,75.594,240.556,230721,0.000,E,A,V*50
$GLRMC,000036,A,2959.76475,N,12000.46381,E,75.594,240.556,230721,0.000,E,A,V*4C
$GLGLL,2959.76475,N,12000.46381,E,000036,A*38
$GPGGA,000037,2959.75513,N,12000.44231,E,3,32,1.02,-7.86,M,7.86,M,,*6A
$GPRMC,000037,A,2959.75513,N,12000.44231,E,75.594,245.013,230721,0.000,E,A,V*5A
$GLRMC,000037,A,2959.75513,N,12000.44231,E,75.594,245.013,230721,0.000,E,A,V*46
$GLGLL,2959.75513,N,12000.44231,E,000037,A*33
$GPGGA,000038,2959.74699,N,12000.42002,E,3,32,1.02,-7.86,M,7.86,M,,*61
$GPRMC,000038,A,2959.74699,N,12000.42002,E,75.594,249.469,230721,0.000,E,A,V*54
$GLRMC,000038,A,2959.74699,N,12000.42002,E,75.594,249.469,230721,0.000,E,A,V*48
$GLGLL,2959.74699,N,12000.42002,E,000038,A*38
$GPGGA,000039,2959.74038,N,12000.39707,E,3,32,1.02,-7.86,M,7.86,M,,*63
$GPRMC,000039,A,2959.74038,N,12000.39707,E,75.594,253.925,230721,0.000,E,A,V*58
$GLRMC,000039,A,2959.74038,N,12000.39707,E,75.594,253.925,230721,0.000,E,A,V*44
$GLGLL,2959.74038,N,12000.39707,E,000039,A*3A
$GPGGA,000040,2959.73534,N,12000.37360,E,3,32,1.02,-7.86,M,7.86,M,,*68
$GPRMC,000040,A,2959.73534,N,12000.37360,E,75.594,258.381,230721,0.000,E,A,V*5C
$GLRMC,000040,A,2959.73534,N,12000.37360,E,75.594,258.381,230721,0.000,E,A,V*40
$GLGLL,2959.73534,N,12000.37360,E,000040,A*31
$GPGGA,000041,2959.73190,N,12000.34974,E,3,32,1.02,-7.86,M,7.86,M,,*6F
$GPRMC,000041,A,2959.73190,N,12000.34974,E,75.594,262.837,230721,0.000,E,A,V*54
$GLRMC,000041,A,2959.73190,N,12000.34974,E,75.594,262.837,230721,0.000,E,A,V*48
$GLGLL,2959.73190,N,12000.34974,E,000041,A*36
$GPGGA,000042,2959.73009,N,12000.32566,E,3,32,1.02,-7.86,M,7.86,M,,*64
$GPRMC,000042,A,2959.73009,N,12000.32566,E,75.594,267.293,230721,0.000,E,A,V*5E
$GLRMC,000042,A,2959.73009,N,12000.32566,E,75.594,267.293,230721,0.000,E,A,V*42
$GLGLL,2959.73009,N,12000.32566,E,000042,A*3D
$GPGGA,000043,2959.72992,N,12000.30148,E,3,32,1.02,-7.86,M,7.86,M,,*65
$GPRMC,000043,A,2959.72992,N,12000.30148,E,75.594,271.749,230721,0.000,E,A,V*5A
$GLRMC,000043,A,2959.72992,N,12000.30148,E,75.594,271.749,230721,0.000,E,A,V*46
$GLGLL,2959.72992,N,12000.30148,E,000043,A*3C
$GPGGA,000044,2959.73137,N,12000.27736,E,3,32,1.02,-7.86,M,7.86,M,,*6D
$GPRMC,000044,A,2959.73137,N,12000.27736,E,75.594,276.206,230721,0.000,E,A,V*5B
$GLRMC,000044,A,2959.73137,N,12000.27736,E,75.594,276.206,230721,0.000,E,A,V*47
$GLGLL,2959.73137,N,12000.27736,E,000044,A*34
$GPGGA,000045,2959.73446,N,12000.25345,E,3,32,1.02,-7.86,M,7.86,M,,*6D
$GPRMC,000045,A,2959.73446,N,12000.25345,E,75.594,280.662,230721,0.000,E,A,V*54
$GLRMC,000045,A,2959.73446,N,12000.25345,E,75.594,280.662,230721,0.000,E,A,V*48
$GLGLL,2959.73446,N,12000.25345,E,000045,A*34
$GPGGA,000046,2959.73915,N,12000.22988,E,3,32,1.02,-7.86,M,7.86,M,,*69
$GPRMC,000046,A,2959.73915,N,12000.22988,E,75.594,285.118,230721,0.000,E,A,V*5F
$GLRMC,000046,A,2959.73915,N,12000.22988,E,75.594,285.118,230721,0.000,E,A,V*43
$GLGLL,2959.73915,N,12000.22988,E,000046,A*30
$GPGGA,000047,2959.74543,N,12000.20681,E,3,32,1.02,-7.86,M,7.86,M,,*64
$GPRMC,000047,A,2959.74543,N,12000.20681,E,75.594,289.574,230721,0.000,E,A,V*50
$GLRMC,000047,A,2959.74543,N,12000.20681,E,75.594,289.574,230721,0.000,E,A,V*4C
$GLGLL,2959.74543,N,12000.20681,E,000047,A*3D
$GPGGA,000048,2959.75324,N,12000.18436,E,3,32,1.02,-7.86,M,7.86,M,,*68
$GPRMC,000048,A,2959.75324,N,12000.18436,E,75.594,294.030,230721,0.000,E,A,V*55
$GLRMC,000048,A,2959.75324,N,12000.18436,E,75.594,294.030,230721,0.000,E,A,V*49
$GLGLL,2959.75324,N,12000.18436,E,000048,A*31
$GPGGA,000049,2959.76255,N,12000.16268,E,3,32,1.02,-7.86,M,7.86,M,,*6E
$GPRMC,000049,A,2959.76255,N,12000.16268,E,75.594,298.486,230721,0.000,E,A,V*56
$GLRMC,000049,A,2959.76255,N,12000.16268,E,75.594,298.486,230721,0.000,E,A,V*4A
$GLGLL,2959.76255,N,12000.16268,E,000049,A*37
$GPGGA,000050,2959.77330,N,12000.14189,E,3,32,1.02,-7.86,M,7.86,M,,*6B
$GPRMC,000050,A,2959.77330,N,12000.14189,E,75.594,302.942,230721,0.000,E,A,V*54
$GLRMC,000050,A,2959.77330,N,12000.14189,E,75.594,302.942,230721,0.000,E,A,V*48
$GLGLL,2959.77330,N,12000.14189,E,000050,A*32
$GPGGA,000051,2959.78542,N,12000.12213,E,3,32,1.02,-7.86,M,7.86,M,,*60
$GPRMC,000051,A,2959.78542,N,12000.12213,E,75.594,307.399,230721,0.000,E,A,V*56
$GLRMC,000051,A,2959.78542,N,12000.12213,E,75.594,307.399,230721,0.000,E,A,V*4A
$GLGLL,2959.78542,N,12000.12213,E,000051,A*39
$GPGGA,000052,2959.79884,N,12000.10351,E,3,32,1.02,-7.86,M,7.86,M,,*60
$GPRMC,000052,A,2959.79884,N,12000.10351,E,75.594,311.855,230721,0.000,E,A,V*5A
$GLRMC,000052,A,2959.79884,N,12000.10351,E,75.594,311.855,230721,0.000,E,A,V*46
$GLGLL,2959.79884,N,12000.10351,E,000052,A*39
$GPGGA,000053,2959.81348,N,12000.08614,E,3,32,1.02,-7.86,M,7.86,M,,*60
$GPRMC,000053,A,2959.81348,N,12000.08614,E,75.594,316.311,230721,0.000,E,A,V*56
$GLRMC,000053,A,2959.81348,N,12000.08614,E,75.594,316.311,230721,0.000,E,A,V*4A
$GLGLL,2959.81348,N,12000.08614,E,000053,A*39
$GPGGA,000054,2959.82925,N,12000.07013,E,3,32,1.02,-7.86,M,7.86,M,,*6B
$GPRMC,000054,A,2959.82925,N,12000.07013,E,75.594,320.767,230721,0.000,E,A,V*5D
$GLRMC,000054,A,2959.82925,N,12000.07013,E,75.594,320.767,230721,0.000,E,A,V*41
$GLGLL,2959.82925,N,12000.07013,E,000054,A*32
$GPGGA,000055,2959.84606,N,12000.05558,E,3,32,1.02,-7.86,M,7.86,M,,*6A
$GPRMC,000055,A,2959.84606,N,12000.05558,E,75.594,325.223,230721,0.000,E,A,V*5C
$GLRMC,000055,A,2959.84606,N,12000.05558,E,75.594,325.223,230721,0.000,E,A,V*40
$GLGLL,2959.84606,N,12000.05558,E,000055,A*33
$GPGGA,000056,2959.86379,N,12000.04257,E,3,32,1.02,-7.86,M,7.86,M,,*6F
$GPRMC,000056,A,2959.86379,N,12000.04257,E,75.594,329.679,230721,0.000,E,A,V*5E
$GLRMC,000056,A,2959.86379,N,12000.04257,E,75.594,329.679,230721,0.000,E,A,V*42
$GLGLL,2959.86379,N,12000.04257,E,000056,A*36
$GPGGA,000057,2959.88236,N,12000.03119,E,3,32,1.02,-7.86,M,7.86,M,,*64
$GPRMC,000057,A,2959.88236,N,12000.03119,E,75.594,334.136,230721,0.000,E,A,V*55
$GLRMC,000057,A,2959.88236,N,12000.03119,E,75.594,334.136,230721,0.000,E,A,V*49
$GLGLL,2959.88236,N,12000.03119,E,000057,A*3D
$GPGGA,000058,2959.90164,N,12000.02150,E,3,32,1.02,-7.86,M,7.86,M,,*6A
$GPRMC,000058,A,2959.90164,N,12000.02150,E,75.594,338.592,230721,0.000,E,A,V*5D
$GLRMC,000058,A,2959.90164,N,12000.02150,E,75.594,338.592,230721,0.000,E,A,V*41
$GLGLL,2959.90164,N,12000.02150,E,000058,A*33
$GPGGA,000059,2959.92151,N,12000.01355,E,3,32,1.02,-7.86,M,7.86,M,,*6B
$GPRMC,000059,A,2959.92151,N,12000.01355,E,75.594,343.048,230721,0.000,E,A,V*52
$GLRMC,000059,A,2959.92151,N,12000.01355,E,75.594,343.048,230721,0.000,E,A,V*4E
$GLGLL,2959.92151,N,12000.01355,E,000059,A*32
$GPGGA,000100,2959.94187,N,12000.00741,E,3,32,1.02,-7.86,M,7.86,M,,*6B
$GPRMC,000100,A,2959.94187,N,12000.00741,E,75.594,347.505,230721,0.000,E,A,V*5A
$GLRMC,000100,A,2959.94187,N,12000.00741,E,75.594,347.505,230721,0.000,E,A,V*46
$GLGLL,2959.94187,N,12000.00741,E,000100,A*32
$GPGGA,000101,2959.96257,N,12000.00310,E,3,32,1.02,-7.86,M,7.86,M,,*66
$GPRMC,000101,A,2959.96257,N,12000.00310,E,75.594,351.961,230721,0.000,E,A,V*5E
$GLRMC,000101,A,2959.96257,N,12000.00310,E,75.594,351.961,230721,0.000,E,A,V*42
$GLGLL,2959.96257,N,12000.00310,E,000101,A*3F
$GPGGA,000102,2959.98351,N,12000.00065,E,3,32,1.02,-7.86,M,7.86,M,,*6D
$GPRMC,000102,A,2959.98351,N,12000.00065,E,75.594,356.417,230721,0.000,E,A,V*5E
$GLRMC,000102,A,2959.98351,N,12000.00065,E,75.594,356.417,230721,0.000,E,A,V*42
$GLGLL,2959.98351,N,12000.00065,E,000102,A*34
$GPGGA,000103,3000.00455,N,12000.00008,E,3,32,1.02,-7.85,M,7.85,M,,*61
$GPRMC,000103,A,3000.00455,N,12000.00008,E,75.594,0.873,230721,0.000,E,A,V*5C
$GLRMC,000103,A,3000.00455,N,12000.00008,E,75.594,0.873,230721,0.000,E,A,V*40
$GLGLL,3000.00455,N,12000.00008,E,000103,A*38
$GPGGA,000104,3000.02556,N,12000.00139,E,3,32,1.02,-7.85,M,7.85,M,,*65
$GPRMC,000104,A,3000.02556,N,12000.00139,E,75.594,5.330,230721,0.000,E,A,V*51
$GLRMC,000104,A,3000.02556,N,12000.00139,E,75.594,5.330,230721,0.000,E,A,V*4D
$GLGLL,3000.02556,N,12000.00139,E,000104,A*3C
$GPGGA,000105,3000.04642,N,12000.00457,E,3,32,1.02,-7.85,M,7.85,M,,*69
$GPRMC,000105,A,3000.04642,N,12000.00457,E,75.594,9.786,230721,0.000,E,A,V*58
$GLRMC,000105,A,3000.04642,N,12000.00457,E,75.594,9.786,230721,0.000,E,A,V*44
$GLGLL,3000.04642,N,12000.00457,E,000105,A*30
$GPGGA,000106,3000.06700,N,12000.00960,E,3,32,1.02,-7.85,M,7.85,M,,*66
$GPRMC,000106,A,3000.06700,N,12000.00960,E,75.594,14.242,230721,0.000,E,A,V*66
$GLRMC,000106,A,3000.06700,N,12000.00960,E,75.594,14.242,230721,0.000,E,A,V*7A
$GLGLL,3000.06700,N,12000.00960,E,000106,A*3F
$GPGGA,000107,3000.08718,N,12000.01646,E,3,32,1.02,-7.85,M,7.85,M,,*6A
$GPRMC,000107,A,3000.08718,N,12000.01646,E,75.594,18.699,230721,0.000,E,A,V*64
$GLRMC,000107,A,3000.08718,N,12000.01646,E,75.594,18.699,230721,0.000,E,A,V*78
$GLGLL,3000.08718,N,12000.01646,E,000107,A*33
$GPGGA,000108,3000.10684,N,12000.02509,E,3,32,1.02,-7.85,M,7.85,M,,*63
$GPRMC,000108,A,3000.10684,N,12000.02509,E,75.594,23.155,230721,0.000,E,A,V*62
$GLRMC,000108,A,3000.10684,N,12000.02509,E,75.594,23.155,230721,0.000,E,A,V*7E
$GLGLL,3000.10684,N,12000.02509,E,000108,A*3A
$GPGGA,000109,3000.12585,N,12000.03546,E,3,32,1.02,-7.85,M,7.85,M,,*68
$GPRMC,000109,A,3000.12585,N,12000.03546,E,75.594,27.612,230721,0.000,E,A,V*69
$GLRMC,000109,A,3000.12585,N,12000.03546,E,75.594,27.612,230721,0.000,E,A,V*75
$GLGLL,3000.12585,N,12000.03546,E,000109,A*31
$GPGGA,000110,3000.14411,N,12000.04749,E,3,32,1.02,-7.85,M,7.85,M,,*60
$GPRMC,000110,A,3000.14411,N,12000.04749,E,75.594,32.068,230721,0.000,E,A,V*6E
$GLRMC,000110,A,3000.14411,N,12000.04749,E,75.594,32.068,230721,0.000,E,A,V*72
$GLGLL,3000.14411,N,12000.04749,E,000110,A*39
$GPGGA,000111,3000.16149,N,12000.06111,E,3,32,1.02,-7.85,M,7.85,M,,*62
$GPRMC,000111,A,3000.16149,N,12000.06111,E,75.594,36.525,230721,0.000,E,A,V*64
$GLRMC,000111,A,3000.16149,N,12000.06111,E,75.594,36.525,230721,0.000,E,A,V*78
$GLGLL,3000.16149,N,12000.06111,E,000111,A*3B
$GPGGA,000112,3000.17790,N,12000.07624,E,3,32,1.02,-7.85,M,7.85,M,,*62
$GPRMC,000112,A,3000.17790,N,12000.07624,E,75.594,40.981,230721,0.000,E,A,V*67
$GLRMC,000112,A,3000.17790,N,12000.07624,E,75.594,40.981,230721,0.000,E,A,V*7B
$GLGLL,3000.17790,N,12000.07624,E,000112,A*3B
$GPGGA,000113,3000.19324,N,12000.09280,E,3,32,1.02,-7.85,M,7.85,M,,*62
$GPRMC,000113,A,3000.19324,N,12000.09280,E,75.594,45.437,230721,0.000,E,A,V*62
$GLRMC,000113,A,3000.19324,N,12000.09280,E,75.594,45.437,230721,0.000,E,A,V*7E
$GLGLL,3000.19324,N,12000.09280,E,000113,A*3B
$GPGGA,000114,3000.20741,N,12000.11067,E,3,32,1.02,-7.85,M,7.85,M,,*6A
$GPRMC,000114,A,3000.20741,N,12000.11067,E,75.594,49.894,230721,0.000,E,A,V*63
$GLRMC,000114,A,3000.20741,N,12000.11067,E,75.594,49.894,230721,0.000,E,A,V*7F
$GLGLL,3000.20741,N,12000.11067,E,000114,A*33
$GPGGA,000115,3000.22033,N,12000.12975,E,3,32,1.02,-7.85,M,7.85,M,,*62
$GPRMC,000115,A,3000.22033,N,12000.12975,E,75.594,54.350,230721,0.000,E,A,V*64
$GLRMC,000115,A,3000.22033,N,12000.12975,E,75.594,54.350,230721,0.000,E,A,V*78
$GLGLL,3000.22033,N,12000.12975,E,000115,A*3B
$GPGGA,000116,3000.23192,N,12000.14993,E,3,32,1.02,-7.85,M,7.85,M,,*64
$GPRMC,000116,A,3000.23192,N,12000.14993,E,75.594,58.807,230721,0.000,E,A,V*67
$GLRMC,000116,A,3000.23192,N,12000.14993,E,75.594,58.807,230721,0.000,E,A,V*7B
$GLGLL,3000.23192,N,12000.14993,E,000116,A*3D
$GPGGA,000117,3000.24211,N,12000.17109,E,3,32,1.02,-7.86,M,7.86,M,,*62
$GPRMC,000117,A,3000.24211,N,12000.17109,E,75.594,63.263,230721,0.000,E,A,V*61
$GLRMC,000117,A,3000.24211,N,12000.17109,E,75.594,63.263,230721,0.000,E,A,V*7D
$GLGLL,3000.24211,N,12000.17109,E,000117,A*3B
$GPGGA,000118,3000.25084,N,12000.19309,E,3,32,1.02,-7.86,M,7.86,M,,*6E
$GPRMC,000118,A,3000.25084,N,12000.19309,E,75.594,67.720,230721,0.000,E,A,V*6B
$GLRMC,000118,A,3000.25084,N,12000.19309,E,75.594,67.720,230721,0.000,E,A,V*77
$GLGLL,3000.25084,N,12000.19309,E,000118,A*37
$GPGGA,000119,3000.25806,N,12000.21580,E,3,32,1.02,-7.86,M,7.86,M,,*61
$GPRMC,000119,A,3000.25806,N,12000.21580,E,75.594,72.176,230721,0.000,E,A,V*65
$GLRMC,000119,A,3000.25806,N,12000.21580,E,75.594,72.176,230721,0.000,E,A,V*79
$GLGLL,3000.25806,N,12000.21580,E,000119,A*38
$GPGGA,000120,3000.26372,N,12000.23909,E,3,32,1.02,-7.86,M,7.86,M,,*6F
$GPRMC,000120,A,3000.26372,N,12000.23909,E,75.594,76.633,230721,0.000,E,A,V*69
$GLRMC,000120,A,3000.26372,N,12000.23909,E,75.594,76.633,230721,0.000,E,A,V*75
$GLGLL,3000.26372,N,12000.23909,E,000120,A*36
$GPGGA,000121,3000.26778,N,12000.26281,E,3,32,1.02,-7.86,M,7.86,M,,*6E
$GPRMC,000121,A,3000.26778,N,12000.26281,E,75.594,81.090,230721,0.000,E,A,V*6F
$GLRMC,000121,A,3000.26778,N,12000.26281,E,75.594,81.090,230721,0.000,E,A,V*73
$GLGLL,3000.26778,N,12000.26281,E,000121,A*37
$GPGGA,000122,3000.27023,N,12000.28682,E,3,32,1.02,-7.86,M,7.86,M,,*6C
$GPRMC,000122,A,3000.27023,N,12000.28682,E,75.594,85.546,230721,0.000,E,A,V*67
$GLRMC,000122,A,3000.27023,N,12000.28682,E,75.594,85.546,230721,0.000,E,A,V*7B
$GLGLL,3000.27023,N,12000.28682,E,000122,A*35
$GPGGA,000123,3000.27105,N,12000.31098,E,3,32,1.02,-7.86,M,7.86,M,,*6D
$GPRMC,000123,A,3000.27105,N,12000.31098,E,75.594,90.003,230721,0.000,E,A,V*66
$GLRMC,000123,A,3000.27105,N,12000.31098,E,75.594,90.003,230721,0.000,E,A,V*7A
$GLGLL,3000.27105,N,12000.31098,E,000123,A*34
$GPGGA,000124,3000.27023,N,12000.33514,E,3,32,1.02,-7.86,M,7.86,M,,*6C
$GPRMC,000124,A,3000.27023,N,12000.33514,E,75.594,94.459,230721,0.000,E,A,V*68
$GLRMC,000124,A,3000.27023,N,12000.33514,E,75.594,94.459,230721,0.000,E,A,V*74
$GLGLL,3000.27023,N,12000.33514,E,000124,A*35
$GPGGA,000125,3000.26778,N,12000.35916,E,3,32,1.02,-7.86,M,7.86,M,,*6D
$GPRMC,000125,A,3000.26778,N,12000.35916,E,75.594,98.916,230721,0.000,E,A,V*63
$GLRMC,000125,A,3000.26778,N,12000.35916,E,75.594,98.916,230721,0.000,E,A,V*7F
$GLGLL,3000.26778,N,12000.35916,E,000125,A*34
$GPGGA,000126,3000.26372,N,12000.38288,E,3,32,1.02,-7.86,M,7.86,M,,*61
$GPRMC,000126,A,3000.26372,N,12000.38288,E,75.594,103.372,230721,0.000,E,A,V*54
$GLRMC,000126,A,3000.26372,N,12000.38288,E,75.594,103.372,230721,0.000,E,A,V*48
$GLGLL,3000.26372,N,12000.38288,E,000126,A*38
$GPGGA,000127,3000.25806,N,12000.40617,E,3,32,1.02,-7.86,M,7.86,M,,*66
$GPRMC,000127,A,3000.25806,N,12000.40617,E,75.594,107.829,230721,0.000,E,A,V*52
$GLRMC,000127,A,3000.25806,N,12000.40617,E,75.594,107.829,230721,0.000,E,A,V*4E
$GLGLL,3000.25806,N,12000.40617,E,000127,A*3F
$GPGGA,000128,3000.25084,N,12000.42888,E,3,32,1.02,-7.86,M,7.86,M,,*61
$GPRMC,000128,A,3000.25084,N,12000.42888,E,75.594,112.285,230721,0.000,E,A,V*5D
$GLRMC,000128,A,3000.25084,N,12000.42888,E,75.594,112.285,230721,0.000,E,A,V*41
$GLGLL,3000.25084,N,12000.42888,E,000128,A*38
$GPGGA,000129,3000.24211,N,12000.45088,E,3,32,1.02,-7.86,M,7.86,M,,*60
$GPRMC,000129,A,3000.24211,N,12000.45088,E,75.594,116.742,230721,0.000,E,A,V*56
$GLRMC,000129,A,3000.24211,N,12000.45088,E,75.594,116.742,230721,0.000,E,A,V*4A
$GLGLL,3000.24211,N,12000.45088,E,000129,A*39
$GPGGA,000130,3000.23192,N,12000.47203,E,3,32,1.02,-7.86,M,7.86,M,,*64
$GPRMC,000130,A,3000.23192,N,12000.47203,E,75.594,121.198,230721,0.000,E,A,V*57
$GLRMC,000130,A,3000.23192,N,12000.47203,E,75.594,121.198,230721,0.000,E,A,V*4B
$GLGLL,3000.23192,N,12000.47203,E,000130,A*3D
$GPGGA,000131,3000.22033,N,12000.49221,E,3,32,1.02,-7.86,M,7.86,M,,*60
$GPRMC,000131,A,3000.22033,N,12000.49221,E,75.594,125.655,230721,0.000,E,A,V*51
$GLRMC,000131,A,3000.22033,N,12000.49221,E,75.594,125.655,230721,0.000,E,A,V*4D
$GLGLL,3000.22033,N,12000.49221,E,000131,A*39
$GPGGA,000132,3000.20741,N,12000.51129,E,3,32,1.02,-7.86,M,7.86,M,,*61
$GPRMC,000132,A,3000.20741,N,12000.51129,E,75.594,130.111,230721,0.000,E,A,V*53
$GLRMC,000132,A,3000.20741,N,12000.51129,E,75.594,130.111,230721,0.000,E,A,V*4F
$GLGLL,3000.20741,N,12000.51129,E,000132,A*38
$GPGGA,000133,3000.19324,N,12000.52917,E,3,32,1.02,-7.86,M,7.86,M,,*6B
$GPRMC,000133,A,3000.19324,N,12000.52917,E,75.594,134.568,230721,0.000,E,A,V*57
$GLRMC,000133,A,3000.19324,N,12000.52917,E,75.594,134.568,230721,0.000,E,A,V*4B
$GLGLL,3000.19324,N,12000.52917,E,000133,A*32
$GPGGA,000134,3000.17790,N,12000.54572,E,3,32,1.02,-7.86,M,7.86,M,,*60
$GPRMC,000134,A,3000.17790,N,12000.54572,E,75.594,139.024,230721,0.000,E,A,V*5C
$GLRMC,000134,A,3000.17790,N,12000.54572,E,75.594,139.024,230721,0.000,E,A,V*40
$GLGLL,3000.17790,N,12000.54572,E,000134,A*39
$GPGGA,000135,3000.16149,N,12000.56085,E,3,32,1.02,-7.86,M,7.86,M,,*6D
$GPRMC,000135,A,3000.16149,N,12000.56085,E,75.594,143.481,230721,0.000,E,A,V*57
$GLRMC,000135,A,3000.16149,N,12000.56085,E,75.594,143.481,230721,0.000,E,A,V*4B
$GLGLL,3000.16149,N,12000.56085,E,000135,A*34
$GPGGA,000136,3000.14411,N,12000.57448,E,3,32,1.02,-7.86,M,7.86,M,,*60
$GPRMC,000136,A,3000.14411,N,12000.57448,E,75.594,147.937,230721,0.000,E,A,V*5E
$GLRMC,000136,A,3000.14411,N,12000.57448,E,75.594,147.937,230721,0.000,E,A,V*42
$GLGLL,3000.14411,N,12000.57448,E,000136,A*39
$GPGGA,000137,3000.12585,N,12000.58651,E,3,32,1.02,-7.86,M,7.86,M,,*6E
$GPRMC,000137,A,3000.12585,N,12000.58651,E,75.594,152.393,230721,0.000,E,A,V*50
$GLRMC,000137,A,3000.12585,N,12000.58651,E,75.594,152.393,230721,0.000,E,A,V*4C
$GLGLL,3000.12585,N,12000.58651,E,000137,A*37
$GPGGA,000138,3000.10684,N,12000.59687,E,3,32,1.02,-7.86,M,7.86,M,,*6B
$GPRMC,000138,A,3000.10684,N,12000.59687,E,75.594,156.850,230721,0.000,E,A,V*55
$GLRMC,000138,A,3000.10684,N,12000.59687,E,75.594,156.850,230721,0.000,E,A,V*49
$GLGLL,3000.10684,N,12000.59687,E,000138,A*32
$GPGGA,000139,3000.08718,N,12000.60551,E,3,32,1.02,-7.86,M,7.86,M,,*65
$GPRMC,000139,A,3000.08718,N,12000.60551,E,75.594,161.306,230721,0.000,E,A,V*57
$GLRMC,000139,A,3000.08718,N,12000.60551,E,75.594,161.306,230721,0.000,E,A,V*4B
$GLGLL,3000.08718,N,12000.60551,E,000139,A*3C
$GPGGA,000140,3000.06700,N,12000.61236,E,3,32,1.02,-7.86,M,7.86,M,,*6B
$GPRMC,000140,A,3000.06700,N,12000.61236,E,75.594,165.763,230721,0.000,E,A,V*5A
$GLRMC,000140,A,3000.06700,N,12000.61236,E,75.594,165.763,230721,0.000,E,A,V*46
$GLGLL,3000.06700,N,12000.61236,E,000140,A*32
$GPGGA,000141,3000.04642,N,12000.61740,E,3,32,1.02,-7.86,M,7.86,M,,*6B
$GPRMC,000141,A,3000.04642,N,12000.61740,E,75.594,170.219,230721,0.000,E,A,V*56
$GLRMC,000141,A,3000.04642,N,12000.61740,E,75.594,170.219,230721,0.000,E,A,V*4A
$GLGLL,3000.04642,N,12000.61740,E,000141,A*32
$GPGGA,000142,3000.02556,N,12000.62058,E,3,32,1.02,-7.86,M,7.86,M,,*65
$GPRMC,000142,A,3000.02556,N,12000.62058,E,75.594,174.675,230721,0.000,E,A,V*52
$GLRMC,000142,A,3000.02556,N,12000.62058,E,75.594,174.675,230721,0.000,E,A,V*4E
$GLGLL,3000.02556,N,12000.62058,E,000142,A*3C
$GPGGA,000143,3000.00455,N,12000.62188,E,3,32,1.02,-7.86,M,7.86,M,,*68
$GPRMC,000143,A,3000.00455,N,12000.62188,E,75.594,179.132,230721,0.000,E,A,V*56
$GLRMC,000143,A,3000.00455,N,12000.62188,E,75.594,179.132,230721,0.000,E,A,V*4A
$GLGLL,3000.00455,N,12000.62188,E,000143,A*31
$GPGGA,000144,2959.98351,N,12000.62131,E,3,32,1.02,-7.86,M,7.86,M,,*6B
$GPRMC,000144,A,2959.98351,N,12000.62131,E,75.594,183.588,230721,0.000,E,A,V*55
$GLRMC,000144,A,2959.98351,N,12000.62131,E,75.594,183.588,230721,0.000,E,A,V*49
$GLGLL,2959.98351,N,12000.62131,E,000144,A*32
$GPGGA,000145,2959.96257,N,12000.61886,E,3,32,1.02,-7.86,M,7.86,M,,*65
$GPRMC,000145,A,2959.96257,N,12000.61886,E,75.594,188.044,230721,0.000,E,A,V*55
$GLRMC,000145,A,2959.96257,N,12000.61886,E,75.594,188.044,230721,0.000,E,A,V*49
$GLGLL,2959.96257,N,12000.61886,E,000145,A*3C
$GPGGA,000146,2959.94187,N,12000.61455,E,3,32,1.02,-7.86,M,7.86,M,,*68
$GPRMC,000146,A,2959.94187,N,12000.61455,E,75.594,192.501,230721,0.000,E,A,V*57
$GLRMC,000146,A,2959.94187,N,12000.61455,E,75.594,192.501,230721,0.000,E,A,V*4B
$GLGLL,2959.94187,N,12000.61455,E,000146,A*31
$GPGGA,000147,2959.92151,N,12000.60841,E,3,32,1.02,-7.86,M,7.86,M,,*6C
$GPRMC,000147,A,2959.92151,N,12000.60841,E,75.594,196.957,230721,0.000,E,A,V*58
$GLRMC,000147,A,2959.92151,N,12000.60841,E,75.594,196.957,230721,0.000,E,A,V*44
$GLGLL,2959.92151,N,12000.60841,E,000147,A*35
$GPGGA,000148,2959.90164,N,12000.60047,E,3,32,1.02,-7.86,M,7.86,M,,*69
$GPRMC,000148,A,2959.90164,N,12000.60047,E,75.594,201.413,230721,0.000,E,A,V*5D
$GLRMC,000148,A,2959.90164,N,12000.60047,E,75.594,201.413,230721,0.000,E,A,V*41
$GLGLL,2959.90164,N,12000.60047,E,000148,A*30
$GPGGA,000149,2959.88236,N,12000.59077,E,3,32,1.02,-7.86,M,7.86,M,,*6C
$GPRMC,000149,A,2959.88236,N,12000.59077,E,75.594,205.869,230721,0.000,E,A,V*5D
$GLRMC,000149,A,2959.88236,N,12000.59077,E,75.594,205.869,230721,0.000,E,A,V*41
$GLGLL,2959.88236,N,12000.59077,E,000149,A*35
$GPGGA,000150,2959.86379,N,12000.57939,E,3,32,1.02,-7.86,M,7.86,M,,*6D
$GPRMC,000150,A,2959.86379,N,12000.57939,E,75.594,210.326,230721,0.000,E,A,V*58
$GLRMC,000150,A,2959.86379,N,12000.57939,E,75.594,210.326,230721,0.000,E,A,V*44
$GLGLL,2959.86379,N,12000.57939,E,000150,A*34
$GPGGA,000151,2959.84606,N,12000.56638,E,3,32,1.02,-7.86,M,7.86,M,,*6C
$GPRMC,000151,A,2959.84606,N,12000.56638,E,75.594,214.782,230721,0.000,E,A,V*57
$GLRMC,000151,A,2959.84606,N,12000.56638,E,75.594,214.782,230721,0.000,E,A,V*4B
$GLGLL,2959.84606,N,12000.56638,E,000151,A*35
$GPGGA,000152,2959.82925,N,12000.55183,E,3,32,1.02,-7.86,M,7.86,M,,*63
$GPRMC,000152,A,2959.82925,N,12000.55183,E,75.594,219.238,230721,0.000,E,A,V*51
$GLRMC,000152,A,2959.82925,N,12000.55183,E,75.594,219.238,230721,0.000,E,A,V*4D
$GLGLL,2959.82925,N,12000.55183,E,000152,A*3A
$GPGGA,000153,2959.81348,N,12000.53582,E,3,32,1.02,-7.86,M,7.86,M,,*63
$GPRMC,000153,A,2959.81348,N,12000.53582,E,75.594,223.694,230721,0.000,E,A,V*5A
$GLRMC,000153,A,2959.81348,N,12000.53582,E,75.594,223.694,230721,0.000,E,A,V*46
$GLGLL,2959.81348,N,12000.53582,E,000153,A*3A
$GPGGA,000154,2959.79884,N,12000.51846,E,3,32,1.02,-7.86,M,7.86,M,,*6F
$GPRMC,000154,A,2959.79884,N,12000.51846,E,75.594,228.150,230721,0.000,E,A,V*52
$GLRMC,000154,A,2959.79884,N,12000.51846,E,75.594,228.150,230721,0.000,E,A,V*4E
$GLGLL,2959.79884,N,12000.51846,E,000154,A*36
$GPGGA,000155,2959.78542,N,12000.49983,E,3,32,1.02,-7.86,M,7.86,M,,*69
$GPRMC,000155,A,2959.78542,N,12000.49983,E,75.594,232.607,230721,0.000,E,A,V*5A
$GLRMC,000155,A,2959.78542,N,12000.49983,E,75.594,232.607,230721,0.000,E,A,V*46
$GLGLL,2959.78542,N,12000.49983,E,000155,A*30
$GPGGA,000156,2959.77330,N,12000.48007,E,3,32,1.02,-7.86,M,7.86,M,,*62
$GPRMC,000156,A,2959.77330,N,12000.48007,E,75.594,237.063,230721,0.000,E,A,V*50
$GLRMC,000156,A,2959.77330,N,12000.48007,E,75.594,237.063,230721,0.000,E,A,V*4C
$GLGLL,2959.77330,N,12000.48007,E,000156,A*3B
$GPGGA,000157,2959.76255,N,12000.45929,E,3,32,1.02,-7.86,M,7.86,M,,*68
$GPRMC,000157,A,2959.76255,N,12000.45929,E,75.594,241.519,230721,0.000,E,A,V*53
$GLRMC,000157,A,2959.76255,N,12000.45929,E,75.594,241.519,230721,0.000,E,A,V*4F
$GLGLL,2959.76255,N,12000.45929,E,000157,A*31
$GPGGA,000158,2959.75324,N,12000.43761,E,3,32,1.02,-7.86,M,7.86,M,,*67
$GPRMC,000158,A,2959.75324,N,12000.43761,E,75.594,245.975,230721,0.000,E,A,V*5E
$GLRMC,000158,A,2959.75324,N,12000.43761,E,75.594,245.975,230721,0.000,E,A,V*42
$GLGLL,2959.75324,N,12000.43761,E,000158,A*3E
$GPGGA,000159,2959.74543,N,12000.41516,E,3,32,1.02,-7.86,M,7.86,M,,*60
$GPRMC,000159,A,2959.74543,N,12000.41516,E,75.594,250.431,230721,0.000,E,A,V*50
$GLRMC,000159,A,2959.74543,N,12000.41516,E,75.594,250.431,230721,0.000,E,A,V*4C
$GLGLL,2959.74543,N,12000.41516,E,000159,A*39
$GPGGA,000200,2959.73915,N,12000.39208,E,3,32,1.02,-7.86,M,7.86,M,,*60
$GPRMC,000200,A,2959.73915,N,12000.39208,E,75.594,254.887,230721,0.000,E,A,V*55
$GLRMC,000200,A,2959.73915,N,12000.39208,E,75.594,254.887,230721,0.000,E,A,V*49
$GLGLL,2959.73915,N,12000.39208,E,000200,A*39
$GPGGA,000201,2959.73446,N,12000.36851,E,3,32,1.02,-7.86,M,7.86,M,,*63
$GPRMC,000201,A,2959.73446,N,12000.36851,E,75.594,259.344,230721,0.000,E,A,V*5F
$GLRMC,000201,A,2959.73446,N,12000.36851,E,75.594,259.344,230721,0.000,E,A,V*43
$GLGLL,2959.73446,N,12000.36851,E,000201,A*3A
$GPGGA,000202,2959.73137,N,12000.34460,E,3,32,1.02,-7.86,M,7.86,M,,*6F
$GPRMC,000202,A,2959.73137,N,12000.34460,E,75.594,263.800,230721,0.000,E,A,V*51
$GLRMC,000202,A,2959.73137,N,12000.34460,E,75.594,263.800,230721,0.000,E,A,V*4D
$GLGLL,2959.73137,N,12000.34460,E,000202,A*36
$GPGGA,000203,2959.72992,N,12000.32048,E,3,32,1.02,-7.86,M,7.86,M,,*60
$GPRMC,000203,A,2959.72992,N,12000.32048,E,75.594,268.256,230721,0.000,E,A,V*5C
$GLRMC,000203,A,2959.72992,N,12000.32048,E,75.594,268.256,230721,0.000,E,A,V*40
$GLGLL,2959.72992,N,12000.32048,E,000203,A*39
$GPGGA,000204,2959.73009,N,12000.29631,E,3,32,1.02,-7.86,M,7.86,M,,*6F
$GPRMC,000204,A,2959.73009,N,12000.29631,E,75.594,272.712,230721,0.000,E,A,V*5D
$GLRMC,000204,A,2959.73009,N,12000.29631,E,75.594,272.712,230721,0.000,E,A,V*41
$GLGLL,2959.73009,N,12000.29631,E,000204,A*36
$GPGGA,000205,2959.73190,N,12000.27222,E,3,32,1.02,-7.86,M,7.86,M,,*67
$GPRMC,000205,A,2959.73190,N,12000.27222,E,75.594,277.168,230721,0.000,E,A,V*5B
$GLRMC,000205,A,2959.73190,N,12000.27222,E,75.594,277.168,230721,0.000,E,A,V*47
$GLGLL,2959.73190,N,12000.27222,E,000205,A*3E
$GPGGA,000206,2959.73534,N,12000.24837,E,3,32,1.02,-7.86,M,7.86,M,,*63
$GPRMC,000206,A,2959.73534,N,12000.24837,E,75.594,281.624,230721,0.000,E,A,V*59
$GLRMC,000206,A,2959.73534,N,12000.24837,E,75.594,281.624,230721,0.000,E,A,V*45
$GLGLL,2959.73534,N,12000.24837,E,000206,A*3A
$GPGGA,000207,2959.74038,N,12000.22490,E,3,32,1.02,-7.86,M,7.86,M,,*6B
$GPRMC,000207,A,2959.74038,N,12000.22490,E,75.594,286.080,230721,0.000,E,A,V*5E
$GLRMC,000207,A,2959.74038,N,12000.22490,E,75.594,286.080,230721,0.000,E,A,V*42
$GLGLL,2959.74038,N,12000.22490,E,000207,A*32
$GPGGA,000208,2959.74699,N,12000.20194,E,3,32,1.02,-7.86,M,7.86,M,,*6A
$GPRMC,000208,A,2959.74699,N,12000.20194,E,75.594,290.536,230721,0.000,E,A,V*50
$GLRMC,000208,A,2959.74699,N,12000.20194,E,75.594,290.536,230721,0.000,E,A,V*4C
$GLGLL,2959.74699,N,12000.20194,E,000208,A*33
$GPGGA,000209,2959.75513,N,12000.17965,E,3,32,1.02,-7.86,M,7.86,M,,*69
$GPRMC,000209,A,2959.75513,N,12000.17965,E,75.594,294.993,230721,0.000,E,A,V*54
$GLRMC,000209,A,2959.75513,N,12000.17965,E,75.594,294.993,230721,0.000,E,A,V*48
$GLGLL,2959.75513,N,12000.17965,E,000209,A*30
$GPGGA,000210,2959.76475,N,12000.15815,E,3,32,1.02,-7.86,M,7.86,M,,*67
$GPRMC,000210,A,2959.76475,N,12000.15815,E,75.594,299.449,230721,0.000,E,A,V*5D
$GLRMC,000210,A,2959.76475,N,12000.15815,E,75.594,299.449,230721,0.000,E,A,V*41
$GLGLL,2959.76475,N,12000.15815,E,000210,A*3E
$GPGGA,000211,2959.77580,N,12000.13758,E,3,32,1.02,-7.86,M,7.86,M,,*6C
$GPRMC,000211,A,2959.77580,N,12000.13758,E,75.594,303.905,230721,0.000,E,A,V*51
$GLRMC,000211,A,2959.77580,N,12000.13758,E,75.594,303.905,230721,0.000,E,A,V*4D
$GLGLL,2959.77580,N,12000.13758,E,000211,A*35
$GPGGA,000212,2959.78821,N,12000.11805,E,3,32,1.02,-7.86,M,7.86,M,,*63
$GPRMC,000212,A,2959.78821,N,12000.11805,E,75.594,308.361,230721,0.000,E,A,V*5D
$GLRMC,000212,A,2959.78821,N,12000.11805,E,75.594,308.361,230721,0.000,E,A,V*41
$GLGLL,2959.78821,N,12000.11805,E,000212,A*3A
$GPGGA,000213,2959.80190,N,12000.09969,E,3,32,1.02,-7.86,M,7.86,M,,*64
$GPRMC,000213,A,2959.80190,N,12000.09969,E,75.594,312.817,230721,0.000,E,A,V*5B
$GLRMC,000213,A,2959.80190,N,12000.09969,E,75.594,312.817,230721,0.000,E,A,V*47
$GLGLL,2959.80190,N,12000.09969,E,000213,A*3D
$GPGGA,000214,2959.81679,N,12000.08261,E,3,32,1.02,-7.86,M,7.86,M,,*60
$GPRMC,000214,A,2959.81679,N,12000.08261,E,75.594,317.273,230721,0.000,E,A,V*52
$GLRMC,000214,A,2959.81679,N,12000.08261,E,75.594,317.273,230721,0.000,E,A,V*4E
$GLGLL,2959.81679,N,12000.08261,E,000214,A*39
$GPGGA,000215,2959.83280,N,12000.06691,E,3,32,1.02,-7.86,M,7.86,M,,*64
$GPRMC,000215,A,2959.83280,N,12000.06691,E,75.594,321.730,230721,0.000,E,A,V*51
$GLRMC,000215,A,2959.83280,N,12000.06691,E,75.594,321.730,230721,0.000,E,A,V*4D
$GLGLL,2959.83280,N,12000.06691,E,000215,A*3D
$GPGGA,000216,2959.84981,N,12000.05268,E,3,32,1.02,-7.86,M,7.86,M,,*6B
$GPRMC,000216,A,2959.84981,N,12000.05268,E,75.594,326.186,230721,0.000,E,A,V*52
$GLRMC,000216,A,2959.84981,N,12000.05268,E,75.594,326.186,230721,0.000,E,A,V*4E
$GLGLL,2959.84981,N,12000.05268,E,000216,A*32
$GPGGA,000217,2959.86774,N,12000.04002,E,3,32,1.02,-7.86,M,7.86,M,,*63
$GPRMC,000217,A,2959.86774,N,12000.04002,E,75.594,330.642,230721,0.000,E,A,V*52
$GLRMC,000217,A,2959.86774,N,12000.04002,E,75.594,330.642,230721,0.000,E,A,V*4E
$GLGLL,2959.86774,N,12000.04002,E,000217,A*3A
$GPGGA,000218,2959.88647,N,12000.02899,E,3,32,1.02,-7.86,M,7.86,M,,*6F
$GPRMC,000218,A,2959.88647,N,12000.02899,E,75.594,335.098,230721,0.000,E,A,V*5A
$GLRMC,000218,A,2959.88647,N,12000.02899,E,75.594,335.098,230721,0.000,E,A,V*46
$GLGLL,2959.88647,N,12000.02899,E,000218,A*36
$GPGGA,000219,2959.90588,N,12000.01968,E,3,32,1.02,-7.86,M,7.86,M,,*6B
$GPRMC,000219,A,2959.90588,N,12000.01968,E,75.594,339.555,230721,0.000,E,A,V*56
$GLRMC,000219,A,2959.90588,N,12000.01968,E,75.594,339.555,230721,0.000,E,A,V*4A
$GLGLL,2959.90588,N,12000.01968,E,000219,A*32
$GPGGA,000220,2959.92587,N,12000.01212,E,3,32,1.02,-7.86,M,7.86,M,,*6A
$GPRMC,000220,A,2959.92587,N,12000.01212,E,75.594,344.011,230721,0.000,E,A,V*58
$GLRMC,000220,A,2959.92587,N,12000.01212,E,75.594,344.011,230721,0.000,E,A,V*44
$GLGLL,2959.92587,N,12000.01212,E,000220,A*33
$GPGGA,000221,2959.94631,N,12000.00637,E,3,32,1.02,-7.86,M,7.86,M,,*61
$GPRMC,000221,A,2959.94631,N,12000.00637,E,75.594,348.467,230721,0.000,E,A,V*5A
$GLRMC,000221,A,2959.94631,N,12000.00637,E,75.594,348.467,230721,0.000,E,A,V*46
$GLGLL,2959.94631,N,12000.00637,E,000221,A*38
$GPGGA,000222,2959.96708,N,12000.00246,E,3,32,1.02,-7.86,M,7.86,M,,*69
$GPRMC,000222,A,2959.96708,N,12000.00246,E,75.594,352.923,230721,0.000,E,A,V*54
$GLRMC,000222,A,2959.96708,N,12000.00246,E,75.594,352.923,230721,0.000,E,A,V*48
$GLGLL,2959.96708,N,12000.00246,E,000222,A*30
$GPGGA,000223,2959.98805,N,12000.00041,E,3,32,1.02,-7.86,M,7.86,M,,*61
$GPRMC,000223,A,2959.98805,N,12000.00041,E,75.594,357.380,230721,0.000,E,A,V*5A
$GLRMC,000223,A,2959.98805,N,12000.00041,E,75.594,357.380,230721,0.000,E,A,V*46
$GLGLL,2959.98805,N,12000.00041,E,000223,A*38
$GPGGA,000224,3000.00909,N,12000.00025,E,3,32,1.02,-7.85,M,7.85,M,,*6C
$GPRMC,000224,A,3000.00909,N,12000.00025,E,75.594,1.836,230721,0.000,E,A,V*51
$GLRMC,000224,A,3000.00909,N,12000.00025,E,75.594,1.836,230721,0.000,E,A,V*4D
$GLGLL,3000.00909,N,12000.00025,E,000224,A*35
$GPGGA,000225,3000.03008,N,12000.00196,E,3,32,1.02,-7.85,M,7.85,M,,*6F
$GPRMC,000225,A,3000.03008,N,12000.00196,E,75.594,6.292,230721,0.000,E,A,V*51
$GLRMC,000225,A,3000.03008,N,12000.00196,E,75.594,6.292,230721,0.000,E,A,V*4D
$GLGLL,3000.03008,N,12000.00196,E,000225,A*36
$GPGGA,000226,3000.05089,N,12000.00554,E,3,32,1.02,-7.85,M,7.85,M,,*69
$GPRMC,000226,A,3000.05089,N,12000.00554,E,75.594,10.749,230721,0.000,E,A,V*63
$GLRMC,000226,A,3000.05089,N,12000.00554,E,75.594,10.749,230721,0.000,E,A,V*7F
$GLGLL,3000.05089,N,12000.00554,E,000226,A*30
$GPGGA,000227,3000.07140,N,12000.01097,E,3,32,1.02,-7.85,M,7.85,M,,*65
$GPRMC,000227,A,3000.07140,N,12000.01097,E,75.594,15.205,230721,0.000,E,A,V*67
$GLRMC,000227,A,3000.07140,N,12000.01097,E,75.594,15.205,230721,0.000,E,A,V*7B
$GLGLL,3000.07140,N,12000.01097,E,000227,A*3C
$GPGGA,000228,3000.09148,N,12000.01822,E,3,32,1.02,-7.85,M,7.85,M,,*6A
$GPRMC,000228,A,3000.09148,N,12000.01822,E,75.594,19.661,230721,0.000,E,A,V*62
$GLRMC,000228,A,3000.09148,N,12000.01822,E,75.594,19.661,230721,0.000,E,A,V*7E
$GLGLL,3000.09148,N,12000.01822,E,000228,A*33
$GPGGA,000229,3000.11100,N,12000.02723,E,3,32,1.02,-7.85,M,7.85,M,,*63
$GPRMC,000229,A,3000.11100,N,12000.02723,E,75.594,24.118,230721,0.000,E,A,V*6C
$GLRMC,000229,A,3000.11100,N,12000.02723,E,75.594,24.118,230721,0.000,E,A,V*70
$GLGLL,3000.11100,N,12000.02723,E,000229,A*3A
$GPGGA,000230,3000.12986,N,12000.03796,E,3,32,1.02,-7.85,M,7.85,M,,*61
$GPRMC,000230,A,3000.12986,N,12000.03796,E,75.594,28.574,230721,0.000,E,A,V*6C
$GLRMC,000230,A,3000.12986,N,12000.03796,E,75.594,28.574,230721,0.000,E,A,V*70
$GLGLL,3000.12986,N,12000.03796,E,000230,A*38
$GPGGA,000231,3000.14794,N,12000.05034,E,3,32,1.02,-7.85,M,7.85,M,,*62
$GPRMC,000231,A,3000.14794,N,12000.05034,E,75.594,33.031,230721,0.000,E,A,V*61
$GLRMC,000231,A,3000.14794,N,12000.05034,E,75.594,33.031,230721,0.000,E,A,V*7D
$GLGLL,3000.14794,N,12000.05034,E,000231,A*3B
$GPGGA,000232,3000.16512,N,12000.06430,E,3,32,1.02,-7.85,M,7.85,M,,*6C
$GPRMC,000232,A,3000.16512,N,12000.06430,E,75.594,37.487,230721,0.000,E,A,V*62
$GLRMC,000232,A,3000.16512,N,12000.06430,E,75.594,37.487,230721,0.000,E,A,V*7E
$GLGLL,3000.16512,N,12000.06430,E,000232,A*35
$GPGGA,000233,3000.18131,N,12000.07975,E,3,32,1.02,-7.85,M,7.85,M,,*6B
$GPRMC,000233,A,3000.18131,N,12000.07975,E,75.594,41.944,230721,0.000,E,A,V*66
$GLRMC,000233,A,3000.18131,N,12000.07975,E,75.594,41.944,230721,0.000,E,A,V*7A
$GLGLL,3000.18131,N,12000.07975,E,000233,A*32
$GPGGA,000234,3000.19640,N,12000.09659,E,3,32,1.02,-7.85,M,7.85,M,,*63
$GPRMC,000234,A,3000.19640,N,12000.09659,E,75.594,46.400,230721,0.000,E,A,V*64
$GLRMC,000234,A,3000.19640,N,12000.09659,E,75.594,46.400,230721,0.000,E,A,V*78
$GLGLL,3000.19640,N,12000.09659,E,000234,A*3A
$GPGGA,000235,3000.21031,N,12000.11474,E,3,32,1.02,-7.85,M,7.85,M,,*6D
$GPRMC,000235,A,3000.21031,N,12000.11474,E,75.594,50.857,230721,0.000,E,A,V*63
$GLRMC,000235,A,3000.21031,N,12000.11474,E,75.594,50.857,230721,0.000,E,A,V*7F
$GLGLL,3000.21031,N,12000.11474,E,000235,A*34
$GPGGA,000236,3000.22295,N,12000.13407,E,3,32,1.02,-7.85,M,7.85,M,,*67
$GPRMC,000236,A,3000.22295,N,12000.13407,E,75.594,55.313,230721,0.000,E,A,V*67
$GLRMC,000236,A,3000.22295,N,12000.13407,E,75.594,55.313,230721,0.000,E,A,V*7B
$GLGLL,3000.22295,N,12000.13407,E,000236,A*3E
$GPGGA,000237,3000.23425,N,12000.15447,E,3,32,1.02,-7.85,M,7.85,M,,*68
$GPRMC,000237,A,3000.23425,N,12000.15447,E,75.594,59.770,230721,0.000,E,A,V*65
$GLRMC,000237,A,3000.23425,N,12000.15447,E,75.594,59.770,230721,0.000,E,A,V*79
$GLGLL,3000.23425,N,12000.15447,E,000237,A*31
$GPGGA,000238,3000.24413,N,12000.17582,E,3,32,1.02,-7.86,M,7.86,M,,*6F
$GPRMC,000238,A,3000.24413,N,12000.17582,E,75.594,64.226,230721,0.000,E,A,V*6A
$GLRMC,000238,A,3000.24413,N,12000.17582,E,75.594,64.226,230721,0.000,E,A,V*76
$GLGLL,3000.24413,N,12000.17582,E,000238,A*36
$GPGGA,000239,3000.25253,N,12000.19798,E,3,32,1.02,-7.86,M,7.86,M,,*6A
$GPRMC,000239,A,3000.25253,N,12000.19798,E,75.594,68.683,230721,0.000,E,A,V*68
$GLRMC,000239,A,3000.25253,N,12000.19798,E,75.594,68.683,230721,0.000,E,A,V*74
$GLGLL,3000.25253,N,12000.19798,E,000239,A*33
$GPGGA,000240,3000.25942,N,12000.22083,E,3,32,1.02,-7.86,M,7.86,M,,*6A
$GPRMC,000240,A,3000.25942,N,12000.22083,E,75.594,73.139,230721,0.000,E,A,V*64
$GLRMC,000240,A,3000.25942,N,12000.22083,E,75.594,73.139,230721,0.000,E,A,V*78
$GLGLL,3000.25942,N,12000.22083,E,000240,A*33
$GPGGA,000241,3000.26473,N,12000.24422,E,3,32,1.02,-7.86,M,7.86,M,,*6E
$GPRMC,000241,A,3000.26473,N,12000.24422,E,75.594,77.596,230721,0.000,E,A,V*65
$GLRMC,000241,A,3000.26473,N,12000.24422,E,75.594,77.596,230721,0.000,E,A,V*79
$GLGLL,3000.26473,N,12000.24422,E,000241,A*37
$GPGGA,000242,3000.26845,N,12000.26802,E,3,32,1.02,-7.86,M,7.86,M,,*68
$GPRMC,000242,A,3000.26845,N,12000.26802,E,75.594,82.052,230721,0.000,E,A,V*64
$GLRMC,000242,A,3000.26845,N,12000.26802,E,75.594,82.052,230721,0.000,E,A,V*78
$GLGLL,3000.26845,N,12000.26802,E,000242,A*31
$GPGGA,000243,3000.27055,N,12000.29208,E,3,32,1.02,-7.86,M,7.86,M,,*6E
$GPRMC,000243,A,3000.27055,N,12000.29208,E,75.594,86.509,230721,0.000,E,A,V*6D
$GLRMC,000243,A,3000.27055,N,12000.29208,E,75.594,86.509,230721,0.000,E,A,V*71
$GLGLL,3000.27055,N,12000.29208,E,000243,A*37
$GPGGA,000244,3000.27101,N,12000.31625,E,3,32,1.02,-7.86,M,7.86,M,,*6B
$GPRMC,000244,A,3000.27101,N,12000.31625,E,75.594,90.965,230721,0.000,E,A,V*69
$GLRMC,000244,A,3000.27101,N,12000.31625,E,75.594,90.965,230721,0.000,E,A,V*75
$GLGLL,3000.27101,N,12000.31625,E,000244,A*32
$GPGGA,000245,3000.26984,N,12000.34039,E,3,32,1.02,-7.86,M,7.86,M,,*60
$GPRMC,000245,A,3000.26984,N,12000.34039,E,75.594,95.422,230721,0.000,E,A,V*69
$GLRMC,000245,A,3000.26984,N,12000.34039,E,75.594,95.422,230721,0.000,E,A,V*75
$GLGLL,3000.26984,N,12000.34039,E,000245,A*39
$GPGGA,000246,3000.26704,N,12000.36435,E,3,32,1.03,-7.86,M,7.86,M,,*6E
$GPRMC,000246,A,3000.26704,N,12000.36435,E,75.594,99.878,230721,0.000,E,A,V*69
$GLRMC,000246,A,3000.26704,N,12000.36435,E,75.594,99.878,230721,0.000,E,A,V*75
$GLGLL,3000.26704,N,12000.36435,E,000246,A*36
$GPGGA,000247,3000.26263,N,12000.38799,E,3,32,1.03,-7.86,M,7.86,M,,*60
$GPRMC,000247,A,3000.26263,N,12000.38799,E,75.594,104.335,230721,0.000,E,A,V*50
$GLRMC,000247,A,3000.26263,N,12000.38799,E,75.594,104.335,230721,0.000,E,A,V*4C
$GLGLL,3000.26263,N,12000.38799,E,000247,A*38
$GPGGA,000248,3000.25663,N,12000.41117,E,3,32,1.03,-7.86,M,7.86,M,,*66
$GPRMC,000248,A,3000.25663,N,12000.41117,E,75.594,108.791,230721,0.000,E,A,V*50
$GLRMC,000248,A,3000.25663,N,12000.41117,E,75.594,108.791,230721,0.000,E,A,V*4C
$GLGLL,3000.25663,N,12000.41117,E,000248,A*3E
$GPGGA,000249,3000.24909,N,12000.43374,E,3,32,1.03,-7.86,M,7.86,M,,*60
$GPRMC,000249,A,3000.24909,N,12000.43374,E,75.594,113.248,230721,0.000,E,A,V*5D
$GLRMC,000249,A,3000.24909,N,12000.43374,E,75.594,113.248,230721,0.000,E,A,V*41
$GLGLL,3000.24909,N,12000.43374,E,000249,A*38
$GPGGA,000250,3000.24004,N,12000.45557,E,3,32,1.03,-7.86,M,7.86,M,,*6D
$GPRMC,000250,A,3000.24004,N,12000.45557,E,75.594,117.704,230721,0.000,E,A,V*59
$GLRMC,000250,A,3000.24004,N,12000.45557,E,75.594,117.704,230721,0.000,E,A,V*45
$GLGLL,3000.24004,N,12000.45557,E,000250,A*35
$GPGGA,000251,3000.22954,N,12000.47652,E,3,32,1.03,-7.86,M,7.86,M,,*62
$GPRMC,000251,A,3000.22954,N,12000.47652,E,75.594,122.161,230721,0.000,E,A,V*55
$GLRMC,000251,A,3000.22954,N,12000.47652,E,75.594,122.161,230721,0.000,E,A,V*49
$GLGLL,3000.22954,N,12000.47652,E,000251,A*3A
$GPGGA,000252,3000.21765,N,12000.49647,E,3,32,1.03,-7.86,M,7.86,M,,*64
$GPRMC,000252,A,3000.21765,N,12000.49647,E,75.594,126.617,230721,0.000,E,A,V*51
$GLRMC,000252,A,3000.21765,N,12000.49647,E,75.594,126.617,230721,0.000,E,A,V*4D
$GLGLL,3000.21765,N,12000.49647,E,000252,A*3C
$GPGGA,000253,3000.20445,N,12000.51531,E,3,32,1.03,-7.86,M,7.86,M,,*6E
$GPRMC,000253,A,3000.20445,N,12000.51531,E,75.594,131.074,230721,0.000,E,A,V*5E
$GLRMC,000253,A,3000.20445,N,12000.51531,E,75.594,131.074,230721,0.000,E,A,V*42
$GLGLL,3000.20445,N,12000.51531,E,000253,A*36
$GPGGA,000254,3000.19002,N,12000.53290,E,3,32,1.03,-7.86,M,7.86,M,,*6A
$GPRMC,000254,A,3000.19002,N,12000.53290,E,75.594,135.530,230721,0.000,E,A,V*5B
$GLRMC,000254,A,3000.19002,N,12000.53290,E,75.594,135.530,230721,0.000,E,A,V*47
$GLGLL,3000.19002,N,12000.53290,E,000254,A*32
$GPGGA,000255,3000.17444,N,12000.54916,E,3,32,1.03,-7.86,M,7.86,M,,*61
$GPRMC,000255,A,3000.17444,N,12000.54916,E,75.594,139.987,230721,0.000,E,A,V*5C
$GLRMC,000255,A,3000.17444,N,12000.54916,E,75.594,139.987,230721,0.000,E,A,V*40
$GLGLL,3000.17444,N,12000.54916,E,000255,A*39
$GPGGA,000256,3000.15781,N,12000.56397,E,3,32,1.03,-7.86,M,7.86,M,,*6B
$GPRMC,000256,A,3000.15781,N,12000.56397,E,75.594,144.443,230721,0.000,E,A,V*59
$GLRMC,000256,A,3000.15781,N,12000.56397,E,75.594,144.443,230721,0.000,E,A,V*45
$GLGLL,3000.15781,N,12000.56397,E,000256,A*33
$GPGGA,000257,3000.14023,N,12000.57726,E,3,32,1.03,-7.86,M,7.86,M,,*6B
$GPRMC,000257,A,3000.14023,N,12000.57726,E,75.594,148.900,230721,0.000,E,A,V*5F
$GLRMC,000257,A,3000.14023,N,12000.57726,E,75.594,148.900,230721,0.000,E,A,V*43
$GLGLL,3000.14023,N,12000.57726,E,000257,A*33
$GPGGA,000258,3000.12180,N,12000.58893,E,3,32,1.03,-7.86,M,7.86,M,,*64
$GPRMC,000258,A,3000.12180,N,12000.58893,E,75.594,153.356,230721,0.000,E,A,V*53
$GLRMC,000258,A,3000.12180,N,12000.58893,E,75.594,153.356,230721,0.000,E,A,V*4F
$GLGLL,3000.12180,N,12000.58893,E,000258,A*3C
$GPGGA,000259,3000.10264,N,12000.59893,E,3,32,1.03,-7.86,M,7.86,M,,*6F
$GPRMC,000259,A,3000.10264,N,12000.59893,E,75.594,157.812,230721,0.000,E,A,V*57
$GLRMC,000259,A,3000.10264,N,12000.59893,E,75.594,157.812,230721,0.000,E,A,V*4B
$GLGLL,3000.10264,N,12000.59893,E,000259,A*37
$GPGGA,000300,3000.08286,N,12000.60719,E,3,32,1.03,-7.86,M,7.86,M,,*60
$GPRMC,000300,A,3000.08286,N,12000.60719,E,75.594,162.269,230721,0.000,E,A,V*58
$GLRMC,000300,A,3000.08286,N,12000.60719,E,75.594,162.269,230721,0.000,E,A,V*44
$GLGLL,3000.08286,N,12000.60719,E,000300,A*38
$GPGGA,000301,3000.06259,N,12000.61365,E,3,32,1.03,-7.86,M,7.86,M,,*63
$GPRMC,000301,A,3000.06259,N,12000.61365,E,75.594,166.725,230721,0.000,E,A,V*52
$GLRMC,000301,A,3000.06259,N,12000.61365,E,75.594,166.725,230721,0.000,E,A,V*4E
$GLGLL,3000.06259,N,12000.61365,E,000301,A*3B
$GPGGA,000302,3000.04193,N,12000.61828,E,3,32,1.03,-7.86,M,7.86,M,,*65
$GPRMC,000302,A,3000.04193,N,12000.61828,E,75.594,171.182,230721,0.000,E,A,V*59
$GLRMC,000302,A,3000.04193,N,12000.61828,E,75.594,171.182,230721,0.000,E,A,V*45
$GLGLL,3000.04193,N,12000.61828,E,000302,A*3D
$GPGGA,000303,3000.02103,N,12000.62106,E,3,32,1.03,-7.86,M,7.86,M,,*6D
$GPRMC,000303,A,3000.02103,N,12000.62106,E,75.594,175.638,230721,0.000,E,A,V*53
$GLRMC,000303,A,3000.02103,N,12000.62106,E,75.594,175.638,230721,0.000,E,A,V*4F
$GLGLL,3000.02103,N,12000.62106,E,000303,A*35
$GPGGA,000304,3000.00000,N,12000.62196,E,3,32,1.03,-7.86,M,7.86,M,,*63
$GPRMC,000304,A,3000.00000,N,12000.62196,E,75.594,180.094,230721,0.000,E,A,V*57
$GLRMC,000304,A,3000.00000,N,12000.62196,E,75.594,180.094,230721,0.000,E,A,V*4B
$GLGLL,3000.00000,N,12000.62196,E,000304,A*3B
$GPGGA,000305,2959.97897,N,12000.62099,E,3,32,1.03,-7.86,M,7.86,M,,*60
$GPRMC,000305,A,2959.97897,N,12000.62099,E,75.594,184.551,230721,0.000,E,A,V*5C
$GLRMC,000305,A,2959.97897,N,12000.62099,E,75.594,184.551,230721,0.000,E,A,V*40
$GLGLL,2959.97897,N,12000.62099,E,000305,A*38
$GPGGA,000306,2959.95808,N,12000.61813,E,3,32,1.03,-7.86,M,7.86,M,,*6E
$GPRMC,000306,A,2959.95808,N,12000.61813,E,75.594,189.007,230721,0.000,E,A,V*59
$GLRMC,000306,A,2959.95808,N,12000.61813,E,75.594,189.007,230721,0.000,E,A,V*45
$GLGLL,2959.95808,N,12000.61813,E,000306,A*36
$GPGGA,000307,2959.93744,N,12000.61343,E,3,32,1.03,-7.86,M,7.86,M,,*60
$GPRMC,000307,A,2959.93744,N,12000.61343,E,75.594,193.463,230721,0.000,E,A,V*5A
$GLRMC,000307,A,2959.93744,N,12000.61343,E,75.594,193.463,230721,0.000,E,A,V*46
$GLGLL,2959.93744,N,12000.61343,E,000307,A*38
$GPGGA,000308,2959.91718,N,12000.60689,E,3,32,1.03,-7.86,M,7.86,M,,*66
$GPRMC,000308,A,2959.91718,N,12000.60689,E,75.594,197.919,230721,0.000,E,A,V*58
$GLRMC,000308,A,2959.91718,N,12000.60689,E,75.594,197.919,230721,0.000,E,A,V*44
$GLGLL,2959.91718,N,12000.60689,E,000308,A*3E
$GPGGA,000309,2959.89742,N,12000.59856,E,3,32,1.03,-7.86,M,7.86,M,,*67
$GPRMC,000309,A,2959.89742,N,12000.59856,E,75.594,202.376,230721,0.000,E,A,V*55
$GLRMC,000309,A,2959.89742,N,12000.59856,E,75.594,202.376,230721,0.000,E,A,V*49
$GLGLL,2959.89742,N,12000.59856,E,000309,A*3F
$GPGGA,000310,2959.87829,N,12000.58850,E,3,32,1.03,-7.86,M,7.86,M,,*64
$GPRMC,000310,A,2959.87829,N,12000.58850,E,75.594,206.832,230721,0.000,E,A,V*59
$GLRMC,000310,A,2959.87829,N,12000.58850,E,75.594,206.832,230721,0.000,E,A,V*45
$GLGLL,2959.87829,N,12000.58850,E,000310,A*3C
$GPGGA,000311,2959.85989,N,12000.57676,E,3,32,1.03,-7.86,M,7.86,M,,*69
$GPRMC,000311,A,2959.85989,N,12000.57676,E,75.594,211.288,230721,0.000,E,A,V*59
$GLRMC,000311,A,2959.85989,N,12000.57676,E,75.594,211.288,230721,0.000,E,A,V*45
$GLGLL,2959.85989,N,12000.57676,E,000311,A*31
$GPGGA,000312,2959.84234,N,12000.56341,E,3,32,1.03,-7.86,M,7.86,M,,*66
$GPRMC,000312,A,2959.84234,N,12000.56341,E,75.594,215.744,230721,0.000,E,A,V*57
$GLRMC,000312,A,2959.84234,N,12000.56341,E,75.594,215.744,230721,0.000,E,A,V*4B
$GLGLL,2959.84234,N,12000.56341,E,000312,A*3E
$GPGGA,000313,2959.82575,N,12000.54854,E,3,32,1.03,-7.86,M,7.86,M,,*6E
$GPRMC,000313,A,2959.82575,N,12000.54854,E,75.594,220.201,230721,0.000,E,A,V*5D
$GLRMC,000313,A,2959.82575,N,12000.54854,E,75.594,220.201,230721,0.000,E,A,V*41
$GLGLL,2959.82575,N,12000.54854,E,000313,A*36
$GPGGA,000314,2959.81022,N,12000.53223,E,3,32,1.03,-7.86,M,7.86,M,,*60
$GPRMC,000314,A,2959.81022,N,12000.53223,E,75.594,224.657,230721,0.000,E,A,V*50
$GLRMC,000314,A,2959.81022,N,12000.53223,E,75.594,224.657,230721,0.000,E,A,V*4C
$GLGLL,2959.81022,N,12000.53223,E,000314,A*38
$GPGGA,000315,2959.79584,N,12000.51458,E,3,32,1.03,-7.86,M,7.86,M,,*67
$GPRMC,000315,A,2959.79584,N,12000.51458,E,75.594,229.113,230721,0.000,E,A,V*5D
$GLRMC,000315,A,2959.79584,N,12000.51458,E,75.594,229.113,230721,0.000,E,A,V*41
$GLGLL,2959.79584,N,12000.51458,E,000315,A*3F
$GPGGA,000316,2959.78269,N,12000.49570,E,3,32,1.03,-7.86,M,7.86,M,,*63
$GPRMC,000316,A,2959.78269,N,12000.49570,E,75.594,233.569,230721,0.000,E,A,V*5B
$GLRMC,000316,A,2959.78269,N,12000.49570,E,75.594,233.569,230721,0.000,E,A,V*47
$GLGLL,2959.78269,N,12000.49570,E,000316,A*3B
$GPGGA,000317,2959.77086,N,12000.47571,E,3,32,1.03,-7.86,M,7.86,M,,*61
$GPRMC,000317,A,2959.77086,N,12000.47571,E,75.594,238.025,230721,0.000,E,A,V*5F
$GLRMC,000317,A,2959.77086,N,12000.47571,E,75.594,238.025,230721,0.000,E,A,V*43
$GLGLL,2959.77086,N,12000.47571,E,000317,A*39
$GPGGA,000318,2959.76042,N,12000.45472,E,3,32,1.03,-7.86,M,7.86,M,,*67
$GPRMC,000318,A,2959.76042,N,12000.45472,E,75.594,242.481,230721,0.000,E,A,V*5E
$GLRMC,000318,A,2959.76042,N,12000.45472,E,75.594,242.481,230721,0.000,E,A,V*42
$GLGLL,2959.76042,N,12000.45472,E,000318,A*3F
$GPGGA,000319,2959.75143,N,12000.43286,E,3,32,1.03,-7.86,M,7.86,M,,*6E
$GPRMC,000319,A,2959.75143,N,12000.43286,E,75.594,246.938,230721,0.000,E,A,V*5C
$GLRMC,000319,A,2959.75143,N,12000.43286,E,75.594,246.938,230721,0.000,E,A,V*40
$GLGLL,2959.75143,N,12000.43286,E,000319,A*36
$GPGGA,000320,2959.74394,N,12000.41027,E,3,32,1.03,-7.86,M,7.86,M,,*66
$GPRMC,000320,A,2959.74394,N,12000.41027,E,75.594,251.394,230721,0.000,E,A,V*5E
$GLRMC,000320,A,2959.74394,N,12000.41027,E,75.594,251.394,230721,0.000,E,A,V*42
$GLGLL,2959.74394,N,12000.41027,E,000320,A*3E
$GPGGA,000321,2959.73800,N,12000.38707,E,3,32,1.03,-7.86,M,7.86,M,,*6D
$GPRMC,000321,A,2959.73800,N,12000.38707,E,75.594,255.850,230721,0.000,E,A,V*52
$GLRMC,000321,A,2959.73800,N,12000.38707,E,75.594,255.850,230721,0.000,E,A,V*4E
$GLGLL,2959.73800,N,12000.38707,E,000321,A*35
$GPGGA,000322,2959.73366,N,12000.36342,E,3,32,1.03,-7.86,M,7.86,M,,*6E
$GPRMC,000322,A,2959.73366,N,12000.36342,E,75.594,260.306,230721,0.000,E,A,V*5F
$GLRMC,000322,A,2959.73366,N,12000.36342,E,75.594,260.306,230721,0.000,E,A,V*43
$GLGLL,2959.73366,N,12000.36342,E,000322,A*36
$GPGGA,000323,2959.73092,N,12000.33945,E,3,32,1.03,-7.86,M,7.86,M,,*6F
$GPRMC,000323,A,2959.73092,N,12000.33945,E,75.594,264.762,230721,0.000,E,A,V*5C
$GLRMC,000323,A,2959.73092,N,12000.33945,E,75.594,264.762,230721,0.000,E,A,V*40
$GLGLL,2959.73092,N,12000.33945,E,000323,A*37
$GPGGA,000324,2959.72981,N,12000.31530,E,3,32,1.03,-7.86,M,7.86,M,,*6E
$GPRMC,000324,A,2959.72981,N,12000.31530,E,75.594,269.218,230721,0.000,E,A,V*58
$GLRMC,000324,A,2959.72981,N,12000.31530,E,75.594,269.218,230721,0.000,E,A,V*44
$GLGLL,2959.72981,N,12000.31530,E,000324,A*36
$GPGGA,000325,2959.73035,N,12000.29114,E,3,32,1.03,-7.86,M,7.86,M,,*63
$GPRMC,000325,A,2959.73035,N,12000.29114,E,75.594,273.674,230721,0.000,E,A,V*50
$GLRMC,000325,A,2959.73035,N,12000.29114,E,75.594,273.674,230721,0.000,E,A,V*4C
$GLGLL,2959.73035,N,12000.29114,E,000325,A*3B
$GPGGA,000326,2959.73251,N,12000.26709,E,3,32,1.03,-7.86,M,7.86,M,,*65
$GPRMC,000326,A,2959.73251,N,12000.26709,E,75.594,278.131,230721,0.000,E,A,V*5B
$GLRMC,000326,A,2959.73251,N,12000.26709,E,75.594,278.131,230721,0.000,E,A,V*47
$GLGLL,2959.73251,N,12000.26709,E,000326,A*3D
$GPGGA,000327,2959.73629,N,12000.24331,E,3,32,1.03,-7.86,M,7.86,M,,*62
$GPRMC,000327,A,2959.73629,N,12000.24331,E,75.594,282.587,230721,0.000,E,A,V*50
$GLRMC,000327,A,2959.73629,N,12000.24331,E,75.594,282.587,230721,0.000,E,A,V*4C
$GLGLL,2959.73629,N,12000.24331,E,000327,A*3A
$GPGGA,000328,2959.74167,N,12000.21993,E,3,32,1.03,-7.86,M,7.86,M,,*60
$GPRMC,000328,A,2959.74167,N,12000.21993,E,75.594,287.043,230721,0.000,E,A,V*5A
$GLRMC,000328,A,2959.74167,N,12000.21993,E,75.594,287.043,230721,0.000,E,A,V*46
$GLGLL,2959.74167,N,12000.21993,E,000328,A*38
$GPGGA,000329,2959.74862,N,12000.19711,E,3,32,1.03,-7.86,M,7.86,M,,*62
$GPRMC,000329,A,2959.74862,N,12000.19711,E,75.594,291.499,230721,0.000,E,A,V*5C
$GLRMC,000329,A,2959.74862,N,12000.19711,E,75.594,291.499,230721,0.000,E,A,V*40
$GLGLL,2959.74862,N,12000.19711,E,000329,A*3A
$GPGGA,000330,2959.75708,N,12000.17498,E,3,32,1.03,-7.86,M,7.86,M,,*64
$GPRMC,000330,A,2959.75708,N,12000.17498,E,75.594,295.955,230721,0.000,E,A,V*53
$GLRMC,000330,A,2959.75708,N,12000.17498,E,75.594,295.955,230721,0.000,E,A,V*4F
$GLGLL,2959.75708,N,12000.17498,E,000330,A*3C
$GPGGA,000331,2959.76702,N,12000.15367,E,3,32,1.03,-7.86,M,7.86,M,,*69
$GPRMC,000331,A,2959.76702,N,12000.15367,E,75.594,300.411,230721,0.000,E,A,V*5E
$GLRMC,000331,A,2959.76702,N,12000.15367,E,75.594,300.411,230721,0.000,E,A,V*42
$GLGLL,2959.76702,N,12000.15367,E,000331,A*31
$GPGGA,000332,2959.77837,N,12000.13331,E,3,32,1.03,-7.86,M,7.86,M,,*67
$GPRMC,000332,A,2959.77837,N,12000.13331,E,75.594,304.867,230721,0.000,E,A,V*59
$GLRMC,000332,A,2959.77837,N,12000.13331,E,75.594,304.867,230721,0.000,E,A,V*45
$GLGLL,2959.77837,N,12000.13331,E,000332,A*3F
$GPGGA,000333,2959.79106,N,12000.11403,E,3,32,1.03,-7.86,M,7.86,M,,*67
$GPRMC,000333,A,2959.79106,N,12000.11403,E,75.594,309.324,230721,0.000,E,A,V*58
$GLRMC,000333,A,2959.79106,N,12000.11403,E,75.594,309.324,230721,0.000,E,A,V*44
$GLGLL,2959.79106,N,12000.11403,E,000333,A*3F
$GPGGA,000334,2959.80502,N,12000.09593,E,3,32,1.03,-7.86,M,7.86,M,,*67
$GPRMC,000334,A,2959.80502,N,12000.09593,E,75.594,313.780,230721,0.000,E,A,V*59
$GLRMC,000334,A,2959.80502,N,12000.09593,E,75.594,313.780,230721,0.000,E,A,V*45
$GLGLL,2959.80502,N,12000.09593,E,000334,A*3F
$GPGGA,000335,2959.82016,N,12000.07914,E,3,32,1.03,-7.86,M,7.86,M,,*69
$GPRMC,000335,A,2959.82016,N,12000.07914,E,75.594,318.236,230721,0.000,E,A,V*54
$GLRMC,000335,A,2959.82016,N,12000.07914,E,75.594,318.236,230721,0.000,E,A,V*48
$GLGLL,2959.82016,N,12000.07914,E,000335,A*31
$GPGGA,000336,2959.83639,N,12000.06375,E,3,32,1.03,-7.86,M,7.86,M,,*6C
$GPRMC,000336,A,2959.83639,N,12000.06375,E,75.594,322.692,230721,0.000,E,A,V*52
$GLRMC,000336,A,2959.83639,N,12000.06375,E,75.594,322.692,230721,0.000,E,A,V*4E
$GLGLL,2959.83639,N,12000.06375,E,000336,A*34
$GPGGA,000337,2959.85361,N,12000.04986,E,3,32,1.03,-7.86,M,7.86,M,,*67
$GPRMC,000337,A,2959.85361,N,12000.04986,E,75.594,327.148,230721,0.000,E,A,V*5C
$GLRMC,000337,A,2959.85361,N,12000.04986,E,75.594,327.148,230721,0.000,E,A,V*40
$GLGLL,2959.85361,N,12000.04986,E,000337,A*3F
$GPGGA,000338,2959.87172,N,12000.03754,E,3,32,1.03,-7.86,M,7.86,M,,*6C
$GPRMC,000338,A,2959.87172,N,12000.03754,E,75.594,331.605,230721,0.000,E,A,V*5E
$GLRMC,000338,A,2959.87172,N,12000.03754,E,75.594,331.605,230721,0.000,E,A,V*42
$GLGLL,2959.87172,N,12000.03754,E,000338,A*34
$GPGGA,000339,2959.89061,N,12000.02688,E,3,32,1.03,-7.86,M,7.86,M,,*61
$GPRMC,000339,A,2959.89061,N,12000.02688,E,75.594,336.061,230721,0.000,E,A,V*50
$GLRMC,000339,A,2959.89061,N,12000.02688,E,75.594,336.061,230721,0.000,E,A,V*4C
$GLGLL,2959.89061,N,12000.02688,E,000339,A*39
$GPGGA,000340,2959.91016,N,12000.01794,E,3,32,1.03,-7.86,M,7.86,M,,*69
$GPRMC,000340,A,2959.91016,N,12000.01794,E,75.594,340.517,230721,0.000,E,A,V*5D
$GLRMC,000340,A,2959.91016,N,12000.01794,E,75.594,340.517,230721,0.000,E,A,V*41
$GLGLL,2959.91016,N,12000.01794,E,000340,A*31
$GPGGA,000341,2959.93025,N,12000.01076,E,3,32,1.03,-7.86,M,7.86,M,,*61
$GPRMC,000341,A,2959.93025,N,12000.01076,E,75.594,344.973,230721,0.000,E,A,V*5F
$GLRMC,000341,A,2959.93025,N,12000.01076,E,75.594,344.973,230721,0.000,E,A,V*43
