=~=~=~=~=~=~=~=~=~=~=~= PuTTY log 2021.09.06 13:20:21 =~=~=~=~=~=~=~=~=~=~=~=
$GNGGA,000128.000,3000.2579,N,12000.4268,E,1,9,1.44,-6.6,M,7.0,M,,*5A
$GPGSA,A,3,25,08,13,04,07,02,,,,,,,3.03,1.44,2.66*0D
$GLGSA,A,3,87,77,86,,,,,,,,,,3.03,1.44,2.66*1C
$BDGSA,A,3,,,,,,,,,,,,,3.03,1.44,2.66*10
$GPGSV,4,1,15,07,85,115,36.3,25,66,042,35.9,04,52,247,35.4,13,50,031,35.6*7A
$GPGSV,4,2,15,08,47,207,35.5,02,33,299,35.0,23,27,057,,20,23,121,35.4*6B
$GPGSV,4,3,15,39,20,251,,27,19,219,,16,01,039,,10,01,310,*7D
$GPGSV,4,4,15,193,,,,194,,,,195,,,*47
$GLGSV,3,1,11,87,61,300,34.3,77,56,328,34.3,86,34,025,33.9,65,21,328,*76
$GLGSV,3,2,11,69,21,328,,76,21,328,,80,21,328,,88,20,243,*6F
$GLGSV,3,3,11,75,11,153,,78,06,331,,71,01,081,*56
$BDGSV,3,1,9,02,50,173,,13,48,202,,01,38,122,,06,37,216,*53
$BDGSV,3,2,9,09,37,287,,04,36,126,,11,18,131,,12,10,061,*5B
$BDGSV,3,3,9,14,09,165,*6F
$GNRMC,000128.000,A,3000.2579,N,12000.4268,E,75.515,110.06,230721,,,A*7A
$GNVTG,110.06,T,,M,75.515,N,139.930,K,A*17
$PMTKGEPH,6,0,1,0,1,0,0,1,1,0,0,0,0,1,0,0,0,0,0,0,0,0,0,0,0,1,0,0,0,0,0,0,0*02
$PMTKGALM,31,1,1,1,1,1,1,1,1,1,1,1,1,1,1,1,1,1,1,1,1,1,1,1,1,1,1,1,1,1,1,1,0*2A
$GNACCURACY,1.9,0.2,0.3,51.8*21
$PMTKAGC,000128.000,2962,2558,5755,5752,0,3,0*63
$PMTKAG2,000128.000,5,0120,0,0,0,0,0,0,0,0,0,0,0,0*39
$GNGGA,000129.000,3000.2495,N,12000.4492,E,1,9,1.44,-6.5,M,7.0,M,,*58
$GPGSA,A,3,25,08,13,04,07,02,,,,,,,3.03,1.44,2.66*0D
$GLGSA,A,3,87,77,86,,,,,,,,,,3.03,1.44,2.66*1C
$BDGSA,A,3,,,,,,,,,,,,,3.03,1.44,2.66*10
$GPGSV,4,1,15,07,85,115,36.3,25,66,042,35.9,04,52,247,35.4,13,50,031,35.5*79
$GPGSV,4,2,15,08,47,207,35.5,02,33,299,34.8,23,27,057,,20,23,121,34.7*60
$GPGSV,4,3,15,39,20,251,,27,19,219,,16,01,039,,10,01,310,*7D
$GPGSV,4,4,15,193,,,,194,,,,195,,,*47
$GLGSV,3,1,11,87,61,300,34.3,77,56,328,34.4,86,34,025,34.0,65,21,328,*7F
$GLGSV,3,2,11,69,21,328,,76,21,328,,80,21,328,,88,20,243,*6F
$GLGSV,3,3,11,75,11,153,,78,06,331,,71,01,081,*56
$BDGSV,3,1,9,02,50,173,,13,48,202,,01,38,122,,06,37,216,*53
$BDGSV,3,2,9,09,37,287,,04,36,126,,11,18,131,,12,10,061,*5B
$BDGSV,3,3,9,14,09,165,*6F
$GNRMC,000129.000,A,3000.2495,N,12000.4492,E,75.540,114.52,230721,,,A*7E
$GNVTG,114.52,T,,M,75.540,N,139.976,K,A*10
$PMTKGEPH,6,0,1,0,1,0,0,1,1,0,0,0,0,1,0,0,0,0,0,0,0,0,0,0,0,1,0,0,0,0,0,0,0*02
$PMTKGALM,31,1,1,1,1,1,1,1,1,1,1,1,1,1,1,1,1,1,1,1,1,1,1,1,1,1,1,1,1,1,1,1,0*2A
$GNACCURACY,1.8,0.2,0.3,51.5*2D
$PMTKAGC,000129.000,2762,2881,5715,5828,0,3,0*63
$PMTKAG2,000129.000,5,0120,0,0,0,0,0,0,0,0,0,0,0,0*38
$GNGGA,000130.000,3000.2396,N,12000.4708,E,1,9,1.44,-6.3,M,7.0,M,,*52
$GPGSA,A,3,25,08,13,04,07,02,,,,,,,3.03,1.44,2.66*0D
$GLGSA,A,3,87,77,86,,,,,,,,,,3.03,1.44,2.66*1C
$BDGSA,A,3,,,,,,,,,,,,,3.03,1.44,2.66*10
$GPGSV,4,1,15,07,85,115,36.3,25,66,042,35.9,04,52,247,35.4,13,50,031,35.6*7A
$GPGSV,4,2,15,08,47,207,35.5,02,33,299,34.9,23,27,057,,20,23,121,34.9*6F
$GPGSV,4,3,15,39,20,251,,27,19,219,,16,01,039,,10,01,310,*7D
$GPGSV,4,4,15,193,,,,194,,,,195,,,*47
$GLGSV,3,1,11,87,61,300,34.3,77,56,328,34.3,86,34,025,34.0,65,21,328,*78
$GLGSV,3,2,11,69,21,328,,76,21,328,,80,21,328,,88,20,243,*6F
$GLGSV,3,3,11,75,11,153,,78,06,331,,71,01,081,*56
$BDGSV,3,1,9,02,50,173,,13,48,202,,01,38,122,,06,37,216,*53
$BDGSV,3,2,9,09,37,287,,04,36,126,,11,18,131,,12,10,061,*5B
$BDGSV,3,3,9,14,09,165,*6F
$GNRMC,000130.000,A,3000.2396,N,12000.4708,E,75.539,118.96,230721,,,A*78
$GNVTG,118.96,T,,M,75.539,N,139.973,K,A*1F
$PMTKGEPH,6,0,1,0,1,0,0,1,1,0,0,0,0,1,0,0,0,0,0,0,0,0,0,0,0,1,0,0,0,0,0,0,0*02
$PMTKGALM,31,1,1,1,1,1,1,1,1,1,1,1,1,1,1,1,1,1,1,1,1,1,1,1,1,1,1,1,1,1,1,1,0*2A
$GNACCURACY,1.8,0.2,0.3,51.7*2F
$PMTKAGC,000130.000,2805,2928,5758,5856,0,3,0*67
$PMTKAG2,000130.000,5,0120,0,0,0,0,0,0,0,0,0,0,0,0*30
$GNGGA,000131.000,3000.2283,N,12000.4915,E,1,9,1.44,-6.0,M,7.0,M,,*57
$GPGSA,A,3,25,08,13,04,07,02,,,,,,,3.03,1.44,2.66*0D
$GLGSA,A,3,87,77,86,,,,,,,,,,3.03,1.44,2.66*1C
$BDGSA,A,3,,,,,,,,,,,,,3.03,1.44,2.66*10
$GPGSV,4,1,15,07,85,115,36.3,25,66,042,35.9,04,52,247,35.4,13,50,031,35.5*79
$GPGSV,4,2,15,08,47,207,35.5,02,33,299,35.0,23,27,057,,20,23,121,34.6*68
$GPGSV,4,3,15,39,20,251,,27,19,219,,16,01,039,,10,01,310,*7D
$GPGSV,4,4,15,193,,,,194,,,,195,,,*47
$GLGSV,3,1,11,87,61,300,34.3,77,56,328,34.3,86,34,025,34.0,65,21,328,*78
$GLGSV,3,2,11,69,21,328,,76,21,328,,80,21,328,,88,20,243,*6F
$GLGSV,3,3,11,75,11,153,,78,06,331,33.4,71,01,081,*4C
$BDGSV,3,1,9,02,50,173,,13,48,202,,01,38,122,,06,37,216,*53
$BDGSV,3,2,9,09,37,287,,04,36,126,,11,18,131,,12,10,061,*5B
$BDGSV,3,3,9,14,09,165,*6F
$GNRMC,000131.000,A,3000.2283,N,12000.4915,E,75.530,123.44,230721,,,A*70
$GNVTG,123.44,T,,M,75.530,N,139.957,K,A*17
$PMTKGEPH,6,0,1,0,1,0,0,1,1,0,0,0,0,1,0,0,0,0,0,0,0,0,0,0,0,1,0,0,0,0,0,0,0*02
$PMTKGALM,31,1,1,1,1,1,1,1,1,1,1,1,1,1,1,1,1,1,1,1,1,1,1,1,1,1,1,1,1,1,1,1,0*2A
$GNACCURACY,1.8,0.2,0.3,51.6*2E
$PMTKAGC,000131.000,2961,2863,5808,5814,0,3,0*67
$PMTKAG2,000131.000,5,0120,0,0,0,0,0,0,0,0,0,0,0,0*31
$GNGGA,000132.000,3000.2155,N,12000.5110,E,1,9,1.44,-5.6,M,7.0,M,,*55
$GPGSA,A,3,25,08,13,04,07,02,,,,,,,3.02,1.44,2.66*0C
$GLGSA,A,3,87,77,86,,,,,,,,,,3.02,1.44,2.66*1D
$BDGSA,A,3,,,,,,,,,,,,,3.02,1.44,2.66*11
$GPGSV,4,1,15,07,85,115,36.3,25,66,042,36.0,04,52,247,35.3,13,50,031,35.6*77
$GPGSV,4,2,15,08,47,207,35.5,02,33,299,35.1,23,27,057,,20,23,121,34.8*67
$GPGSV,4,3,15,39,20,251,,27,19,219,,16,01,039,,10,01,310,*7D
$GPGSV,4,4,15,193,,,,194,,,,195,,,*47
$GLGSV,3,1,11,87,61,300,34.4,77,56,328,34.4,86,34,025,34.0,65,21,328,*78
$GLGSV,3,2,11,69,21,328,,76,21,328,,80,21,328,,88,20,243,*6F
$GLGSV,3,3,11,75,11,153,33.1,78,06,331,33.0,71,01,081,*57
$BDGSV,3,1,9,02,50,173,,13,48,202,,01,38,122,,06,37,216,*53
$BDGSV,3,2,9,09,37,287,,04,36,126,,11,18,131,,12,10,061,*5B
$BDGSV,3,3,9,14,09,165,*6F
$GNRMC,000132.000,A,3000.2155,N,12000.5110,E,75.570,127.90,230721,,,A*7E
$GNVTG,127.90,T,,M,75.570,N,140.031,K,A*19
$PMTKGEPH,6,0,1,0,1,0,0,1,1,0,0,0,0,1,0,0,0,0,0,0,0,0,0,0,0,1,0,0,0,0,0,0,0*02
$PMTKGALM,31,1,1,1,1,1,1,1,1,1,1,1,1,1,1,1,1,1,1,1,1,1,1,1,1,1,1,1,1,1,1,1,0*2A
$GNACCURACY,1.8,0.3,0.4,51.7*29
$PMTKAGC,000132.000,3019,2835,5877,5875,0,3,0*6F
$PMTKAG2,000132.000,5,0120,0,0,0,0,0,0,0,0,0,0,0,0*32
$GNGGA,000133.000,3000.2015,N,12000.5294,E,1,9,1.44,-5.3,M,7.0,M,,*5B
$GPGSA,A,3,25,08,13,04,07,02,,,,,,,3.02,1.44,2.66*0C
$GLGSA,A,3,87,77,86,,,,,,,,,,3.02,1.44,2.66*1D
$BDGSA,A,3,,,,,,,,,,,,,3.02,1.44,2.66*11
$GPGSV,4,1,15,07,85,115,36.3,25,66,042,36.0,04,52,247,35.4,13,50,031,35.6*70
$GPGSV,4,2,15,08,47,207,35.5,02,33,299,35.1,23,27,057,,20,23,121,34.7*68
$GPGSV,4,3,15,39,20,251,,27,19,219,,16,01,039,,10,01,310,*7D
$GPGSV,4,4,15,193,,,,194,,,,195,,,*47
$GLGSV,3,1,11,87,61,300,34.4,77,56,328,34.3,86,34,025,34.0,65,21,328,*7F
$GLGSV,3,2,11,69,21,328,,76,21,328,,80,21,328,,88,20,243,*6F
$GLGSV,3,3,11,75,11,153,32.6,78,06,331,33.4,71,01,081,*55
$BDGSV,3,1,9,02,50,173,,13,48,202,,01,38,122,,06,37,216,*53
$BDGSV,3,2,9,09,37,287,,04,36,126,,11,18,131,,12,10,061,*5B
$BDGSV,3,3,9,14,09,165,*6F
$GNRMC,000133.000,A,3000.2015,N,12000.5294,E,75.558,132.34,230721,,,A*75
$GNVTG,132.34,T,,M,75.558,N,140.009,K,A*12
$PMTKGEPH,6,0,1,0,1,0,0,1,1,0,0,0,0,1,0,0,0,0,0,0,0,0,0,0,0,1,0,0,0,0,0,0,0*02
$PMTKGALM,31,1,1,1,1,1,1,1,1,1,1,1,1,1,1,1,1,1,1,1,1,1,1,1,1,1,1,1,1,1,1,1,0*2A
$GNACCURACY,1.8,0.2,0.3,52.0*2B
$PMTKAGC,000133.000,2967,2786,5743,5794,0,3,0*60
$PMTKAG2,000133.000,5,0120,0,0,0,0,0,0,0,0,0,0,0,0*33
$GNGGA,000134.000,3000.1863,N,12000.5464,E,1,9,1.44,-5.0,M,7.0,M,,*5C
$GPGSA,A,3,25,08,13,04,07,02,,,,,,,3.02,1.44,2.66*0C
$GLGSA,A,3,87,77,86,,,,,,,,,,3.02,1.44,2.66*1D
$BDGSA,A,3,,,,,,,,,,,,,3.02,1.44,2.66*11
$GPGSV,4,1,15,07,85,115,36.3,25,66,042,36.0,04,52,247,35.4,13,50,031,35.6*70
$GPGSV,4,2,15,08,47,207,35.5,02,33,299,35.1,23,27,057,,20,23,121,34.6*69
$GPGSV,4,3,15,39,20,251,,27,19,219,,16,01,039,,10,01,310,*7D
$GPGSV,4,4,15,193,,,,194,,,,195,,,*47
$GLGSV,3,1,11,87,61,300,34.3,77,56,328,34.3,86,34,025,34.0,65,21,328,*78
$GLGSV,3,2,11,69,21,328,,76,21,328,,80,21,328,,88,20,243,*6F
$GLGSV,3,3,11,75,11,153,33.7,78,06,331,33.4,71,01,081,*55
$BDGSV,3,1,9,02,50,173,,13,48,202,,01,38,122,,06,37,216,*53
$BDGSV,3,2,9,09,37,287,,04,36,126,,11,18,131,,12,10,061,*5B
$BDGSV,3,3,9,14,09,165,*6F
$GNRMC,000134.000,A,3000.1863,N,12000.5464,E,75.541,136.80,230721,,,A*72
$GNVTG,136.80,T,,M,75.541,N,139.978,K,A*10
$PMTKGEPH,6,0,1,0,1,0,0,1,1,0,0,0,0,1,0,0,0,0,0,0,0,0,0,0,0,1,0,0,0,0,0,0,0*02
$PMTKGALM,31,1,1,1,1,1,1,1,1,1,1,1,1,1,1,1,1,1,1,1,1,1,1,1,1,1,1,1,1,1,1,1,0*2A
$GNACCURACY,1.8,0.2,0.3,51.9*21
$PMTKAGC,000134.000,2884,3073,5852,5794,0,3,0*68
$PMTKAG2,000134.000,5,0120,0,0,0,0,0,0,0,0,0,0,0,0*34
$GNGGA,000135.000,3000.1700,N,12000.5621,E,1,9,1.44,-4.7,M,7.0,M,,*52
$GPGSA,A,3,25,08,13,04,07,02,,,,,,,3.03,1.44,2.66*0D
$GLGSA,A,3,87,77,86,,,,,,,,,,3.03,1.44,2.66*1C
$BDGSA,A,3,,,,,,,,,,,,,3.03,1.44,2.66*10
$GPGSV,4,1,15,07,85,115,36.3,25,66,042,36.0,04,52,247,35.4,13,50,031,35.6*70
$GPGSV,4,2,15,08,47,207,35.5,02,33,299,35.0,23,27,057,,20,23,121,34.4*6A
$GPGSV,4,3,15,39,20,251,,27,19,219,,16,01,039,,10,01,310,*7D
$GPGSV,4,4,15,193,,,,194,,,,195,,,*47
$GLGSV,3,1,11,87,61,300,34.4,77,56,328,34.3,86,34,025,34.0,65,21,328,*7F
$GLGSV,3,2,11,69,21,328,,76,21,328,,80,21,328,,88,20,243,*6F
$GLGSV,3,3,11,75,11,153,32.4,78,06,331,32.8,71,01,081,*5A
$BDGSV,3,1,9,02,50,173,,13,48,202,,01,38,122,,06,37,216,*53
$BDGSV,3,2,9,09,37,287,,04,36,126,,11,18,131,,12,10,061,*5B
$BDGSV,3,3,9,14,09,165,*6F
$GNRMC,000135.000,A,3000.1700,N,12000.5621,E,75.526,141.27,230721,,,A*76
$GNVTG,141.27,T,,M,75.526,N,139.950,K,A*16
$PMTKGEPH,6,0,1,0,1,0,0,1,1,0,0,0,0,1,0,0,0,0,0,0,0,0,0,0,0,1,0,0,0,0,0,0,0*02
$PMTKGALM,31,1,1,1,1,1,1,1,1,1,1,1,1,1,1,1,1,1,1,1,1,1,1,1,1,1,1,1,1,1,1,1,0*2A
$GNACCURACY,1.8,0.2,0.3,52.1*2A
$PMTKAGC,000135.000,2924,2713,5741,5761,0,3,0*65
$PMTKAG2,000135.000,5,0120,0,0,0,0,0,0,0,0,0,0,0,0*35
$GNGGA,000136.000,3000.1526,N,12000.5763,E,1,9,1.44,-4.7,M,7.0,M,,*50
$GPGSA,A,3,25,08,13,04,07,02,,,,,,,3.02,1.44,2.66*0C
$GLGSA,A,3,87,77,86,,,,,,,,,,3.02,1.44,2.66*1D
$BDGSA,A,3,,,,,,,,,,,,,3.02,1.44,2.66*11
$GPGSV,4,1,15,07,85,115,36.3,25,66,042,36.0,04,52,247,35.4,13,50,031,35.6*70
$GPGSV,4,2,15,08,47,207,35.5,02,33,299,35.1,23,27,057,,20,23,121,34.5*6A
$GPGSV,4,3,15,39,20,251,,27,19,219,,16,01,039,,10,01,310,*7D
$GPGSV,4,4,15,193,,,,194,,,,195,,,*47
$GLGSV,3,1,11,87,61,300,34.4,77,56,328,34.3,86,34,025,33.9,65,21,328,*71
$GLGSV,3,2,11,69,21,328,,76,21,328,,80,21,328,,88,20,243,*6F
$GLGSV,3,3,11,75,11,153,32.8,78,06,331,33.3,71,01,081,*5C
$BDGSV,3,1,9,02,50,173,,13,48,202,,01,38,122,,06,37,216,*53
$BDGSV,3,2,9,09,37,287,,04,36,126,,11,18,131,,12,10,061,*5B
$BDGSV,3,3,9,14,09,165,*6F
$GNRMC,000136.000,A,3000.1526,N,12000.5763,E,75.524,145.71,230721,,,A*71
$GNVTG,145.71,T,,M,75.524,N,139.945,K,A*17
$PMTKGEPH,6,0,1,0,1,0,0,1,1,0,0,0,0,1,0,0,0,0,0,0,0,0,0,0,0,1,0,0,0,0,0,0,0*02
$PMTKGALM,31,1,1,1,1,1,1,1,1,1,1,1,1,1,1,1,1,1,1,1,1,1,1,1,1,1,1,1,1,1,1,1,0*2A
$GNACCURACY,1.8,0.2,0.3,52.0*2B
$PMTKAGC,000136.000,2985,2956,5830,5851,0,3,0*67
$PMTKAG2,000136.000,5,0120,0,0,0,0,0,0,0,0,0,0,0,0*36
$GNGGA,000137.000,3000.1343,N,12000.5889,E,1,9,1.44,-4.6,M,7.0,M,,*5E
$GPGSA,A,3,25,08,13,04,07,02,,,,,,,3.02,1.44,2.66*0C
$GLGSA,A,3,87,77,86,,,,,,,,,,3.02,1.44,2.66*1D
$BDGSA,A,3,,,,,,,,,,,,,3.02,1.44,2.66*11
$GPGSV,4,1,15,07,85,115,36.3,25,66,042,36.0,04,52,247,35.4,13,50,031,35.5*73
$GPGSV,4,2,15,42,48,143,,08,47,207,35.5,02,33,299,35.0,23,27,057,*7A
$GPGSV,4,3,15,20,23,121,,27,19,219,,16,01,039,,10,01,310,*72
$GPGSV,4,4,15,193,,,,194,,,,195,,,*47
$GLGSV,3,1,11,87,61,300,34.4,77,56,328,34.3,86,34,025,33.9,65,21,328,*71
$GLGSV,3,2,11,69,21,328,,76,21,328,,80,21,328,,88,20,243,*6F
$GLGSV,3,3,11,75,11,153,32.2,78,06,331,33.3,71,01,081,*56
$BDGSV,3,1,9,02,50,173,,13,48,202,,01,38,122,,06,37,216,*53
$BDGSV,3,2,9,09,37,287,,04,36,126,,11,18,131,,12,10,061,*5B
$BDGSV,3,3,9,14,09,165,*6F
$GNRMC,000137.000,A,3000.1343,N,12000.5889,E,75.518,150.17,230721,,,A*75
$GNVTG,150.17,T,,M,75.518,N,139.934,K,A*1A
$PMTKGEPH,6,0,1,0,1,0,0,1,1,0,0,0,0,1,0,0,0,0,0,0,0,0,0,0,0,1,0,0,0,0,0,0,0*02
$PMTKGALM,31,1,1,1,1,1,1,1,1,1,1,1,1,1,1,1,1,1,1,1,1,1,1,1,1,1,1,1,1,1,1,1,0*2A
$GNACCURACY,1.8,0.2,0.3,52.3*28
$PMTKAGC,000137.000,2896,2756,5879,5773,0,3,0*69
$PMTKAG2,000137.000,5,0120,0,0,0,0,0,0,0,0,0,0,0,0*37
$GNGGA,000138.000,3000.1152,N,12000.5999,E,1,9,1.44,-4.4,M,7.0,M,,*51
$GPGSA,A,3,25,08,13,04,07,02,,,,,,,3.02,1.44,2.66*0C
$GLGSA,A,3,87,77,86,,,,,,,,,,3.02,1.44,2.66*1D
$BDGSA,A,3,,,,,,,,,,,,,3.02,1.44,2.66*11
$GPGSV,4,1,15,07,85,115,36.2,25,66,042,36.0,04,52,247,35.4,13,50,031,35.5*72
$GPGSV,4,2,15,42,48,143,,08,47,207,35.5,02,33,299,35.0,23,27,057,*7A
$GPGSV,4,3,15,20,23,121,,27,19,219,,16,01,039,,10,01,310,*72
$GPGSV,4,4,15,193,,,,194,,,,195,,,*47
$GLGSV,3,1,11,87,61,300,34.4,77,56,328,34.3,86,34,025,33.8,65,21,328,*70
$GLGSV,3,2,11,69,21,328,,76,21,328,,80,21,328,,88,20,243,*6F
$GLGSV,3,3,11,75,11,153,32.8,78,06,331,33.3,71,01,081,*5C
$BDGSV,3,1,9,02,50,173,,13,48,202,,01,38,122,,06,37,216,*53
$BDGSV,3,2,9,09,37,287,,04,36,126,,11,18,131,,12,10,061,*5B
$BDGSV,3,3,9,14,09,165,*6F
$GNRMC,000138.000,A,3000.1152,N,12000.5999,E,75.518,154.62,230721,,,A*7E
$GNVTG,154.62,T,,M,75.518,N,139.934,K,A*1C
$PMTKGEPH,6,0,1,0,1,0,0,1,1,0,0,0,0,1,0,0,0,0,0,0,0,0,0,0,0,1,0,0,0,0,0,0,0*02
$PMTKGALM,31,1,1,1,1,1,1,1,1,1,1,1,1,1,1,1,1,1,1,1,1,1,1,1,1,1,1,1,1,1,1,1,0*2A
$GNACCURACY,1.8,0.2,0.3,52.1*2A
$PMTKAGC,000138.000,2738,2902,5636,5748,0,3,0*6F
$PMTKAG2,000138.000,5,0120,0,0,0,0,0,0,0,0,0,0,0,0*38
$GNGGA,000139.000,3000.0954,N,12000.6091,E,1,9,1.44,-4.2,M,7.0,M,,*5B
$GPGSA,A,3,25,08,13,04,07,02,,,,,,,3.02,1.44,2.66*0C
$GLGSA,A,3,87,77,86,,,,,,,,,,3.02,1.44,2.66*1D
$BDGSA,A,3,,,,,,,,,,,,,3.02,1.44,2.66*11
$GPGSV,4,1,15,07,85,115,36.2,25,66,042,35.9,04,52,247,35.4,13,50,031,35.5*78
$GPGSV,4,2,15,42,48,143,,08,47,207,35.4,02,33,299,35.0,23,27,057,*7B
$GPGSV,4,3,15,20,23,121,,27,19,219,,16,01,039,,10,01,310,*72
$GPGSV,4,4,15,193,,,,194,,,,195,,,*47
$GLGSV,3,1,11,87,61,300,34.4,77,56,328,34.3,86,34,025,33.8,65,21,328,*70
$GLGSV,3,2,11,69,21,328,,76,21,328,,80,21,328,,88,20,243,*6F
$GLGSV,3,3,11,75,11,153,32.7,78,06,331,33.4,71,01,081,*54
$BDGSV,3,1,9,02,50,173,,13,48,202,,01,38,122,,06,37,216,*53
$BDGSV,3,2,9,09,37,287,,04,36,126,,11,18,131,,12,10,061,*5B
$BDGSV,3,3,9,14,09,165,*6F
$GNRMC,000139.000,A,3000.0954,N,12000.6091,E,75.520,159.09,230721,,,A*79
$GNVTG,159.09,T,,M,75.520,N,139.938,K,A*1B
$PMTKGEPH,6,0,1,0,1,0,0,1,1,0,0,0,0,1,0,0,0,0,0,0,0,0,0,0,0,1,0,0,0,0,0,0,0*02
$PMTKGALM,31,1,1,1,1,1,1,1,1,1,1,1,1,1,1,1,1,1,1,1,1,1,1,1,1,1,1,1,1,1,1,1,0*2A
$GNACCURACY,1.8,0.2,0.3,52.5*2E
$PMTKAGC,000139.000,2916,2747,5809,5675,0,3,0*6E
$PMTKAG2,000139.000,5,0120,0,0,0,0,0,0,0,0,0,0,0,0*39
$GNGGA,000140.000,3000.0750,N,12000.6165,E,1,9,1.44,-4.1,M,7.0,M,,*56
$GPGSA,A,3,25,08,13,04,07,02,,,,,,,3.02,1.44,2.66*0C
$GLGSA,A,3,87,77,86,,,,,,,,,,3.02,1.44,2.66*1D
$BDGSA,A,3,,,,,,,,,,,,,3.02,1.44,2.66*11
$GPGSV,4,1,15,07,85,115,36.3,25,66,042,35.9,04,52,247,35.4,13,50,031,35.5*79
$GPGSV,4,2,15,42,48,143,,08,47,207,35.4,02,33,299,35.1,23,27,057,*7A
$GPGSV,4,3,15,20,23,121,,27,19,219,,16,01,039,,10,01,310,*72
$GPGSV,4,4,15,193,,,,194,,,,195,,,*47
$GLGSV,3,1,11,87,61,300,34.4,77,56,328,34.4,86,34,025,33.8,65,21,328,*77
$GLGSV,3,2,11,69,21,328,,76,21,328,,80,21,328,,88,20,243,*6F
$GLGSV,3,3,11,75,11,153,32.4,78,06,331,33.6,71,01,081,*55
$BDGSV,3,1,9,02,50,173,,13,48,202,,01,38,122,,06,37,216,*53
$BDGSV,3,2,9,09,37,287,,04,36,126,,11,18,131,,12,10,061,*5B
$BDGSV,3,3,9,14,09,165,*6F
$GNRMC,000140.000,A,3000.0750,N,12000.6165,E,75.519,163.56,230721,,,A*7E
$GNVTG,163.56,T,,M,75.519,N,139.937,K,A*1D
$PMTKGEPH,6,0,1,0,1,0,0,1,1,0,0,0,0,1,0,0,0,0,0,0,0,0,0,0,0,1,0,0,0,0,0,0,0*02
$PMTKGALM,31,1,1,1,1,1,1,1,1,1,1,1,1,1,1,1,1,1,1,1,1,1,1,1,1,1,1,1,1,1,1,1,0*2A
$GNACCURACY,1.7,0.2,0.3,52.2*26
$PMTKAGC,000140.000,2682,3025,5763,5721,0,3,0*63
$PMTKAG2,000140.000,5,0120,0,0,0,0,0,0,0,0,0,0,0,0*37
$GNGGA,000141.000,3000.0542,N,12000.6221,E,1,10,1.44,-3.6,M,7.0,M,,*6D
$GPGSA,A,3,25,08,13,04,07,02,,,,,,,2.36,1.44,1.88*09
$GLGSA,A,3,87,77,86,78,,,,,,,,,2.36,1.44,1.88*17
$BDGSA,A,3,,,,,,,,,,,,,2.36,1.44,1.88*14
$GPGSV,4,1,15,07,85,115,36.2,25,66,042,35.9,04,52,247,35.4,13,50,031,35.5*78
$GPGSV,4,2,15,42,48,143,,08,47,207,35.4,02,33,299,35.1,23,27,057,*7A
$GPGSV,4,3,15,20,23,121,,27,19,219,,16,01,039,,10,01,310,*72
$GPGSV,4,4,15,193,,,,194,,,,195,,,*47
$GLGSV,3,1,11,87,61,300,34.4,77,56,328,34.3,86,34,025,33.8,65,21,328,*70
$GLGSV,3,2,11,69,21,328,,76,21,328,,80,21,328,,88,20,243,*6F
$GLGSV,3,3,11,75,11,153,32.3,78,06,331,33.5,71,01,081,*51
$BDGSV,3,1,9,02,50,173,,13,48,202,,01,38,122,,06,37,216,*53
$BDGSV,3,2,9,09,37,287,,04,36,126,,11,18,131,,12,10,061,*5B
$BDGSV,3,3,9,14,09,165,*6F
$GNRMC,000141.000,A,3000.0542,N,12000.6221,E,75.522,167.98,230721,,,A*73
$GNVTG,167.98,T,,M,75.522,N,139.941,K,A*12
$PMTKGEPH,6,0,1,0,1,0,0,1,1,0,0,0,0,1,0,0,0,0,0,0,0,0,0,0,0,1,0,0,0,0,0,0,0*02
$PMTKGALM,31,1,1,1,1,1,1,1,1,1,1,1,1,1,1,1,1,1,1,1,1,1,1,1,1,1,1,1,1,1,1,1,0*2A
$GNACCURACY,1.7,0.2,0.3,46.1*20
$PMTKAGC,000141.000,3028,2790,5841,5715,0,3,0*65
$PMTKAG2,000141.000,5,0120,0,0,0,0,0,0,0,0,0,0,0,0*36
$GNGGA,000142.000,3000.0330,N,12000.6259,E,1,10,1.44,-3.2,M,7.0,M,,*66
$GPGSA,A,3,25,08,13,04,07,02,,,,,,,2.36,1.44,1.88*09
$GLGSA,A,3,87,77,86,78,,,,,,,,,2.36,1.44,1.88*17
$BDGSA,A,3,,,,,,,,,,,,,2.36,1.44,1.88*14
$GPGSV,4,1,15,07,85,115,36.2,25,66,042,35.9,04,52,247,35.4,13,50,031,35.5*78
$GPGSV,4,2,15,42,48,143,,08,47,207,35.4,02,33,299,35.1,23,27,057,*7A
$GPGSV,4,3,15,20,23,121,,27,19,219,,16,01,039,,10,01,310,*72
$GPGSV,4,4,15,193,,,,194,,,,195,,,*47
$GLGSV,3,1,11,87,61,300,34.3,77,56,328,34.4,86,34,025,33.8,65,21,328,*70
$GLGSV,3,2,11,69,21,328,,76,21,328,,80,21,328,,88,20,243,*6F
$GLGSV,3,3,11,75,11,153,32.5,78,06,331,33.7,71,01,081,*55
$BDGSV,3,1,9,02,50,173,,13,48,202,,01,38,122,,06,37,216,*53
$BDGSV,3,2,9,09,37,287,,04,36,126,,11,18,131,,12,10,061,*5B
$BDGSV,3,3,9,14,09,165,*6F
$GNRMC,000142.000,A,3000.0330,N,12000.6259,E,75.530,172.45,230721,,,A*7B
$GNVTG,172.45,T,,M,75.530,N,139.957,K,A*12
$PMTKGEPH,6,0,1,0,1,0,0,1,1,0,0,0,0,1,0,0,0,0,0,0,0,0,0,0,0,1,0,0,0,0,0,0,0*02
$PMTKGALM,31,1,1,1,1,1,1,1,1,1,1,1,1,1,1,1,1,1,1,1,1,1,1,1,1,1,1,1,1,1,1,1,0*2A
$GNACCURACY,1.7,0.2,0.3,45.8*2A
$PMTKAGC,000142.000,3022,2871,5673,5844,0,3,0*68
$PMTKAG2,000142.000,5,0120,0,0,0,0,0,0,0,0,0,0,0,0*35
$GNGGA,000143.000,3000.0117,N,12000.6278,E,1,10,1.44,-2.9,M,7.0,M,,*69
$GPGSA,A,3,25,08,13,04,07,02,,,,,,,2.36,1.44,1.88*09
$GLGSA,A,3,87,77,86,78,,,,,,,,,2.36,1.44,1.88*17
$BDGSA,A,3,,,,,,,,,,,,,2.36,1.44,1.88*14
$GPGSV,4,1,15,07,85,115,36.3,25,66,042,35.9,04,52,247,35.4,13,50,031,35.5*79
$GPGSV,4,2,15,42,48,143,,08,47,207,35.4,02,33,299,35.1,23,27,057,*7A
$GPGSV,4,3,15,20,23,121,,27,19,219,,16,01,039,,10,01,310,*72
$GPGSV,4,4,15,193,,,,194,,,,195,,,*47
$GLGSV,3,1,11,87,61,300,34.2,77,56,328,34.4,86,34,025,33.8,65,21,328,*71
$GLGSV,3,2,11,69,21,328,,76,21,328,,80,21,328,,88,20,243,*6F
$GLGSV,3,3,11,75,11,153,32.3,78,06,331,33.8,71,01,081,*5C
$BDGSV,3,1,9,02,50,173,,13,48,202,,01,38,122,,06,37,216,*53
$BDGSV,3,2,9,09,37,287,,04,36,126,,11,18,131,,12,10,061,*5B
$BDGSV,3,3,9,14,09,165,*6F
$GNRMC,000143.000,A,3000.0117,N,12000.6278,E,75.522,176.95,230721,,,A*74
$GNVTG,176.95,T,,M,75.522,N,139.942,K,A*1C
$PMTKGEPH,6,0,1,0,1,0,0,1,1,0,0,0,0,1,0,0,0,0,0,0,0,0,0,0,0,1,0,0,0,0,0,0,0*02
$PMTKGALM,31,1,1,1,1,1,1,1,1,1,1,1,1,1,1,1,1,1,1,1,1,1,1,1,1,1,1,1,1,1,1,1,0*2A
$GNACCURACY,1.7,0.2,0.3,46.1*20
$PMTKAGC,000143.000,2735,3082,5792,5772,0,3,0*68
$PMTKAG2,000143.000,5,0120,0,0,0,0,0,0,0,0,0,0,0,0*34
$GNGGA,000144.000,2959.9903,N,12000.6277,E,1,10,1.44,-2.8,M,7.0,M,,*60
$GPGSA,A,3,25,08,13,04,07,02,,,,,,,2.36,1.44,1.88*09
$GLGSA,A,3,87,77,86,78,,,,,,,,,2.36,1.44,1.88*17
$BDGSA,A,3,,,,,,,,,,,,,2.36,1.44,1.88*14
$GPGSV,4,1,15,07,85,115,36.3,25,66,042,35.9,04,52,247,35.4,13,50,031,35.5*79
$GPGSV,4,2,15,42,48,143,,08,47,207,35.4,02,33,299,35.1,23,27,057,*7A
$GPGSV,4,3,15,20,23,121,,27,19,219,,16,01,039,,10,01,310,*72
$GPGSV,4,4,15,193,,,,194,,,,195,,,*47
$GLGSV,3,1,11,87,61,300,34.3,77,56,328,34.3,86,34,025,33.8,65,21,328,*77
$GLGSV,3,2,11,69,21,328,,76,21,328,,80,21,328,,88,20,243,*6F
$GLGSV,3,3,11,75,11,153,,78,06,331,30.5,71,01,081,*4E
$BDGSV,3,1,9,02,50,173,,13,48,202,,01,38,122,,06,37,216,*53
$BDGSV,3,2,9,09,37,287,,04,36,126,,11,18,131,,12,10,061,*5B
$BDGSV,3,3,9,14,09,165,*6F
$GNRMC,000144.000,A,2959.9903,N,12000.6277,E,75.521,181.38,230721,,,A*70
$GNVTG,181.38,T,,M,75.521,N,139.940,K,A*12
$PMTKGEPH,6,0,1,0,1,0,0,1,1,0,0,0,0,1,0,0,0,0,0,0,0,0,0,0,0,1,0,0,0,0,0,0,0*02
$PMTKGALM,31,1,1,1,1,1,1,1,1,1,1,1,1,1,1,1,1,1,1,1,1,1,1,1,1,1,1,1,1,1,1,1,0*2A
$GNACCURACY,1.7,0.2,0.3,46.0*21
$PMTKAGC,000144.000,2901,2934,5614,5747,0,3,0*6A
$PMTKAG2,000144.000,5,0120,0,0,0,0,0,0,0,0,0,0,0,0*33
$GNGGA,000145.000,2959.9690,N,12000.6259,E,1,9,1.44,-2.9,M,7.0,M,,*51
$GPGSA,A,3,25,08,13,04,07,02,,,,,,,3.02,1.44,2.66*0C
$GLGSA,A,3,87,77,86,,,,,,,,,,3.02,1.44,2.66*1D
$BDGSA,A,3,,,,,,,,,,,,,3.02,1.44,2.66*11
$GPGSV,4,1,15,07,85,115,36.2,25,66,042,35.9,04,52,247,35.4,13,50,031,35.5*78
$GPGSV,4,2,15,42,48,143,,08,47,207,35.4,02,33,299,35.0,23,27,057,*7B
$GPGSV,4,3,15,20,23,121,,27,19,219,,16,01,039,,10,01,310,*72
$GPGSV,4,4,15,193,,,,194,,,,195,,,*47
$GLGSV,3,1,11,87,61,300,34.3,77,56,328,34.3,86,34,025,33.8,65,21,328,*77
$GLGSV,3,2,11,69,21,328,,76,21,328,,80,21,328,,88,20,243,*6F
$GLGSV,3,3,11,75,11,153,,78,06,331,30.5,71,01,081,*4E
$BDGSV,3,1,9,02,50,173,,13,48,202,,01,38,122,,06,37,216,*53
$BDGSV,3,2,9,09,37,287,,04,36,126,,11,18,131,,12,10,061,*5B
$BDGSV,3,3,9,14,09,165,*6F
$GNRMC,000145.000,A,2959.9690,N,12000.6259,E,75.518,185.85,230721,,,A*70
$GNVTG,185.85,T,,M,75.518,N,139.935,K,A*18
$PMTKGEPH,6,0,1,0,1,0,0,1,1,0,0,0,0,1,0,0,0,0,0,0,0,0,0,0,0,1,0,0,0,0,0,0,0*02
$PMTKGALM,31,1,1,1,1,1,1,1,1,1,1,1,1,1,1,1,1,1,1,1,1,1,1,1,1,1,1,1,1,1,1,1,0*2A
$GNACCURACY,1.7,0.2,0.3,46.0*21
$PMTKAGC,000145.000,2941,2774,5707,5792,0,3,0*6E
$PMTKAG2,000145.000,5,0120,0,0,0,0,0,0,0,0,0,0,0,0*32
$GNGGA,000146.000,2959.9478,N,12000.6221,E,1,9,1.44,-3.0,M,7.0,M,,*51
$GPGSA,A,3,25,08,13,04,07,02,,,,,,,3.02,1.44,2.66*0C
$GLGSA,A,3,87,77,86,,,,,,,,,,3.02,1.44,2.66*1D
$BDGSA,A,3,,,,,,,,,,,,,3.02,1.44,2.66*11
$GPGSV,4,1,15,07,85,115,36.2,25,66,042,35.9,04,52,247,35.4,13,50,031,35.5*78
$GPGSV,4,2,15,08,47,207,35.4,50,45,136,,02,33,299,35.1,23,27,057,*76
$GPGSV,4,3,15,20,23,121,,27,19,219,,16,01,039,,10,01,310,*72
$GPGSV,4,4,15,193,,,,194,,,,195,,,*47
$GLGSV,3,1,11,87,61,300,34.3,77,56,328,34.3,86,34,025,33.8,65,21,328,*77
$GLGSV,3,2,11,69,21,328,,76,21,328,,80,21,328,,88,20,243,*6F
$GLGSV,3,3,11,75,11,153,,78,06,331,30.5,71,01,081,*4E
$BDGSV,3,1,9,02,50,173,,13,48,202,,01,38,122,,06,37,216,*53
$BDGSV,3,2,9,09,37,287,,04,36,126,,11,18,131,,12,10,061,*5B
$BDGSV,3,3,9,14,09,165,*6F
$GNRMC,000146.000,A,2959.9478,N,12000.6221,E,75.525,190.25,230721,,,A*78
$GNVTG,190.25,T,,M,75.525,N,139.948,K,A*12
$PMTKGEPH,6,0,1,0,1,0,0,1,1,0,0,0,0,1,0,0,0,0,0,0,0,0,0,0,0,1,0,0,0,0,0,0,0*02
$PMTKGALM,31,1,1,1,1,1,1,1,1,1,1,1,1,1,1,1,1,1,1,1,1,1,1,1,1,1,1,1,1,1,1,1,0*2A
$GNACCURACY,1.7,0.2,0.3,46.1*20
$PMTKAGC,000146.000,2831,2940,5805,5880,0,3,0*63
$PMTKAG2,000146.000,5,0120,0,0,0,0,0,0,0,0,0,0,0,0*31
$GNGGA,000147.000,2959.9270,N,12000.6164,E,1,9,1.44,-2.9,M,7.0,M,,*54
$GPGSA,A,3,25,08,13,04,07,02,,,,,,,3.02,1.44,2.66*0C
$GLGSA,A,3,87,77,86,,,,,,,,,,3.02,1.44,2.66*1D
$BDGSA,A,3,,,,,,,,,,,,,3.02,1.44,2.66*11
$GPGSV,4,1,15,07,85,115,36.2,25,66,042,35.9,04,52,247,35.5,13,50,031,35.5*79
$GPGSV,4,2,15,08,47,207,35.3,50,45,136,,02,33,299,35.1,23,27,057,*71
$GPGSV,4,3,15,20,23,121,,27,19,219,,16,01,039,,10,01,310,*72
$GPGSV,4,4,15,193,,,,194,,,,195,,,*47
$GLGSV,3,1,11,87,61,300,34.3,77,56,328,34.3,86,34,025,33.8,65,21,328,*77
$GLGSV,3,2,11,69,21,328,,76,21,328,,80,21,328,,88,20,243,*6F
$GLGSV,3,3,11,75,11,153,,78,06,331,12.2,71,01,081,*49
$BDGSV,3,1,9,02,50,173,,13,48,202,,01,38,122,,06,37,216,*53
$BDGSV,3,2,9,09,37,287,,04,36,126,,11,18,131,,12,10,061,*5B
$BDGSV,3,3,9,14,09,165,*6F
$GNRMC,000147.000,A,2959.9270,N,12000.6164,E,75.524,194.75,230721,,,A*75
$GNVTG,194.75,T,,M,75.524,N,139.946,K,A*1C
$PMTKGEPH,6,0,1,0,1,0,0,1,1,0,0,0,0,1,0,0,0,0,0,0,0,0,0,0,0,1,0,0,0,0,0,0,0*02
$PMTKGALM,31,1,1,1,1,1,1,1,1,1,1,1,1,1,1,1,1,1,1,1,1,1,1,1,1,1,1,1,1,1,1,1,0*2A
$GNACCURACY,1.7,0.2,0.3,46.1*20
$PMTKAGC,000147.000,2900,2839,5739,5680,0,3,0*60
$PMTKAG2,000147.000,5,0120,0,0,0,0,0,0,0,0,0,0,0,0*30
$GNGGA,000148.000,2959.9066,N,12000.6089,E,1,9,1.44,-3.1,M,7.0,M,,*55
$GPGSA,A,3,25,08,13,04,07,02,,,,,,,3.02,1.44,2.66*0C
$GLGSA,A,3,87,77,86,,,,,,,,,,3.02,1.44,2.66*1D
$BDGSA,A,3,,,,,,,,,,,,,3.02,1.44,2.66*11
$GPGSV,4,1,15,07,85,115,36.2,25,66,042,35.9,04,52,247,35.5,13,50,031,35.5*79
$GPGSV,4,2,15,08,47,207,35.3,50,45,136,,02,33,299,35.1,23,27,057,*71
$GPGSV,4,3,15,20,23,121,,27,19,219,,16,01,039,,10,01,310,*72
$GPGSV,4,4,15,193,,,,194,,,,195,,,*47
$GLGSV,3,1,11,87,61,300,34.3,77,56,328,34.4,86,34,025,33.7,65,21,328,*7F
$GLGSV,3,2,11,69,21,328,,76,21,328,,80,21,328,,88,20,243,*6F
$GLGSV,3,3,11,75,11,153,,78,06,331,12.2,71,01,081,*49
$BDGSV,3,1,9,02,50,173,,13,48,202,,01,38,122,,06,37,216,*53
$BDGSV,3,2,9,09,37,287,,04,36,126,,11,18,131,,12,10,061,*5B
$BDGSV,3,3,9,14,09,165,*6F
$GNRMC,000148.000,A,2959.9066,N,12000.6089,E,75.529,199.19,230721,,,A*77
$GNVTG,199.19,T,,M,75.529,N,139.955,K,A*14
$PMTKGEPH,6,0,1,0,1,0,0,1,1,0,0,0,0,1,0,0,0,0,0,0,0,0,0,0,0,1,0,0,0,0,0,0,0*02
$PMTKGALM,31,1,1,1,1,1,1,1,1,1,1,1,1,1,1,1,1,1,1,1,1,1,1,1,1,1,1,1,1,1,1,1,0*2A
$GNACCURACY,1.7,0.2,0.3,46.2*23
$PMTKAGC,000148.000,2901,2865,5750,5860,0,3,0*68
$PMTKAG2,000148.000,5,0120,0,0,0,0,0,0,0,0,0,0,0,0*3F
$GNGGA,000149.000,2959.8867,N,12000.5997,E,1,9,1.44,-3.1,M,7.0,M,,*59
$GPGSA,A,3,25,08,13,04,07,02,,,,,,,3.02,1.44,2.66*0C
$GLGSA,A,3,87,77,86,,,,,,,,,,3.02,1.44,2.66*1D
$BDGSA,A,3,,,,,,,,,,,,,3.02,1.44,2.66*11
$GPGSV,4,1,15,07,85,115,36.2,25,66,042,35.9,04,52,247,35.5,13,50,031,35.5*79
$GPGSV,4,2,15,08,47,207,35.3,50,45,136,,02,33,299,35.1,23,27,057,*71
$GPGSV,4,3,15,20,23,121,,27,19,219,,16,01,039,,10,01,310,*72
$GPGSV,4,4,15,193,,,,194,,,,195,,,*47
$GLGSV,3,1,11,87,61,300,34.4,77,56,328,34.3,86,34,025,33.6,65,21,328,*7E
$GLGSV,3,2,11,69,21,328,,76,21,328,,80,21,328,,88,20,243,*6F
$GLGSV,3,3,11,75,11,153,,78,06,331,,71,01,081,*56
$BDGSV,3,1,9,02,50,173,,13,48,202,,01,38,122,,06,37,216,*53
$BDGSV,3,2,9,09,37,287,,04,36,126,,11,18,131,,12,10,061,*5B
$BDGSV,3,3,9,14,09,165,*6F
$GNRMC,000149.000,A,2959.8867,N,12000.5997,E,75.528,203.66,230721,,,A*72
$GNVTG,203.66,T,,M,75.528,N,139.954,K,A*1C
$PMTKGEPH,6,0,1,0,1,0,0,1,1,0,0,0,0,1,0,0,0,0,0,0,0,0,0,0,0,1,0,0,0,0,0,0,0*02
$PMTKGALM,31,1,1,1,1,1,1,1,1,1,1,1,1,1,1,1,1,1,1,1,1,1,1,1,1,1,1,1,1,1,1,1,0*2A
$GNACCURACY,1.7,0.2,0.3,46.2*23
$PMTKAGC,000149.000,3079,2592,5704,5801,0,3,0*6D
$PMTKAG2,000149.000,5,0120,0,0,0,0,0,0,0,0,0,0,0,0*3E
$GNGGA,000150.000,2959.8676,N,12000.5887,E,1,9,1.44,-3.0,M,7.0,M,,*5E
$GPGSA,A,3,25,08,13,04,07,02,,,,,,,3.02,1.44,2.66*0C
$GLGSA,A,3,87,77,86,,,,,,,,,,3.02,1.44,2.66*1D
$BDGSA,A,3,,,,,,,,,,,,,3.02,1.44,2.66*11
$GPGSV,4,1,15,07,85,115,36.2,25,66,042,35.9,04,52,247,35.5,13,50,031,35.6*7A
$GPGSV,4,2,15,08,47,207,35.3,50,45,136,,02,33,299,35.1,23,27,057,*71
$GPGSV,4,3,15,20,23,121,,27,19,219,34.0,16,01,039,,10,01,310,*6B
$GPGSV,4,4,15,193,,,,194,,,,195,,,*47
$GLGSV,3,1,11,87,61,300,34.3,77,56,328,34.4,86,34,025,33.6,65,21,328,*7E
$GLGSV,3,2,11,69,21,328,,76,21,328,,80,21,328,,88,20,243,*6F
$GLGSV,3,3,11,75,11,153,,78,06,331,,71,01,081,*56
$BDGSV,3,1,9,02,50,173,,13,48,202,,01,38,122,,06,37,216,*53
$BDGSV,3,2,9,09,37,287,,04,36,126,,11,18,131,,12,10,061,*5B
$BDGSV,3,3,9,14,09,165,*6F
$GNRMC,000150.000,A,2959.8676,N,12000.5887,E,75.532,208.12,230721,,,A*77
$GNVTG,208.12,T,,M,75.532,N,139.961,K,A*19
$PMTKGEPH,6,0,1,0,1,0,0,1,1,0,0,0,0,1,0,0,0,0,0,0,0,0,0,0,0,1,0,0,0,0,0,0,0*02
$PMTKGALM,31,1,1,1,1,1,1,1,1,1,1,1,1,1,1,1,1,1,1,1,1,1,1,1,1,1,1,1,1,1,1,1,0*2A
$GNACCURACY,1.7,0.2,0.3,46.2*23
$PMTKAGC,000150.000,2954,2848,5797,5668,0,3,0*63
$PMTKAG2,000150.000,5,0120,0,0,0,0,0,0,0,0,0,0,0,0*36
$GNGGA,000151.000,2959.8493,N,12000.5761,E,1,9,1.44,-3.0,M,7.0,M,,*51
$GPGSA,A,3,25,08,13,04,07,02,,,,,,,3.02,1.44,2.66*0C
$GLGSA,A,3,87,77,86,,,,,,,,,,3.02,1.44,2.66*1D
$BDGSA,A,3,,,,,,,,,,,,,3.02,1.44,2.66*11
$GPGSV,4,1,15,07,85,115,36.2,25,66,042,35.8,04,52,247,35.5,13,50,031,35.6*7B
$GPGSV,4,2,15,08,47,207,35.4,50,45,136,,02,33,299,35.1,23,27,057,35.0*6E
$GPGSV,4,3,15,20,23,121,,27,19,219,34.8,16,01,039,,10,01,310,*63
$GPGSV,4,4,15,193,,,,194,,,,195,,,*47
$GLGSV,3,1,11,87,61,300,34.3,77,56,328,34.3,86,34,025,33.6,65,21,328,*79
$GLGSV,3,2,11,69,21,328,,76,21,328,,80,21,328,,88,20,243,*6F
$GLGSV,3,3,11,75,11,153,,78,06,331,,71,01,081,*56
$BDGSV,3,1,9,02,50,173,,13,48,202,,01,38,122,,06,37,216,*53
$BDGSV,3,2,9,09,37,287,,04,36,126,,11,18,131,,12,10,061,*5B
$BDGSV,3,3,9,14,09,165,*6F
$GNRMC,000151.000,A,2959.8493,N,12000.5761,E,75.532,212.59,230721,,,A*7C
$GNVTG,212.59,T,,M,75.532,N,139.962,K,A*1E
$PMTKGEPH,6,0,1,0,1,0,0,1,1,0,0,0,0,1,0,0,0,0,0,0,0,0,0,0,0,1,0,0,0,0,0,0,0*02
$PMTKGALM,31,1,1,1,1,1,1,1,1,1,1,1,1,1,1,1,1,1,1,1,1,1,1,1,1,1,1,1,1,1,1,1,0*2A
$GNACCURACY,1.7,0.2,0.3,46.2*23
$PMTKAGC,000151.000,2766,2922,5783,5743,0,3,0*6D
$PMTKAG2,000151.000,5,0120,0,0,0,0,0,0,0,0,0,0,0,0*37
$GNGGA,000152.000,2959.8318,N,12000.5618,E,1,9,1.44,-2.8,M,7.0,M,,*50
$GPGSA,A,3,25,08,13,04,07,02,,,,,,,3.02,1.44,2.66*0C
$GLGSA,A,3,87,77,86,,,,,,,,,,3.02,1.44,2.66*1D
$BDGSA,A,3,,,,,,,,,,,,,3.02,1.44,2.66*11
$GPGSV,4,1,15,07,85,115,36.2,25,66,042,35.8,04,52,247,35.5,13,50,031,35.5*78
$GPGSV,4,2,15,08,47,207,35.4,50,45,136,,02,33,299,35.1,23,27,057,35.1*6F
$GPGSV,4,3,15,20,23,121,,27,19,219,35.4,16,01,039,,10,01,310,*6E
$GPGSV,4,4,15,193,,,,194,,,,195,,,*47
$GLGSV,3,1,11,87,61,300,34.3,77,56,328,34.4,86,34,025,33.5,65,21,328,*7D
$GLGSV,3,2,11,69,21,328,,76,21,328,,80,21,328,,88,20,243,33.5*74
$GLGSV,3,3,11,75,11,153,,78,06,331,,71,01,081,*56
$BDGSV,3,1,9,02,50,173,,13,48,202,,01,38,122,,06,37,216,*53
$BDGSV,3,2,9,09,37,287,,04,36,126,,11,18,131,,12,10,061,*5B
$BDGSV,3,3,9,14,09,165,*6F
$GNRMC,000152.000,A,2959.8318,N,12000.5618,E,75.536,217.03,230721,,,A*7A
$GNVTG,217.03,T,,M,75.536,N,139.968,K,A*1A
$PMTKGEPH,6,0,1,0,1,0,0,1,1,0,0,0,0,1,0,0,0,0,0,0,0,0,0,0,0,1,0,0,0,0,0,0,0*02
$PMTKGALM,31,1,1,1,1,1,1,1,1,1,1,1,1,1,1,1,1,1,1,1,1,1,1,1,1,1,1,1,1,1,1,1,0*2A
$GNACCURACY,1.7,0.2,0.3,46.2*23
$PMTKAGC,000152.000,2882,2950,5774,5754,0,3,0*60
$PMTKAG2,000152.000,5,0120,0,0,0,0,0,0,0,0,0,0,0,0*34
$GNGGA,000153.000,2959.8154,N,12000.5459,E,1,9,1.44,-2.9,M,7.0,M,,*5D
$GPGSA,A,3,25,08,13,04,07,02,,,,,,,3.02,1.44,2.66*0C
$GLGSA,A,3,87,77,86,,,,,,,,,,3.02,1.44,2.66*1D
$BDGSA,A,3,,,,,,,,,,,,,3.02,1.44,2.66*11
$GPGSV,4,1,15,07,85,115,36.2,25,66,042,35.8,04,52,247,35.5,13,50,031,35.5*78
$GPGSV,4,2,15,08,47,207,35.3,50,45,136,,02,33,299,35.1,23,27,057,35.3*6A
$GPGSV,4,3,15,20,23,121,,27,19,219,33.8,16,01,039,,10,01,310,*64
$GPGSV,4,4,15,193,,,,194,,,,195,,,*47
$GLGSV,3,1,11,87,61,300,34.3,77,56,328,34.4,86,34,025,33.5,65,21,328,*7D
$GLGSV,3,2,11,69,21,328,,76,21,328,,80,21,328,,88,20,243,33.4*75
$GLGSV,3,3,11,75,11,153,,78,06,331,,71,01,081,*56
$BDGSV,3,1,9,02,50,173,,13,48,202,,01,38,122,,06,37,216,*53
$BDGSV,3,2,9,09,37,287,,04,36,126,,11,18,131,,12,10,061,*5B
$BDGSV,3,3,9,14,09,165,*6F
$GNRMC,000153.000,A,2959.8154,N,12000.5459,E,75.534,221.47,230721,,,A*71
$GNVTG,221.47,T,,M,75.534,N,139.964,K,A*11
$PMTKGEPH,6,0,1,0,1,0,0,1,1,0,0,0,0,1,0,0,0,0,0,0,0,0,0,0,0,1,0,0,0,0,0,0,0*02
$PMTKGALM,31,1,1,1,1,1,1,1,1,1,1,1,1,1,1,1,1,1,1,1,1,1,1,1,1,1,1,1,1,1,1,1,0*2A
$GNACCURACY,1.7,0.2,0.3,46.5*24
$PMTKAGC,000153.000,2846,2773,5697,5721,0,3,0*68
$PMTKAG2,000153.000,5,0120,0,0,0,0,0,0,0,0,0,0,0,0*35
$GNGGA,000154.000,2959.8002,N,12000.5287,E,1,9,1.44,-2.9,M,7.0,M,,*5D
$GPGSA,A,3,25,08,13,04,07,02,,,,,,,3.02,1.44,2.66*0C
$GLGSA,A,3,87,77,86,,,,,,,,,,3.02,1.44,2.66*1D
$BDGSA,A,3,,,,,,,,,,,,,3.02,1.44,2.66*11
$GPGSV,4,1,15,07,85,115,36.2,25,66,042,35.8,04,52,247,35.6,13,50,031,35.5*7B
$GPGSV,4,2,15,08,47,207,35.3,50,45,136,,02,33,299,35.1,23,27,057,34.4*6C
$GPGSV,4,3,15,20,23,121,,27,19,219,34.5,16,01,039,,10,01,310,*6E
$GPGSV,4,4,15,193,,,,194,,,,195,,,*47
$GLGSV,3,1,11,87,61,300,34.3,77,56,328,34.4,86,34,025,33.6,65,21,328,*7E
$GLGSV,3,2,11,69,21,328,,76,21,328,,80,21,328,,88,20,243,33.2*73
$GLGSV,3,3,11,75,11,153,,78,06,331,,71,01,081,*56
$BDGSV,3,1,9,02,50,173,,13,48,202,,01,38,122,,06,37,216,*53
$BDGSV,3,2,9,09,37,287,,04,36,126,,11,18,131,,12,10,061,*5B
$BDGSV,3,3,9,14,09,165,*6F
$GNRMC,000154.000,A,2959.8002,N,12000.5287,E,75.539,225.96,230721,,,A*74
$GNVTG,225.96,T,,M,75.539,N,139.973,K,A*12
$PMTKGEPH,6,0,1,0,1,0,0,1,1,0,0,0,0,1,0,0,0,0,0,0,0,0,0,0,0,1,0,0,0,0,0,0,0*02
$PMTKGALM,31,1,1,1,1,1,1,1,1,1,1,1,1,1,1,1,1,1,1,1,1,1,1,1,1,1,1,1,1,1,1,1,0*2A
$GNACCURACY,1.7,0.2,0.3,46.4*25
$PMTKAGC,000154.000,2975,2957,5806,5825,0,3,0*6B
$PMTKAG2,000154.000,5,0120,0,0,0,0,0,0,0,0,0,0,0,0*32
$GNGGA,000155.000,2959.7860,N,12000.5102,E,1,9,1.44,-3.0,M,7.0,M,,*59
$GPGSA,A,3,25,08,13,04,07,02,,,,,,,3.02,1.44,2.66*0C
$GLGSA,A,3,87,77,86,,,,,,,,,,3.02,1.44,2.66*1D
$BDGSA,A,3,,,,,,,,,,,,,3.02,1.44,2.66*11
$GPGSV,4,1,15,07,85,115,36.1,25,66,042,35.7,04,52,247,35.5,13,50,031,35.5*74
$GPGSV,4,2,15,08,47,207,35.3,02,33,299,35.1,23,27,057,33.9,20,23,121,*67
$GPGSV,4,3,15,44,22,250,,27,19,219,34.7,16,01,039,,10,01,310,*6A
$GPGSV,4,4,15,193,,,,194,,,,195,,,*47
$GLGSV,3,1,11,87,61,300,34.2,77,56,328,34.4,86,34,025,33.6,65,21,328,*7F
$GLGSV,3,2,11,69,21,328,,76,21,328,,80,21,328,,88,20,243,32.1*71
$GLGSV,3,3,11,75,11,153,,78,06,331,,71,01,081,*56
$BDGSV,3,1,9,02,50,173,,13,48,202,,01,38,122,,06,37,216,*53
$BDGSV,3,2,9,09,37,287,,04,36,126,,11,18,131,,12,10,061,*5B
$BDGSV,3,3,9,14,09,165,*6F
$GNRMC,000155.000,A,2959.7860,N,12000.5102,E,75.538,230.41,230721,,,A*77
$GNVTG,230.41,T,,M,75.538,N,139.972,K,A*1C
$PMTKGEPH,6,0,1,0,1,0,0,1,1,0,0,0,0,1,0,0,0,0,0,0,0,0,0,0,0,1,0,0,0,0,0,0,0*02
$PMTKGALM,31,1,1,1,1,1,1,1,1,1,1,1,1,1,1,1,1,1,1,1,1,1,1,1,1,1,1,1,1,1,1,1,0*2A
$GNACCURACY,1.7,0.2,0.3,46.5*24
$PMTKAGC,000155.000,2802,2974,5851,5713,0,3,0*62
$PMTKAG2,000155.000,5,0120,0,0,0,0,0,0,0,0,0,0,0,0*33
$GNGGA,000156.000,2959.7732,N,12000.4905,E,1,9,1.44,-3.0,M,7.0,M,,*5C
$GPGSA,A,3,25,08,13,04,07,02,,,,,,,3.02,1.44,2.66*0C
$GLGSA,A,3,87,77,86,,,,,,,,,,3.02,1.44,2.66*1D
$BDGSA,A,3,,,,,,,,,,,,,3.02,1.44,2.66*11
$GPGSV,4,1,15,07,85,115,36.1,25,66,042,35.7,04,52,247,35.5,13,50,031,35.5*74
$GPGSV,4,2,15,08,47,207,35.3,02,33,299,35.1,23,27,057,34.6,20,23,121,*6F
$GPGSV,4,3,15,44,22,250,,27,19,219,34.7,16,01,039,,10,01,310,*6A
$GPGSV,4,4,15,193,,,,194,,,,195,,,*47
$GLGSV,3,1,11,87,61,300,34.2,77,56,328,34.4,86,34,025,33.6,65,21,328,*7F
$GLGSV,3,2,11,69,21,328,,76,21,328,,80,21,328,,88,20,243,32.8*78
$GLGSV,3,3,11,75,11,153,,78,06,331,,71,01,081,*56
$BDGSV,3,1,9,02,50,173,,13,48,202,,01,38,122,,06,37,216,*53
$BDGSV,3,2,9,09,37,287,,04,36,126,,11,18,131,,12,10,061,*5B
$BDGSV,3,3,9,14,09,165,*6F
$GNRMC,000156.000,A,2959.7732,N,12000.4905,E,75.540,234.83,230721,,,A*77
$GNVTG,234.83,T,,M,75.540,N,139.975,K,A*1E
$PMTKGEPH,6,0,1,0,1,0,0,1,1,0,0,0,0,1,0,0,0,0,0,0,0,0,0,0,0,1,0,0,0,0,0,0,0*02
$PMTKGALM,31,1,1,1,1,1,1,1,1,1,1,1,1,1,1,1,1,1,1,1,1,1,1,1,1,1,1,1,1,1,1,1,0*2A
$GNACCURACY,1.7,0.2,0.3,46.3*22
$PMTKAGC,000156.000,3032,3024,5687,5825,0,3,0*69
$PMTKAG2,000156.000,5,0120,0,0,0,0,0,0,0,0,0,0,0,0*30
$GNGGA,000157.000,2959.7617,N,12000.4697,E,1,9,1.44,-2.9,M,7.0,M,,*57
$GPGSA,A,3,25,08,13,04,07,02,,,,,,,3.02,1.44,2.66*0C
$GLGSA,A,3,87,77,86,,,,,,,,,,3.02,1.44,2.66*1D
$BDGSA,A,3,,,,,,,,,,,,,3.02,1.44,2.66*11
$GPGSV,4,1,15,07,85,115,36.2,25,66,042,35.8,04,52,247,35.5,13,50,031,35.6*7B
$GPGSV,4,2,15,08,47,207,35.3,02,33,299,35.1,23,27,057,34.9,20,23,121,*60
$GPGSV,4,3,15,44,22,250,,27,19,219,34.6,16,01,039,,10,01,310,*6B
$GPGSV,4,4,15,193,,,,194,,,,195,,,*47
$GLGSV,3,1,11,87,61,300,34.2,77,56,328,34.3,86,34,025,33.6,65,21,328,*78
$GLGSV,3,2,11,69,21,328,,76,21,328,,80,21,328,,88,20,243,33.3*72
$GLGSV,3,3,11,75,11,153,,78,06,331,,71,01,081,*56
$BDGSV,3,1,9,02,50,173,,13,48,202,,01,38,122,,06,37,216,*53
$BDGSV,3,2,9,09,37,287,,04,36,126,,11,18,131,,12,10,061,*5B
$BDGSV,3,3,9,14,09,165,*6F
$GNRMC,000157.000,A,2959.7617,N,12000.4697,E,75.535,239.26,230721,,,A*74
$GNVTG,239.26,T,,M,75.535,N,139.967,K,A*1D
$PMTKGEPH,6,0,1,0,1,0,0,1,1,0,0,0,0,1,0,0,0,0,0,0,0,0,0,0,0,1,0,0,0,0,0,0,0*02
$PMTKGALM,31,1,1,1,1,1,1,1,1,1,1,1,1,1,1,1,1,1,1,1,1,1,1,1,1,1,1,1,1,1,1,1,0*2A
$GNACCURACY,1.7,0.2,0.3,46.4*25
$PMTKAGC,000157.000,2875,2967,5733,5807,0,3,0*63
$PMTKAG2,000157.000,5,0120,0,0,0,0,0,0,0,0,0,0,0,0*31
$GNGGA,000158.000,2959.7517,N,12000.4480,E,1,9,1.44,-2.8,M,7.0,M,,*5E
$GPGSA,A,3,25,08,13,04,07,02,,,,,,,3.02,1.44,2.66*0C
$GLGSA,A,3,87,77,86,,,,,,,,,,3.02,1.44,2.66*1D
$BDGSA,A,3,,,,,,,,,,,,,3.02,1.44,2.66*11
$GPGSV,4,1,15,07,85,115,36.2,25,66,042,35.8,04,52,247,35.5,13,50,031,35.6*7B
$GPGSV,4,2,15,08,47,207,35.3,02,33,299,35.2,23,27,057,35.0,20,23,121,*6B
$GPGSV,4,3,15,44,22,250,,27,19,219,34.7,16,01,039,,10,01,310,*6A
$GPGSV,4,4,15,193,,,,194,,,,195,,,*47
$GLGSV,3,1,11,87,61,300,34.2,77,56,328,34.3,86,34,025,33.6,65,21,328,*78
$GLGSV,3,2,11,69,21,328,,76,21,328,,80,21,328,,88,20,243,33.7*76
$GLGSV,3,3,11,75,11,153,,78,06,331,,71,01,081,*56
$BDGSV,3,1,9,02,50,173,,13,48,202,,01,38,122,,06,37,216,*53
$BDGSV,3,2,9,09,37,287,,04,36,126,,11,18,131,,12,10,061,*5B
$BDGSV,3,3,9,14,09,165,*6F
$GNRMC,000158.000,A,2959.7517,N,12000.4480,E,75.536,243.78,230721,,,A*79
$GNVTG,243.78,T,,M,75.536,N,139.968,K,A*17
$PMTKGEPH,6,0,1,0,1,0,0,1,1,0,0,0,0,1,0,0,0,0,0,0,0,0,0,0,0,1,0,0,0,0,0,0,0*02
$PMTKGALM,31,1,1,1,1,1,1,1,1,1,1,1,1,1,1,1,1,1,1,1,1,1,1,1,1,1,1,1,1,1,1,1,0*2A
$GNACCURACY,1.7,0.2,0.3,46.4*25
$PMTKAGC,000158.000,2833,2952,5785,5707,0,3,0*6A
$PMTKAG2,000158.000,5,0120,0,0,0,0,0,0,0,0,0,0,0,0*3E
$GNGGA,000159.000,2959.7432,N,12000.4255,E,1,9,1.44,-2.8,M,7.0,M,,*57
$GPGSA,A,3,25,08,13,04,07,02,,,,,,,3.02,1.44,2.65*0F
$GLGSA,A,3,87,77,86,,,,,,,,,,3.02,1.44,2.65*1E
$BDGSA,A,3,,,,,,,,,,,,,3.02,1.44,2.65*12
$GPGSV,4,1,15,07,85,115,36.2,25,66,042,35.9,04,52,247,35.5,13,50,031,35.6*7A
$GPGSV,4,2,15,08,47,207,35.4,02,33,299,35.1,23,27,057,34.7,20,23,121,*69
$GPGSV,4,3,15,44,22,250,,27,19,219,,16,01,039,,10,01,310,*74
$GPGSV,4,4,15,193,,,,194,,,,195,,,*47
$GLGSV,3,1,11,87,61,300,34.3,77,56,328,34.3,86,34,025,33.7,65,21,328,*78
$GLGSV,3,2,11,69,21,328,,76,21,328,,80,21,328,,88,20,243,33.3*72
$GLGSV,3,3,11,75,11,153,,78,06,331,,71,01,081,*56
$BDGSV,3,1,9,02,50,173,,13,48,202,,01,38,122,,06,37,216,*53
$BDGSV,3,2,9,09,37,287,,04,36,126,,11,18,131,,12,10,061,*5B
$BDGSV,3,3,9,14,09,165,*6F
$GNRMC,000159.000,A,2959.7432,N,12000.4255,E,75.531,248.20,230721,,,A*71
$GNVTG,248.20,T,,M,75.531,N,139.960,K,A*1E
$PMTKGEPH,6,0,1,0,1,0,0,1,1,0,0,0,0,1,0,0,0,0,0,0,0,0,0,0,0,1,0,0,0,0,0,0,0*02
$PMTKGALM,31,1,1,1,1,1,1,1,1,1,1,1,1,1,1,1,1,1,1,1,1,1,1,1,1,1,1,1,1,1,1,1,0*2A
$GNACCURACY,1.7,0.2,0.3,46.4*25
$PMTKAGC,000159.000,2858,2907,5846,5704,0,3,0*65
$PMTKAG2,000159.000,5,0120,0,0,0,0,0,0,0,0,0,0,0,0*3F
$GNGGA,000200.000,2959.7362,N,12000.4022,E,1,9,1.44,-2.7,M,7.0,M,,*57
$GPGSA,A,3,25,08,13,04,07,02,,,,,,,3.02,1.44,2.65*0F
$GLGSA,A,3,87,77,86,,,,,,,,,,3.02,1.44,2.65*1E
$BDGSA,A,3,,,,,,,,,,,,,3.02,1.44,2.65*12
$GPGSV,4,1,15,07,85,115,36.2,25,66,042,35.9,04,52,247,35.5,13,50,031,35.5*79
$GPGSV,4,2,15,08,47,207,35.4,02,33,299,35.0,23,27,057,34.9,20,23,121,*66
$GPGSV,4,3,15,44,22,250,,27,19,219,,16,01,039,,10,01,310,*74
$GPGSV,4,4,15,193,,,,194,,,,195,,,*47
$GLGSV,3,1,11,87,61,300,34.3,77,56,328,34.3,86,34,025,33.7,65,21,328,*78
$GLGSV,3,2,11,69,21,328,,76,21,328,,80,21,328,,88,20,243,33.3*72
$GLGSV,3,3,11,75,11,153,,78,06,331,,71,01,081,*56
$BDGSV,3,1,9,02,50,173,,13,48,202,,01,38,122,,06,37,216,*53
$BDGSV,3,2,9,09,37,287,,04,36,126,,11,18,131,,12,10,061,*5B
$BDGSV,3,3,9,14,09,165,*6F
$GNRMC,000200.000,A,2959.7362,N,12000.4022,E,75.536,252.68,230721,,,A*7E
$GNVTG,252.68,T,,M,75.536,N,139.968,K,A*16
$PMTKGEPH,6,0,1,0,1,0,0,1,1,0,0,0,0,1,0,0,0,0,0,0,0,0,0,0,0,1,0,0,0,0,0,0,0*02
$PMTKGALM,31,1,1,1,1,1,1,1,1,1,1,1,1,1,1,1,1,1,1,1,1,1,1,1,1,1,1,1,1,1,1,1,0*2A
$GNACCURACY,1.7,0.2,0.3,46.2*23
$PMTKAGC,000200.000,2728,3077,5805,5745,0,3,0*6F
$PMTKAG2,000200.000,5,0120,0,0,0,0,0,0,0,0,0,0,0,0*30
$GNGGA,000201.000,2959.7308,N,12000.3785,E,1,9,1.44,-2.5,M,7.0,M,,*55
$GPGSA,A,3,25,08,13,04,07,02,,,,,,,3.02,1.44,2.65*0F
$GLGSA,A,3,87,77,86,,,,,,,,,,3.02,1.44,2.65*1E
$BDGSA,A,3,,,,,,,,,,,,,3.02,1.44,2.65*12
$GPGSV,4,1,15,07,85,115,36.2,25,66,042,35.8,04,52,247,35.5,13,50,031,35.6*7B
$GPGSV,4,2,15,08,47,207,35.4,02,33,299,35.1,23,27,057,34.8,20,23,121,*66
$GPGSV,4,3,15,44,22,250,,27,19,219,,16,01,039,,10,01,310,*74
$GPGSV,4,4,15,193,,,,194,,,,195,,,*47
$GLGSV,3,1,11,87,61,300,34.3,77,56,328,34.3,86,34,025,33.7,65,21,328,*78
$GLGSV,3,2,11,69,21,328,,76,21,328,,80,21,328,,88,20,243,33.3*72
$GLGSV,3,3,11,75,11,153,,78,06,331,,71,01,081,*56
$BDGSV,3,1,9,02,50,173,,13,48,202,,01,38,122,,06,37,216,*53
$BDGSV,3,2,9,09,37,287,,04,36,126,,11,18,131,,12,10,061,*5B
$BDGSV,3,3,9,14,09,165,*6F
$GNRMC,000201.000,A,2959.7308,N,12000.3785,E,75.539,257.11,230721,,,A*7A
$GNVTG,257.11,T,,M,75.539,N,139.974,K,A*1F
$PMTKGEPH,6,0,1,0,1,0,0,1,1,0,0,0,0,1,0,0,0,0,0,0,0,0,0,0,0,1,0,0,0,0,0,0,0*02
$PMTKGALM,31,1,1,1,1,1,1,1,1,1,1,1,1,1,1,1,1,1,1,1,1,1,1,1,1,1,1,1,1,1,1,1,0*2A
$GNACCURACY,1.7,0.2,0.3,46.4*25
$PMTKAGC,000201.000,2934,3117,5768,5800,0,3,0*60
$PMTKAG2,000201.000,5,0120,0,0,0,0,0,0,0,0,0,0,0,0*31
$GNGGA,000202.000,2959.7271,N,12000.3543,E,1,9,1.44,-2.4,M,7.0,M,,*50
$GPGSA,A,3,25,08,13,04,07,02,,,,,,,3.02,1.44,2.65*0F
$GLGSA,A,3,87,77,86,,,,,,,,,,3.02,1.44,2.65*1E
$BDGSA,A,3,,,,,,,,,,,,,3.02,1.44,2.65*12
$GPGSV,4,1,15,07,85,115,36.2,25,66,042,35.8,04,52,247,35.5,13,50,031,35.6*7B
$GPGSV,4,2,15,08,47,207,35.3,02,33,299,35.1,23,27,057,34.8,20,23,121,*61
$GPGSV,4,3,15,44,22,250,,27,19,219,,16,01,039,,10,01,310,*74
$GPGSV,4,4,15,193,,,,194,,,,195,,,*47
$GLGSV,3,1,11,87,61,300,34.4,77,56,328,34.3,86,34,025,33.6,65,21,328,*7E
$GLGSV,3,2,11,69,21,328,,76,21,328,,80,21,328,,88,20,243,33.3*72
$GLGSV,3,3,11,75,11,153,,78,06,331,,71,01,081,*56
$BDGSV,3,1,9,02,50,173,,13,48,202,,01,38,122,,06,37,216,*53
$BDGSV,3,2,9,09,37,287,,04,36,126,,11,18,131,,12,10,061,*5B
$BDGSV,3,3,9,14,09,165,*6F
$GNRMC,000202.000,A,2959.7271,N,12000.3543,E,75.536,261.57,230721,,,A*76
$GNVTG,261.57,T,,M,75.536,N,139.968,K,A*1A
$PMTKGEPH,6,0,1,0,1,0,0,1,1,0,0,0,0,1,0,0,0,0,0,0,0,0,0,0,0,1,0,0,0,0,0,0,0*02
$PMTKGALM,31,1,1,1,1,1,1,1,1,1,1,1,1,1,1,1,1,1,1,1,1,1,1,1,1,1,1,1,1,1,1,1,0*2A
$GNACCURACY,1.7,0.2,0.3,46.0*21
$PMTKAGC,000202.000,2875,2875,5858,5773,0,3,0*6C
$PMTKAG2,000202.000,5,0120,0,0,0,0,0,0,0,0,0,0,0,0*32
$GNGGA,000203.000,2959.7249,N,12000.3299,E,1,9,1.44,-2.4,M,7.0,M,,*5A
$GPGSA,A,3,25,08,13,04,07,02,,,,,,,3.02,1.44,2.65*0F
$GLGSA,A,3,87,77,86,,,,,,,,,,3.02,1.44,2.65*1E
$BDGSA,A,3,,,,,,,,,,,,,3.02,1.44,2.65*12
$GPGSV,4,1,15,07,85,115,36.2,25,66,042,35.8,04,52,247,35.5,13,50,031,35.5*78
$GPGSV,4,2,15,08,47,207,35.3,02,33,299,35.1,23,27,057,,20,23,121,*70
$GPGSV,4,3,15,44,22,250,,27,19,219,,16,01,039,,10,01,310,*74
$GPGSV,4,4,15,193,,,,194,,,,195,,,*47
$GLGSV,3,1,11,87,61,300,34.4,77,56,328,34.2,86,34,025,33.6,65,21,328,*7F
$GLGSV,3,2,11,69,21,328,,76,21,328,,80,21,328,,88,20,243,33.2*73
$GLGSV,3,3,11,75,11,153,,78,06,331,,71,01,081,*56
$BDGSV,3,1,9,02,50,173,,13,48,202,,01,38,122,,06,37,216,*53
$BDGSV,3,2,9,09,37,287,,04,36,126,,11,18,131,,12,10,061,*5B
$BDGSV,3,3,9,14,09,165,*6F
$GNRMC,000203.000,A,2959.7249,N,12000.3299,E,75.535,266.02,230721,,,A*78
$GNVTG,266.02,T,,M,75.535,N,139.966,K,A*10
$PMTKGEPH,6,0,1,0,1,0,0,1,1,0,0,0,0,1,0,0,0,0,0,0,0,0,0,0,0,1,0,0,0,0,0,0,0*02
$PMTKGALM,31,1,1,1,1,1,1,1,1,1,1,1,1,1,1,1,1,1,1,1,1,1,1,1,1,1,1,1,1,1,1,1,0*2A
$GNACCURACY,1.7,0.2,0.3,46.1*20
$PMTKAGC,000203.000,2774,3024,5742,5728,0,3,0*64
$PMTKAG2,000203.000,5,0120,0,0,0,0,0,0,0,0,0,0,0,0*33
$GNGGA,000204.000,2959.7245,N,12000.3053,E,1,9,1.44,-2.3,M,7.0,M,,*52
$GPGSA,A,3,25,08,13,04,07,02,,,,,,,3.02,1.44,2.65*0F
$GLGSA,A,3,87,77,86,,,,,,,,,,3.02,1.44,2.65*1E
$BDGSA,A,3,,,,,,,,,,,,,3.02,1.44,2.65*12
$GPGSV,4,1,15,07,85,115,36.2,25,66,042,35.8,04,52,247,35.5,13,50,031,35.6*7B
$GPGSV,4,2,15,08,47,207,35.3,02,33,299,35.1,23,27,057,,20,23,121,*70
$GPGSV,4,3,15,40,20,251,,27,19,219,,16,01,039,,10,01,310,*73
$GPGSV,4,4,15,193,,,,194,,,,195,,,*47
$GLGSV,3,1,11,87,61,300,34.4,77,56,328,34.3,86,34,025,33.6,65,21,328,*7E
$GLGSV,3,2,11,69,21,328,,76,21,328,,80,21,328,,88,20,243,33.2*73
$GLGSV,3,3,11,75,11,153,,78,06,331,,71,01,081,*56
$BDGSV,3,1,9,02,50,173,,13,48,202,,01,38,122,,06,37,216,*53
$BDGSV,3,2,9,09,37,287,,04,36,126,,11,18,131,,12,10,061,*5B
$BDGSV,3,3,9,14,09,165,*6F
$GNRMC,000204.000,A,2959.7245,N,12000.3053,E,75.537,270.50,230721,,,A*75
$GNVTG,270.50,T,,M,75.537,N,139.970,K,A*15
$PMTKGEPH,6,0,1,0,1,0,0,1,1,0,0,0,0,1,0,0,0,0,0,0,0,0,0,0,0,1,0,0,0,0,0,0,0*02
$PMTKGALM,31,1,1,1,1,1,1,1,1,1,1,1,1,1,1,1,1,1,1,1,1,1,1,1,1,1,1,1,1,1,1,1,0*2A
$GNACCURACY,1.7,0.2,0.3,46.0*21
$PMTKAGC,000204.000,2840,2803,5765,5714,0,3,0*6D
$PMTKAG2,000204.000,5,0120,0,0,0,0,0,0,0,0,0,0,0,0*34
$GNGGA,000205.000,2959.7257,N,12000.2809,E,1,9,1.44,-2.3,M,7.0,M,,*56
$GPGSA,A,3,25,08,13,04,07,02,,,,,,,3.02,1.44,2.65*0F
$GLGSA,A,3,87,77,86,,,,,,,,,,3.02,1.44,2.65*1E
$BDGSA,A,3,,,,,,,,,,,,,3.02,1.44,2.65*12
$GPGSV,4,1,15,07,85,115,36.3,25,66,042,35.8,04,52,247,35.5,13,50,031,35.6*7A
$GPGSV,4,2,15,08,47,207,35.3,02,33,299,35.1,23,27,057,,20,23,121,34.1*68
$GPGSV,4,3,15,40,20,251,,27,19,219,,16,01,039,,10,01,310,*73
$GPGSV,4,4,15,193,,,,194,,,,195,,,*47
$GLGSV,3,1,11,87,61,300,34.4,77,56,328,34.2,86,34,025,33.6,65,21,328,*7F
$GLGSV,3,2,11,69,21,328,,76,21,328,,80,21,328,,88,20,243,*6F
$GLGSV,3,3,11,75,11,153,,78,06,331,,71,01,081,*56
$BDGSV,3,1,9,02,50,173,,13,48,202,,01,38,122,,06,37,216,*53
$BDGSV,3,2,9,09,37,287,,04,36,126,,11,18,131,,12,10,061,*5B
$BDGSV,3,3,9,14,09,165,*6F
$GNRMC,000205.000,A,2959.7257,N,12000.2809,E,75.532,274.94,230721,,,A*78
$GNVTG,274.94,T,,M,75.532,N,139.961,K,A*1C
$PMTKGEPH,6,0,1,0,1,0,0,1,1,0,0,0,0,1,0,0,0,0,0,0,0,0,0,0,0,1,0,0,0,0,0,0,0*02
$PMTKGALM,31,1,1,1,1,1,1,1,1,1,1,1,1,1,1,1,1,1,1,1,1,1,1,1,1,1,1,1,1,1,1,1,0*2A
$GNACCURACY,1.7,0.2,0.3,46.0*21
$PMTKAGC,000205.000,2887,2897,5714,5723,0,3,0*68
$PMTKAG2,000205.000,5,0120,0,0,0,0,0,0,0,0,0,0,0,0*35
$GNGGA,000206.000,2959.7286,N,12000.2566,E,1,9,1.44,-2.3,M,7.0,M,,*5D
$GPGSA,A,3,25,08,13,04,07,02,,,,,,,3.02,1.44,2.65*0F
$GLGSA,A,3,87,77,86,,,,,,,,,,3.02,1.44,2.65*1E
$BDGSA,A,3,,,,,,,,,,,,,3.02,1.44,2.65*12
$GPGSV,4,1,15,07,85,115,36.3,25,66,042,35.8,04,52,247,35.5,13,50,031,35.6*7A
$GPGSV,4,2,15,08,47,207,35.3,02,33,299,35.1,23,27,057,,20,23,121,34.4*6D
$GPGSV,4,3,15,40,20,251,,27,19,219,,16,01,039,,10,01,310,*73
$GPGSV,4,4,15,193,,,,194,,,,195,,,*47
$GLGSV,3,1,11,87,61,300,34.5,77,56,328,34.2,86,34,025,33.6,65,21,328,*7E
$GLGSV,3,2,11,69,21,328,,76,21,328,,80,21,328,,88,20,243,*6F
$GLGSV,3,3,11,75,11,153,,78,06,331,,71,01,081,*56
$BDGSV,3,1,9,02,50,173,,13,48,202,,01,38,122,,06,37,216,*53
$BDGSV,3,2,9,09,37,287,,04,36,126,,11,18,131,,12,10,061,*5B
$BDGSV,3,3,9,14,09,165,*6F
$GNRMC,000206.000,A,2959.7286,N,12000.2566,E,75.535,279.40,230721,,,A*70
$GNVTG,279.40,T,,M,75.535,N,139.966,K,A*18
$PMTKGEPH,6,0,1,0,1,0,0,1,1,0,0,0,0,1,0,0,0,0,0,0,0,0,0,0,0,1,0,0,0,0,0,0,0*02
$PMTKGALM,31,1,1,1,1,1,1,1,1,1,1,1,1,1,1,1,1,1,1,1,1,1,1,1,1,1,1,1,1,1,1,1,0*2A
$GNACCURACY,1.7,0.2,0.3,45.8*2A
$PMTKAGC,000206.000,2891,2829,5733,5666,0,3,0*6C
$PMTKAG2,000206.000,5,0120,0,0,0,0,0,0,0,0,0,0,0,0*36
$GNGGA,000207.000,2959.7331,N,12000.2326,E,1,9,1.44,-2.3,M,7.0,M,,*53
$GPGSA,A,3,25,08,13,04,07,02,,,,,,,3.02,1.44,2.65*0F
$GLGSA,A,3,87,77,86,,,,,,,,,,3.02,1.44,2.65*1E
$BDGSA,A,3,,,,,,,,,,,,,3.02,1.44,2.65*12
$GPGSV,4,1,15,07,85,115,36.2,25,66,042,35.8,04,52,247,35.5,13,50,031,35.6*7B
$GPGSV,4,2,15,08,47,207,35.3,02,33,299,35.1,23,27,057,,20,23,121,34.5*6C
$GPGSV,4,3,15,40,20,251,,27,19,219,,16,01,039,,10,01,310,*73
$GPGSV,4,4,15,193,,,,194,,,,195,,,*47
$GLGSV,3,1,11,87,61,300,34.5,77,56,328,34.2,86,34,025,33.6,65,21,328,*7E
$GLGSV,3,2,11,69,21,328,,76,21,328,,80,21,328,,88,20,243,*6F
$GLGSV,3,3,11,75,11,153,,78,06,331,,71,01,081,*56
$BDGSV,3,1,9,02,50,173,,13,48,202,,01,38,122,,06,37,216,*53
$BDGSV,3,2,9,09,37,287,,04,36,126,,11,18,131,,12,10,061,*5B
$BDGSV,3,3,9,14,09,165,*6F
$GNRMC,000207.000,A,2959.7331,N,12000.2326,E,75.536,283.87,230721,,,A*73
$GNVTG,283.87,T,,M,75.536,N,139.968,K,A*1B
$PMTKGEPH,6,0,1,0,1,0,0,1,1,0,0,0,0,1,0,0,0,0,0,0,0,0,0,0,0,1,0,0,0,0,0,0,0*02
$PMTKGALM,31,1,1,1,1,1,1,1,1,1,1,1,1,1,1,1,1,1,1,1,1,1,1,1,1,1,1,1,1,1,1,1,0*2A
$GNACCURACY,1.7,0.2,0.3,46.1*20
$PMTKAGC,000207.000,2828,2928,5696,5854,0,3,0*6E
$PMTKAG2,000207.000,5,0120,0,0,0,0,0,0,0,0,0,0,0,0*37
$GNGGA,000208.000,2959.7392,N,12000.2092,E,1,9,1.44,-2.3,M,7.0,M,,*59
$GPGSA,A,3,25,08,13,04,07,02,,,,,,,3.02,1.44,2.65*0F
$GLGSA,A,3,87,77,86,,,,,,,,,,3.02,1.44,2.65*1E
$BDGSA,A,3,,,,,,,,,,,,,3.02,1.44,2.65*12
$GPGSV,4,1,15,07,85,115,36.2,25,66,042,35.8,04,52,247,35.4,13,50,031,35.6*7A
$GPGSV,4,2,15,08,47,207,35.3,02,33,299,35.1,23,27,057,,20,23,121,34.8*61
$GPGSV,4,3,15,40,20,251,,27,19,219,,16,01,039,,10,01,310,*73
$GPGSV,4,4,15,193,,,,194,,,,195,,,*47
$GLGSV,3,1,11,87,61,300,34.5,77,56,328,34.1,86,34,025,33.6,65,21,328,*7D
$GLGSV,3,2,11,69,21,328,,76,21,328,,80,21,328,,88,20,243,*6F
$GLGSV,3,3,11,75,11,153,,78,06,331,,71,01,081,*56
$BDGSV,3,1,9,02,50,173,,13,48,202,,01,38,122,,06,37,216,*53
$BDGSV,3,2,9,09,37,287,,04,36,126,,11,18,131,,12,10,061,*5B
$BDGSV,3,3,9,14,09,165,*6F
$GNRMC,000208.000,A,2959.7392,N,12000.2092,E,75.531,288.31,230721,,,A*78
$GNVTG,288.31,T,,M,75.531,N,139.958,K,A*19
$PMTKGEPH,6,0,1,0,1,0,0,1,1,0,0,0,0,1,0,0,0,0,0,0,0,0,0,0,0,1,0,0,0,0,0,0,0*02
$PMTKGALM,31,1,1,1,1,1,1,1,1,1,1,1,1,1,1,1,1,1,1,1,1,1,1,1,1,1,1,1,1,1,1,1,0*2A
$GNACCURACY,1.7,0.2,0.3,46.4*25
$PMTKAGC,000208.000,2966,2812,5724,5752,0,3,0*63
$PMTKAG2,000208.000,5,0120,0,0,0,0,0,0,0,0,0,0,0,0*38
$GNGGA,000209.000,2959.7469,N,12000.1863,E,1,9,1.44,-2.3,M,7.0,M,,*5E
$GPGSA,A,3,25,08,13,04,07,02,,,,,,,3.02,1.44,2.65*0F
$GLGSA,A,3,87,77,86,,,,,,,,,,3.02,1.44,2.65*1E
$BDGSA,A,3,,,,,,,,,,,,,3.02,1.44,2.65*12
$GPGSV,4,1,15,07,85,115,36.2,25,66,042,35.7,04,52,247,35.5,13,50,031,35.6*74
$GPGSV,4,2,15,08,47,207,35.3,02,33,299,35.1,23,27,057,,20,23,121,34.7*6E
$GPGSV,4,3,15,40,20,251,,27,19,219,,16,01,039,,10,01,310,*73
$GPGSV,4,4,15,193,,,,194,,,,195,,,*47
$GLGSV,3,1,11,87,61,300,34.6,77,56,328,34.2,86,34,025,33.5,65,21,328,*7E
$GLGSV,3,2,11,69,21,328,,76,21,328,,80,21,328,,88,20,243,*6F
$GLGSV,3,3,11,75,11,153,,78,06,331,,71,01,081,*56
$BDGSV,3,1,9,02,50,173,,13,48,202,,01,38,122,,06,37,216,*53
$BDGSV,3,2,9,09,37,287,,04,36,126,,11,18,131,,12,10,061,*5B
$BDGSV,3,3,9,14,09,165,*6F
$GNRMC,000209.000,A,2959.7469,N,12000.1863,E,75.540,292.77,230721,,,A*70
$GNVTG,292.77,T,,M,75.540,N,139.975,K,A*19
$PMTKGEPH,6,0,1,0,1,0,0,1,1,0,0,0,0,1,0,0,0,0,0,0,0,0,0,0,0,1,0,0,0,0,0,0,0*02
$PMTKGALM,31,1,1,1,1,1,1,1,1,1,1,1,1,1,1,1,1,1,1,1,1,1,1,1,1,1,1,1,1,1,1,1,0*2A
$GNACCURACY,1.7,0.3,0.4,46.1*26
$PMTKAGC,000209.000,2953,3206,5778,5656,0,3,0*66
$PMTKAG2,000209.000,5,0120,0,0,0,0,0,0,0,0,0,0,0,0*39
$GNGGA,000210.000,2959.7561,N,12000.1642,E,1,9,1.44,-2.2,M,7.0,M,,*53
$GPGSA,A,3,25,08,13,04,07,02,,,,,,,3.02,1.44,2.65*0F
$GLGSA,A,3,87,77,86,,,,,,,,,,3.02,1.44,2.65*1E
$BDGSA,A,3,,,,,,,,,,,,,3.02,1.44,2.65*12
$GPGSV,4,1,15,07,85,115,36.2,25,66,042,35.7,04,52,247,35.5,13,50,031,35.5*77
$GPGSV,4,2,15,08,47,207,35.3,02,33,299,35.1,23,27,057,,20,23,121,34.9*60
$GPGSV,4,3,15,40,20,251,,27,19,219,,16,01,039,,10,01,310,*73
$GPGSV,4,4,15,193,,,,194,,,,195,,,*47
$GLGSV,3,1,11,87,61,300,34.5,77,56,328,34.2,86,34,025,33.6,65,21,328,*7E
$GLGSV,3,2,11,69,21,328,,76,21,328,,80,21,328,,88,20,243,*6F
$GLGSV,3,3,11,75,11,153,,78,06,331,,71,01,081,*56
$BDGSV,3,1,9,02,50,173,,13,48,202,,01,38,122,,06,37,216,*53
$BDGSV,3,2,9,09,37,287,,04,36,126,,11,18,131,,12,10,061,*5B
$BDGSV,3,3,9,14,09,165,*6F
$GNRMC,000210.000,A,2959.7561,N,12000.1642,E,75.544,297.24,230721,,,A*7B
$GNVTG,297.24,T,,M,75.544,N,139.983,K,A*17
$PMTKGEPH,6,0,1,0,1,0,0,1,1,0,0,0,0,1,0,0,0,0,0,0,0,0,0,0,0,1,0,0,0,0,0,0,0*02
$PMTKGALM,31,1,1,1,1,1,1,1,1,1,1,1,1,1,1,1,1,1,1,1,1,1,1,1,1,1,1,1,1,1,1,1,0*2A
$GNACCURACY,1.7,0.2,0.3,46.0*21
$PMTKAGC,000210.000,3007,2955,5639,5764,0,3,0*6F
$PMTKAG2,000210.000,5,0120,0,0,0,0,0,0,0,0,0,0,0,0*31
$GNGGA,000211.000,2959.7669,N,12000.1431,E,1,10,1.44,-2.2,M,7.0,M,,*67
$GPGSA,A,3,25,08,13,04,07,02,,,,,,,2.37,1.44,1.88*08
$GLGSA,A,3,87,77,86,78,,,,,,,,,2.37,1.44,1.88*16
$BDGSA,A,3,,,,,,,,,,,,,2.37,1.44,1.88*15
$GPGSV,4,1,15,07,85,115,36.2,25,66,042,35.7,04,52,247,35.5,13,50,031,35.5*77
$GPGSV,4,2,15,08,47,207,35.3,02,33,299,35.1,23,27,057,,20,23,121,34.4*6D
$GPGSV,4,3,15,40,20,251,,27,19,219,,16,01,039,,10,01,310,*73
$GPGSV,4,4,15,193,,,,194,,,,195,,,*47
$GLGSV,3,1,11,87,61,300,34.5,77,56,328,34.2,86,34,025,33.7,65,21,328,*7F
$GLGSV,3,2,11,69,21,328,,76,21,328,,80,21,328,,88,20,243,*6F
$GLGSV,3,3,11,75,11,153,,78,06,331,34.1,71,01,081,*4E
$BDGSV,3,1,9,02,50,173,,13,48,202,,01,38,122,,06,37,216,*53
$BDGSV,3,2,9,09,37,287,,04,36,126,,11,18,131,,12,10,061,*5B
$BDGSV,3,3,9,14,09,165,*6F
$GNRMC,000211.000,A,2959.7669,N,12000.1431,E,75.535,301.69,230721,,,A*76
$GNVTG,301.69,T,,M,75.535,N,139.967,K,A*1C
$PMTKGEPH,6,0,1,0,1,0,0,1,1,0,0,0,0,1,0,0,0,0,0,0,0,0,0,0,0,1,0,0,0,0,0,0,0*02
$PMTKGALM,31,1,1,1,1,1,1,1,1,1,1,1,1,1,1,1,1,1,1,1,1,1,1,1,1,1,1,1,1,1,1,1,0*2A
$GNACCURACY,1.7,0.2,0.3,46.0*21
$PMTKAGC,000211.000,3031,2891,5664,5871,0,3,0*61
$PMTKAG2,000211.000,5,0120,0,0,0,0,0,0,0,0,0,0,0,0*30
$GNGGA,000212.000,2959.7790,N,12000.1228,E,1,10,1.44,-2.5,M,7.0,M,,*6A
$GPGSA,A,3,25,08,13,04,07,02,,,,,,,2.37,1.44,1.88*08
$GLGSA,A,3,87,77,86,78,,,,,,,,,2.37,1.44,1.88*16
$BDGSA,A,3,,,,,,,,,,,,,2.37,1.44,1.88*15
$GPGSV,4,1,15,07,85,115,36.2,25,66,042,35.8,04,52,247,35.5,13,50,031,35.5*78
$GPGSV,4,2,15,08,47,207,35.2,02,33,299,35.2,23,27,057,,20,23,121,34.5*6E
$GPGSV,4,3,15,40,20,251,,27,19,219,,16,01,039,,10,01,310,*73
$GPGSV,4,4,15,193,,,,194,,,,195,,,*47
$GLGSV,3,1,11,87,61,300,34.5,77,56,328,34.1,86,34,025,33.7,65,21,328,*7C
$GLGSV,3,2,11,69,21,328,,76,21,328,,80,21,328,,88,20,243,*6F
$GLGSV,3,3,11,75,11,153,32.9,78,06,331,34.5,71,01,081,*5C
$BDGSV,3,1,9,02,50,173,,13,48,202,,01,38,122,,06,37,216,*53
$BDGSV,3,2,9,09,37,287,,04,36,126,,11,18,131,,12,10,061,*5B
$BDGSV,3,3,9,14,09,165,*6F
$GNRMC,000212.000,A,2959.7790,N,12000.1228,E,75.539,306.13,230721,,,A*7A
$GNVTG,306.13,T,,M,75.539,N,139.974,K,A*18
$PMTKGEPH,6,0,1,0,1,0,0,1,1,0,0,0,0,1,0,0,0,0,0,0,0,0,0,0,0,1,0,0,0,0,0,0,0*02
$PMTKGALM,31,1,1,1,1,1,1,1,1,1,1,1,1,1,1,1,1,1,1,1,1,1,1,1,1,1,1,1,1,1,1,1,0*2A
$GNACCURACY,1.7,0.2,0.3,43.5*21
$PMTKAGC,000212.000,2823,2904,5811,5705,0,3,0*65
$PMTKAG2,000212.000,5,0120,0,0,0,0,0,0,0,0,0,0,0,0*33
$GNGGA,000213.000,2959.7924,N,12000.1038,E,1,10,1.44,-2.6,M,7.0,M,,*6A
$GPGSA,A,3,25,08,13,04,07,02,,,,,,,2.37,1.44,1.88*08
$GLGSA,A,3,87,77,86,78,,,,,,,,,2.37,1.44,1.88*16
$BDGSA,A,3,,,,,,,,,,,,,2.37,1.44,1.88*15
$GPGSV,4,1,15,07,85,115,36.2,25,66,042,35.8,04,52,247,35.4,13,50,031,35.5*79
$GPGSV,4,2,15,08,47,207,35.3,02,33,299,35.2,23,27,057,,20,23,121,34.5*6F
$GPGSV,4,3,15,40,20,251,,27,19,219,,16,01,039,,10,01,310,*73
$GPGSV,4,4,15,193,,,,194,,,,195,,,*47
$GLGSV,3,1,11,87,61,300,34.6,77,56,328,34.1,86,34,025,33.6,65,21,328,*7E
$GLGSV,3,2,11,69,21,328,,76,21,328,,80,21,328,,88,20,243,*6F
$GLGSV,3,3,11,75,11,153,33.7,78,06,331,33.5,71,01,081,*54
$BDGSV,3,1,9,02,50,173,,13,48,202,,01,38,122,,06,37,216,*53
$BDGSV,3,2,9,09,37,287,,04,36,126,,11,18,131,,12,10,061,*5B
$BDGSV,3,3,9,14,09,165,*6F
$GNRMC,000213.000,A,2959.7924,N,12000.1038,E,75.536,310.59,230721,,,A*7F
$GNVTG,310.59,T,,M,75.536,N,139.968,K,A*13
$PMTKGEPH,6,0,1,0,1,0,0,1,1,0,0,0,0,1,0,0,0,0,0,0,0,0,0,0,0,1,0,0,0,0,0,0,0*02
$PMTKGALM,31,1,1,1,1,1,1,1,1,1,1,1,1,1,1,1,1,1,1,1,1,1,1,1,1,1,1,1,1,1,1,1,0*2A
$GNACCURACY,1.7,0.2,0.3,42.8*2D
$PMTKAGC,000213.000,2886,2864,5842,5772,0,3,0*6A
$PMTKAG2,000213.000,5,0120,0,0,0,0,0,0,0,0,0,0,0,0*32
$GNGGA,000214.000,2959.8072,N,12000.0860,E,1,10,1.44,-2.7,M,7.0,M,,*6D
$GPGSA,A,3,25,08,13,04,07,02,,,,,,,2.37,1.44,1.88*08
$GLGSA,A,3,87,77,86,78,,,,,,,,,2.37,1.44,1.88*16
$BDGSA,A,3,,,,,,,,,,,,,2.37,1.44,1.88*15
$GPGSV,4,1,15,07,85,115,36.3,25,66,042,35.7,04,52,247,35.4,13,50,031,35.5*77
$GPGSV,4,2,15,08,47,207,35.3,02,33,299,35.1,23,27,057,,20,23,121,34.5*6C
$GPGSV,4,3,15,39,20,251,,27,19,219,,16,01,039,,10,01,310,*7D
$GPGSV,4,4,15,193,,,,194,,,,195,,,*47
$GLGSV,3,1,11,87,61,300,34.5,77,56,328,34.1,86,34,025,33.6,65,21,328,*7D
$GLGSV,3,2,11,69,21,328,,76,21,328,,80,21,328,,88,20,243,*6F
$GLGSV,3,3,11,75,11,153,33.2,78,06,331,33.6,71,01,081,*52
$BDGSV,3,1,9,02,50,173,,13,48,202,,01,38,122,,06,37,216,*53
$BDGSV,3,2,9,09,37,287,,04,36,126,,11,18,131,,12,10,061,*5B
$BDGSV,3,3,9,14,09,165,*6F
$GNRMC,000214.000,A,2959.8072,N,12000.0860,E,75.535,315.06,230721,,,A*75
$GNVTG,315.06,T,,M,75.535,N,139.966,K,A*11
$PMTKGEPH,6,0,1,0,1,0,0,1,1,0,0,0,0,1,0,0,0,0,0,0,0,0,0,0,0,1,0,0,0,0,0,0,0*02
$PMTKGALM,31,1,1,1,1,1,1,1,1,1,1,1,1,1,1,1,1,1,1,1,1,1,1,1,1,1,1,1,1,1,1,1,0*2A
$GNACCURACY,1.7,0.2,0.3,42.6*23
$PMTKAGC,000214.000,2751,2868,5775,5676,0,3,0*6A
$PMTKAG2,000214.000,5,0120,0,0,0,0,0,0,0,0,0,0,0,0*35
$GNGGA,000215.000,2959.8231,N,12000.0696,E,1,10,1.44,-3.0,M,7.0,M,,*68
$GPGSA,A,3,25,08,13,04,07,02,,,,,,,2.37,1.44,1.88*08
$GLGSA,A,3,87,77,86,78,,,,,,,,,2.37,1.44,1.88*16
$BDGSA,A,3,,,,,,,,,,,,,2.37,1.44,1.88*15
$GPGSV,4,1,15,07,85,115,36.3,25,66,042,35.8,04,52,247,35.4,13,50,031,35.6*7B
$GPGSV,4,2,15,08,47,207,35.3,02,33,299,35.2,23,27,057,,20,23,121,34.3*69
$GPGSV,4,3,15,39,20,251,,27,19,219,,16,01,039,,10,01,310,*7D
$GPGSV,4,4,15,193,,,,194,,,,195,,,*47
$GLGSV,3,1,11,87,61,300,34.6,77,56,328,34.1,86,34,025,33.7,65,21,328,*7F
$GLGSV,3,2,11,69,21,328,,76,21,328,,80,21,328,,88,20,243,*6F
$GLGSV,3,3,11,75,11,153,32.8,78,06,331,32.3,71,01,081,*5D
$BDGSV,3,1,9,02,50,173,,13,48,202,,01,38,122,,06,37,216,*53
$BDGSV,3,2,9,09,37,287,,04,36,126,,11,18,131,,12,10,061,*5B
$BDGSV,3,3,9,14,09,165,*6F
$GNRMC,000215.000,A,2959.8231,N,12000.0696,E,75.530,319.52,230721,,,A*7E
$GNVTG,319.52,T,,M,75.530,N,139.957,K,A*1B
$PMTKGEPH,6,0,1,0,1,0,0,1,1,0,0,0,0,1,0,0,0,0,0,0,0,0,0,0,0,1,0,0,0,0,0,0,0*02
$PMTKGALM,31,1,1,1,1,1,1,1,1,1,1,1,1,1,1,1,1,1,1,1,1,1,1,1,1,1,1,1,1,1,1,1,0*2A
$GNACCURACY,1.6,0.2,0.3,42.5*21
$PMTKAGC,000215.000,2856,2719,5804,5795,0,3,0*6F
$PMTKAG2,000215.000,5,0120,0,0,0,0,0,0,0,0,0,0,0,0*34
$GNGGA,000216.000,2959.8400,N,12000.0546,E,1,10,1.44,-3.2,M,7.0,M,,*63
$GPGSA,A,3,25,08,13,04,07,02,,,,,,,2.37,1.44,1.88*08
$GLGSA,A,3,87,77,86,78,,,,,,,,,2.37,1.44,1.88*16
$BDGSA,A,3,,,,,,,,,,,,,2.37,1.44,1.88*15
$GPGSV,4,1,15,07,85,115,36.3,25,66,042,35.7,04,52,247,35.4,13,50,031,35.5*77
$GPGSV,4,2,15,08,47,207,35.4,02,33,299,35.1,23,27,057,,20,23,121,34.4*6A
$GPGSV,4,3,15,39,20,251,,27,19,219,,16,01,039,,10,01,310,*7D
$GPGSV,4,4,15,193,,,,194,,,,195,,,*47
$GLGSV,3,1,11,87,61,300,34.6,77,56,328,34.1,86,34,025,33.7,65,21,328,*7F
$GLGSV,3,2,11,69,21,328,,76,21,328,,80,21,328,,88,20,243,*6F
$GLGSV,3,3,11,75,11,153,31.7,78,06,331,32.3,71,01,081,*51
$BDGSV,3,1,9,02,50,173,,13,48,202,,01,38,122,,06,37,216,*53
$BDGSV,3,2,9,09,37,287,,04,36,126,,11,18,131,,12,10,061,*5B
$BDGSV,3,3,9,14,09,165,*6F
$GNRMC,000216.000,A,2959.8400,N,12000.0546,E,75.530,323.95,230721,,,A*75
$GNVTG,323.95,T,,M,75.530,N,139.957,K,A*19
$PMTKGEPH,6,0,1,0,1,0,0,1,1,0,0,0,0,1,0,0,0,0,0,0,0,0,0,0,0,1,0,0,0,0,0,0,0*02
$PMTKGALM,31,1,1,1,1,1,1,1,1,1,1,1,1,1,1,1,1,1,1,1,1,1,1,1,1,1,1,1,1,1,1,1,0*2A
$GNACCURACY,1.6,0.2,0.3,42.5*21
$PMTKAGC,000216.000,2894,2844,5851,5856,0,3,0*65
$PMTKAG2,000216.000,5,0120,0,0,0,0,0,0,0,0,0,0,0,0*37
$GNGGA,000217.000,2959.8580,N,12000.0412,E,1,10,1.44,-3.4,M,7.0,M,,*6D
$GPGSA,A,3,25,08,13,04,07,02,,,,,,,2.37,1.44,1.88*08
$GLGSA,A,3,87,77,86,78,,,,,,,,,2.37,1.44,1.88*16
$BDGSA,A,3,,,,,,,,,,,,,2.37,1.44,1.88*15
$GPGSV,4,1,15,07,85,115,36.2,25,66,042,35.7,04,52,247,35.4,13,50,031,35.5*76
$GPGSV,4,2,15,08,47,207,35.4,02,33,299,35.1,23,27,057,,20,23,121,34.5*6B
$GPGSV,4,3,15,39,20,251,,27,19,219,,16,01,039,,10,01,310,*7D
$GPGSV,4,4,15,193,,,,194,,,,195,,,*47
$GLGSV,3,1,11,87,61,300,34.5,77,56,328,34.1,86,34,025,33.7,65,21,328,*7C
$GLGSV,3,2,11,69,21,328,,76,21,328,,80,21,328,,88,20,243,*6F
$GLGSV,3,3,11,75,11,153,32.0,78,06,331,32.8,71,01,081,*5E
$BDGSV,3,1,9,02,50,173,,13,48,202,,01,38,122,,06,37,216,*53
$BDGSV,3,2,9,09,37,287,,04,36,126,,11,18,131,,12,10,061,*5B
$BDGSV,3,3,9,14,09,165,*6F
