=~=~=~=~=~=~=~=~=~=~=~= PuTTY log 2021.09.06 13:56:45 =~=~=~=~=~=~=~=~=~=~=~=
$GNGGA,000042.000,2959.6653,N,12000.5056,E,0,0,,1010.6,M,7.0,M,,*5E
$GPGSA,A,1,,,,,,,,,,,,,1.15,0.65,0.95*0A
$GLGSA,A,1,,,,,,,,,,,,,1.15,0.65,0.95*16
$BDGSA,A,1,,,,,,,,,,,,,1.15,0.65,0.95*1B
$GPGSV,4,1,14,07,84,120,36.2,25,67,043,35.8,04,52,247,35.6,13,50,031,35.7*7F
$GPGSV,4,2,14,08,47,207,35.3,02,33,300,35.0,23,28,057,35.0,20,23,121,34.8*77
$GPGSV,4,3,14,27,18,219,34.5,16,01,039,,10,01,310,,193,,,*64
$GPGSV,4,4,14,194,,,,195,,,*7D
$GLGSV,2,1,7,87,61,299,34.2,77,55,328,34.9,86,34,025,34.0,88,20,243,33.4*53
$GLGSV,2,2,7,75,12,153,32.8,78,06,331,32.9,71,01,082,*60
$BDGSV,3,1,9,02,50,173,30.2,13,49,203,32.4,01,38,122,29.7,09,37,287,31.7*59
$BDGSV,3,2,9,06,37,216,,04,36,126,,11,18,131,31.4,12,10,061,31.0*58
$BDGSV,3,3,9,14,09,165,*6F
$GNRMC,000042.000,V,2959.6653,N,12000.5056,E,0.000,226.61,230721,,,N*5E
$GNVTG,226.61,T,,M,0.000,N,0.000,K,N*2D
$PMTKGEPH,8,0,1,0,1,0,0,1,1,0,0,0,0,1,0,0,0,0,0,0,0,0,0,1,0,1,0,1,0,0,0,0,0*0C
$PMTKGALM,31,1,1,1,1,1,1,1,1,1,1,1,1,1,1,1,1,1,1,1,1,1,1,1,1,1,1,1,1,1,1,1,0*2A
$GNACCURACY,531.8,179.9,69.3,499.9*2C
$PMTKAGC,000042.000,2732,3054,5859,5891,0,3,0*6E
$PMTKAG2,000042.000,5,0120,0,0,0,0,0,0,0,0,0,0,0,0*34
$GNGGA,000043.000,2959.6653,N,12000.5056,E,0,0,,1010.6,M,7.0,M,,*5F
$GPGSA,A,1,,,,,,,,,,,,,1.15,0.65,0.95*0A
$GLGSA,A,1,,,,,,,,,,,,,1.15,0.65,0.95*16
$BDGSA,A,1,,,,,,,,,,,,,1.15,0.65,0.95*1B
$GPGSV,4,1,14,07,84,120,36.2,25,67,043,35.8,04,52,247,35.7,13,50,031,35.6*7F
$GPGSV,4,2,14,08,47,207,35.3,02,33,300,35.0,23,28,057,35.0,20,23,121,34.8*77
$GPGSV,4,3,14,27,18,219,34.5,16,01,039,,10,01,310,,193,,,*64
$GPGSV,4,4,14,194,,,,195,,,*7D
$GLGSV,2,1,7,87,61,299,34.2,77,55,328,34.9,86,34,025,34.0,88,20,243,33.4*53
$GLGSV,2,2,7,75,12,153,32.8,78,06,331,32.9,71,01,082,*60
$BDGSV,3,1,9,02,50,173,30.3,13,49,203,32.4,01,38,122,29.8,09,37,287,31.7*57
$BDGSV,3,2,9,06,37,216,,04,36,126,,11,18,131,31.4,12,10,061,31.0*58
$BDGSV,3,3,9,14,09,165,*6F
$GNRMC,000043.000,V,2959.6653,N,12000.5056,E,0.000,226.61,230721,,,N*5F
$GNVTG,226.61,T,,M,0.000,N,0.000,K,N*2D
$PMTKGEPH,8,0,1,0,1,0,0,1,1,0,0,0,0,1,0,0,0,0,0,0,0,0,0,1,0,1,0,1,0,0,0,0,0*0C
$PMTKGALM,31,1,1,1,1,1,1,1,1,1,1,1,1,1,1,1,1,1,1,1,1,1,1,1,1,1,1,1,1,1,1,1,0*2A
$GNACCURACY,531.8,179.9,69.3,499.9*2C
$PMTKAGC,000043.000,2949,2807,5708,5805,0,3,0*64
$PMTKAG2,000043.000,5,0120,0,0,0,0,0,0,0,0,0,0,0,0*35
$GNGGA,000044.000,2959.6653,N,12000.5056,E,0,0,,1010.6,M,7.0,M,,*58
$GPGSA,A,1,,,,,,,,,,,,,1.15,0.65,0.95*0A
$GLGSA,A,1,,,,,,,,,,,,,1.15,0.65,0.95*16
$BDGSA,A,1,,,,,,,,,,,,,1.15,0.65,0.95*1B
$GPGSV,4,1,14,07,84,120,36.1,25,67,043,35.9,04,52,247,35.7,13,50,031,35.6*7D
$GPGSV,4,2,14,08,47,207,35.3,02,33,300,35.0,23,28,057,34.9,20,23,121,34.7*70
$GPGSV,4,3,14,27,18,219,34.5,16,01,039,,10,01,310,,193,,,*64
$GPGSV,4,4,14,194,,,,195,,,*7D
$GLGSV,2,1,7,87,61,299,34.3,77,55,328,34.8,86,34,025,33.9,88,20,243,33.4*5D
$GLGSV,2,2,7,75,12,153,32.8,78,06,331,33.0,71,01,082,*68
$BDGSV,3,1,9,02,50,173,30.4,13,49,203,32.4,01,38,122,29.8,09,37,287,31.7*50
$BDGSV,3,2,9,06,37,216,,04,36,126,,11,18,131,31.4,12,10,061,31.0*58
$BDGSV,3,3,9,14,09,165,*6F
$GNRMC,000044.000,V,2959.6653,N,12000.5056,E,0.000,226.61,230721,,,N*58
$GNVTG,226.61,T,,M,0.000,N,0.000,K,N*2D
$PMTKGEPH,8,0,1,0,1,0,0,1,1,0,0,0,0,1,0,0,0,0,0,0,0,0,0,1,0,1,0,1,0,0,0,0,0*0C
$PMTKGALM,31,1,1,1,1,1,1,1,1,1,1,1,1,1,1,1,1,1,1,1,1,1,1,1,1,1,1,1,1,1,1,1,0*2A
$GNACCURACY,531.8,179.9,69.3,499.9*2C
$PMTKAGC,000044.000,2895,2814,5914,5606,0,3,0*6F
$PMTKAG2,000044.000,5,0120,0,0,0,0,0,0,0,0,0,0,0,0*32
$GNGGA,000045.000,2959.6653,N,12000.5056,E,0,0,,1010.6,M,7.0,M,,*59
$GPGSA,A,1,,,,,,,,,,,,,1.09,0.62,0.89*0D
$GLGSA,A,1,,,,,,,,,,,,,1.09,0.62,0.89*11
$BDGSA,A,1,,,,,,,,,,,,,1.09,0.62,0.89*1C
$GPGSV,4,1,14,07,84,120,36.2,25,67,043,35.8,04,52,247,35.7,13,50,031,35.5*7C
$GPGSV,4,2,14,08,47,207,35.3,02,33,300,35.0,23,28,057,34.9,20,23,121,34.7*70
$GPGSV,4,3,14,27,18,219,34.6,16,01,039,,10,01,310,,193,,,*67
$GPGSV,4,4,14,194,,,,195,,,*7D
$GLGSV,2,1,7,87,61,299,34.3,77,55,328,34.8,86,34,025,34.0,88,20,243,33.3*54
$GLGSV,2,2,7,75,12,153,32.8,78,06,331,33.0,71,01,082,*68
$BDGSV,3,1,9,02,50,173,30.3,13,49,203,32.4,01,38,122,29.7,09,37,287,31.7*58
$BDGSV,3,2,9,06,37,216,,04,36,126,,11,18,131,31.5,12,10,061,31.0*59
$BDGSV,3,3,9,14,09,165,*6F
$GNRMC,000045.000,V,2959.6653,N,12000.5056,E,0.000,226.61,230721,,,N*59
$GNVTG,226.61,T,,M,0.000,N,0.000,K,N*2D
$PMTKGEPH,8,0,1,0,1,0,0,1,1,0,0,0,0,1,0,0,0,0,0,0,0,0,0,1,0,1,0,1,0,0,0,0,0*0C
$PMTKGALM,31,1,1,1,1,1,1,1,1,1,1,1,1,1,1,1,1,1,1,1,1,1,1,1,1,1,1,1,1,1,1,1,0*2A
$GNACCURACY,531.8,179.9,69.3,499.9*2C
$PMTKAGC,000045.000,2905,2954,5648,5909,0,3,0*65
$PMTKAG2,000045.000,5,0120,0,0,0,0,0,0,0,0,0,0,0,0*33
$GNGGA,000046.000,2959.6653,N,12000.5056,E,0,0,,1010.6,M,7.0,M,,*5A
$GPGSA,A,1,,,,,,,,,,,,,1.09,0.62,0.89*0D
$GLGSA,A,1,,,,,,,,,,,,,1.09,0.62,0.89*11
$BDGSA,A,1,,,,,,,,,,,,,1.09,0.62,0.89*1C
$GPGSV,4,1,14,07,84,120,36.1,25,67,043,35.9,04,52,247,35.6,13,50,031,35.5*7F
$GPGSV,4,2,14,08,47,207,35.3,02,33,300,34.9,23,28,057,34.9,20,23,121,34.9*76
$GPGSV,4,3,14,27,18,219,34.5,16,01,039,,10,01,310,,193,,,*64
$GPGSV,4,4,14,194,,,,195,,,*7D
$GLGSV,2,1,7,87,61,299,34.3,77,55,328,34.8,86,34,025,33.9,88,20,243,33.3*5A
$GLGSV,2,2,7,75,12,153,32.8,78,06,331,32.9,71,01,082,*60
$BDGSV,3,1,9,02,50,173,30.4,13,49,203,32.4,01,38,122,29.9,09,37,287,31.7*51
$BDGSV,3,2,9,06,37,216,,04,36,126,,11,18,131,31.4,12,10,061,31.0*58
$BDGSV,3,3,9,14,09,165,*6F
$GNRMC,000046.000,V,2959.6653,N,12000.5056,E,0.000,226.61,230721,,,N*5A
$GNVTG,226.61,T,,M,0.000,N,0.000,K,N*2D
$PMTKGEPH,8,0,1,0,1,0,0,1,1,0,0,0,0,1,0,0,0,0,0,0,0,0,0,1,0,1,0,1,0,0,0,0,0*0C
$PMTKGALM,31,1,1,1,1,1,1,1,1,1,1,1,1,1,1,1,1,1,1,1,1,1,1,1,1,1,1,1,1,1,1,1,0*2A
$GNACCURACY,531.8,179.9,69.3,499.9*2C
$PMTKAGC,000046.000,2917,2881,5730,5819,0,3,0*62
$PMTKAG2,000046.000,5,0120,0,0,0,0,0,0,0,0,0,0,0,0*30
$GNGGA,000047.000,2959.6653,N,12000.5056,E,0,0,,1010.6,M,7.0,M,,*5B
$GPGSA,A,1,,,,,,,,,,,,,1.09,0.62,0.89*0D
$GLGSA,A,1,,,,,,,,,,,,,1.09,0.62,0.89*11
$BDGSA,A,1,,,,,,,,,,,,,1.09,0.62,0.89*1C
$GPGSV,4,1,14,07,84,120,36.1,25,67,043,35.8,04,52,247,35.6,13,50,031,35.5*7E
$GPGSV,4,2,14,08,47,207,35.3,02,33,300,35.0,23,28,057,34.9,20,23,121,34.9*7E
$GPGSV,4,3,14,27,18,219,34.5,16,01,039,,10,01,310,,193,,,*64
$GPGSV,4,4,14,194,,,,195,,,*7D
$GLGSV,2,1,7,87,61,299,34.3,77,55,328,34.8,86,34,025,33.9,88,20,243,33.3*5A
$GLGSV,2,2,7,75,12,153,32.8,78,06,331,32.9,71,01,082,*60
$BDGSV,3,1,9,02,50,173,30.5,13,49,203,32.4,01,38,122,30.0,09,37,287,31.7*51
$BDGSV,3,2,9,06,37,216,,04,36,126,,11,18,131,31.5,12,10,061,31.0*59
$BDGSV,3,3,9,14,09,165,*6F
$GNRMC,000047.000,V,2959.6653,N,12000.5056,E,0.000,226.61,230721,,,N*5B
$GNVTG,226.61,T,,M,0.000,N,0.000,K,N*2D
$PMTKGEPH,8,0,1,0,1,0,0,1,1,0,0,0,0,1,0,0,0,0,0,0,0,0,0,1,0,1,0,1,0,0,0,0,0*0C
$PMTKGALM,31,1,1,1,1,1,1,1,1,1,1,1,1,1,1,1,1,1,1,1,1,1,1,1,1,1,1,1,1,1,1,1,0*2A
$GNACCURACY,531.8,179.9,69.3,499.9*2C
$PMTKAGC,000047.000,3192,2827,5837,5741,0,3,0*61
$PMTKAG2,000047.000,5,0120,0,0,0,0,0,0,0,0,0,0,0,0*31
$GNGGA,000048.000,2959.6653,N,12000.5056,E,0,0,,1010.6,M,7.0,M,,*54
$GPGSA,A,1,,,,,,,,,,,,,1.09,0.62,0.89*0D
$GLGSA,A,1,,,,,,,,,,,,,1.09,0.62,0.89*11
$BDGSA,A,1,,,,,,,,,,,,,1.09,0.62,0.89*1C
$GPGSV,4,1,14,07,84,120,36.1,25,67,043,35.8,04,52,247,35.6,13,50,031,35.5*7E
$GPGSV,4,2,14,08,47,207,35.3,02,33,300,35.0,23,28,057,34.9,20,23,121,34.8*7F
$GPGSV,4,3,14,27,18,219,34.5,16,01,039,,10,01,310,,193,,,*64
$GPGSV,4,4,14,194,,,,195,,,*7D
$GLGSV,2,1,7,87,61,299,34.3,77,55,328,34.7,86,34,025,33.9,88,20,243,33.3*55
$GLGSV,2,2,7,75,12,153,32.7,78,06,331,32.9,71,01,082,*6F
$BDGSV,3,1,9,02,50,173,30.3,13,49,203,32.4,01,38,122,30.0,09,37,287,31.7*57
$BDGSV,3,2,9,06,37,216,,04,36,126,,11,18,131,31.4,12,10,061,31.0*58
$BDGSV,3,3,9,14,09,165,*6F
$GNRMC,000048.000,V,2959.6653,N,12000.5056,E,0.000,226.61,230721,,,N*54
$GNVTG,226.61,T,,M,0.000,N,0.000,K,N*2D
$PMTKGEPH,8,0,1,0,1,0,0,1,1,0,0,0,0,1,0,0,0,0,0,0,0,0,0,1,0,1,0,1,0,0,0,0,0*0C
$PMTKGALM,31,1,1,1,1,1,1,1,1,1,1,1,1,1,1,1,1,1,1,1,1,1,1,1,1,1,1,1,1,1,1,1,0*2A
$GNACCURACY,531.8,179.9,69.3,499.9*2C
$PMTKAGC,000048.000,3156,3007,5724,5740,0,3,0*61
$PMTKAG2,000048.000,5,0120,0,0,0,0,0,0,0,0,0,0,0,0*3E
$GNGGA,000049.000,2959.6653,N,12000.5056,E,0,0,,1010.6,M,7.0,M,,*55
$GPGSA,A,1,,,,,,,,,,,,,1.09,0.62,0.89*0D
$GLGSA,A,1,,,,,,,,,,,,,1.09,0.62,0.89*11
$BDGSA,A,1,,,,,,,,,,,,,1.09,0.62,0.89*1C
$GPGSV,4,1,14,07,84,120,36.0,25,67,043,35.8,04,52,247,35.6,13,50,031,35.7*7D
$GPGSV,4,2,14,08,47,207,35.3,02,33,300,35.0,23,28,057,34.9,20,23,121,34.8*7F
$GPGSV,4,3,14,27,18,219,34.5,16,01,039,,10,01,310,,193,,,*64
$GPGSV,4,4,14,194,,,,195,,,*7D
$GLGSV,2,1,7,87,61,299,34.3,77,55,328,34.7,86,34,025,33.9,88,20,243,33.3*55
$GLGSV,2,2,7,75,12,153,32.7,78,06,331,32.9,71,01,082,*6F
$BDGSV,3,1,9,02,50,173,30.4,13,49,203,32.4,01,38,122,30.1,09,37,287,31.7*51
$BDGSV,3,2,9,06,37,216,,04,36,126,,11,18,131,31.4,12,10,061,31.0*58
$BDGSV,3,3,9,14,09,165,*6F
$GNRMC,000049.000,V,2959.6653,N,12000.5056,E,0.000,226.61,230721,,,N*55
$GNVTG,226.61,T,,M,0.000,N,0.000,K,N*2D
$PMTKGEPH,8,0,1,0,1,0,0,1,1,0,0,0,0,1,0,0,0,0,0,0,0,0,0,1,0,1,0,1,0,0,0,0,0*0C
$PMTKGALM,31,1,1,1,1,1,1,1,1,1,1,1,1,1,1,1,1,1,1,1,1,1,1,1,1,1,1,1,1,1,1,1,0*2A
$GNACCURACY,531.8,179.9,69.3,499.9*2C
$PMTKAGC,000049.000,2870,2950,5634,5838,0,3,0*66
$PMTKAG2,000049.000,5,0120,0,0,0,0,0,0,0,0,0,0,0,0*3F
$GNGGA,000050.000,2959.6653,N,12000.5056,E,0,0,,1010.6,M,7.0,M,,*5D
$GPGSA,A,1,,,,,,,,,,,,,1.09,0.62,0.90*05
$GLGSA,A,1,,,,,,,,,,,,,1.09,0.62,0.90*19
$BDGSA,A,1,,,,,,,,,,,,,1.09,0.62,0.90*14
$GPGSV,4,1,14,07,84,120,36.0,25,67,043,35.9,04,52,247,35.7,13,50,031,35.7*7D
$GPGSV,4,2,14,08,47,207,35.3,02,33,300,35.0,23,28,057,34.9,20,23,121,34.8*7F
$GPGSV,4,3,14,27,18,219,34.5,16,01,039,,10,01,310,,193,,,*64
$GPGSV,4,4,14,194,,,,195,,,*7D
$GLGSV,2,1,7,87,61,299,34.4,77,55,328,34.7,86,34,025,33.9,88,20,243,33.3*52
$GLGSV,2,2,7,75,12,153,32.7,78,06,331,32.9,71,01,082,*6F
$BDGSV,3,1,9,02,50,173,30.5,13,49,203,32.5,01,38,122,30.2,09,37,287,31.7*52
$BDGSV,3,2,9,06,37,216,,04,36,126,,11,18,131,31.4,12,10,061,31.0*58
$BDGSV,3,3,9,14,09,165,*6F
$GNRMC,000050.000,V,2959.6653,N,12000.5056,E,0.000,226.61,230721,,,N*5D
$GNVTG,226.61,T,,M,0.000,N,0.000,K,N*2D
$PMTKGEPH,8,0,1,0,1,0,0,1,1,0,0,0,0,1,0,0,0,0,0,0,0,0,0,1,0,1,0,1,0,0,0,0,0*0C
$PMTKGALM,31,1,1,1,1,1,1,1,1,1,1,1,1,1,1,1,1,1,1,1,1,1,1,1,1,1,1,1,1,1,1,1,0*2A
$GNACCURACY,531.8,179.9,69.3,499.9*2C
$PMTKAGC,000050.000,3015,2997,5772,5837,0,3,0*63
$PMTKAG2,000050.000,5,0120,0,0,0,0,0,0,0,0,0,0,0,0*37
$GNGGA,000051.000,2959.7851,N,12000.1225,E,0,0,,-1.6,M,7.0,M,,*4F
$GPGSA,A,1,,,,,,,,,,,,,1.09,0.62,0.90*05
$GLGSA,A,1,,,,,,,,,,,,,1.09,0.62,0.90*19
$BDGSA,A,1,,,,,,,,,,,,,1.09,0.62,0.90*14
$GPGSV,4,1,14,07,84,120,36.1,25,67,043,35.8,04,52,247,35.7,13,50,031,35.7*7D
$GPGSV,4,2,14,08,47,207,35.3,02,33,300,35.0,23,28,057,34.9,20,23,121,34.8*7F
$GPGSV,4,3,14,27,18,219,34.5,16,01,039,,10,01,310,,193,,,*64
$GPGSV,4,4,14,194,,,,195,,,*7D
$GLGSV,2,1,7,87,61,299,34.3,77,55,328,34.7,86,34,025,33.9,88,20,243,33.3*55
$GLGSV,2,2,7,75,12,153,32.7,78,06,331,33.0,71,01,082,*67
$BDGSV,3,1,9,02,50,173,30.3,13,49,203,32.5,01,38,122,30.2,09,37,287,31.7*54
$BDGSV,3,2,9,06,37,216,,04,36,126,,11,18,131,31.5,12,10,061,30.9*51
$BDGSV,3,3,9,14,09,165,*6F
$GNRMC,000051.000,V,2959.7851,N,12000.1225,E,0.000,226.61,230721,,,N*53
$GNVTG,226.61,T,,M,0.000,N,0.000,K,N*2D
$PMTKGEPH,8,0,1,0,1,0,0,1,1,0,0,0,0,1,0,0,0,0,0,0,0,0,0,1,0,1,0,1,0,0,0,0,0*0C
$PMTKGALM,31,1,1,1,1,1,1,1,1,1,1,1,1,1,1,1,1,1,1,1,1,1,1,1,1,1,1,1,1,1,1,1,0*2A
$GNACCURACY,2.6,0.5,0.8,19.2*27
$PMTKAGC,000051.000,3194,2827,5785,5843,0,3,0*6B
$PMTKAG2,000051.000,5,0120,0,0,0,0,0,0,0,0,0,0,0,0*36
$GNGGA,000052.000,2959.7986,N,12000.1036,E,1,18,0.62,-3.7,M,7.0,M,,*66
$GPGSA,A,3,08,07,25,04,27,23,02,13,,,,,1.09,0.62,0.90*0F
$GLGSA,A,3,77,86,75,88,87,78,,,,,,,1.09,0.62,0.90*17
$BDGSA,A,3,09,13,12,11,,,,,,,,,1.09,0.62,0.90*1E
$GPGSV,4,1,15,07,84,120,36.1,25,67,043,35.9,04,52,247,35.6,13,50,031,35.7*7C
$GPGSV,4,2,15,42,48,143,,08,47,207,35.3,02,33,300,35.1,23,28,057,34.9*63
$GPGSV,4,3,15,20,23,121,34.8,27,18,219,34.6,16,01,039,,10,01,310,*7D
$GPGSV,4,4,15,193,,,,194,,,,195,,,*47
$GLGSV,2,1,7,87,61,299,34.4,77,55,328,34.7,86,34,025,34.0,88,20,243,33.3*5C
$GLGSV,2,2,7,75,12,153,32.7,78,06,331,32.9,71,01,082,*6F
$BDGSV,3,1,9,02,50,173,30.3,13,49,203,32.5,01,38,122,30.2,09,37,287,31.7*54
$BDGSV,3,2,9,06,37,216,,04,36,126,,11,18,131,31.4,12,10,061,30.9*50
$BDGSV,3,3,9,14,09,165,*6F
$GNRMC,000052.000,A,2959.7986,N,12000.1036,E,74.637,309.40,230721,,,A*7D
$GNVTG,309.40,T,,M,74.637,N,138.303,K,A*16
$PMTKGEPH,8,0,1,0,1,0,0,1,1,0,0,0,0,1,0,0,0,0,0,0,0,0,0,1,0,1,0,1,0,0,0,0,0*0C
$PMTKGALM,31,1,1,1,1,1,1,1,1,1,1,1,1,1,1,1,1,1,1,1,1,1,1,1,1,1,1,1,1,1,1,1,0*2A
$GNACCURACY,2.2,0.4,0.5,17.4*27
$PMTKAGC,000052.000,3129,3150,5862,5769,0,3,0*67
$PMTKAG2,000052.000,5,0120,0,0,0,0,0,0,0,0,0,0,0,0*35
$GNGGA,000053.000,2959.8130,N,12000.0857,E,1,17,0.63,-4.8,M,7.0,M,,*65
$GPGSA,A,3,08,07,25,04,27,23,02,,,,,,1.11,0.63,0.91*04
$GLGSA,A,3,77,86,75,88,87,78,,,,,,,1.11,0.63,0.91*1E
$BDGSA,A,3,09,13,12,11,,,,,,,,,1.11,0.63,0.91*17
$GPGSV,4,1,15,07,84,120,36.1,25,67,043,35.9,04,52,247,35.7,13,50,031,*62
$GPGSV,4,2,15,42,48,143,,08,47,207,35.3,02,33,300,35.1,23,28,057,34.9*63
$GPGSV,4,3,15,20,23,121,34.8,27,18,219,34.5,16,01,039,,10,01,310,*7E
$GPGSV,4,4,15,193,,,,194,,,,195,,,*47
$GLGSV,2,1,7,87,61,299,34.4,77,55,328,34.7,86,34,025,34.0,88,20,243,33.3*5C
$GLGSV,2,2,7,75,12,153,32.7,78,06,331,32.9,71,01,082,*6F
$BDGSV,3,1,9,02,50,173,30.4,13,49,203,32.5,01,38,122,30.3,09,37,287,31.7*52
$BDGSV,3,2,9,06,37,216,,04,36,126,,11,18,131,31.3,12,10,061,30.9*57
$BDGSV,3,3,9,14,09,165,*6F
$GNRMC,000053.000,A,2959.8130,N,12000.0857,E,75.691,314.10,230721,,,A*7C
$GNVTG,314.10,T,,M,75.691,N,140.256,K,A*1C
$PMTKGEPH,8,0,1,0,1,0,0,1,1,0,0,0,0,1,0,0,0,0,0,0,0,0,0,1,0,1,0,1,0,0,0,0,0*0C
$PMTKGALM,31,1,1,1,1,1,1,1,1,1,1,1,1,1,1,1,1,1,1,1,1,1,1,1,1,1,1,1,1,1,1,1,0*2A
$GNACCURACY,2.0,0.4,0.6,17.0*22
$PMTKAGC,000053.000,3038,3012,5861,5829,0,3,0*68
$PMTKAG2,000053.000,5,0120,0,0,0,0,0,0,0,0,0,0,0,0*34
$GNGGA,000054.000,2959.8284,N,12000.0692,E,1,17,0.63,-5.5,M,7.0,M,,*65
$GPGSA,A,3,08,07,25,04,27,23,02,,,,,,1.11,0.63,0.91*04
$GLGSA,A,3,77,86,75,88,87,78,,,,,,,1.11,0.63,0.91*1E
$BDGSA,A,3,09,13,12,11,,,,,,,,,1.11,0.63,0.91*17
$GPGSV,4,1,15,07,84,120,36.0,25,67,043,35.8,04,52,247,35.7,13,50,031,*62
$GPGSV,4,2,15,42,48,143,,08,47,207,35.4,02,33,300,35.1,23,28,057,34.9*64
$GPGSV,4,3,15,20,23,121,34.8,27,18,219,34.5,16,01,039,,10,01,310,*7E
$GPGSV,4,4,15,193,,,,194,,,,195,,,*47
$GLGSV,2,1,7,87,61,299,34.4,77,55,328,34.6,86,34,025,34.0,88,20,243,33.3*5D
$GLGSV,2,2,7,75,12,153,32.7,78,06,331,32.9,71,01,082,*6F
$BDGSV,3,1,9,02,50,173,30.3,13,49,203,32.6,01,38,122,30.2,09,37,287,31.8*58
$BDGSV,3,2,9,06,37,216,,04,36,126,,11,18,131,31.3,12,10,061,31.0*5F
$BDGSV,3,3,9,14,09,165,*6F
$GNRMC,000054.000,A,2959.8284,N,12000.0692,E,75.536,318.54,230721,,,A*72
$GNVTG,318.54,T,,M,75.536,N,139.968,K,A*16
$PMTKGEPH,8,0,1,0,1,0,0,1,1,0,0,0,0,1,0,0,0,0,0,0,0,0,0,1,0,1,0,1,0,0,0,0,0*0C
$PMTKGALM,31,1,1,1,1,1,1,1,1,1,1,1,1,1,1,1,1,1,1,1,1,1,1,1,1,1,1,1,1,1,1,1,0*2A
$GNACCURACY,1.8,0.2,0.3,17.0*2A
$PMTKAGC,000054.000,2805,2933,5880,5858,0,3,0*6A
$PMTKAG2,000054.000,5,0120,0,0,0,0,0,0,0,0,0,0,0,0*33
$GNGGA,000055.000,2959.8449,N,12000.0541,E,1,17,0.63,-5.8,M,7.0,M,,*63
$GPGSA,A,3,08,07,25,04,27,23,02,,,,,,1.11,0.63,0.91*04
$GLGSA,A,3,77,86,75,88,87,78,,,,,,,1.11,0.63,0.91*1E
$BDGSA,A,3,09,13,12,11,,,,,,,,,1.11,0.63,0.91*17
$GPGSV,4,1,15,07,84,120,36.0,25,67,043,35.8,04,52,247,35.7,13,50,031,*62
$GPGSV,4,2,15,42,48,143,,08,47,207,35.4,02,33,300,35.1,23,28,057,34.9*64
$GPGSV,4,3,15,20,23,121,34.8,27,18,219,34.5,16,01,039,,10,01,310,*7E
$GPGSV,4,4,15,193,,,,194,,,,195,,,*47
$GLGSV,2,1,7,87,61,299,34.4,77,55,328,34.6,86,34,025,34.0,88,20,243,33.3*5D
$GLGSV,2,2,7,75,12,153,32.7,78,06,331,32.9,71,01,082,*6F
$BDGSV,3,1,9,02,50,173,30.3,13,49,203,32.6,01,38,122,30.2,09,37,287,31.8*58
$BDGSV,3,2,9,06,37,216,,04,36,126,,11,18,131,31.3,12,10,061,31.0*5F
$BDGSV,3,3,9,14,09,165,*6F
$GNRMC,000055.000,A,2959.8449,N,12000.0541,E,75.540,323.01,230721,,,A*70
$GNVTG,323.01,T,,M,75.540,N,139.975,K,A*13
$PMTKGEPH,8,0,1,0,1,0,0,1,1,0,0,0,0,1,0,0,0,0,0,0,0,0,0,1,0,1,0,1,0,0,0,0,0*0C
$PMTKGALM,31,1,1,1,1,1,1,1,1,1,1,1,1,1,1,1,1,1,1,1,1,1,1,1,1,1,1,1,1,1,1,1,0*2A
$GNACCURACY,1.8,0.2,0.3,16.5*2E
$PMTKAGC,000055.000,3000,2917,5867,5670,0,3,0*6C
$PMTKAG2,000055.000,5,0120,0,0,0,0,0,0,0,0,0,0,0,0*32
$GNGGA,000056.000,2959.8624,N,12000.0407,E,1,17,0.63,-5.9,M,7.0,M,,*6B
$GPGSA,A,3,08,07,25,04,27,23,02,,,,,,1.11,0.63,0.91*04
$GLGSA,A,3,77,86,75,88,87,78,,,,,,,1.11,0.63,0.91*1E
$BDGSA,A,3,09,13,12,11,,,,,,,,,1.11,0.63,0.91*17
$GPGSV,4,1,15,07,84,120,36.0,25,67,043,35.8,04,52,247,35.7,13,50,031,*62
$GPGSV,4,2,15,42,48,143,,08,47,207,35.3,02,33,300,35.1,23,28,057,34.9*63
$GPGSV,4,3,15,20,23,121,34.8,27,18,219,34.5,16,01,039,,10,01,310,*7E
$GPGSV,4,4,15,193,,,,194,,,,195,,,*47
$GLGSV,2,1,7,87,61,299,34.4,77,55,328,34.6,86,34,025,33.9,88,20,243,33.4*54
$GLGSV,2,2,7,75,12,153,32.7,78,06,331,32.9,71,01,082,*6F
$BDGSV,3,1,9,02,50,173,30.4,13,49,203,32.6,01,38,122,30.3,09,37,287,31.8*5E
$BDGSV,3,2,9,06,37,216,,04,36,126,,11,18,131,31.3,12,10,061,31.0*5F
$BDGSV,3,3,9,14,09,165,*6F
$GNRMC,000056.000,A,2959.8624,N,12000.0407,E,75.528,327.47,230721,,,A*71
$GNVTG,327.47,T,,M,75.528,N,139.953,K,A*1F
$PMTKGEPH,8,0,1,0,1,0,0,1,1,0,0,0,0,1,0,0,0,0,0,0,0,0,0,1,0,1,0,1,0,0,0,0,0*0C
$PMTKGALM,31,1,1,1,1,1,1,1,1,1,1,1,1,1,1,1,1,1,1,1,1,1,1,1,1,1,1,1,1,1,1,1,0*2A
$GNACCURACY,1.7,0.2,0.3,16.8*2C
$PMTKAGC,000056.000,2932,2711,5862,5725,0,3,0*6A
$PMTKAG2,000056.000,5,0120,0,0,0,0,0,0,0,0,0,0,0,0*31
$GNGGA,000057.000,2959.8808,N,12000.0288,E,1,17,0.63,-5.9,M,7.0,M,,*6B
$GPGSA,A,3,08,07,25,04,27,23,02,,,,,,1.11,0.63,0.91*04
$GLGSA,A,3,77,86,75,88,87,78,,,,,,,1.11,0.63,0.91*1E
$BDGSA,A,3,09,13,12,11,,,,,,,,,1.11,0.63,0.91*17
$GPGSV,4,1,15,07,84,120,36.0,25,67,043,35.9,04,52,247,35.7,13,50,031,*63
$GPGSV,4,2,15,42,48,143,,08,47,207,35.3,02,33,300,35.1,23,28,057,34.9*63
$GPGSV,4,3,15,20,23,121,34.8,27,18,219,34.5,16,01,039,,10,01,310,*7E
$GPGSV,4,4,15,193,,,,194,,,,195,,,*47
$GLGSV,2,1,7,87,61,299,34.5,77,55,328,34.6,86,34,025,33.9,88,20,243,33.4*55
$GLGSV,2,2,7,75,12,153,32.7,78,06,331,32.9,71,01,082,*6F
$BDGSV,3,1,9,02,50,173,30.3,13,49,203,32.5,01,38,122,30.3,09,37,287,31.8*5A
$BDGSV,3,2,9,06,37,216,,04,36,126,,11,18,131,31.2,12,10,061,31.0*5E
$BDGSV,3,3,9,14,09,165,*6F
$GNRMC,000057.000,A,2959.8808,N,12000.0288,E,75.522,331.92,230721,,,A*74
$GNVTG,331.92,T,,M,75.522,N,139.942,K,A*1A
$PMTKGEPH,8,0,1,0,1,0,0,1,1,0,0,0,0,1,0,0,0,0,0,0,0,0,0,1,0,1,0,1,0,0,0,0,0*0C
$PMTKGALM,31,1,1,1,1,1,1,1,1,1,1,1,1,1,1,1,1,1,1,1,1,1,1,1,1,1,1,1,1,1,1,1,0*2A
$GNACCURACY,1.6,0.2,0.3,16.4*21
$PMTKAGC,000057.000,2979,2922,5845,5880,0,3,0*6F
$PMTKAG2,000057.000,5,0120,0,0,0,0,0,0,0,0,0,0,0,0*30
$GNGGA,000058.000,2959.8999,N,12000.0188,E,1,17,0.63,-5.8,M,7.0,M,,*6F
$GPGSA,A,3,08,07,25,04,27,23,02,,,,,,1.11,0.63,0.91*04
$GLGSA,A,3,77,86,75,88,87,78,,,,,,,1.11,0.63,0.91*1E
$BDGSA,A,3,09,13,12,11,,,,,,,,,1.11,0.63,0.91*17
$GPGSV,4,1,15,07,84,120,36.0,25,67,043,35.9,04,52,247,35.8,13,50,031,*6C
$GPGSV,4,2,15,42,48,143,,08,47,207,35.4,02,33,300,35.1,23,28,057,34.9*64
$GPGSV,4,3,15,20,23,121,34.8,27,18,219,34.5,16,01,039,,10,01,310,*7E
$GPGSV,4,4,15,193,,,,194,,,,195,,,*47
$GLGSV,2,1,7,87,61,299,34.5,77,55,328,34.6,86,34,025,33.9,88,20,243,33.4*55
$GLGSV,2,2,7,75,12,153,32.7,78,06,331,32.9,71,01,082,*6F
$BDGSV,3,1,9,02,50,173,30.3,13,49,203,32.4,01,38,122,30.3,09,37,287,31.8*5B
$BDGSV,3,2,9,06,37,216,,04,36,126,,11,18,131,31.2,12,10,061,31.0*5E
$BDGSV,3,3,9,14,09,165,*6F
$GNRMC,000058.000,A,2959.8999,N,12000.0188,E,75.519,336.41,230721,,,A*70
$GNVTG,336.41,T,,M,75.519,N,139.936,K,A*18
$PMTKGEPH,8,0,1,0,1,0,0,1,1,0,0,0,0,1,0,0,0,0,0,0,0,0,0,1,0,1,0,1,0,0,0,0,0*0C
$PMTKGALM,31,1,1,1,1,1,1,1,1,1,1,1,1,1,1,1,1,1,1,1,1,1,1,1,1,1,1,1,1,1,1,1,0*2A
$GNACCURACY,1.6,0.2,0.3,16.7*22
$PMTKAGC,000058.000,2984,2963,5860,5807,0,3,0*6F
$PMTKAG2,000058.000,5,0120,0,0,0,0,0,0,0,0,0,0,0,0*3F
$GNGGA,000059.000,2959.9197,N,12000.0105,E,1,17,0.63,-5.6,M,7.0,M,,*62
$GPGSA,A,3,08,07,25,04,27,23,02,,,,,,1.11,0.63,0.91*04
$GLGSA,A,3,77,86,75,88,87,78,,,,,,,1.11,0.63,0.91*1E
$BDGSA,A,3,09,13,12,11,,,,,,,,,1.11,0.63,0.91*17
$GPGSV,4,1,15,07,84,120,36.1,25,67,043,35.9,04,52,247,35.8,13,50,031,*6D
$GPGSV,4,2,15,42,48,143,,08,47,207,35.4,02,33,300,35.2,23,28,057,34.9*67
$GPGSV,4,3,15,20,23,121,34.8,27,18,219,34.5,16,01,039,,10,01,310,*7E
$GPGSV,4,4,15,193,,,,194,,,,195,,,*47
$GLGSV,2,1,7,87,61,299,34.5,77,55,328,34.6,86,34,025,33.9,88,20,243,33.4*55
$GLGSV,2,2,7,75,12,153,32.7,78,06,331,32.8,71,01,082,*6E
$BDGSV,3,1,9,02,50,173,30.4,13,49,203,32.4,01,38,122,30.4,09,37,287,31.8*5B
$BDGSV,3,2,9,06,37,216,,04,36,126,,11,18,131,31.3,12,10,061,30.9*57
$BDGSV,3,3,9,14,09,165,*6F
$GNRMC,000059.000,A,2959.9197,N,12000.0105,E,75.521,340.83,230721,,,A*77
$GNVTG,340.83,T,,M,75.521,N,139.941,K,A*1C
$PMTKGEPH,8,0,1,0,1,0,0,1,1,0,0,0,0,1,0,0,0,0,0,0,0,0,0,1,0,1,0,1,0,0,0,0,0*0C
$PMTKGALM,31,1,1,1,1,1,1,1,1,1,1,1,1,1,1,1,1,1,1,1,1,1,1,1,1,1,1,1,1,1,1,1,0*2A
$GNACCURACY,1.5,0.2,0.3,16.3*25
$PMTKAGC,000059.000,2744,2848,5745,5887,0,3,0*64
$PMTKAG2,000059.000,5,0120,0,0,0,0,0,0,0,0,0,0,0,0*3E
$GNGGA,000100.000,2959.9400,N,12000.0039,E,1,17,0.63,-5.7,M,7.0,M,,*6B
$GPGSA,A,3,08,07,25,04,27,23,02,,,,,,1.11,0.63,0.91*04
$GLGSA,A,3,77,86,75,88,87,78,,,,,,,1.11,0.63,0.91*1E
$BDGSA,A,3,09,13,12,11,,,,,,,,,1.11,0.63,0.91*17
$GPGSV,4,1,15,07,84,120,36.1,25,67,043,35.9,04,52,247,35.8,13,50,031,*6D
$GPGSV,4,2,15,42,48,143,,08,47,207,35.4,02,33,300,35.2,23,28,057,34.9*67
$GPGSV,4,3,15,20,23,121,34.8,27,18,219,34.5,16,01,039,,10,01,310,*7E
$GPGSV,4,4,15,193,,,,194,,,,195,,,*47
$GLGSV,2,1,7,87,61,299,34.5,77,55,328,34.6,86,34,025,33.9,88,20,243,33.4*55
$GLGSV,2,2,7,75,12,153,32.7,78,06,331,32.8,71,01,082,*6E
$BDGSV,3,1,9,02,50,173,30.4,13,49,203,32.4,01,38,122,30.4,09,37,287,31.7*54
$BDGSV,3,2,9,06,37,216,,04,36,126,,11,18,131,31.3,12,10,061,30.9*57
$BDGSV,3,3,9,14,09,165,*6F
$GNRMC,000100.000,A,2959.9400,N,12000.0039,E,75.518,345.31,230721,,,A*79
$GNVTG,345.31,T,,M,75.518,N,139.935,K,A*19
$PMTKGEPH,8,0,1,0,1,0,0,1,1,0,0,0,0,1,0,0,0,0,0,0,0,0,0,1,0,1,0,1,0,0,0,0,0*0C
$PMTKGALM,31,1,1,1,1,1,1,1,1,1,1,1,1,1,1,1,1,1,1,1,1,1,1,1,1,1,1,1,1,1,1,1,0*2A
$GNACCURACY,1.5,0.2,0.3,16.7*21
$PMTKAGC,000100.000,2928,3110,5872,5717,0,3,0*65
$PMTKAG2,000100.000,5,0120,0,0,0,0,0,0,0,0,0,0,0,0*33
$GNGGA,000101.000,2959.9607,N,11959.9992,E,1,18,0.61,-5.6,M,7.0,M,,*64
$GPGSA,A,3,08,07,25,20,04,27,23,02,,,,,1.10,0.61,0.91*05
$GLGSA,A,3,77,86,75,88,87,78,,,,,,,1.10,0.61,0.91*1D
$BDGSA,A,3,09,13,12,11,,,,,,,,,1.10,0.61,0.91*14
$GPGSV,4,1,15,07,84,120,36.1,25,67,043,35.9,04,52,247,35.8,13,50,031,*6D
$GPGSV,4,2,15,08,47,207,35.5,50,45,136,,02,33,300,35.2,23,28,057,34.9*6A
$GPGSV,4,3,15,20,23,121,34.8,27,18,219,34.5,16,01,039,,10,01,310,*7E
$GPGSV,4,4,15,193,,,,194,,,,195,,,*47
$GLGSV,2,1,7,87,61,299,34.5,77,55,328,34.5,86,34,025,33.9,88,20,243,33.4*56
$GLGSV,2,2,7,75,12,153,32.7,78,06,331,32.8,71,01,082,*6E
$BDGSV,3,1,9,02,50,173,30.3,13,49,203,32.3,01,38,122,30.3,09,37,287,31.8*5C
$BDGSV,3,2,9,06,37,216,,04,36,126,,11,18,131,31.4,12,10,061,30.8*51
$BDGSV,3,3,9,14,09,165,*6F
$GNRMC,000101.000,A,2959.9607,N,11959.9992,E,75.516,349.77,230721,,,A*7A
$GNVTG,349.77,T,,M,75.516,N,139.932,K,A*1E
$PMTKGEPH,9,0,1,0,1,0,0,1,1,0,0,0,0,1,0,0,0,0,0,0,1,0,0,1,0,1,0,1,0,0,0,0,0*0C
$PMTKGALM,31,1,1,1,1,1,1,1,1,1,1,1,1,1,1,1,1,1,1,1,1,1,1,1,1,1,1,1,1,1,1,1,0*2A
$GNACCURACY,1.5,0.2,0.3,16.4*22
$PMTKAGC,000101.000,3084,2898,5733,5727,0,3,0*6B
$PMTKAG2,000101.000,5,0120,0,0,0,0,0,0,0,0,0,0,0,0*32
$GNGGA,000102.000,2959.9817,N,11959.9963,E,1,18,0.61,-5.6,M,7.0,M,,*66
$GPGSA,A,3,08,07,25,20,04,27,23,02,,,,,1.10,0.61,0.91*05
$GLGSA,A,3,77,86,75,88,87,78,,,,,,,1.10,0.61,0.91*1D
$BDGSA,A,3,09,13,12,11,,,,,,,,,1.10,0.61,0.91*14
$GPGSV,4,1,15,07,84,120,36.0,25,67,043,35.9,04,52,247,35.8,13,50,031,*6C
$GPGSV,4,2,15,08,47,207,35.5,50,45,136,,02,33,300,35.2,23,28,057,34.9*6A
$GPGSV,4,3,15,20,23,121,34.9,27,18,219,34.5,16,01,039,,10,01,310,*7F
$GPGSV,4,4,15,193,,,,194,,,,195,,,*47
$GLGSV,2,1,7,87,61,299,34.4,77,55,328,34.5,86,34,025,33.9,88,20,243,33.4*57
$GLGSV,2,2,7,75,12,153,32.7,78,06,331,32.8,71,01,082,*6E
$BDGSV,3,1,9,02,50,173,30.5,13,49,203,32.3,01,38,122,30.4,09,37,287,31.8*5D
$BDGSV,3,2,9,06,37,216,,04,36,126,,11,18,131,31.4,12,10,061,30.9*50
$BDGSV,3,3,9,14,09,165,*6F
$GNRMC,000102.000,A,2959.9817,N,11959.9963,E,75.520,354.20,230721,,,A*73
$GNVTG,354.20,T,,M,75.520,N,139.939,K,A*1E
$PMTKGEPH,9,0,1,0,1,0,0,1,1,0,0,0,0,1,0,0,0,0,0,0,1,0,0,1,0,1,0,1,0,0,0,0,0*0C
$PMTKGALM,31,1,1,1,1,1,1,1,1,1,1,1,1,1,1,1,1,1,1,1,1,1,1,1,1,1,1,1,1,1,1,1,0*2A
$GNACCURACY,1.5,0.2,0.3,16.8*2E
$PMTKAGC,000102.000,3101,2857,5783,5757,0,3,0*6B
$PMTKAG2,000102.000,5,0120,0,0,0,0,0,0,0,0,0,0,0,0*31
$GNGGA,000103.000,3000.0028,N,11959.9954,E,1,18,0.61,-5.6,M,7.0,M,,*6A
$GPGSA,A,3,08,07,25,20,04,27,23,02,,,,,1.10,0.61,0.91*05
$GLGSA,A,3,77,86,75,88,87,78,,,,,,,1.10,0.61,0.91*1D
$BDGSA,A,3,09,13,12,11,,,,,,,,,1.10,0.61,0.91*14
$GPGSV,4,1,15,07,84,120,36.1,25,67,043,35.9,04,52,247,35.8,13,50,031,*6D
$GPGSV,4,2,15,08,47,207,35.5,50,45,136,,02,33,300,35.2,23,28,057,34.9*6A
$GPGSV,4,3,15,20,23,121,34.9,27,18,219,34.5,16,01,039,,10,01,310,*7F
$GPGSV,4,4,15,193,,,,194,,,,195,,,*47
$GLGSV,2,1,7,87,61,299,34.4,77,55,328,34.5,86,34,025,33.9,88,20,243,33.4*57
$GLGSV,2,2,7,75,12,153,32.8,78,06,331,32.8,71,01,082,*61
$BDGSV,3,1,9,02,50,173,30.4,13,49,203,32.2,01,38,122,30.3,09,37,287,31.8*5A
$BDGSV,3,2,9,06,37,216,,04,36,126,,11,18,131,31.4,12,10,061,30.9*50
$BDGSV,3,3,9,14,09,165,*6F
$GNRMC,000103.000,A,3000.0028,N,11959.9954,E,75.522,358.71,230721,,,A*75
$GNVTG,358.71,T,,M,75.522,N,139.942,K,A*18
$PMTKGEPH,9,0,1,0,1,0,0,1,1,0,0,0,0,1,0,0,0,0,0,0,1,0,0,1,0,1,0,1,0,0,0,0,0*0C
$PMTKGALM,31,1,1,1,1,1,1,1,1,1,1,1,1,1,1,1,1,1,1,1,1,1,1,1,1,1,1,1,1,1,1,1,0*2A
$GNACCURACY,1.5,0.2,0.3,16.7*21
$PMTKAGC,000103.000,2973,2969,5791,5921,0,3,0*66
$PMTKAG2,000103.000,5,0120,0,0,0,0,0,0,0,0,0,0,0,0*30
$GNGGA,000104.000,3000.0240,N,11959.9964,E,1,18,0.61,-5.5,M,7.0,M,,*61
$GPGSA,A,3,08,07,25,20,04,27,23,02,,,,,1.10,0.61,0.91*05
$GLGSA,A,3,77,86,75,88,87,78,,,,,,,1.10,0.61,0.91*1D
$BDGSA,A,3,09,13,12,11,,,,,,,,,1.10,0.61,0.91*14
$GPGSV,4,1,15,07,84,120,36.1,25,67,043,35.9,04,52,247,35.8,13,50,031,*6D
$GPGSV,4,2,15,08,47,207,35.5,50,45,136,,02,33,300,35.2,23,28,057,34.9*6A
$GPGSV,4,3,15,20,23,121,34.9,27,18,219,34.5,16,01,039,,10,01,310,*7F
$GPGSV,4,4,15,193,,,,194,,,,195,,,*47
$GLGSV,2,1,7,87,61,299,34.3,77,55,328,34.4,86,34,025,33.9,88,20,243,33.4*51
$GLGSV,2,2,7,75,12,153,32.8,78,06,331,32.8,71,01,082,*61
$BDGSV,3,1,9,02,50,173,30.4,13,49,203,32.2,01,38,122,30.4,09,37,287,31.8*5D
$BDGSV,3,2,9,06,37,216,,04,36,126,,11,18,131,31.3,12,10,061,30.9*57
$BDGSV,3,3,9,14,09,165,*6F
$GNRMC,000104.000,A,3000.0240,N,11959.9964,E,75.530,3.09,230721,,,A*7C
$GNVTG,3.09,T,,M,75.530,N,139.957,K,A*1D
$PMTKGEPH,9,0,1,0,1,0,0,1,1,0,0,0,0,1,0,0,0,0,0,0,1,0,0,1,0,1,0,1,0,0,0,0,0*0C
$PMTKGALM,31,1,1,1,1,1,1,1,1,1,1,1,1,1,1,1,1,1,1,1,1,1,1,1,1,1,1,1,1,1,1,1,0*2A
$GNACCURACY,1.4,0.2,0.3,16.6*21
$PMTKAGC,000104.000,2884,3056,5962,5851,0,3,0*68
$PMTKAG2,000104.000,5,0120,0,0,0,0,0,0,0,0,0,0,0,0*37
$GNGGA,000105.000,3000.0451,N,11959.9993,E,1,18,0.61,-5.5,M,7.0,M,,*6E
$GPGSA,A,3,08,07,25,20,04,27,23,02,,,,,1.10,0.61,0.91*05
$GLGSA,A,3,77,86,75,88,87,78,,,,,,,1.10,0.61,0.91*1D
$BDGSA,A,3,09,13,12,11,,,,,,,,,1.10,0.61,0.91*14
$GPGSV,4,1,15,07,84,120,36.0,25,67,043,35.9,04,52,247,35.8,13,50,031,*6C
$GPGSV,4,2,15,08,47,207,35.5,50,45,136,,02,33,300,35.2,23,28,057,35.0*62
$GPGSV,4,3,15,20,23,121,34.9,27,18,219,34.5,16,01,039,,10,01,310,*7F
$GPGSV,4,4,15,193,,,,194,,,,195,,,*47
$GLGSV,2,1,7,87,61,299,34.4,77,55,328,34.5,86,34,025,33.9,88,20,243,33.5*56
$GLGSV,2,2,7,75,12,153,32.9,78,06,331,32.8,71,01,082,*60
$BDGSV,3,1,9,02,50,173,30.5,13,49,203,32.3,01,38,122,30.5,09,37,287,31.9*5D
$BDGSV,3,2,9,06,37,216,,04,36,126,,11,18,131,31.4,12,10,061,30.9*50
$BDGSV,3,3,9,14,09,165,*6F
$GNRMC,000105.000,A,3000.0451,N,11959.9993,E,75.527,7.60,230721,,,A*7E
$GNVTG,7.60,T,,M,75.527,N,139.951,K,A*16
$PMTKGEPH,9,0,1,0,1,0,0,1,1,0,0,0,0,1,0,0,0,0,0,0,1,0,0,1,0,1,0,1,0,0,0,0,0*0C
$PMTKGALM,31,1,1,1,1,1,1,1,1,1,1,1,1,1,1,1,1,1,1,1,1,1,1,1,1,1,1,1,1,1,1,1,0*2A
$GNACCURACY,1.4,0.2,0.3,16.7*20
$PMTKAGC,000105.000,3042,2966,5765,5658,0,3,0*6F
$PMTKAG2,000105.000,5,0120,0,0,0,0,0,0,0,0,0,0,0,0*36
$GNGGA,000106.000,3000.0659,N,12000.0041,E,1,18,0.61,-5.5,M,7.0,M,,*6E
$GPGSA,A,3,08,07,25,20,04,27,23,02,,,,,1.10,0.61,0.91*05
$GLGSA,A,3,77,86,75,88,87,78,,,,,,,1.10,0.61,0.91*1D
$BDGSA,A,3,09,13,12,11,,,,,,,,,1.10,0.61,0.91*14
$GPGSV,4,1,15,07,84,120,36.1,25,67,043,35.8,04,52,247,35.8,13,50,031,*6C
$GPGSV,4,2,15,08,47,207,35.5,50,45,136,,02,33,300,35.3,23,28,057,34.9*6B
$GPGSV,4,3,15,20,23,121,34.9,27,18,219,34.5,16,01,039,,10,01,310,*7F
$GPGSV,4,4,15,193,,,,194,,,,195,,,*47
$GLGSV,2,1,7,87,61,299,34.3,77,55,328,34.5,86,34,025,33.9,88,20,243,33.4*50
$GLGSV,2,2,7,75,12,153,32.9,78,06,331,32.8,71,01,082,*60
$BDGSV,3,1,9,02,50,173,30.4,13,49,203,32.3,01,38,122,30.4,09,37,287,31.9*5D
$BDGSV,3,2,9,06,37,216,,04,36,126,,11,18,131,31.4,12,10,061,31.0*58
$BDGSV,3,3,9,14,09,165,*6F
$GNRMC,000106.000,A,3000.0659,N,12000.0041,E,75.525,12.04,230721,,,A*4A
$GNVTG,12.04,T,,M,75.525,N,139.947,K,A*25
$PMTKGEPH,9,0,1,0,1,0,0,1,1,0,0,0,0,1,0,0,0,0,0,0,1,0,0,1,0,1,0,1,0,0,0,0,0*0C
$PMTKGALM,31,1,1,1,1,1,1,1,1,1,1,1,1,1,1,1,1,1,1,1,1,1,1,1,1,1,1,1,1,1,1,1,0*2A
$GNACCURACY,1.4,0.2,0.2,16.7*21
$PMTKAGC,000106.000,3045,2958,5757,5917,0,3,0*63
$PMTKAG2,000106.000,5,0120,0,0,0,0,0,0,0,0,0,0,0,0*35
$GNGGA,000107.000,3000.0863,N,12000.0106,E,1,18,0.61,-5.5,M,7.0,M,,*6A
$GPGSA,A,3,08,07,25,20,04,27,23,02,,,,,1.10,0.61,0.91*05
$GLGSA,A,3,77,86,75,88,87,78,,,,,,,1.10,0.61,0.91*1D
$BDGSA,A,3,09,13,12,11,,,,,,,,,1.10,0.61,0.91*14
$GPGSV,4,1,15,07,84,120,36.1,25,67,043,35.9,04,52,247,35.8,13,50,031,*6D
$GPGSV,4,2,15,08,47,207,35.5,50,45,136,,02,33,300,35.2,23,28,057,34.9*6A
$GPGSV,4,3,15,20,23,121,34.9,27,18,219,34.5,16,01,039,,10,01,310,*7F
$GPGSV,4,4,15,193,,,,194,,,,195,,,*47
$GLGSV,2,1,7,87,61,299,34.3,77,55,328,34.5,86,34,025,34.0,88,20,243,33.4*5E
$GLGSV,2,2,7,75,12,153,32.9,78,06,331,32.9,71,01,082,*61
$BDGSV,3,1,9,02,50,173,30.4,13,49,203,32.3,01,38,122,30.4,09,37,287,31.9*5D
$BDGSV,3,2,9,06,37,216,,04,36,126,,11,18,131,31.4,12,10,061,30.9*50
$BDGSV,3,3,9,14,09,165,*6F
$GNRMC,000107.000,A,3000.0863,N,12000.0106,E,75.530,16.46,230721,,,A*48
$GNVTG,16.46,T,,M,75.530,N,139.958,K,A*2D
$PMTKGEPH,9,0,1,0,1,0,0,1,1,0,0,0,0,1,0,0,0,0,0,0,1,0,0,1,0,1,0,1,0,0,0,0,0*0C
$PMTKGALM,31,1,1,1,1,1,1,1,1,1,1,1,1,1,1,1,1,1,1,1,1,1,1,1,1,1,1,1,1,1,1,1,0*2A
$GNACCURACY,1.4,0.2,0.2,16.8*2E
$PMTKAGC,000107.000,3003,2760,5743,5735,0,3,0*6E
$PMTKAG2,000107.000,5,0120,0,0,0,0,0,0,0,0,0,0,0,0*34
$GNGGA,000108.000,3000.1062,N,12000.0190,E,1,18,0.61,-5.6,M,7.0,M,,*61
$GPGSA,A,3,08,07,25,20,04,27,23,02,,,,,1.10,0.61,0.91*05
$GLGSA,A,3,77,86,75,88,87,78,,,,,,,1.10,0.61,0.91*1D
$BDGSA,A,3,09,13,12,11,,,,,,,,,1.10,0.61,0.91*14
$GPGSV,4,1,15,07,84,120,36.1,25,67,043,35.9,04,52,247,35.8,13,50,031,*6D
$GPGSV,4,2,15,08,47,207,35.5,50,45,136,,02,33,300,35.2,23,28,057,34.9*6A
$GPGSV,4,3,15,20,23,121,34.9,27,18,219,34.5,16,01,039,,10,01,310,*7F
$GPGSV,4,4,15,193,,,,194,,,,195,,,*47
$GLGSV,2,1,7,87,61,299,34.3,77,55,328,34.5,86,34,025,34.0,88,20,243,33.4*5E
$GLGSV,2,2,7,75,12,153,33.0,78,06,331,32.9,71,01,082,*69
$BDGSV,3,1,9,02,50,173,30.5,13,49,203,32.3,01,38,122,30.5,09,37,287,31.9*5D
$BDGSV,3,2,9,06,37,216,,04,36,126,,11,18,131,31.5,12,10,061,30.9*51
$BDGSV,3,3,9,14,09,165,*6F
$GNRMC,000108.000,A,3000.1062,N,12000.0190,E,75.522,20.99,230721,,,A*44
$GNVTG,20.99,T,,M,75.522,N,139.942,K,A*22
$PMTKGEPH,9,0,1,0,1,0,0,1,1,0,0,0,0,1,0,0,0,0,0,0,1,0,0,1,0,1,0,1,0,0,0,0,0*0C
$PMTKGALM,31,1,1,1,1,1,1,1,1,1,1,1,1,1,1,1,1,1,1,1,1,1,1,1,1,1,1,1,1,1,1,1,0*2A
$GNACCURACY,1.4,0.2,0.2,17.4*23
$PMTKAGC,000108.000,3035,2879,5865,5861,0,3,0*66
$PMTKAG2,000108.000,5,0120,0,0,0,0,0,0,0,0,0,0,0,0*3B
$GNGGA,000109.000,3000.1256,N,12000.0291,E,1,18,0.61,-5.7,M,7.0,M,,*66
$GPGSA,A,3,08,07,25,20,04,27,23,02,,,,,1.10,0.61,0.91*05
$GLGSA,A,3,77,86,75,88,87,78,,,,,,,1.10,0.61,0.91*1D
$BDGSA,A,3,09,13,12,11,,,,,,,,,1.10,0.61,0.91*14
$GPGSV,4,1,15,07,84,120,36.1,25,67,043,35.9,04,52,247,35.8,13,50,031,*6D
$GPGSV,4,2,15,08,47,207,35.5,50,45,136,,02,33,300,35.2,23,28,057,34.9*6A
$GPGSV,4,3,15,20,23,121,34.9,27,18,219,34.5,16,01,039,,10,01,310,*7F
$GPGSV,4,4,15,193,,,,194,,,,195,,,*47
$GLGSV,2,1,7,87,61,299,34.3,77,55,328,34.5,86,34,025,34.0,88,20,243,33.4*5E
$GLGSV,2,2,7,75,12,153,33.0,78,06,331,33.0,71,01,082,*61
$BDGSV,3,1,9,02,50,173,30.4,13,49,203,32.3,01,38,122,30.4,09,37,287,31.8*5C
$BDGSV,3,2,9,06,37,216,,04,36,126,,11,18,131,31.5,12,10,061,30.9*51
$BDGSV,3,3,9,14,09,165,*6F
$GNRMC,000109.000,A,3000.1256,N,12000.0291,E,75.523,25.42,230721,,,A*40
$GNVTG,25.42,T,,M,75.523,N,139.945,K,A*27
$PMTKGEPH,9,0,1,0,1,0,0,1,1,0,0,0,0,1,0,0,0,0,0,0,1,0,0,1,0,1,0,1,0,0,0,0,0*0C
$PMTKGALM,31,1,1,1,1,1,1,1,1,1,1,1,1,1,1,1,1,1,1,1,1,1,1,1,1,1,1,1,1,1,1,1,0*2A
$GNACCURACY,1.4,0.2,0.2,16.9*2F
$PMTKAGC,000109.000,2933,2911,5797,5804,0,3,0*67
$PMTKAG2,000109.000,5,0120,0,0,0,0,0,0,0,0,0,0,0,0*3A
$GNGGA,000110.000,3000.1442,N,12000.0409,E,1,18,0.61,-5.7,M,7.0,M,,*6A
$GPGSA,A,3,08,07,25,20,04,27,23,02,,,,,1.10,0.61,0.91*05
$GLGSA,A,3,77,86,75,88,87,78,,,,,,,1.10,0.61,0.91*1D
$BDGSA,A,3,09,13,12,11,,,,,,,,,1.10,0.61,0.91*14
$GPGSV,4,1,15,07,84,120,36.2,25,67,043,35.9,04,52,247,35.8,13,50,031,*6E
$GPGSV,4,2,15,08,47,207,35.5,02,33,300,35.2,23,28,057,34.9,20,23,121,34.8*7A
$GPGSV,4,3,15,44,22,250,,27,18,219,34.5,16,01,039,,10,01,310,*69
$GPGSV,4,4,15,193,,,,194,,,,195,,,*47
$GLGSV,2,1,7,87,61,299,34.3,77,55,328,34.5,86,34,025,34.0,88,20,243,33.4*5E
$GLGSV,2,2,7,75,12,153,33.0,78,06,331,33.0,71,01,082,*61
$BDGSV,3,1,9,02,50,173,30.4,13,49,203,32.2,01,38,122,30.4,09,37,287,31.9*5C
$BDGSV,3,2,9,06,37,216,,04,36,126,,11,18,131,31.5,12,10,061,30.9*51
$BDGSV,3,3,9,14,09,165,*6F
$GNRMC,000110.000,A,3000.1442,N,12000.0409,E,75.523,29.87,230721,,,A*49
$GNVTG,29.87,T,,M,75.523,N,139.943,K,A*24
$PMTKGEPH,9,0,1,0,1,0,0,1,1,0,0,0,0,1,0,0,0,0,0,0,1,0,0,1,0,1,0,1,0,0,0,0,0*0C
$PMTKGALM,31,1,1,1,1,1,1,1,1,1,1,1,1,1,1,1,1,1,1,1,1,1,1,1,1,1,1,1,1,1,1,1,0*2A
$GNACCURACY,1.4,0.2,0.2,17.3*24
$PMTKAGC,000110.000,3061,2791,5875,5794,0,3,0*63
$PMTKAG2,000110.000,5,0120,0,0,0,0,0,0,0,0,0,0,0,0*32
$GNGGA,000111.000,3000.1619,N,12000.0544,E,1,18,0.61,-5.8,M,7.0,M,,*60
$GPGSA,A,3,08,07,25,20,04,27,23,02,,,,,1.10,0.61,0.91*05
$GLGSA,A,3,77,86,75,88,87,78,,,,,,,1.10,0.61,0.91*1D
$BDGSA,A,3,09,13,12,11,,,,,,,,,1.10,0.61,0.91*14
$GPGSV,4,1,15,07,84,120,36.1,25,67,043,35.9,04,52,247,35.8,13,50,031,*6D
$GPGSV,4,2,15,08,47,207,35.5,02,33,300,35.2,23,28,057,34.9,20,23,121,34.8*7A
$GPGSV,4,3,15,44,22,250,,27,18,219,34.5,16,01,039,,10,01,310,*69
$GPGSV,4,4,15,193,,,,194,,,,195,,,*47
$GLGSV,2,1,7,87,61,299,34.3,77,55,328,34.5,86,34,025,34.0,88,20,243,33.4*5E
$GLGSV,2,2,7,75,12,153,33.0,78,06,331,33.0,71,01,082,*61
$BDGSV,3,1,9,02,50,173,30.6,13,49,203,32.3,01,38,122,30.5,09,37,287,31.9*5E
$BDGSV,3,2,9,06,37,216,,04,36,126,,11,18,131,31.4,12,10,061,31.0*58
$BDGSV,3,3,9,14,09,165,*6F
$GNRMC,000111.000,A,3000.1619,N,12000.0544,E,75.525,34.31,230721,,,A*4B
$GNVTG,34.31,T,,M,75.525,N,139.948,K,A*28
$PMTKGEPH,9,0,1,0,1,0,0,1,1,0,0,0,0,1,0,0,0,0,0,0,1,0,0,1,0,1,0,1,0,0,0,0,0*0C
$PMTKGALM,31,1,1,1,1,1,1,1,1,1,1,1,1,1,1,1,1,1,1,1,1,1,1,1,1,1,1,1,1,1,1,1,0*2A
$GNACCURACY,1.4,0.2,0.2,17.0*27
$PMTKAGC,000111.000,3072,2768,5685,5866,0,3,0*65
$PMTKAG2,000111.000,5,0120,0,0,0,0,0,0,0,0,0,0,0,0*33
$GNGGA,000112.000,3000.1788,N,12000.0694,E,1,18,0.61,-5.8,M,7.0,M,,*64
$GPGSA,A,3,08,07,25,20,04,27,23,02,,,,,1.10,0.61,0.91*05
$GLGSA,A,3,77,86,75,88,87,78,,,,,,,1.10,0.61,0.91*1D
$BDGSA,A,3,09,13,12,11,,,,,,,,,1.10,0.61,0.91*14
$GPGSV,4,1,15,07,84,120,36.1,25,67,043,35.9,04,52,247,35.8,13,50,031,*6D
$GPGSV,4,2,15,08,47,207,35.5,02,33,300,35.1,23,28,057,34.9,20,23,121,34.8*79
$GPGSV,4,3,15,44,22,250,,27,18,219,34.5,16,01,039,,10,01,310,*69
$GPGSV,4,4,15,193,,,,194,,,,195,,,*47
$GLGSV,2,1,7,87,61,299,34.2,77,55,328,34.5,86,34,025,34.0,88,20,243,33.3*58
$GLGSV,2,2,7,75,12,153,32.9,78,06,331,33.1,71,01,082,*68
$BDGSV,3,1,9,02,50,173,30.5,13,49,203,32.3,01,38,122,30.5,09,37,287,31.8*5C
$BDGSV,3,2,9,06,37,216,,04,36,126,,11,18,131,31.5,12,10,061,30.9*51
$BDGSV,3,3,9,14,09,165,*6F
$GNRMC,000112.000,A,3000.1788,N,12000.0694,E,75.525,38.79,230721,,,A*4F
$GNVTG,38.79,T,,M,75.525,N,139.947,K,A*27
$PMTKGEPH,9,0,1,0,1,0,0,1,1,0,0,0,0,1,0,0,0,0,0,0,1,0,0,1,0,1,0,1,0,0,0,0,0*0C
$PMTKGALM,31,1,1,1,1,1,1,1,1,1,1,1,1,1,1,1,1,1,1,1,1,1,1,1,1,1,1,1,1,1,1,1,0*2A
$GNACCURACY,1.4,0.2,0.2,17.3*24
$PMTKAGC,000112.000,2940,3016,5611,5809,0,3,0*64
$PMTKAG2,000112.000,5,0120,0,0,0,0,0,0,0,0,0,0,0,0*30
$GNGGA,000113.000,3000.1945,N,12000.0859,E,1,18,0.61,-5.9,M,7.0,M,,*64
$GPGSA,A,3,08,07,25,20,04,27,23,02,,,,,1.10,0.61,0.91*05
$GLGSA,A,3,77,86,75,88,87,78,,,,,,,1.10,0.61,0.91*1D
$BDGSA,A,3,09,13,12,11,,,,,,,,,1.10,0.61,0.91*14
$GPGSV,4,1,15,07,84,120,36.2,25,67,043,35.9,04,52,247,35.8,13,50,031,*6E
$GPGSV,4,2,15,08,47,207,35.5,02,33,300,35.1,23,28,057,34.9,20,23,121,34.9*78
$GPGSV,4,3,15,44,22,250,,27,18,219,34.5,16,01,039,,10,01,310,*69
$GPGSV,4,4,15,193,,,,194,,,,195,,,*47
$GLGSV,2,1,7,87,61,299,34.3,77,55,328,34.5,86,34,025,33.9,88,20,243,33.3*57
$GLGSV,2,2,7,75,12,153,32.9,78,06,331,33.1,71,01,082,*68
$BDGSV,3,1,9,02,50,173,30.5,13,49,203,32.3,01,38,122,30.5,09,37,287,31.8*5C
$BDGSV,3,2,9,06,37,216,,04,36,126,,11,18,131,31.5,12,10,061,30.9*51
$BDGSV,3,3,9,14,09,165,*6F
$GNRMC,000113.000,A,3000.1945,N,12000.0859,E,75.533,43.23,230721,,,A*4A
$GNVTG,43.23,T,,M,75.533,N,139.963,K,A*25
$PMTKGEPH,9,0,1,0,1,0,0,1,1,0,0,0,0,1,0,0,0,0,0,0,1,0,0,1,0,1,0,1,0,0,0,0,0*0C
$PMTKGALM,31,1,1,1,1,1,1,1,1,1,1,1,1,1,1,1,1,1,1,1,1,1,1,1,1,1,1,1,1,1,1,1,0*2A
$GNACCURACY,1.4,0.2,0.2,17.1*26
$PMTKAGC,000113.000,2905,2828,5861,5741,0,3,0*6A
$PMTKAG2,000113.000,5,0120,0,0,0,0,0,0,0,0,0,0,0,0*31
$GNGGA,000114.000,3000.2091,N,12000.1037,E,1,18,0.61,-5.9,M,7.0,M,,*61
$GPGSA,A,3,08,07,25,20,04,27,23,02,,,,,1.10,0.61,0.91*05
$GLGSA,A,3,77,86,75,88,87,78,,,,,,,1.10,0.61,0.91*1D
$BDGSA,A,3,09,13,12,11,,,,,,,,,1.10,0.61,0.91*14
$GPGSV,4,1,15,07,84,120,36.2,25,67,043,35.9,04,52,247,35.8,13,50,031,*6E
$GPGSV,4,2,15,08,47,207,35.5,02,33,300,35.1,23,28,057,34.9,20,23,121,34.9*78
$GPGSV,4,3,15,44,22,250,,27,18,219,34.5,16,01,039,,10,01,310,*69
$GPGSV,4,4,15,193,,,,194,,,,195,,,*47
$GLGSV,2,1,7,87,61,299,34.3,77,55,328,34.5,86,34,025,33.9,88,20,243,33.3*57
$GLGSV,2,2,7,75,12,153,32.9,78,06,331,33.1,71,01,082,*68
$BDGSV,3,1,9,02,50,173,30.6,13,49,203,32.3,01,38,122,30.5,09,37,287,31.8*5F
$BDGSV,3,2,9,06,37,216,,04,36,126,,11,18,131,31.5,12,10,061,30.9*51
$BDGSV,3,3,9,14,09,165,*6F
$GNRMC,000114.000,A,3000.2091,N,12000.1037,E,75.533,47.69,230721,,,A*45
$GNVTG,47.69,T,,M,75.533,N,139.962,K,A*2E
$PMTKGEPH,9,0,1,0,1,0,0,1,1,0,0,0,0,1,0,0,0,0,0,0,1,0,0,1,0,1,0,1,0,0,0,0,0*0C
$PMTKGALM,31,1,1,1,1,1,1,1,1,1,1,1,1,1,1,1,1,1,1,1,1,1,1,1,1,1,1,1,1,1,1,1,0*2A
$GNACCURACY,1.3,0.2,0.2,17.4*24
$PMTKAGC,000114.000,2820,2963,5604,5749,0,3,0*60
$PMTKAG2,000114.000,5,0120,0,0,0,0,0,0,0,0,0,0,0,0*36
$GNGGA,000115.000,3000.2225,N,12000.1228,E,1,18,0.61,-5.9,M,7.0,M,,*61
$GPGSA,A,3,08,07,25,20,04,27,23,02,,,,,1.10,0.61,0.91*05
$GLGSA,A,3,77,86,75,88,87,78,,,,,,,1.10,0.61,0.91*1D
$BDGSA,A,3,09,13,12,11,,,,,,,,,1.10,0.61,0.91*14
$GPGSV,4,1,15,07,84,120,36.1,25,67,043,35.9,04,52,247,35.8,13,50,031,*6D
$GPGSV,4,2,15,08,47,207,35.5,02,33,300,35.1,23,28,057,34.9,20,23,121,34.9*78
$GPGSV,4,3,15,44,22,250,,27,18,219,34.5,16,01,039,,10,01,310,*69
$GPGSV,4,4,15,193,,,,194,,,,195,,,*47
$GLGSV,2,1,7,87,61,299,34.2,77,55,328,34.5,86,34,025,33.9,88,20,243,33.4*51
$GLGSV,2,2,7,75,12,153,32.8,78,06,331,33.1,71,01,082,*69
$BDGSV,3,1,9,02,50,173,30.5,13,49,203,32.2,01,38,122,30.5,09,37,287,31.8*5D
$BDGSV,3,2,9,06,37,216,,04,36,126,,11,18,131,31.5,12,10,061,30.9*51
$BDGSV,3,3,9,14,09,165,*6F
$GNRMC,000115.000,A,3000.2225,N,12000.1228,E,75.534,52.11,230721,,,A*49
$GNVTG,52.11,T,,M,75.534,N,139.964,K,A*24
$PMTKGEPH,9,0,1,0,1,0,0,1,1,0,0,0,0,1,0,0,0,0,0,0,1,0,0,1,0,1,0,1,0,0,0,0,0*0C
$PMTKGALM,31,1,1,1,1,1,1,1,1,1,1,1,1,1,1,1,1,1,1,1,1,1,1,1,1,1,1,1,1,1,1,1,0*2A
$GNACCURACY,1.4,0.2,0.2,17.3*24
$PMTKAGC,000115.000,2993,3130,5739,5750,0,3,0*60
$PMTKAG2,000115.000,5,0121,0,0,0,0,0,0,0,0,0,0,0,0*36
$GNGGA,000116.000,3000.2345,N,12000.1431,E,1,19,0.60,-6.0,M,7.0,M,,*61
$GPGSA,A,3,08,07,25,20,04,27,23,02,13,,,,1.08,0.60,0.89*06
$GLGSA,A,3,77,86,75,88,87,78,,,,,,,1.08,0.60,0.89*1C
$BDGSA,A,3,09,13,12,11,,,,,,,,,1.08,0.60,0.89*15
$GPGSV,4,1,15,07,84,120,36.1,25,67,043,35.9,04,52,247,35.9,13,50,031,35.4*70
$GPGSV,4,2,15,08,47,207,35.4,02,33,300,35.1,23,28,057,34.9,20,23,121,34.9*79
$GPGSV,4,3,15,44,22,250,,27,18,219,34.6,16,01,039,,10,01,310,*6A
$GPGSV,4,4,15,193,,,,194,,,,195,,,*47
$GLGSV,2,1,7,87,61,299,34.2,77,55,328,34.5,86,34,025,33.9,88,20,243,33.3*56
$GLGSV,2,2,7,75,12,153,32.9,78,06,331,33.0,71,01,082,*69
$BDGSV,3,1,9,02,50,173,30.5,13,49,203,32.1,01,38,122,30.5,09,37,287,31.7*51
$BDGSV,3,2,9,06,37,216,,04,36,126,,11,18,131,31.5,12,10,061,30.9*51
$BDGSV,3,3,9,14,09,165,*6F
$GNRMC,000116.000,A,3000.2345,N,12000.1431,E,75.536,56.63,230721,,,A*40
$GNVTG,56.63,T,,M,75.536,N,139.969,K,A*2A
$PMTKGEPH,9,0,1,0,1,0,0,1,1,0,0,0,0,1,0,0,0,0,0,0,1,0,0,1,0,1,0,1,0,0,0,0,0*0C
$PMTKGALM,31,1,1,1,1,1,1,1,1,1,1,1,1,1,1,1,1,1,1,1,1,1,1,1,1,1,1,1,1,1,1,1,0*2A
$GNACCURACY,1.4,0.2,0.2,17.3*24
$PMTKAGC,000116.000,3039,3008,5775,5885,0,3,0*6E
$PMTKAG2,000116.000,5,0120,0,0,0,0,0,0,0,0,0,0,0,0*34
$GNGGA,000117.000,3000.2451,N,12000.1644,E,1,19,0.60,-6.2,M,7.0,M,,*60
$GPGSA,A,3,08,07,25,20,04,27,23,02,13,,,,1.08,0.60,0.90*0E
$GLGSA,A,3,77,86,75,88,87,78,,,,,,,1.08,0.60,0.90*14
$BDGSA,A,3,09,13,12,11,,,,,,,,,1.08,0.60,0.90*1D
$GPGSV,4,1,15,07,84,120,36.1,25,67,043,35.9,04,52,247,35.9,13,50,031,35.8*7C
$GPGSV,4,2,15,08,47,207,35.5,02,33,300,35.0,23,28,057,34.9,20,23,121,34.9*79
$GPGSV,4,3,15,44,22,250,,27,18,219,34.5,16,01,039,,10,01,310,*69
$GPGSV,4,4,15,193,,,,194,,,,195,,,*47
$GLGSV,2,1,7,87,61,299,34.3,77,55,328,34.5,86,34,025,33.9,88,20,243,33.3*57
$GLGSV,2,2,7,75,12,153,32.9,78,06,331,33.1,71,01,082,*68
$BDGSV,3,1,9,02,50,173,30.6,13,49,203,32.2,01,38,122,30.5,09,37,287,31.8*5E
$BDGSV,3,2,9,06,37,216,,04,36,126,,11,18,131,31.5,12,10,061,30.9*51
$BDGSV,3,3,9,14,09,165,*6F
$GNRMC,000117.000,A,3000.2451,N,12000.1644,E,75.536,61.02,230721,,,A*40
$GNVTG,61.02,T,,M,75.536,N,139.968,K,A*28
$PMTKGEPH,9,0,1,0,1,0,0,1,1,0,0,0,0,1,0,0,0,0,0,0,1,0,0,1,0,1,0,1,0,0,0,0,0*0C
$PMTKGALM,31,1,1,1,1,1,1,1,1,1,1,1,1,1,1,1,1,1,1,1,1,1,1,1,1,1,1,1,1,1,1,1,0*2A
$GNACCURACY,1.3,0.2,0.2,16.9*28
$PMTKAGC,000117.000,2955,2849,5827,5770,0,3,0*6C
$PMTKAG2,000117.000,5,0120,0,0,0,0,0,0,0,0,0,0,0,0*35
$GNGGA,000118.000,3000.2543,N,12000.1866,E,1,19,0.60,-6.3,M,7.0,M,,*62
$GPGSA,A,3,08,07,25,20,04,27,23,02,13,,,,1.08,0.60,0.90*0E
$GLGSA,A,3,77,86,75,88,87,78,,,,,,,1.08,0.60,0.90*14
$BDGSA,A,3,09,13,12,11,,,,,,,,,1.08,0.60,0.90*1D
$GPGSV,4,1,15,07,84,120,36.1,25,67,043,35.9,04,52,247,35.9,13,50,031,35.9*7D
$GPGSV,4,2,15,08,47,207,35.4,02,33,300,35.0,23,28,057,35.0,20,23,121,34.9*70
$GPGSV,4,3,15,44,22,250,,27,18,219,34.6,16,01,039,,10,01,310,*6A
$GPGSV,4,4,15,193,,,,194,,,,195,,,*47
$GLGSV,2,1,7,87,61,299,34.1,77,55,328,34.5,86,34,025,34.0,88,20,243,33.3*5B
$GLGSV,2,2,7,75,12,153,32.9,78,06,331,33.1,71,01,082,*68
$BDGSV,3,1,9,02,50,173,30.5,13,49,203,32.2,01,38,122,30.5,09,37,287,31.8*5D
$BDGSV,3,2,9,06,37,216,,04,36,126,,11,18,131,31.5,12,10,061,30.9*51
$BDGSV,3,3,9,14,09,165,*6F
$GNRMC,000118.000,A,3000.2543,N,12000.1866,E,75.537,65.50,230721,,,A*41
$GNVTG,65.50,T,,M,75.537,N,139.970,K,A*23
$PMTKGEPH,9,0,1,0,1,0,0,1,1,0,0,0,0,1,0,0,0,0,0,0,1,0,0,1,0,1,0,1,0,0,0,0,0*0C
$PMTKGALM,31,1,1,1,1,1,1,1,1,1,1,1,1,1,1,1,1,1,1,1,1,1,1,1,1,1,1,1,1,1,1,1,0*2A
$GNACCURACY,1.3,0.2,0.2,17.1*21
$PMTKAGC,000118.000,2788,3146,5892,5804,0,3,0*68
$PMTKAG2,000118.000,5,0120,0,0,0,0,0,0,0,0,0,0,0,0*3A
$GNGGA,000119.000,3000.2619,N,12000.2096,E,1,19,0.60,-6.3,M,7.0,M,,*6B
$GPGSA,A,3,08,07,25,20,04,27,23,02,13,,,,1.08,0.60,0.90*0E
$GLGSA,A,3,77,86,75,88,87,78,,,,,,,1.08,0.60,0.90*14
$BDGSA,A,3,09,13,12,11,,,,,,,,,1.08,0.60,0.90*1D
$GPGSV,4,1,15,07,84,120,36.1,25,67,043,36.0,04,52,247,35.8,13,50,031,35.1*7E
$GPGSV,4,2,15,08,47,207,35.4,02,33,300,35.0,23,28,057,35.0,20,23,121,34.9*70
$GPGSV,4,3,15,40,20,251,,27,18,219,34.5,16,01,039,,10,01,310,*6E
$GPGSV,4,4,15,193,,,,194,,,,195,,,*47
$GLGSV,2,1,7,87,61,299,34.1,77,55,328,34.6,86,34,025,34.0,88,20,243,33.3*58
$GLGSV,2,2,7,75,12,153,33.0,78,06,331,33.1,71,01,082,*60
$BDGSV,3,1,9,02,50,173,30.5,13,49,203,32.2,01,38,122,30.5,09,37,287,31.8*5D
$BDGSV,3,2,9,06,37,216,,04,36,126,,11,18,131,31.5,12,10,061,30.9*51
$BDGSV,3,3,9,14,09,165,*6F
$GNRMC,000119.000,A,3000.2619,N,12000.2096,E,75.539,69.96,230721,,,A*40
$GNVTG,69.96,T,,M,75.539,N,139.974,K,A*2F
$PMTKGEPH,9,0,1,0,1,0,0,1,1,0,0,0,0,1,0,0,0,0,0,0,1,0,0,1,0,1,0,1,0,0,0,0,0*0C
$PMTKGALM,31,1,1,1,1,1,1,1,1,1,1,1,1,1,1,1,1,1,1,1,1,1,1,1,1,1,1,1,1,1,1,1,0*2A
$GNACCURACY,1.3,0.2,0.2,17.0*20
$PMTKAGC,000119.000,3011,2818,5761,5804,0,3,0*6F
$PMTKAG2,000119.000,5,0120,0,0,0,0,0,0,0,0,0,0,0,0*3B
$GNGGA,000120.000,3000.2680,N,12000.2332,E,1,19,0.60,-6.3,M,7.0,M,,*6C
$GPGSA,A,3,08,07,25,20,04,27,23,02,13,,,,1.08,0.60,0.90*0E
$GLGSA,A,3,77,86,75,88,87,78,,,,,,,1.08,0.60,0.90*14
$BDGSA,A,3,09,13,12,11,,,,,,,,,1.08,0.60,0.90*1D
$GPGSV,4,1,15,07,84,120,36.1,25,67,043,36.0,04,52,247,35.8,13,50,031,35.3*7C
$GPGSV,4,2,15,08,47,207,35.4,02,33,300,35.0,23,28,057,34.9,20,23,121,34.9*78
$GPGSV,4,3,15,40,20,251,,27,18,219,34.6,16,01,039,,10,01,310,*6D
$GPGSV,4,4,15,193,,,,194,,,,195,,,*47
$GLGSV,2,1,7,87,61,299,34.1,77,55,328,34.6,86,34,025,34.0,88,20,243,33.3*58
$GLGSV,2,2,7,75,12,153,33.0,78,06,331,33.2,71,01,082,*63
$BDGSV,3,1,9,02,50,173,30.6,13,49,203,32.2,01,38,122,30.6,09,37,287,31.9*5C
$BDGSV,3,2,9,06,37,216,,04,36,126,,11,18,131,31.4,12,10,061,30.9*50
$BDGSV,3,3,9,14,09,165,*6F
$GNRMC,000120.000,A,3000.2680,N,12000.2332,E,75.537,74.41,230721,,,A*4F
$GNVTG,74.41,T,,M,75.537,N,139.971,K,A*22
$PMTKGEPH,9,0,1,0,1,0,0,1,1,0,0,0,0,1,0,0,0,0,0,0,1,0,0,1,0,1,0,1,0,0,0,0,0*0C
$PMTKGALM,31,1,1,1,1,1,1,1,1,1,1,1,1,1,1,1,1,1,1,1,1,1,1,1,1,1,1,1,1,1,1,1,0*2A
$GNACCURACY,1.3,0.2,0.2,17.2*22
$PMTKAGC,000120.000,2786,2957,5887,5869,0,3,0*6B
$PMTKAG2,000120.000,5,0120,0,0,0,0,0,0,0,0,0,0,0,0*31
$GNGGA,000121.000,3000.2725,N,12000.2572,E,1,19,0.60,-6.3,M,7.0,M,,*61
$GPGSA,A,3,08,07,25,20,04,27,23,02,13,,,,1.08,0.60,0.90*0E
$GLGSA,A,3,77,86,75,88,87,78,,,,,,,1.08,0.60,0.90*14
$BDGSA,A,3,09,13,12,11,,,,,,,,,1.08,0.60,0.90*1D
$GPGSV,4,1,15,07,84,120,36.1,25,67,043,36.0,04,52,247,35.8,13,50,031,35.1*7E
$GPGSV,4,2,15,08,47,207,35.4,02,33,300,35.0,23,28,057,34.9,20,23,121,34.8*79
$GPGSV,4,3,15,40,20,251,,27,18,219,34.6,16,01,039,,10,01,310,*6D
$GPGSV,4,4,15,193,,,,194,,,,195,,,*47
$GLGSV,2,1,7,87,61,299,34.1,77,55,328,34.6,86,34,025,34.1,88,20,243,33.3*59
$GLGSV,2,2,7,75,12,153,32.9,78,06,331,33.1,71,01,082,*68
$BDGSV,3,1,9,02,50,173,30.6,13,49,203,32.2,01,38,122,30.5,09,37,287,31.8*5E
$BDGSV,3,2,9,06,37,216,,04,36,126,,11,18,131,31.4,12,10,061,30.9*50
$BDGSV,3,3,9,14,09,165,*6F
$GNRMC,000121.000,A,3000.2725,N,12000.2572,E,75.538,78.86,230721,,,A*4A
$GNVTG,78.86,T,,M,75.538,N,139.972,K,A*29
$PMTKGEPH,9,0,1,0,1,0,0,1,1,0,0,0,0,1,0,0,0,0,0,0,1,0,0,1,0,1,0,1,0,0,0,0,0*0C
$PMTKGALM,31,1,1,1,1,1,1,1,1,1,1,1,1,1,1,1,1,1,1,1,1,1,1,1,1,1,1,1,1,1,1,1,0*2A
$GNACCURACY,1.3,0.2,0.2,17.2*22
$PMTKAGC,000121.000,2811,2982,5822,5791,0,3,0*64
$PMTKAG2,000121.000,5,0120,0,0,0,0,0,0,0,0,0,0,0,0*30
$GNGGA,000122.000,3000.2753,N,12000.2816,E,1,19,0.60,-6.3,M,7.0,M,,*6C
$GPGSA,A,3,08,07,25,20,04,27,23,02,13,,,,1.08,0.60,0.90*0E
$GLGSA,A,3,77,86,75,88,87,78,,,,,,,1.08,0.60,0.90*14
$BDGSA,A,3,09,13,12,11,,,,,,,,,1.08,0.60,0.90*1D
$GPGSV,4,1,15,07,84,120,36.2,25,67,043,36.0,04,52,247,35.8,13,50,031,35.7*7B
$GPGSV,4,2,15,08,47,207,35.4,02,33,300,35.0,23,28,057,34.9,20,23,121,34.8*79
$GPGSV,4,3,15,40,20,251,,27,18,219,34.6,16,01,039,,10,01,310,*6D
$GPGSV,4,4,15,193,,,,194,,,,195,,,*47
$GLGSV,2,1,7,87,61,299,34.2,77,55,328,34.6,86,34,025,34.1,88,20,243,33.3*5A
$GLGSV,2,2,7,75,12,153,32.9,78,06,331,33.1,71,01,082,*68
$BDGSV,3,1,9,02,50,173,30.5,13,49,203,32.3,01,38,122,30.5,09,37,287,31.7*53
$BDGSV,3,2,9,06,37,216,,04,36,126,,11,18,131,31.4,12,10,061,30.9*50
$BDGSV,3,3,9,14,09,165,*6F
$GNRMC,000122.000,A,3000.2753,N,12000.2816,E,75.538,83.32,230721,,,A*4C
$GNVTG,83.32,T,,M,75.538,N,139.972,K,A*22
$PMTKGEPH,9,0,1,0,1,0,0,1,1,0,0,0,0,1,0,0,0,0,0,0,1,0,0,1,0,1,0,1,0,0,0,0,0*0C
$PMTKGALM,31,1,1,1,1,1,1,1,1,1,1,1,1,1,1,1,1,1,1,1,1,1,1,1,1,1,1,1,1,1,1,1,0*2A
$GNACCURACY,1.3,0.2,0.2,17.5*25
$PMTKAGC,000122.000,3043,2678,5817,5792,0,3,0*66
$PMTKAG2,000122.000,5,0119,0,0,0,0,0,0,0,0,0,0,0,0*39
$GNGGA,000123.000,3000.2765,N,12000.3062,E,1,19,0.60,-6.3,M,7.0,M,,*62
$GPGSA,A,3,08,07,25,20,04,27,23,02,13,,,,1.08,0.60,0.90*0E
$GLGSA,A,3,77,86,75,88,87,78,,,,,,,1.08,0.60,0.90*14
$BDGSA,A,3,09,13,12,11,,,,,,,,,1.08,0.60,0.90*1D
$GPGSV,4,1,15,07,84,120,36.2,25,67,043,36.0,04,52,247,35.8,13,50,031,36.1*7E
$GPGSV,4,2,15,08,47,207,35.3,02,33,300,35.1,23,28,057,34.9,20,23,121,34.8*7F
$GPGSV,4,3,15,40,20,251,,27,18,219,34.6,16,01,039,,10,01,310,*6D
$GPGSV,4,4,15,193,,,,194,,,,195,,,*47
$GLGSV,2,1,7,87,61,299,34.1,77,55,328,34.6,86,34,025,34.1,88,20,243,33.2*58
$GLGSV,2,2,7,75,12,153,32.8,78,06,331,33.0,71,01,081,*6B
$BDGSV,3,1,9,02,50,173,30.6,13,49,203,32.3,01,38,122,30.6,09,37,287,31.7*53
$BDGSV,3,2,9,06,37,216,,04,36,126,,11,18,131,31.5,12,10,061,31.0*59
$BDGSV,3,3,9,14,09,165,*6F
$GNRMC,000123.000,A,3000.2765,N,12000.3062,E,75.537,87.78,230721,,,A*47
$GNVTG,87.78,T,,M,75.537,N,139.969,K,A*2D
$PMTKGEPH,9,0,1,0,1,0,0,1,1,0,0,0,0,1,0,0,0,0,0,0,1,0,0,1,0,1,0,1,0,0,0,0,0*0C
$PMTKGALM,31,1,1,1,1,1,1,1,1,1,1,1,1,1,1,1,1,1,1,1,1,1,1,1,1,1,1,1,1,1,1,1,0*2A
$GNACCURACY,1.3,0.2,0.2,17.1*21
$PMTKAGC,000123.000,3102,2724,5797,5719,0,3,0*6F
$PMTKAG2,000123.000,5,0120,0,0,0,0,0,0,0,0,0,0,0,0*32
$GNGGA,000124.000,3000.2761,N,12000.3306,E,1,19,0.60,-6.4,M,7.0,M,,*67
$GPGSA,A,3,08,07,25,20,04,27,23,02,13,,,,1.08,0.60,0.90*0E
$GLGSA,A,3,77,86,75,88,87,78,,,,,,,1.08,0.60,0.90*14
$BDGSA,A,3,09,13,12,11,,,,,,,,,1.08,0.60,0.90*1D
$GPGSV,4,1,15,07,84,120,36.2,25,67,043,36.0,04,52,247,35.8,13,50,031,35.6*7A
$GPGSV,4,2,15,08,47,207,35.4,02,33,300,35.1,23,28,057,35.0,20,23,121,34.8*70
$GPGSV,4,3,15,40,20,251,,27,18,219,34.6,16,01,039,,10,01,310,*6D
$GPGSV,4,4,15,193,,,,194,,,,195,,,*47
$GLGSV,2,1,7,87,61,299,34.2,77,55,328,34.6,86,34,025,34.0,88,20,243,33.3*5B
$GLGSV,2,2,7,75,12,153,32.8,78,06,331,33.0,71,01,081,*6B
$BDGSV,3,1,9,02,50,173,30.5,13,49,203,32.3,01,38,122,30.5,09,37,287,31.7*53
$BDGSV,3,2,9,06,37,216,,04,36,126,,11,18,131,31.5,12,10,061,31.0*59
$BDGSV,3,3,9,14,09,165,*6F
$GNRMC,000124.000,A,3000.2761,N,12000.3306,E,75.537,92.24,230721,,,A*48
$GNVTG,92.24,T,,M,75.537,N,139.971,K,A*29
$PMTKGEPH,9,0,1,0,1,0,0,1,1,0,0,0,0,1,0,0,0,0,0,0,1,0,0,1,0,1,0,1,0,0,0,0,0*0C
$PMTKGALM,31,1,1,1,1,1,1,1,1,1,1,1,1,1,1,1,1,1,1,1,1,1,1,1,1,1,1,1,1,1,1,1,0*2A
$GNACCURACY,1.3,0.2,0.2,17.2*22
$PMTKAGC,000124.000,2934,2890,5803,5796,0,3,0*61
$PMTKAG2,000124.000,5,0120,0,0,0,0,0,0,0,0,0,0,0,0*35
$GNGGA,000125.000,3000.2739,N,12000.3551,E,1,19,0.60,-6.4,M,7.0,M,,*6F
$GPGSA,A,3,08,07,25,20,04,27,23,02,13,,,,1.08,0.60,0.90*0E
$GLGSA,A,3,77,86,75,88,87,78,,,,,,,1.08,0.60,0.90*14
$BDGSA,A,3,09,13,12,11,,,,,,,,,1.08,0.60,0.90*1D
$GPGSV,4,1,15,07,84,120,36.2,25,67,043,36.0,04,52,247,35.8,13,50,031,35.6*7A
$GPGSV,4,2,15,08,47,207,35.4,02,33,300,35.1,23,28,057,35.0,20,23,121,34.8*70
$GPGSV,4,3,15,40,20,251,,27,18,219,34.6,16,01,039,,10,01,310,*6D
$GPGSV,4,4,15,193,,,,194,,,,195,,,*47
$GLGSV,2,1,7,87,61,299,34.2,77,55,328,34.6,86,34,025,34.0,88,20,243,33.3*5B
$GLGSV,2,2,7,75,12,153,32.7,78,06,331,33.0,71,01,081,*64
$BDGSV,3,1,9,02,50,173,,13,49,203,32.3,01,38,122,30.5,09,37,287,31.6*4A
$BDGSV,3,2,9,06,37,216,,04,36,126,,11,18,131,31.5,12,10,061,31.0*59
$BDGSV,3,3,9,14,09,165,*6F
$GNRMC,000125.000,A,3000.2739,N,12000.3551,E,75.536,96.69,230721,,,A*4C
$GNVTG,96.69,T,,M,75.536,N,139.969,K,A*2C
$PMTKGEPH,9,0,1,0,1,0,0,1,1,0,0,0,0,1,0,0,0,0,0,0,1,0,0,1,0,1,0,1,0,0,0,0,0*0C
$PMTKGALM,31,1,1,1,1,1,1,1,1,1,1,1,1,1,1,1,1,1,1,1,1,1,1,1,1,1,1,1,1,1,1,1,0*2A
$GNACCURACY,1.3,0.2,0.2,17.1*21
$PMTKAGC,000125.000,3051,2875,5839,5809,0,3,0*60
$PMTKAG2,000125.000,5,0120,0,0,0,0,0,0,0,0,0,0,0,0*34
$GNGGA,000126.000,3000.2702,N,12000.3793,E,1,19,0.60,-6.4,M,7.0,M,,*68
$GPGSA,A,3,08,07,25,20,04,27,23,02,13,,,,1.08,0.60,0.90*0E
$GLGSA,A,3,77,86,75,88,87,78,,,,,,,1.08,0.60,0.90*14
$BDGSA,A,3,09,13,12,11,,,,,,,,,1.08,0.60,0.90*1D
$GPGSV,4,1,15,07,84,120,36.2,25,67,043,36.0,04,52,247,35.8,13,50,031,35.6*7A
$GPGSV,4,2,15,08,47,207,35.4,02,33,300,35.1,23,28,057,35.0,20,23,121,34.8*70
$GPGSV,4,3,15,40,20,251,,27,18,219,34.6,16,01,039,,10,01,310,*6D
$GPGSV,4,4,15,193,,,,194,,,,195,,,*47
$GLGSV,2,1,7,87,61,299,34.2,77,55,328,34.6,86,34,025,34.0,88,20,243,33.3*5B
$GLGSV,2,2,7,75,12,153,32.7,78,06,331,32.9,71,01,081,*6C
$BDGSV,3,1,9,02,50,173,,13,49,203,32.3,01,38,122,30.6,09,37,287,31.6*49
$BDGSV,3,2,9,06,37,216,,04,36,126,,11,18,131,31.5,12,10,061,31.0*59
$BDGSV,3,3,9,14,09,165,*6F
$GNRMC,000126.000,A,3000.2702,N,12000.3793,E,75.534,101.15,230721,,,A*7D
$GNVTG,101.15,T,,M,75.534,N,139.965,K,A*16
$PMTKGEPH,9,0,1,0,1,0,0,1,1,0,0,0,0,1,0,0,0,0,0,0,1,0,0,1,0,1,0,1,0,0,0,0,0*0C
$PMTKGALM,31,1,1,1,1,1,1,1,1,1,1,1,1,1,1,1,1,1,1,1,1,1,1,1,1,1,1,1,1,1,1,1,0*2A
$GNACCURACY,1.3,0.2,0.2,17.4*24
$PMTKAGC,000126.000,3109,2726,5707,5816,0,3,0*6A
$PMTKAG2,000126.000,5,0120,0,0,0,0,0,0,0,0,0,0,0,0*37
$GNGGA,000127.000,3000.2648,N,12000.4031,E,1,19,0.60,-6.4,M,7.0,M,,*6E
$GPGSA,A,3,08,07,25,20,04,27,23,02,13,,,,1.08,0.60,0.90*0E
$GLGSA,A,3,77,86,75,88,87,78,,,,,,,1.08,0.60,0.90*14
$BDGSA,A,3,09,13,12,11,,,,,,,,,1.08,0.60,0.90*1D
$GPGSV,4,1,15,07,84,120,36.2,25,67,043,36.0,04,52,247,35.8,13,50,031,35.5*79
$GPGSV,4,2,15,08,47,207,35.4,02,33,300,35.1,23,28,057,35.0,20,23,121,34.8*70
$GPGSV,4,3,15,40,20,251,,27,18,219,34.6,16,01,039,,10,01,310,*6D
$GPGSV,4,4,15,193,,,,194,,,,195,,,*47
$GLGSV,2,1,7,87,61,299,34.2,77,55,328,34.6,86,34,025,34.0,88,20,243,33.3*5B
$GLGSV,2,2,7,75,11,153,32.7,78,06,331,32.9,71,01,081,*6F
$BDGSV,3,1,9,02,50,173,,13,49,203,32.3,01,38,122,30.5,09,37,287,31.5*49
$BDGSV,3,2,9,06,37,216,,04,36,126,,11,18,131,31.5,12,10,061,31.0*59
$BDGSV,3,3,9,14,09,165,*6F
$GNRMC,000127.000,A,3000.2648,N,12000.4031,E,75.539,105.61,230721,,,A*71
$GNVTG,105.61,T,,M,75.539,N,139.974,K,A*1C
$PMTKGEPH,9,0,1,0,1,0,0,1,1,0,0,0,0,1,0,0,0,0,0,0,1,0,0,1,0,1,0,1,0,0,0,0,0*0C
$PMTKGALM,31,1,1,1,1,1,1,1,1,1,1,1,1,1,1,1,1,1,1,1,1,1,1,1,1,1,1,1,1,1,1,1,0*2A
$GNACCURACY,1.3,0.2,0.2,17.1*21
$PMTKAGC,000127.000,2945,3070,5884,5814,0,3,0*69
$PMTKAG2,000127.000,5,0120,0,0,0,0,0,0,0,0,0,0,0,0*36
$GNGGA,000128.000,3000.2578,N,12000.4263,E,1,19,0.60,-6.3,M,7.0,M,,*63
$GPGSA,A,3,08,07,25,20,04,27,23,02,13,,,,1.08,0.60,0.90*0E
$GLGSA,A,3,77,86,75,88,87,78,,,,,,,1.08,0.60,0.90*14
$BDGSA,A,3,09,13,12,11,,,,,,,,,1.08,0.60,0.90*1D
$GPGSV,4,1,15,07,84,120,36.2,25,67,043,36.0,04,52,247,35.7,13,50,031,35.5*76
$GPGSV,4,2,15,08,47,207,35.4,02,33,300,35.1,23,28,057,35.0,20,23,121,34.8*70
$GPGSV,4,3,15,27,18,219,34.6,16,01,039,,10,01,310,,193,,,*66
$GPGSV,4,4,15,194,,,,195,,,,34,,,*7B
$GLGSV,2,1,7,87,61,299,34.2,77,55,328,34.6,86,34,025,34.0,88,20,243,33.3*5B
$GLGSV,2,2,7,75,11,153,32.6,78,06,331,32.9,71,01,081,*6E
$BDGSV,3,1,9,02,50,173,,13,49,203,32.3,01,38,122,30.5,09,37,287,31.6*4A
$BDGSV,3,2,9,06,37,216,,04,36,126,,11,18,131,31.6,12,10,061,31.1*5B
$BDGSV,3,3,9,14,09,165,*6F
$GNRMC,000128.000,A,3000.2578,N,12000.4263,E,75.538,110.06,230721,,,A*7F
$GNVTG,110.06,T,,M,75.538,N,139.971,K,A*1D
$PMTKGEPH,9,0,1,0,1,0,0,1,1,0,0,0,0,1,0,0,0,0,0,0,1,0,0,1,0,1,0,1,0,0,0,0,0*0C
$PMTKGALM,31,1,1,1,1,1,1,1,1,1,1,1,1,1,1,1,1,1,1,1,1,1,1,1,1,1,1,1,1,1,1,1,0*2A
$GNACCURACY,1.3,0.2,0.2,17.4*24
$PMTKAGC,000128.000,3196,2857,5718,5892,0,3,0*69
$PMTKAG2,000128.000,5,0120,0,0,0,0,0,0,0,0,0,0,0,0*39
$GNGGA,000129.000,3000.2493,N,12000.4488,E,1,19,0.60,-6.3,M,7.0,M,,*65
$GPGSA,A,3,08,07,25,20,04,27,23,02,13,,,,1.08,0.60,0.90*0E
$GLGSA,A,3,77,86,75,88,87,78,,,,,,,1.08,0.60,0.90*14
$BDGSA,A,3,09,13,12,11,,,,,,,,,1.08,0.60,0.90*1D
$GPGSV,4,1,15,07,84,120,36.2,25,67,043,36.0,04,52,247,35.7,13,50,031,35.4*77
$GPGSV,4,2,15,08,47,207,35.4,02,33,300,35.1,23,28,057,35.0,20,23,121,34.8*70
$GPGSV,4,3,15,27,18,219,34.6,16,01,039,,10,01,310,,193,,,*66
$GPGSV,4,4,15,194,,,,195,,,,34,,,*7B
$GLGSV,2,1,7,87,61,299,34.2,77,56,328,34.5,86,34,025,34.0,88,20,243,33.3*5B
$GLGSV,2,2,7,75,11,153,32.6,78,06,331,32.9,71,01,081,*6E
$BDGSV,3,1,9,02,50,173,,13,49,203,32.3,01,38,122,30.6,09,37,287,31.6*49
$BDGSV,3,2,9,06,37,216,,04,36,126,,11,18,131,31.5,12,10,061,31.1*58
$BDGSV,3,3,9,14,09,165,*6F
$GNRMC,000129.000,A,3000.2493,N,12000.4488,E,75.538,114.52,230721,,,A*7C
$GNVTG,114.52,T,,M,75.538,N,139.972,K,A*1B
$PMTKGEPH,9,0,1,0,1,0,0,1,1,0,0,0,0,1,0,0,0,0,0,0,1,0,0,1,0,1,0,1,0,0,0,0,0*0C
$PMTKGALM,31,1,1,1,1,1,1,1,1,1,1,1,1,1,1,1,1,1,1,1,1,1,1,1,1,1,1,1,1,1,1,1,0*2A
$GNACCURACY,1.3,0.2,0.2,17.2*22
$PMTKAGC,000129.000,2951,2864,5787,5827,0,3,0*62
$PMTKAG2,000129.000,5,0120,0,0,0,0,0,0,0,0,0,0,0,0*38
$GNGGA,000130.000,3000.2392,N,12000.4705,E,1,19,0.60,-6.4,M,7.0,M,,*6A
$GPGSA,A,3,08,07,25,20,04,27,23,02,13,,,,1.08,0.60,0.90*0E
$GLGSA,A,3,77,86,75,88,87,78,,,,,,,1.08,0.60,0.90*14
$BDGSA,A,3,09,13,12,11,,,,,,,,,1.08,0.60,0.90*1D
$GPGSV,4,1,15,07,84,120,36.2,25,67,043,36.0,04,52,247,35.6,13,50,031,35.6*74
$GPGSV,4,2,15,08,47,207,35.3,02,33,300,35.1,23,28,057,35.0,20,23,121,34.9*76
$GPGSV,4,3,15,27,18,219,34.6,16,01,039,,10,01,310,,193,,,*66
$GPGSV,4,4,15,194,,,,195,,,,34,,,*7B
$GLGSV,2,1,7,87,61,299,34.1,77,56,328,34.6,86,34,025,34.0,88,20,243,33.3*5B
$GLGSV,2,2,7,75,11,153,32.6,78,07,331,32.8,71,01,081,*6E
$BDGSV,3,1,9,02,50,173,,13,49,203,32.3,01,38,122,30.5,09,37,287,31.6*4A
$BDGSV,3,2,9,06,37,216,,04,36,126,,11,18,131,31.6,12,10,061,31.1*5B
$BDGSV,3,3,9,14,09,165,*6F
$GNRMC,000130.000,A,3000.2392,N,12000.4705,E,75.537,118.98,230721,,,A*71
$GNVTG,118.98,T,,M,75.537,N,139.970,K,A*1C
$PMTKGEPH,9,0,1,0,1,0,0,1,1,0,0,0,0,1,0,0,0,0,0,0,1,0,0,1,0,1,0,1,0,0,0,0,0*0C
$PMTKGALM,31,1,1,1,1,1,1,1,1,1,1,1,1,1,1,1,1,1,1,1,1,1,1,1,1,1,1,1,1,1,1,1,0*2A
$GNACCURACY,1.3,0.2,0.2,17.5*25
$PMTKAGC,000130.000,3018,2933,5811,5722,0,3,0*66
$PMTKAG2,000130.000,5,0120,0,0,0,0,0,0,0,0,0,0,0,0*30
$GNGGA,000131.000,3000.2278,N,12000.4912,E,1,19,0.60,-6.4,M,7.0,M,,*66
$GPGSA,A,3,08,07,25,20,04,27,23,02,13,,,,1.08,0.60,0.90*0E
$GLGSA,A,3,77,86,75,88,87,78,,,,,,,1.08,0.60,0.90*14
$BDGSA,A,3,09,13,12,11,,,,,,,,,1.08,0.60,0.90*1D
$GPGSV,4,1,15,07,84,120,36.2,25,67,043,35.9,04,52,247,35.6,13,50,031,35.7*7F
$GPGSV,4,2,15,08,47,207,35.3,02,33,300,35.2,23,28,057,35.0,20,23,121,34.8*74
$GPGSV,4,3,15,27,18,219,34.6,16,01,039,,10,01,310,,193,,,*66
$GPGSV,4,4,15,194,,,,195,,,,34,,,*7B
$GLGSV,2,1,7,87,61,299,34.1,77,56,328,34.6,86,34,025,34.0,88,20,243,33.3*5B
$GLGSV,2,2,7,75,11,153,32.6,78,07,331,32.8,71,01,081,*6E
$BDGSV,3,1,9,02,50,173,,13,49,203,32.2,01,38,122,30.4,09,37,287,31.6*4A
$BDGSV,3,2,9,06,37,216,,04,36,126,,11,18,131,31.6,12,10,061,31.2*58
$BDGSV,3,3,9,14,09,165,*6F
$GNRMC,000131.000,A,3000.2278,N,12000.4912,E,75.537,123.43,230721,,,A*73
$GNVTG,123.43,T,,M,75.537,N,139.969,K,A*1A
$PMTKGEPH,9,0,1,0,1,0,0,1,1,0,0,0,0,1,0,0,0,0,0,0,1,0,0,1,0,1,0,1,0,0,0,0,0*0C
$PMTKGALM,31,1,1,1,1,1,1,1,1,1,1,1,1,1,1,1,1,1,1,1,1,1,1,1,1,1,1,1,1,1,1,1,0*2A
$GNACCURACY,1.3,0.2,0.2,17.3*23
$PMTKAGC,000131.000,2953,2935,5744,5774,0,3,0*6A
$PMTKAG2,000131.000,5,0120,0,0,0,0,0,0,0,0,0,0,0,0*31
$GNGGA,000132.000,3000.2149,N,12000.5108,E,1,19,0.60,-6.3,M,7.0,M,,*61
$GPGSA,A,3,08,07,25,20,04,27,23,02,13,,,,1.08,0.60,0.90*0E
$GLGSA,A,3,77,86,75,88,87,78,,,,,,,1.08,0.60,0.90*14
$BDGSA,A,3,09,13,12,11,,,,,,,,,1.08,0.60,0.90*1D
$GPGSV,4,1,15,07,84,120,36.2,25,67,043,35.9,04,52,247,35.6,13,50,031,35.7*7F
$GPGSV,4,2,15,08,47,207,35.3,02,33,300,35.2,23,28,057,35.0,20,23,121,34.8*74
$GPGSV,4,3,15,27,18,219,34.6,16,01,039,,10,01,310,,193,,,*66
$GPGSV,4,4,15,194,,,,195,,,,34,,,*7B
