$GPGGA,000357,3000.22551,N,12000.13843,E,3,32,1.03,-7.85,M,7.85,M,,*63
$GPRMC,000357,A,3000.22551,N,12000.13843,E,75.594,56.276,230721,0.000,E,A,V*63
$GLRMC,000357,A,3000.22551,N,12000.13843,E,75.594,56.276,230721,0.000,E,A,V*7F
$GLGLL,3000.22551,N,12000.13843,E,000357,A*3B
$GPGGA,000358,3000.23650,N,12000.15905,E,3,32,1.03,-7.86,M,7.86,M,,*6A
$GPRMC,000358,A,3000.23650,N,12000.15905,E,75.594,60.732,230721,0.000,E,A,V*6A
$GLRMC,000358,A,3000.23650,N,12000.15905,E,75.594,60.732,230721,0.000,E,A,V*76
$GLGLL,3000.23650,N,12000.15905,E,000358,A*32
$GPGGA,000359,3000.24607,N,12000.18058,E,3,32,1.03,-7.86,M,7.86,M,,*62
$GPRMC,000359,A,3000.24607,N,12000.18058,E,75.594,65.189,230721,0.000,E,A,V*61
$GLRMC,000359,A,3000.24607,N,12000.18058,E,75.594,65.189,230721,0.000,E,A,V*7D
$GLGLL,3000.24607,N,12000.18058,E,000359,A*3A
$GPGGA,000400,3000.25415,N,12000.20291,E,3,32,1.03,-7.86,M,7.86,M,,*65
$GPRMC,000400,A,3000.25415,N,12000.20291,E,75.594,69.645,230721,0.000,E,A,V*6D
$GLRMC,000400,A,3000.25415,N,12000.20291,E,75.594,69.645,230721,0.000,E,A,V*71
$GLGLL,3000.25415,N,12000.20291,E,000400,A*3D
$GPGGA,000401,3000.26070,N,12000.22588,E,3,32,1.03,-7.86,M,7.86,M,,*6D
$GPRMC,000401,A,3000.26070,N,12000.22588,E,75.594,74.102,230721,0.000,E,A,V*6D
$GLRMC,000401,A,3000.26070,N,12000.22588,E,75.594,74.102,230721,0.000,E,A,V*71
$GLGLL,3000.26070,N,12000.22588,E,000401,A*35
$GPGGA,000402,3000.26567,N,12000.24938,E,3,32,1.03,-7.86,M,7.86,M,,*6C
$GPRMC,000402,A,3000.26567,N,12000.24938,E,75.594,78.558,230721,0.000,E,A,V*6B
$GLRMC,000402,A,3000.26567,N,12000.24938,E,75.594,78.558,230721,0.000,E,A,V*77
$GLGLL,3000.26567,N,12000.24938,E,000402,A*34
$GPGGA,000403,3000.26904,N,12000.27324,E,3,32,1.03,-7.86,M,7.86,M,,*60
$GPRMC,000403,A,3000.26904,N,12000.27324,E,75.594,83.015,230721,0.000,E,A,V*6F
$GLRMC,000403,A,3000.26904,N,12000.27324,E,75.594,83.015,230721,0.000,E,A,V*73
$GLGLL,3000.26904,N,12000.27324,E,000403,A*38
$GPGGA,000404,3000.27079,N,12000.29734,E,3,32,1.03,-7.86,M,7.86,M,,*6E
$GPRMC,000404,A,3000.27079,N,12000.29734,E,75.594,87.471,230721,0.000,E,A,V*63
$GLRMC,000404,A,3000.27079,N,12000.29734,E,75.594,87.471,230721,0.000,E,A,V*7F
$GLGLL,3000.27079,N,12000.29734,E,000404,A*36
$GPGGA,000405,3000.27090,N,12000.32152,E,3,32,1.03,-7.86,M,7.86,M,,*64
$GPRMC,000405,A,3000.27090,N,12000.32152,E,75.594,91.928,230721,0.000,E,A,V*6F
$GLRMC,000405,A,3000.27090,N,12000.32152,E,75.594,91.928,230721,0.000,E,A,V*73
$GLGLL,3000.27090,N,12000.32152,E,000405,A*3C
$GPGGA,000406,3000.26938,N,12000.34563,E,3,32,1.03,-7.86,M,7.86,M,,*6D
$GPRMC,000406,A,3000.26938,N,12000.34563,E,75.594,96.384,230721,0.000,E,A,V*6D
$GLRMC,000406,A,3000.26938,N,12000.34563,E,75.594,96.384,230721,0.000,E,A,V*71
$GLGLL,3000.26938,N,12000.34563,E,000406,A*35
$GPGGA,000407,3000.26623,N,12000.36954,E,3,32,1.03,-7.86,M,7.86,M,,*63
$GPRMC,000407,A,3000.26623,N,12000.36954,E,75.594,100.841,230721,0.000,E,A,V*5F
$GLRMC,000407,A,3000.26623,N,12000.36954,E,75.594,100.841,230721,0.000,E,A,V*43
$GLGLL,3000.26623,N,12000.36954,E,000407,A*3B
$GPGGA,000408,3000.26147,N,12000.39309,E,3,32,1.03,-7.86,M,7.86,M,,*64
$GPRMC,000408,A,3000.26147,N,12000.39309,E,75.594,105.297,230721,0.000,E,A,V*5C
$GLRMC,000408,A,3000.26147,N,12000.39309,E,75.594,105.297,230721,0.000,E,A,V*40
$GLGLL,3000.26147,N,12000.39309,E,000408,A*3C
$GPGGA,000409,3000.25513,N,12000.41614,E,3,32,1.03,-7.86,M,7.86,M,,*65
$GPRMC,000409,A,3000.25513,N,12000.41614,E,75.594,109.754,230721,0.000,E,A,V*5B
$GLRMC,000409,A,3000.25513,N,12000.41614,E,75.594,109.754,230721,0.000,E,A,V*47
$GLGLL,3000.25513,N,12000.41614,E,000409,A*3D
$GPGGA,000410,3000.24726,N,12000.43857,E,3,32,1.03,-7.86,M,7.86,M,,*63
$GPRMC,000410,A,3000.24726,N,12000.43857,E,75.594,114.210,230721,0.000,E,A,V*54
$GLRMC,000410,A,3000.24726,N,12000.43857,E,75.594,114.210,230721,0.000,E,A,V*48
$GLGLL,3000.24726,N,12000.43857,E,000410,A*3B
$GPGGA,000411,3000.23789,N,12000.46022,E,3,32,1.03,-7.86,M,7.86,M,,*6F
$GPRMC,000411,A,3000.23789,N,12000.46022,E,75.594,118.667,230721,0.000,E,A,V*50
$GLRMC,000411,A,3000.23789,N,12000.46022,E,75.594,118.667,230721,0.000,E,A,V*4C
$GLGLL,3000.23789,N,12000.46022,E,000411,A*37
$GPGGA,000412,3000.22708,N,12000.48096,E,3,32,1.03,-7.86,M,7.86,M,,*65
$GPRMC,000412,A,3000.22708,N,12000.48096,E,75.594,123.123,230721,0.000,E,A,V*55
$GLRMC,000412,A,3000.22708,N,12000.48096,E,75.594,123.123,230721,0.000,E,A,V*49
$GLGLL,3000.22708,N,12000.48096,E,000412,A*3D
$GPGGA,000413,3000.21491,N,12000.50068,E,3,32,1.03,-7.86,M,7.86,M,,*6C
$GPRMC,000413,A,3000.21491,N,12000.50068,E,75.594,127.580,230721,0.000,E,A,V*55
$GLRMC,000413,A,3000.21491,N,12000.50068,E,75.594,127.580,230721,0.000,E,A,V*49
$GLGLL,3000.21491,N,12000.50068,E,000413,A*34
$GPGGA,000414,3000.20144,N,12000.51926,E,3,32,1.03,-7.86,M,7.86,M,,*65
$GPRMC,000414,A,3000.20144,N,12000.51926,E,75.594,132.036,230721,0.000,E,A,V*50
$GLRMC,000414,A,3000.20144,N,12000.51926,E,75.594,132.036,230721,0.000,E,A,V*4C
$GLGLL,3000.20144,N,12000.51926,E,000414,A*3D
$GPGGA,000415,3000.18675,N,12000.53657,E,3,32,1.03,-7.86,M,7.86,M,,*61
$GPRMC,000415,A,3000.18675,N,12000.53657,E,75.594,136.493,230721,0.000,E,A,V*5B
$GLRMC,000415,A,3000.18675,N,12000.53657,E,75.594,136.493,230721,0.000,E,A,V*47
$GLGLL,3000.18675,N,12000.53657,E,000415,A*39
$GPGGA,000416,3000.17094,N,12000.55253,E,3,32,1.03,-7.86,M,7.86,M,,*62
$GPRMC,000416,A,3000.17094,N,12000.55253,E,75.594,140.949,230721,0.000,E,A,V*53
$GLRMC,000416,A,3000.17094,N,12000.55253,E,75.594,140.949,230721,0.000,E,A,V*4F
$GLGLL,3000.17094,N,12000.55253,E,000416,A*3A
$GPGGA,000417,3000.15409,N,12000.56702,E,3,32,1.03,-7.86,M,7.86,M,,*63
$GPRMC,000417,A,3000.15409,N,12000.56702,E,75.594,145.406,230721,0.000,E,A,V*51
$GLRMC,000417,A,3000.15409,N,12000.56702,E,75.594,145.406,230721,0.000,E,A,V*4D
$GLGLL,3000.15409,N,12000.56702,E,000417,A*3B
$GPGGA,000418,3000.13632,N,12000.57996,E,3,32,1.03,-7.86,M,7.86,M,,*62
$GPRMC,000418,A,3000.13632,N,12000.57996,E,75.594,149.862,230721,0.000,E,A,V*52
$GLRMC,000418,A,3000.13632,N,12000.57996,E,75.594,149.862,230721,0.000,E,A,V*4E
$GLGLL,3000.13632,N,12000.57996,E,000418,A*3A
$GPGGA,000419,3000.11772,N,12000.59128,E,3,32,1.03,-7.86,M,7.86,M,,*67
$GPRMC,000419,A,3000.11772,N,12000.59128,E,75.594,154.319,230721,0.000,E,A,V*5C
$GLRMC,000419,A,3000.11772,N,12000.59128,E,75.594,154.319,230721,0.000,E,A,V*40
$GLGLL,3000.11772,N,12000.59128,E,000419,A*3F
$GPGGA,000420,3000.09842,N,12000.60091,E,3,32,1.03,-7.86,M,7.86,M,,*61
$GPRMC,000420,A,3000.09842,N,12000.60091,E,75.594,158.775,230721,0.000,E,A,V*58
$GLRMC,000420,A,3000.09842,N,12000.60091,E,75.594,158.775,230721,0.000,E,A,V*44
$GLGLL,3000.09842,N,12000.60091,E,000420,A*39
$GPGGA,000421,3000.07852,N,12000.60878,E,3,32,1.03,-7.86,M,7.86,M,,*60
$GPRMC,000421,A,3000.07852,N,12000.60878,E,75.594,163.231,230721,0.000,E,A,V*54
$GLRMC,000421,A,3000.07852,N,12000.60878,E,75.594,163.231,230721,0.000,E,A,V*48
$GLGLL,3000.07852,N,12000.60878,E,000421,A*38
$GPGGA,000422,3000.05815,N,12000.61485,E,3,32,1.03,-7.86,M,7.86,M,,*6D
$GPRMC,000422,A,3000.05815,N,12000.61485,E,75.594,167.688,230721,0.000,E,A,V*5B
$GLRMC,000422,A,3000.05815,N,12000.61485,E,75.594,167.688,230721,0.000,E,A,V*47
$GLGLL,3000.05815,N,12000.61485,E,000422,A*35
$GPGGA,000423,3000.03744,N,12000.61909,E,3,32,1.03,-7.86,M,7.86,M,,*68
$GPRMC,000423,A,3000.03744,N,12000.61909,E,75.594,172.144,230721,0.000,E,A,V*5D
$GLRMC,000423,A,3000.03744,N,12000.61909,E,75.594,172.144,230721,0.000,E,A,V*41
$GLGLL,3000.03744,N,12000.61909,E,000423,A*30
$GPGGA,000424,3000.01649,N,12000.62146,E,3,32,1.03,-7.86,M,7.86,M,,*61
$GPRMC,000424,A,3000.01649,N,12000.62146,E,75.594,176.601,230721,0.000,E,A,V*56
$GLRMC,000424,A,3000.01649,N,12000.62146,E,75.594,176.601,230721,0.000,E,A,V*4A
$GLGLL,3000.01649,N,12000.62146,E,000424,A*39
$GPGGA,000425,2959.99545,N,12000.62196,E,3,32,1.03,-7.86,M,7.86,M,,*67
$GPRMC,000425,A,2959.99545,N,12000.62196,E,75.594,181.057,230721,0.000,E,A,V*5D
$GLRMC,000425,A,2959.99545,N,12000.62196,E,75.594,181.057,230721,0.000,E,A,V*41
$GLGLL,2959.99545,N,12000.62196,E,000425,A*3F
$GPGGA,000426,2959.97444,N,12000.62057,E,3,32,1.03,-7.86,M,7.86,M,,*66
$GPRMC,000426,A,2959.97444,N,12000.62057,E,75.594,185.513,230721,0.000,E,A,V*5D
$GLRMC,000426,A,2959.97444,N,12000.62057,E,75.594,185.513,230721,0.000,E,A,V*41
$GLGLL,2959.97444,N,12000.62057,E,000426,A*3E
$GPGGA,000427,2959.95359,N,12000.61732,E,3,32,1.03,-7.86,M,7.86,M,,*69
$GPRMC,000427,A,2959.95359,N,12000.61732,E,75.594,189.969,230721,0.000,E,A,V*5F
$GLRMC,000427,A,2959.95359,N,12000.61732,E,75.594,189.969,230721,0.000,E,A,V*43
$GLGLL,2959.95359,N,12000.61732,E,000427,A*31
$GPGGA,000428,2959.93302,N,12000.61221,E,3,32,1.03,-7.86,M,7.86,M,,*69
$GPRMC,000428,A,2959.93302,N,12000.61221,E,75.594,194.426,230721,0.000,E,A,V*55
$GLRMC,000428,A,2959.93302,N,12000.61221,E,75.594,194.426,230721,0.000,E,A,V*49
$GLGLL,2959.93302,N,12000.61221,E,000428,A*31
$GPGGA,000429,2959.91286,N,12000.60529,E,3,32,1.03,-7.86,M,7.86,M,,*69
$GPRMC,000429,A,2959.91286,N,12000.60529,E,75.594,198.882,230721,0.000,E,A,V*5B
$GLRMC,000429,A,2959.91286,N,12000.60529,E,75.594,198.882,230721,0.000,E,A,V*47
$GLGLL,2959.91286,N,12000.60529,E,000429,A*31
$GPGGA,000430,2959.89323,N,12000.59658,E,3,32,1.03,-7.86,M,7.86,M,,*69
$GPRMC,000430,A,2959.89323,N,12000.59658,E,75.594,203.338,230721,0.000,E,A,V*50
$GLRMC,000430,A,2959.89323,N,12000.59658,E,75.594,203.338,230721,0.000,E,A,V*4C
$GLGLL,2959.89323,N,12000.59658,E,000430,A*31
$GPGGA,000431,2959.87425,N,12000.58615,E,3,32,1.03,-7.86,M,7.86,M,,*6F
$GPRMC,000431,A,2959.87425,N,12000.58615,E,75.594,207.795,230721,0.000,E,A,V*51
$GLRMC,000431,A,2959.87425,N,12000.58615,E,75.594,207.795,230721,0.000,E,A,V*4D
$GLGLL,2959.87425,N,12000.58615,E,000431,A*37
$GPGGA,000432,2959.85602,N,12000.57405,E,3,32,1.03,-7.86,M,7.86,M,,*65
$GPRMC,000432,A,2959.85602,N,12000.57405,E,75.594,212.251,230721,0.000,E,A,V*52
$GLRMC,000432,A,2959.85602,N,12000.57405,E,75.594,212.251,230721,0.000,E,A,V*4E
$GLGLL,2959.85602,N,12000.57405,E,000432,A*3D
$GPGGA,000433,2959.83868,N,12000.56037,E,3,32,1.03,-7.86,M,7.86,M,,*64
$GPRMC,000433,A,2959.83868,N,12000.56037,E,75.594,216.707,230721,0.000,E,A,V*51
$GLRMC,000433,A,2959.83868,N,12000.56037,E,75.594,216.707,230721,0.000,E,A,V*4D
$GLGLL,2959.83868,N,12000.56037,E,000433,A*3C
$GPGGA,000434,2959.82231,N,12000.54518,E,3,32,1.03,-7.86,M,7.86,M,,*6E
$GPRMC,000434,A,2959.82231,N,12000.54518,E,75.594,221.163,230721,0.000,E,A,V*5B
$GLRMC,000434,A,2959.82231,N,12000.54518,E,75.594,221.163,230721,0.000,E,A,V*47
$GLGLL,2959.82231,N,12000.54518,E,000434,A*36
$GPGGA,000435,2959.80701,N,12000.52857,E,3,32,1.03,-7.86,M,7.86,M,,*6B
$GPRMC,000435,A,2959.80701,N,12000.52857,E,75.594,225.619,230721,0.000,E,A,V*50
$GLRMC,000435,A,2959.80701,N,12000.52857,E,75.594,225.619,230721,0.000,E,A,V*4C
$GLGLL,2959.80701,N,12000.52857,E,000435,A*33
$GPGGA,000436,2959.79289,N,12000.51065,E,3,32,1.03,-7.86,M,7.86,M,,*61
$GPRMC,000436,A,2959.79289,N,12000.51065,E,75.594,230.076,230721,0.000,E,A,V*51
$GLRMC,000436,A,2959.79289,N,12000.51065,E,75.594,230.076,230721,0.000,E,A,V*4D
$GLGLL,2959.79289,N,12000.51065,E,000436,A*39
$GPGGA,000437,2959.78002,N,12000.49152,E,3,32,1.03,-7.86,M,7.86,M,,*6C
$GPRMC,000437,A,2959.78002,N,12000.49152,E,75.594,234.532,230721,0.000,E,A,V*5D
$GLRMC,000437,A,2959.78002,N,12000.49152,E,75.594,234.532,230721,0.000,E,A,V*41
$GLGLL,2959.78002,N,12000.49152,E,000437,A*34
$GPGGA,000438,2959.76848,N,12000.47130,E,3,32,1.03,-7.86,M,7.86,M,,*61
$GPRMC,000438,A,2959.76848,N,12000.47130,E,75.594,238.988,230721,0.000,E,A,V*51
$GLRMC,000438,A,2959.76848,N,12000.47130,E,75.594,238.988,230721,0.000,E,A,V*4D
$GLGLL,2959.76848,N,12000.47130,E,000438,A*39
$GPGGA,000439,2959.75835,N,12000.45011,E,3,32,1.03,-7.86,M,7.86,M,,*69
$GPRMC,000439,A,2959.75835,N,12000.45011,E,75.594,243.444,230721,0.000,E,A,V*58
$GLRMC,000439,A,2959.75835,N,12000.45011,E,75.594,243.444,230721,0.000,E,A,V*44
$GLGLL,2959.75835,N,12000.45011,E,000439,A*31
$GPGGA,000440,2959.74968,N,12000.42808,E,3,32,1.03,-7.86,M,7.86,M,,*68
$GPRMC,000440,A,2959.74968,N,12000.42808,E,75.594,247.900,230721,0.000,E,A,V*50
$GLRMC,000440,A,2959.74968,N,12000.42808,E,75.594,247.900,230721,0.000,E,A,V*4C
$GLGLL,2959.74968,N,12000.42808,E,000440,A*30
$GPGGA,000441,2959.74252,N,12000.40535,E,3,32,1.03,-7.86,M,7.86,M,,*6A
$GPRMC,000441,A,2959.74252,N,12000.40535,E,75.594,252.356,230721,0.000,E,A,V*5F
$GLRMC,000441,A,2959.74252,N,12000.40535,E,75.594,252.356,230721,0.000,E,A,V*43
$GLGLL,2959.74252,N,12000.40535,E,000441,A*32
$GPGGA,000442,2959.73693,N,12000.38204,E,3,32,1.03,-7.86,M,7.86,M,,*6D
$GPRMC,000442,A,2959.73693,N,12000.38204,E,75.594,256.812,230721,0.000,E,A,V*57
$GLRMC,000442,A,2959.73693,N,12000.38204,E,75.594,256.812,230721,0.000,E,A,V*4B
$GLGLL,2959.73693,N,12000.38204,E,000442,A*35
$GPGGA,000443,2959.73293,N,12000.35831,E,3,32,1.03,-7.86,M,7.86,M,,*69
$GPRMC,000443,A,2959.73293,N,12000.35831,E,75.594,261.269,230721,0.000,E,A,V*51
$GLRMC,000443,A,2959.73293,N,12000.35831,E,75.594,261.269,230721,0.000,E,A,V*4D
$GLGLL,2959.73293,N,12000.35831,E,000443,A*31
$GPGGA,000444,2959.73054,N,12000.33429,E,3,32,1.03,-7.86,M,7.86,M,,*64
$GPRMC,000444,A,2959.73054,N,12000.33429,E,75.594,265.725,230721,0.000,E,A,V*55
$GLRMC,000444,A,2959.73054,N,12000.33429,E,75.594,265.725,230721,0.000,E,A,V*49
$GLGLL,2959.73054,N,12000.33429,E,000444,A*3C
$GPGGA,000445,2959.72979,N,12000.31013,E,3,32,1.03,-7.86,M,7.86,M,,*6D
$GPRMC,000445,A,2959.72979,N,12000.31013,E,75.594,270.181,230721,0.000,E,A,V*50
$GLRMC,000445,A,2959.72979,N,12000.31013,E,75.594,270.181,230721,0.000,E,A,V*4C
$GLGLL,2959.72979,N,12000.31013,E,000445,A*35
$GPGGA,000446,2959.73067,N,12000.28597,E,3,32,1.03,-7.86,M,7.86,M,,*68
$GPRMC,000446,A,2959.73067,N,12000.28597,E,75.594,274.637,230721,0.000,E,A,V*5B
$GLRMC,000446,A,2959.73067,N,12000.28597,E,75.594,274.637,230721,0.000,E,A,V*47
$GLGLL,2959.73067,N,12000.28597,E,000446,A*30
$GPGGA,000447,2959.73319,N,12000.26197,E,3,32,1.03,-7.86,M,7.86,M,,*69
$GPRMC,000447,A,2959.73319,N,12000.26197,E,75.594,279.093,230721,0.000,E,A,V*5F
$GLRMC,000447,A,2959.73319,N,12000.26197,E,75.594,279.093,230721,0.000,E,A,V*43
$GLGLL,2959.73319,N,12000.26197,E,000447,A*31
$GPGGA,000448,2959.73732,N,12000.23826,E,3,32,1.03,-7.86,M,7.86,M,,*6D
$GPRMC,000448,A,2959.73732,N,12000.23826,E,75.594,283.549,230721,0.000,E,A,V*5C
$GLRMC,000448,A,2959.73732,N,12000.23826,E,75.594,283.549,230721,0.000,E,A,V*40
$GLGLL,2959.73732,N,12000.23826,E,000448,A*35
$GPGGA,000449,2959.74304,N,12000.21500,E,3,32,1.03,-7.86,M,7.86,M,,*61
$GPRMC,000449,A,2959.74304,N,12000.21500,E,75.594,288.005,230721,0.000,E,A,V*56
$GLRMC,000449,A,2959.74304,N,12000.21500,E,75.594,288.005,230721,0.000,E,A,V*4A
$GLGLL,2959.74304,N,12000.21500,E,000449,A*39
$GPGGA,000450,2959.75032,N,12000.19231,E,3,32,1.03,-7.86,M,7.86,M,,*60
$GPRMC,000450,A,2959.75032,N,12000.19231,E,75.594,292.461,230721,0.000,E,A,V*5A
$GLRMC,000450,A,2959.75032,N,12000.19231,E,75.594,292.461,230721,0.000,E,A,V*46
$GLGLL,2959.75032,N,12000.19231,E,000450,A*38
$GPGGA,000451,2959.75911,N,12000.17035,E,3,32,1.03,-7.86,M,7.86,M,,*61
$GPRMC,000451,A,2959.75911,N,12000.17035,E,75.594,296.918,230721,0.000,E,A,V*5C
$GLRMC,000451,A,2959.75911,N,12000.17035,E,75.594,296.918,230721,0.000,E,A,V*40
$GLGLL,2959.75911,N,12000.17035,E,000451,A*39
$GPGGA,000452,2959.76936,N,12000.14923,E,3,32,1.03,-7.86,M,7.86,M,,*69
$GPRMC,000452,A,2959.76936,N,12000.14923,E,75.594,301.374,230721,0.000,E,A,V*5B
$GLRMC,000452,A,2959.76936,N,12000.14923,E,75.594,301.374,230721,0.000,E,A,V*47
$GLGLL,2959.76936,N,12000.14923,E,000452,A*31
$GPGGA,000453,2959.78100,N,12000.12909,E,3,32,1.03,-7.86,M,7.86,M,,*65
$GPRMC,000453,A,2959.78100,N,12000.12909,E,75.594,305.830,230721,0.000,E,A,V*58
$GLRMC,000453,A,2959.78100,N,12000.12909,E,75.594,305.830,230721,0.000,E,A,V*44
$GLGLL,2959.78100,N,12000.12909,E,000453,A*3D
$GPGGA,000454,2959.79397,N,12000.11006,E,3,32,1.03,-7.86,M,7.86,M,,*6A
$GPRMC,000454,A,2959.79397,N,12000.11006,E,75.594,310.286,230721,0.000,E,A,V*54
$GLRMC,000454,A,2959.79397,N,12000.11006,E,75.594,310.286,230721,0.000,E,A,V*48
$GLGLL,2959.79397,N,12000.11006,E,000454,A*32
$GPGGA,000455,2959.80819,N,12000.09224,E,3,32,1.03,-7.86,M,7.86,M,,*6B
$GPRMC,000455,A,2959.80819,N,12000.09224,E,75.594,314.742,230721,0.000,E,A,V*5C
$GLRMC,000455,A,2959.80819,N,12000.09224,E,75.594,314.742,230721,0.000,E,A,V*40
$GLGLL,2959.80819,N,12000.09224,E,000455,A*33
$GPGGA,000456,2959.82358,N,12000.07574,E,3,32,1.03,-7.86,M,7.86,M,,*68
$GPRMC,000456,A,2959.82358,N,12000.07574,E,75.594,319.198,230721,0.000,E,A,V*53
$GLRMC,000456,A,2959.82358,N,12000.07574,E,75.594,319.198,230721,0.000,E,A,V*4F
$GLGLL,2959.82358,N,12000.07574,E,000456,A*30
$GPGGA,000457,2959.84003,N,12000.06066,E,3,32,1.03,-7.86,M,7.86,M,,*65
$GPRMC,000457,A,2959.84003,N,12000.06066,E,75.594,323.655,230721,0.000,E,A,V*51
$GLRMC,000457,A,2959.84003,N,12000.06066,E,75.594,323.655,230721,0.000,E,A,V*4D
$GLGLL,2959.84003,N,12000.06066,E,000457,A*3D
$GPGGA,000458,2959.85745,N,12000.04710,E,3,32,1.03,-7.86,M,7.86,M,,*6A
$GPRMC,000458,A,2959.85745,N,12000.04710,E,75.594,328.111,230721,0.000,E,A,V*52
$GLRMC,000458,A,2959.85745,N,12000.04710,E,75.594,328.111,230721,0.000,E,A,V*4E
$GLGLL,2959.85745,N,12000.04710,E,000458,A*32
$GPGGA,000459,2959.87574,N,12000.03514,E,3,32,1.03,-7.86,M,7.86,M,,*68
$GPRMC,000459,A,2959.87574,N,12000.03514,E,75.594,332.567,230721,0.000,E,A,V*5E
$GLRMC,000459,A,2959.87574,N,12000.03514,E,75.594,332.567,230721,0.000,E,A,V*42
$GLGLL,2959.87574,N,12000.03514,E,000459,A*30
$GPGGA,000500,2959.89478,N,12000.02484,E,3,32,1.03,-7.86,M,7.86,M,,*6F
$GPRMC,000500,A,2959.89478,N,12000.02484,E,75.594,337.023,230721,0.000,E,A,V*59
$GLRMC,000500,A,2959.89478,N,12000.02484,E,75.594,337.023,230721,0.000,E,A,V*45
$GLGLL,2959.89478,N,12000.02484,E,000500,A*37
$GPGGA,000501,2959.91446,N,12000.01628,E,3,32,1.03,-7.86,M,7.86,M,,*6D
$GPRMC,000501,A,2959.91446,N,12000.01628,E,75.594,341.480,230721,0.000,E,A,V*57
$GLRMC,000501,A,2959.91446,N,12000.01628,E,75.594,341.480,230721,0.000,E,A,V*4B
$GLGLL,2959.91446,N,12000.01628,E,000501,A*35
$GPGGA,000502,2959.93466,N,12000.00950,E,3,32,1.03,-7.86,M,7.86,M,,*6F
$GPRMC,000502,A,2959.93466,N,12000.00950,E,75.594,345.936,230721,0.000,E,A,V*51
$GLRMC,000502,A,2959.93466,N,12000.00950,E,75.594,345.936,230721,0.000,E,A,V*4D
$GLGLL,2959.93466,N,12000.00950,E,000502,A*37
$GPGGA,000503,2959.95525,N,12000.00454,E,3,32,1.03,-7.86,M,7.86,M,,*67
$GPRMC,000503,A,2959.95525,N,12000.00454,E,75.594,350.392,230721,0.000,E,A,V*59
$GLRMC,000503,A,2959.95525,N,12000.00454,E,75.594,350.392,230721,0.000,E,A,V*45
$GLGLL,2959.95525,N,12000.00454,E,000503,A*3F
$GPGGA,000504,2959.97612,N,12000.00143,E,3,32,1.03,-7.86,M,7.86,M,,*66
$GPRMC,000504,A,2959.97612,N,12000.00143,E,75.594,354.848,230721,0.000,E,A,V*50
$GLRMC,000504,A,2959.97612,N,12000.00143,E,75.594,354.848,230721,0.000,E,A,V*4C
$GLGLL,2959.97612,N,12000.00143,E,000504,A*3E
$GPGGA,000505,2959.99714,N,12000.00020,E,3,32,1.03,-7.86,M,7.86,M,,*6A
$GPRMC,000505,A,2959.99714,N,12000.00020,E,75.594,359.305,230721,0.000,E,A,V*53
$GLRMC,000505,A,2959.99714,N,12000.00020,E,75.594,359.305,230721,0.000,E,A,V*4F
$GLGLL,2959.99714,N,12000.00020,E,000505,A*32
$GPGGA,000506,3000.01817,N,12000.00085,E,3,32,1.03,-7.85,M,7.85,M,,*6F
$GPRMC,000506,A,3000.01817,N,12000.00085,E,75.594,3.761,230721,0.000,E,A,V*5C
$GLRMC,000506,A,3000.01817,N,12000.00085,E,75.594,3.761,230721,0.000,E,A,V*40
$GLGLL,3000.01817,N,12000.00085,E,000506,A*37
$GPGGA,000507,3000.03910,N,12000.00337,E,3,32,1.03,-7.85,M,7.85,M,,*60
$GPRMC,000507,A,3000.03910,N,12000.00337,E,75.594,8.217,230721,0.000,E,A,V*5C
$GLRMC,000507,A,3000.03910,N,12000.00337,E,75.594,8.217,230721,0.000,E,A,V*40
$GLGLL,3000.03910,N,12000.00337,E,000507,A*38
$GPGGA,000508,3000.05980,N,12000.00775,E,3,32,1.03,-7.85,M,7.85,M,,*62
$GPRMC,000508,A,3000.05980,N,12000.00775,E,75.594,12.674,230721,0.000,E,A,V*64
$GLRMC,000508,A,3000.05980,N,12000.00775,E,75.594,12.674,230721,0.000,E,A,V*78
$GLGLL,3000.05980,N,12000.00775,E,000508,A*3A
$GPGGA,000509,3000.08013,N,12000.01397,E,3,32,1.03,-7.85,M,7.85,M,,*64
$GPRMC,000509,A,3000.08013,N,12000.01397,E,75.594,17.130,230721,0.000,E,A,V*60
$GLRMC,000509,A,3000.08013,N,12000.01397,E,75.594,17.130,230721,0.000,E,A,V*7C
$GLGLL,3000.08013,N,12000.01397,E,000509,A*3C
$GPGGA,000510,3000.09999,N,12000.02198,E,3,32,1.03,-7.85,M,7.85,M,,*68
$GPRMC,000510,A,3000.09999,N,12000.02198,E,75.594,21.587,230721,0.000,E,A,V*61
$GLRMC,000510,A,3000.09999,N,12000.02198,E,75.594,21.587,230721,0.000,E,A,V*7D
$GLGLL,3000.09999,N,12000.02198,E,000510,A*30
$GPGGA,000511,3000.11924,N,12000.03175,E,3,32,1.03,-7.85,M,7.85,M,,*64
$GPRMC,000511,A,3000.11924,N,12000.03175,E,75.594,26.043,230721,0.000,E,A,V*67
$GLRMC,000511,A,3000.11924,N,12000.03175,E,75.594,26.043,230721,0.000,E,A,V*7B
$GLGLL,3000.11924,N,12000.03175,E,000511,A*3C
$GPGGA,000512,3000.13777,N,12000.04320,E,3,32,1.03,-7.85,M,7.85,M,,*68
$GPRMC,000512,A,3000.13777,N,12000.04320,E,75.594,30.499,230721,0.000,E,A,V*6F
$GLRMC,000512,A,3000.13777,N,12000.04320,E,75.594,30.499,230721,0.000,E,A,V*73
$GLGLL,3000.13777,N,12000.04320,E,000512,A*30
$GPGGA,000513,3000.15548,N,12000.05627,E,3,32,1.03,-7.85,M,7.85,M,,*62
$GPRMC,000513,A,3000.15548,N,12000.05627,E,75.594,34.956,230721,0.000,E,A,V*6F
$GLRMC,000513,A,3000.15548,N,12000.05627,E,75.594,34.956,230721,0.000,E,A,V*73
$GLGLL,3000.15548,N,12000.05627,E,000513,A*3A
$GPGGA,000514,3000.17224,N,12000.07088,E,3,32,1.03,-7.85,M,7.85,M,,*6B
$GPRMC,000514,A,3000.17224,N,12000.07088,E,75.594,39.412,230721,0.000,E,A,V*66
$GLRMC,000514,A,3000.17224,N,12000.07088,E,75.594,39.412,230721,0.000,E,A,V*7A
$GLGLL,3000.17224,N,12000.07088,E,000514,A*33
$GPGGA,000515,3000.18797,N,12000.08695,E,3,32,1.03,-7.85,M,7.85,M,,*6D
$GPRMC,000515,A,3000.18797,N,12000.08695,E,75.594,43.869,230721,0.000,E,A,V*6D
$GLRMC,000515,A,3000.18797,N,12000.08695,E,75.594,43.869,230721,0.000,E,A,V*71
$GLGLL,3000.18797,N,12000.08695,E,000515,A*35
$GPGGA,000516,3000.20256,N,12000.10437,E,3,32,1.03,-7.85,M,7.85,M,,*6E
$GPRMC,000516,A,3000.20256,N,12000.10437,E,75.594,48.325,230721,0.000,E,A,V*66
$GLRMC,000516,A,3000.20256,N,12000.10437,E,75.594,48.325,230721,0.000,E,A,V*7A
$GLGLL,3000.20256,N,12000.10437,E,000516,A*36
$GPGGA,000517,3000.21593,N,12000.12304,E,3,32,1.03,-7.85,M,7.85,M,,*65
$GPRMC,000517,A,3000.21593,N,12000.12304,E,75.594,52.782,230721,0.000,E,A,V*6F
$GLRMC,000517,A,3000.21593,N,12000.12304,E,75.594,52.782,230721,0.000,E,A,V*73
$GLGLL,3000.21593,N,12000.12304,E,000517,A*3D
$GPGGA,000518,3000.22800,N,12000.14284,E,3,32,1.03,-7.85,M,7.85,M,,*61
$GPRMC,000518,A,3000.22800,N,12000.14284,E,75.594,57.238,230721,0.000,E,A,V*6A
$GLRMC,000518,A,3000.22800,N,12000.14284,E,75.594,57.238,230721,0.000,E,A,V*76
$GLGLL,3000.22800,N,12000.14284,E,000518,A*39
$GPGGA,000519,3000.23869,N,12000.16367,E,3,32,1.03,-7.86,M,7.86,M,,*60
$GPRMC,000519,A,3000.23869,N,12000.16367,E,75.594,61.695,230721,0.000,E,A,V*6D
$GLRMC,000519,A,3000.23869,N,12000.16367,E,75.594,61.695,230721,0.000,E,A,V*71
$GLGLL,3000.23869,N,12000.16367,E,000519,A*38
$GPGGA,000520,3000.24794,N,12000.18539,E,3,32,1.03,-7.86,M,7.86,M,,*63
$GPRMC,000520,A,3000.24794,N,12000.18539,E,75.594,66.151,230721,0.000,E,A,V*66
$GLRMC,000520,A,3000.24794,N,12000.18539,E,75.594,66.151,230721,0.000,E,A,V*7A
$GLGLL,3000.24794,N,12000.18539,E,000520,A*3B
$GPGGA,000521,3000.25570,N,12000.20786,E,3,32,1.03,-7.86,M,7.86,M,,*66
$GPRMC,000521,A,3000.25570,N,12000.20786,E,75.594,70.608,230721,0.000,E,A,V*6F
$GLRMC,000521,A,3000.25570,N,12000.20786,E,75.594,70.608,230721,0.000,E,A,V*73
$GLGLL,3000.25570,N,12000.20786,E,000521,A*3E
$GPGGA,000522,3000.26191,N,12000.23096,E,3,32,1.03,-7.86,M,7.86,M,,*68
$GPRMC,000522,A,3000.26191,N,12000.23096,E,75.594,75.064,230721,0.000,E,A,V*68
$GLRMC,000522,A,3000.26191,N,12000.23096,E,75.594,75.064,230721,0.000,E,A,V*74
$GLGLL,3000.26191,N,12000.23096,E,000522,A*30
$GPGGA,000523,3000.26654,N,12000.25455,E,3,32,1.03,-7.86,M,7.86,M,,*6A
$GPRMC,000523,A,3000.26654,N,12000.25455,E,75.594,79.521,230721,0.000,E,A,V*62
$GLRMC,000523,A,3000.26654,N,12000.25455,E,75.594,79.521,230721,0.000,E,A,V*7E
$GLGLL,3000.26654,N,12000.25455,E,000523,A*32
$GPGGA,000524,3000.26956,N,12000.27848,E,3,32,1.03,-7.86,M,7.86,M,,*62
$GPRMC,000524,A,3000.26956,N,12000.27848,E,75.594,83.977,230721,0.000,E,A,V*60
$GLRMC,000524,A,3000.26956,N,12000.27848,E,75.594,83.977,230721,0.000,E,A,V*7C
$GLGLL,3000.26956,N,12000.27848,E,000524,A*3A
$GPGGA,000525,3000.27095,N,12000.30260,E,3,32,1.03,-7.86,M,7.86,M,,*62
$GPRMC,000525,A,3000.27095,N,12000.30260,E,75.594,88.434,230721,0.000,E,A,V*61
$GLRMC,000525,A,3000.27095,N,12000.30260,E,75.594,88.434,230721,0.000,E,A,V*7D
$GLGLL,3000.27095,N,12000.30260,E,000525,A*3A
$GPGGA,000526,3000.27071,N,12000.32678,E,3,32,1.03,-7.86,M,7.86,M,,*64
$GPRMC,000526,A,3000.27071,N,12000.32678,E,75.594,92.890,230721,0.000,E,A,V*6E
$GLRMC,000526,A,3000.27071,N,12000.32678,E,75.594,92.890,230721,0.000,E,A,V*72
$GLGLL,3000.27071,N,12000.32678,E,000526,A*3C
$GPGGA,000527,3000.26883,N,12000.35086,E,3,32,1.03,-7.86,M,7.86,M,,*61
$GPRMC,000527,A,3000.26883,N,12000.35086,E,75.594,97.347,230721,0.000,E,A,V*6F
$GLRMC,000527,A,3000.26883,N,12000.35086,E,75.594,97.347,230721,0.000,E,A,V*73
$GLGLL,3000.26883,N,12000.35086,E,000527,A*39
$GPGGA,000528,3000.26533,N,12000.37470,E,3,32,1.03,-7.86,M,7.86,M,,*67
$GPRMC,000528,A,3000.26533,N,12000.37470,E,75.594,101.803,230721,0.000,E,A,V*5C
$GLRMC,000528,A,3000.26533,N,12000.37470,E,75.594,101.803,230721,0.000,E,A,V*40
$GLGLL,3000.26533,N,12000.37470,E,000528,A*3F
$GPGGA,000529,3000.26023,N,12000.39816,E,3,32,1.03,-7.86,M,7.86,M,,*60
$GPRMC,000529,A,3000.26023,N,12000.39816,E,75.594,106.260,230721,0.000,E,A,V*53
$GLRMC,000529,A,3000.26023,N,12000.39816,E,75.594,106.260,230721,0.000,E,A,V*4F
$GLGLL,3000.26023,N,12000.39816,E,000529,A*38
$GPGGA,000530,3000.25356,N,12000.42109,E,3,32,1.03,-7.86,M,7.86,M,,*61
$GPRMC,000530,A,3000.25356,N,12000.42109,E,75.594,110.716,230721,0.000,E,A,V*51
$GLRMC,000530,A,3000.25356,N,12000.42109,E,75.594,110.716,230721,0.000,E,A,V*4D
$GLGLL,3000.25356,N,12000.42109,E,000530,A*39
$GPGGA,000531,3000.24536,N,12000.44336,E,3,32,1.03,-7.86,M,7.86,M,,*69
$GPRMC,000531,A,3000.24536,N,12000.44336,E,75.594,115.173,230721,0.000,E,A,V*59
$GLRMC,000531,A,3000.24536,N,12000.44336,E,75.594,115.173,230721,0.000,E,A,V*45
$GLGLL,3000.24536,N,12000.44336,E,000531,A*31
$GPGGA,000532,3000.23567,N,12000.46482,E,3,32,1.03,-7.86,M,7.86,M,,*63
$GPRMC,000532,A,3000.23567,N,12000.46482,E,75.594,119.630,230721,0.000,E,A,V*5F
$GLRMC,000532,A,3000.23567,N,12000.46482,E,75.594,119.630,230721,0.000,E,A,V*43
$GLGLL,3000.23567,N,12000.46482,E,000532,A*3B
$GPGGA,000533,3000.22457,N,12000.48536,E,3,32,1.03,-7.86,M,7.86,M,,*61
$GPRMC,000533,A,3000.22457,N,12000.48536,E,75.594,124.086,230721,0.000,E,A,V*58
$GLRMC,000533,A,3000.22457,N,12000.48536,E,75.594,124.086,230721,0.000,E,A,V*44
$GLGLL,3000.22457,N,12000.48536,E,000533,A*39
$GPGGA,000534,3000.21211,N,12000.50484,E,3,32,1.03,-7.86,M,7.86,M,,*60
$GPRMC,000534,A,3000.21211,N,12000.50484,E,75.594,128.543,230721,0.000,E,A,V*59
$GLRMC,000534,A,3000.21211,N,12000.50484,E,75.594,128.543,230721,0.000,E,A,V*45
$GLGLL,3000.21211,N,12000.50484,E,000534,A*38
$GPGGA,000535,3000.19837,N,12000.52315,E,3,32,1.03,-7.86,M,7.86,M,,*69
$GPRMC,000535,A,3000.19837,N,12000.52315,E,75.594,132.999,230721,0.000,E,A,V*50
$GLRMC,000535,A,3000.19837,N,12000.52315,E,75.594,132.999,230721,0.000,E,A,V*4C
$GLGLL,3000.19837,N,12000.52315,E,000535,A*31
$GPGGA,000536,3000.18343,N,12000.54018,E,3,32,1.03,-7.86,M,7.86,M,,*6B
$GPRMC,000536,A,3000.18343,N,12000.54018,E,75.594,137.455,230721,0.000,E,A,V*5A
$GLRMC,000536,A,3000.18343,N,12000.54018,E,75.594,137.455,230721,0.000,E,A,V*46
$GLGLL,3000.18343,N,12000.54018,E,000536,A*33
$GPGGA,000537,3000.16738,N,12000.55583,E,3,32,1.03,-7.86,M,7.86,M,,*6A
$GPRMC,000537,A,3000.16738,N,12000.55583,E,75.594,141.912,230721,0.000,E,A,V*54
$GLRMC,000537,A,3000.16738,N,12000.55583,E,75.594,141.912,230721,0.000,E,A,V*48
$GLGLL,3000.16738,N,12000.55583,E,000537,A*32
$GPGGA,000538,3000.15033,N,12000.56999,E,3,32,1.03,-7.86,M,7.86,M,,*6E
$GPRMC,000538,A,3000.15033,N,12000.56999,E,75.594,146.368,230721,0.000,E,A,V*50
$GLRMC,000538,A,3000.15033,N,12000.56999,E,75.594,146.368,230721,0.000,E,A,V*4C
$GLGLL,3000.15033,N,12000.56999,E,000538,A*36
$GPGGA,000539,3000.13237,N,12000.58259,E,3,32,1.03,-7.86,M,7.86,M,,*66
$GPRMC,000539,A,3000.13237,N,12000.58259,E,75.594,150.825,230721,0.000,E,A,V*5D
$GLRMC,000539,A,3000.13237,N,12000.58259,E,75.594,150.825,230721,0.000,E,A,V*41
$GLGLL,3000.13237,N,12000.58259,E,000539,A*3E
$GPGGA,000540,3000.11361,N,12000.59355,E,3,32,1.04,-7.86,M,7.86,M,,*63
$GPRMC,000540,A,3000.11361,N,12000.59355,E,75.594,155.281,230721,0.000,E,A,V*5E
$GLRMC,000540,A,3000.11361,N,12000.59355,E,75.594,155.281,230721,0.000,E,A,V*42
$GLGLL,3000.11361,N,12000.59355,E,000540,A*3C
$GPGGA,000541,3000.09417,N,12000.60280,E,3,32,1.04,-7.86,M,7.86,M,,*6E
$GPRMC,000541,A,3000.09417,N,12000.60280,E,75.594,159.738,230721,0.000,E,A,V*58
$GLRMC,000541,A,3000.09417,N,12000.60280,E,75.594,159.738,230721,0.000,E,A,V*44
$GLGLL,3000.09417,N,12000.60280,E,000541,A*31
$GPGGA,000542,3000.07416,N,12000.61029,E,3,32,1.04,-7.86,M,7.86,M,,*62
$GPRMC,000542,A,3000.07416,N,12000.61029,E,75.594,164.194,230721,0.000,E,A,V*5A
$GLRMC,000542,A,3000.07416,N,12000.61029,E,75.594,164.194,230721,0.000,E,A,V*46
$GLGLL,3000.07416,N,12000.61029,E,000542,A*3D
$GPGGA,000543,3000.05370,N,12000.61597,E,3,32,1.04,-7.86,M,7.86,M,,*66
$GPRMC,000543,A,3000.05370,N,12000.61597,E,75.594,168.650,230721,0.000,E,A,V*5D
$GLRMC,000543,A,3000.05370,N,12000.61597,E,75.594,168.650,230721,0.000,E,A,V*41
$GLGLL,3000.05370,N,12000.61597,E,000543,A*39
$GPGGA,000544,3000.03293,N,12000.61980,E,3,32,1.04,-7.86,M,7.86,M,,*61
$GPRMC,000544,A,3000.03293,N,12000.61980,E,75.594,173.107,230721,0.000,E,A,V*55
$GLRMC,000544,A,3000.03293,N,12000.61980,E,75.594,173.107,230721,0.000,E,A,V*49
$GLGLL,3000.03293,N,12000.61980,E,000544,A*3E
$GPGGA,000545,3000.01195,N,12000.62177,E,3,32,1.04,-7.86,M,7.86,M,,*64
$GPRMC,000545,A,3000.01195,N,12000.62177,E,75.594,177.563,230721,0.000,E,A,V*52
$GLRMC,000545,A,3000.01195,N,12000.62177,E,75.594,177.563,230721,0.000,E,A,V*4E
$GLGLL,3000.01195,N,12000.62177,E,000545,A*3B
$GPGGA,000546,2959.99091,N,12000.62186,E,3,32,1.04,-7.86,M,7.86,M,,*69
$GPRMC,000546,A,2959.99091,N,12000.62186,E,75.594,182.019,230721,0.000,E,A,V*5D
$GLRMC,000546,A,2959.99091,N,12000.62186,E,75.594,182.019,230721,0.000,E,A,V*41
$GLGLL,2959.99091,N,12000.62186,E,000546,A*36
$GPGGA,000547,2959.96992,N,12000.62007,E,3,32,1.04,-7.86,M,7.86,M,,*65
$GPRMC,000547,A,2959.96992,N,12000.62007,E,75.594,186.476,230721,0.000,E,A,V*58
$GLRMC,000547,A,2959.96992,N,12000.62007,E,75.594,186.476,230721,0.000,E,A,V*44
$GLGLL,2959.96992,N,12000.62007,E,000547,A*3A
$GPGGA,000548,2959.94912,N,12000.61642,E,3,32,1.04,-7.86,M,7.86,M,,*64
$GPRMC,000548,A,2959.94912,N,12000.61642,E,75.594,190.932,230721,0.000,E,A,V*53
$GLRMC,000548,A,2959.94912,N,12000.61642,E,75.594,190.932,230721,0.000,E,A,V*4F
$GLGLL,2959.94912,N,12000.61642,E,000548,A*3B
$GPGGA,000549,2959.92863,N,12000.61091,E,3,32,1.04,-7.86,M,7.86,M,,*6C
$GPRMC,000549,A,2959.92863,N,12000.61091,E,75.594,195.388,230721,0.000,E,A,V*55
$GLRMC,000549,A,2959.92863,N,12000.61091,E,75.594,195.388,230721,0.000,E,A,V*49
$GLGLL,2959.92863,N,12000.61091,E,000549,A*33
$GPGGA,000550,2959.90857,N,12000.60360,E,3,32,1.04,-7.86,M,7.86,M,,*6D
$GPRMC,000550,A,2959.90857,N,12000.60360,E,75.594,199.845,230721,0.000,E,A,V*52
$GLRMC,000550,A,2959.90857,N,12000.60360,E,75.594,199.845,230721,0.000,E,A,V*4E
$GLGLL,2959.90857,N,12000.60360,E,000550,A*32
$GPGGA,000551,2959.88907,N,12000.59451,E,3,32,1.04,-7.86,M,7.86,M,,*6E
$GPRMC,000551,A,2959.88907,N,12000.59451,E,75.594,204.301,230721,0.000,E,A,V*5D
$GLRMC,000551,A,2959.88907,N,12000.59451,E,75.594,204.301,230721,0.000,E,A,V*41
$GLGLL,2959.88907,N,12000.59451,E,000551,A*31
$GPGGA,000552,2959.87024,N,12000.58372,E,3,32,1.04,-7.86,M,7.86,M,,*6D
$GPRMC,000552,A,2959.87024,N,12000.58372,E,75.594,208.757,230721,0.000,E,A,V*55
$GLRMC,000552,A,2959.87024,N,12000.58372,E,75.594,208.757,230721,0.000,E,A,V*49
$GLGLL,2959.87024,N,12000.58372,E,000552,A*32
$GPGGA,000553,2959.85220,N,12000.57127,E,3,32,1.04,-7.86,M,7.86,M,,*65
$GPRMC,000553,A,2959.85220,N,12000.57127,E,75.594,213.213,230721,0.000,E,A,V*52
$GLRMC,000553,A,2959.85220,N,12000.57127,E,75.594,213.213,230721,0.000,E,A,V*4E
$GLGLL,2959.85220,N,12000.57127,E,000553,A*3A
$GPGGA,000554,2959.83505,N,12000.55726,E,3,32,1.04,-7.86,M,7.86,M,,*61
$GPRMC,000554,A,2959.83505,N,12000.55726,E,75.594,217.670,230721,0.000,E,A,V*53
$GLRMC,000554,A,2959.83505,N,12000.55726,E,75.594,217.670,230721,0.000,E,A,V*4F
$GLGLL,2959.83505,N,12000.55726,E,000554,A*3E
$GPGGA,000555,2959.81891,N,12000.54175,E,3,32,1.04,-7.86,M,7.86,M,,*63
$GPRMC,000555,A,2959.81891,N,12000.54175,E,75.594,222.126,230721,0.000,E,A,V*53
$GLRMC,000555,A,2959.81891,N,12000.54175,E,75.594,222.126,230721,0.000,E,A,V*4F
$GLGLL,2959.81891,N,12000.54175,E,000555,A*3C
$GPGGA,000556,2959.80386,N,12000.52485,E,3,32,1.04,-7.86,M,7.86,M,,*60
$GPRMC,000556,A,2959.80386,N,12000.52485,E,75.594,226.582,230721,0.000,E,A,V*5E
$GLRMC,000556,A,2959.80386,N,12000.52485,E,75.594,226.582,230721,0.000,E,A,V*42
$GLGLL,2959.80386,N,12000.52485,E,000556,A*3F
$GPGGA,000557,2959.79000,N,12000.50666,E,3,32,1.04,-7.86,M,7.86,M,,*67
$GPRMC,000557,A,2959.79000,N,12000.50666,E,75.594,231.038,230721,0.000,E,A,V*5B
$GLRMC,000557,A,2959.79000,N,12000.50666,E,75.594,231.038,230721,0.000,E,A,V*47
$GLGLL,2959.79000,N,12000.50666,E,000557,A*38
$GPGGA,000558,2959.77741,N,12000.48728,E,3,32,1.04,-7.86,M,7.86,M,,*66
$GPRMC,000558,A,2959.77741,N,12000.48728,E,75.594,235.494,230721,0.000,E,A,V*5C
$GLRMC,000558,A,2959.77741,N,12000.48728,E,75.594,235.494,230721,0.000,E,A,V*40
$GLGLL,2959.77741,N,12000.48728,E,000558,A*39
$GPGGA,000559,2959.76617,N,12000.46684,E,3,32,1.04,-7.86,M,7.86,M,,*6D
$GPRMC,000559,A,2959.76617,N,12000.46684,E,75.594,239.950,230721,0.000,E,A,V*5E
$GLRMC,000559,A,2959.76617,N,12000.46684,E,75.594,239.950,230721,0.000,E,A,V*42
$GLGLL,2959.76617,N,12000.46684,E,000559,A*32
$GPGGA,000600,2959.75635,N,12000.44546,E,3,32,1.04,-7.86,M,7.86,M,,*6E
$GPRMC,000600,A,2959.75635,N,12000.44546,E,75.594,244.407,230721,0.000,E,A,V*58
$GLRMC,000600,A,2959.75635,N,12000.44546,E,75.594,244.407,230721,0.000,E,A,V*44
$GLGLL,2959.75635,N,12000.44546,E,000600,A*31
$GPGGA,000601,2959.74800,N,12000.42327,E,3,32,1.04,-7.86,M,7.86,M,,*61
$GPRMC,000601,A,2959.74800,N,12000.42327,E,75.594,248.863,230721,0.000,E,A,V*55
$GLRMC,000601,A,2959.74800,N,12000.42327,E,75.594,248.863,230721,0.000,E,A,V*49
$GLGLL,2959.74800,N,12000.42327,E,000601,A*3E
$GPGGA,000602,2959.74118,N,12000.40040,E,3,32,1.04,-7.86,M,7.86,M,,*62
$GPRMC,000602,A,2959.74118,N,12000.40040,E,75.594,253.319,230721,0.000,E,A,V*5A
$GLRMC,000602,A,2959.74118,N,12000.40040,E,75.594,253.319,230721,0.000,E,A,V*46
$GLGLL,2959.74118,N,12000.40040,E,000602,A*3D
$GPGGA,000603,2959.73593,N,12000.37699,E,3,32,1.04,-7.86,M,7.86,M,,*61
$GPRMC,000603,A,2959.73593,N,12000.37699,E,75.594,257.775,230721,0.000,E,A,V*53
$GLRMC,000603,A,2959.73593,N,12000.37699,E,75.594,257.775,230721,0.000,E,A,V*4F
$GLGLL,2959.73593,N,12000.37699,E,000603,A*3E
$GPGGA,000604,2959.73228,N,12000.35318,E,3,32,1.04,-7.86,M,7.86,M,,*6F
$GPRMC,000604,A,2959.73228,N,12000.35318,E,75.594,262.231,230721,0.000,E,A,V*5E
$GLRMC,000604,A,2959.73228,N,12000.35318,E,75.594,262.231,230721,0.000,E,A,V*42
$GLGLL,2959.73228,N,12000.35318,E,000604,A*30
$GPGGA,000605,2959.73024,N,12000.32912,E,3,32,1.04,-7.86,M,7.86,M,,*67
$GPRMC,000605,A,2959.73024,N,12000.32912,E,75.594,266.687,230721,0.000,E,A,V*5B
$GLRMC,000605,A,2959.73024,N,12000.32912,E,75.594,266.687,230721,0.000,E,A,V*47
$GLGLL,2959.73024,N,12000.32912,E,000605,A*38
$GPGGA,000606,2959.72984,N,12000.30495,E,3,32,1.04,-7.86,M,7.86,M,,*66
$GPRMC,000606,A,2959.72984,N,12000.30495,E,75.594,271.143,230721,0.000,E,A,V*53
$GLRMC,000606,A,2959.72984,N,12000.30495,E,75.594,271.143,230721,0.000,E,A,V*4F
$GLGLL,2959.72984,N,12000.30495,E,000606,A*39
$GPGGA,000607,2959.73108,N,12000.28081,E,3,32,1.04,-7.86,M,7.86,M,,*62
$GPRMC,000607,A,2959.73108,N,12000.28081,E,75.594,275.599,230721,0.000,E,A,V*50
$GLRMC,000607,A,2959.73108,N,12000.28081,E,75.594,275.599,230721,0.000,E,A,V*4C
$GLGLL,2959.73108,N,12000.28081,E,000607,A*3D
$GPGGA,000608,2959.73394,N,12000.25686,E,3,32,1.04,-7.86,M,7.86,M,,*66
$GPRMC,000608,A,2959.73394,N,12000.25686,E,75.594,280.056,230721,0.000,E,A,V*58
$GLRMC,000608,A,2959.73394,N,12000.25686,E,75.594,280.056,230721,0.000,E,A,V*44
$GLGLL,2959.73394,N,12000.25686,E,000608,A*39
$GPGGA,000609,2959.73842,N,12000.23324,E,3,32,1.04,-7.86,M,7.86,M,,*6C
$GPRMC,000609,A,2959.73842,N,12000.23324,E,75.594,284.512,230721,0.000,E,A,V*53
$GLRMC,000609,A,2959.73842,N,12000.23324,E,75.594,284.512,230721,0.000,E,A,V*4F
$GLGLL,2959.73842,N,12000.23324,E,000609,A*33
$GPGGA,000610,2959.74448,N,12000.21009,E,3,32,1.04,-7.86,M,7.86,M,,*6B
$GPRMC,000610,A,2959.74448,N,12000.21009,E,75.594,288.968,230721,0.000,E,A,V*59
$GLRMC,000610,A,2959.74448,N,12000.21009,E,75.594,288.968,230721,0.000,E,A,V*45
$GLGLL,2959.74448,N,12000.21009,E,000610,A*34
$GPGGA,000611,2959.75209,N,12000.18755,E,3,32,1.04,-7.86,M,7.86,M,,*6C
$GPRMC,000611,A,2959.75209,N,12000.18755,E,75.594,293.424,230721,0.000,E,A,V*51
$GLRMC,000611,A,2959.75209,N,12000.18755,E,75.594,293.424,230721,0.000,E,A,V*4D
$GLGLL,2959.75209,N,12000.18755,E,000611,A*33
$GPGGA,000612,2959.76120,N,12000.16575,E,3,32,1.04,-7.86,M,7.86,M,,*6A
$GPRMC,000612,A,2959.76120,N,12000.16575,E,75.594,297.880,230721,0.000,E,A,V*51
$GLRMC,000612,A,2959.76120,N,12000.16575,E,75.594,297.880,230721,0.000,E,A,V*4D
$GLGLL,2959.76120,N,12000.16575,E,000612,A*35
$GPGGA,000613,2959.77176,N,12000.14484,E,3,32,1.04,-7.86,M,7.86,M,,*64
$GPRMC,000613,A,2959.77176,N,12000.14484,E,75.594,302.336,230721,0.000,E,A,V*54
$GLRMC,000613,A,2959.77176,N,12000.14484,E,75.594,302.336,230721,0.000,E,A,V*48
$GLGLL,2959.77176,N,12000.14484,E,000613,A*3B
$GPGGA,000614,2959.78369,N,12000.12493,E,3,32,1.04,-7.86,M,7.86,M,,*60
$GPRMC,000614,A,2959.78369,N,12000.12493,E,75.594,306.792,230721,0.000,E,A,V*5E
$GLRMC,000614,A,2959.78369,N,12000.12493,E,75.594,306.792,230721,0.000,E,A,V*42
$GLGLL,2959.78369,N,12000.12493,E,000614,A*3F
$GPGGA,000615,2959.79694,N,12000.10615,E,3,32,1.04,-7.86,M,7.86,M,,*69
$GPRMC,000615,A,2959.79694,N,12000.10615,E,75.594,311.249,230721,0.000,E,A,V*52
$GLRMC,000615,A,2959.79694,N,12000.10615,E,75.594,311.249,230721,0.000,E,A,V*4E
$GLGLL,2959.79694,N,12000.10615,E,000615,A*36
$GPGGA,000616,2959.81142,N,12000.08860,E,3,32,1.04,-7.86,M,7.86,M,,*64
$GPRMC,000616,A,2959.81142,N,12000.08860,E,75.594,315.705,230721,0.000,E,A,V*56
$GLRMC,000616,A,2959.81142,N,12000.08860,E,75.594,315.705,230721,0.000,E,A,V*4A
$GLGLL,2959.81142,N,12000.08860,E,000616,A*3B
$GPGGA,000617,2959.82704,N,12000.07240,E,3,32,1.04,-7.86,M,7.86,M,,*65
$GPRMC,000617,A,2959.82704,N,12000.07240,E,75.594,320.161,230721,0.000,E,A,V*55
$GLRMC,000617,A,2959.82704,N,12000.07240,E,75.594,320.161,230721,0.000,E,A,V*49
$GLGLL,2959.82704,N,12000.07240,E,000617,A*3A
$GPGGA,000618,2959.84371,N,12000.05765,E,3,32,1.04,-7.86,M,7.86,M,,*6A
$GPRMC,000618,A,2959.84371,N,12000.05765,E,75.594,324.617,230721,0.000,E,A,V*58
$GLRMC,000618,A,2959.84371,N,12000.05765,E,75.594,324.617,230721,0.000,E,A,V*44
$GLGLL,2959.84371,N,12000.05765,E,000618,A*35
$GPGGA,000619,2959.86133,N,12000.04443,E,3,32,1.04,-7.86,M,7.86,M,,*6B
$GPRMC,000619,A,2959.86133,N,12000.04443,E,75.594,329.073,230721,0.000,E,A,V*50
$GLRMC,000619,A,2959.86133,N,12000.04443,E,75.594,329.073,230721,0.000,E,A,V*4C
$GLGLL,2959.86133,N,12000.04443,E,000619,A*34
$GPGGA,000620,2959.87979,N,12000.03282,E,3,32,1.04,-7.86,M,7.86,M,,*6A
$GPRMC,000620,A,2959.87979,N,12000.03282,E,75.594,333.530,230721,0.000,E,A,V*58
$GLRMC,000620,A,2959.87979,N,12000.03282,E,75.594,333.530,230721,0.000,E,A,V*44
$GLGLL,2959.87979,N,12000.03282,E,000620,A*35
$GPGGA,000621,2959.89898,N,12000.02289,E,3,32,1.04,-7.86,M,7.86,M,,*61
$GPRMC,000621,A,2959.89898,N,12000.02289,E,75.594,337.986,230721,0.000,E,A,V*56
$GLRMC,000621,A,2959.89898,N,12000.02289,E,75.594,337.986,230721,0.000,E,A,V*4A
$GLGLL,2959.89898,N,12000.02289,E,000621,A*3E
$GPGGA,000622,2959.91878,N,12000.01471,E,3,32,1.04,-7.86,M,7.86,M,,*67
$GPRMC,000622,A,2959.91878,N,12000.01471,E,75.594,342.442,230721,0.000,E,A,V*57
$GLRMC,000622,A,2959.91878,N,12000.01471,E,75.594,342.442,230721,0.000,E,A,V*4B
$GLGLL,2959.91878,N,12000.01471,E,000622,A*38
$GPGGA,000623,2959.93907,N,12000.00831,E,3,32,1.04,-7.86,M,7.86,M,,*64
$GPRMC,000623,A,2959.93907,N,12000.00831,E,75.594,346.898,230721,0.000,E,A,V*5B
$GLRMC,000623,A,2959.93907,N,12000.00831,E,75.594,346.898,230721,0.000,E,A,V*47
$GLGLL,2959.93907,N,12000.00831,E,000623,A*3B
$GPGGA,000624,2959.95974,N,12000.00375,E,3,32,1.04,-7.86,M,7.86,M,,*6A
$GPRMC,000624,A,2959.95974,N,12000.00375,E,75.594,351.355,230721,0.000,E,A,V*59
$GLRMC,000624,A,2959.95974,N,12000.00375,E,75.594,351.355,230721,0.000,E,A,V*45
$GLGLL,2959.95974,N,12000.00375,E,000624,A*35
$GPGGA,000625,2959.98065,N,12000.00105,E,3,32,1.04,-7.86,M,7.86,M,,*6A
$GPRMC,000625,A,2959.98065,N,12000.00105,E,75.594,355.811,230721,0.000,E,A,V*56
$GLRMC,000625,A,2959.98065,N,12000.00105,E,75.594,355.811,230721,0.000,E,A,V*4A
$GLGLL,2959.98065,N,12000.00105,E,000625,A*35
$GPGGA,000626,3000.00168,N,12000.00022,E,3,32,1.04,-7.86,M,7.86,M,,*64
$GPRMC,000626,A,3000.00168,N,12000.00022,E,75.594,0.267,230721,0.000,E,A,V*50
$GLRMC,000626,A,3000.00168,N,12000.00022,E,75.594,0.267,230721,0.000,E,A,V*4C
$GLGLL,3000.00168,N,12000.00022,E,000626,A*3B
$GPGGA,000627,3000.02271,N,12000.00128,E,3,32,1.04,-7.85,M,7.85,M,,*67
$GPRMC,000627,A,3000.02271,N,12000.00128,E,75.594,4.724,230721,0.000,E,A,V*55
$GLRMC,000627,A,3000.02271,N,12000.00128,E,75.594,4.724,230721,0.000,E,A,V*49
$GLGLL,3000.02271,N,12000.00128,E,000627,A*38
$GPGGA,000628,3000.04360,N,12000.00420,E,3,32,1.04,-7.85,M,7.85,M,,*62
$GPRMC,000628,A,3000.04360,N,12000.00420,E,75.594,9.180,230721,0.000,E,A,V*55
$GLRMC,000628,A,3000.04360,N,12000.00420,E,75.594,9.180,230721,0.000,E,A,V*49
$GLGLL,3000.04360,N,12000.00420,E,000628,A*3D
$GPGGA,000629,3000.06422,N,12000.00899,E,3,32,1.04,-7.85,M,7.85,M,,*6E
$GPRMC,000629,A,3000.06422,N,12000.00899,E,75.594,13.636,230721,0.000,E,A,V*68
$GLRMC,000629,A,3000.06422,N,12000.00899,E,75.594,13.636,230721,0.000,E,A,V*74
$GLGLL,3000.06422,N,12000.00899,E,000629,A*31
$GPGGA,000630,3000.08447,N,12000.01559,E,3,32,1.04,-7.85,M,7.85,M,,*6B
$GPRMC,000630,A,3000.08447,N,12000.01559,E,75.594,18.093,230721,0.000,E,A,V*6F
$GLRMC,000630,A,3000.08447,N,12000.01559,E,75.594,18.093,230721,0.000,E,A,V*73
$GLGLL,3000.08447,N,12000.01559,E,000630,A*34
$GPGGA,000631,3000.10420,N,12000.02399,E,3,32,1.04,-7.85,M,7.85,M,,*6B
$GPRMC,000631,A,3000.10420,N,12000.02399,E,75.594,22.549,230721,0.000,E,A,V*64
$GLRMC,000631,A,3000.10420,N,12000.02399,E,75.594,22.549,230721,0.000,E,A,V*78
$GLGLL,3000.10420,N,12000.02399,E,000631,A*34
$GPGGA,000632,3000.12331,N,12000.03412,E,3,32,1.04,-7.85,M,7.85,M,,*68
$GPRMC,000632,A,3000.12331,N,12000.03412,E,75.594,27.006,230721,0.000,E,A,V*6C
$GLRMC,000632,A,3000.12331,N,12000.03412,E,75.594,27.006,230721,0.000,E,A,V*70
$GLGLL,3000.12331,N,12000.03412,E,000632,A*37
$GPGGA,000633,3000.14167,N,12000.04593,E,3,32,1.04,-7.85,M,7.85,M,,*61
$GPRMC,000633,A,3000.14167,N,12000.04593,E,75.594,31.462,230721,0.000,E,A,V*64
$GLRMC,000633,A,3000.14167,N,12000.04593,E,75.594,31.462,230721,0.000,E,A,V*78
$GLGLL,3000.14167,N,12000.04593,E,000633,A*3E
$GPGGA,000634,3000.15918,N,12000.05934,E,3,32,1.04,-7.85,M,7.85,M,,*67
$GPRMC,000634,A,3000.15918,N,12000.05934,E,75.594,35.918,230721,0.000,E,A,V*66
$GLRMC,000634,A,3000.15918,N,12000.05934,E,75.594,35.918,230721,0.000,E,A,V*7A
$GLGLL,3000.15918,N,12000.05934,E,000634,A*38
$GPGGA,000635,3000.17573,N,12000.07428,E,3,32,1.04,-7.85,M,7.85,M,,*67
$GPRMC,000635,A,3000.17573,N,12000.07428,E,75.594,40.375,230721,0.000,E,A,V*65
$GLRMC,000635,A,3000.17573,N,12000.07428,E,75.594,40.375,230721,0.000,E,A,V*79
$GLGLL,3000.17573,N,12000.07428,E,000635,A*38
$GPGGA,000636,3000.19122,N,12000.09064,E,3,32,1.04,-7.85,M,7.85,M,,*68
$GPRMC,000636,A,3000.19122,N,12000.09064,E,75.594,44.831,230721,0.000,E,A,V*65
$GLRMC,000636,A,3000.19122,N,12000.09064,E,75.594,44.831,230721,0.000,E,A,V*79
$GLGLL,3000.19122,N,12000.09064,E,000636,A*37
$GPGGA,000637,3000.20556,N,12000.10834,E,3,32,1.04,-7.85,M,7.85,M,,*61
$GPRMC,000637,A,3000.20556,N,12000.10834,E,75.594,49.288,230721,0.000,E,A,V*69
$GLRMC,000637,A,3000.20556,N,12000.10834,E,75.594,49.288,230721,0.000,E,A,V*75
$GLGLL,3000.20556,N,12000.10834,E,000637,A*3E
$GPGGA,000638,3000.21865,N,12000.12727,E,3,32,1.04,-7.85,M,7.85,M,,*6D
$GPRMC,000638,A,3000.21865,N,12000.12727,E,75.594,53.744,230721,0.000,E,A,V*6B
$GLRMC,000638,A,3000.21865,N,12000.12727,E,75.594,53.744,230721,0.000,E,A,V*77
$GLGLL,3000.21865,N,12000.12727,E,000638,A*32
$GPGGA,000639,3000.23043,N,12000.14731,E,3,32,1.04,-7.85,M,7.85,M,,*63
$GPRMC,000639,A,3000.23043,N,12000.14731,E,75.594,58.201,230721,0.000,E,A,V*6A
$GLRMC,000639,A,3000.23043,N,12000.14731,E,75.594,58.201,230721,0.000,E,A,V*76
$GLGLL,3000.23043,N,12000.14731,E,000639,A*3C
$GPGGA,000640,3000.24081,N,12000.16833,E,3,32,1.04,-7.86,M,7.86,M,,*6B
$GPRMC,000640,A,3000.24081,N,12000.16833,E,75.594,62.657,230721,0.000,E,A,V*6C
$GLRMC,000640,A,3000.24081,N,12000.16833,E,75.594,62.657,230721,0.000,E,A,V*70
$GLGLL,3000.24081,N,12000.16833,E,000640,A*34
$GPGGA,000641,3000.24975,N,12000.19023,E,3,32,1.04,-7.86,M,7.86,M,,*6E
$GPRMC,000641,A,3000.24975,N,12000.19023,E,75.594,67.114,230721,0.000,E,A,V*6C
$GLRMC,000641,A,3000.24975,N,12000.19023,E,75.594,67.114,230721,0.000,E,A,V*70
$GLGLL,3000.24975,N,12000.19023,E,000641,A*31
$GPGGA,000642,3000.25717,N,12000.21285,E,3,32,1.04,-7.86,M,7.86,M,,*63
$GPRMC,000642,A,3000.25717,N,12000.21285,E,75.594,71.570,230721,0.000,E,A,V*60
$GLRMC,000642,A,3000.25717,N,12000.21285,E,75.594,71.570,230721,0.000,E,A,V*7C
$GLGLL,3000.25717,N,12000.21285,E,000642,A*3C
$GPGGA,000643,3000.26304,N,12000.23607,E,3,32,1.04,-7.86,M,7.86,M,,*6B
$GPRMC,000643,A,3000.26304,N,12000.23607,E,75.594,76.027,230721,0.000,E,A,V*68
$GLRMC,000643,A,3000.26304,N,12000.23607,E,75.594,76.027,230721,0.000,E,A,V*74
$GLGLL,3000.26304,N,12000.23607,E,000643,A*34
$GPGGA,000644,3000.26733,N,12000.25974,E,3,32,1.04,-7.86,M,7.86,M,,*61
$GPRMC,000644,A,3000.26733,N,12000.25974,E,75.594,80.483,230721,0.000,E,A,V*61
$GLRMC,000644,A,3000.26733,N,12000.25974,E,75.594,80.483,230721,0.000,E,A,V*7D
$GLGLL,3000.26733,N,12000.25974,E,000644,A*3E
$GPGGA,000645,3000.27000,N,12000.28372,E,3,32,1.04,-7.86,M,7.86,M,,*67
$GPRMC,000645,A,3000.27000,N,12000.28372,E,75.594,84.940,230721,0.000,E,A,V*61
$GLRMC,000645,A,3000.27000,N,12000.28372,E,75.594,84.940,230721,0.000,E,A,V*7D
$GLGLL,3000.27000,N,12000.28372,E,000645,A*38
$GPGGA,000646,3000.27104,N,12000.30787,E,3,32,1.04,-7.86,M,7.86,M,,*66
$GPRMC,000646,A,3000.27104,N,12000.30787,E,75.594,89.396,230721,0.000,E,A,V*6C
$GLRMC,000646,A,3000.27104,N,12000.30787,E,75.594,89.396,230721,0.000,E,A,V*70
$GLGLL,3000.27104,N,12000.30787,E,000646,A*39
$GPGGA,000647,3000.27044,N,12000.33204,E,3,32,1.04,-7.86,M,7.86,M,,*6F
$GPRMC,000647,A,3000.27044,N,12000.33204,E,75.594,93.853,230721,0.000,E,A,V*6C
$GLRMC,000647,A,3000.27044,N,12000.33204,E,75.594,93.853,230721,0.000,E,A,V*70
$GLGLL,3000.27044,N,12000.33204,E,000647,A*30
$GPGGA,000648,3000.26821,N,12000.35608,E,3,32,1.04,-7.86,M,7.86,M,,*64
$GPRMC,000648,A,3000.26821,N,12000.35608,E,75.594,98.310,230721,0.000,E,A,V*60
$GLRMC,000648,A,3000.26821,N,12000.35608,E,75.594,98.310,230721,0.000,E,A,V*7C
$GLGLL,3000.26821,N,12000.35608,E,000648,A*3B
$GPGGA,000649,3000.26437,N,12000.37985,E,3,32,1.04,-7.86,M,7.86,M,,*66
$GPRMC,000649,A,3000.26437,N,12000.37985,E,75.594,102.766,230721,0.000,E,A,V*55
$GLRMC,000649,A,3000.26437,N,12000.37985,E,75.594,102.766,230721,0.000,E,A,V*49
$GLGLL,3000.26437,N,12000.37985,E,000649,A*39
$GPGGA,000650,3000.25892,N,12000.40321,E,3,32,1.04,-7.86,M,7.86,M,,*6A
$GPRMC,000650,A,3000.25892,N,12000.40321,E,75.594,107.223,230721,0.000,E,A,V*58
$GLRMC,000650,A,3000.25892,N,12000.40321,E,75.594,107.223,230721,0.000,E,A,V*44
$GLGLL,3000.25892,N,12000.40321,E,000650,A*35
$GPGGA,000651,3000.25192,N,12000.42600,E,3,32,1.04,-7.86,M,7.86,M,,*66
$GPRMC,000651,A,3000.25192,N,12000.42600,E,75.594,111.679,230721,0.000,E,A,V*58
$GLRMC,000651,A,3000.25192,N,12000.42600,E,75.594,111.679,230721,0.000,E,A,V*44
$GLGLL,3000.25192,N,12000.42600,E,000651,A*39
$GPGGA,000652,3000.24339,N,12000.44811,E,3,32,1.04,-7.86,M,7.86,M,,*6F
$GPRMC,000652,A,3000.24339,N,12000.44811,E,75.594,116.136,230721,0.000,E,A,V*5A
$GLRMC,000652,A,3000.24339,N,12000.44811,E,75.594,116.136,230721,0.000,E,A,V*46
$GLGLL,3000.24339,N,12000.44811,E,000652,A*30
$GPGGA,000653,3000.23339,N,12000.46939,E,3,32,1.04,-7.86,M,7.86,M,,*60
$GPRMC,000653,A,3000.23339,N,12000.46939,E,75.594,120.592,230721,0.000,E,A,V*5A
$GLRMC,000653,A,3000.23339,N,12000.46939,E,75.594,120.592,230721,0.000,E,A,V*46
$GLGLL,3000.23339,N,12000.46939,E,000653,A*3F
$GPGGA,000654,3000.22199,N,12000.48970,E,3,32,1.04,-7.86,M,7.86,M,,*6D
$GPRMC,000654,A,3000.22199,N,12000.48970,E,75.594,125.049,230721,0.000,E,A,V*51
$GLRMC,000654,A,3000.22199,N,12000.48970,E,75.594,125.049,230721,0.000,E,A,V*4D
$GLGLL,3000.22199,N,12000.48970,E,000654,A*32
$GPGGA,000655,3000.20924,N,12000.50894,E,3,32,1.04,-7.86,M,7.86,M,,*62
$GPRMC,000655,A,3000.20924,N,12000.50894,E,75.594,129.505,230721,0.000,E,A,V*5F
$GLRMC,000655,A,3000.20924,N,12000.50894,E,75.594,129.505,230721,0.000,E,A,V*43
$GLGLL,3000.20924,N,12000.50894,E,000655,A*3D
$GPGGA,000656,3000.19524,N,12000.52699,E,3,32,1.04,-7.86,M,7.86,M,,*66
$GPRMC,000656,A,3000.19524,N,12000.52699,E,75.594,133.962,230721,0.000,E,A,V*5D
$GLRMC,000656,A,3000.19524,N,12000.52699,E,75.594,133.962,230721,0.000,E,A,V*41
$GLGLL,3000.19524,N,12000.52699,E,000656,A*39
$GPGGA,000657,3000.18005,N,12000.54373,E,3,32,1.04,-7.86,M,7.86,M,,*67
$GPRMC,000657,A,3000.18005,N,12000.54373,E,75.594,138.418,230721,0.000,E,A,V*57
$GLRMC,000657,A,3000.18005,N,12000.54373,E,75.594,138.418,230721,0.000,E,A,V*4B
$GLGLL,3000.18005,N,12000.54373,E,000657,A*38
$GPGGA,000658,3000.16378,N,12000.55906,E,3,32,1.04,-7.86,M,7.86,M,,*66
$GPRMC,000658,A,3000.16378,N,12000.55906,E,75.594,142.875,230721,0.000,E,A,V*5C
$GLRMC,000658,A,3000.16378,N,12000.55906,E,75.594,142.875,230721,0.000,E,A,V*40
$GLGLL,3000.16378,N,12000.55906,E,000658,A*39
$GPGGA,000659,3000.14652,N,12000.57289,E,3,32,1.04,-7.86,M,7.86,M,,*66
$GPRMC,000659,A,3000.14652,N,12000.57289,E,75.594,147.331,230721,0.000,E,A,V*52
$GLRMC,000659,A,3000.14652,N,12000.57289,E,75.594,147.331,230721,0.000,E,A,V*4E
$GLGLL,3000.14652,N,12000.57289,E,000659,A*39
$GPGGA,000700,3000.12838,N,12000.58515,E,3,32,1.04,-7.86,M,7.86,M,,*62
$GPRMC,000700,A,3000.12838,N,12000.58515,E,75.594,151.787,230721,0.000,E,A,V*58
$GLRMC,000700,A,3000.12838,N,12000.58515,E,75.594,151.787,230721,0.000,E,A,V*44
$GLGLL,3000.12838,N,12000.58515,E,000700,A*3D
$GPGGA,000701,3000.10947,N,12000.59574,E,3,32,1.04,-7.86,M,7.86,M,,*6E
$GPRMC,000701,A,3000.10947,N,12000.59574,E,75.594,156.244,230721,0.000,E,A,V*59
$GLRMC,000701,A,3000.10947,N,12000.59574,E,75.594,156.244,230721,0.000,E,A,V*45
$GLGLL,3000.10947,N,12000.59574,E,000701,A*31
$GPGGA,000702,3000.08989,N,12000.60461,E,3,32,1.04,-7.86,M,7.86,M,,*69
$GPRMC,000702,A,3000.08989,N,12000.60461,E,75.594,160.700,230721,0.000,E,A,V*5E
$GLRMC,000702,A,3000.08989,N,12000.60461,E,75.594,160.700,230721,0.000,E,A,V*42
$GLGLL,3000.08989,N,12000.60461,E,000702,A*36
$GPGGA,000703,3000.06977,N,12000.61171,E,3,32,1.04,-7.86,M,7.86,M,,*62
$GPRMC,000703,A,3000.06977,N,12000.61171,E,75.594,165.157,230721,0.000,E,A,V*54
$GLRMC,000703,A,3000.06977,N,12000.61171,E,75.594,165.157,230721,0.000,E,A,V*48
$GLGLL,3000.06977,N,12000.61171,E,000703,A*3D
$GPGGA,000704,3000.04924,N,12000.61700,E,3,32,1.04,-7.86,M,7.86,M,,*61
$GPRMC,000704,A,3000.04924,N,12000.61700,E,75.594,169.613,230721,0.000,E,A,V*5C
$GLRMC,000704,A,3000.04924,N,12000.61700,E,75.594,169.613,230721,0.000,E,A,V*40
$GLGLL,3000.04924,N,12000.61700,E,000704,A*3E
$GPGGA,000705,3000.02841,N,12000.62043,E,3,32,1.04,-7.86,M,7.86,M,,*67
$GPRMC,000705,A,3000.02841,N,12000.62043,E,75.594,174.069,230721,0.000,E,A,V*5D
$GLRMC,000705,A,3000.02841,N,12000.62043,E,75.594,174.069,230721,0.000,E,A,V*41
$GLGLL,3000.02841,N,12000.62043,E,000705,A*38
$GPGGA,000706,3000.00741,N,12000.62199,E,3,32,1.04,-7.86,M,7.86,M,,*6F
$GPRMC,000706,A,3000.00741,N,12000.62199,E,75.594,178.526,230721,0.000,E,A,V*57
$GLRMC,000706,A,3000.00741,N,12000.62199,E,75.594,178.526,230721,0.000,E,A,V*4B
$GLGLL,3000.00741,N,12000.62199,E,000706,A*30
$GPGGA,000707,2959.98637,N,12000.62168,E,3,32,1.04,-7.86,M,7.86,M,,*65
$GPRMC,000707,A,2959.98637,N,12000.62168,E,75.594,182.982,230721,0.000,E,A,V*5A
$GLRMC,000707,A,2959.98637,N,12000.62168,E,75.594,182.982,230721,0.000,E,A,V*46
$GLGLL,2959.98637,N,12000.62168,E,000707,A*3A
$GPGGA,000708,2959.96541,N,12000.61948,E,3,32,1.04,-7.86,M,7.86,M,,*6F
$GPRMC,000708,A,2959.96541,N,12000.61948,E,75.594,187.438,230721,0.000,E,A,V*59
$GLRMC,000708,A,2959.96541,N,12000.61948,E,75.594,187.438,230721,0.000,E,A,V*45
$GLGLL,2959.96541,N,12000.61948,E,000708,A*30
$GPGGA,000709,2959.94466,N,12000.61543,E,3,32,1.04,-7.86,M,7.86,M,,*6F
$GPRMC,000709,A,2959.94466,N,12000.61543,E,75.594,191.895,230721,0.000,E,A,V*55
$GLRMC,000709,A,2959.94466,N,12000.61543,E,75.594,191.895,230721,0.000,E,A,V*49
$GLGLL,2959.94466,N,12000.61543,E,000709,A*30
$GPGGA,000710,2959.92426,N,12000.60953,E,3,32,1.04,-7.86,M,7.86,M,,*69
$GPRMC,000710,A,2959.92426,N,12000.60953,E,75.594,196.351,230721,0.000,E,A,V*57
$GLRMC,000710,A,2959.92426,N,12000.60953,E,75.594,196.351,230721,0.000,E,A,V*4B
$GLGLL,2959.92426,N,12000.60953,E,000710,A*36
$GPGGA,000711,2959.90431,N,12000.60183,E,3,32,1.04,-7.86,M,7.86,M,,*69
$GPRMC,000711,A,2959.90431,N,12000.60183,E,75.594,200.807,230721,0.000,E,A,V*53
$GLRMC,000711,A,2959.90431,N,12000.60183,E,75.594,200.807,230721,0.000,E,A,V*4F
$GLGLL,2959.90431,N,12000.60183,E,000711,A*36
$GPGGA,000712,2959.88494,N,12000.59237,E,3,32,1.04,-7.86,M,7.86,M,,*6A
$GPRMC,000712,A,2959.88494,N,12000.59237,E,75.594,205.263,230721,0.000,E,A,V*5D
$GLRMC,000712,A,2959.88494,N,12000.59237,E,75.594,205.263,230721,0.000,E,A,V*41
$GLGLL,2959.88494,N,12000.59237,E,000712,A*35
$GPGGA,000713,2959.86627,N,12000.58121,E,3,32,1.04,-7.86,M,7.86,M,,*6A
$GPRMC,000713,A,2959.86627,N,12000.58121,E,75.594,209.720,230721,0.000,E,A,V*53
$GLRMC,000713,A,2959.86627,N,12000.58121,E,75.594,209.720,230721,0.000,E,A,V*4F
$GLGLL,2959.86627,N,12000.58121,E,000713,A*35
$GPGGA,000714,2959.84842,N,12000.56842,E,3,32,1.04,-7.86,M,7.86,M,,*60
$GPRMC,000714,A,2959.84842,N,12000.56842,E,75.594,214.176,230721,0.000,E,A,V*50
$GLRMC,000714,A,2959.84842,N,12000.56842,E,75.594,214.176,230721,0.000,E,A,V*4C
$GLGLL,2959.84842,N,12000.56842,E,000714,A*3F
$GPGGA,000715,2959.83148,N,12000.55407,E,3,32,1.04,-7.86,M,7.86,M,,*6B
$GPRMC,000715,A,2959.83148,N,12000.55407,E,75.594,218.632,230721,0.000,E,A,V*50
$GLRMC,000715,A,2959.83148,N,12000.55407,E,75.594,218.632,230721,0.000,E,A,V*4C
$GLGLL,2959.83148,N,12000.55407,E,000715,A*34
$GPGGA,000716,2959.81556,N,12000.53826,E,3,32,1.04,-7.86,M,7.86,M,,*68
$GPRMC,000716,A,2959.81556,N,12000.53826,E,75.594,223.088,230721,0.000,E,A,V*5C
$GLRMC,000716,A,2959.81556,N,12000.53826,E,75.594,223.088,230721,0.000,E,A,V*40
$GLGLL,2959.81556,N,12000.53826,E,000716,A*37
$GPGGA,000717,2959.80076,N,12000.52107,E,3,32,1.04,-7.86,M,7.86,M,,*64
$GPRMC,000717,A,2959.80076,N,12000.52107,E,75.594,227.544,230721,0.000,E,A,V*51
$GLRMC,000717,A,2959.80076,N,12000.52107,E,75.594,227.544,230721,0.000,E,A,V*4D
$GLGLL,2959.80076,N,12000.52107,E,000717,A*3B
$GPGGA,000718,2959.78717,N,12000.50261,E,3,32,1.04,-7.86,M,7.86,M,,*6D
$GPRMC,000718,A,2959.78717,N,12000.50261,E,75.594,232.001,230721,0.000,E,A,V*58
$GLRMC,000718,A,2959.78717,N,12000.50261,E,75.594,232.001,230721,0.000,E,A,V*44
$GLGLL,2959.78717,N,12000.50261,E,000718,A*32
$GPGGA,000719,2959.77487,N,12000.48300,E,3,32,1.04,-7.86,M,7.86,M,,*66
$GPRMC,000719,A,2959.77487,N,12000.48300,E,75.594,236.457,230721,0.000,E,A,V*50
$GLRMC,000719,A,2959.77487,N,12000.48300,E,75.594,236.457,230721,0.000,E,A,V*4C
$GLGLL,2959.77487,N,12000.48300,E,000719,A*39
$GPGGA,000720,2959.76393,N,12000.46235,E,3,32,1.04,-7.86,M,7.86,M,,*66
$GPRMC,000720,A,2959.76393,N,12000.46235,E,75.594,240.913,230721,0.000,E,A,V*5C
$GLRMC,000720,A,2959.76393,N,12000.46235,E,75.594,240.913,230721,0.000,E,A,V*40
$GLGLL,2959.76393,N,12000.46235,E,000720,A*39
$GPGGA,000721,2959.75442,N,12000.44078,E,3,32,1.04,-7.86,M,7.86,M,,*66
$GPRMC,000721,A,2959.75442,N,12000.44078,E,75.594,245.369,230721,0.000,E,A,V*5E
$GLRMC,000721,A,2959.75442,N,12000.44078,E,75.594,245.369,230721,0.000,E,A,V*42
$GLGLL,2959.75442,N,12000.44078,E,000721,A*39
$GPGGA,000722,2959.74640,N,12000.41843,E,3,32,1.04,-7.86,M,7.86,M,,*61
$GPRMC,000722,A,2959.74640,N,12000.41843,E,75.594,249.825,230721,0.000,E,A,V*56
$GLRMC,000722,A,2959.74640,N,12000.41843,E,75.594,249.825,230721,0.000,E,A,V*4A
$GLGLL,2959.74640,N,12000.41843,E,000722,A*3E
$GPGGA,000723,2959.73991,N,12000.39543,E,3,31,1.04,-7.86,M,7.86,M,,*65
$GPRMC,000723,A,2959.73991,N,12000.39543,E,75.594,254.281,230721,0.000,E,A,V*59
$GLRMC,000723,A,2959.73991,N,12000.39543,E,75.594,254.281,230721,0.000,E,A,V*45
$GLGLL,2959.73991,N,12000.39543,E,000723,A*39
$GPGGA,000724,2959.73500,N,12000.37192,E,3,31,1.04,-7.86,M,7.86,M,,*60
$GPRMC,000724,A,2959.73500,N,12000.37192,E,75.594,258.737,230721,0.000,E,A,V*58
$GLRMC,000724,A,2959.73500,N,12000.37192,E,75.594,258.737,230721,0.000,E,A,V*44
$GLGLL,2959.73500,N,12000.37192,E,000724,A*3C
$GPGGA,000725,2959.73170,N,12000.34804,E,3,31,1.04,-7.86,M,7.86,M,,*67
$GPRMC,000725,A,2959.73170,N,12000.34804,E,75.594,263.194,230721,0.000,E,A,V*58
$GLRMC,000725,A,2959.73170,N,12000.34804,E,75.594,263.194,230721,0.000,E,A,V*44
$GLGLL,2959.73170,N,12000.34804,E,000725,A*3B
$GPGGA,000726,2959.73002,N,12000.32395,E,3,31,1.04,-7.86,M,7.86,M,,*65
$GPRMC,000726,A,2959.73002,N,12000.32395,E,75.594,267.650,230721,0.000,E,A,V*51
$GLRMC,000726,A,2959.73002,N,12000.32395,E,75.594,267.650,230721,0.000,E,A,V*4D
$GLGLL,2959.73002,N,12000.32395,E,000726,A*39
$GPGGA,000727,2959.72997,N,12000.29977,E,3,31,1.04,-7.86,M,7.86,M,,*6C
$GPRMC,000727,A,2959.72997,N,12000.29977,E,75.594,272.106,230721,0.000,E,A,V*58
$GLRMC,000727,A,2959.72997,N,12000.29977,E,75.594,272.106,230721,0.000,E,A,V*44
$GLGLL,2959.72997,N,12000.29977,E,000727,A*30
$GPGGA,000728,2959.73156,N,12000.27566,E,3,31,1.04,-7.86,M,7.86,M,,*65
$GPRMC,000728,A,2959.73156,N,12000.27566,E,75.594,276.562,230721,0.000,E,A,V*53
$GLRMC,000728,A,2959.73156,N,12000.27566,E,75.594,276.562,230721,0.000,E,A,V*4F
$GLGLL,2959.73156,N,12000.27566,E,000728,A*39
$GPGGA,000729,2959.73478,N,12000.25177,E,3,31,1.04,-7.86,M,7.86,M,,*6B
$GPRMC,000729,A,2959.73478,N,12000.25177,E,75.594,281.018,230721,0.000,E,A,V*5D
$GLRMC,000729,A,2959.73478,N,12000.25177,E,75.594,281.018,230721,0.000,E,A,V*41
$GLGLL,2959.73478,N,12000.25177,E,000729,A*37
$GPGGA,000730,2959.73960,N,12000.22824,E,3,31,1.04,-7.86,M,7.86,M,,*6F
$GPRMC,000730,A,2959.73960,N,12000.22824,E,75.594,285.474,230721,0.000,E,A,V*53
$GLRMC,000730,A,2959.73960,N,12000.22824,E,75.594,285.474,230721,0.000,E,A,V*4F
$GLGLL,2959.73960,N,12000.22824,E,000730,A*33
$GPGGA,000731,2959.74600,N,12000.20521,E,3,31,1.04,-7.86,M,7.86,M,,*6A
$GPRMC,000731,A,2959.74600,N,12000.20521,E,75.594,289.930,230721,0.000,E,A,V*57
$GLRMC,000731,A,2959.74600,N,12000.20521,E,75.594,289.930,230721,0.000,E,A,V*4B
$GLGLL,2959.74600,N,12000.20521,E,000731,A*36
$GPGGA,000732,2959.75393,N,12000.18282,E,3,31,1.04,-7.86,M,7.86,M,,*62
$GPRMC,000732,A,2959.75393,N,12000.18282,E,75.594,294.387,230721,0.000,E,A,V*55
$GLRMC,000732,A,2959.75393,N,12000.18282,E,75.594,294.387,230721,0.000,E,A,V*49
$GLGLL,2959.75393,N,12000.18282,E,000732,A*3E
$GPGGA,000733,2959.76336,N,12000.16120,E,3,31,1.04,-7.86,M,7.86,M,,*6A
$GPRMC,000733,A,2959.76336,N,12000.16120,E,75.594,298.843,230721,0.000,E,A,V*52
$GLRMC,000733,A,2959.76336,N,12000.16120,E,75.594,298.843,230721,0.000,E,A,V*4E
$GLGLL,2959.76336,N,12000.16120,E,000733,A*36
