=~=~=~=~=~=~=~=~=~=~=~= PuTTY log 2021.09.02 14:39:41 =~=~=~=~=~=~=~=~=~=~=~=
$GNGGA,000617.000,2959.9998,N,12000.0000,E,1,6,1.07,-7.1,M,7.0,M,,*5B
$GPGSA,A,3,,,,,,,,,,,,,1.43,1.07,0.95*0E
$GLGSA,A,3,,,,,,,,,,,,,1.43,1.07,0.95*12
$BDGSA,A,3,12,14,09,13,11,06,,,,,,,1.43,1.07,0.95*14
$GPGSV,4,1,14,07,84,090,,25,64,041,,08,50,208,,04,50,243,*78
$GPGSV,4,2,14,13,48,034,,02,34,297,,23,26,059,,27,21,220,*75
$GPGSV,4,3,14,39,20,251,,10,03,311,,28,01,181,,193,,,*7C
$GPGSV,4,4,14,194,,,,195,,,*7D
$GLGSV,1,1,0*55
$BDGSV,3,1,9,02,50,173,30.7,13,46,201,32.1,09,37,286,31.5,06,36,216,31.5*51
$BDGSV,3,2,9,04,36,126,29.7,11,20,130,31.3,12,10,059,30.9,14,07,165,30.8*56
$BDGSV,3,3,9,01,,,30.4*49
$GNRMC,000617.000,A,2959.9998,N,12000.0000,E,0.000,127.49,230721,,,A*49
$GNVTG,127.49,T,,M,0.000,N,0.000,K,A*2A
$PMTKGEPH,0,0,0,0,0,0,0,0,0,0,0,0,0,0,0,0,0,0,0,0,0,0,0,0,0,0,0,0,0,0,0,0,0*04
$PMTKGALM,28,1,1,1,1,1,1,1,1,1,1,1,1,1,1,1,1,0,0,0,1,1,1,1,1,1,1,1,1,1,1,1,0*23
$GNACCURACY,2.5,179.9,0.8,22.9*24
$PMTKAGC,000617.000,2960,2876,5714,5593,0,4,0*66
$PMTKAG2,000617.000,4,0119,0,0,0,0,0,0,0,0,0,0,0,0*39
$GNGGA,000618.000,2959.9998,N,12000.0000,E,1,6,1.07,-7.1,M,7.0,M,,*54
$GPGSA,A,3,,,,,,,,,,,,,1.43,1.07,0.95*0E
$GLGSA,A,3,,,,,,,,,,,,,1.43,1.07,0.95*12
$BDGSA,A,3,12,14,09,13,11,06,,,,,,,1.43,1.07,0.95*14
$GPGSV,4,1,14,07,84,090,,25,64,041,,08,50,208,,04,50,243,*78
$GPGSV,4,2,14,13,48,034,,02,34,297,,23,26,059,,27,21,220,*75
$GPGSV,4,3,14,39,20,251,,10,03,311,,28,01,181,,193,,,*7C
$GPGSV,4,4,14,194,,,,195,,,*7D
$GLGSV,1,1,0*55
$BDGSV,3,1,9,02,50,173,30.7,13,46,201,32.1,09,37,286,31.6,06,36,216,31.5*52
$BDGSV,3,2,9,04,36,126,29.7,11,20,130,31.3,12,10,059,31.0,14,07,165,30.9*5F
$BDGSV,3,3,9,01,,,30.4*49
$GNRMC,000618.000,A,2959.9998,N,12000.0000,E,0.000,127.49,230721,,,A*46
$GNVTG,127.49,T,,M,0.000,N,0.000,K,A*2A
$PMTKGEPH,0,0,0,0,0,0,0,0,0,0,0,0,0,0,0,0,0,0,0,0,0,0,0,0,0,0,0,0,0,0,0,0,0*04
$PMTKGALM,28,1,1,1,1,1,1,1,1,1,1,1,1,1,1,1,1,0,0,0,1,1,1,1,1,1,1,1,1,1,1,1,0*23
$GNACCURACY,2.5,179.9,0.8,21.9*27
$PMTKAGC,000618.000,2914,2657,5636,5615,0,4,0*6B
$PMTKAG2,000618.000,4,0119,0,0,0,0,0,0,0,0,0,0,0,0*36
$GNGGA,000619.000,2959.9998,N,12000.0000,E,1,6,1.07,-7.1,M,7.0,M,,*55
$GPGSA,A,3,,,,,,,,,,,,,1.43,1.07,0.94*0F
$GLGSA,A,3,,,,,,,,,,,,,1.43,1.07,0.94*13
$BDGSA,A,3,12,14,09,13,11,06,,,,,,,1.43,1.07,0.94*15
$GPGSV,4,1,14,07,84,090,,25,64,041,,08,50,208,,04,50,243,*78
$GPGSV,4,2,14,13,48,034,,02,34,297,,23,26,059,,27,21,220,*75
$GPGSV,4,3,14,39,20,251,,10,03,311,,28,01,181,,193,,,*7C
$GPGSV,4,4,14,194,,,,195,,,*7D
$GLGSV,1,1,0*55
$BDGSV,3,1,9,02,50,173,30.7,13,46,201,32.1,09,37,286,31.6,06,36,216,31.4*53
$BDGSV,3,2,9,04,36,126,29.8,11,20,130,31.3,12,10,059,31.0,14,07,165,30.9*50
$BDGSV,3,3,9,01,,,30.5*48
$GNRMC,000619.000,A,2959.9998,N,12000.0000,E,0.000,127.49,230721,,,A*47
$GNVTG,127.49,T,,M,0.000,N,0.000,K,A*2A
$PMTKGEPH,0,0,0,0,0,0,0,0,0,0,0,0,0,0,0,0,0,0,0,0,0,0,0,0,0,0,0,0,0,0,0,0,0*04
$PMTKGALM,28,1,1,1,1,1,1,1,1,1,1,1,1,1,1,1,1,0,0,0,1,1,1,1,1,1,1,1,1,1,1,1,0*23
$GNACCURACY,2.5,179.9,0.8,22.7*2A
$PMTKAGC,000619.000,3124,2719,5562,5647,0,4,0*6E
$PMTKAG2,000619.000,4,0119,0,0,0,0,0,0,0,0,0,0,0,0*37
$GNGGA,000620.000,2959.9998,N,12000.0000,E,1,6,1.07,-7.1,M,7.0,M,,*5F
$GPGSA,A,3,,,,,,,,,,,,,1.43,1.07,0.95*0E
$GLGSA,A,3,,,,,,,,,,,,,1.43,1.07,0.95*12
$BDGSA,A,3,12,14,09,13,11,06,,,,,,,1.43,1.07,0.95*14
$GPGSV,4,1,14,07,84,090,,25,64,041,,08,50,208,,04,50,243,*78
$GPGSV,4,2,14,13,48,034,,02,34,297,,23,26,059,,27,21,220,*75
$GPGSV,4,3,14,39,20,251,,10,03,311,,28,01,181,,193,,,*7C
$GPGSV,4,4,14,194,,,,195,,,*7D
$GLGSV,1,1,0*55
$BDGSV,3,1,9,02,50,173,30.7,13,46,201,32.1,09,37,286,31.6,06,36,216,31.4*53
$BDGSV,3,2,9,04,36,126,29.8,11,20,130,31.3,12,10,059,31.0,14,07,165,30.9*50
$BDGSV,3,3,9,01,,,30.5*48
$GNRMC,000620.000,A,2959.9998,N,12000.0000,E,0.000,127.49,230721,,,A*4D
$GNVTG,127.49,T,,M,0.000,N,0.000,K,A*2A
$PMTKGEPH,0,0,0,0,0,0,0,0,0,0,0,0,0,0,0,0,0,0,0,0,0,0,0,0,0,0,0,0,0,0,0,0,0*04
$PMTKGALM,28,1,1,1,1,1,1,1,1,1,1,1,1,1,1,1,1,0,0,0,1,1,1,1,1,1,1,1,1,1,1,1,0*23
$GNACCURACY,2.5,179.9,0.8,21.8*26
$PMTKAGC,000620.000,2731,2745,5682,5517,0,4,0*65
$PMTKAG2,000620.000,4,0119,0,0,0,0,0,0,0,0,0,0,0,0*3D
$GNGGA,000621.000,2959.9998,N,12000.0000,E,1,6,1.07,-7.1,M,7.0,M,,*5E
$GPGSA,A,3,,,,,,,,,,,,,1.42,1.07,0.94*0E
$GLGSA,A,3,,,,,,,,,,,,,1.42,1.07,0.94*12
$BDGSA,A,3,12,14,09,13,11,06,,,,,,,1.42,1.07,0.94*14
$GPGSV,4,1,14,07,84,090,,25,64,041,,08,50,208,,04,50,243,*78
$GPGSV,4,2,14,13,48,034,,42,48,143,,02,34,297,,23,26,059,*7F
$GPGSV,4,3,14,27,21,220,,10,03,311,,28,01,181,,193,,,*74
$GPGSV,4,4,14,194,,,,195,,,*7D
$GLGSV,1,1,0*55
$BDGSV,3,1,9,02,50,173,30.6,13,46,201,32.1,09,37,286,31.5,06,36,216,31.4*51
$BDGSV,3,2,9,04,36,126,29.8,11,20,130,31.2,12,10,059,31.0,14,07,165,30.9*51
$BDGSV,3,3,9,01,,,30.5*48
$GNRMC,000621.000,A,2959.9998,N,12000.0000,E,0.000,127.49,230721,,,A*4C
$GNVTG,127.49,T,,M,0.000,N,0.000,K,A*2A
$PMTKGEPH,0,0,0,0,0,0,0,0,0,0,0,0,0,0,0,0,0,0,0,0,0,0,0,0,0,0,0,0,0,0,0,0,0*04
$PMTKGALM,28,1,1,1,1,1,1,1,1,1,1,1,1,1,1,1,1,0,0,0,1,1,1,1,1,1,1,1,1,1,1,1,0*23
$GNACCURACY,2.5,179.9,0.8,21.9*27
$PMTKAGC,000621.000,3022,2898,5533,5626,0,4,0*67
$PMTKAG2,000621.000,4,0119,0,0,0,0,0,0,0,0,0,0,0,0*3C
$GNGGA,000622.000,2959.9998,N,12000.0000,E,1,6,1.07,-7.1,M,7.0,M,,*5D
$GPGSA,A,3,,,,,,,,,,,,,1.43,1.07,0.95*0E
$GLGSA,A,3,,,,,,,,,,,,,1.43,1.07,0.95*12
$BDGSA,A,3,12,14,09,13,11,06,,,,,,,1.43,1.07,0.95*14
$GPGSV,4,1,14,07,84,090,,25,64,041,,08,50,208,,04,50,243,*78
$GPGSV,4,2,14,13,48,034,,42,48,143,,02,34,297,,23,26,059,*7F
$GPGSV,4,3,14,27,21,220,,10,03,311,,28,01,181,,193,,,*74
$GPGSV,4,4,14,194,,,,195,,,*7D
$GLGSV,1,1,0*55
$BDGSV,3,1,9,02,50,173,30.6,13,46,201,32.1,09,37,286,31.5,06,36,216,31.4*51
$BDGSV,3,2,9,04,36,126,29.9,11,20,130,31.1,12,10,059,31.1,14,07,165,30.9*52
$BDGSV,3,3,9,01,,,30.5*48
$GNRMC,000622.000,A,2959.9998,N,12000.0000,E,0.000,127.49,230721,,,A*4F
$GNVTG,127.49,T,,M,0.000,N,0.000,K,A*2A
$PMTKGEPH,0,0,0,0,0,0,0,0,0,0,0,0,0,0,0,0,0,0,0,0,0,0,0,0,0,0,0,0,0,0,0,0,0*04
$PMTKGALM,28,1,1,1,1,1,1,1,1,1,1,1,1,1,1,1,1,0,0,0,1,1,1,1,1,1,1,1,1,1,1,1,0*23
$GNACCURACY,2.5,179.9,0.8,21.7*29
$PMTKAGC,000622.000,2828,2959,5536,5677,0,4,0*6A
$PMTKAG2,000622.000,4,0119,0,0,0,0,0,0,0,0,0,0,0,0*3F
$GNGGA,000623.000,2959.9998,N,12000.0000,E,1,6,1.07,-7.1,M,7.0,M,,*5C
$GPGSA,A,3,,,,,,,,,,,,,1.43,1.07,0.95*0E
$GLGSA,A,3,,,,,,,,,,,,,1.43,1.07,0.95*12
$BDGSA,A,3,12,14,09,13,11,06,,,,,,,1.43,1.07,0.95*14
$GPGSV,4,1,14,07,84,090,,25,64,041,,08,50,208,,04,50,243,*78
$GPGSV,4,2,14,13,48,034,,42,48,143,,02,34,297,,23,26,059,*7F
$GPGSV,4,3,14,27,21,220,,10,03,311,,28,01,181,,193,,,*74
$GPGSV,4,4,14,194,,,,195,,,*7D
$GLGSV,1,1,0*55
$BDGSV,3,1,9,02,50,173,30.6,13,46,201,32.1,09,37,286,31.6,06,36,216,31.4*52
$BDGSV,3,2,9,04,36,126,30.0,11,20,130,31.1,12,10,059,31.1,14,07,165,30.9*53
$BDGSV,3,3,9,01,,,30.5*48
$GNRMC,000623.000,A,2959.9998,N,12000.0000,E,0.000,127.49,230721,,,A*4E
$GNVTG,127.49,T,,M,0.000,N,0.000,K,A*2A
$PMTKGEPH,0,0,0,0,0,0,0,0,0,0,0,0,0,0,0,0,0,0,0,0,0,0,0,0,0,0,0,0,0,0,0,0,0*04
$PMTKGALM,28,1,1,1,1,1,1,1,1,1,1,1,1,1,1,1,1,0,0,0,1,1,1,1,1,1,1,1,1,1,1,1,0*23
$GNACCURACY,2.5,179.9,0.8,21.8*26
$PMTKAGC,000623.000,2758,2750,5535,5698,0,4,0*66
$PMTKAG2,000623.000,4,0119,0,0,0,0,0,0,0,0,0,0,0,0*3E
$GNGGA,000624.000,2959.9998,N,12000.0000,E,1,6,1.07,-7.1,M,7.0,M,,*5B
$GPGSA,A,3,,,,,,,,,,,,,1.42,1.07,0.94*0E
$GLGSA,A,3,,,,,,,,,,,,,1.42,1.07,0.94*12
$BDGSA,A,3,12,14,09,13,11,06,,,,,,,1.42,1.07,0.94*14
$GPGSV,4,1,14,07,84,090,,25,64,041,,08,50,208,,04,50,243,*78
$GPGSV,4,2,14,13,48,034,,42,48,143,,02,34,297,,23,26,059,*7F
$GPGSV,4,3,14,27,21,220,,10,03,311,,28,01,181,,193,,,*74
$GPGSV,4,4,14,194,,,,195,,,*7D
$GLGSV,1,1,0*55
$BDGSV,3,1,9,02,50,173,30.6,13,46,201,32.1,09,37,286,31.6,06,36,216,31.4*52
$BDGSV,3,2,9,04,36,126,29.9,11,20,130,31.2,12,10,059,31.1,14,07,165,30.9*51
$BDGSV,3,3,9,01,,,30.4*49
$GNRMC,000624.000,A,2959.9998,N,12000.0000,E,0.000,127.49,230721,,,A*49
$GNVTG,127.49,T,,M,0.000,N,0.000,K,A*2A
$PMTKGEPH,0,0,0,0,0,0,0,0,0,0,0,0,0,0,0,0,0,0,0,0,0,0,0,0,0,0,0,0,0,0,0,0,0*04
$PMTKGALM,28,1,1,1,1,1,1,1,1,1,1,1,1,1,1,1,1,0,0,0,1,1,1,1,1,1,1,1,1,1,1,1,0*23
$GNACCURACY,2.4,179.9,0.8,22.4*28
$PMTKAGC,000624.000,2788,2755,5651,5538,0,4,0*61
$PMTKAG2,000624.000,4,0119,0,0,0,0,0,0,0,0,0,0,0,0*39
$GNGGA,000625.000,2959.9998,N,12000.0000,E,1,6,1.07,-7.1,M,7.0,M,,*5A
$GPGSA,A,3,,,,,,,,,,,,,1.42,1.07,0.94*0E
$GLGSA,A,3,,,,,,,,,,,,,1.42,1.07,0.94*12
$BDGSA,A,3,12,14,09,13,11,06,,,,,,,1.42,1.07,0.94*14
$GPGSV,4,1,14,07,84,090,,25,64,041,,08,50,208,,04,50,243,*78
$GPGSV,4,2,14,13,48,034,,42,48,143,,02,34,297,,23,26,059,*7F
$GPGSV,4,3,14,27,21,220,,10,03,311,,28,01,181,,193,,,*74
$GPGSV,4,4,14,194,,,,195,,,*7D
$GLGSV,1,1,0*55
$BDGSV,3,1,9,02,50,173,30.7,13,46,201,32.0,09,37,286,31.5,06,36,216,31.4*51
$BDGSV,3,2,9,04,36,126,30.0,11,20,130,31.2,12,10,059,31.2,14,07,165,30.8*52
$BDGSV,3,3,9,01,,,30.4*49
$GNRMC,000625.000,A,2959.9998,N,12000.0000,E,0.000,127.49,230721,,,A*48
$GNVTG,127.49,T,,M,0.000,N,0.000,K,A*2A
$PMTKGEPH,0,0,0,0,0,0,0,0,0,0,0,0,0,0,0,0,0,0,0,0,0,0,0,0,0,0,0,0,0,0,0,0,0*04
$PMTKGALM,28,1,1,1,1,1,1,1,1,1,1,1,1,1,1,1,1,0,0,0,1,1,1,1,1,1,1,1,1,1,1,1,0*23
$GNACCURACY,2.4,179.9,0.8,21.8*27
$PMTKAGC,000625.000,2834,2835,5679,5599,0,4,0*60
$PMTKAG2,000625.000,4,0119,0,0,0,0,0,0,0,0,0,0,0,0*38
$GNGGA,000626.000,2959.9998,N,12000.0000,E,1,6,1.07,-7.1,M,7.0,M,,*59
$GPGSA,A,3,,,,,,,,,,,,,1.43,1.07,0.94*0F
$GLGSA,A,3,,,,,,,,,,,,,1.43,1.07,0.94*13
$BDGSA,A,3,12,14,09,13,11,06,,,,,,,1.43,1.07,0.94*15
$GPGSV,4,1,14,07,84,090,,25,64,041,,08,50,208,,04,50,243,*78
$GPGSV,4,2,14,13,48,034,,42,48,143,,02,34,297,,23,26,059,*7F
$GPGSV,4,3,14,27,21,220,,10,03,311,,28,01,181,,193,,,*74
$GPGSV,4,4,14,194,,,,195,,,*7D
$GLGSV,1,1,0*55
$BDGSV,3,1,9,02,50,173,30.7,13,46,201,32.1,09,37,286,31.5,06,36,216,31.4*50
$BDGSV,3,2,9,04,36,126,30.0,11,20,130,31.3,12,10,059,31.1,14,07,165,30.8*50
$BDGSV,3,3,9,01,,,30.4*49
$GNRMC,000626.000,A,2959.9998,N,12000.0000,E,0.000,127.49,230721,,,A*4B
$GNVTG,127.49,T,,M,0.000,N,0.000,K,A*2A
$PMTKGEPH,0,0,0,0,0,0,0,0,0,0,0,0,0,0,0,0,0,0,0,0,0,0,0,0,0,0,0,0,0,0,0,0,0*04
$PMTKGALM,28,1,1,1,1,1,1,1,1,1,1,1,1,1,1,1,1,0,0,0,1,1,1,1,1,1,1,1,1,1,1,1,0*23
$GNACCURACY,2.4,179.9,0.8,21.6*29
$PMTKAGC,000626.000,2914,2869,5577,5553,0,4,0*62
$PMTKAG2,000626.000,4,0119,0,0,0,0,0,0,0,0,0,0,0,0*3B
$GNGGA,000627.000,2959.9998,N,12000.0000,E,1,6,1.07,-7.1,M,7.0,M,,*58
$GPGSA,A,3,,,,,,,,,,,,,1.43,1.07,0.95*0E
$GLGSA,A,3,,,,,,,,,,,,,1.43,1.07,0.95*12
$BDGSA,A,3,12,14,09,13,11,06,,,,,,,1.43,1.07,0.95*14
$GPGSV,4,1,14,07,84,090,,25,64,041,,08,50,208,,04,50,243,*78
$GPGSV,4,2,14,13,48,034,,42,48,143,,02,34,297,,23,26,059,*7F
$GPGSV,4,3,14,27,21,220,,10,03,311,,28,01,181,,193,,,*74
$GPGSV,4,4,14,194,,,,195,,,*7D
$GLGSV,1,1,0*55
$BDGSV,3,1,9,02,50,173,30.7,13,46,201,32.0,09,37,286,31.5,06,36,216,31.5*50
$BDGSV,3,2,9,04,36,126,30.0,11,20,130,31.2,12,10,059,31.1,14,07,165,30.8*51
$BDGSV,3,3,9,01,,,30.3*4E
$GNRMC,000627.000,A,2959.9998,N,12000.0000,E,0.000,127.49,230721,,,A*4A
$GNVTG,127.49,T,,M,0.000,N,0.000,K,A*2A
$PMTKGEPH,0,0,0,0,0,0,0,0,0,0,0,0,0,0,0,0,0,0,0,0,0,0,0,0,0,0,0,0,0,0,0,0,0*04
$PMTKGALM,28,1,1,1,1,1,1,1,1,1,1,1,1,1,1,1,1,0,0,0,1,1,1,1,1,1,1,1,1,1,1,1,0*23
$GNACCURACY,2.4,179.9,0.8,22.4*28
$PMTKAGC,000627.000,2899,2905,5494,5562,0,4,0*62
$PMTKAG2,000627.000,4,0119,0,0,0,0,0,0,0,0,0,0,0,0*3A
$GNGGA,000628.000,2959.9998,N,12000.0000,E,1,6,1.07,-7.1,M,7.0,M,,*57
$GPGSA,A,3,,,,,,,,,,,,,1.42,1.07,0.94*0E
$GLGSA,A,3,,,,,,,,,,,,,1.42,1.07,0.94*12
$BDGSA,A,3,12,14,09,13,11,06,,,,,,,1.42,1.07,0.94*14
$GPGSV,4,1,14,07,84,090,,25,64,041,,08,50,208,,04,50,243,*78
$GPGSV,4,2,14,13,48,034,,42,48,143,,02,34,297,,23,26,059,*7F
$GPGSV,4,3,14,27,21,220,,10,03,311,,28,01,181,,193,,,*74
$GPGSV,4,4,14,194,,,,195,,,*7D
$GLGSV,1,1,0*55
$BDGSV,3,1,9,02,50,173,30.8,13,46,201,32.1,09,37,286,31.4,06,36,216,31.5*5F
$BDGSV,3,2,9,04,36,126,30.1,11,20,130,31.2,12,10,059,31.1,14,07,165,30.7*5F
$BDGSV,3,3,9,01,,,30.3*4E
$GNRMC,000628.000,A,2959.9998,N,12000.0000,E,0.000,127.49,230721,,,A*45
$GNVTG,127.49,T,,M,0.000,N,0.000,K,A*2A
$PMTKGEPH,0,0,0,0,0,0,0,0,0,0,0,0,0,0,0,0,0,0,0,0,0,0,0,0,0,0,0,0,0,0,0,0,0*04
$PMTKGALM,28,1,1,1,1,1,1,1,1,1,1,1,1,1,1,1,1,0,0,0,1,1,1,1,1,1,1,1,1,1,1,1,0*23
$GNACCURACY,2.4,179.9,0.8,21.5*2A
$PMTKAGC,000628.000,2892,2749,5508,5681,0,4,0*6A
$PMTKAG2,000628.000,4,0119,0,0,0,0,0,0,0,0,0,0,0,0*35
$GNGGA,000629.000,2959.9998,N,12000.0000,E,1,6,1.07,-7.1,M,7.0,M,,*56
$GPGSA,A,3,,,,,,,,,,,,,1.43,1.07,0.95*0E
$GLGSA,A,3,,,,,,,,,,,,,1.43,1.07,0.95*12
$BDGSA,A,3,12,14,09,13,11,06,,,,,,,1.43,1.07,0.95*14
$GPGSV,4,1,14,07,84,090,,25,64,041,,08,50,208,,04,50,243,*78
$GPGSV,4,2,14,13,48,034,,42,48,143,,02,34,297,,23,26,059,*7F
$GPGSV,4,3,14,27,21,220,,10,03,311,,28,01,181,,193,,,*74
$GPGSV,4,4,14,194,,,,195,,,*7D
$GLGSV,1,1,0*55
$BDGSV,3,1,9,02,50,173,30.7,13,46,201,32.1,09,37,286,31.4,06,36,216,31.4*51
$BDGSV,3,2,9,04,36,126,30.2,11,20,130,31.2,12,10,059,31.1,14,07,165,30.7*5C
$BDGSV,3,3,9,01,,,30.3*4E
$GNRMC,000629.000,A,2959.9998,N,12000.0000,E,0.000,127.49,230721,,,A*44
$GNVTG,127.49,T,,M,0.000,N,0.000,K,A*2A
$PMTKGEPH,0,0,0,0,0,0,0,0,0,0,0,0,0,0,0,0,0,0,0,0,0,0,0,0,0,0,0,0,0,0,0,0,0*04
$PMTKGALM,28,1,1,1,1,1,1,1,1,1,1,1,1,1,1,1,1,0,0,0,1,1,1,1,1,1,1,1,1,1,1,1,0*23
$GNACCURACY,2.4,179.9,0.8,22.4*28
$PMTKAGC,000629.000,2836,2819,5510,5561,0,4,0*6B
$PMTKAG2,000629.000,4,0119,0,0,0,0,0,0,0,0,0,0,0,0*34
$GNGGA,000630.000,2959.9998,N,12000.0000,E,1,6,1.07,-7.1,M,7.0,M,,*5E
$GPGSA,A,3,,,,,,,,,,,,,1.42,1.07,0.94*0E
$GLGSA,A,3,,,,,,,,,,,,,1.42,1.07,0.94*12
$BDGSA,A,3,12,14,09,13,11,06,,,,,,,1.42,1.07,0.94*14
$GPGSV,4,1,14,07,84,090,,25,64,041,,08,50,208,,04,50,243,*78
$GPGSV,4,2,14,13,48,034,,50,45,136,,02,34,297,,23,26,059,*73
$GPGSV,4,3,14,27,21,220,,10,03,311,,28,01,181,,193,,,*74
$GPGSV,4,4,14,194,,,,195,,,*7D
$GLGSV,1,1,0*55
$BDGSV,3,1,9,02,50,173,30.7,13,46,201,32.1,09,37,286,31.4,06,36,216,31.4*51
$BDGSV,3,2,9,04,36,126,30.1,11,20,130,31.2,12,10,059,31.2,14,07,165,30.7*5C
$BDGSV,3,3,9,01,,,30.3*4E
$GNRMC,000630.000,A,2959.9998,N,12000.0000,E,0.000,127.49,230721,,,A*4C
$GNVTG,127.49,T,,M,0.000,N,0.000,K,A*2A
$PMTKGEPH,0,0,0,0,0,0,0,0,0,0,0,0,0,0,0,0,0,0,0,0,0,0,0,0,0,0,0,0,0,0,0,0,0*04
$PMTKGALM,28,1,1,1,1,1,1,1,1,1,1,1,1,1,1,1,1,0,0,0,1,1,1,1,1,1,1,1,1,1,1,1,0*23
$GNACCURACY,2.4,179.9,0.8,21.4*2B
$PMTKAGC,000630.000,2928,2800,5673,5425,0,4,0*62
$PMTKAG2,000630.000,4,0119,0,0,0,0,0,0,0,0,0,0,0,0*3C
$GNGGA,000631.000,2959.9998,N,12000.0000,E,1,6,1.07,-7.1,M,7.0,M,,*5F
$GPGSA,A,3,,,,,,,,,,,,,1.43,1.07,0.94*0F
$GLGSA,A,3,,,,,,,,,,,,,1.43,1.07,0.94*13
$BDGSA,A,3,12,14,09,13,11,06,,,,,,,1.43,1.07,0.94*15
$GPGSV,4,1,14,07,84,090,,25,64,041,,08,50,208,,04,50,243,*78
$GPGSV,4,2,14,13,48,034,,50,45,136,,02,34,297,,23,26,059,*73
$GPGSV,4,3,14,27,21,220,,10,03,311,,28,01,181,,193,,,*74
$GPGSV,4,4,14,194,,,,195,,,*7D
$GLGSV,1,1,0*55
$BDGSV,3,1,9,02,50,173,30.7,13,46,201,32.1,09,37,286,31.4,06,36,216,31.4*51
$BDGSV,3,2,9,04,36,126,30.2,11,20,130,31.2,12,10,059,31.2,14,07,165,30.6*5E
$BDGSV,3,3,9,01,,,30.4*49
$GNRMC,000631.000,A,2959.9998,N,12000.0000,E,0.000,127.49,230721,,,A*4D
$GNVTG,127.49,T,,M,0.000,N,0.000,K,A*2A
$PMTKGEPH,0,0,0,0,0,0,0,0,0,0,0,0,0,0,0,0,0,0,0,0,0,0,0,0,0,0,0,0,0,0,0,0,0*04
$PMTKGALM,28,1,1,1,1,1,1,1,1,1,1,1,1,1,1,1,1,0,0,0,1,1,1,1,1,1,1,1,1,1,1,1,0*23
$GNACCURACY,2.4,179.9,0.8,22.3*2F
$PMTKAGC,000631.000,2938,2740,5626,5602,0,4,0*6E
$PMTKAG2,000631.000,4,0119,0,0,0,0,0,0,0,0,0,0,0,0*3D
$GNGGA,000632.000,2959.9998,N,12000.0000,E,1,6,1.07,-7.1,M,7.0,M,,*5C
$GPGSA,A,3,,,,,,,,,,,,,1.42,1.07,0.94*0E
$GLGSA,A,3,,,,,,,,,,,,,1.42,1.07,0.94*12
$BDGSA,A,3,12,14,09,13,11,06,,,,,,,1.42,1.07,0.94*14
$GPGSV,4,1,14,07,84,090,,25,64,041,,08,50,208,,04,50,243,*78
$GPGSV,4,2,14,13,48,034,,50,45,136,,02,34,297,,23,26,059,*73
$GPGSV,4,3,14,27,21,220,,10,03,311,,28,01,181,,193,,,*74
$GPGSV,4,4,14,194,,,,195,,,*7D
$GLGSV,1,1,0*55
$BDGSV,3,1,9,02,50,173,30.7,13,46,201,32.1,09,37,286,31.4,06,36,216,31.4*51
$BDGSV,3,2,9,04,36,126,30.1,11,20,130,31.2,12,10,059,31.2,14,07,165,30.6*5D
$BDGSV,3,3,9,01,,,30.4*49
$GNRMC,000632.000,A,2959.9998,N,12000.0000,E,0.000,127.49,230721,,,A*4E
$GNVTG,127.49,T,,M,0.000,N,0.000,K,A*2A
$PMTKGEPH,0,0,0,0,0,0,0,0,0,0,0,0,0,0,0,0,0,0,0,0,0,0,0,0,0,0,0,0,0,0,0,0,0*04
$PMTKGALM,28,1,1,1,1,1,1,1,1,1,1,1,1,1,1,1,1,0,0,0,1,1,1,1,1,1,1,1,1,1,1,1,0*23
$GNACCURACY,2.4,179.9,0.8,21.4*2B
$PMTKAGC,000632.000,2834,2830,5669,5564,0,4,0*60
$PMTKAG2,000632.000,4,0119,0,0,0,0,0,0,0,0,0,0,0,0*3E
$GNGGA,000633.000,2959.9998,N,12000.0000,E,1,6,1.07,-7.1,M,7.0,M,,*5D
$GPGSA,A,3,,,,,,,,,,,,,1.42,1.07,0.94*0E
$GLGSA,A,3,,,,,,,,,,,,,1.42,1.07,0.94*12
$BDGSA,A,3,12,14,09,13,11,06,,,,,,,1.42,1.07,0.94*14
$GPGSV,4,1,14,07,84,090,,25,64,041,,08,50,208,,04,50,243,*78
$GPGSV,4,2,14,13,48,034,,50,45,136,,02,34,297,,23,26,059,*73
$GPGSV,4,3,14,27,21,220,,10,03,311,,28,01,181,,193,,,*74
$GPGSV,4,4,14,194,,,,195,,,*7D
$GLGSV,1,1,0*55
$BDGSV,3,1,9,02,50,173,30.6,13,46,201,32.0,09,37,286,31.4,06,36,216,31.4*51
$BDGSV,3,2,9,04,36,126,30.1,11,20,130,31.3,12,10,059,31.2,14,07,165,30.6*5C
$BDGSV,3,3,9,01,,,30.3*4E
$GNRMC,000633.000,A,2959.9998,N,12000.0000,E,0.000,127.49,230721,,,A*4F
$GNVTG,127.49,T,,M,0.000,N,0.000,K,A*2A
$PMTKGEPH,0,0,0,0,0,0,0,0,0,0,0,0,0,0,0,0,0,0,0,0,0,0,0,0,0,0,0,0,0,0,0,0,0*04
$PMTKGALM,28,1,1,1,1,1,1,1,1,1,1,1,1,1,1,1,1,0,0,0,1,1,1,1,1,1,1,1,1,1,1,1,0*23
$GNACCURACY,2.4,179.9,0.8,22.2*2E
$PMTKAGC,000633.000,3070,2766,5660,5538,0,4,0*64
$PMTKAG2,000633.000,4,0119,0,0,0,0,0,0,0,0,0,0,0,0*3F
$GNGGA,000634.000,2959.9998,N,12000.0000,E,1,6,1.07,-7.1,M,7.0,M,,*5A
$GPGSA,A,3,,,,,,,,,,,,,1.42,1.07,0.94*0E
$GLGSA,A,3,,,,,,,,,,,,,1.42,1.07,0.94*12
$BDGSA,A,3,12,14,09,13,11,06,,,,,,,1.42,1.07,0.94*14
$GPGSV,4,1,14,07,84,090,,25,64,041,,08,50,208,,04,50,243,*78
$GPGSV,4,2,14,13,48,034,,50,45,136,,02,34,297,,23,26,059,*73
$GPGSV,4,3,14,27,21,220,,10,03,311,,28,01,181,,193,,,*74
$GPGSV,4,4,14,194,,,,195,,,*7D
$GLGSV,1,1,0*55
$BDGSV,3,1,9,02,50,173,30.7,13,46,201,32.0,09,37,286,31.4,06,36,216,31.4*50
$BDGSV,3,2,9,04,36,126,30.1,11,20,130,31.3,12,10,059,31.3,14,07,165,30.6*5D
$BDGSV,3,3,9,01,,,30.3*4E
$GNRMC,000634.000,A,2959.9998,N,12000.0000,E,0.000,127.49,230721,,,A*48
$GNVTG,127.49,T,,M,0.000,N,0.000,K,A*2A
$PMTKGEPH,0,0,0,0,0,0,0,0,0,0,0,0,0,0,0,0,0,0,0,0,0,0,0,0,0,0,0,0,0,0,0,0,0*04
$PMTKGALM,28,1,1,1,1,1,1,1,1,1,1,1,1,1,1,1,1,0,0,0,1,1,1,1,1,1,1,1,1,1,1,1,0*23
$GNACCURACY,2.4,179.9,0.8,21.3*2C
$PMTKAGC,000634.000,2800,2821,5624,5734,0,4,0*6F
$PMTKAG2,000634.000,4,0119,0,0,0,0,0,0,0,0,0,0,0,0*38
$GNGGA,000635.000,2959.9998,N,12000.0000,E,1,6,1.07,-7.1,M,7.0,M,,*5B
$GPGSA,A,3,,,,,,,,,,,,,1.43,1.07,0.94*0F
$GLGSA,A,3,,,,,,,,,,,,,1.43,1.07,0.94*13
$BDGSA,A,3,12,14,09,13,11,06,,,,,,,1.43,1.07,0.94*15
$GPGSV,4,1,14,07,84,090,,25,64,041,,08,50,208,,04,50,243,*78
$GPGSV,4,2,14,13,48,034,,50,45,136,,02,34,297,,23,26,059,*73
$GPGSV,4,3,14,27,21,220,,10,03,311,,28,01,181,,193,,,*74
$GPGSV,4,4,14,194,,,,195,,,*7D
$GLGSV,1,1,0*55
$BDGSV,3,1,9,02,50,173,30.7,13,46,201,32.1,09,37,286,31.4,06,36,216,31.4*51
$BDGSV,3,2,9,04,36,126,30.3,11,20,130,31.4,12,10,059,31.3,14,07,165,30.5*5B
$BDGSV,3,3,9,01,,,30.4*49
$GNRMC,000635.000,A,2959.9998,N,12000.0000,E,0.000,127.49,230721,,,A*49
$GNVTG,127.49,T,,M,0.000,N,0.000,K,A*2A
$PMTKGEPH,0,0,0,0,0,0,0,0,0,0,0,0,0,0,0,0,0,0,0,0,0,0,0,0,0,0,0,0,0,0,0,0,0*04
$PMTKGALM,28,1,1,1,1,1,1,1,1,1,1,1,1,1,1,1,1,0,0,0,1,1,1,1,1,1,1,1,1,1,1,1,0*23
$GNACCURACY,2.4,179.9,0.8,22.2*2E
$PMTKAGC,000635.000,2711,2849,5685,5540,0,4,0*65
$PMTKAG2,000635.000,4,0119,0,0,0,0,0,0,0,0,0,0,0,0*39
$GNGGA,000636.000,2959.9998,N,12000.0000,E,1,6,1.07,-7.1,M,7.0,M,,*58
$GPGSA,A,3,,,,,,,,,,,,,1.43,1.07,0.94*0F
$GLGSA,A,3,,,,,,,,,,,,,1.43,1.07,0.94*13
$BDGSA,A,3,12,14,09,13,11,06,,,,,,,1.43,1.07,0.94*15
$GPGSV,4,1,14,07,84,090,,25,64,041,,08,50,208,,04,50,243,*78
$GPGSV,4,2,14,13,48,034,,50,45,136,,02,34,297,,23,26,059,*73
$GPGSV,4,3,14,27,21,220,,10,03,311,,28,01,181,,193,,,*74
$GPGSV,4,4,14,194,,,,195,,,*7D
$GLGSV,1,1,0*55
$BDGSV,3,1,9,02,50,173,30.7,13,46,201,32.1,09,37,286,31.4,06,36,216,31.4*51
$BDGSV,3,2,9,04,36,126,30.2,11,20,130,31.3,12,10,059,31.3,14,07,165,30.5*5D
$BDGSV,3,3,9,01,,,30.4*49
$GNRMC,000636.000,A,2959.9998,N,12000.0000,E,0.000,127.49,230721,,,A*4A
$GNVTG,127.49,T,,M,0.000,N,0.000,K,A*2A
$PMTKGEPH,0,0,0,0,0,0,0,0,0,0,0,0,0,0,0,0,0,0,0,0,0,0,0,0,0,0,0,0,0,0,0,0,0*04
$PMTKGALM,28,1,1,1,1,1,1,1,1,1,1,1,1,1,1,1,1,0,0,0,1,1,1,1,1,1,1,1,1,1,1,1,0*23
$GNACCURACY,2.4,179.9,0.8,21.3*2C
$PMTKAGC,000636.000,2750,2768,5550,5705,0,4,0*67
$PMTKAG2,000636.000,4,0119,0,0,0,0,0,0,0,0,0,0,0,0*3A
$GNGGA,000637.000,2959.9998,N,12000.0000,E,1,6,1.07,-7.1,M,7.0,M,,*59
$GPGSA,A,3,,,,,,,,,,,,,1.42,1.07,0.94*0E
$GLGSA,A,3,,,,,,,,,,,,,1.42,1.07,0.94*12
$BDGSA,A,3,12,14,09,13,11,06,,,,,,,1.42,1.07,0.94*14
$GPGSV,4,1,14,07,84,090,,25,64,041,,08,50,208,,04,50,243,*78
$GPGSV,4,2,14,13,48,034,,50,45,136,,02,34,297,,23,26,059,*73
$GPGSV,4,3,14,27,21,220,,10,03,311,,28,01,181,,193,,,*74
$GPGSV,4,4,14,194,,,,195,,,*7D
$GLGSV,1,1,0*55
$BDGSV,3,1,9,02,50,173,30.7,13,46,201,32.1,09,37,286,31.5,06,36,216,31.4*50
$BDGSV,3,2,9,04,36,126,30.3,11,20,130,31.4,12,10,059,31.4,14,07,165,30.6*5F
$BDGSV,3,3,9,01,,,30.3*4E
$GNRMC,000637.000,A,2959.9998,N,12000.0000,E,0.000,127.49,230721,,,A*4B
$GNVTG,127.49,T,,M,0.000,N,0.000,K,A*2A
$PMTKGEPH,0,0,0,0,0,0,0,0,0,0,0,0,0,0,0,0,0,0,0,0,0,0,0,0,0,0,0,0,0,0,0,0,0*04
$PMTKGALM,28,1,1,1,1,1,1,1,1,1,1,1,1,1,1,1,1,0,0,0,1,1,1,1,1,1,1,1,1,1,1,1,0*23
$GNACCURACY,2.4,179.9,0.8,22.0*2C
$PMTKAGC,000637.000,2888,2717,5531,5590,0,4,0*6D
$PMTKAG2,000637.000,4,0119,0,0,0,0,0,0,0,0,0,0,0,0*3B
$GNGGA,000638.000,2959.9998,N,12000.0000,E,1,6,1.07,-7.1,M,7.0,M,,*56
$GPGSA,A,3,,,,,,,,,,,,,1.42,1.07,0.94*0E
$GLGSA,A,3,,,,,,,,,,,,,1.42,1.07,0.94*12
$BDGSA,A,3,12,14,09,13,11,06,,,,,,,1.42,1.07,0.94*14
$GPGSV,4,1,14,07,84,090,,25,64,041,,08,50,208,,04,50,243,*78
$GPGSV,4,2,14,13,48,034,,50,45,136,,02,34,297,,23,26,059,*73
$GPGSV,4,3,14,27,21,220,,10,03,311,,28,01,181,,193,,,*74
$GPGSV,4,4,14,194,,,,195,,,*7D
$GLGSV,1,1,0*55
$BDGSV,3,1,9,02,50,173,30.8,13,46,201,32.0,09,37,286,31.5,06,36,216,31.4*5E
$BDGSV,3,2,9,04,36,126,30.3,11,20,130,31.4,12,10,059,31.4,14,07,165,30.5*5C
$BDGSV,3,3,9,01,,,30.3*4E
$GNRMC,000638.000,A,2959.9998,N,12000.0000,E,0.000,127.49,230721,,,A*44
$GNVTG,127.49,T,,M,0.000,N,0.000,K,A*2A
$PMTKGEPH,0,0,0,0,0,0,0,0,0,0,0,0,0,0,0,0,0,0,0,0,0,0,0,0,0,0,0,0,0,0,0,0,0*04
$PMTKGALM,28,1,1,1,1,1,1,1,1,1,1,1,1,1,1,1,1,0,0,0,1,1,1,1,1,1,1,1,1,1,1,1,0*23
$GNACCURACY,2.4,179.9,0.8,21.3*2C
$PMTKAGC,000638.000,2773,2965,5622,5663,0,4,0*6C
$PMTKAG2,000638.000,4,0119,0,0,0,0,0,0,0,0,0,0,0,0*34
$GNGGA,000639.000,2959.9998,N,12000.0000,E,1,6,1.07,-7.1,M,7.0,M,,*57
$GPGSA,A,3,,,,,,,,,,,,,1.42,1.07,0.94*0E
$GLGSA,A,3,,,,,,,,,,,,,1.42,1.07,0.94*12
$BDGSA,A,3,12,14,09,13,11,06,,,,,,,1.42,1.07,0.94*14
$GPGSV,4,1,14,07,84,090,,25,64,041,,08,50,208,,04,50,243,*78
$GPGSV,4,2,14,13,48,034,,02,34,297,,23,26,059,,44,22,250,*74
$GPGSV,4,3,14,27,21,220,,10,03,311,,28,01,181,,193,,,*74
$GPGSV,4,4,14,194,,,,195,,,*7D
$GLGSV,1,1,0*55
$BDGSV,3,1,9,02,50,173,30.8,13,46,201,32.1,09,37,286,31.4,06,36,216,31.4*5E
$BDGSV,3,2,9,04,36,126,30.2,11,20,130,31.4,12,10,059,31.3,14,07,165,30.6*59
$BDGSV,3,3,9,01,,,30.3*4E
$GNRMC,000639.000,A,2959.9998,N,12000.0000,E,0.000,127.49,230721,,,A*45
$GNVTG,127.49,T,,M,0.000,N,0.000,K,A*2A
$PMTKGEPH,0,0,0,0,0,0,0,0,0,0,0,0,0,0,0,0,0,0,0,0,0,0,0,0,0,0,0,0,0,0,0,0,0*04
$PMTKGALM,28,1,1,1,1,1,1,1,1,1,1,1,1,1,1,1,1,0,0,0,1,1,1,1,1,1,1,1,1,1,1,1,0*23
$GNACCURACY,2.4,179.9,0.8,22.0*2C
$PMTKAGC,000639.000,2818,2871,5553,5719,0,4,0*62
$PMTKAG2,000639.000,4,0119,0,0,0,0,0,0,0,0,0,0,0,0*35
$GNGGA,000640.000,2959.9998,N,12000.0000,E,1,6,1.07,-7.1,M,7.0,M,,*59
$GPGSA,A,3,,,,,,,,,,,,,1.43,1.07,0.94*0F
$GLGSA,A,3,,,,,,,,,,,,,1.43,1.07,0.94*13
$BDGSA,A,3,12,14,09,13,11,06,,,,,,,1.43,1.07,0.94*15
$GPGSV,4,1,14,07,84,090,,25,64,041,,08,50,208,,04,50,243,*78
$GPGSV,4,2,14,13,48,034,,02,34,297,,23,26,059,,44,22,250,*74
$GPGSV,4,3,14,27,21,220,,10,03,311,,28,01,181,,193,,,*74
$GPGSV,4,4,14,194,,,,195,,,*7D
$GLGSV,1,1,0*55
$BDGSV,3,1,9,02,50,173,30.7,13,46,201,32.1,09,37,286,31.5,06,36,216,31.3*57
$BDGSV,3,2,9,04,36,126,30.2,11,20,130,31.5,12,10,059,31.3,14,07,165,30.6*58
$BDGSV,3,3,9,01,,,30.3*4E
$GNRMC,000640.000,A,2959.9998,N,12000.0000,E,0.000,127.49,230721,,,A*4B
$GNVTG,127.49,T,,M,0.000,N,0.000,K,A*2A
$PMTKGEPH,0,0,0,0,0,0,0,0,0,0,0,0,0,0,0,0,0,0,0,0,0,0,0,0,0,0,0,0,0,0,0,0,0*04
$PMTKGALM,28,1,1,1,1,1,1,1,1,1,1,1,1,1,1,1,1,0,0,0,1,1,1,1,1,1,1,1,1,1,1,1,0*23
$GNACCURACY,2.4,179.9,0.8,21.3*2C
$PMTKAGC,000640.000,2751,2673,5640,5725,0,4,0*6C
$PMTKAG2,000640.000,4,0119,0,0,0,0,0,0,0,0,0,0,0,0*3B
$GNGGA,000641.000,2959.9998,N,12000.0000,E,1,6,1.07,-7.1,M,7.0,M,,*58
$GPGSA,A,3,,,,,,,,,,,,,1.42,1.07,0.94*0E
$GLGSA,A,3,,,,,,,,,,,,,1.42,1.07,0.94*12
$BDGSA,A,3,12,14,09,13,11,06,,,,,,,1.42,1.07,0.94*14
$GPGSV,4,1,14,07,84,090,,25,64,041,,08,50,208,,04,50,243,*78
$GPGSV,4,2,14,13,48,034,,02,34,297,,23,26,059,,44,22,250,*74
$GPGSV,4,3,14,27,21,220,,10,03,311,,28,01,181,,193,,,*74
$GPGSV,4,4,14,194,,,,195,,,*7D
$GLGSV,1,1,0*55
$BDGSV,3,1,9,02,50,173,30.8,13,46,201,32.1,09,37,286,31.5,06,36,216,31.3*58
$BDGSV,3,2,9,04,36,126,30.3,11,20,130,31.5,12,10,059,31.2,14,07,165,30.6*58
$BDGSV,3,3,9,01,,,30.4*49
$GNRMC,000641.000,A,2959.9998,N,12000.0000,E,0.000,127.49,230721,,,A*4A
$GNVTG,127.49,T,,M,0.000,N,0.000,K,A*2A
$PMTKGEPH,0,0,0,0,0,0,0,0,0,0,0,0,0,0,0,0,0,0,0,0,0,0,0,0,0,0,0,0,0,0,0,0,0*04
$PMTKGALM,28,1,1,1,1,1,1,1,1,1,1,1,1,1,1,1,1,0,0,0,1,1,1,1,1,1,1,1,1,1,1,1,0*23
$GNACCURACY,2.4,179.9,0.8,21.3*2C
$PMTKAGC,000641.000,2888,2915,5540,5638,0,4,0*67
$PMTKAG2,000641.000,4,0119,0,0,0,0,0,0,0,0,0,0,0,0*3A
$GNGGA,000642.000,2959.9998,N,12000.0000,E,1,6,1.07,-7.1,M,7.0,M,,*5B
$GPGSA,A,3,,,,,,,,,,,,,1.42,1.07,0.94*0E
$GLGSA,A,3,,,,,,,,,,,,,1.42,1.07,0.94*12
$BDGSA,A,3,12,14,09,13,11,06,,,,,,,1.42,1.07,0.94*14
$GPGSV,4,1,14,07,84,090,,25,64,041,,08,50,208,,04,50,243,*78
$GPGSV,4,2,14,13,48,034,,02,34,297,,23,26,059,,44,22,250,*74
$GPGSV,4,3,14,27,21,220,,10,03,311,,28,01,181,,193,,,*74
$GPGSV,4,4,14,194,,,,195,,,*7D
$GLGSV,1,1,0*55
$BDGSV,3,1,9,02,50,173,30.8,13,46,201,32.2,09,37,286,31.5,06,36,216,31.3*5B
$BDGSV,3,2,9,04,36,126,30.1,11,20,130,31.6,12,10,059,31.1,14,07,165,30.6*5A
$BDGSV,3,3,9,01,,,30.3*4E
$GNRMC,000642.000,A,2959.9998,N,12000.0000,E,0.000,127.49,230721,,,A*49
$GNVTG,127.49,T,,M,0.000,N,0.000,K,A*2A
$PMTKGEPH,0,0,0,0,0,0,0,0,0,0,0,0,0,0,0,0,0,0,0,0,0,0,0,0,0,0,0,0,0,0,0,0,0*04
$PMTKGALM,28,1,1,1,1,1,1,1,1,1,1,1,1,1,1,1,1,0,0,0,1,1,1,1,1,1,1,1,1,1,1,1,0*23
$GNACCURACY,1.2,179.9,0.7,20.5*21
$PMTKAGC,000642.000,2916,3095,5544,5487,0,4,0*60
$PMTKAG2,000642.000,4,0119,0,0,0,0,0,0,0,0,0,0,0,0*39
$GNGGA,000643.000,2959.9998,N,12000.0000,E,1,6,1.07,-7.1,M,7.0,M,,*5A
$GPGSA,A,3,,,,,,,,,,,,,1.43,1.07,0.94*0F
$GLGSA,A,3,,,,,,,,,,,,,1.43,1.07,0.94*13
$BDGSA,A,3,12,14,09,13,11,06,,,,,,,1.43,1.07,0.94*15
$GPGSV,4,1,14,07,84,090,,25,64,041,,08,50,208,,04,50,243,*78
$GPGSV,4,2,14,13,48,034,,02,34,297,,23,26,059,,44,22,250,*74
$GPGSV,4,3,14,27,21,220,,10,03,311,,28,01,181,,193,,,*74
$GPGSV,4,4,14,194,,,,195,,,*7D
$GLGSV,1,1,0*55
$BDGSV,3,1,9,02,50,173,30.8,13,46,201,32.1,09,37,286,31.4,06,36,216,31.2*58
$BDGSV,3,2,9,04,36,126,30.2,11,20,130,31.6,12,10,059,31.1,14,07,165,30.5*5A
$BDGSV,3,3,9,01,,,30.4*49
$GNRMC,000643.000,A,2959.9998,N,12000.0000,E,0.000,127.49,230721,,,A*48
$GNVTG,127.49,T,,M,0.000,N,0.000,K,A*2A
$PMTKGEPH,0,0,0,0,0,0,0,0,0,0,0,0,0,0,0,0,0,0,0,0,0,0,0,0,0,0,0,0,0,0,0,0,0*04
$PMTKGALM,28,1,1,1,1,1,1,1,1,1,1,1,1,1,1,1,1,0,0,0,1,1,1,1,1,1,1,1,1,1,1,1,0*23
$GNACCURACY,1.0,179.9,0.7,19.9*25
$PMTKAGC,000643.000,2713,2878,5636,5594,0,4,0*65
$PMTKAG2,000643.000,4,0119,0,0,0,0,0,0,0,0,0,0,0,0*38
$GNGGA,000644.000,2959.9998,N,12000.0000,E,1,6,1.07,-7.1,M,7.0,M,,*5D
$GPGSA,A,3,,,,,,,,,,,,,1.42,1.07,0.94*0E
$GLGSA,A,3,,,,,,,,,,,,,1.42,1.07,0.94*12
$BDGSA,A,3,12,14,09,13,11,06,,,,,,,1.42,1.07,0.94*14
$GPGSV,4,1,14,07,84,090,,25,64,041,,08,50,208,,04,50,243,*78
$GPGSV,4,2,14,13,48,034,,02,34,297,,23,26,059,,44,22,250,*74
$GPGSV,4,3,14,27,21,220,,10,03,311,,28,01,181,,193,,,*74
$GPGSV,4,4,14,194,,,,195,,,*7D
$GLGSV,1,1,0*55
$BDGSV,3,1,9,02,50,173,30.9,13,46,201,32.1,09,37,286,31.4,06,36,216,31.3*58
$BDGSV,3,2,9,04,36,126,30.2,11,20,130,31.5,12,10,059,31.1,14,07,165,30.5*59
$BDGSV,3,3,9,01,,,30.5*48
$GNRMC,000644.000,A,2959.9998,N,12000.0000,E,0.000,127.49,230721,,,A*4F
$GNVTG,127.49,T,,M,0.000,N,0.000,K,A*2A
$PMTKGEPH,0,0,0,0,0,0,0,0,0,0,0,0,0,0,0,0,0,0,0,0,0,0,0,0,0,0,0,0,0,0,0,0,0*04
$PMTKGALM,28,1,1,1,1,1,1,1,1,1,1,1,1,1,1,1,1,0,0,0,1,1,1,1,1,1,1,1,1,1,1,1,0*23
$GNACCURACY,1.0,179.9,0.7,19.7*2B
$PMTKAGC,000644.000,3023,2890,5516,5757,0,4,0*6D
$PMTKAG2,000644.000,4,0119,0,0,0,0,0,0,0,0,0,0,0,0*3F
$GNGGA,000645.000,2959.9998,N,12000.0000,E,1,6,1.07,-7.1,M,7.0,M,,*5C
$GPGSA,A,3,,,,,,,,,,,,,1.42,1.07,0.94*0E
$GLGSA,A,3,,,,,,,,,,,,,1.42,1.07,0.94*12
$BDGSA,A,3,12,14,09,13,11,06,,,,,,,1.42,1.07,0.94*14
$GPGSV,4,1,14,07,84,090,,25,64,041,,08,50,208,,04,50,243,*78
$GPGSV,4,2,14,13,48,034,,02,34,297,,23,26,059,,44,22,250,*74
$GPGSV,4,3,14,27,21,220,,10,03,311,,28,01,181,,193,,,*74
$GPGSV,4,4,14,194,,,,195,,,*7D
$GLGSV,1,1,0*55
$BDGSV,3,1,9,02,50,173,30.8,13,46,201,32.2,09,37,286,31.4,06,36,216,31.3*5A
$BDGSV,3,2,9,04,36,126,30.2,11,20,130,31.5,12,10,059,31.0,14,07,165,30.5*58
$BDGSV,3,3,9,01,,,30.5*48
$GNRMC,000645.000,A,2959.9998,N,12000.0000,E,0.000,127.49,230721,,,A*4E
$GNVTG,127.49,T,,M,0.000,N,0.000,K,A*2A
$PMTKGEPH,0,0,0,0,0,0,0,0,0,0,0,0,0,0,0,0,0,0,0,0,0,0,0,0,0,0,0,0,0,0,0,0,0*04
$PMTKGALM,28,1,1,1,1,1,1,1,1,1,1,1,1,1,1,1,1,0,0,0,1,1,1,1,1,1,1,1,1,1,1,1,0*23
$GNACCURACY,1.0,179.9,0.7,20.0*26
$PMTKAGC,000645.000,2831,2868,5640,5604,0,4,0*66
$PMTKAG2,000645.000,4,0119,0,0,0,0,0,0,0,0,0,0,0,0*3E
$GNGGA,000646.000,2959.9998,N,12000.0000,E,1,6,1.07,-7.1,M,7.0,M,,*5F
$GPGSA,A,3,,,,,,,,,,,,,1.42,1.07,0.94*0E
$GLGSA,A,3,,,,,,,,,,,,,1.42,1.07,0.94*12
$BDGSA,A,3,12,14,09,13,11,06,,,,,,,1.42,1.07,0.94*14
$GPGSV,4,1,14,07,84,090,,25,64,041,,08,50,208,,04,50,243,*78
$GPGSV,4,2,14,13,48,034,,02,34,297,,23,26,059,,44,22,250,*74
$GPGSV,4,3,14,27,21,220,,10,03,311,,28,01,181,,193,,,*74
$GPGSV,4,4,14,194,,,,195,,,*7D
$GLGSV,1,1,0*55
$BDGSV,3,1,9,02,50,173,30.8,13,46,201,32.1,09,37,286,31.5,06,36,216,31.3*58
$BDGSV,3,2,9,04,36,126,30.3,11,20,130,31.5,12,10,059,31.0,14,07,165,30.5*59
$BDGSV,3,3,9,01,,,30.5*48
$GNRMC,000646.000,A,2959.9998,N,12000.0000,E,0.000,127.49,230721,,,A*4D
$GNVTG,127.49,T,,M,0.000,N,0.000,K,A*2A
$PMTKGEPH,0,0,0,0,0,0,0,0,0,0,0,0,0,0,0,0,0,0,0,0,0,0,0,0,0,0,0,0,0,0,0,0,0*04
$PMTKGALM,28,1,1,1,1,1,1,1,1,1,1,1,1,1,1,1,1,0,0,0,1,1,1,1,1,1,1,1,1,1,1,1,0*23
$GNACCURACY,1.0,179.9,0.7,20.4*22
$PMTKAGC,000646.000,2819,2940,5545,5579,0,4,0*6B
$PMTKAG2,000646.000,4,0119,0,0,0,0,0,0,0,0,0,0,0,0*3D
$GNGGA,000647.000,2959.9998,N,12000.0000,E,1,6,1.07,-7.1,M,7.0,M,,*5E
$GPGSA,A,3,,,,,,,,,,,,,1.42,1.07,0.94*0E
$GLGSA,A,3,,,,,,,,,,,,,1.42,1.07,0.94*12
$BDGSA,A,3,12,14,09,13,11,06,,,,,,,1.42,1.07,0.94*14
$GPGSV,4,1,14,07,84,090,,25,64,041,,08,50,208,,04,50,243,*78
$GPGSV,4,2,14,13,48,034,,02,34,297,,23,26,059,,44,22,250,*74
$GPGSV,4,3,14,27,21,220,,10,03,311,,28,01,181,,193,,,*74
$GPGSV,4,4,14,194,,,,195,,,*7D
$GLGSV,1,1,0*55
$BDGSV,3,1,9,02,50,173,30.9,13,46,201,32.1,09,37,286,31.5,06,36,216,31.3*59
$BDGSV,3,2,9,04,36,126,30.3,11,20,130,31.6,12,10,059,31.0,14,07,165,30.5*5A
$BDGSV,3,3,9,01,,,30.6*4B
$GNRMC,000647.000,A,2959.9998,N,12000.0000,E,0.000,127.49,230721,,,A*4C
$GNVTG,127.49,T,,M,0.000,N,0.000,K,A*2A
$PMTKGEPH,0,0,0,0,0,0,0,0,0,0,0,0,0,0,0,0,0,0,0,0,0,0,0,0,0,0,0,0,0,0,0,0,0*04
$PMTKGALM,28,1,1,1,1,1,1,1,1,1,1,1,1,1,1,1,1,0,0,0,1,1,1,1,1,1,1,1,1,1,1,1,0*23
$GNACCURACY,1.0,179.9,0.6,20.1*26
$PMTKAGC,000647.000,2900,2762,5584,5687,0,4,0*62
$PMTKAG2,000647.000,4,0119,0,0,0,0,0,0,0,0,0,0,0,0*3C
$GNGGA,000648.000,2959.9998,N,12000.0000,E,1,6,1.07,-7.1,M,7.0,M,,*51
$GPGSA,A,3,,,,,,,,,,,,,1.42,1.07,0.94*0E
$GLGSA,A,3,,,,,,,,,,,,,1.42,1.07,0.94*12
$BDGSA,A,3,12,14,09,13,11,06,,,,,,,1.42,1.07,0.94*14
$GPGSV,4,1,14,07,84,090,,25,64,041,,08,50,208,,04,50,243,*78
$GPGSV,4,2,14,13,48,034,,02,34,297,,23,26,059,,27,21,220,*75
$GPGSV,4,3,14,40,20,251,,10,03,311,,28,01,181,,193,,,*72
$GPGSV,4,4,14,194,,,,195,,,*7D
$GLGSV,1,1,0*55
$BDGSV,3,1,9,02,50,173,30.8,13,46,201,32.1,09,37,286,31.5,06,36,216,31.4*5F
$BDGSV,3,2,9,04,36,126,30.3,11,20,130,31.6,12,10,059,31.0,14,07,165,30.5*5A
$BDGSV,3,3,9,01,,,30.5*48
$GNRMC,000648.000,A,2959.9998,N,12000.0000,E,0.000,127.49,230721,,,A*43
$GNVTG,127.49,T,,M,0.000,N,0.000,K,A*2A
$PMTKGEPH,0,0,0,0,0,0,0,0,0,0,0,0,0,0,0,0,0,0,0,0,0,0,0,0,0,0,0,0,0,0,0,0,0*04
$PMTKGALM,28,1,1,1,1,1,1,1,1,1,1,1,1,1,1,1,1,0,0,0,1,1,1,1,1,1,1,1,1,1,1,1,0*23
$GNACCURACY,1.0,179.9,0.6,19.7*2A
$PMTKAGC,000648.000,2688,2940,5527,5644,0,4,0*6A
$PMTKAG2,000648.000,4,0119,0,0,0,0,0,0,0,0,0,0,0,0*33
$GNGGA,000649.000,2959.9998,N,12000.0000,E,1,6,1.07,-7.1,M,7.0,M,,*50
$GPGSA,A,3,,,,,,,,,,,,,1.42,1.07,0.94*0E
$GLGSA,A,3,,,,,,,,,,,,,1.42,1.07,0.94*12
$BDGSA,A,3,12,14,09,13,11,06,,,,,,,1.42,1.07,0.94*14
$GPGSV,4,1,14,07,84,090,,25,64,041,,08,50,208,,04,50,243,*78
$GPGSV,4,2,14,13,48,034,,02,34,297,,23,26,059,,27,21,220,*75
$GPGSV,4,3,14,40,20,251,,10,03,311,,28,01,181,,193,,,*72
$GPGSV,4,4,14,194,,,,195,,,*7D
$GLGSV,1,1,0*55
$BDGSV,3,1,9,02,50,173,30.9,13,46,201,32.1,09,37,286,31.5,06,36,216,31.4*5E
$BDGSV,3,2,9,04,36,126,30.3,11,20,130,31.6,12,10,059,30.9,14,07,165,30.5*52
$BDGSV,3,3,9,01,,,30.7*4A
$GNRMC,000649.000,A,2959.9998,N,12000.0000,E,0.000,127.49,230721,,,A*42
$GNVTG,127.49,T,,M,0.000,N,0.000,K,A*2A
$PMTKGEPH,0,0,0,0,0,0,0,0,0,0,0,0,0,0,0,0,0,0,0,0,0,0,0,0,0,0,0,0,0,0,0,0,0*04
$PMTKGALM,28,1,1,1,1,1,1,1,1,1,1,1,1,1,1,1,1,0,0,0,1,1,1,1,1,1,1,1,1,1,1,1,0*23
$GNACCURACY,1.0,179.9,0.6,20.8*2F
$PMTKAGC,000649.000,2978,2813,5777,5679,0,4,0*65
$PMTKAG2,000649.000,4,0119,0,0,0,0,0,0,0,0,0,0,0,0*32
$GNGGA,000650.000,2959.9998,N,12000.0000,E,1,6,1.07,-7.1,M,7.0,M,,*58
$GPGSA,A,3,,,,,,,,,,,,,1.42,1.07,0.94*0E
$GLGSA,A,3,,,,,,,,,,,,,1.42,1.07,0.94*12
$BDGSA,A,3,12,14,09,13,11,06,,,,,,,1.42,1.07,0.94*14
$GPGSV,4,1,14,07,84,090,,25,64,041,,08,50,208,,04,50,243,*78
$GPGSV,4,2,14,13,48,034,,02,34,297,,23,26,059,,27,21,220,*75
$GPGSV,4,3,14,40,20,251,,10,03,311,,28,01,181,,193,,,*72
$GPGSV,4,4,14,194,,,,195,,,*7D
$GLGSV,1,1,0*55
$BDGSV,3,1,9,02,50,173,30.9,13,46,201,32.1,09,37,286,31.5,06,36,216,31.5*5F
$BDGSV,3,2,9,04,36,126,30.4,11,20,130,31.5,12,10,059,30.9,14,07,165,30.5*56
$BDGSV,3,3,9,01,,,30.7*4A
$GNRMC,000650.000,A,2959.9998,N,12000.0000,E,0.000,127.49,230721,,,A*4A
$GNVTG,127.49,T,,M,0.000,N,0.000,K,A*2A
$PMTKGEPH,0,0,0,0,0,0,0,0,0,0,0,0,0,0,0,0,0,0,0,0,0,0,0,0,0,0,0,0,0,0,0,0,0*04
$PMTKGALM,28,1,1,1,1,1,1,1,1,1,1,1,1,1,1,1,1,0,0,0,1,1,1,1,1,1,1,1,1,1,1,1,0*23
$GNACCURACY,1.0,179.9,0.6,19.7*2A
$PMTKAGC,000650.000,2807,2938,5629,5536,0,4,0*6E
$PMTKAG2,000650.000,4,0119,0,0,0,0,0,0,0,0,0,0,0,0*3A
$GNGGA,000651.000,2959.9998,N,12000.0000,E,1,6,1.07,-7.1,M,7.0,M,,*59
$GPGSA,A,3,,,,,,,,,,,,,1.42,1.07,0.94*0E
$GLGSA,A,3,,,,,,,,,,,,,1.42,1.07,0.94*12
$BDGSA,A,3,12,14,09,13,11,06,,,,,,,1.42,1.07,0.94*14
$GPGSV,4,1,14,07,84,090,,25,64,041,,08,50,208,,04,50,243,*78
$GPGSV,4,2,14,13,48,034,,02,34,297,,23,26,059,,27,21,220,*75
$GPGSV,4,3,14,40,20,251,,10,03,311,,28,01,181,,193,,,*72
$GPGSV,4,4,14,194,,,,195,,,*7D
$GLGSV,1,1,0*55
$BDGSV,3,1,9,02,50,173,30.9,13,46,201,32.2,09,37,286,31.5,06,36,216,31.5*5C
$BDGSV,3,2,9,04,36,126,30.3,11,20,130,31.5,12,10,059,30.9,14,07,165,30.5*51
$BDGSV,3,3,9,01,,,30.7*4A
$GNRMC,000651.000,A,2959.9998,N,12000.0000,E,0.000,127.49,230721,,,A*4B
$GNVTG,127.49,T,,M,0.000,N,0.000,K,A*2A
$PMTKGEPH,0,0,0,0,0,0,0,0,0,0,0,0,0,0,0,0,0,0,0,0,0,0,0,0,0,0,0,0,0,0,0,0,0*04
$PMTKGALM,28,1,1,1,1,1,1,1,1,1,1,1,1,1,1,1,1,0,0,0,1,1,1,1,1,1,1,1,1,1,1,1,0*23
$GNACCURACY,1.0,179.9,0.6,20.1*26
$PMTKAGC,000651.000,2848,2768,5736,5616,0,4,0*61
$PMTKAG2,000651.000,4,0119,0,0,0,0,0,0,0,0,0,0,0,0*3B
$GNGGA,000652.000,2959.9998,N,12000.0000,E,1,6,1.07,-7.1,M,7.0,M,,*5A
$GPGSA,A,3,,,,,,,,,,,,,1.42,1.07,0.94*0E
$GLGSA,A,3,,,,,,,,,,,,,1.42,1.07,0.94*12
$BDGSA,A,3,12,14,09,13,11,06,,,,,,,1.42,1.07,0.94*14
$GPGSV,4,1,14,07,84,090,,25,64,041,,08,50,208,,04,50,243,*78
$GPGSV,4,2,14,13,48,034,,02,34,297,,23,26,059,,27,21,220,*75
$GPGSV,4,3,14,40,20,251,,10,03,311,,28,01,181,,193,,,*72
$GPGSV,4,4,14,194,,,,195,,,*7D
$GLGSV,1,1,0*55
$BDGSV,3,1,9,02,50,173,31.0,13,46,201,32.2,09,37,286,31.5,06,36,216,31.5*54
$BDGSV,3,2,9,04,36,126,30.4,11,20,130,31.5,12,10,059,30.9,14,07,165,30.5*56
$BDGSV,3,3,9,01,,,30.7*4A
$GNRMC,000652.000,A,2959.9998,N,12000.0000,E,0.000,127.49,230721,,,A*48
$GNVTG,127.49,T,,M,0.000,N,0.000,K,A*2A
$PMTKGEPH,0,0,0,0,0,0,0,0,0,0,0,0,0,0,0,0,0,0,0,0,0,0,0,0,0,0,0,0,0,0,0,0,0*04
$PMTKGALM,28,1,1,1,1,1,1,1,1,1,1,1,1,1,1,1,1,0,0,0,1,1,1,1,1,1,1,1,1,1,1,1,0*23
$GNACCURACY,1.0,179.9,0.6,20.5*22
$PMTKAGC,000652.000,2823,2839,5733,5630,0,4,0*65
$PMTKAG2,000652.000,4,0119,0,0,0,0,0,0,0,0,0,0,0,0*38
$GNGGA,000653.000,2959.9998,N,12000.0000,E,1,6,1.07,-7.1,M,7.0,M,,*5B
$GPGSA,A,3,,,,,,,,,,,,,1.42,1.07,0.94*0E
$GLGSA,A,3,,,,,,,,,,,,,1.42,1.07,0.94*12
$BDGSA,A,3,12,14,09,13,11,06,,,,,,,1.42,1.07,0.94*14
$GPGSV,4,1,14,07,84,090,,25,64,041,,08,50,208,,04,50,243,*78
$GPGSV,4,2,14,13,48,034,,02,34,297,,23,26,059,,27,21,220,*75
$GPGSV,4,3,14,40,20,251,,10,03,311,,28,01,181,,193,,,*72
$GPGSV,4,4,14,194,,,,195,,,*7D
$GLGSV,1,1,0*55
$BDGSV,3,1,9,02,50,173,31.0,13,46,201,32.2,09,37,286,31.5,06,36,216,31.5*54
$BDGSV,3,2,9,04,36,126,30.5,11,20,130,31.4,12,10,059,30.9,14,07,165,30.5*56
$BDGSV,3,3,9,01,,,30.8*45
$GNRMC,000653.000,A,2959.9998,N,12000.0000,E,0.000,127.49,230721,,,A*49
$GNVTG,127.49,T,,M,0.000,N,0.000,K,A*2A
$PMTKGEPH,0,0,0,0,0,0,0,0,0,0,0,0,0,0,0,0,0,0,0,0,0,0,0,0,0,0,0,0,0,0,0,0,0*04
$PMTKGALM,28,1,1,1,1,1,1,1,1,1,1,1,1,1,1,1,1,0,0,0,1,1,1,1,1,1,1,1,1,1,1,1,0*23
$GNACCURACY,1.0,179.9,0.6,19.9*24
$PMTKAGC,000653.000,2758,2910,5621,5610,0,4,0*6D
$PMTKAG2,000653.000,4,0119,0,0,0,0,0,0,0,0,0,0,0,0*39
$GNGGA,000654.000,2959.9998,N,12000.0000,E,1,6,1.07,-7.1,M,7.0,M,,*5C
$GPGSA,A,3,,,,,,,,,,,,,1.42,1.07,0.94*0E
$GLGSA,A,3,,,,,,,,,,,,,1.42,1.07,0.94*12
$BDGSA,A,3,12,14,09,13,11,06,,,,,,,1.42,1.07,0.94*14
$GPGSV,4,1,14,07,84,090,,25,64,041,,08,50,208,,04,50,243,*78
$GPGSV,4,2,14,13,48,034,,02,34,297,,23,26,059,,27,21,220,*75
$GPGSV,4,3,14,40,20,251,,10,03,311,,28,01,181,,193,,,*72
$GPGSV,4,4,14,194,,,,195,,,*7D
$GLGSV,1,1,0*55
$BDGSV,3,1,9,02,50,173,30.9,13,46,201,32.2,09,37,286,31.4,06,36,216,31.5*5D
$BDGSV,3,2,9,04,36,126,30.5,11,20,130,31.5,12,10,059,30.8,14,07,165,30.5*56
$BDGSV,3,3,9,01,,,30.8*45
$GNRMC,000654.000,A,2959.9998,N,12000.0000,E,0.000,127.49,230721,,,A*4E
$GNVTG,127.49,T,,M,0.000,N,0.000,K,A*2A
$PMTKGEPH,0,0,0,0,0,0,0,0,0,0,0,0,0,0,0,0,0,0,0,0,0,0,0,0,0,0,0,0,0,0,0,0,0*04
$PMTKGALM,28,1,1,1,1,1,1,1,1,1,1,1,1,1,1,1,1,0,0,0,1,1,1,1,1,1,1,1,1,1,1,1,0*23
$GNACCURACY,1.0,179.9,0.6,19.9*24
$PMTKAGC,000654.000,2904,2709,5565,5701,0,4,0*69
$PMTKAG2,000654.000,4,0119,0,0,0,0,0,0,0,0,0,0,0,0*3E
$GNGGA,000655.000,2959.9998,N,12000.0000,E,1,6,1.07,-7.1,M,7.0,M,,*5D
$GPGSA,A,3,,,,,,,,,,,,,1.42,1.07,0.94*0E
$GLGSA,A,3,,,,,,,,,,,,,1.42,1.07,0.94*12
$BDGSA,A,3,12,14,09,13,11,06,,,,,,,1.42,1.07,0.94*14
$GPGSV,4,1,14,07,84,090,,25,64,041,,08,50,208,,04,50,243,*78
$GPGSV,4,2,14,13,48,034,,02,34,297,,23,26,059,,27,21,220,*75
$GPGSV,4,3,14,40,20,251,,10,03,311,,28,01,181,,193,,,*72
$GPGSV,4,4,14,194,,,,195,,,*7D
$GLGSV,1,1,0*55
$BDGSV,3,1,9,02,50,173,30.9,13,46,201,32.1,09,37,286,31.5,06,36,216,31.5*5F
$BDGSV,3,2,9,04,36,126,30.5,11,20,130,31.5,12,10,059,30.8,14,07,165,30.5*56
$BDGSV,3,3,9,01,,,30.7*4A
$GNRMC,000655.000,A,2959.9998,N,12000.0000,E,0.000,127.49,230721,,,A*4F
$GNVTG,127.49,T,,M,0.000,N,0.000,K,A*2A
$PMTKGEPH,0,0,0,0,0,0,0,0,0,0,0,0,0,0,0,0,0,0,0,0,0,0,0,0,0,0,0,0,0,0,0,0,0*04
$PMTKGALM,28,1,1,1,1,1,1,1,1,1,1,1,1,1,1,1,1,0,0,0,1,1,1,1,1,1,1,1,1,1,1,1,0*23
$GNACCURACY,1.0,179.9,0.6,20.7*20
$PMTKAGC,000655.000,2714,2941,5726,5690,0,4,0*69
$PMTKAG2,000655.000,4,0119,0,0,0,0,0,0,0,0,0,0,0,0*3F
$GNGGA,000656.000,2959.9998,N,12000.0000,E,1,6,1.07,-7.1,M,7.0,M,,*5E
$GPGSA,A,3,,,,,,,,,,,,,1.42,1.07,0.94*0E
$GLGSA,A,3,,,,,,,,,,,,,1.42,1.07,0.94*12
$BDGSA,A,3,12,14,09,13,11,06,,,,,,,1.42,1.07,0.94*14
$GPGSV,4,1,14,07,84,090,,25,64,041,,08,50,208,,04,50,243,*78
$GPGSV,4,2,14,13,48,034,,02,34,297,,23,26,059,,27,21,220,*75
$GPGSV,4,3,14,40,20,251,,10,03,311,,28,01,181,,193,,,*72
$GPGSV,4,4,14,194,,,,195,,,*7D
$GLGSV,1,1,0*55
$BDGSV,3,1,9,02,50,173,31.0,13,46,201,32.2,09,37,286,31.5,06,36,216,31.5*54
$BDGSV,3,2,9,04,36,126,30.6,11,20,130,31.5,12,10,059,30.7,14,07,165,30.5*5A
$BDGSV,3,3,9,01,,,30.7*4A
$GNRMC,000656.000,A,2959.9998,N,12000.0000,E,0.000,127.49,230721,,,A*4C
$GNVTG,127.49,T,,M,0.000,N,0.000,K,A*2A
$PMTKGEPH,0,0,0,0,0,0,0,0,0,0,0,0,0,0,0,0,0,0,0,0,0,0,0,0,0,0,0,0,0,0,0,0,0*04
$PMTKGALM,28,1,1,1,1,1,1,1,1,1,1,1,1,1,1,1,1,0,0,0,1,1,1,1,1,1,1,1,1,1,1,1,0*23
$GNACCURACY,1.0,179.9,0.6,19.9*24
$PMTKAGC,000656.000,2842,2836,5704,5644,0,4,0*6E
$PMTKAG2,000656.000,4,0119,0,0,0,0,0,0,0,0,0,0,0,0*3C
$GNGGA,000657.000,2959.9998,N,12000.0000,E,1,6,1.07,-7.1,M,7.0,M,,*5F
$GPGSA,A,3,,,,,,,,,,,,,1.42,1.07,0.94*0E
$GLGSA,A,3,,,,,,,,,,,,,1.42,1.07,0.94*12
$BDGSA,A,3,12,14,09,13,11,06,,,,,,,1.42,1.07,0.94*14
$GPGSV,4,1,14,07,84,090,,25,64,041,,08,50,208,,04,50,243,*78
$GPGSV,4,2,14,13,48,034,,02,34,297,,23,26,059,,27,21,220,*75
$GPGSV,4,3,14,39,20,251,,10,03,311,,28,01,181,,193,,,*7C
$GPGSV,4,4,14,194,,,,195,,,*7D
$GLGSV,1,1,0*55
$BDGSV,3,1,9,02,50,173,30.9,13,46,201,32.2,09,37,286,31.4,06,36,216,31.6*5E
$BDGSV,3,2,9,04,36,126,30.5,11,20,130,31.5,12,10,059,30.6,14,07,165,30.5*58
$BDGSV,3,3,9,01,,,30.7*4A
$GNRMC,000657.000,A,2959.9998,N,12000.0000,E,0.000,127.49,230721,,,A*4D
$GNVTG,127.49,T,,M,0.000,N,0.000,K,A*2A
$PMTKGEPH,0,0,0,0,0,0,0,0,0,0,0,0,0,0,0,0,0,0,0,0,0,0,0,0,0,0,0,0,0,0,0,0,0*04
$PMTKGALM,28,1,1,1,1,1,1,1,1,1,1,1,1,1,1,1,1,0,0,0,1,1,1,1,1,1,1,1,1,1,1,1,0*23
$GNACCURACY,1.0,179.9,0.6,20.6*21
$PMTKAGC,000657.000,2916,2749,5620,5562,0,4,0*68
$PMTKAG2,000657.000,4,0119,0,0,0,0,0,0,0,0,0,0,0,0*3D
$GNGGA,000658.000,2959.9998,N,12000.0000,E,1,6,1.07,-7.1,M,7.0,M,,*50
$GPGSA,A,3,,,,,,,,,,,,,1.42,1.07,0.94*0E
$GLGSA,A,3,,,,,,,,,,,,,1.42,1.07,0.94*12
$BDGSA,A,3,12,14,09,13,11,06,,,,,,,1.42,1.07,0.94*14
$GPGSV,4,1,14,07,84,090,,25,64,041,,08,50,208,,04,50,243,*78
$GPGSV,4,2,14,13,48,034,,02,34,297,,23,26,059,,27,21,220,*75
$GPGSV,4,3,14,39,20,251,,10,03,311,,28,01,181,,193,,,*7C
$GPGSV,4,4,14,194,,,,195,,,*7D
$GLGSV,1,1,0*55
$BDGSV,3,1,9,02,50,173,30.9,13,46,201,32.2,09,37,286,31.4,06,36,216,31.6*5E
$BDGSV,3,2,9,04,36,126,30.5,11,20,130,31.4,12,10,059,30.6,14,07,165,30.5*59
$BDGSV,3,3,9,01,,,30.7*4A
$GNRMC,000658.000,A,2959.9998,N,12000.0000,E,0.000,127.49,230721,,,A*42
$GNVTG,127.49,T,,M,0.000,N,0.000,K,A*2A
$PMTKGEPH,0,0,0,0,0,0,0,0,0,0,0,0,0,0,0,0,0,0,0,0,0,0,0,0,0,0,0,0,0,0,0,0,0*04
$PMTKGALM,28,1,1,1,1,1,1,1,1,1,1,1,1,1,1,1,1,0,0,0,1,1,1,1,1,1,1,1,1,1,1,1,0*23
$GNACCURACY,1.0,179.9,0.6,19.9*24
$PMTKAGC,000658.000,2818,2572,5673,5700,0,4,0*62
$PMTKAG2,000658.000,4,0119,0,0,0,0,0,0,0,0,0,0,0,0*32
$GNGGA,000659.000,2959.9998,N,12000.0000,E,1,6,1.07,-7.1,M,7.0,M,,*51
$GPGSA,A,3,,,,,,,,,,,,,1.42,1.07,0.94*0E
$GLGSA,A,3,,,,,,,,,,,,,1.42,1.07,0.94*12
$BDGSA,A,3,12,14,09,13,11,06,,,,,,,1.42,1.07,0.94*14
$GPGSV,4,1,14,07,84,090,,25,64,041,,08,50,208,,04,50,243,*78
$GPGSV,4,2,14,13,48,034,,02,34,297,,23,26,059,,27,21,220,*75
$GPGSV,4,3,14,39,20,251,,10,03,311,,28,01,181,,193,,,*7C
$GPGSV,4,4,14,194,,,,195,,,*7D
$GLGSV,1,1,0*55
$BDGSV,3,1,9,02,50,173,31.0,13,46,201,32.2,09,37,286,31.4,06,36,216,31.5*55
$BDGSV,3,2,9,04,36,126,30.6,11,20,130,31.4,12,10,059,30.6,14,07,165,30.4*5B
$BDGSV,3,3,9,01,,,30.7*4A
$GNRMC,000659.000,A,2959.9998,N,12000.0000,E,0.000,127.49,230721,,,A*43
$GNVTG,127.49,T,,M,0.000,N,0.000,K,A*2A
$PMTKGEPH,0,0,0,0,0,0,0,0,0,0,0,0,0,0,0,0,0,0,0,0,0,0,0,0,0,0,0,0,0,0,0,0,0*04
$PMTKGALM,28,1,1,1,1,1,1,1,1,1,1,1,1,1,1,1,1,0,0,0,1,1,1,1,1,1,1,1,1,1,1,1,0*23
$GNACCURACY,1.0,179.9,0.6,19.8*25
$PMTKAGC,000659.000,2865,2849,5641,5551,0,4,0*6B
$PMTKAG2,000659.000,4,0119,0,0,0,0,0,0,0,0,0,0,0,0*33
$GNGGA,000700.000,2959.9998,N,12000.0000,E,1,6,1.07,-7.1,M,7.0,M,,*5C
$GPGSA,A,3,,,,,,,,,,,,,1.42,1.07,0.94*0E
$GLGSA,A,3,,,,,,,,,,,,,1.42,1.07,0.94*12
$BDGSA,A,3,12,14,09,13,11,06,,,,,,,1.42,1.07,0.94*14
$GPGSV,4,1,14,07,84,090,,25,64,041,,08,50,208,,04,50,243,*78
$GPGSV,4,2,14,13,48,034,,02,34,297,,23,26,059,,27,21,220,*75
$GPGSV,4,3,14,39,20,251,,10,03,311,,28,01,181,,193,,,*7C
$GPGSV,4,4,14,194,,,,195,,,*7D
$GLGSV,1,1,0*55
$BDGSV,3,1,9,02,50,173,31.0,13,46,201,32.2,09,37,286,31.4,06,36,216,31.6*56
$BDGSV,3,2,9,04,36,126,30.5,11,20,130,31.4,12,10,059,30.6,14,07,165,30.4*58
$BDGSV,3,3,9,01,,,30.7*4A
$GNRMC,000700.000,A,2959.9998,N,12000.0000,E,0.000,127.49,230721,,,A*4E
$GNVTG,127.49,T,,M,0.000,N,0.000,K,A*2A
$PMTKGEPH,0,0,0,0,0,0,0,0,0,0,0,0,0,0,0,0,0,0,0,0,0,0,0,0,0,0,0,0,0,0,0,0,0*04
$PMTKGALM,28,1,1,1,1,1,1,1,1,1,1,1,1,1,1,1,1,0,0,0,1,1,1,1,1,1,1,1,1,1,1,1,0*23
$GNACCURACY,1.0,179.9,0.6,19.9*24
$PMTKAGC,000700.000,2796,2834,5606,5610,0,4,0*6A
$PMTKAG2,000700.000,4,0119,0,0,0,0,0,0,0,0,0,0,0,0*3E
$GNGGA,000701.000,2959.9998,N,12000.0000,E,1,6,1.07,-7.1,M,7.0,M,,*5D
$GPGSA,A,3,,,,,,,,,,,,,1.42,1.07,0.94*0E
$GLGSA,A,3,,,,,,,,,,,,,1.42,1.07,0.94*12
$BDGSA,A,3,12,14,09,13,11,06,,,,,,,1.42,1.07,0.94*14
$GPGSV,4,1,14,07,84,090,,25,64,041,,08,50,208,,04,50,243,*78
$GPGSV,4,2,14,13,48,034,,02,34,297,,23,26,059,,27,21,220,*75
$GPGSV,4,3,14,39,20,251,,10,03,311,,28,01,181,,193,,,*7C
$GPGSV,4,4,14,194,,,,195,,,*7D
$GLGSV,1,1,0*55
$BDGSV,3,1,9,02,50,173,31.0,13,46,201,32.2,09,37,286,31.4,06,36,216,31.6*56
$BDGSV,3,2,9,04,36,126,30.5,11,20,130,31.4,12,10,059,30.7,14,07,165,30.3*5E
$BDGSV,3,3,9,01,,,30.7*4A
$GNRMC,000701.000,A,2959.9998,N,12000.0000,E,0.000,127.49,230721,,,A*4F
$GNVTG,127.49,T,,M,0.000,N,0.000,K,A*2A
$PMTKGEPH,0,0,0,0,0,0,0,0,0,0,0,0,0,0,0,0,0,0,0,0,0,0,0,0,0,0,0,0,0,0,0,0,0*04
$PMTKGALM,28,1,1,1,1,1,1,1,1,1,1,1,1,1,1,1,1,0,0,0,1,1,1,1,1,1,1,1,1,1,1,1,0*23
$GNACCURACY,1.0,179.9,0.6,20.6*21
$PMTKAGC,000701.000,2706,2817,5560,5618,0,4,0*68
$PMTKAG2,000701.000,4,0119,0,0,0,0,0,0,0,0,0,0,0,0*3F
$GNGGA,000702.000,2959.9998,N,12000.0000,E,1,6,1.07,-7.1,M,7.0,M,,*5E
$GPGSA,A,3,,,,,,,,,,,,,1.42,1.07,0.94*0E
$GLGSA,A,3,,,,,,,,,,,,,1.42,1.07,0.94*12
$BDGSA,A,3,12,14,09,13,11,06,,,,,,,1.42,1.07,0.94*14
$GPGSV,4,1,14,07,84,090,,25,64,041,,08,50,208,,04,50,243,*78
$GPGSV,4,2,14,13,48,034,,02,34,297,,23,26,059,,27,21,220,*75
$GPGSV,4,3,14,39,20,251,,10,03,311,,28,01,181,,193,,,*7C
$GPGSV,4,4,14,194,,,,195,,,*7D
$GLGSV,1,1,0*55
$BDGSV,3,1,9,02,50,173,31.0,13,46,201,32.1,09,37,286,31.4,06,36,216,31.5*56
$BDGSV,3,2,9,04,36,126,30.5,11,20,130,31.3,12,10,059,30.7,14,07,165,30.3*59
$BDGSV,3,3,9,01,,,30.7*4A
$GNRMC,000702.000,A,2959.9998,N,12000.0000,E,0.000,127.49,230721,,,A*4C
$GNVTG,127.49,T,,M,0.000,N,0.000,K,A*2A
$PMTKGEPH,0,0,0,0,0,0,0,0,0,0,0,0,0,0,0,0,0,0,0,0,0,0,0,0,0,0,0,0,0,0,0,0,0*04
$PMTKGALM,28,1,1,1,1,1,1,1,1,1,1,1,1,1,1,1,1,0,0,0,1,1,1,1,1,1,1,1,1,1,1,1,0*23
$GNACCURACY,1.0,179.9,0.7,20.0*26
$PMTKAGC,000702.000,2848,2507,5529,5448,0,4,0*68
$PMTKAG2,000702.000,4,0119,0,0,0,0,0,0,0,0,0,0,0,0*3C
$GNGGA,000703.000,2959.9998,N,12000.0000,E,1,6,1.07,-7.1,M,7.0,M,,*5F
$GPGSA,A,3,,,,,,,,,,,,,1.42,1.07,0.94*0E
$GLGSA,A,3,,,,,,,,,,,,,1.42,1.07,0.94*12
$BDGSA,A,3,12,14,09,13,11,06,,,,,,,1.42,1.07,0.94*14
$GPGSV,4,1,14,07,84,090,,25,64,041,,08,50,208,,04,50,243,*78
$GPGSV,4,2,14,13,48,034,,02,34,297,,23,26,059,,27,21,220,*75
$GPGSV,4,3,14,39,20,251,,10,03,311,,28,01,181,,193,,,*7C
$GPGSV,4,4,14,194,,,,195,,,*7D
$GLGSV,1,1,0*55
$BDGSV,3,1,9,02,50,173,31.0,13,46,201,32.1,09,37,286,31.4,06,36,216,31.6*55
$BDGSV,3,2,9,04,36,126,30.4,11,20,130,31.2,12,10,059,30.7,14,07,165,30.3*59
$BDGSV,3,3,9,01,,,30.7*4A
$GNRMC,000703.000,A,2959.9998,N,12000.0000,E,0.000,127.49,230721,,,A*4D
$GNVTG,127.49,T,,M,0.000,N,0.000,K,A*2A
$PMTKGEPH,0,0,0,0,0,0,0,0,0,0,0,0,0,0,0,0,0,0,0,0,0,0,0,0,0,0,0,0,0,0,0,0,0*04
$PMTKGALM,28,1,1,1,1,1,1,1,1,1,1,1,1,1,1,1,1,0,0,0,1,1,1,1,1,1,1,1,1,1,1,1,0*23
$GNACCURACY,1.0,179.9,0.6,20.7*20
$PMTKAGC,000703.000,2931,2944,5649,5666,0,4,0*66
$PMTKAG2,000703.000,4,0119,0,0,0,0,0,0,0,0,0,0,0,0*3D
$GNGGA,000704.000,2959.9998,N,12000.0000,E,1,6,1.07,-7.1,M,7.0,M,,*58
$GPGSA,A,3,,,,,,,,,,,,,1.42,1.07,0.94*0E
$GLGSA,A,3,,,,,,,,,,,,,1.42,1.07,0.94*12
$BDGSA,A,3,12,14,09,13,11,06,,,,,,,1.42,1.07,0.94*14
$GPGSV,4,1,14,07,84,090,,25,64,041,,08,50,208,,04,50,243,*78
$GPGSV,4,2,14,13,48,034,,02,34,297,,23,26,059,,27,21,220,*75
$GPGSV,4,3,14,39,20,251,,10,03,311,,28,01,181,,193,,,*7C
$GPGSV,4,4,14,194,,,,195,,,*7D
$GLGSV,1,1,0*55
$BDGSV,3,1,9,02,50,173,30.9,13,46,201,32.0,09,37,286,31.4,06,36,216,31.5*5F
$BDGSV,3,2,9,04,36,126,30.3,11,20,130,31.2,12,10,059,30.7,14,07,165,30.4*59
$BDGSV,3,3,9,01,,,30.7*4A
$GNRMC,000704.000,A,2959.9998,N,12000.0000,E,0.000,127.49,230721,,,A*4A
$GNVTG,127.49,T,,M,0.000,N,0.000,K,A*2A
$PMTKGEPH,0,0,0,0,0,0,0,0,0,0,0,0,0,0,0,0,0,0,0,0,0,0,0,0,0,0,0,0,0,0,0,0,0*04
$PMTKGALM,28,1,1,1,1,1,1,1,1,1,1,1,1,1,1,1,1,0,0,0,1,1,1,1,1,1,1,1,1,1,1,1,0*23
$GNACCURACY,1.0,179.9,0.6,20.0*27
$PMTKAGC,000704.000,2818,2762,5723,5503,0,4,0*6C
$PMTKAG2,000704.000,4,0119,0,0,0,0,0,0,0,0,0,0,0,0*3A
$GNGGA,000705.000,2959.9998,N,12000.0000,E,1,6,1.07,-7.1,M,7.0,M,,*59
$GPGSA,A,3,,,,,,,,,,,,,1.42,1.07,0.94*0E
$GLGSA,A,3,,,,,,,,,,,,,1.42,1.07,0.94*12
$BDGSA,A,3,12,14,09,13,11,06,,,,,,,1.42,1.07,0.94*14
$GPGSV,4,1,14,07,84,090,,25,64,041,,08,50,208,,04,50,243,*78
$GPGSV,4,2,14,13,48,034,,02,34,297,,23,26,059,,27,21,220,*75
$GPGSV,4,3,14,39,20,251,,10,03,311,,28,01,181,,193,,,*7C
$GPGSV,4,4,14,194,,,,195,,,*7D
$GLGSV,1,1,0*55
$BDGSV,3,1,9,02,50,173,30.9,13,46,201,32.0,09,37,286,31.4,06,36,216,31.5*5F
$BDGSV,3,2,9,04,36,126,30.3,11,20,130,31.2,12,10,059,30.7,14,07,165,30.4*59
$BDGSV,3,3,9,01,,,30.7*4A
$GNRMC,000705.000,A,2959.9998,N,12000.0000,E,0.000,127.49,230721,,,A*4B
$GNVTG,127.49,T,,M,0.000,N,0.000,K,A*2A
$PMTKGEPH,0,0,0,0,0,0,0,0,0,0,0,0,0,0,0,0,0,0,0,0,0,0,0,0,0,0,0,0,0,0,0,0,0*04
$PMTKGALM,28,1,1,1,1,1,1,1,1,1,1,1,1,1,1,1,1,0,0,0,1,1,1,1,1,1,1,1,1,1,1,1,0*23
$GNACCURACY,1.0,179.9,0.6,20.0*27
$PMTKAGC,000705.000,2764,2955,5618,5720,0,4,0*69
$PMTKAG2,000705.000,4,0119,0,0,0,0,0,0,0,0,0,0,0,0*3B
$GNGGA,000706.000,2959.9998,N,12000.0000,E,1,6,1.07,-7.1,M,7.0,M,,*5A
$GPGSA,A,3,,,,,,,,,,,,,1.42,1.07,0.94*0E
$GLGSA,A,3,,,,,,,,,,,,,1.42,1.07,0.94*12
$BDGSA,A,3,12,14,09,13,11,06,,,,,,,1.42,1.07,0.94*14
$GPGSV,4,1,14,07,84,090,,25,64,041,,08,50,208,,04,50,243,*78
$GPGSV,4,2,14,13,48,034,,02,34,297,,23,26,059,,27,21,220,*75
$GPGSV,4,3,14,39,20,251,,10,03,311,,28,01,181,,193,,,*7C
$GPGSV,4,4,14,194,,,,195,,,*7D
$GLGSV,1,1,0*55
$BDGSV,3,1,9,02,50,173,31.0,13,46,201,32.0,09,37,286,31.4,06,36,216,31.5*57
$BDGSV,3,2,9,04,36,126,30.3,11,20,130,31.2,12,10,059,30.7,14,07,165,30.5*58
$BDGSV,3,3,9,01,,,30.6*4B
$GNRMC,000706.000,A,2959.9998,N,12000.0000,E,0.000,127.49,230721,,,A*48
$GNVTG,127.49,T,,M,0.000,N,0.000,K,A*2A
$PMTKGEPH,0,0,0,0,0,0,0,0,0,0,0,0,0,0,0,0,0,0,0,0,0,0,0,0,0,0,0,0,0,0,0,0,0*04
$PMTKGALM,28,1,1,1,1,1,1,1,1,1,1,1,1,1,1,1,1,0,0,0,1,1,1,1,1,1,1,1,1,1,1,1,0*23
$GNACCURACY,1.0,179.9,0.6,20.7*20
$PMTKAGC,000706.000,2744,2860,5684,5690,0,4,0*60
$PMTKAG2,000706.000,4,0119,0,0,0,0,0,0,0,0,0,0,0,0*38
$GNGGA,000707.000,2959.9998,N,12000.0000,E,1,6,1.07,-7.1,M,7.0,M,,*5B
$GPGSA,A,3,,,,,,,,,,,,,1.42,1.07,0.94*0E
$GLGSA,A,3,,,,,,,,,,,,,1.42,1.07,0.94*12
$BDGSA,A,3,12,14,09,13,11,06,,,,,,,1.42,1.07,0.94*14
$GPGSV,4,1,14,07,84,090,,25,64,041,,08,50,208,,04,50,243,*78
$GPGSV,4,2,14,13,48,034,,02,34,297,,23,26,059,,27,21,220,*75
$GPGSV,4,3,14,39,20,251,,10,03,311,,28,01,181,,193,,,*7C
$GPGSV,4,4,14,194,,,,195,,,*7D
$GLGSV,1,1,0*55
$BDGSV,3,1,9,02,50,173,31.0,13,46,201,32.1,09,37,286,31.3,06,36,216,31.5*51
$BDGSV,3,2,9,04,36,126,30.3,11,20,130,31.2,12,10,059,30.7,14,07,165,30.5*58
$BDGSV,3,3,9,01,,,30.7*4A
$GNRMC,000707.000,A,2959.9998,N,12000.0000,E,0.000,127.49,230721,,,A*49
$GNVTG,127.49,T,,M,0.000,N,0.000,K,A*2A
$PMTKGEPH,0,0,0,0,0,0,0,0,0,0,0,0,0,0,0,0,0,0,0,0,0,0,0,0,0,0,0,0,0,0,0,0,0*04
$PMTKGALM,28,1,1,1,1,1,1,1,1,1,1,1,1,1,1,1,1,0,0,0,1,1,1,1,1,1,1,1,1,1,1,1,0*23
$GNACCURACY,1.0,179.9,0.6,20.0*27
$PMTKAGC,000707.000,2781,2858,5615,5541,0,4,0*64
$PMTKAG2,000707.000,4,0119,0,0,0,0,0,0,0,0,0,0,0,0*39
$GNGGA,000708.000,2959.9998,N,12000.0000,E,1,6,1.07,-7.1,M,7.0,M,,*54
$GPGSA,A,3,,,,,,,,,,,,,1.42,1.07,0.94*0E
$GLGSA,A,3,,,,,,,,,,,,,1.42,1.07,0.94*12
$BDGSA,A,3,12,14,09,13,11,06,,,,,,,1.42,1.07,0.94*14
$GPGSV,4,1,14,07,84,090,,25,64,041,,08,50,208,,04,50,243,*78
$GPGSV,4,2,14,13,48,034,,02,34,297,,23,26,059,,27,21,220,*75
$GPGSV,4,3,14,39,20,251,,10,03,311,,28,01,181,,193,,,*7C
$GPGSV,4,4,14,194,,,,195,,,*7D
$GLGSV,1,1,0*55
$BDGSV,3,1,9,02,50,173,31.0,13,46,201,32.1,09,37,286,31.2,06,36,216,31.5*50
$BDGSV,3,2,9,04,36,126,30.4,11,20,130,31.3,12,10,059,30.7,14,07,165,30.5*5E
$BDGSV,3,3,9,01,,,30.8*45
$GNRMC,000708.000,A,2959.9998,N,12000.0000,E,0.000,127.49,230721,,,A*46
$GNVTG,127.49,T,,M,0.000,N,0.000,K,A*2A
$PMTKGEPH,0,0,0,0,0,0,0,0,0,0,0,0,0,0,0,0,0,0,0,0,0,0,0,0,0,0,0,0,0,0,0,0,0*04
$PMTKGALM,28,1,1,1,1,1,1,1,1,1,1,1,1,1,1,1,1,0,0,0,1,1,1,1,1,1,1,1,1,1,1,1,0*23
$GNACCURACY,1.0,179.9,0.6,20.7*20
$PMTKAGC,000708.000,2783,2967,5537,5540,0,4,0*66
$PMTKAG2,000708.000,4,0119,0,0,0,0,0,0,0,0,0,0,0,0*36
$GNGGA,000709.000,2959.9998,N,12000.0000,E,1,6,1.07,-7.1,M,7.0,M,,*55
$GPGSA,A,3,,,,,,,,,,,,,1.42,1.07,0.94*0E
$GLGSA,A,3,,,,,,,,,,,,,1.42,1.07,0.94*12
$BDGSA,A,3,12,14,09,13,11,06,,,,,,,1.42,1.07,0.94*14
$GPGSV,4,1,14,07,84,090,,25,64,041,,08,50,208,,04,50,243,*78
$GPGSV,4,2,14,13,48,034,,02,34,297,,23,26,059,,27,21,220,*75
$GPGSV,4,3,14,39,20,251,,10,03,311,,28,01,181,,193,,,*7C
$GPGSV,4,4,14,194,,,,195,,,*7D
$GLGSV,1,1,0*55
$BDGSV,3,1,9,02,50,173,31.0,13,46,201,32.1,09,37,286,31.2,06,36,216,31.4*51
$BDGSV,3,2,9,04,36,126,30.4,11,20,130,31.3,12,10,059,30.7,14,07,165,30.5*5E
$BDGSV,3,3,9,01,,,30.7*4A
$GNRMC,000709.000,A,2959.9998,N,12000.0000,E,0.000,127.49,230721,,,A*47
$GNVTG,127.49,T,,M,0.000,N,0.000,K,A*2A
$PMTKGEPH,0,0,0,0,0,0,0,0,0,0,0,0,0,0,0,0,0,0,0,0,0,0,0,0,0,0,0,0,0,0,0,0,0*04
$PMTKGALM,28,1,1,1,1,1,1,1,1,1,1,1,1,1,1,1,1,0,0,0,1,1,1,1,1,1,1,1,1,1,1,1,0*23
$GNACCURACY,1.0,179.9,0.6,19.9*24
$PMTKAGC,000709.000,2679,2782,5650,5560,0,4,0*66
$PMTKAG2,000709.000,4,0118,0,0,0,0,0,0,0,0,0,0,0,0*36
$GNGGA,000710.000,2959.9998,N,12000.0000,E,1,6,1.06,-7.1,M,7.0,M,,*5C
$GPGSA,A,3,,,,,,,,,,,,,1.42,1.06,0.94*0F
$GLGSA,A,3,,,,,,,,,,,,,1.42,1.06,0.94*13
$BDGSA,A,3,12,14,09,13,11,06,,,,,,,1.42,1.06,0.94*15
$GPGSV,4,1,14,07,84,090,,25,64,041,,08,50,208,,04,50,243,*78
$GPGSV,4,2,14,13,48,034,,02,34,297,,23,26,059,,27,21,220,*75
$GPGSV,4,3,14,39,20,251,,10,03,311,,28,01,181,,193,,,*7C
$GPGSV,4,4,14,194,,,,195,,,*7D
$GLGSV,1,1,0*55
$BDGSV,3,1,9,02,50,173,31.0,13,46,201,32.1,09,37,286,31.2,06,36,216,31.5*50
$BDGSV,3,2,9,04,36,126,30.4,11,20,130,31.4,12,10,059,30.7,14,07,165,30.5*59
$BDGSV,3,3,9,01,,,30.7*4A
$GNRMC,000710.000,A,2959.9998,N,12000.0000,E,0.000,127.49,230721,,,A*4F
$GNVTG,127.49,T,,M,0.000,N,0.000,K,A*2A
$PMTKGEPH,0,0,0,0,0,0,0,0,0,0,0,0,0,0,0,0,0,0,0,0,0,0,0,0,0,0,0,0,0,0,0,0,0*04
$PMTKGALM,28,1,1,1,1,1,1,1,1,1,1,1,1,1,1,1,1,0,0,0,1,1,1,1,1,1,1,1,1,1,1,1,0*23
$GNACCURACY,1.0,179.9,0.6,20.1*26
$PMTKAGC,000710.000,2735,2885,5608,5661,0,4,0*60
$PMTKAG2,000710.000,4,0119,0,0,0,0,0,0,0,0,0,0,0,0*3F
$GNGGA,000711.000,2959.9998,N,12000.0000,E,1,6,1.07,-7.1,M,7.0,M,,*5C
$GPGSA,A,3,,,,,,,,,,,,,1.42,1.07,0.94*0E
$GLGSA,A,3,,,,,,,,,,,,,1.42,1.07,0.94*12
$BDGSA,A,3,12,14,09,13,11,06,,,,,,,1.42,1.07,0.94*14
$GPGSV,4,1,14,07,84,090,,25,64,041,,08,50,208,,04,50,243,*78
$GPGSV,4,2,14,13,48,034,,02,34,297,,23,26,059,,27,21,220,*75
$GPGSV,4,3,14,39,20,251,,10,03,311,,28,01,181,,193,,,*7C
$GPGSV,4,4,14,194,,,,195,,,*7D
$GLGSV,1,1,0*55
$BDGSV,3,1,9,02,50,173,31.0,13,46,201,32.1,09,37,286,31.3,06,36,216,31.4*50
$BDGSV,3,2,9,04,36,126,30.5,11,20,130,31.4,12,10,059,30.7,14,07,165,30.5*58
$BDGSV,3,3,9,01,,,30.7*4A
$GNRMC,000711.000,A,2959.9998,N,12000.0000,E,0.000,127.49,230721,,,A*4E
$GNVTG,127.49,T,,M,0.000,N,0.000,K,A*2A
$PMTKGEPH,0,0,0,0,0,0,0,0,0,0,0,0,0,0,0,0,0,0,0,0,0,0,0,0,0,0,0,0,0,0,0,0,0*04
$PMTKGALM,28,1,1,1,1,1,1,1,1,1,1,1,1,1,1,1,1,0,0,0,1,1,1,1,1,1,1,1,1,1,1,1,0*23
$GNACCURACY,1.0,179.9,0.6,20.5*22
$PMTKAGC,000711.000,3019,2846,5682,5658,0,4,0*6E
$PMTKAG2,000711.000,4,0119,0,0,0,0,0,0,0,0,0,0,0,0*3E
$GNGGA,000712.000,2959.9998,N,12000.0000,E,1,6,1.07,-7.1,M,7.0,M,,*5F
$GPGSA,A,3,,,,,,,,,,,,,1.42,1.07,0.94*0E
$GLGSA,A,3,,,,,,,,,,,,,1.42,1.07,0.94*12
$BDGSA,A,3,12,14,09,13,11,06,,,,,,,1.42,1.07,0.94*14
$GPGSV,4,1,14,07,84,090,,25,64,041,,08,50,208,,04,50,243,*78
$GPGSV,4,2,14,13,48,034,,02,34,297,,23,26,059,,27,21,220,*75
$GPGSV,4,3,14,39,20,251,,10,03,311,,28,01,181,,193,,,*7C
$GPGSV,4,4,14,194,,,,195,,,*7D
$GLGSV,1,1,0*55
$BDGSV,3,1,9,02,50,173,30.9,13,46,201,32.1,09,37,286,31.3,06,36,216,31.5*59
$BDGSV,3,2,9,04,36,126,30.4,11,20,130,31.4,12,10,059,30.7,14,07,165,30.4*58
$BDGSV,3,3,9,01,,,30.7*4A
$GNRMC,000712.000,A,2959.9998,N,12000.0000,E,0.000,127.49,230721,,,A*4D
$GNVTG,127.49,T,,M,0.000,N,0.000,K,A*2A
$PMTKGEPH,0,0,0,0,0,0,0,0,0,0,0,0,0,0,0,0,0,0,0,0,0,0,0,0,0,0,0,0,0,0,0,0,0*04
$PMTKGALM,28,1,1,1,1,1,1,1,1,1,1,1,1,1,1,1,1,0,0,0,1,1,1,1,1,1,1,1,1,1,1,1,0*23
$GNACCURACY,1.0,179.9,0.6,20.2*25
$PMTKAGC,000712.000,2806,2595,5720,5608,0,4,0*65
$PMTKAG2,000712.000,4,0119,0,0,0,0,0,0,0,0,0,0,0,0*3D
$GNGGA,000713.000,2959.9998,N,12000.0000,E,1,6,1.07,-7.1,M,7.0,M,,*5E
$GPGSA,A,3,,,,,,,,,,,,,1.42,1.07,0.94*0E
$GLGSA,A,3,,,,,,,,,,,,,1.42,1.07,0.94*12
$BDGSA,A,3,12,14,09,13,11,06,,,,,,,1.42,1.07,0.94*14
$GPGSV,4,1,14,07,84,090,,25,64,041,,08,50,208,,04,50,243,*78
$GPGSV,4,2,14,13,48,034,,02,34,297,,23,26,059,,27,21,220,*75
$GPGSV,4,3,14,39,20,251,,10,03,311,,28,01,181,,193,,,*7C
$GPGSV,4,4,14,194,,,,195,,,*7D
$GLGSV,1,1,0*55
$BDGSV,3,1,9,02,50,173,31.0,13,46,201,32.1,09,37,286,31.2,06,36,216,31.5*50
$BDGSV,3,2,9,04,36,126,30.4,11,20,130,31.3,12,10,059,30.7,14,07,165,30.5*5E
$BDGSV,3,3,9,01,,,30.7*4A
$GNRMC,000713.000,A,2959.9998,N,12000.0000,E,0.000,127.49,230721,,,A*4C
$GNVTG,127.49,T,,M,0.000,N,0.000,K,A*2A
$PMTKGEPH,0,0,0,0,0,0,0,0,0,0,0,0,0,0,0,0,0,0,0,0,0,0,0,0,0,0,0,0,0,0,0,0,0*04
$PMTKGALM,28,1,1,1,1,1,1,1,1,1,1,1,1,1,1,1,1,0,0,0,1,1,1,1,1,1,1,1,1,1,1,1,0*23
$GNACCURACY,1.0,179.9,0.6,20.5*22
$PMTKAGC,000713.000,2742,2836,5667,5589,0,4,0*67
$PMTKAG2,000713.000,4,0119,0,0,0,0,0,0,0,0,0,0,0,0*3C
$GNGGA,000714.000,2959.9998,N,12000.0000,E,1,6,1.07,-7.1,M,7.0,M,,*59
$GPGSA,A,3,,,,,,,,,,,,,1.42,1.07,0.94*0E
$GLGSA,A,3,,,,,,,,,,,,,1.42,1.07,0.94*12
$BDGSA,A,3,12,14,09,13,11,06,,,,,,,1.42,1.07,0.94*14
$GPGSV,4,1,14,07,84,090,,25,64,041,,08,50,208,,04,50,243,*78
$GPGSV,4,2,14,13,48,034,,02,34,297,,23,26,059,,27,21,220,*75
$GPGSV,4,3,14,39,20,251,,10,03,311,,28,01,181,,193,,,*7C
$GPGSV,4,4,14,194,,,,195,,,*7D
$GLGSV,1,1,0*55
$BDGSV,3,1,9,02,50,173,31.0,13,46,201,32.1,09,37,286,31.2,06,36,216,31.5*50
$BDGSV,3,2,9,04,36,126,30.4,11,20,130,31.3,12,10,059,30.6,14,07,165,30.5*5F
$BDGSV,3,3,9,01,,,30.8*45
$GNRMC,000714.000,A,2959.9998,N,12000.0000,E,0.000,127.49,230721,,,A*4B
$GNVTG,127.49,T,,M,0.000,N,0.000,K,A*2A
$PMTKGEPH,0,0,0,0,0,0,0,0,0,0,0,0,0,0,0,0,0,0,0,0,0,0,0,0,0,0,0,0,0,0,0,0,0*04
$PMTKGALM,28,1,1,1,1,1,1,1,1,1,1,1,1,1,1,1,1,0,0,0,1,1,1,1,1,1,1,1,1,1,1,1,0*23
$GNACCURACY,1.0,179.9,0.6,20.0*27
$PMTKAGC,000714.000,2954,2762,5653,5609,0,4,0*6B
$PMTKAG2,000714.000,4,0119,0,0,0,0,0,0,0,0,0,0,0,0*3B
$GNGGA,000715.000,2959.9998,N,12000.0000,E,1,6,1.07,-7.1,M,7.0,M,,*58
$GPGSA,A,3,,,,,,,,,,,,,1.42,1.07,0.94*0E
$GLGSA,A,3,,,,,,,,,,,,,1.42,1.07,0.94*12
$BDGSA,A,3,12,14,09,13,11,06,,,,,,,1.42,1.07,0.94*14
$GPGSV,4,1,14,07,84,090,,25,64,041,,08,50,208,,04,50,243,*78
$GPGSV,4,2,14,13,48,034,,42,48,143,,02,34,297,,23,26,059,*7F
$GPGSV,4,3,14,27,21,220,,10,03,311,,28,01,181,,193,,,*74
$GPGSV,4,4,14,194,,,,195,,,*7D
$GLGSV,1,1,0*55
$BDGSV,3,1,9,02,50,173,31.0,13,46,201,32.1,09,37,286,31.2,06,36,216,31.5*50
$BDGSV,3,2,9,04,36,126,30.4,11,20,130,31.3,12,10,059,30.7,14,07,165,30.5*5E
$BDGSV,3,3,9,01,,,30.7*4A
$GNRMC,000715.000,A,2959.9998,N,12000.0000,E,0.000,127.49,230721,,,A*4A
$GNVTG,127.49,T,,M,0.000,N,0.000,K,A*2A
$PMTKGEPH,0,0,0,0,0,0,0,0,0,0,0,0,0,0,0,0,0,0,0,0,0,0,0,0,0,0,0,0,0,0,0,0,0*04
$PMTKGALM,28,1,1,1,1,1,1,1,1,1,1,1,1,1,1,1,1,0,0,0,1,1,1,1,1,1,1,1,1,1,1,1,0*23
$GNACCURACY,1.2,179.9,0.7,19.8*26
