=~=~=~=~=~=~=~=~=~=~=~= PuTTY log 2021.09.02 12:29:53 =~=~=~=~=~=~=~=~=~=~=~=
$GNGGA,000212.000,2959.7717,N,12000.1288,E,1,3,7.01,-0.3,M,7.0,M,,*5E
$GPGSA,A,2,,,,,,,,,,,,,7.08,7.01,1.00*0B
$GLGSA,A,2,,,,,,,,,,,,,7.08,7.01,1.00*17
$BDGSA,A,2,09,13,06,,,,,,,,,,7.08,7.01,1.00*17
$GPGSV,4,1,13,07,85,110,,25,66,042,,04,51,246,,13,49,032,*7B
$GPGSV,4,2,13,08,48,208,,02,33,299,,23,27,057,,27,19,219,*72
$GPGSV,4,3,13,16,01,039,,10,01,311,,193,,,,194,,,*74
$GPGSV,4,4,13,195,,,*46
$GLGSV,2,1,5,78,,,32.9,77,,,33.6,86,,,33.7,88,,,31.9*50
$GLGSV,2,2,5,87,,,33.2*43
$BDGSV,2,1,8,13,48,202,32.6,06,37,216,31.6,09,37,287,31.9,04,36,126,30.1*54
$BDGSV,2,2,8,12,10,060,,14,08,165,,01,,,31.0,11,,,31.3*59
$GNRMC,000212.000,A,2959.7717,N,12000.1288,E,0.000,0.00,230721,,,A*45
$GNVTG,0.00,T,,M,0.000,N,0.000,K,A*23
$PMTKGEPH,0,0,0,0,0,0,0,0,0,0,0,0,0,0,0,0,0,0,0,0,0,0,0,0,0,0,0,0,0,0,0,0,0*04
$PMTKGALM,28,1,1,1,1,1,1,1,1,1,1,1,1,1,1,1,1,0,0,0,1,1,1,1,1,1,1,1,1,1,1,1,0*23
$GNACCURACY,11.9,18.4,8.1,197.0*16
$PMTKAGC,000212.000,2688,2764,5860,5921,0,3,0*6C
$PMTKAG2,000212.000,5,0118,0,0,0,0,0,0,0,0,0,0,0,0*38
$GNGGA,000213.000,2959.7835,N,12000.1058,E,1,3,7.01,0.4,M,7.0,M,,*75
$GPGSA,A,2,,,,,,,,,,,,,7.08,7.01,1.00*0B
$GLGSA,A,2,,,,,,,,,,,,,7.08,7.01,1.00*17
$BDGSA,A,2,09,13,06,,,,,,,,,,7.08,7.01,1.00*17
$GPGSV,4,1,13,07,85,110,,25,66,042,,04,51,246,,13,49,032,*7B
$GPGSV,4,2,13,08,48,208,,02,33,299,,23,27,057,,27,19,219,*72
$GPGSV,4,3,13,16,01,039,,10,01,311,,193,,,,194,,,*74
$GPGSV,4,4,13,195,,,*46
$GLGSV,2,1,5,78,,,33.3,77,,,33.8,86,,,33.7,88,,,32.2*5D
$GLGSV,2,2,5,87,,,33.3*42
$BDGSV,2,1,8,13,48,202,32.4,06,37,216,31.5,09,37,287,32.0,04,36,126,30.1*5F
$BDGSV,2,2,8,12,10,060,,14,08,165,,01,,,31.1,11,,,31.3*58
$GNRMC,000213.000,A,2959.7835,N,12000.1058,E,0.000,0.00,230721,,,A*44
$GNVTG,0.00,T,,M,0.000,N,0.000,K,A*23
$PMTKGEPH,0,0,0,0,0,0,0,0,0,0,0,0,0,0,0,0,0,0,0,0,0,0,0,0,0,0,0,0,0,0,0,0,0*04
$PMTKGALM,28,1,1,1,1,1,1,1,1,1,1,1,1,1,1,1,1,0,0,0,1,1,1,1,1,1,1,1,1,1,1,1,0*23
$GNACCURACY,11.9,13.2,7.5,197.1*11
$PMTKAGC,000213.000,2871,2817,5844,5768,0,3,0*6B
$PMTKAG2,000213.000,5,0118,0,0,0,0,0,0,0,0,0,0,0,0*39
$GNGGA,000214.000,2959.7940,N,12000.0866,E,1,3,7.01,1.4,M,7.0,M,,*74
$GPGSA,A,2,,,,,,,,,,,,,7.08,7.01,1.00*0B
$GLGSA,A,2,,,,,,,,,,,,,7.08,7.01,1.00*17
$BDGSA,A,2,09,13,06,,,,,,,,,,7.08,7.01,1.00*17
$GPGSV,4,1,13,07,85,110,,25,66,042,,04,51,246,,13,49,032,*7B
$GPGSV,4,2,13,08,48,208,,02,33,299,,23,27,057,,27,19,219,*72
$GPGSV,4,3,13,16,01,039,,10,01,311,,193,,,,194,,,*74
$GPGSV,4,4,13,195,,,*46
$GLGSV,2,1,5,78,,,33.6,77,,,34.1,86,,,33.8,88,,,32.0*5B
$GLGSV,2,2,5,87,,,33.4*45
$BDGSV,2,1,8,13,48,202,32.7,06,37,216,31.4,09,37,287,31.9,04,36,126,30.4*52
$BDGSV,2,2,8,12,10,060,,14,08,165,,01,,,31.0,11,,,31.4*5E
$GNRMC,000214.000,A,2959.7940,N,12000.0866,E,0.000,0.00,230721,,,A*44
$GNVTG,0.00,T,,M,0.000,N,0.000,K,A*23
$PMTKGEPH,0,0,0,0,0,0,0,0,0,0,0,0,0,0,0,0,0,0,0,0,0,0,0,0,0,0,0,0,0,0,0,0,0*04
$PMTKGALM,28,1,1,1,1,1,1,1,1,1,1,1,1,1,1,1,1,0,0,0,1,1,1,1,1,1,1,1,1,1,1,1,0*23
$GNACCURACY,11.9,11.6,7.3,197.3*13
$PMTKAGC,000214.000,2721,2867,5632,5801,0,3,0*6E
$PMTKAG2,000214.000,5,0118,0,0,0,0,0,0,0,0,0,0,0,0*3E
$GNGGA,000215.000,2959.8057,N,12000.0696,E,1,3,7.01,2.5,M,7.0,M,,*76
$GPGSA,A,2,,,,,,,,,,,,,7.08,7.01,1.00*0B
$GLGSA,A,2,,,,,,,,,,,,,7.08,7.01,1.00*17
$BDGSA,A,2,09,13,06,,,,,,,,,,7.08,7.01,1.00*17
$GPGSV,4,1,13,07,85,110,,25,66,042,,04,51,246,,13,49,032,*7B
$GPGSV,4,2,13,08,48,208,,02,33,299,,23,27,057,,27,19,219,*72
$GPGSV,4,3,13,16,01,039,,10,01,311,,193,,,,194,,,*74
$GPGSV,4,4,13,195,,,*46
$GLGSV,2,1,5,78,,,33.7,77,,,34.1,86,,,33.6,88,,,31.8*5F
$GLGSV,2,2,5,87,,,33.9*48
$BDGSV,2,1,8,13,48,202,32.6,06,37,216,31.4,09,37,287,31.7,04,36,126,29.9*58
$BDGSV,2,2,8,12,10,060,,14,08,165,,01,,,30.8,11,,,31.5*56
$GNRMC,000215.000,A,2959.8057,N,12000.0696,E,0.000,0.00,230721,,,A*44
$GNVTG,0.00,T,,M,0.000,N,0.000,K,A*23
$PMTKGEPH,0,0,0,0,0,0,0,0,0,0,0,0,0,0,0,0,0,0,0,0,0,0,0,0,0,0,0,0,0,0,0,0,0*04
$PMTKGALM,28,1,1,1,1,1,1,1,1,1,1,1,1,1,1,1,1,0,0,0,1,1,1,1,1,1,1,1,1,1,1,1,0*23
$GNACCURACY,11.9,10.5,7.2,197.6*15
$PMTKAGC,000215.000,2804,2795,5744,5836,0,3,0*61
$PMTKAG2,000215.000,5,0118,0,0,0,0,0,0,0,0,0,0,0,0*3F
$GNGGA,000216.000,2959.8183,N,12000.0518,E,1,3,7.01,3.7,M,7.0,M,,*7B
$GPGSA,A,2,,,,,,,,,,,,,7.08,7.01,1.00*0B
$GLGSA,A,2,,,,,,,,,,,,,7.08,7.01,1.00*17
$BDGSA,A,2,09,13,06,,,,,,,,,,7.08,7.01,1.00*17
$GPGSV,4,1,13,07,85,110,,25,66,042,,04,51,246,,13,49,032,*7B
$GPGSV,4,2,13,08,48,208,,02,33,299,,23,27,057,,27,19,219,*72
$GPGSV,4,3,13,16,01,039,,10,01,311,,193,,,,194,,,*74
$GPGSV,4,4,13,195,,,*46
$GLGSV,2,1,5,78,,,33.6,77,,,34.2,86,,,33.8,88,,,31.8*53
$GLGSV,2,2,5,87,,,33.9*48
$BDGSV,2,1,8,13,48,202,32.3,06,37,216,31.5,09,37,287,31.6,04,36,126,30.0*5C
$BDGSV,2,2,8,12,10,060,,14,08,165,,01,,,30.9,11,,,31.5*57
$GNRMC,000216.000,A,2959.8183,N,12000.0518,E,0.000,0.00,230721,,,A*4A
$GNVTG,0.00,T,,M,0.000,N,0.000,K,A*23
$PMTKGEPH,0,0,0,0,0,0,0,0,0,0,0,0,0,0,0,0,0,0,0,0,0,0,0,0,0,0,0,0,0,0,0,0,0*04
$PMTKGALM,28,1,1,1,1,1,1,1,1,1,1,1,1,1,1,1,1,0,0,0,1,1,1,1,1,1,1,1,1,1,1,1,0*23
$GNACCURACY,11.9,9.6,7.1,198.0*24
$PMTKAGC,000216.000,2725,2885,5788,5914,0,3,0*61
$PMTKAG2,000216.000,5,0118,0,0,0,0,0,0,0,0,0,0,0,0*3C
$GNGGA,000217.000,2959.8316,N,12000.0332,E,1,3,7.01,4.8,M,7.0,M,,*72
$GPGSA,A,2,,,,,,,,,,,,,7.08,7.01,1.00*0B
$GLGSA,A,2,,,,,,,,,,,,,7.08,7.01,1.00*17
$BDGSA,A,2,09,13,06,,,,,,,,,,7.08,7.01,1.00*17
$GPGSV,4,1,13,07,85,110,,25,66,042,,04,51,246,,13,49,032,*7B
$GPGSV,4,2,13,08,48,208,,02,33,299,,23,27,057,,27,19,219,*72
$GPGSV,4,3,13,16,01,039,,10,01,311,,193,,,,194,,,*74
$GPGSV,4,4,13,195,,,*46
$GLGSV,2,1,5,78,,,33.7,77,,,34.3,86,,,33.8,88,,,31.9*52
$GLGSV,2,2,5,87,,,33.8*49
$BDGSV,2,1,8,13,48,202,32.1,06,37,216,31.5,09,37,287,31.6,04,36,126,30.2*5C
$BDGSV,2,2,8,12,10,060,,14,08,165,,01,,,30.9,11,,,31.5*57
$GNRMC,000217.000,A,2959.8316,N,12000.0332,E,0.000,0.00,230721,,,A*4B
$GNVTG,0.00,T,,M,0.000,N,0.000,K,A*23
$PMTKGEPH,0,0,0,0,0,0,0,0,0,0,0,0,0,0,0,0,0,0,0,0,0,0,0,0,0,0,0,0,0,0,0,0,0*04
$PMTKGALM,28,1,1,1,1,1,1,1,1,1,1,1,1,1,1,1,1,0,0,0,1,1,1,1,1,1,1,1,1,1,1,1,0*23
$GNACCURACY,12.0,8.8,6.9,198.5*2D
$PMTKAGC,000217.000,2704,2844,5887,5846,0,3,0*68
$PMTKAG2,000217.000,5,0118,0,0,0,0,0,0,0,0,0,0,0,0*3D
$GNGGA,000218.000,2959.8457,N,12000.0143,E,1,3,7.00,5.9,M,7.0,M,,*7A
$GPGSA,A,2,,,,,,,,,,,,,7.07,7.00,1.00*05
$GLGSA,A,2,,,,,,,,,,,,,7.07,7.00,1.00*19
$BDGSA,A,2,09,13,06,,,,,,,,,,7.07,7.00,1.00*19
$GPGSV,4,1,13,07,85,110,,25,66,042,,04,51,246,,13,49,032,*7B
$GPGSV,4,2,13,08,48,208,,02,33,299,,23,27,057,,27,19,219,*72
$GPGSV,4,3,13,16,01,039,,10,01,311,,193,,,,194,,,*74
$GPGSV,4,4,13,195,,,*46
$GLGSV,2,1,5,78,,,33.8,77,,,34.4,86,,,33.7,88,,,32.0*5F
$GLGSV,2,2,5,87,,,33.8*49
$BDGSV,2,1,8,13,48,202,32.0,06,37,216,31.6,09,37,287,31.4,04,36,126,30.2*5C
$BDGSV,2,2,8,12,10,060,,14,08,165,,01,,,30.7,11,,,31.4*58
$GNRMC,000218.000,A,2959.8457,N,12000.0143,E,59.684,307.67,230721,,,A*71
$GNVTG,307.67,T,,M,59.684,N,110.595,K,A*19
$PMTKGEPH,0,0,0,0,0,0,0,0,0,0,0,0,0,0,0,0,0,0,0,0,0,0,0,0,0,0,0,0,0,0,0,0,0*04
$PMTKGALM,28,1,1,1,1,1,1,1,1,1,1,1,1,1,1,1,1,0,0,0,1,1,1,1,1,1,1,1,1,1,1,1,0*23
$GNACCURACY,12.0,8.2,6.8,199.1*23
$PMTKAGC,000218.000,2832,2954,5911,5837,0,3,0*65
$PMTKAG2,000218.000,5,0118,0,0,0,0,0,0,0,0,0,0,0,0*32
$GNGGA,000219.000,2959.8603,N,11959.9934,E,1,3,7.00,6.9,M,7.0,M,,*7C
$GPGSA,A,2,,,,,,,,,,,,,7.08,7.00,1.00*0A
$GLGSA,A,2,,,,,,,,,,,,,7.08,7.00,1.00*16
$BDGSA,A,2,09,13,06,,,,,,,,,,7.08,7.00,1.00*16
$GPGSV,4,1,13,07,85,110,,25,66,042,,04,51,246,,13,49,032,*7B
$GPGSV,4,2,13,08,48,208,,02,33,299,,23,27,057,,27,19,219,*72
$GPGSV,4,3,13,16,01,039,,10,01,311,,193,,,,194,,,*74
$GPGSV,4,4,13,195,,,*46
$GLGSV,2,1,5,78,,,33.7,77,,,34.3,86,,,33.5,88,,,32.2*57
$GLGSV,2,2,5,87,,,33.6*47
$BDGSV,2,1,8,13,48,202,31.8,06,37,216,31.6,09,37,287,31.2,04,36,126,30.2*51
$BDGSV,2,2,8,12,10,060,,14,08,165,,01,,,30.9,11,,,31.1*53
$GNRMC,000219.000,A,2959.8603,N,11959.9934,E,62.430,307.31,230721,,,A*72
$GNVTG,307.31,T,,M,62.430,N,115.683,K,A*1E
$PMTKGEPH,0,0,0,0,0,0,0,0,0,0,0,0,0,0,0,0,0,0,0,0,0,0,0,0,0,0,0,0,0,0,0,0,0*04
$PMTKGALM,28,1,1,1,1,1,1,1,1,1,1,1,1,1,1,1,1,0,0,0,1,1,1,1,1,1,1,1,1,1,1,1,0*23
$GNACCURACY,12.1,7.7,6.6,199.7*20
$PMTKAGC,000219.000,2874,2829,5974,5858,0,3,0*67
$PMTKAG2,000219.000,5,0118,0,0,0,0,0,0,0,0,0,0,0,0*33
$GNGGA,000220.000,2959.8758,N,11959.9753,E,1,3,7.01,7.6,M,7.0,M,,*79
$GPGSA,A,2,,,,,,,,,,,,,7.08,7.01,1.00*0B
$GLGSA,A,2,,,,,,,,,,,,,7.08,7.01,1.00*17
$BDGSA,A,2,09,13,06,,,,,,,,,,7.08,7.01,1.00*17
$GPGSV,4,1,13,07,85,110,,25,66,042,,04,51,246,,13,49,032,*7B
$GPGSV,4,2,13,08,48,208,,02,33,299,,23,27,057,,27,19,219,*72
$GPGSV,4,3,13,16,01,039,,10,01,311,,193,,,,194,,,*74
$GPGSV,4,4,13,195,,,*46
$GLGSV,2,1,5,78,,,33.7,77,,,34.3,86,,,33.5,88,,,32.5*50
$GLGSV,2,2,5,87,,,33.5*44
$BDGSV,2,1,8,13,48,202,31.8,06,37,216,31.6,09,37,287,31.4,04,36,126,30.2*57
$BDGSV,2,2,8,12,10,060,,14,08,165,,01,,,30.8,11,,,31.1*52
$GNRMC,000220.000,A,2959.8758,N,11959.9753,E,64.207,307.71,230721,,,A*78
$GNVTG,307.71,T,,M,64.207,N,118.975,K,A*15
$PMTKGEPH,0,0,0,0,0,0,0,0,0,0,0,0,0,0,0,0,0,0,0,0,0,0,0,0,0,0,0,0,0,0,0,0,0*04
$PMTKGALM,28,1,1,1,1,1,1,1,1,1,1,1,1,1,1,1,1,0,0,0,1,1,1,1,1,1,1,1,1,1,1,1,0*23
$GNACCURACY,12.1,7.3,6.5,200.5*26
$PMTKAGC,000220.000,2717,3031,5944,5863,0,3,0*6C
$PMTKAG2,000220.000,5,0118,0,0,0,0,0,0,0,0,0,0,0,0*39
$GNGGA,000221.000,2959.8921,N,11959.9578,E,1,3,7.00,8.3,M,7.0,M,,*78
$GPGSA,A,2,,,,,,,,,,,,,7.08,7.00,1.00*0A
$GLGSA,A,2,,,,,,,,,,,,,7.08,7.00,1.00*16
$BDGSA,A,2,09,13,06,,,,,,,,,,7.08,7.00,1.00*16
$GPGSV,4,1,13,07,85,110,,25,66,042,,04,51,246,,13,49,032,*7B
$GPGSV,4,2,13,08,48,208,,02,33,299,,23,27,057,,27,19,219,*72
$GPGSV,4,3,13,16,01,039,,10,01,311,,193,,,,194,,,*74
$GPGSV,4,4,13,195,,,*46
$GLGSV,2,1,5,78,,,34.0,77,,,34.1,86,,,33.2,88,,,32.7*57
$GLGSV,2,2,5,87,,,33.4*45
$BDGSV,2,1,8,13,48,202,31.7,06,37,216,31.5,09,37,287,31.3,04,36,126,30.2*5C
$BDGSV,2,2,8,12,10,060,,14,08,165,,01,,,30.9,11,,,31.2*50
$GNRMC,000221.000,A,2959.8921,N,11959.9578,E,65.713,308.32,230721,,,A*7B
$GNVTG,308.32,T,,M,65.713,N,121.765,K,A*19
$PMTKGEPH,0,0,0,0,0,0,0,0,0,0,0,0,0,0,0,0,0,0,0,0,0,0,0,0,0,0,0,0,0,0,0,0,0*04
$PMTKGALM,28,1,1,1,1,1,1,1,1,1,1,1,1,1,1,1,1,0,0,0,1,1,1,1,1,1,1,1,1,1,1,1,0*23
$GNACCURACY,12.2,7.1,6.4,201.3*21
$PMTKAGC,000221.000,2809,2920,5896,5944,0,3,0*6F
$PMTKAG2,000221.000,5,0118,0,0,0,0,0,0,0,0,0,0,0,0*38
$GNGGA,000222.000,2959.9095,N,11959.9408,E,1,3,7.01,8.8,M,7.0,M,,*70
$GPGSA,A,2,,,,,,,,,,,,,7.08,7.01,1.00*0B
$GLGSA,A,2,,,,,,,,,,,,,7.08,7.01,1.00*17
$BDGSA,A,2,09,13,06,,,,,,,,,,7.08,7.01,1.00*17
$GPGSV,4,1,13,07,85,110,,25,66,042,,04,51,246,,13,49,032,*7B
$GPGSV,4,2,13,08,48,208,,02,33,299,,23,27,057,,27,19,219,*72
$GPGSV,4,3,13,16,01,039,,10,01,311,,193,,,,194,,,*74
$GPGSV,4,4,13,195,,,*46
$GLGSV,2,1,5,78,,,33.8,77,,,34.3,86,,,33.2,88,,,32.9*54
$GLGSV,2,2,5,87,,,33.4*45
$BDGSV,2,1,8,13,48,202,31.8,06,37,216,31.5,09,37,287,31.3,04,36,126,30.2*53
$BDGSV,2,2,8,12,10,060,,14,08,165,,01,,,31.0,11,,,31.0*5A
$GNRMC,000222.000,A,2959.9095,N,11959.9408,E,67.552,308.98,230721,,,A*7C
$GNVTG,308.98,T,,M,67.552,N,125.174,K,A*1E
$PMTKGEPH,0,0,0,0,0,0,0,0,0,0,0,0,0,0,0,0,0,0,0,0,0,0,0,0,0,0,0,0,0,0,0,0,0*04
$PMTKGALM,28,1,1,1,1,1,1,1,1,1,1,1,1,1,1,1,1,0,0,0,1,1,1,1,1,1,1,1,1,1,1,1,0*23
$GNACCURACY,12.2,6.8,6.2,202.2*2D
$PMTKAGC,000222.000,2762,2738,5825,5957,0,3,0*63
$PMTKAG2,000222.000,5,0118,0,0,0,0,0,0,0,0,0,0,0,0*3B
$GNGGA,000223.000,2959.9514,N,11959.9240,E,1,3,7.00,20.9,M,7.0,M,,*4D
$GPGSA,A,2,,,,,,,,,,,,,7.08,7.00,1.00*0A
$GLGSA,A,2,,,,,,,,,,,,,7.08,7.00,1.00*16
$BDGSA,A,2,09,13,06,,,,,,,,,,7.08,7.00,1.00*16
$GPGSV,4,1,13,07,85,110,,25,66,042,,04,51,246,,13,49,032,*7B
$GPGSV,4,2,13,08,48,208,,02,33,299,,23,27,057,,27,19,219,*72
$GPGSV,4,3,13,16,01,039,,10,01,311,,193,,,,194,,,*74
$GPGSV,4,4,13,195,,,*46
$GLGSV,2,1,5,78,,,33.7,77,,,34.2,86,,,33.4,88,,,32.9*5C
$GLGSV,2,2,5,87,,,33.4*45
$BDGSV,2,1,8,13,48,202,32.0,06,37,216,31.5,09,37,287,31.6,04,36,126,30.1*5E
$BDGSV,2,2,8,12,10,060,,14,08,165,,01,,,31.0,11,,,31.4*5E
$GNRMC,000223.000,A,2959.9514,N,11959.9240,E,70.807,315.15,230721,,,A*79
$GNVTG,315.15,T,,M,70.807,N,131.206,K,A*1F
$PMTKGEPH,0,0,0,0,0,0,0,0,0,0,0,0,0,0,0,0,0,0,0,0,0,0,0,0,0,0,0,0,0,0,0,0,0*04
$PMTKGALM,28,1,1,1,1,1,1,1,1,1,1,1,1,1,1,1,1,0,0,0,1,1,1,1,1,1,1,1,1,1,1,1,0*23
$GNACCURACY,7.4,5.0,4.5,75.2*23
$PMTKAGC,000223.000,2735,2741,5834,5713,0,3,0*60
$PMTKAG2,000223.000,5,0118,0,0,0,0,0,0,0,0,0,0,0,0*3A
$GNGGA,000224.000,2959.9699,N,11959.9100,E,1,3,7.01,24.9,M,7.0,M,,*4E
$GPGSA,A,2,,,,,,,,,,,,,7.08,7.01,1.00*0B
$GLGSA,A,2,,,,,,,,,,,,,7.08,7.01,1.00*17
$BDGSA,A,2,09,13,06,,,,,,,,,,7.08,7.01,1.00*17
$GPGSV,4,1,13,07,85,110,,25,66,042,,04,51,246,,13,49,032,*7B
$GPGSV,4,2,13,08,48,208,,02,33,299,,23,27,057,,27,19,219,*72
$GPGSV,4,3,13,16,01,039,,10,01,311,,193,,,,194,,,*74
$GPGSV,4,4,13,195,,,*46
$GLGSV,2,1,5,78,,,33.7,77,,,34.1,86,,,33.7,88,,,32.8*5D
$GLGSV,2,2,5,87,,,33.7*46
$BDGSV,2,1,8,13,48,202,31.9,06,37,216,31.6,09,37,287,31.7,04,36,126,30.0*57
$BDGSV,2,2,8,12,10,060,,14,08,165,,01,,,31.0,11,,,31.4*5E
$GNRMC,000224.000,A,2959.9699,N,11959.9100,E,69.897,317.87,230721,,,A*77
$GNVTG,317.87,T,,M,69.897,N,129.518,K,A*16
$PMTKGEPH,0,0,0,0,0,0,0,0,0,0,0,0,0,0,0,0,0,0,0,0,0,0,0,0,0,0,0,0,0,0,0,0,0*04
$PMTKGALM,28,1,1,1,1,1,1,1,1,1,1,1,1,1,1,1,1,0,0,0,1,1,1,1,1,1,1,1,1,1,1,1,0*23
$GNACCURACY,5.9,12.5,10.9,32.9*2E
$PMTKAGC,000224.000,2933,2700,5830,5808,0,3,0*6B
$PMTKAG2,000224.000,5,0118,0,0,0,0,0,0,0,0,0,0,0,0*3D
$GNGGA,000225.000,2959.9861,N,11959.8973,E,1,3,7.00,28.0,M,7.0,M,,*4F
$GPGSA,A,2,,,,,,,,,,,,,7.07,7.00,1.00*05
$GLGSA,A,2,,,,,,,,,,,,,7.07,7.00,1.00*19
$BDGSA,A,2,09,13,06,,,,,,,,,,7.07,7.00,1.00*19
$GPGSV,4,1,13,07,85,110,,25,66,042,,04,51,246,,13,49,032,*7B
$GPGSV,4,2,13,08,48,208,,02,33,299,,23,27,057,,27,19,219,*72
$GPGSV,4,3,13,16,01,039,,10,01,311,,193,,,,194,,,*74
$GPGSV,4,4,13,195,,,*46
$GLGSV,2,1,5,78,,,33.6,77,,,34.0,86,,,34.1,88,,,32.8*5C
$GLGSV,2,2,5,87,,,33.7*46
$BDGSV,2,1,8,13,48,202,32.1,06,37,216,31.6,09,37,287,32.0,04,36,126,30.0*58
$BDGSV,2,2,8,12,10,060,,14,08,165,,01,,,31.0,11,,,31.4*5E
$GNRMC,000225.000,A,2959.9861,N,11959.8973,E,65.845,320.87,230721,,,A*75
$GNVTG,320.87,T,,M,65.845,N,122.011,K,A*16
$PMTKGEPH,0,0,0,0,0,0,0,0,0,0,0,0,0,0,0,0,0,0,0,0,0,0,0,0,0,0,0,0,0,0,0,0,0*04
$PMTKGALM,28,1,1,1,1,1,1,1,1,1,1,1,1,1,1,1,1,0,0,0,1,1,1,1,1,1,1,1,1,1,1,1,0*23
$GNACCURACY,5.2,15.5,12.6,27.7*25
$PMTKAGC,000225.000,2848,2788,5940,5857,0,3,0*6B
$PMTKAG2,000225.000,5,0118,0,0,0,0,0,0,0,0,0,0,0,0*3C
$GNGGA,000226.000,3000.0016,N,11959.8858,E,1,3,7.00,30.5,M,7.0,M,,*4D
$GPGSA,A,2,,,,,,,,,,,,,7.07,7.00,1.00*05
$GLGSA,A,2,,,,,,,,,,,,,7.07,7.00,1.00*19
$BDGSA,A,2,09,13,06,,,,,,,,,,7.07,7.00,1.00*19
$GPGSV,4,1,13,07,85,110,,25,66,042,,04,51,246,,13,49,032,*7B
$GPGSV,4,2,13,08,48,208,,02,33,299,,23,27,057,,27,19,219,*72
$GPGSV,4,3,13,16,01,039,,10,01,311,,193,,,,194,,,*74
$GPGSV,4,4,13,195,,,*46
$GLGSV,2,1,5,78,,,33.4,77,,,34.1,86,,,34.4,88,,,32.8*5A
$GLGSV,2,2,5,87,,,34.0*46
$BDGSV,2,1,8,13,48,202,32.2,06,37,216,31.5,09,37,287,32.1,04,36,126,30.1*58
$BDGSV,2,2,8,12,10,060,,14,08,165,,01,,,31.0,11,,,31.4*5E
$GNRMC,000226.000,A,3000.0016,N,11959.8858,E,61.082,323.64,230721,,,A*72
$GNVTG,323.64,T,,M,61.082,N,113.185,K,A*11
$PMTKGEPH,0,0,0,0,0,0,0,0,0,0,0,0,0,0,0,0,0,0,0,0,0,0,0,0,0,0,0,0,0,0,0,0,0*04
$PMTKGALM,28,1,1,1,1,1,1,1,1,1,1,1,1,1,1,1,1,0,0,0,1,1,1,1,1,1,1,1,1,1,1,1,0*23
$GNACCURACY,4.9,14.9,11.5,26.4*20
$PMTKAGC,000226.000,2894,2838,5765,5795,0,3,0*65
$PMTKAG2,000226.000,5,0118,0,0,0,0,0,0,0,0,0,0,0,0*3F
$GNGGA,000227.000,3000.0169,N,11959.8767,E,0,0,,32.5,M,7.0,M,,*5F
$GPGSA,A,1,,,,,,,,,,,,,1.80,1.50,0.99*0D
$GLGSA,A,1,,,,,,,,,,,,,1.80,1.50,0.99*11
$BDGSA,A,1,,,,,,,,,,,,,1.80,1.50,0.99*1C
$GPGSV,4,1,14,07,85,110,,25,66,042,,04,51,246,,13,49,032,*7C
$GPGSV,4,2,14,08,48,208,,02,33,299,,23,27,058,,39,20,251,*73
$GPGSV,4,3,14,27,19,219,,16,01,039,,10,01,311,,193,,,*78
$GPGSV,4,4,14,194,,,,195,,,*7D
$GLGSV,2,1,5,78,,,33.5,77,,,33.9,86,,,34.3,88,,,32.8*53
$GLGSV,2,2,5,87,,,34.1*47
$BDGSV,2,1,8,13,48,202,32.3,06,37,216,31.5,09,37,287,31.9,04,36,126,30.0*53
$BDGSV,2,2,8,12,10,060,29.1,14,08,165,,01,,,31.0,11,,,31.4*4A
$GNRMC,000227.000,V,3000.0169,N,11959.8767,E,59.258,326.77,230721,,,N*68
$GNVTG,326.77,T,,M,59.258,N,109.806,K,N*1E
$PMTKGEPH,0,0,0,0,0,0,0,0,0,0,0,0,0,0,0,0,0,0,0,0,0,0,0,0,0,0,0,0,0,0,0,0,0*04
$PMTKGALM,28,1,1,1,1,1,1,1,1,1,1,1,1,1,1,1,1,0,0,0,1,1,1,1,1,1,1,1,1,1,1,1,0*23
$GNACCURACY,4.7,12.5,9.0,101.5*2D
$PMTKAGC,000227.000,2766,2891,5873,5873,0,3,0*6A
$PMTKAG2,000227.000,5,0118,0,0,0,0,0,0,0,0,0,0,0,0*3E
$GNGGA,000228.000,3000.0307,N,11959.8663,E,0,0,,32.7,M,7.0,M,,*5D
$GPGSA,A,1,,,,,,,,,,,,,99.99,99.99,99.99*30
$GLGSA,A,1,,,,,,,,,,,,,99.99,99.99,99.99*2C
$BDGSA,A,1,,,,,,,,,,,,,99.99,99.99,99.99*21
$GPGSV,4,1,13,07,85,110,,25,66,042,,04,51,246,,13,49,032,*7B
$GPGSV,4,2,13,08,48,208,,02,33,299,,23,27,058,,27,19,219,*7D
$GPGSV,4,3,13,16,01,039,,10,01,311,,193,,,,194,,,*74
$GPGSV,4,4,13,195,,,*46
$GLGSV,2,1,5,78,,,33.6,77,,,34.1,86,,,33.8,88,,,32.5*5E
$GLGSV,2,2,5,87,,,33.7*46
$BDGSV,2,1,8,13,48,202,,06,37,216,31.5,09,37,287,31.5,04,36,126,30.0*43
$BDGSV,2,2,8,12,10,060,30.4,14,08,165,,01,,,31.0,11,,,31.4*47
$GNRMC,000228.000,V,3000.0307,N,11959.8663,E,59.258,326.77,230721,,,N*68
$GNVTG,326.77,T,,M,59.258,N,109.806,K,N*1E
$PMTKGEPH,0,0,0,0,0,0,0,0,0,0,0,0,0,0,0,0,0,0,0,0,0,0,0,0,0,0,0,0,0,0,0,0,0*04
$PMTKGALM,28,1,1,1,1,1,1,1,1,1,1,1,1,1,1,1,1,0,0,0,1,1,1,1,1,1,1,1,1,1,1,1,0*23
$GNACCURACY,15.6,18.8,17.3,199.3*20
$PMTKAGC,000228.000,2768,2857,5929,5865,0,3,0*68
$PMTKAG2,000228.000,5,0118,0,0,0,0,0,0,0,0,0,0,0,0*31
$GNGGA,000229.000,3000.1091,N,12000.0203,E,1,3,1.73,-41.6,M,7.0,M,,*6C
$GPGSA,A,2,,,,,,,,,,,,,2.00,1.73,1.00*05
$GLGSA,A,2,,,,,,,,,,,,,2.00,1.73,1.00*19
$BDGSA,A,2,12,09,06,,,,,,,,,,2.00,1.73,1.00*18
$GPGSV,4,1,14,07,85,110,,25,66,042,,04,51,246,,13,49,032,*7C
$GPGSV,4,2,14,08,48,208,,02,33,299,,23,27,058,,39,20,251,*73
$GPGSV,4,3,14,27,19,219,,16,01,039,,10,01,311,,193,,,*78
$GPGSV,4,4,14,194,,,,195,,,*7D
$GLGSV,2,1,5,78,,,33.6,77,,,34.1,86,,,33.8,88,,,32.5*5E
$GLGSV,2,2,5,87,,,33.8*49
$BDGSV,2,1,8,13,48,202,,06,37,216,31.5,09,37,287,31.6,04,36,126,30.1*41
$BDGSV,2,2,8,12,10,060,30.6,14,08,165,,01,,,31.1,11,,,31.4*44
$GNRMC,000229.000,A,3000.1091,N,12000.0203,E,74.167,22.10,230721,,,A*46
$GNVTG,22.10,T,,M,74.167,N,137.432,K,A*21
$PMTKGEPH,0,0,0,0,0,0,0,0,0,0,0,0,0,0,0,0,0,0,0,0,0,0,0,0,0,0,0,0,0,0,0,0,0*04
$PMTKGALM,28,1,1,1,1,1,1,1,1,1,1,1,1,1,1,1,1,0,0,0,1,1,1,1,1,1,1,1,1,1,1,1,0*23
$GNACCURACY,8.4,2.9,2.9,238.4*15
$PMTKAGC,000229.000,2861,2891,6000,5813,0,3,0*65
$PMTKAG2,000229.000,5,0118,0,0,0,0,0,0,0,0,0,0,0,0*30
$GNGGA,000230.000,3000.1281,N,12000.0314,E,1,3,1.73,-42.7,M,7.0,M,,*62
$GPGSA,A,2,,,,,,,,,,,,,2.00,1.73,1.00*05
$GLGSA,A,2,,,,,,,,,,,,,2.00,1.73,1.00*19
$BDGSA,A,2,12,09,06,,,,,,,,,,2.00,1.73,1.00*18
$GPGSV,4,1,14,07,85,110,,25,66,042,,04,51,246,,13,49,032,*7C
$GPGSV,4,2,14,08,48,208,,02,33,299,,23,27,058,,39,20,251,*73
$GPGSV,4,3,14,27,19,219,,16,01,039,,10,01,311,,193,,,*78
$GPGSV,4,4,14,194,,,,195,,,*7D
$GLGSV,2,1,5,78,,,33.6,77,,,34.2,86,,,33.7,88,,,32.6*51
$GLGSV,2,2,5,87,,,33.8*49
$BDGSV,2,1,8,13,48,202,,06,37,216,31.5,09,37,287,31.6,04,36,126,30.0*40
$BDGSV,2,2,8,12,10,060,31.8,14,08,165,,01,,,31.1,11,,,31.4*4B
$GNRMC,000230.000,A,3000.1281,N,12000.0314,E,75.548,28.00,230721,,,A*49
$GNVTG,28.00,T,,M,75.548,N,139.990,K,A*29
$PMTKGEPH,0,0,0,0,0,0,0,0,0,0,0,0,0,0,0,0,0,0,0,0,0,0,0,0,0,0,0,0,0,0,0,0,0*04
$PMTKGALM,28,1,1,1,1,1,1,1,1,1,1,1,1,1,1,1,1,0,0,0,1,1,1,1,1,1,1,1,1,1,1,1,0*23
$GNACCURACY,5.3,2.5,2.9,44.7*29
$PMTKAGC,000230.000,2633,2770,5870,5839,0,3,0*60
$PMTKAG2,000230.000,5,0118,0,0,0,0,0,0,0,0,0,0,0,0*38
$GNGGA,000231.000,3000.1462,N,12000.0442,E,1,3,1.73,-42.8,M,7.0,M,,*63
$GPGSA,A,2,,,,,,,,,,,,,2.00,1.73,1.00*05
$GLGSA,A,2,,,,,,,,,,,,,2.00,1.73,1.00*19
$BDGSA,A,2,12,09,06,,,,,,,,,,2.00,1.73,1.00*18
$GPGSV,4,1,14,07,85,110,,25,66,042,,04,51,246,,13,49,032,*7C
$GPGSV,4,2,14,08,48,208,,02,33,299,,23,27,058,,39,20,251,*73
$GPGSV,4,3,14,27,19,219,,16,01,039,,10,01,311,,193,,,*78
$GPGSV,4,4,14,194,,,,195,,,*7D
$GLGSV,2,1,5,78,,,33.5,77,,,34.2,86,,,33.7,88,,,32.6*52
$GLGSV,2,2,5,87,,,33.9*48
$BDGSV,2,1,8,13,48,202,,06,37,216,31.5,09,37,287,31.6,04,36,126,30.0*40
$BDGSV,2,2,8,12,10,060,31.7,14,08,165,,01,,,31.1,11,,,31.4*44
$GNRMC,000231.000,A,3000.1462,N,12000.0442,E,75.826,30.67,230721,,,A*4A
$GNVTG,30.67,T,,M,75.826,N,140.505,K,A*2A
$PMTKGEPH,0,0,0,0,0,0,0,0,0,0,0,0,0,0,0,0,0,0,0,0,0,0,0,0,0,0,0,0,0,0,0,0,0*04
$PMTKGALM,28,1,1,1,1,1,1,1,1,1,1,1,1,1,1,1,1,0,0,0,1,1,1,1,1,1,1,1,1,1,1,1,0*23
$GNACCURACY,4.7,1.7,2.0,44.6*25
$PMTKAGC,000231.000,2654,2832,5897,5916,0,3,0*6C
$PMTKAG2,000231.000,5,0118,0,0,0,0,0,0,0,0,0,0,0,0*39
$PMTK767,1,1000,15*2C
$GNGGA,000232.000,3000.1685,N,12000.0630,E,1,8,1.11,11.9,M,7.0,M,,*49
$GPGSA,A,3,,,,,,,,,,,,,1.80,1.11,1.42*0D
$GLGSA,A,3,78,77,86,88,87,,,,,,,,1.80,1.11,1.42*1F
$BDGSA,A,3,12,09,06,,,,,,,,,,1.80,1.11,1.42*10
$GPGSV,4,1,14,07,85,110,,25,66,042,,04,51,246,,13,49,032,*7C
$GPGSV,4,2,14,08,48,208,,02,33,299,,23,27,058,,39,20,251,*73
$GPGSV,4,3,14,27,19,219,,16,01,039,,10,01,311,,193,,,*78
$GPGSV,4,4,14,194,,,,195,,,*7D
$GLGSV,2,1,5,87,61,302,33.9,77,56,327,34.2,86,33,025,33.7,88,20,244,32.7*5B
$GLGSV,2,2,5,78,07,331,33.6*71
$BDGSV,2,1,8,13,48,202,,06,37,216,31.6,09,37,287,31.5,04,36,126,30.1*41
$BDGSV,2,2,8,12,10,060,31.7,14,08,165,,01,,,31.2,11,,,31.5*46
$GNRMC,000232.000,A,3000.1685,N,12000.0630,E,75.647,37.05,230721,,,A*4F
$GNVTG,37.05,T,,M,75.647,N,140.173,K,A*25
$PMTKGEPH,0,0,0,0,0,0,0,0,0,0,0,0,0,0,0,0,0,0,0,0,0,0,0,0,0,0,0,0,0,0,0,0,0*04
$PMTKGALM,28,1,1,1,1,1,1,1,1,1,1,1,1,1,1,1,1,0,0,0,1,1,1,1,1,1,1,1,1,1,1,1,0*23
$GNACCURACY,4.2,1.2,1.6,39.8*24
$PMTKAGC,000232.000,2798,2770,5876,5959,0,3,0*63
$PMTKAG2,000232.000,5,0118,0,0,0,0,0,0,0,0,0,0,0,0*3A
$PMTK001,768,2*38
$GNGGA,000233.000,3000.1834,N,12000.0789,E,1,9,0.84,5.3,M,7.0,M,,*7C
$GPGSA,A,3,,,,,,,,,,,,,1.17,0.84,0.82*03
$GLGSA,A,3,78,77,86,88,87,,,,,,,,1.17,0.84,0.82*11
$BDGSA,A,3,12,09,11,06,,,,,,,,,1.17,0.84,0.82*1E
$GPGSV,4,1,14,07,85,110,,25,66,042,,04,51,246,,13,49,032,*7C
$GPGSV,4,2,14,08,48,208,,02,33,299,,23,27,058,,39,20,251,*73
$GPGSV,4,3,14,27,19,219,,16,01,039,,10,01,311,,193,,,*78
$GPGSV,4,4,14,194,,,,195,,,*7D
$GLGSV,2,1,5,87,61,302,33.9,77,56,327,34.2,86,33,025,33.6,88,20,244,32.7*5A
$GLGSV,2,2,5,78,07,331,33.5*72
$BDGSV,2,1,8,13,48,202,,06,37,216,31.6,09,37,287,31.5,04,36,126,*5D
$BDGSV,2,2,8,11,19,131,31.5,12,10,060,31.1,14,08,165,,01,,,31.2*7B
$GNRMC,000233.000,A,3000.1834,N,12000.0789,E,75.527,40.24,230721,,,A*4F
$GNVTG,40.24,T,,M,75.527,N,139.952,K,A*26
$PMTKGEPH,0,0,0,0,0,0,0,0,0,0,0,0,0,0,0,0,0,0,0,0,0,0,0,0,0,0,0,0,0,0,0,0,0*04
$PMTKGALM,28,1,1,1,1,1,1,1,1,1,1,1,1,1,1,1,1,0,0,0,1,1,1,1,1,1,1,1,1,1,1,1,0*23
$GNACCURACY,3.0,2.1,2.1,34.8*28
$PMTKAGC,000233.000,2837,2699,5788,5905,0,3,0*69
$PMTKAG2,000233.000,5,0118,0,0,0,0,0,0,0,0,0,0,0,0*3B
$GNGGA,000234.000,3000.1977,N,12000.0963,E,1,9,0.84,2.1,M,7.0,M,,*72
$GPGSA,A,3,,,,,,,,,,,,,1.17,0.84,0.82*03
$GLGSA,A,3,78,77,86,88,87,,,,,,,,1.17,0.84,0.82*11
$BDGSA,A,3,12,09,11,06,,,,,,,,,1.17,0.84,0.82*1E
$GPGSV,4,1,14,07,85,110,,25,66,042,,04,51,246,,13,49,032,*7C
$GPGSV,4,2,14,08,48,208,,02,33,299,,23,27,058,,39,20,251,*73
$GPGSV,4,3,14,27,19,219,,16,01,039,,10,01,311,,193,,,*78
$GPGSV,4,4,14,194,,,,195,,,*7D
$GLGSV,2,1,5,87,61,302,33.9,77,56,327,34.2,86,33,025,33.6,88,20,244,32.8*55
$GLGSV,2,2,5,78,07,331,33.5*72
$BDGSV,2,1,8,13,48,202,,06,37,216,31.6,09,37,287,31.5,04,36,126,*5D
$BDGSV,2,2,8,11,19,131,31.4,12,10,060,30.5,14,08,165,,01,,,31.2*7F
$GNRMC,000234.000,A,3000.1977,N,12000.0963,E,75.508,44.22,230721,,,A*4B
$GNVTG,44.22,T,,M,75.508,N,139.916,K,A*29
$PMTKGEPH,0,0,0,0,0,0,0,0,0,0,0,0,0,0,0,0,0,0,0,0,0,0,0,0,0,0,0,0,0,0,0,0,0*04
$PMTKGALM,28,1,1,1,1,1,1,1,1,1,1,1,1,1,1,1,1,0,0,0,1,1,1,1,1,1,1,1,1,1,1,1,0*23
$GNACCURACY,2.6,2.3,2.3,33.6*26
$PMTKAGC,000234.000,2822,2644,5953,5873,0,3,0*62
$PMTKAG2,000234.000,5,0118,0,0,0,0,0,0,0,0,0,0,0,0*3C
$GNGGA,000235.000,3000.2112,N,12000.1146,E,1,9,0.86,0.3,M,7.0,M,,*77
$GPGSA,A,3,,,,,,,,,,,,,1.65,0.86,1.41*0A
$GLGSA,A,3,78,77,86,88,87,,,,,,,,1.65,0.86,1.41*18
$BDGSA,A,3,12,09,11,06,,,,,,,,,1.65,0.86,1.41*17
$GPGSV,4,1,14,07,85,110,,25,66,042,,04,51,246,,13,49,032,*7C
$GPGSV,4,2,14,08,48,208,,02,33,299,,23,27,058,,39,20,251,*73
$GPGSV,4,3,14,27,19,219,,16,01,039,,10,01,311,,193,,,*78
$GPGSV,4,4,14,194,,,,195,,,*7D
$GLGSV,2,1,5,87,61,302,33.9,77,56,327,34.2,86,33,025,33.6,88,20,244,32.8*55
$GLGSV,2,2,5,78,07,331,33.4*73
$BDGSV,2,1,8,13,48,202,,06,37,216,31.6,09,37,287,31.5,04,36,126,*5D
$BDGSV,2,2,8,11,19,131,31.4,12,10,060,30.4,14,08,165,,01,,,31.2*7E
$GNRMC,000235.000,A,3000.2112,N,12000.1146,E,75.718,49.80,230721,,,A*4A
$GNVTG,49.80,T,,M,75.718,N,140.305,K,A*29
$PMTKGEPH,0,0,0,0,0,0,0,0,0,0,0,0,0,0,0,0,0,0,0,0,0,0,0,0,0,0,0,0,0,0,0,0,0*04
$PMTKGALM,28,1,1,1,1,1,1,1,1,1,1,1,1,1,1,1,1,0,0,0,1,1,1,1,1,1,1,1,1,1,1,1,0*23
$GNACCURACY,2.4,1.7,1.8,32.9*25
$PMTKAGC,000235.000,2798,2836,5939,5858,0,3,0*63
$PMTKAG2,000235.000,5,0118,0,0,0,0,0,0,0,0,0,0,0,0*3D
$GNGGA,000236.000,3000.2237,N,12000.1340,E,1,9,0.86,0.0,M,7.0,M,,*77
$GPGSA,A,3,,,,,,,,,,,,,1.65,0.86,1.41*0A
$GLGSA,A,3,78,77,86,88,87,,,,,,,,1.65,0.86,1.41*18
$BDGSA,A,3,12,09,11,06,,,,,,,,,1.65,0.86,1.41*17
$GPGSV,4,1,14,07,85,110,,25,66,042,,04,51,246,,13,49,032,*7C
$GPGSV,4,2,14,08,48,208,,02,33,299,,23,27,058,,39,20,251,*73
$GPGSV,4,3,14,27,19,219,,16,01,039,,10,01,311,,193,,,*78
$GPGSV,4,4,14,194,,,,195,,,*7D
$GLGSV,2,1,5,87,61,302,34.0,77,56,327,34.2,86,33,025,33.6,88,20,244,32.9*5A
$GLGSV,2,2,5,78,07,331,33.4*73
$BDGSV,2,1,8,13,48,202,,06,37,216,31.7,09,37,287,31.5,04,36,126,*5C
$BDGSV,2,2,8,11,19,131,31.4,12,10,060,30.9,14,08,165,,01,,,31.2*73
$GNRMC,000236.000,A,3000.2237,N,12000.1340,E,75.402,54.20,230721,,,A*47
$GNVTG,54.20,T,,M,75.402,N,139.719,K,A*20
$PMTKGEPH,0,0,0,0,0,0,0,0,0,0,0,0,0,0,0,0,0,0,0,0,0,0,0,0,0,0,0,0,0,0,0,0,0*04
$PMTKGALM,28,1,1,1,1,1,1,1,1,1,1,1,1,1,1,1,1,0,0,0,1,1,1,1,1,1,1,1,1,1,1,1,0*23
$GNACCURACY,2.2,1.5,1.7,32.5*22
$PMTKAGC,000236.000,2826,2901,5886,5876,0,3,0*66
$PMTKAG2,000236.000,5,0118,0,0,0,0,0,0,0,0,0,0,0,0*3E
$GNGGA,000237.000,3000.2350,N,12000.1545,E,1,9,0.86,-0.5,M,7.0,M,,*5D
$GPGSA,A,3,,,,,,,,,,,,,1.65,0.86,1.41*0A
$GLGSA,A,3,78,77,86,88,87,,,,,,,,1.65,0.86,1.41*18
$BDGSA,A,3,12,09,11,06,,,,,,,,,1.65,0.86,1.41*17
$GPGSV,4,1,14,07,85,110,,25,66,042,,04,51,246,,13,49,032,*7C
$GPGSV,4,2,14,08,48,208,,02,33,299,,23,27,058,,39,20,251,*73
$GPGSV,4,3,14,27,19,219,,16,01,039,,10,01,311,,193,,,*78
$GPGSV,4,4,14,194,,,,195,,,*7D
$GLGSV,2,1,5,87,61,302,34.0,77,56,327,34.2,86,33,025,33.6,88,20,244,32.9*5A
$GLGSV,2,2,5,78,07,331,33.4*73
$BDGSV,2,1,8,13,48,202,,06,37,216,31.7,09,37,287,31.5,04,36,126,*5C
$BDGSV,2,2,8,11,19,131,31.4,12,10,060,30.6,14,08,165,,01,,,31.2*7C
$GNRMC,000237.000,A,3000.2350,N,12000.1545,E,75.437,58.29,230721,,,A*46
$GNVTG,58.29,T,,M,75.437,N,139.785,K,A*26
$PMTKGEPH,0,0,0,0,0,0,0,0,0,0,0,0,0,0,0,0,0,0,0,0,0,0,0,0,0,0,0,0,0,0,0,0,0*04
$PMTKGALM,28,1,1,1,1,1,1,1,1,1,1,1,1,1,1,1,1,0,0,0,1,1,1,1,1,1,1,1,1,1,1,1,0*23
$GNACCURACY,2.1,1.8,1.9,32.3*24
$PMTKAGC,000237.000,2676,2878,5916,5896,0,3,0*65
$PMTKAG2,000237.000,5,0118,0,0,0,0,0,0,0,0,0,0,0,0*3F
$GNGGA,000238.000,3000.2448,N,12000.1759,E,1,9,0.86,-0.8,M,7.0,M,,*5E
$GPGSA,A,3,,,,,,,,,,,,,1.65,0.86,1.41*0A
$GLGSA,A,3,78,77,86,88,87,,,,,,,,1.65,0.86,1.41*18
$BDGSA,A,3,12,09,11,06,,,,,,,,,1.65,0.86,1.41*17
$GPGSV,4,1,14,07,85,110,,25,66,042,,04,51,246,,13,49,032,*7C
$GPGSV,4,2,14,08,48,208,,02,33,299,,23,27,058,,39,20,251,*73
$GPGSV,4,3,14,27,19,219,,16,01,039,,10,01,311,,193,,,*78
$GPGSV,4,4,14,194,,,,195,,,*7D
$GLGSV,2,1,5,87,61,302,34.0,77,56,327,34.2,86,33,025,33.7,88,20,244,33.0*53
$GLGSV,2,2,5,78,07,331,33.3*74
$BDGSV,2,1,8,13,48,202,,06,37,216,31.7,09,37,287,31.5,04,36,126,*5C
$BDGSV,2,2,8,11,19,131,31.5,12,10,060,30.4,14,08,165,,01,,,31.2*7F
$GNRMC,000238.000,A,3000.2448,N,12000.1759,E,75.089,62.73,230721,,,A*4F
$GNVTG,62.73,T,,M,75.089,N,139.140,K,A*2E
$PMTKGEPH,0,0,0,0,0,0,0,0,0,0,0,0,0,0,0,0,0,0,0,0,0,0,0,0,0,0,0,0,0,0,0,0,0*04
$PMTKGALM,28,1,1,1,1,1,1,1,1,1,1,1,1,1,1,1,1,0,0,0,1,1,1,1,1,1,1,1,1,1,1,1,0*23
$GNACCURACY,2.1,1.8,1.9,32.1*26
$PMTKAGC,000238.000,2745,2817,5919,5805,0,3,0*67
$PMTKAG2,000238.000,5,0118,0,0,0,0,0,0,0,0,0,0,0,0*30
$GNGGA,000239.000,3000.2531,N,12000.1981,E,1,9,0.86,-1.2,M,7.0,M,,*50
$GPGSA,A,3,,,,,,,,,,,,,1.65,0.86,1.41*0A
$GLGSA,A,3,78,77,86,88,87,,,,,,,,1.65,0.86,1.41*18
$BDGSA,A,3,12,09,11,06,,,,,,,,,1.65,0.86,1.41*17
$GPGSV,4,1,14,07,85,110,,25,66,042,,04,51,246,,13,49,032,*7C
$GPGSV,4,2,14,08,48,208,,02,33,299,,23,27,058,,39,20,251,*73
$GPGSV,4,3,14,27,19,219,,16,01,039,,10,01,311,,193,,,*78
$GPGSV,4,4,14,194,,,,195,,,*7D
$GLGSV,2,1,5,87,61,302,34.1,77,56,327,34.1,86,33,025,33.7,88,20,244,33.0*51
$GLGSV,2,2,5,78,07,331,33.3*74
$BDGSV,2,1,8,13,48,202,,06,37,216,31.7,09,37,287,31.6,04,36,126,*5F
$BDGSV,2,2,8,11,19,131,31.6,12,10,060,30.6,14,08,165,,01,,,31.2*7E
$GNRMC,000239.000,A,3000.2531,N,12000.1981,E,75.268,67.53,230721,,,A*40
$GNVTG,67.53,T,,M,75.268,N,139.472,K,A*20
$PMTKGEPH,0,0,0,0,0,0,0,0,0,0,0,0,0,0,0,0,0,0,0,0,0,0,0,0,0,0,0,0,0,0,0,0,0*04
$PMTKGALM,28,1,1,1,1,1,1,1,1,1,1,1,1,1,1,1,1,0,0,0,1,1,1,1,1,1,1,1,1,1,1,1,0*23
$GNACCURACY,2.1,1.7,1.8,32.0*29
$PMTKAGC,000239.000,2984,2680,5851,6041,0,3,0*63
$PMTKAG2,000239.000,5,0118,0,0,0,0,0,0,0,0,0,0,0,0*31
$GNGGA,000240.000,3000.2600,N,12000.2211,E,1,9,0.86,-1.0,M,7.0,M,,*5C
$GPGSA,A,3,,,,,,,,,,,,,1.65,0.86,1.41*0A
$GLGSA,A,3,78,77,86,88,87,,,,,,,,1.65,0.86,1.41*18
$BDGSA,A,3,12,09,11,06,,,,,,,,,1.65,0.86,1.41*17
$GPGSV,4,1,14,07,85,110,,25,66,042,,04,51,246,,13,49,032,*7C
$GPGSV,4,2,14,08,48,208,,02,33,299,,23,27,058,,39,20,251,*73
$GPGSV,4,3,14,27,19,219,,16,01,039,,10,01,311,,193,,,*78
$GPGSV,4,4,14,194,,,,195,,,*7D
$GLGSV,2,1,5,87,61,302,34.2,77,56,327,34.2,86,33,025,33.8,88,20,244,33.0*5E
$GLGSV,2,2,5,78,07,331,33.3*74
$BDGSV,2,1,8,13,48,202,,06,37,216,31.7,09,37,287,31.6,04,36,126,*5F
$BDGSV,2,2,8,11,19,131,31.5,12,10,060,30.9,14,08,165,,01,,,31.3*73
$GNRMC,000240.000,A,3000.2600,N,12000.2211,E,75.219,71.94,230721,,,A*44
$GNVTG,71.94,T,,M,75.219,N,139.381,K,A*21
$PMTKGEPH,0,0,0,0,0,0,0,0,0,0,0,0,0,0,0,0,0,0,0,0,0,0,0,0,0,0,0,0,0,0,0,0,0*04
$PMTKGALM,28,1,1,1,1,1,1,1,1,1,1,1,1,1,1,1,1,0,0,0,1,1,1,1,1,1,1,1,1,1,1,1,0*23
$GNACCURACY,2.0,1.7,1.8,31.9*22
$PMTKAGC,000240.000,2803,3019,5942,5932,0,3,0*69
$PMTKAG2,000240.000,5,0118,0,0,0,0,0,0,0,0,0,0,0,0*3F
$GNGGA,000241.000,3000.2654,N,12000.2445,E,1,9,0.86,-0.5,M,7.0,M,,*5F
$GPGSA,A,3,,,,,,,,,,,,,1.65,0.86,1.41*0A
$GLGSA,A,3,78,77,86,88,87,,,,,,,,1.65,0.86,1.41*18
$BDGSA,A,3,12,09,11,06,,,,,,,,,1.65,0.86,1.41*17
$GPGSV,4,1,14,07,85,110,,25,66,042,,04,51,246,,13,49,032,*7C
$GPGSV,4,2,14,08,48,208,,02,33,299,,23,27,058,,39,20,251,*73
$GPGSV,4,3,14,27,19,219,,16,01,039,,10,01,311,,193,,,*78
$GPGSV,4,4,14,194,,,,195,,,*7D
$GLGSV,2,1,5,87,61,302,34.2,77,56,327,34.1,86,33,025,33.8,88,20,244,33.0*5D
$GLGSV,2,2,5,78,07,331,33.2*75
$BDGSV,2,1,8,13,48,202,,06,37,216,31.8,09,37,287,31.6,04,36,126,*50
$BDGSV,2,2,8,11,19,131,31.6,12,10,060,30.9,14,08,165,,01,,,31.3*70
$GNRMC,000241.000,A,3000.2654,N,12000.2445,E,75.256,76.53,230721,,,A*44
$GNVTG,76.53,T,,M,75.256,N,139.449,K,A*25
$PMTKGEPH,0,0,0,0,0,0,0,0,0,0,0,0,0,0,0,0,0,0,0,0,0,0,0,0,0,0,0,0,0,0,0,0,0*04
$PMTKGALM,28,1,1,1,1,1,1,1,1,1,1,1,1,1,1,1,1,0,0,0,1,1,1,1,1,1,1,1,1,1,1,1,0*23
$GNACCURACY,2.0,1.7,1.8,32.0*28
$PMTKAGC,000241.000,2844,2834,5933,6024,0,3,0*66
$PMTKAG2,000241.000,5,0118,0,0,0,0,0,0,0,0,0,0,0,0*3E
$GNGGA,000242.000,3000.2691,N,12000.2684,E,1,9,0.86,-0.1,M,7.0,M,,*5E
$GPGSA,A,3,,,,,,,,,,,,,1.65,0.86,1.41*0A
$GLGSA,A,3,78,77,86,88,87,,,,,,,,1.65,0.86,1.41*18
$BDGSA,A,3,12,09,11,06,,,,,,,,,1.65,0.86,1.41*17
$GPGSV,4,1,14,07,85,110,,25,66,042,,04,51,246,,13,49,032,*7C
$GPGSV,4,2,14,08,48,208,,02,33,299,,23,27,058,,39,20,251,*73
$GPGSV,4,3,14,27,19,219,,16,01,039,,10,01,311,,193,,,*78
$GPGSV,4,4,14,194,,,,195,,,*7D
$GLGSV,2,1,5,87,61,302,34.3,77,56,327,34.2,86,33,025,33.8,88,20,244,33.0*5F
$GLGSV,2,2,5,78,07,331,33.3*74
$BDGSV,2,1,8,13,48,202,,06,37,216,31.8,09,37,287,31.6,04,36,126,*50
$BDGSV,2,2,8,11,19,131,31.6,12,10,060,31.0,14,08,165,,01,,,31.3*78
$GNRMC,000242.000,A,3000.2691,N,12000.2684,E,75.503,81.34,230721,,,A*4F
$GNVTG,81.34,T,,M,75.503,N,139.907,K,A*2C
$PMTKGEPH,0,0,0,0,0,0,0,0,0,0,0,0,0,0,0,0,0,0,0,0,0,0,0,0,0,0,0,0,0,0,0,0,0*04
$PMTKGALM,28,1,1,1,1,1,1,1,1,1,1,1,1,1,1,1,1,0,0,0,1,1,1,1,1,1,1,1,1,1,1,1,0*23
$GNACCURACY,2.0,1.3,1.5,31.8*2A
$PMTKAGC,000242.000,2935,2663,5943,5921,0,3,0*66
$PMTKAG2,000242.000,5,0118,0,0,0,0,0,0,0,0,0,0,0,0*3D
$GNGGA,000243.000,3000.2713,N,12000.2924,E,1,9,0.86,0.1,M,7.0,M,,*7C
$GPGSA,A,3,,,,,,,,,,,,,1.65,0.86,1.41*0A
$GLGSA,A,3,78,77,86,88,87,,,,,,,,1.65,0.86,1.41*18
$BDGSA,A,3,12,09,11,06,,,,,,,,,1.65,0.86,1.41*17
$GPGSV,4,1,14,07,85,110,,25,66,042,,04,51,246,,13,49,032,*7C
$GPGSV,4,2,14,08,48,208,,02,33,299,,23,27,058,,39,20,251,*73
$GPGSV,4,3,14,27,19,219,,16,01,039,,10,01,311,,193,,,*78
$GPGSV,4,4,14,194,,,,195,,,*7D
$GLGSV,2,1,5,87,61,302,34.3,77,56,327,34.2,86,33,025,33.7,88,20,244,33.0*50
$GLGSV,2,2,5,78,07,331,33.3*74
$BDGSV,2,1,8,13,48,202,,06,37,216,31.7,09,37,287,31.5,04,36,126,*5C
$BDGSV,2,2,8,11,19,131,31.6,12,10,060,31.2,14,08,165,,01,,,31.3*7A
$GNRMC,000243.000,A,3000.2713,N,12000.2924,E,75.345,85.40,230721,,,A*43
$GNVTG,85.40,T,,M,75.345,N,139.615,K,A*23
$PMTKGEPH,0,0,0,0,0,0,0,0,0,0,0,0,0,0,0,0,0,0,0,0,0,0,0,0,0,0,0,0,0,0,0,0,0*04
$PMTKGALM,28,1,1,1,1,1,1,1,1,1,1,1,1,1,1,1,1,0,0,0,1,1,1,1,1,1,1,1,1,1,1,1,0*23
$GNACCURACY,1.9,1.9,1.9,31.8*26
$PMTKAGC,000243.000,2839,2738,5868,5784,0,3,0*6C
$PMTKAG2,000243.000,5,0118,0,0,0,0,0,0,0,0,0,0,0,0*3C
$GNGGA,000244.000,3000.2717,N,12000.3166,E,1,10,0.82,0.1,M,7.0,M,,*4C
$GPGSA,A,3,,,,,,,,,,,,,1.59,0.82,1.36*01
$GLGSA,A,3,78,77,86,88,87,,,,,,,,1.59,0.82,1.36*13
$BDGSA,A,3,13,12,09,11,06,,,,,,,,1.59,0.82,1.36*1E
$GPGSV,4,1,14,07,85,110,,25,66,042,,04,51,246,,13,49,032,*7C
$GPGSV,4,2,14,08,48,208,,02,33,299,,23,27,058,,39,20,251,*73
$GPGSV,4,3,14,27,19,219,,16,01,039,,10,01,311,,193,,,*78
$GPGSV,4,4,14,194,,,,195,,,*7D
$GLGSV,2,1,5,87,61,302,34.3,77,56,327,34.2,86,33,025,33.7,88,20,244,33.0*50
$GLGSV,2,2,5,78,07,331,33.2*75
$BDGSV,2,1,8,13,48,202,32.0,06,37,216,31.7,09,37,287,31.6,04,36,126,*40
$BDGSV,2,2,8,11,19,131,31.5,12,10,060,31.3,14,08,165,,01,,,31.2*79
$GNRMC,000244.000,A,3000.2717,N,12000.3166,E,75.511,90.29,230721,,,A*43
$GNVTG,90.29,T,,M,75.511,N,139.922,K,A*24
$PMTKGEPH,0,0,0,0,0,0,0,0,0,0,0,0,0,0,0,0,0,0,0,0,0,0,0,0,0,0,0,0,0,0,0,0,0*04
$PMTKGALM,28,1,1,1,1,1,1,1,1,1,1,1,1,1,1,1,1,0,0,0,1,1,1,1,1,1,1,1,1,1,1,1,0*23
$GNACCURACY,1.9,1.2,1.5,31.6*2F
$PMTKAGC,000244.000,2890,2798,5812,5752,0,3,0*64
$PMTKAG2,000244.000,5,0118,0,0,0,0,0,0,0,0,0,0,0,0*3B
$GNGGA,000245.000,3000.2705,N,12000.3408,E,1,11,0.77,-0.5,M,7.0,M,,*61
$GPGSA,A,3,,,,,,,,,,,,,1.48,0.77,1.26*0A
$GLGSA,A,3,78,77,86,88,87,,,,,,,,1.48,0.77,1.26*18
$BDGSA,A,3,13,12,14,09,11,06,,,,,,,1.48,0.77,1.26*10
$GPGSV,4,1,14,07,85,110,,25,66,042,,04,51,246,,13,49,032,*7C
$GPGSV,4,2,14,08,48,208,,02,33,299,,23,27,058,,39,20,251,*73
$GPGSV,4,3,14,27,19,219,,16,01,039,,10,01,311,,193,,,*78
$GPGSV,4,4,14,194,,,,195,,,*7D
$GLGSV,2,1,5,87,61,302,34.4,77,56,327,34.2,86,33,025,33.7,88,20,244,33.1*56
$GLGSV,2,2,5,78,07,331,33.2*75
$BDGSV,2,1,8,13,48,202,32.3,06,37,216,31.7,09,37,287,31.5,04,36,126,*40
$BDGSV,2,2,8,11,19,131,31.5,12,10,060,31.4,14,08,165,30.9,01,,,31.2*6A
$GNRMC,000245.000,A,3000.2705,N,12000.3408,E,75.539,94.57,230721,,,A*4B
$GNVTG,94.57,T,,M,75.539,N,139.973,K,A*27
$PMTKGEPH,0,0,0,0,0,0,0,0,0,0,0,0,0,0,0,0,0,0,0,0,0,0,0,0,0,0,0,0,0,0,0,0,0*04
$PMTKGALM,28,1,1,1,1,1,1,1,1,1,1,1,1,1,1,1,1,0,0,0,1,1,1,1,1,1,1,1,1,1,1,1,0*23
$GNACCURACY,1.9,1.7,1.7,24.1*2B
$PMTKAGC,000245.000,2722,2733,5935,5855,0,3,0*6E
$PMTKAG2,000245.000,5,0119,0,0,0,0,0,0,0,0,0,0,0,0*3B
$GNGGA,000246.000,3000.2676,N,12000.3647,E,1,11,0.77,-0.7,M,7.0,M,,*6C
$GPGSA,A,3,,,,,,,,,,,,,1.48,0.77,1.26*0A
$GLGSA,A,3,78,77,86,88,87,,,,,,,,1.48,0.77,1.26*18
$BDGSA,A,3,13,12,14,09,11,06,,,,,,,1.48,0.77,1.26*10
$GPGSV,4,1,14,07,85,110,,25,66,042,,04,51,246,,13,49,032,*7C
$GPGSV,4,2,14,08,48,208,,02,33,299,,23,27,058,,39,20,251,*73
$GPGSV,4,3,14,27,19,219,,16,01,039,,10,01,311,,193,,,*78
$GPGSV,4,4,14,194,,,,195,,,*7D
$GLGSV,2,1,5,87,61,302,34.3,77,56,327,34.2,86,33,025,33.7,88,20,244,33.1*51
$GLGSV,2,2,5,78,07,331,33.2*75
$BDGSV,2,1,8,13,48,202,32.8,06,37,216,31.8,09,37,287,31.5,04,36,126,*44
$BDGSV,2,2,8,11,19,131,31.5,12,10,060,31.3,14,08,165,31.2,01,,,31.2*67
$GNRMC,000246.000,A,3000.2676,N,12000.3647,E,75.378,99.34,230721,,,A*4F
$GNVTG,99.34,T,,M,75.378,N,139.676,K,A*26
$PMTKGEPH,0,0,0,0,0,0,0,0,0,0,0,0,0,0,0,0,0,0,0,0,0,0,0,0,0,0,0,0,0,0,0,0,0*04
$PMTKGALM,28,1,1,1,1,1,1,1,1,1,1,1,1,1,1,1,1,0,0,0,1,1,1,1,1,1,1,1,1,1,1,1,0*23
$GNACCURACY,1.8,1.2,1.5,21.6*2F
$PMTKAGC,000246.000,2677,2742,5938,5945,0,3,0*67
$PMTKAG2,000246.000,5,0119,0,0,0,0,0,0,0,0,0,0,0,0*38
$GNGGA,000247.000,3000.2633,N,12000.3883,E,1,11,0.77,-1.4,M,7.0,M,,*68
$GPGSA,A,3,,,,,,,,,,,,,1.48,0.77,1.26*0A
$GLGSA,A,3,78,77,86,88,87,,,,,,,,1.48,0.77,1.26*18
$BDGSA,A,3,13,12,14,09,11,06,,,,,,,1.48,0.77,1.26*10
$GPGSV,4,1,14,07,85,110,,25,66,042,,04,51,246,,13,49,032,*7C
$GPGSV,4,2,14,08,48,208,,42,48,143,,02,33,299,,23,27,058,*71
$GPGSV,4,3,14,27,19,219,,16,01,039,,10,01,311,,193,,,*78
$GPGSV,4,4,14,194,,,,195,,,*7D
$GLGSV,2,1,5,87,61,302,34.4,77,56,327,34.3,86,33,025,33.7,88,20,244,33.1*57
$GLGSV,2,2,5,78,07,331,33.3*74
$BDGSV,2,1,8,13,48,202,32.5,06,37,216,31.7,09,37,287,31.5,04,36,126,*46
$BDGSV,2,2,8,11,19,131,31.6,12,10,060,31.3,14,08,165,32.1,01,,,31.3*65
$GNRMC,000247.000,A,3000.2633,N,12000.3883,E,75.434,103.38,230721,,,A*78
$GNVTG,103.38,T,,M,75.434,N,139.779,K,A*19
$PMTKGEPH,0,0,0,0,0,0,0,0,0,0,0,0,0,0,0,0,0,0,0,0,0,0,0,0,0,0,0,0,0,0,0,0,0*04
$PMTKGALM,28,1,1,1,1,1,1,1,1,1,1,1,1,1,1,1,1,0,0,0,1,1,1,1,1,1,1,1,1,1,1,1,0*23
$GNACCURACY,1.8,1.7,1.7,20.9*26
$PMTKAGC,000247.000,2778,2798,5932,5822,0,3,0*65
$PMTKAG2,000247.000,5,0119,0,0,0,0,0,0,0,0,0,0,0,0*39
$GNGGA,000248.000,3000.2573,N,12000.4114,E,1,11,0.77,-2.0,M,7.0,M,,*67
$GPGSA,A,3,,,,,,,,,,,,,1.48,0.77,1.26*0A
$GLGSA,A,3,78,77,86,88,87,,,,,,,,1.48,0.77,1.26*18
$BDGSA,A,3,13,12,14,09,11,06,,,,,,,1.48,0.77,1.26*10
$GPGSV,4,1,14,07,85,110,,25,66,042,,04,51,246,,13,49,032,*7C
$GPGSV,4,2,14,08,48,208,,42,48,143,,02,33,299,,23,27,058,*71
$GPGSV,4,3,14,27,19,219,,16,01,039,,10,01,311,,193,,,*78
$GPGSV,4,4,14,194,,,,195,,,*7D
$GLGSV,2,1,5,87,61,302,34.3,77,56,327,34.3,86,33,025,33.7,88,20,244,33.1*50
$GLGSV,2,2,5,78,07,331,33.3*74
$BDGSV,2,1,8,13,48,202,32.5,06,37,216,31.7,09,37,287,31.6,04,36,126,*45
$BDGSV,2,2,8,11,19,131,31.6,12,10,060,31.1,14,08,165,31.4,01,,,31.3*61
$GNRMC,000248.000,A,3000.2573,N,12000.4114,E,75.451,108.07,230721,,,A*74
$GNVTG,108.07,T,,M,75.451,N,139.811,K,A*1C
$PMTKGEPH,0,0,0,0,0,0,0,0,0,0,0,0,0,0,0,0,0,0,0,0,0,0,0,0,0,0,0,0,0,0,0,0,0*04
$PMTKGALM,28,1,1,1,1,1,1,1,1,1,1,1,1,1,1,1,1,0,0,0,1,1,1,1,1,1,1,1,1,1,1,1,0*23
$GNACCURACY,1.8,1.3,1.6,20.3*29
$PMTKAGC,000248.000,2722,2778,5904,5938,0,3,0*64
$PMTKAG2,000248.000,5,0119,0,0,0,0,0,0,0,0,0,0,0,0*36
$GNGGA,000249.000,3000.2498,N,12000.4340,E,1,11,0.77,-2.2,M,7.0,M,,*63
$GPGSA,A,3,,,,,,,,,,,,,1.48,0.77,1.26*0A
$GLGSA,A,3,78,77,86,88,87,,,,,,,,1.48,0.77,1.26*18
$BDGSA,A,3,13,12,14,09,11,06,,,,,,,1.48,0.77,1.26*10
$GPGSV,4,1,14,07,85,110,,25,66,042,,04,51,246,,13,49,032,*7C
$GPGSV,4,2,14,08,48,208,,42,48,143,,02,33,299,,23,27,058,*71
$GPGSV,4,3,14,27,19,219,,16,01,039,,10,01,311,,193,,,*78
$GPGSV,4,4,14,194,,,,195,,,*7D
$GLGSV,2,1,5,87,61,302,34.3,77,56,327,34.3,86,33,025,33.7,88,20,244,33.1*50
$GLGSV,2,2,5,78,07,331,33.3*74
$BDGSV,2,1,8,13,48,202,32.4,06,37,216,31.7,09,37,287,31.5,04,36,126,*47
$BDGSV,2,2,8,11,19,131,31.6,12,10,060,30.7,14,08,165,31.5,01,,,31.2*66
$GNRMC,000249.000,A,3000.2498,N,12000.4340,E,75.467,112.67,230721,,,A*7A
$GNVTG,112.67,T,,M,75.467,N,139.840,K,A*10
$PMTKGEPH,0,0,0,0,0,0,0,0,0,0,0,0,0,0,0,0,0,0,0,0,0,0,0,0,0,0,0,0,0,0,0,0,0*04
$PMTKGALM,28,1,1,1,1,1,1,1,1,1,1,1,1,1,1,1,1,0,0,0,1,1,1,1,1,1,1,1,1,1,1,1,0*23
$GNACCURACY,1.8,1.1,1.4,19.8*28
$PMTKAGC,000249.000,2821,2940,5814,5881,0,3,0*6F
$PMTKAG2,000249.000,5,0119,0,0,0,0,0,0,0,0,0,0,0,0*37
$GNGGA,000250.000,3000.2409,N,12000.4561,E,1,11,0.75,-2.7,M,7.0,M,,*61
$GPGSA,A,3,,,,,,,,,,,,,1.08,0.75,0.78*06
$GLGSA,A,3,78,77,86,88,87,,,,,,,,1.08,0.75,0.78*14
$BDGSA,A,3,13,12,14,09,11,06,,,,,,,1.08,0.75,0.78*1C
$GPGSV,4,1,14,07,85,110,,25,66,042,,04,51,246,,13,49,032,*7C
$GPGSV,4,2,14,08,48,208,,42,48,143,,02,33,299,,23,27,058,*71
$GPGSV,4,3,14,27,19,219,,16,01,039,,10,01,311,,193,,,*78
$GPGSV,4,4,14,194,,,,195,,,*7D
$GLGSV,2,1,5,87,61,302,34.4,77,56,327,34.3,86,33,025,33.8,88,20,244,33.1*58
$GLGSV,2,2,5,78,07,331,33.3*74
$BDGSV,2,1,8,13,48,202,32.3,06,37,216,31.7,09,37,287,31.5,04,36,126,*40
$BDGSV,2,2,8,11,19,131,31.6,12,10,060,30.6,14,08,165,31.2,01,,,31.2*60
$GNRMC,000250.000,A,3000.2409,N,12000.4561,E,75.854,115.87,230721,,,A*7A
$GNVTG,115.87,T,,M,75.854,N,140.558,K,A*1F
$PMTKGEPH,0,0,0,0,0,0,0,0,0,0,0,0,0,0,0,0,0,0,0,0,0,0,0,0,0,0,0,0,0,0,0,0,0*04
$PMTKGALM,28,1,1,1,1,1,1,1,1,1,1,1,1,1,1,1,1,0,0,0,1,1,1,1,1,1,1,1,1,1,1,1,0*23
$GNACCURACY,1.8,1.9,1.9,19.7*22
$PMTKAGC,000250.000,2716,2871,5909,5848,0,3,0*67
$PMTKAG2,000250.000,5,0119,0,0,0,0,0,0,0,0,0,0,0,0*3F
$GNGGA,000251.000,3000.2305,N,12000.4772,E,1,11,0.75,-3.2,M,7.0,M,,*6F
$GPGSA,A,3,,,,,,,,,,,,,1.08,0.75,0.78*06
$GLGSA,A,3,78,77,86,88,87,,,,,,,,1.08,0.75,0.78*14
$BDGSA,A,3,13,12,14,09,11,06,,,,,,,1.08,0.75,0.78*1C
$GPGSV,4,1,14,07,85,110,,25,66,042,,04,51,246,,13,49,032,*7C
$GPGSV,4,2,14,08,48,208,,42,48,143,,02,33,299,,23,27,058,*71
$GPGSV,4,3,14,27,19,219,,16,01,039,,10,01,311,,193,,,*78
$GPGSV,4,4,14,194,,,,195,,,*7D
$GLGSV,2,1,5,87,61,302,34.4,77,56,327,34.3,86,33,025,33.8,88,20,244,33.1*58
$GLGSV,2,2,5,78,07,331,33.3*74
$BDGSV,2,1,8,13,48,202,32.6,06,37,216,31.7,09,37,287,31.5,04,36,126,*45
$BDGSV,2,2,8,11,19,131,31.6,12,10,060,31.0,14,08,165,31.2,01,,,31.2*67
$GNRMC,000251.000,A,3000.2305,N,12000.4772,E,75.594,120.66,230721,,,A*78
$GNVTG,120.66,T,,M,75.594,N,140.076,K,A*1E
$PMTKGEPH,0,0,0,0,0,0,0,0,0,0,0,0,0,0,0,0,0,0,0,0,0,0,0,0,0,0,0,0,0,0,0,0,0*04
$PMTKGALM,28,1,1,1,1,1,1,1,1,1,1,1,1,1,1,1,1,0,0,0,1,1,1,1,1,1,1,1,1,1,1,1,0*23
$GNACCURACY,1.8,2.0,1.9,19.7*28
$PMTKAGC,000251.000,2631,2819,5772,5834,0,3,0*65
$PMTKAG2,000251.000,5,0119,0,0,0,0,0,0,0,0,0,0,0,0*3E
$GNGGA,000252.000,3000.2185,N,12000.4972,E,1,11,0.75,-3.5,M,7.0,M,,*6F
$GPGSA,A,3,,,,,,,,,,,,,1.08,0.75,0.78*06
$GLGSA,A,3,78,77,86,88,87,,,,,,,,1.08,0.75,0.78*14
$BDGSA,A,3,13,12,14,09,11,06,,,,,,,1.08,0.75,0.78*1C
$GPGSV,4,1,14,07,85,110,,25,66,042,,04,51,246,,13,49,032,*7C
$GPGSV,4,2,14,08,48,208,,42,48,143,,02,33,299,,23,27,058,*71
$GPGSV,4,3,14,27,19,219,,16,01,039,,10,01,311,,193,,,*78
$GPGSV,4,4,14,194,,,,195,,,*7D
$GLGSV,2,1,5,87,61,302,34.4,77,56,327,34.3,86,33,025,33.8,88,20,244,33.1*58
$GLGSV,2,2,5,78,07,331,33.3*74
$BDGSV,2,1,8,13,48,202,32.5,06,37,216,31.6,09,37,287,31.6,04,36,126,*44
$BDGSV,2,2,8,11,19,131,31.6,12,10,060,30.9,14,08,165,30.3,01,,,31.2*6F
$GNRMC,000252.000,A,3000.2185,N,12000.4972,E,75.663,124.99,230721,,,A*70
$GNVTG,124.99,T,,M,75.663,N,140.203,K,A*11
$PMTKGEPH,0,0,0,0,0,0,0,0,0,0,0,0,0,0,0,0,0,0,0,0,0,0,0,0,0,0,0,0,0,0,0,0,0*04
$PMTKGALM,28,1,1,1,1,1,1,1,1,1,1,1,1,1,1,1,1,0,0,0,1,1,1,1,1,1,1,1,1,1,1,1,0*23
$GNACCURACY,1.9,2.2,2.1,20.0*2D
$PMTKAGC,000252.000,2662,2916,5744,5823,0,3,0*6D
$PMTKAG2,000252.000,5,0119,0,0,0,0,0,0,0,0,0,0,0,0*3D
$GNGGA,000253.000,3000.2053,N,12000.5162,E,1,11,0.75,-3.6,M,7.0,M,,*6F
$GPGSA,A,3,,,,,,,,,,,,,1.08,0.75,0.78*06
$GLGSA,A,3,78,77,86,88,87,,,,,,,,1.08,0.75,0.78*14
$BDGSA,A,3,13,12,14,09,11,06,,,,,,,1.08,0.75,0.78*1C
$GPGSV,4,1,14,07,85,110,,25,66,042,,04,51,246,,13,49,032,*7C
$GPGSV,4,2,14,08,48,208,,42,48,143,,02,33,299,,23,27,058,*71
$GPGSV,4,3,14,27,19,219,,16,01,039,,10,01,311,,193,,,*78
$GPGSV,4,4,14,194,,,,195,,,*7D
$GLGSV,2,1,5,87,61,302,34.4,77,56,327,34.3,86,33,025,33.8,88,20,244,33.2*5B
$GLGSV,2,2,5,78,07,331,33.3*74
$BDGSV,2,1,8,13,48,202,32.6,06,37,216,31.6,09,37,287,31.6,04,36,126,*47
$BDGSV,2,2,8,11,19,131,31.6,12,10,060,30.9,14,08,165,30.6,01,,,31.2*6A
$GNRMC,000253.000,A,3000.2053,N,12000.5162,E,75.716,128.94,230721,,,A*71
$GNVTG,128.94,T,,M,75.716,N,140.302,K,A*13
$PMTKGEPH,0,0,0,0,0,0,0,0,0,0,0,0,0,0,0,0,0,0,0,0,0,0,0,0,0,0,0,0,0,0,0,0,0*04
$PMTKGALM,28,1,1,1,1,1,1,1,1,1,1,1,1,1,1,1,1,0,0,0,1,1,1,1,1,1,1,1,1,1,1,1,0*23
$GNACCURACY,1.9,2.2,2.2,19.8*2C
$PMTKAGC,000253.000,2976,2767,5810,5906,0,3,0*66
$PMTKAG2,000253.000,5,0118,0,0,0,0,0,0,0,0,0,0,0,0*3D
$GNGGA,000254.000,3000.1909,N,12000.5340,E,1,11,0.75,-3.8,M,7.0,M,,*61
$GPGSA,A,3,,,,,,,,,,,,,1.08,0.75,0.78*06
$GLGSA,A,3,78,77,86,88,87,,,,,,,,1.08,0.75,0.78*14
$BDGSA,A,3,13,12,14,09,11,06,,,,,,,1.08,0.75,0.78*1C
$GPGSV,4,1,14,07,85,110,,25,66,042,,04,51,246,,13,49,032,*7C
$GPGSV,4,2,14,08,48,208,,42,48,143,,02,33,299,,23,27,058,*71
$GPGSV,4,3,14,27,19,219,,16,01,039,,10,01,311,,193,,,*78
$GPGSV,4,4,14,194,,,,195,,,*7D
$GLGSV,2,1,5,87,61,302,34.4,77,56,327,34.4,86,33,025,33.9,88,20,244,33.2*5D
$GLGSV,2,2,5,78,07,331,33.4*73
$BDGSV,2,1,8,13,48,202,32.7,06,37,216,31.6,09,37,287,31.7,04,36,126,*47
$BDGSV,2,2,8,11,19,131,31.6,12,10,060,31.0,14,08,165,30.4,01,,,31.2*60
$GNRMC,000254.000,A,3000.1909,N,12000.5340,E,75.469,132.61,230721,,,A*7B
$GNVTG,132.61,T,,M,75.469,N,139.845,K,A*1F
$PMTKGEPH,0,0,0,0,0,0,0,0,0,0,0,0,0,0,0,0,0,0,0,0,0,0,0,0,0,0,0,0,0,0,0,0,0*04
$PMTKGALM,28,1,1,1,1,1,1,1,1,1,1,1,1,1,1,1,1,0,0,0,1,1,1,1,1,1,1,1,1,1,1,1,0*23
$GNACCURACY,1.9,2.6,2.6,19.4*20
$PMTKAGC,000254.000,2916,2722,5927,5760,0,3,0*6D
$PMTKAG2,000254.000,5,0118,0,0,0,0,0,0,0,0,0,0,0,0*3A
$GNGGA,000255.000,3000.1751,N,12000.5501,E,1,11,0.75,-4.0,M,7.0,M,,*6F
$GPGSA,A,3,,,,,,,,,,,,,1.08,0.75,0.78*06
$GLGSA,A,3,78,77,86,88,87,,,,,,,,1.08,0.75,0.78*14
$BDGSA,A,3,13,12,14,09,11,06,,,,,,,1.08,0.75,0.78*1C
$GPGSV,4,1,14,07,85,110,,25,66,042,,04,51,246,,13,49,032,*7C
$GPGSV,4,2,14,08,48,208,,42,48,143,,02,33,299,,23,27,058,*71
$GPGSV,4,3,14,27,19,219,,16,01,039,,10,01,311,,193,,,*78
$GPGSV,4,4,14,194,,,,195,,,*7D
$GLGSV,2,1,6,87,61,302,34.4,77,56,327,34.4,86,33,025,33.9,88,20,244,33.2*5E
$GLGSV,2,2,6,78,07,331,33.4,75,,,29.6*61
$BDGSV,2,1,8,13,48,202,32.9,06,37,216,31.7,09,37,287,31.7,04,36,126,*48
$BDGSV,2,2,8,11,19,131,31.6,12,10,060,31.0,14,08,165,30.3,01,,,31.2*67
$GNRMC,000255.000,A,3000.1751,N,12000.5501,E,75.312,137.63,230721,,,A*76
$GNVTG,137.63,T,,M,75.312,N,139.553,K,A*19
$PMTKGEPH,0,0,0,0,0,0,0,0,0,0,0,0,0,0,0,0,0,0,0,0,0,0,0,0,0,0,0,0,0,0,0,0,0*04
$PMTKGALM,28,1,1,1,1,1,1,1,1,1,1,1,1,1,1,1,1,0,0,0,1,1,1,1,1,1,1,1,1,1,1,1,0*23
$GNACCURACY,1.9,2.3,2.3,20.3*2D
$PMTKAGC,000255.000,2683,2705,5862,5927,0,3,0*67
$PMTKAG2,000255.000,5,0118,0,0,0,0,0,0,0,0,0,0,0,0*3B
$GNGGA,000256.000,3000.1584,N,12000.5648,E,1,11,0.75,-4.2,M,7.0,M,,*6A
$GPGSA,A,3,,,,,,,,,,,,,1.08,0.75,0.78*06
$GLGSA,A,3,78,77,86,88,87,,,,,,,,1.08,0.75,0.78*14
$BDGSA,A,3,13,12,14,09,11,06,,,,,,,1.08,0.75,0.78*1C
$GPGSV,4,1,14,07,85,110,,25,66,042,,04,51,246,,13,49,032,*7C
$GPGSV,4,2,14,08,48,208,,50,45,136,,02,33,299,,23,27,058,*7D
$GPGSV,4,3,14,27,19,219,,16,01,039,,10,01,311,,193,,,*78
$GPGSV,4,4,14,194,,,,195,,,*7D
$GLGSV,2,1,6,87,61,302,34.4,77,56,327,34.4,86,33,025,33.9,88,20,244,33.2*5E
$GLGSV,2,2,6,78,07,331,33.4,75,,,32.9*64
$BDGSV,2,1,8,13,48,202,32.8,06,37,216,31.6,09,37,287,31.7,04,36,126,*48
$BDGSV,2,2,8,11,19,131,31.6,12,10,060,31.0,14,08,165,30.1,01,,,31.2*65
$GNRMC,000256.000,A,3000.1584,N,12000.5648,E,75.008,142.53,230721,,,A*78
$GNVTG,142.53,T,,M,75.008,N,138.989,K,A*1A
$PMTKGEPH,0,0,0,0,0,0,0,0,0,0,0,0,0,0,0,0,0,0,0,0,0,0,0,0,0,0,0,0,0,0,0,0,0*04
$PMTKGALM,28,1,1,1,1,1,1,1,1,1,1,1,1,1,1,1,1,0,0,0,1,1,1,1,1,1,1,1,1,1,1,1,0*23
$GNACCURACY,1.9,2.1,2.1,19.4*20
$PMTKAGC,000256.000,2809,2873,5950,5791,0,3,0*65
$PMTKAG2,000256.000,5,0118,0,0,0,0,0,0,0,0,0,0,0,0*38
$GNGGA,000257.000,3000.1409,N,12000.5783,E,1,11,0.75,-4.2,M,7.0,M,,*69
$GPGSA,A,3,,,,,,,,,,,,,1.08,0.75,0.78*06
$GLGSA,A,3,78,77,86,88,87,,,,,,,,1.08,0.75,0.78*14
$BDGSA,A,3,13,12,14,09,11,06,,,,,,,1.08,0.75,0.78*1C
$GPGSV,4,1,14,07,85,110,,25,66,042,,04,51,246,,13,49,032,*7C
$GPGSV,4,2,14,08,48,208,,50,45,136,,02,33,299,,23,27,058,*7D
$GPGSV,4,3,14,27,19,219,,16,01,039,,10,01,311,,193,,,*78
$GPGSV,4,4,14,194,,,,195,,,*7D
$GLGSV,2,1,6,87,61,302,34.5,77,56,327,34.4,86,33,025,33.9,88,20,244,33.2*5F
$GLGSV,2,2,6,78,07,331,33.4,75,,,31.9*67
$BDGSV,2,1,8,13,48,202,32.8,06,37,216,31.6,09,37,287,31.7,04,36,126,*48
$BDGSV,2,2,8,11,19,131,31.6,12,10,060,31.1,14,08,165,30.4,01,,,31.2*61
$GNRMC,000257.000,A,3000.1409,N,12000.5783,E,74.836,146.57,230721,,,A*7F
$GNVTG,146.57,T,,M,74.836,N,138.671,K,A*16
$PMTKGEPH,0,0,0,0,0,0,0,0,0,0,0,0,0,0,0,0,0,0,0,0,0,0,0,0,0,0,0,0,0,0,0,0,0*04
$PMTKGALM,28,1,1,1,1,1,1,1,1,1,1,1,1,1,1,1,1,0,0,0,1,1,1,1,1,1,1,1,1,1,1,1,0*23
$GNACCURACY,1.9,2.1,2.1,20.3*2D
$PMTKAGC,000257.000,2833,2932,5911,5823,0,3,0*6A
$PMTKAG2,000257.000,5,0118,0,0,0,0,0,0,0,0,0,0,0,0*39
$GNGGA,000258.000,3000.1224,N,12000.5901,E,1,11,0.75,-4.1,M,7.0,M,,*68
$GPGSA,A,3,,,,,,,,,,,,,1.08,0.75,0.78*06
$GLGSA,A,3,78,77,86,88,87,,,,,,,,1.08,0.75,0.78*14
$BDGSA,A,3,13,12,14,09,11,06,,,,,,,1.08,0.75,0.78*1C
$GPGSV,4,1,14,07,85,110,,25,66,042,,04,51,246,,13,49,032,*7C
$GPGSV,4,2,14,08,48,208,,50,45,136,,02,33,299,,23,27,058,*7D
$GPGSV,4,3,14,27,19,219,,16,01,039,,10,01,311,,193,,,*78
$GPGSV,4,4,14,194,,,,195,,,*7D
$GLGSV,2,1,6,87,61,302,34.5,77,56,327,34.4,86,33,025,33.9,88,20,244,33.2*5F
$GLGSV,2,2,6,78,07,331,33.5,75,,,32.5*69
$BDGSV,2,1,8,13,48,202,32.6,06,37,216,31.6,09,37,287,31.8,04,36,126,*49
$BDGSV,2,2,8,11,19,131,31.6,12,10,060,31.1,14,08,165,30.8,01,,,31.2*6D
$GNRMC,000258.000,A,3000.1224,N,12000.5901,E,74.888,150.99,230721,,,A*7D
$GNVTG,150.99,T,,M,74.888,N,138.767,K,A*10
$PMTKGEPH,0,0,0,0,0,0,0,0,0,0,0,0,0,0,0,0,0,0,0,0,0,0,0,0,0,0,0,0,0,0,0,0,0*04
$PMTKGALM,28,1,1,1,1,1,1,1,1,1,1,1,1,1,1,1,1,0,0,0,1,1,1,1,1,1,1,1,1,1,1,1,0*23
$GNACCURACY,1.9,2.4,2.3,19.5*26
$PMTKAGC,000258.000,2933,2808,5818,5944,0,3,0*64
$PMTKAG2,000258.000,5,0118,0,0,0,0,0,0,0,0,0,0,0,0*36
$GNGGA,000259.000,3000.1032,N,12000.6001,E,1,11,0.75,-4.1,M,7.0,M,,*66
$GPGSA,A,3,,,,,,,,,,,,,1.08,0.75,0.78*06
$GLGSA,A,3,78,77,86,88,87,,,,,,,,1.08,0.75,0.78*14
$BDGSA,A,3,13,12,14,09,11,06,,,,,,,1.08,0.75,0.78*1C
$GPGSV,4,1,14,07,85,110,,25,66,042,,04,51,246,,13,49,032,*7C
$GPGSV,4,2,14,08,48,208,,50,45,136,,02,33,299,,23,27,058,*7D
$GPGSV,4,3,14,27,19,219,,16,01,039,,10,01,311,,193,,,*78
$GPGSV,4,4,14,194,,,,195,,,*7D
$GLGSV,2,1,6,87,61,302,34.3,77,56,327,34.4,86,33,025,33.9,88,20,244,33.2*59
$GLGSV,2,2,6,78,07,331,33.5,75,,,31.2*6D
$BDGSV,2,1,8,13,48,202,32.6,06,37,216,31.6,09,37,287,31.7,04,36,126,*46
$BDGSV,2,2,8,11,19,131,31.5,12,10,060,31.1,14,08,165,30.8,01,,,31.2*6E
$GNRMC,000259.000,A,3000.1032,N,12000.6001,E,74.691,155.36,230721,,,A*75
$GNVTG,155.36,T,,M,74.691,N,138.403,K,A*17
$PMTKGEPH,0,0,0,0,0,0,0,0,0,0,0,0,0,0,0,0,0,0,0,0,0,0,0,0,0,0,0,0,0,0,0,0,0*04
$PMTKGALM,28,1,1,1,1,1,1,1,1,1,1,1,1,1,1,1,1,0,0,0,1,1,1,1,1,1,1,1,1,1,1,1,0*23
$GNACCURACY,1.9,2.5,2.3,19.7*25
$PMTKAGC,000259.000,2738,2741,5812,5867,0,3,0*68
$PMTKAG2,000259.000,5,0118,0,0,0,0,0,0,0,0,0,0,0,0*37
$GNGGA,000300.000,3000.0834,N,12000.6085,E,1,11,0.75,-4.1,M,7.0,M,,*68
$GPGSA,A,3,,,,,,,,,,,,,1.08,0.75,0.78*06
$GLGSA,A,3,78,77,86,88,87,,,,,,,,1.08,0.75,0.78*14
$BDGSA,A,3,13,12,14,09,11,06,,,,,,,1.08,0.75,0.78*1C
$GPGSV,4,1,14,07,85,110,,25,66,042,,04,51,246,,13,49,032,*7C
$GPGSV,4,2,14,08,48,208,,50,45,136,,02,33,299,,23,27,058,*7D
$GPGSV,4,3,14,27,19,219,,16,01,039,,10,01,311,,193,,,*78
$GPGSV,4,4,14,194,,,,195,,,*7D
$GLGSV,2,1,6,87,61,302,34.3,77,56,327,34.5,86,33,025,33.9,88,20,244,33.3*59
$GLGSV,2,2,6,78,07,331,33.5,75,,,32.3*6F
$BDGSV,2,1,8,13,48,202,32.3,06,37,216,31.6,09,37,287,31.7,04,36,126,*43
$BDGSV,2,2,8,11,19,131,31.5,12,10,060,31.1,14,08,165,30.7,01,,,31.2*61
$GNRMC,000300.000,A,3000.0834,N,12000.6085,E,74.445,159.47,230721,,,A*7A
$GNVTG,159.47,T,,M,74.445,N,137.947,K,A*14
$PMTKGEPH,0,0,0,0,0,0,0,0,0,0,0,0,0,0,0,0,0,0,0,0,0,0,0,0,0,0,0,0,0,0,0,0,0*04
$PMTKGALM,28,1,1,1,1,1,1,1,1,1,1,1,1,1,1,1,1,0,0,0,1,1,1,1,1,1,1,1,1,1,1,1,0*23
$GNACCURACY,1.9,2.8,2.5,19.8*21
$PMTKAGC,000300.000,2970,2952,5935,5938,0,3,0*64
$PMTKAG2,000300.000,5,0118,0,0,0,0,0,0,0,0,0,0,0,0*3A
$GNGGA,000301.000,3000.0631,N,12000.6151,E,1,11,0.75,-4.1,M,7.0,M,,*6A
$GPGSA,A,3,,,,,,,,,,,,,1.08,0.75,0.78*06
$GLGSA,A,3,78,77,86,88,87,,,,,,,,1.08,0.75,0.78*14
$BDGSA,A,3,13,12,14,09,11,06,,,,,,,1.08,0.75,0.78*1C
$GPGSV,4,1,14,07,85,110,,25,66,042,,04,51,246,,13,49,032,*7C
$GPGSV,4,2,14,08,48,208,,50,45,136,,02,33,299,,23,27,058,*7D
$GPGSV,4,3,14,27,19,219,,16,01,039,,10,01,311,,193,,,*78
$GPGSV,4,4,14,194,,,,195,,,*7D
$GLGSV,2,1,6,87,61,302,34.3,77,56,327,34.5,86,33,025,33.9,88,20,244,33.3*59
$GLGSV,2,2,6,78,07,331,33.5,75,,,32.9*65
$BDGSV,2,1,8,13,48,202,32.3,06,37,216,31.5,09,37,287,31.7,04,36,126,*40
$BDGSV,2,2,8,11,19,131,31.5,12,10,060,31.1,14,08,165,30.7,01,,,31.2*61
$GNRMC,000301.000,A,3000.0631,N,12000.6151,E,74.383,164.06,230721,,,A*7E
$GNVTG,164.06,T,,M,74.383,N,137.831,K,A*12
$PMTKGEPH,0,0,0,0,0,0,0,0,0,0,0,0,0,0,0,0,0,0,0,0,0,0,0,0,0,0,0,0,0,0,0,0,0*04
$PMTKGALM,28,1,1,1,1,1,1,1,1,1,1,1,1,1,1,1,1,0,0,0,1,1,1,1,1,1,1,1,1,1,1,1,0*23
$GNACCURACY,2.0,2.8,2.5,19.8*2B
$PMTKAGC,000301.000,2790,2733,5937,5929,0,3,0*6E
$PMTKAG2,000301.000,5,0118,0,0,0,0,0,0,0,0,0,0,0,0*3B
$GNGGA,000302.000,3000.0422,N,12000.6194,E,1,11,0.77,-4.0,M,7.0,M,,*63
$GPGSA,A,3,,,,,,,,,,,,,1.48,0.77,1.26*0A
$GLGSA,A,3,78,77,86,88,87,,,,,,,,1.48,0.77,1.26*18
$BDGSA,A,3,13,12,14,09,11,06,,,,,,,1.48,0.77,1.26*10
$GPGSV,4,1,14,07,85,110,,25,66,042,,04,51,246,,13,49,032,*7C
$GPGSV,4,2,14,08,48,208,,50,45,136,,02,33,299,,23,27,058,*7D
$GPGSV,4,3,14,27,19,219,,16,01,039,,10,01,311,,193,,,*78
$GPGSV,4,4,14,194,,,,195,,,*7D
$GLGSV,2,1,6,87,61,302,34.3,77,56,327,34.5,86,33,025,33.8,88,20,244,33.3*58
$GLGSV,2,2,6,78,07,331,33.5,75,,,32.6*6A
$BDGSV,2,1,8,13,48,202,32.3,06,37,216,31.5,09,37,287,31.7,04,36,126,*40
$BDGSV,2,2,8,11,19,131,31.5,12,10,060,31.2,14,08,165,30.7,01,,,31.2*62
$GNRMC,000302.000,A,3000.0422,N,12000.6194,E,75.378,170.50,230721,,,A*77
$GNVTG,170.50,T,,M,75.378,N,139.676,K,A*12
$PMTKGEPH,0,0,0,0,0,0,0,0,0,0,0,0,0,0,0,0,0,0,0,0,0,0,0,0,0,0,0,0,0,0,0,0,0*04
$PMTKGALM,28,1,1,1,1,1,1,1,1,1,1,1,1,1,1,1,1,0,0,0,1,1,1,1,1,1,1,1,1,1,1,1,0*23
$GNACCURACY,1.9,1.3,1.4,19.4*27
$PMTKAGC,000302.000,2805,2994,5884,5905,0,3,0*6A
$PMTKAG2,000302.000,5,0118,0,0,0,0,0,0,0,0,0,0,0,0*38
$GNGGA,000303.000,3000.0212,N,12000.6223,E,1,11,0.77,-3.9,M,7.0,M,,*66
$GPGSA,A,3,,,,,,,,,,,,,1.48,0.77,1.26*0A
$GLGSA,A,3,78,77,86,88,87,,,,,,,,1.48,0.77,1.26*18
$BDGSA,A,3,13,12,14,09,11,06,,,,,,,1.48,0.77,1.26*10
$GPGSV,4,1,14,07,85,110,,25,66,042,,04,51,246,,13,49,032,*7C
$GPGSV,4,2,14,08,48,208,,50,45,136,,02,33,299,,23,27,058,*7D
$GPGSV,4,3,14,27,19,219,,16,01,039,,10,01,311,,193,,,*78
$GPGSV,4,4,14,194,,,,195,,,*7D
$GLGSV,2,1,6,87,61,302,34.4,77,56,327,34.5,86,33,025,33.9,88,20,244,33.4*59
$GLGSV,2,2,6,78,07,331,33.5,75,,,32.3*6F
$BDGSV,2,1,8,13,48,202,32.3,06,37,216,31.6,09,37,287,31.7,04,36,126,*43
$BDGSV,2,2,8,11,19,131,31.5,12,10,060,31.2,14,08,165,30.9,01,,,31.1*6F
$GNRMC,000303.000,A,3000.0212,N,12000.6223,E,75.660,174.44,230721,,,A*71
$GNVTG,174.44,T,,M,75.660,N,140.199,K,A*17
$PMTKGEPH,0,0,0,0,0,0,0,0,0,0,0,0,0,0,0,0,0,0,0,0,0,0,0,0,0,0,0,0,0,0,0,0,0*04
$PMTKGALM,28,1,1,1,1,1,1,1,1,1,1,1,1,1,1,1,1,0,0,0,1,1,1,1,1,1,1,1,1,1,1,1,0*23
$GNACCURACY,1.9,2.1,1.8,20.1*25
$PMTKAGC,000303.000,2940,2738,5873,5885,0,3,0*62
$PMTKAG2,000303.000,5,0119,0,0,0,0,0,0,0,0,0,0,0,0*38
$GNGGA,000304.000,3000.0001,N,12000.6233,E,1,11,0.77,-3.8,M,7.0,M,,*61
$GPGSA,A,3,,,,,,,,,,,,,1.48,0.77,1.26*0A
$GLGSA,A,3,78,77,86,88,87,,,,,,,,1.48,0.77,1.26*18
$BDGSA,A,3,13,12,14,09,11,06,,,,,,,1.48,0.77,1.26*10
$GPGSV,4,1,14,07,85,110,,25,66,042,,04,51,246,,13,49,032,*7C
$GPGSV,4,2,14,08,48,208,,50,45,136,,02,33,299,,23,27,058,*7D
$GPGSV,4,3,14,27,19,219,,16,01,039,,10,01,311,,193,,,*78
$GPGSV,4,4,14,194,,,,195,,,*7D
$GLGSV,2,1,6,87,61,302,34.3,77,56,327,34.5,86,33,025,33.9,88,20,244,33.5*5F
$GLGSV,2,2,6,78,07,331,33.5,75,,,32.6*6A
$BDGSV,2,1,8,13,48,202,32.2,06,37,216,31.6,09,37,287,31.8,04,36,126,*4D
$BDGSV,2,2,8,11,19,131,31.5,12,10,060,31.1,14,08,165,30.9,01,,,31.2*6F
$GNRMC,000304.000,A,3000.0001,N,12000.6233,E,75.710,178.90,230721,,,A*74
$GNVTG,178.90,T,,M,75.710,N,140.290,K,A*1E
$PMTKGEPH,0,0,0,0,0,0,0,0,0,0,0,0,0,0,0,0,0,0,0,0,0,0,0,0,0,0,0,0,0,0,0,0,0*04
$PMTKGALM,28,1,1,1,1,1,1,1,1,1,1,1,1,1,1,1,1,0,0,0,1,1,1,1,1,1,1,1,1,1,1,1,0*23
$GNACCURACY,1.8,2.2,1.9,19.5*28
$PMTKAGC,000304.000,2839,2994,5968,5950,0,3,0*60
$PMTKAG2,000304.000,5,0118,0,0,0,0,0,0,0,0,0,0,0,0*3E
$GNGGA,000305.000,2959.9791,N,12000.6222,E,1,11,0.77,-3.7,M,7.0,M,,*6C
$GPGSA,A,3,,,,,,,,,,,,,1.48,0.77,1.26*0A
$GLGSA,A,3,78,77,86,88,87,,,,,,,,1.48,0.77,1.26*18
$BDGSA,A,3,13,12,14,09,11,06,,,,,,,1.48,0.77,1.26*10
$GPGSV,4,1,14,07,85,110,,25,66,042,,04,51,246,,13,49,032,*7C
$GPGSV,4,2,14,08,48,208,,02,33,299,,23,27,058,,44,22,250,*7A
$GPGSV,4,3,14,27,19,219,,16,01,039,,10,01,311,,193,,,*78
$GPGSV,4,4,14,194,,,,195,,,*7D
$GLGSV,2,1,6,87,61,302,34.3,77,56,327,34.5,86,33,025,33.9,88,20,244,33.5*5F
$GLGSV,2,2,6,78,07,331,33.5,75,,,32.3*6F
$BDGSV,2,1,8,13,48,202,32.3,06,37,216,31.6,09,37,287,31.8,04,36,126,*4C
$BDGSV,2,2,8,11,19,131,31.5,12,10,060,31.1,14,08,165,31.1,01,,,31.2*66
$GNRMC,000305.000,A,2959.9791,N,12000.6222,E,75.746,183.94,230721,,,A*75
$GNVTG,183.94,T,,M,75.746,N,140.358,K,A*18
$PMTKGEPH,0,0,0,0,0,0,0,0,0,0,0,0,0,0,0,0,0,0,0,0,0,0,0,0,0,0,0,0,0,0,0,0,0*04
$PMTKGALM,28,1,1,1,1,1,1,1,1,1,1,1,1,1,1,1,1,0,0,0,1,1,1,1,1,1,1,1,1,1,1,1,0*23
$GNACCURACY,1.8,1.3,1.5,19.8*2B
$PMTKAGC,000305.000,2895,2938,5885,5900,0,3,0*66
$PMTKAG2,000305.000,5,0118,0,0,0,0,0,0,0,0,0,0,0,0*3F
$GNGGA,000306.000,2959.9582,N,12000.6194,E,1,11,0.77,-3.5,M,7.0,M,,*63
$GPGSA,A,3,,,,,,,,,,,,,1.48,0.77,1.26*0A
$GLGSA,A,3,78,77,86,88,87,,,,,,,,1.48,0.77,1.26*18
$BDGSA,A,3,13,12,14,09,11,06,,,,,,,1.48,0.77,1.26*10
$GPGSV,4,1,14,07,85,110,,25,66,042,,04,51,246,,13,49,032,*7C
$GPGSV,4,2,14,08,48,208,,02,33,299,,23,27,058,,44,22,250,*7A
$GPGSV,4,3,14,27,19,219,,16,01,039,,10,01,311,,193,,,*78
$GPGSV,4,4,14,194,,,,195,,,*7D
$GLGSV,2,1,6,87,61,302,34.3,77,56,327,34.5,86,33,025,33.9,88,20,244,33.5*5F
$GLGSV,2,2,6,78,07,331,33.5,75,,,32.4*68
$BDGSV,2,1,8,13,48,202,32.4,06,37,216,31.6,09,37,287,31.7,04,36,126,*44
$BDGSV,2,2,8,11,19,131,31.5,12,10,060,31.1,14,08,165,31.2,01,,,31.1*66
$GNRMC,000306.000,A,2959.9582,N,12000.6194,E,75.522,187.77,230721,,,A*71
$GNVTG,187.77,T,,M,75.522,N,139.943,K,A*1F
$PMTKGEPH,0,0,0,0,0,0,0,0,0,0,0,0,0,0,0,0,0,0,0,0,0,0,0,0,0,0,0,0,0,0,0,0,0*04
$PMTKGALM,28,1,1,1,1,1,1,1,1,1,1,1,1,1,1,1,1,0,0,0,1,1,1,1,1,1,1,1,1,1,1,1,0*23
$GNACCURACY,1.8,2.1,1.9,20.0*24
$PMTKAGC,000306.000,2843,2598,5928,5828,0,3,0*65
$PMTKAG2,000306.000,5,0118,0,0,0,0,0,0,0,0,0,0,0,0*3C
$GNGGA,000307.000,2959.9375,N,12000.6145,E,1,11,0.77,-3.6,M,7.0,M,,*63
$GPGSA,A,3,,,,,,,,,,,,,1.48,0.77,1.26*0A
$GLGSA,A,3,78,77,86,88,87,,,,,,,,1.48,0.77,1.26*18
$BDGSA,A,3,13,12,14,09,11,06,,,,,,,1.48,0.77,1.26*10
$GPGSV,4,1,14,07,85,110,,25,66,042,,04,51,246,,13,49,032,*7C
$GPGSV,4,2,14,08,48,208,,02,33,299,,23,27,058,,44,22,250,*7A
$GPGSV,4,3,14,27,19,219,,16,01,039,,10,01,311,,193,,,*78
$GPGSV,4,4,14,194,,,,195,,,*7D
$GLGSV,2,1,6,87,61,302,34.3,77,56,327,34.5,86,33,025,33.9,88,20,244,33.6*5C
$GLGSV,2,2,6,78,07,331,33.4,75,,,32.3*6E
$BDGSV,2,1,8,13,48,202,32.5,06,37,216,31.6,09,37,287,31.7,04,36,126,*45
$BDGSV,2,2,8,11,19,131,31.5,12,10,060,31.2,14,08,165,31.0,01,,,31.1*67
$GNRMC,000307.000,A,2959.9375,N,12000.6145,E,75.526,192.85,230721,,,A*7F
$GNVTG,192.85,T,,M,75.526,N,139.949,K,A*18
$PMTKGEPH,0,0,0,0,0,0,0,0,0,0,0,0,0,0,0,0,0,0,0,0,0,0,0,0,0,0,0,0,0,0,0,0,0*04
$PMTKGALM,28,1,1,1,1,1,1,1,1,1,1,1,1,1,1,1,1,0,0,0,1,1,1,1,1,1,1,1,1,1,1,1,0*23
$GNACCURACY,1.8,1.2,1.4,19.8*2B
$PMTKAGC,000307.000,2890,2720,5945,5924,0,3,0*6D
$PMTKAG2,000307.000,5,0118,0,0,0,0,0,0,0,0,0,0,0,0*3D
$GNGGA,000308.000,2959.9173,N,12000.6079,E,1,11,0.77,-3.5,M,7.0,M,,*65
$GPGSA,A,3,,,,,,,,,,,,,1.48,0.77,1.26*0A
$GLGSA,A,3,78,77,86,88,87,,,,,,,,1.48,0.77,1.26*18
$BDGSA,A,3,13,12,14,09,11,06,,,,,,,1.48,0.77,1.26*10
$GPGSV,4,1,14,07,85,110,,25,66,042,,04,51,246,,13,49,032,*7C
$GPGSV,4,2,14,08,48,208,,02,33,299,,23,27,058,,44,22,250,*7A
