=~=~=~=~=~=~=~=~=~=~=~= PuTTY log 2021.09.02 12:39:18 =~=~=~=~=~=~=~=~=~=~=~=
$GNGGA,000209.000,2959.7544,N,12000.1776,E,1,7,1.48,-4.1,M,7.0,M,,*5D
$GPGSA,A,3,,,,,,,,,,,,,2.78,1.48,2.36*05
$GLGSA,A,3,77,87,86,88,,,,,,,,,2.78,1.48,2.36*18
$BDGSA,A,3,06,09,13,,,,,,,,,,2.78,1.48,2.36*19
$GPGSV,4,1,14,07,85,111,,25,66,042,,04,51,246,,13,49,032,*7D
$GPGSV,4,2,14,08,48,207,,02,33,299,,23,27,057,,44,22,250,*7A
$GPGSV,4,3,14,27,19,219,,16,01,039,,10,01,311,,193,,,*78
$GPGSV,4,4,14,194,,,,195,,,*7D
$GLGSV,2,1,5,87,61,301,33.2,77,56,327,33.9,86,34,025,33.4,88,20,244,11.8*55
$GLGSV,2,2,5,78,07,331,*69
$BDGSV,2,1,8,13,48,202,31.9,06,37,216,31.9,09,37,287,31.8,04,36,126,30.2*55
$BDGSV,2,2,8,12,10,060,,14,08,165,,02,,,31.3,01,,,30.9*53
$GNRMC,000209.000,A,2959.7544,N,12000.1776,E,75.225,294.40,230721,,,A*73
$GNVTG,294.40,T,,M,75.225,N,139.393,K,A*1D
$PMTKGEPH,0,0,0,0,0,0,0,0,0,0,0,0,0,0,0,0,0,0,0,0,0,0,0,0,0,0,0,0,0,0,0,0,0*04
$PMTKGALM,28,1,1,1,1,1,1,1,1,1,1,1,1,1,1,1,1,0,0,0,1,1,1,1,1,1,1,1,1,1,1,1,0*23
$GNACCURACY,2.8,0.9,1.5,48.1*2E
$PMTKAGC,000209.000,2872,2856,5957,5870,0,3,0*63
$PMTKAG2,000209.000,5,0119,0,0,0,0,0,0,0,0,0,0,0,0*33
$GNGGA,000210.000,2959.7638,N,12000.1561,E,1,6,1.60,-4.4,M,7.0,M,,*57
$GPGSA,A,3,,,,,,,,,,,,,3.78,1.60,3.42*0C
$GLGSA,A,3,77,87,86,,,,,,,,,,3.78,1.60,3.42*11
$BDGSA,A,3,06,09,13,,,,,,,,,,3.78,1.60,3.42*10
$GPGSV,4,1,14,07,85,110,,25,66,042,,04,51,246,,13,49,032,*7C
$GPGSV,4,2,14,08,48,207,,02,33,299,,23,27,057,,44,22,250,*7A
$GPGSV,4,3,14,27,19,219,,16,01,039,,10,01,311,,193,,,*78
$GPGSV,4,4,14,194,,,,195,,,*7D
$GLGSV,2,1,5,87,61,301,33.3,77,56,327,33.9,86,34,025,33.4,88,20,244,*42
$GLGSV,2,2,5,78,07,331,*69
$BDGSV,2,1,8,13,48,202,31.6,06,37,216,31.8,09,37,287,31.7,04,36,126,30.2*54
$BDGSV,2,2,8,12,10,060,,14,08,165,,02,,,31.1,01,,,31.1*58
$GNRMC,000210.000,A,2959.7638,N,12000.1561,E,74.653,299.21,230721,,,A*79
$GNVTG,299.21,T,,M,74.653,N,138.332,K,A*19
$PMTKGEPH,0,0,0,0,0,0,0,0,0,0,0,0,0,0,0,0,0,0,0,0,0,0,0,0,0,0,0,0,0,0,0,0,0*04
$PMTKGALM,28,1,1,1,1,1,1,1,1,1,1,1,1,1,1,1,1,0,0,0,1,1,1,1,1,1,1,1,1,1,1,1,0*23
$GNACCURACY,2.7,1.0,1.5,47.6*21
$PMTKAGC,000210.000,2975,2876,6020,5940,0,3,0*67
$PMTKAG2,000210.000,5,0119,0,0,0,0,0,0,0,0,0,0,0,0*3B
$GNGGA,000211.000,2959.7748,N,12000.1353,E,1,6,1.60,-5.3,M,7.0,M,,*51
$GPGSA,A,3,,,,,,,,,,,,,3.78,1.60,3.42*0C
$GLGSA,A,3,77,87,86,,,,,,,,,,3.78,1.60,3.42*11
$BDGSA,A,3,06,09,13,,,,,,,,,,3.78,1.60,3.42*10
$GPGSV,4,1,14,07,85,110,,25,66,042,,04,51,246,,13,49,032,*7C
$GPGSV,4,2,14,08,48,208,,02,33,299,,23,27,057,,44,22,250,*75
$GPGSV,4,3,14,27,19,219,,16,01,039,,10,01,311,,193,,,*78
$GPGSV,4,4,14,194,,,,195,,,*7D
$GLGSV,2,1,5,87,61,301,33.4,77,56,327,33.9,86,34,025,33.4,88,20,244,*45
$GLGSV,2,2,5,78,07,331,*69
$BDGSV,2,1,8,13,48,202,31.7,06,37,216,31.8,09,37,287,31.6,04,36,126,30.2*54
$BDGSV,2,2,8,12,10,060,,14,08,165,,02,,,31.1,01,,,31.1*58
$GNRMC,000211.000,A,2959.7748,N,12000.1353,E,76.334,303.81,230721,,,A*77
$GNVTG,303.81,T,,M,76.334,N,141.446,K,A*1D
$PMTKGEPH,0,0,0,0,0,0,0,0,0,0,0,0,0,0,0,0,0,0,0,0,0,0,0,0,0,0,0,0,0,0,0,0,0*04
$PMTKGALM,28,1,1,1,1,1,1,1,1,1,1,1,1,1,1,1,1,0,0,0,1,1,1,1,1,1,1,1,1,1,1,1,0*23
$GNACCURACY,2.7,1.0,1.4,47.3*25
$PMTKAGC,000211.000,2651,2856,5984,6129,0,3,0*6D
$PMTKAG2,000211.000,5,0119,0,0,0,0,0,0,0,0,0,0,0,0*3A
$GNGGA,000212.000,2959.7873,N,12000.1157,E,1,6,1.60,-5.7,M,7.0,M,,*57
$GPGSA,A,3,,,,,,,,,,,,,3.78,1.60,3.42*0C
$GLGSA,A,3,77,87,86,,,,,,,,,,3.78,1.60,3.42*11
$BDGSA,A,3,06,09,13,,,,,,,,,,3.78,1.60,3.42*10
$GPGSV,4,1,14,07,85,110,,25,66,042,,04,51,246,,13,49,032,*7C
$GPGSV,4,2,14,08,48,208,,02,33,299,,23,27,057,,44,22,250,*75
$GPGSV,4,3,14,27,19,219,,16,01,039,,10,01,311,,193,,,*78
$GPGSV,4,4,14,194,,,,195,,,*7D
$GLGSV,2,1,5,87,61,301,33.4,77,56,327,34.1,86,34,025,33.5,88,20,244,*4B
$GLGSV,2,2,5,78,07,331,*69
$BDGSV,2,1,8,13,48,202,32.0,06,37,216,31.8,09,37,287,31.6,04,36,126,30.1*53
$BDGSV,2,2,8,12,10,060,,14,08,165,,02,,,31.1,01,,,31.2*5B
$GNRMC,000212.000,A,2959.7873,N,12000.1157,E,75.476,307.97,230721,,,A*74
$GNVTG,307.97,T,,M,75.476,N,139.857,K,A*1F
$PMTKGEPH,0,0,0,0,0,0,0,0,0,0,0,0,0,0,0,0,0,0,0,0,0,0,0,0,0,0,0,0,0,0,0,0,0*04
$PMTKGALM,28,1,1,1,1,1,1,1,1,1,1,1,1,1,1,1,1,0,0,0,1,1,1,1,1,1,1,1,1,1,1,1,0*23
$GNACCURACY,2.6,1.0,1.4,47.7*20
$PMTKAGC,000212.000,2787,3019,6017,5983,0,3,0*6D
$PMTKAG2,000212.000,5,0119,0,0,0,0,0,0,0,0,0,0,0,0*39
$GNGGA,000213.000,2959.8009,N,12000.0976,E,1,6,1.60,-5.7,M,7.0,M,,*56
$GPGSA,A,3,,,,,,,,,,,,,3.77,1.60,3.42*03
$GLGSA,A,3,77,87,86,,,,,,,,,,3.77,1.60,3.42*1E
$BDGSA,A,3,06,09,13,,,,,,,,,,3.77,1.60,3.42*1F
$GPGSV,4,1,14,07,85,110,,25,66,042,,04,51,246,,13,49,032,*7C
$GPGSV,4,2,14,08,48,208,,02,33,299,,23,27,057,,40,20,251,*72
$GPGSV,4,3,14,27,19,219,,16,01,039,,10,01,311,,193,,,*78
$GPGSV,4,4,14,194,,,,195,,,*7D
$GLGSV,2,1,5,87,61,301,33.5,77,56,327,34.0,86,34,025,33.5,88,20,244,*4B
$GLGSV,2,2,5,78,07,331,*69
$BDGSV,2,1,8,13,48,202,31.8,06,37,216,31.7,09,37,287,31.7,04,36,126,30.1*56
$BDGSV,2,2,8,12,10,060,,14,08,165,,02,,,31.0,01,,,31.0*58
$GNRMC,000213.000,A,2959.8009,N,12000.0976,E,74.727,312.87,230721,,,A*76
$GNVTG,312.87,T,,M,74.727,N,138.468,K,A*1D
$PMTKGEPH,0,0,0,0,0,0,0,0,0,0,0,0,0,0,0,0,0,0,0,0,0,0,0,0,0,0,0,0,0,0,0,0,0*04
$PMTKGALM,28,1,1,1,1,1,1,1,1,1,1,1,1,1,1,1,1,0,0,0,1,1,1,1,1,1,1,1,1,1,1,1,0*23
$GNACCURACY,2.6,1.2,1.5,46.7*22
$PMTKAGC,000213.000,2950,2813,6101,5994,0,3,0*6B
$PMTKAG2,000213.000,5,0119,0,0,0,0,0,0,0,0,0,0,0,0*38
$GNGGA,000214.000,2959.8157,N,12000.0810,E,1,7,1.47,-5.8,M,7.0,M,,*51
$GPGSA,A,3,,,,,,,,,,,,,2.34,1.47,1.82*0E
$GLGSA,A,3,77,87,86,78,,,,,,,,,2.34,1.47,1.82*1C
$BDGSA,A,3,06,09,13,,,,,,,,,,2.34,1.47,1.82*12
$GPGSV,4,1,14,07,85,110,,25,66,042,,04,51,246,,13,49,032,*7C
$GPGSV,4,2,14,08,48,208,,02,33,299,,23,27,057,,40,20,251,*72
$GPGSV,4,3,14,27,19,219,,16,01,039,,10,01,311,,193,,,*78
$GPGSV,4,4,14,194,,,,195,,,*7D
$GLGSV,2,1,5,87,61,301,33.4,77,56,327,34.1,86,34,025,33.5,88,20,244,*4B
$GLGSV,2,2,5,78,07,331,33.9*7E
$BDGSV,2,1,8,13,48,202,32.1,06,37,216,31.7,09,37,287,31.7,04,36,126,30.1*5C
$BDGSV,2,2,8,12,10,060,,14,08,165,,02,,,31.0,01,,,30.9*50
$GNRMC,000214.000,A,2959.8157,N,12000.0810,E,74.332,317.19,230721,,,A*78
$GNVTG,317.19,T,,M,74.332,N,137.738,K,A*16
$PMTKGEPH,0,0,0,0,0,0,0,0,0,0,0,0,0,0,0,0,0,0,0,0,0,0,0,0,0,0,0,0,0,0,0,0,0*04
$PMTKGALM,28,1,1,1,1,1,1,1,1,1,1,1,1,1,1,1,1,0,0,0,1,1,1,1,1,1,1,1,1,1,1,1,0*23
$GNACCURACY,2.5,1.1,1.5,41.0*22
$PMTKAGC,000214.000,2844,2772,5906,5998,0,3,0*60
$PMTKAG2,000214.000,5,0118,0,0,0,0,0,0,0,0,0,0,0,0*3E
$GNGGA,000215.000,2959.8317,N,12000.0658,E,1,7,1.47,-4.4,M,7.0,M,,*59
$GPGSA,A,3,,,,,,,,,,,,,2.34,1.47,1.82*0E
$GLGSA,A,3,77,87,86,78,,,,,,,,,2.34,1.47,1.82*1C
$BDGSA,A,3,06,09,13,,,,,,,,,,2.34,1.47,1.82*12
$GPGSV,4,1,14,07,85,110,,25,66,042,,04,51,246,,13,49,032,*7C
$GPGSV,4,2,14,08,48,208,,02,33,299,,23,27,057,,40,20,251,*72
$GPGSV,4,3,14,27,19,219,,16,01,039,,10,01,311,,193,,,*78
$GPGSV,4,4,14,194,,,,195,,,*7D
$GLGSV,2,1,5,87,61,301,33.5,77,56,327,34.1,86,34,025,33.4,88,20,244,*4B
$GLGSV,2,2,5,78,07,331,31.4*71
$BDGSV,2,1,8,13,48,202,32.0,06,37,216,31.7,09,37,287,31.6,04,36,126,30.0*5D
$BDGSV,2,2,8,12,10,060,,14,08,165,,02,,,30.9,01,,,30.9*58
$GNRMC,000215.000,A,2959.8317,N,12000.0658,E,75.692,321.13,230721,,,A*7C
$GNVTG,321.13,T,,M,75.692,N,140.257,K,A*1B
$PMTKGEPH,0,0,0,0,0,0,0,0,0,0,0,0,0,0,0,0,0,0,0,0,0,0,0,0,0,0,0,0,0,0,0,0,0*04
$PMTKGALM,28,1,1,1,1,1,1,1,1,1,1,1,1,1,1,1,1,0,0,0,1,1,1,1,1,1,1,1,1,1,1,1,0*23
$GNACCURACY,2.5,1.1,1.4,40.9*2B
$PMTKAGC,000215.000,2674,2849,5876,6140,0,3,0*63
$PMTKAG2,000215.000,5,0118,0,0,0,0,0,0,0,0,0,0,0,0*3F
$GNGGA,000216.000,2959.8484,N,12000.0514,E,1,8,1.15,-4.4,M,7.0,M,,*54
$GPGSA,A,3,,,,,,,,,,,,,1.41,1.15,0.81*0A
$GLGSA,A,3,77,87,86,78,,,,,,,,,1.41,1.15,0.81*18
$BDGSA,A,3,14,06,09,13,,,,,,,,,1.41,1.15,0.81*13
$GPGSV,4,1,14,07,85,110,,25,66,042,,04,51,246,,13,49,032,*7C
$GPGSV,4,2,14,08,48,208,,02,33,299,,23,27,057,,40,20,251,*72
$GPGSV,4,3,14,27,19,219,,16,01,039,,10,01,311,,193,,,*78
$GPGSV,4,4,14,194,,,,195,,,*7D
$GLGSV,2,1,5,87,61,301,33.5,77,56,327,34.1,86,34,025,33.5,88,20,244,*4A
$GLGSV,2,2,5,78,07,331,33.4*73
$BDGSV,2,1,8,13,48,202,31.9,06,37,216,31.6,09,37,287,31.6,04,36,126,30.1*57
$BDGSV,2,2,8,12,10,060,,14,08,165,30.3,02,,,31.0,01,,,30.9*4E
$GNRMC,000216.000,A,2959.8484,N,12000.0514,E,76.324,323.41,230721,,,A*77
$GNVTG,323.41,T,,M,76.324,N,141.428,K,A*1A
$PMTKGEPH,0,0,0,0,0,0,0,0,0,0,0,0,0,0,0,0,0,0,0,0,0,0,0,0,0,0,0,0,0,0,0,0,0*04
$PMTKGALM,28,1,1,1,1,1,1,1,1,1,1,1,1,1,1,1,1,0,0,0,1,1,1,1,1,1,1,1,1,1,1,1,0*23
$GNACCURACY,2.4,2.8,2.7,23.6*2A
$PMTKAGC,000216.000,2892,2927,5997,5869,0,3,0*60
$PMTKAG2,000216.000,5,0118,0,0,0,0,0,0,0,0,0,0,0,0*3C
$GNGGA,000217.000,2959.8662,N,12000.0387,E,1,8,1.17,-4.4,M,7.0,M,,*51
$GPGSA,A,3,,,,,,,,,,,,,1.81,1.17,1.37*08
$GLGSA,A,3,77,87,86,78,,,,,,,,,1.81,1.17,1.37*1A
$BDGSA,A,3,14,06,09,13,,,,,,,,,1.81,1.17,1.37*11
$GPGSV,4,1,14,07,85,110,,25,66,042,,04,51,246,,13,49,032,*7C
$GPGSV,4,2,14,08,48,208,,02,33,299,,23,27,057,,40,20,251,*72
$GPGSV,4,3,14,27,19,219,,16,01,039,,10,01,311,,193,,,*78
$GPGSV,4,4,14,194,,,,195,,,*7D
$GLGSV,2,1,5,87,61,301,33.5,77,56,327,34.1,86,34,025,33.5,88,20,244,*4A
$GLGSV,2,2,5,78,07,331,33.6*71
$BDGSV,2,1,8,13,48,202,32.0,06,37,216,31.6,09,37,287,31.7,04,36,126,30.1*5C
$BDGSV,2,2,8,12,10,060,,14,08,165,30.4,02,,,30.9,01,,,30.9*41
$GNRMC,000217.000,A,2959.8662,N,12000.0387,E,75.694,328.98,230721,,,A*72
$GNVTG,328.98,T,,M,75.694,N,140.260,K,A*13
$PMTKGEPH,0,0,0,0,0,0,0,0,0,0,0,0,0,0,0,0,0,0,0,0,0,0,0,0,0,0,0,0,0,0,0,0,0*04
$PMTKGALM,28,1,1,1,1,1,1,1,1,1,1,1,1,1,1,1,1,0,0,0,1,1,1,1,1,1,1,1,1,1,1,1,0*23
$GNACCURACY,2.4,2.2,2.1,22.8*29
$PMTKAGC,000217.000,2809,3018,5971,6080,0,3,0*63
$PMTKAG2,000217.000,5,0118,0,0,0,0,0,0,0,0,0,0,0,0*3D
$GNGGA,000218.000,2959.8849,N,12000.0277,E,1,8,1.17,-4.5,M,7.0,M,,*56
$GPGSA,A,3,,,,,,,,,,,,,1.81,1.17,1.37*08
$GLGSA,A,3,77,87,86,78,,,,,,,,,1.81,1.17,1.37*1A
$BDGSA,A,3,14,06,09,13,,,,,,,,,1.81,1.17,1.37*11
$GPGSV,4,1,14,07,85,110,,25,66,042,,04,51,246,,13,49,032,*7C
$GPGSV,4,2,14,08,48,208,,02,33,299,,23,27,057,,40,20,251,*72
$GPGSV,4,3,14,27,19,219,,16,01,039,,10,01,311,,193,,,*78
$GPGSV,4,4,14,194,,,,195,,,*7D
$GLGSV,2,1,5,87,61,301,33.6,77,56,327,34.2,86,34,025,33.5,88,20,244,*4A
$GLGSV,2,2,5,78,07,331,33.0*77
$BDGSV,2,1,8,13,48,202,32.0,06,37,216,31.5,09,37,287,31.6,04,36,126,30.1*5E
$BDGSV,2,2,8,12,10,060,,14,08,165,30.9,02,,,31.1,01,,,30.9*45
$GNRMC,000218.000,A,2959.8849,N,12000.0277,E,76.022,333.61,230721,,,A*70
$GNVTG,333.61,T,,M,76.022,N,140.869,K,A*14
$PMTKGEPH,0,0,0,0,0,0,0,0,0,0,0,0,0,0,0,0,0,0,0,0,0,0,0,0,0,0,0,0,0,0,0,0,0*04
$PMTKGALM,28,1,1,1,1,1,1,1,1,1,1,1,1,1,1,1,1,0,0,0,1,1,1,1,1,1,1,1,1,1,1,1,0*23
$GNACCURACY,2.4,2.2,2.1,21.6*24
$PMTKAGC,000218.000,2858,2768,6047,6008,0,3,0*66
$PMTKAG2,000218.000,5,0118,0,0,0,0,0,0,0,0,0,0,0,0*32
$GNGGA,000219.000,2959.9044,N,12000.0188,E,1,8,1.17,-4.4,M,7.0,M,,*51
$GPGSA,A,3,,,,,,,,,,,,,1.81,1.17,1.37*08
$GLGSA,A,3,77,87,86,78,,,,,,,,,1.81,1.17,1.37*1A
$BDGSA,A,3,14,06,09,13,,,,,,,,,1.81,1.17,1.37*11
$GPGSV,4,1,14,07,85,110,,25,66,042,,04,51,246,,13,49,032,*7C
$GPGSV,4,2,14,08,48,208,,02,33,299,,23,27,057,,40,20,251,*72
$GPGSV,4,3,14,27,19,219,,16,01,039,,10,01,311,,193,,,*78
$GPGSV,4,4,14,194,,,,195,,,*7D
$GLGSV,2,1,5,87,61,301,33.7,77,56,327,34.2,86,34,025,33.5,88,20,244,*4B
$GLGSV,2,2,5,78,07,331,33.5*72
$BDGSV,2,1,8,13,48,202,32.0,06,37,216,31.5,09,37,287,31.6,04,36,126,30.2*5D
$BDGSV,2,2,8,12,10,060,,14,08,165,29.9,02,,,31.0,01,,,30.9*4C
$GNRMC,000219.000,A,2959.9044,N,12000.0188,E,75.939,338.70,230721,,,A*7D
$GNVTG,338.70,T,,M,75.939,N,140.716,K,A*18
$PMTKGEPH,0,0,0,0,0,0,0,0,0,0,0,0,0,0,0,0,0,0,0,0,0,0,0,0,0,0,0,0,0,0,0,0,0*04
$PMTKGALM,28,1,1,1,1,1,1,1,1,1,1,1,1,1,1,1,1,0,0,0,1,1,1,1,1,1,1,1,1,1,1,1,0*23
$GNACCURACY,2.4,1.8,1.8,21.4*25
$PMTKAGC,000219.000,2861,2801,5929,6090,0,3,0*6E
$PMTKAG2,000219.000,5,0118,0,0,0,0,0,0,0,0,0,0,0,0*33
$GNGGA,000220.000,2959.9245,N,12000.0114,E,1,8,1.17,-4.6,M,7.0,M,,*5F
$GPGSA,A,3,,,,,,,,,,,,,1.81,1.17,1.37*08
$GLGSA,A,3,77,87,86,78,,,,,,,,,1.81,1.17,1.37*1A
$BDGSA,A,3,14,06,09,13,,,,,,,,,1.81,1.17,1.37*11
$GPGSV,4,1,14,07,85,110,,25,66,042,,04,51,246,,13,49,032,*7C
$GPGSV,4,2,14,08,48,208,,02,33,299,,23,27,057,,40,20,251,*72
$GPGSV,4,3,14,27,19,219,,16,01,039,,10,01,311,,193,,,*78
$GPGSV,4,4,14,194,,,,195,,,*7D
$GLGSV,2,1,5,87,61,301,33.6,77,56,327,34.3,86,34,025,33.6,88,20,244,*48
$GLGSV,2,2,5,78,07,331,33.0*77
$BDGSV,2,1,8,13,48,202,32.0,06,37,216,31.6,09,37,287,31.6,04,36,126,30.3*5F
$BDGSV,2,2,8,12,10,060,,14,08,165,30.1,02,,,31.3,01,,,30.9*4F
$GNRMC,000220.000,A,2959.9245,N,12000.0114,E,75.766,343.14,230721,,,A*7B
$GNVTG,343.14,T,,M,75.766,N,140.394,K,A*1C
$PMTKGEPH,0,0,0,0,0,0,0,0,0,0,0,0,0,0,0,0,0,0,0,0,0,0,0,0,0,0,0,0,0,0,0,0,0*04
$PMTKGALM,28,1,1,1,1,1,1,1,1,1,1,1,1,1,1,1,1,0,0,0,1,1,1,1,1,1,1,1,1,1,1,1,0*23
$GNACCURACY,2.4,1.8,1.8,21.5*24
$PMTKAGC,000220.000,2730,2741,6089,5972,0,3,0*62
$PMTKAG2,000220.000,5,0118,0,0,0,0,0,0,0,0,0,0,0,0*39
$GNGGA,000221.000,2959.9451,N,12000.0057,E,1,8,1.17,-5.0,M,7.0,M,,*5C
$GPGSA,A,3,,,,,,,,,,,,,1.81,1.17,1.37*08
$GLGSA,A,3,77,87,86,78,,,,,,,,,1.81,1.17,1.37*1A
$BDGSA,A,3,14,06,09,13,,,,,,,,,1.81,1.17,1.37*11
$GPGSV,4,1,14,07,85,110,,25,66,042,,04,51,246,,13,49,032,*7C
$GPGSV,4,2,14,08,48,208,,02,33,299,,23,27,057,,40,20,251,*72
$GPGSV,4,3,14,27,19,219,,16,01,039,,10,01,311,,193,,,*78
$GPGSV,4,4,14,194,,,,195,,,*7D
$GLGSV,2,1,5,87,61,301,33.7,77,56,327,34.2,86,34,025,33.6,88,20,244,*48
$GLGSV,2,2,5,78,07,331,32.9*7F
$BDGSV,2,1,8,13,48,202,32.0,06,37,216,31.6,09,37,287,31.6,04,36,126,30.3*5F
$BDGSV,2,2,8,12,10,060,,14,08,165,30.3,02,,,31.1,01,,,30.9*4F
$GNRMC,000221.000,A,2959.9451,N,12000.0057,E,75.866,347.26,230721,,,A*75
$GNVTG,347.26,T,,M,75.866,N,140.580,K,A*15
$PMTKGEPH,0,0,0,0,0,0,0,0,0,0,0,0,0,0,0,0,0,0,0,0,0,0,0,0,0,0,0,0,0,0,0,0,0*04
$PMTKGALM,28,1,1,1,1,1,1,1,1,1,1,1,1,1,1,1,1,0,0,0,1,1,1,1,1,1,1,1,1,1,1,1,0*23
$GNACCURACY,2.4,2.2,2.1,20.5*26
$PMTKAGC,000221.000,2856,2792,5871,6089,0,3,0*60
$PMTKAG2,000221.000,5,0118,0,0,0,0,0,0,0,0,0,0,0,0*38
$GNGGA,000222.000,2959.9661,N,12000.0017,E,1,8,1.17,-5.2,M,7.0,M,,*58
$GPGSA,A,3,,,,,,,,,,,,,1.81,1.17,1.37*08
$GLGSA,A,3,77,87,86,78,,,,,,,,,1.81,1.17,1.37*1A
$BDGSA,A,3,14,06,09,13,,,,,,,,,1.81,1.17,1.37*11
$GPGSV,4,1,14,07,85,110,,25,66,042,,04,51,246,,13,49,032,*7C
$GPGSV,4,2,14,08,48,208,,02,33,299,,23,27,057,,39,20,251,*7C
$GPGSV,4,3,14,27,19,219,,16,01,039,,10,01,311,,193,,,*78
$GPGSV,4,4,14,194,,,,195,,,*7D
$GLGSV,2,1,5,87,61,301,33.8,77,56,327,34.3,86,34,025,33.6,88,20,244,*46
$GLGSV,2,2,5,78,07,331,33.1*76
$BDGSV,2,1,8,13,48,202,32.0,06,37,216,31.6,09,37,287,31.6,04,36,126,30.3*5F
$BDGSV,2,2,8,12,10,060,,14,08,165,30.5,02,,,31.1,01,,,30.9*49
$GNRMC,000222.000,A,2959.9661,N,12000.0017,E,76.023,351.56,230721,,,A*79
$GNVTG,351.56,T,,M,76.023,N,140.871,K,A*1C
$PMTKGEPH,0,0,0,0,0,0,0,0,0,0,0,0,0,0,0,0,0,0,0,0,0,0,0,0,0,0,0,0,0,0,0,0,0*04
$PMTKGALM,28,1,1,1,1,1,1,1,1,1,1,1,1,1,1,1,1,0,0,0,1,1,1,1,1,1,1,1,1,1,1,1,0*23
$GNACCURACY,2.4,2.2,2.0,21.5*26
$PMTKAGC,000222.000,2942,2945,5941,5911,0,3,0*6A
$PMTKAG2,000222.000,5,0118,0,0,0,0,0,0,0,0,0,0,0,0*3B
$GNGGA,000223.000,2959.9871,N,11959.9997,E,1,8,1.17,-5.0,M,7.0,M,,*5A
$GPGSA,A,3,,,,,,,,,,,,,1.81,1.17,1.37*08
$GLGSA,A,3,77,87,86,78,,,,,,,,,1.81,1.17,1.37*1A
$BDGSA,A,3,14,06,09,13,,,,,,,,,1.81,1.17,1.37*11
$GPGSV,4,1,14,07,85,110,,25,66,042,,04,51,246,,13,49,032,*7C
$GPGSV,4,2,14,08,48,208,,02,33,299,,23,27,057,,39,20,251,*7C
$GPGSV,4,3,14,27,19,219,,16,01,039,,10,01,311,,193,,,*78
$GPGSV,4,4,14,194,,,,195,,,*7D
$GLGSV,2,1,5,87,61,301,33.8,77,56,327,34.3,86,34,025,33.6,88,20,244,*46
$GLGSV,2,2,5,78,07,331,33.2*75
$BDGSV,2,1,8,13,48,202,32.0,06,37,216,31.5,09,37,287,31.6,04,36,126,30.3*5C
$BDGSV,2,2,8,12,10,060,,14,08,165,30.7,02,,,31.1,01,,,30.9*4B
$GNRMC,000223.000,A,2959.9871,N,11959.9997,E,75.805,356.04,230721,,,A*76
$GNVTG,356.04,T,,M,75.805,N,140.466,K,A*19
$PMTKGEPH,0,0,0,0,0,0,0,0,0,0,0,0,0,0,0,0,0,0,0,0,0,0,0,0,0,0,0,0,0,0,0,0,0*04
$PMTKGALM,28,1,1,1,1,1,1,1,1,1,1,1,1,1,1,1,1,0,0,0,1,1,1,1,1,1,1,1,1,1,1,1,0*23
$GNACCURACY,2.3,2.2,2.0,20.6*23
$PMTKAGC,000223.000,2739,2906,6033,5954,0,3,0*60
$PMTKAG2,000223.000,5,0118,0,0,0,0,0,0,0,0,0,0,0,0*3A
$GNGGA,000224.000,3000.0083,N,11959.9994,E,1,8,1.17,-5.0,M,7.0,M,,*56
$GPGSA,A,3,,,,,,,,,,,,,1.81,1.17,1.37*08
$GLGSA,A,3,77,87,86,78,,,,,,,,,1.81,1.17,1.37*1A
$BDGSA,A,3,14,06,09,13,,,,,,,,,1.81,1.17,1.37*11
$GPGSV,4,1,14,07,85,110,,25,66,042,,04,51,246,,13,49,032,*7C
$GPGSV,4,2,14,08,48,208,,02,33,299,,23,27,057,,39,20,251,*7C
$GPGSV,4,3,14,27,19,219,,16,01,039,,10,01,311,,193,,,*78
$GPGSV,4,4,14,194,,,,195,,,*7D
$GLGSV,2,1,5,87,61,301,33.9,77,56,327,34.3,86,34,025,33.6,88,20,244,*47
$GLGSV,2,2,5,78,07,331,32.6*70
$BDGSV,2,1,8,13,48,202,32.0,06,37,216,31.5,09,37,287,31.7,04,36,126,30.2*5C
$BDGSV,2,2,8,12,10,060,,14,08,165,30.5,02,,,31.0,01,,,30.9*48
$GNRMC,000224.000,A,3000.0083,N,11959.9994,E,75.900,0.28,230721,,,A*70
$GNVTG,0.28,T,,M,75.900,N,140.642,K,A*17
$PMTKGEPH,0,0,0,0,0,0,0,0,0,0,0,0,0,0,0,0,0,0,0,0,0,0,0,0,0,0,0,0,0,0,0,0,0*04
$PMTKGALM,28,1,1,1,1,1,1,1,1,1,1,1,1,1,1,1,1,0,0,0,1,1,1,1,1,1,1,1,1,1,1,1,0*23
$GNACCURACY,2.3,2.3,2.0,20.6*22
$PMTKAGC,000224.000,2759,2859,5968,5936,0,3,0*6A
$PMTKAG2,000224.000,5,0118,0,0,0,0,0,0,0,0,0,0,0,0*3D
$GNGGA,000225.000,3000.0294,N,12000.0012,E,1,8,1.15,-5.1,M,7.0,M,,*58
$GPGSA,A,3,,,,,,,,,,,,,1.41,1.15,0.81*0A
$GLGSA,A,3,77,87,86,78,,,,,,,,,1.41,1.15,0.81*18
$BDGSA,A,3,14,06,09,13,,,,,,,,,1.41,1.15,0.81*13
$GPGSV,4,1,14,07,85,110,,25,66,042,,04,51,246,,13,49,032,*7C
$GPGSV,4,2,14,08,48,208,,02,33,299,,23,27,057,,39,20,251,*7C
$GPGSV,4,3,14,27,19,219,,16,01,039,,10,01,311,,193,,,*78
$GPGSV,4,4,14,194,,,,195,,,*7D
$GLGSV,2,1,5,87,61,301,33.9,77,56,327,34.3,86,34,025,33.6,88,20,244,*47
$GLGSV,2,2,5,78,07,331,32.3*75
$BDGSV,2,1,8,13,48,202,32.0,06,37,216,31.5,09,37,287,31.7,04,36,126,30.2*5C
$BDGSV,2,2,8,12,10,060,,14,08,165,30.9,02,,,31.0,01,,,30.9*44
$GNRMC,000225.000,A,3000.0294,N,12000.0012,E,75.788,4.63,230721,,,A*78
$GNVTG,4.63,T,,M,75.788,N,140.435,K,A*10
$PMTKGEPH,0,0,0,0,0,0,0,0,0,0,0,0,0,0,0,0,0,0,0,0,0,0,0,0,0,0,0,0,0,0,0,0,0*04
$PMTKGALM,28,1,1,1,1,1,1,1,1,1,1,1,1,1,1,1,1,0,0,0,1,1,1,1,1,1,1,1,1,1,1,1,0*23
$GNACCURACY,2.3,2.3,2.0,20.4*20
$PMTKAGC,000225.000,2881,2985,5940,6036,0,3,0*61
$PMTKAG2,000225.000,5,0118,0,0,0,0,0,0,0,0,0,0,0,0*3C
$GNGGA,000226.000,3000.0502,N,12000.0049,E,1,7,1.51,-4.9,M,7.0,M,,*5B
$GPGSA,A,3,,,,,,,,,,,,,2.93,1.51,2.51*09
$GLGSA,A,3,77,87,86,,,,,,,,,,2.93,1.51,2.51*14
$BDGSA,A,3,14,06,09,13,,,,,,,,,2.93,1.51,2.51*10
$GPGSV,4,1,14,07,85,110,,25,66,042,,04,51,246,,13,49,032,*7C
$GPGSV,4,2,14,08,48,208,,02,33,299,,23,27,058,,39,20,251,*73
$GPGSV,4,3,14,27,19,219,,16,01,039,,10,01,311,,193,,,*78
$GPGSV,4,4,14,194,,,,195,,,*7D
$GLGSV,2,1,5,87,61,301,33.9,77,56,327,34.3,86,34,025,33.6,88,20,244,*47
$GLGSV,2,2,5,78,07,331,31.0*75
$BDGSV,2,1,8,13,48,202,32.0,06,37,216,31.5,09,37,287,31.7,04,36,126,30.2*5C
$BDGSV,2,2,8,12,10,060,,14,08,165,31.0,02,,,31.0,01,,,31.0*44
$GNRMC,000226.000,A,3000.0502,N,12000.0049,E,75.675,9.47,230721,,,A*75
$GNVTG,9.47,T,,M,75.675,N,140.226,K,A*1C
$PMTKGEPH,0,0,0,0,0,0,0,0,0,0,0,0,0,0,0,0,0,0,0,0,0,0,0,0,0,0,0,0,0,0,0,0,0*04
$PMTKGALM,28,1,1,1,1,1,1,1,1,1,1,1,1,1,1,1,1,0,0,0,1,1,1,1,1,1,1,1,1,1,1,1,0*23
$GNACCURACY,2.3,1.9,1.8,21.2*25
$PMTKAGC,000226.000,2812,2937,5914,6107,0,3,0*63
$PMTKAG2,000226.000,5,0119,0,0,0,0,0,0,0,0,0,0,0,0*3E
$GNGGA,000227.000,3000.0707,N,12000.0102,E,1,7,1.51,-4.9,M,7.0,M,,*53
$GPGSA,A,3,,,,,,,,,,,,,2.93,1.51,2.51*09
$GLGSA,A,3,77,87,86,,,,,,,,,,2.93,1.51,2.51*14
$BDGSA,A,3,14,06,09,13,,,,,,,,,2.93,1.51,2.51*10
$GPGSV,4,1,14,07,85,110,,25,66,042,,04,51,246,,13,49,032,*7C
$GPGSV,4,2,14,08,48,208,,02,33,299,,23,27,058,,39,20,251,*73
$GPGSV,4,3,14,27,19,219,,16,01,039,,10,01,311,,193,,,*78
$GPGSV,4,4,14,194,,,,195,,,*7D
$GLGSV,2,1,5,87,61,301,34.0,77,56,327,34.2,86,34,025,33.6,88,20,244,*48
$GLGSV,2,2,5,78,07,331,11.1*76
$BDGSV,2,1,8,13,48,202,32.1,06,37,216,31.5,09,37,287,31.7,04,36,126,30.2*5D
$BDGSV,2,2,8,12,10,060,,14,08,165,30.8,02,,,31.0,01,,,30.9*45
$GNRMC,000227.000,A,3000.0707,N,12000.0102,E,75.453,14.22,230721,,,A*44
$GNVTG,14.22,T,,M,75.453,N,139.814,K,A*20
$PMTKGEPH,0,0,0,0,0,0,0,0,0,0,0,0,0,0,0,0,0,0,0,0,0,0,0,0,0,0,0,0,0,0,0,0,0*04
$PMTKGALM,28,1,1,1,1,1,1,1,1,1,1,1,1,1,1,1,1,0,0,0,1,1,1,1,1,1,1,1,1,1,1,1,0*23
$GNACCURACY,2.3,1.9,1.9,21.3*25
$PMTKAGC,000227.000,2815,2638,5948,6009,0,3,0*63
$PMTKAG2,000227.000,5,0119,0,0,0,0,0,0,0,0,0,0,0,0*3F
$GNGGA,000228.000,3000.0908,N,12000.0173,E,1,7,1.51,-4.9,M,7.0,M,,*5B
$GPGSA,A,3,,,,,,,,,,,,,2.93,1.51,2.51*09
$GLGSA,A,3,77,87,86,,,,,,,,,,2.93,1.51,2.51*14
$BDGSA,A,3,14,06,09,13,,,,,,,,,2.93,1.51,2.51*10
$GPGSV,4,1,14,07,85,110,,25,66,042,,04,51,246,,13,49,032,*7C
$GPGSV,4,2,14,08,48,208,,02,33,299,,23,27,058,,39,20,251,*73
$GPGSV,4,3,14,27,19,219,,16,01,039,,10,01,311,,193,,,*78
$GPGSV,4,4,14,194,,,,195,,,*7D
$GLGSV,2,1,5,87,61,301,34.0,77,56,327,34.3,86,34,025,33.6,88,20,244,*49
$GLGSV,2,2,5,78,07,331,11.1*76
$BDGSV,2,1,8,13,48,202,32.1,06,37,216,31.5,09,37,287,31.8,04,36,126,30.3*53
$BDGSV,2,2,8,12,10,060,,14,08,165,30.5,02,,,31.0,01,,,30.9*48
$GNRMC,000228.000,A,3000.0908,N,12000.0173,E,75.649,18.37,230721,,,A*4D
$GNVTG,18.37,T,,M,75.649,N,140.177,K,A*23
$PMTKGEPH,0,0,0,0,0,0,0,0,0,0,0,0,0,0,0,0,0,0,0,0,0,0,0,0,0,0,0,0,0,0,0,0,0*04
$PMTKGALM,28,1,1,1,1,1,1,1,1,1,1,1,1,1,1,1,1,0,0,0,1,1,1,1,1,1,1,1,1,1,1,1,0*23
$GNACCURACY,2.3,1.9,1.9,22.1*24
$PMTKAGC,000228.000,2839,2943,6123,6056,0,3,0*6D
$PMTKAG2,000228.000,5,0119,0,0,0,0,0,0,0,0,0,0,0,0*30
$GNGGA,000229.000,3000.1104,N,12000.0259,E,1,8,1.17,-5.7,M,7.0,M,,*56
$GPGSA,A,3,,,,,,,,,,,,,1.81,1.17,1.37*08
$GLGSA,A,3,77,87,86,78,,,,,,,,,1.81,1.17,1.37*1A
$BDGSA,A,3,14,06,09,13,,,,,,,,,1.81,1.17,1.37*11
$GPGSV,4,1,14,07,85,110,,25,66,042,,04,51,246,,13,49,032,*7C
$GPGSV,4,2,14,08,48,208,,02,33,299,,23,27,058,,39,20,251,*73
$GPGSV,4,3,14,27,19,219,,16,01,039,,10,01,311,,193,,,*78
$GPGSV,4,4,14,194,,,,195,,,*7D
$GLGSV,2,1,5,87,61,301,34.0,77,56,327,34.3,86,34,025,33.6,88,20,244,*49
$GLGSV,2,2,5,78,07,331,11.1*76
$BDGSV,2,1,8,13,48,202,32.0,06,37,216,31.4,09,37,287,31.8,04,36,126,30.4*54
$BDGSV,2,2,8,12,10,060,,14,08,165,29.6,02,,,31.0,01,,,31.0*4B
$GNRMC,000229.000,A,3000.1104,N,12000.0259,E,75.420,22.83,230721,,,A*49
$GNVTG,22.83,T,,M,75.420,N,139.754,K,A*21
$PMTKGEPH,0,0,0,0,0,0,0,0,0,0,0,0,0,0,0,0,0,0,0,0,0,0,0,0,0,0,0,0,0,0,0,0,0*04
$PMTKGALM,28,1,1,1,1,1,1,1,1,1,1,1,1,1,1,1,1,0,0,0,1,1,1,1,1,1,1,1,1,1,1,1,0*23
$GNACCURACY,2.3,2.0,2.0,23.7*23
$PMTKAGC,000229.000,2932,2756,6035,6044,0,3,0*69
$PMTKAG2,000229.000,5,0118,0,0,0,0,0,0,0,0,0,0,0,0*30
$GNGGA,000230.000,3000.1292,N,12000.0366,E,1,7,1.51,-5.6,M,7.0,M,,*53
$GPGSA,A,3,,,,,,,,,,,,,2.93,1.51,2.51*09
$GLGSA,A,3,77,87,86,,,,,,,,,,2.93,1.51,2.51*14
$BDGSA,A,3,14,06,09,13,,,,,,,,,2.93,1.51,2.51*10
$GPGSV,4,1,14,07,85,110,,25,66,042,,04,51,246,,13,49,032,*7C
$GPGSV,4,2,14,08,48,208,,02,33,299,,23,27,058,,39,20,251,*73
$GPGSV,4,3,14,27,19,219,,16,01,039,,10,01,311,,193,,,*78
$GPGSV,4,4,14,194,,,,195,,,*7D
$GLGSV,2,1,5,87,61,301,34.0,77,56,327,34.3,86,34,025,33.7,88,20,244,*48
$GLGSV,2,2,5,78,07,331,*69
$BDGSV,2,1,8,13,48,202,32.1,06,37,216,31.4,09,37,287,31.8,04,36,126,30.4*55
$BDGSV,2,2,8,12,10,060,,14,08,165,11.6,02,,,31.0,01,,,30.9*48
$GNRMC,000230.000,A,3000.1292,N,12000.0366,E,75.431,27.20,230721,,,A*4C
$GNVTG,27.20,T,,M,75.431,N,139.774,K,A*2F
$PMTKGEPH,0,0,0,0,0,0,0,0,0,0,0,0,0,0,0,0,0,0,0,0,0,0,0,0,0,0,0,0,0,0,0,0,0*04
$PMTKGALM,28,1,1,1,1,1,1,1,1,1,1,1,1,1,1,1,1,0,0,0,1,1,1,1,1,1,1,1,1,1,1,1,0*23
$GNACCURACY,2.3,2.0,2.1,25.5*26
$PMTKAGC,000230.000,2770,2805,6044,5921,0,3,0*6F
$PMTKAG2,000230.000,5,0118,0,0,0,0,0,0,0,0,0,0,0,0*38
$GNGGA,000231.000,3000.1473,N,12000.0489,E,1,7,1.51,-5.0,M,7.0,M,,*5B
$GPGSA,A,3,,,,,,,,,,,,,2.93,1.51,2.51*09
$GLGSA,A,3,77,87,86,,,,,,,,,,2.93,1.51,2.51*14
$BDGSA,A,3,14,06,09,13,,,,,,,,,2.93,1.51,2.51*10
$GPGSV,4,1,14,07,85,110,,25,66,042,,04,51,246,,13,49,032,*7C
$GPGSV,4,2,14,08,48,208,,02,33,299,,23,27,058,,39,20,251,*73
$GPGSV,4,3,14,27,19,219,,16,01,039,,10,01,311,,193,,,*78
$GPGSV,4,4,14,194,,,,195,,,*7D
$GLGSV,2,1,5,87,61,301,34.0,77,56,327,34.3,86,34,025,33.7,88,20,244,*48
$GLGSV,2,2,5,78,07,331,*69
$BDGSV,2,1,8,13,48,202,32.1,06,37,216,31.4,09,37,287,31.9,04,36,126,30.5*55
$BDGSV,2,2,8,12,10,060,,14,08,165,11.6,02,,,31.0,01,,,30.9*48
$GNRMC,000231.000,A,3000.1473,N,12000.0489,E,75.417,31.81,230721,,,A*4A
$GNVTG,31.81,T,,M,75.417,N,139.747,K,A*27
$PMTKGEPH,0,0,0,0,0,0,0,0,0,0,0,0,0,0,0,0,0,0,0,0,0,0,0,0,0,0,0,0,0,0,0,0,0*04
$PMTKGALM,28,1,1,1,1,1,1,1,1,1,1,1,1,1,1,1,1,0,0,0,1,1,1,1,1,1,1,1,1,1,1,1,0*23
$GNACCURACY,2.3,1.8,2.0,25.8*21
$PMTKAGC,000231.000,2929,2730,6004,5999,0,3,0*62
$PMTKAG2,000231.000,5,0118,0,0,0,0,0,0,0,0,0,0,0,0*39
$GNGGA,000232.000,3000.1647,N,12000.0631,E,1,9,1.09,-4.0,M,7.0,M,,*5E
$GPGSA,A,3,,,,,,,,,,,,,2.07,1.09,1.77*0E
$GLGSA,A,3,77,87,86,88,,,,,,,,,2.07,1.09,1.77*13
$BDGSA,A,3,12,14,06,09,13,,,,,,,,2.07,1.09,1.77*14
$GPGSV,4,1,14,07,85,110,,25,66,042,,04,51,246,,13,49,032,*7C
$GPGSV,4,2,14,08,48,208,,02,33,299,,23,27,058,,39,20,251,*73
$GPGSV,4,3,14,27,19,219,,16,01,039,,10,01,311,,193,,,*78
$GPGSV,4,4,14,194,,,,195,,,*7D
$GLGSV,2,1,5,87,61,301,33.9,77,56,327,34.3,86,34,025,33.7,88,20,244,34.6*59
$GLGSV,2,2,5,78,07,331,*69
$BDGSV,2,1,8,13,48,202,32.1,06,37,216,31.4,09,37,287,31.9,04,36,126,30.5*55
$BDGSV,2,2,8,12,10,060,30.2,14,08,165,11.6,02,,,31.0,01,,,30.9*57
$GNRMC,000232.000,A,3000.1647,N,12000.0631,E,75.337,36.08,230721,,,A*4E
$GNVTG,36.08,T,,M,75.337,N,139.600,K,A*26
$PMTKGEPH,0,0,0,0,0,0,0,0,0,0,0,0,0,0,0,0,0,0,0,0,0,0,0,0,0,0,0,0,0,0,0,0,0*04
$PMTKGALM,28,1,1,1,1,1,1,1,1,1,1,1,1,1,1,1,1,0,0,0,1,1,1,1,1,1,1,1,1,1,1,1,0*23
$GNACCURACY,2.2,1.8,2.0,25.3*2B
$PMTKAGC,000232.000,2714,2848,6114,5990,0,3,0*68
$PMTKAG2,000232.000,5,0118,0,0,0,0,0,0,0,0,0,0,0,0*3A
$GNGGA,000233.000,3000.1811,N,12000.0786,E,1,9,1.09,-3.8,M,7.0,M,,*50
$GPGSA,A,3,,,,,,,,,,,,,2.08,1.09,1.77*01
$GLGSA,A,3,77,87,86,88,,,,,,,,,2.08,1.09,1.77*1C
$BDGSA,A,3,12,14,06,09,13,,,,,,,,2.08,1.09,1.77*1B
$GPGSV,4,1,14,07,85,110,,25,66,042,,04,51,246,,13,49,032,*7C
$GPGSV,4,2,14,08,48,208,,02,33,299,,23,27,058,,39,20,251,*73
$GPGSV,4,3,14,27,19,219,,16,01,039,,10,01,311,,193,,,*78
$GPGSV,4,4,14,194,,,,195,,,*7D
$GLGSV,2,1,5,87,61,301,34.0,77,56,327,34.3,86,34,025,33.7,88,20,244,31.1*55
$GLGSV,2,2,5,78,07,331,*69
$BDGSV,2,1,8,13,48,202,32.0,06,37,216,31.4,09,37,287,31.9,04,36,126,30.5*54
$BDGSV,2,2,8,12,10,060,31.9,14,08,165,11.4,02,,,31.0,01,,,30.8*5E
$GNRMC,000233.000,A,3000.1811,N,12000.0786,E,75.409,40.13,230721,,,A*4E
$GNVTG,40.13,T,,M,75.409,N,139.734,K,A*21
$PMTKGEPH,0,0,0,0,0,0,0,0,0,0,0,0,0,0,0,0,0,0,0,0,0,0,0,0,0,0,0,0,0,0,0,0,0*04
$PMTKGALM,28,1,1,1,1,1,1,1,1,1,1,1,1,1,1,1,1,0,0,0,1,1,1,1,1,1,1,1,1,1,1,1,0*23
$GNACCURACY,2.2,1.9,2.1,24.7*2E
$PMTKAGC,000233.000,2842,2779,5961,6007,0,3,0*65
$PMTKAG2,000233.000,5,0118,0,0,0,0,0,0,0,0,0,0,0,0*3B
$GNGGA,000234.000,3000.1965,N,12000.0955,E,1,9,1.09,-3.6,M,7.0,M,,*5B
$GPGSA,A,3,,,,,,,,,,,,,2.08,1.09,1.77*01
$GLGSA,A,3,77,87,86,88,,,,,,,,,2.08,1.09,1.77*1C
$BDGSA,A,3,12,14,06,09,13,,,,,,,,2.08,1.09,1.77*1B
$GPGSV,4,1,14,07,85,110,,25,66,042,,04,51,246,,13,49,032,*7C
$GPGSV,4,2,14,08,48,208,,02,33,299,,23,27,058,,39,20,251,*73
$GPGSV,4,3,14,27,19,219,,16,01,039,,10,01,311,,193,,,*78
$GPGSV,4,4,14,194,,,,195,,,*7D
$GLGSV,2,1,5,87,61,301,34.1,77,56,327,34.4,86,34,025,33.7,88,20,244,32.2*53
$GLGSV,2,2,5,78,07,331,*69
$BDGSV,2,1,8,13,48,202,32.1,06,37,216,31.4,09,37,287,31.9,04,36,126,30.6*56
$BDGSV,2,2,8,12,10,060,31.2,14,08,165,11.4,02,,,30.9,01,,,30.8*5D
$GNRMC,000234.000,A,3000.1965,N,12000.0955,E,75.482,44.59,230721,,,A*42
$GNVTG,44.59,T,,M,75.482,N,139.868,K,A*2E
$PMTKGEPH,0,0,0,0,0,0,0,0,0,0,0,0,0,0,0,0,0,0,0,0,0,0,0,0,0,0,0,0,0,0,0,0,0*04
$PMTKGALM,28,1,1,1,1,1,1,1,1,1,1,1,1,1,1,1,1,0,0,0,1,1,1,1,1,1,1,1,1,1,1,1,0*23
$GNACCURACY,2.2,2.0,2.2,24.8*28
$PMTKAGC,000234.000,2670,2858,6043,5945,0,3,0*67
$PMTKAG2,000234.000,5,0118,0,0,0,0,0,0,0,0,0,0,0,0*3C
$GNGGA,000235.000,3000.2106,N,12000.1138,E,1,9,1.09,-3.1,M,7.0,M,,*51
$GPGSA,A,3,,,,,,,,,,,,,2.08,1.09,1.77*01
$GLGSA,A,3,77,87,86,88,,,,,,,,,2.08,1.09,1.77*1C
$BDGSA,A,3,12,14,06,09,13,,,,,,,,2.08,1.09,1.77*1B
$GPGSV,4,1,14,07,85,110,,25,66,042,,04,51,246,,13,49,032,*7C
$GPGSV,4,2,14,08,48,208,,02,33,299,,23,27,058,,39,20,251,*73
$GPGSV,4,3,14,27,19,219,,16,01,039,,10,01,311,,193,,,*78
$GPGSV,4,4,14,194,,,,195,,,*7D
$GLGSV,2,1,5,87,61,301,34.1,77,56,327,34.4,86,34,025,33.8,88,20,244,33.0*5F
$GLGSV,2,2,5,78,07,331,*69
$BDGSV,2,1,8,13,48,202,32.1,06,37,216,31.4,09,37,287,31.8,04,36,126,30.6*57
$BDGSV,2,2,8,12,10,060,30.5,14,08,165,10.3,02,,,31.0,01,,,30.8*55
$GNRMC,000235.000,A,3000.2106,N,12000.1138,E,75.257,48.89,230721,,,A*40
$GNVTG,48.89,T,,M,75.257,N,139.451,K,A*27
$PMTKGEPH,0,0,0,0,0,0,0,0,0,0,0,0,0,0,0,0,0,0,0,0,0,0,0,0,0,0,0,0,0,0,0,0,0*04
$PMTKGALM,28,1,1,1,1,1,1,1,1,1,1,1,1,1,1,1,1,0,0,0,1,1,1,1,1,1,1,1,1,1,1,1,0*23
$GNACCURACY,2.2,2.1,2.3,25.8*29
$PMTKAGC,000235.000,2795,2632,5849,5885,0,3,0*62
$PMTKAG2,000235.000,5,0118,0,0,0,0,0,0,0,0,0,0,0,0*3D
$GNGGA,000236.000,3000.2234,N,12000.1332,E,1,9,1.09,-3.0,M,7.0,M,,*59
$GPGSA,A,3,,,,,,,,,,,,,2.08,1.09,1.77*01
$GLGSA,A,3,77,87,86,88,,,,,,,,,2.08,1.09,1.77*1C
$BDGSA,A,3,12,14,06,09,13,,,,,,,,2.08,1.09,1.77*1B
$GPGSV,4,1,14,07,85,110,,25,66,042,,04,51,246,,13,49,032,*7C
$GPGSV,4,2,14,08,48,208,,02,33,299,,23,27,058,,39,20,251,*73
$GPGSV,4,3,14,27,19,219,,16,01,039,,10,01,311,,193,,,*78
$GPGSV,4,4,14,194,,,,195,,,*7D
$GLGSV,2,1,5,87,61,301,34.1,77,56,327,34.4,86,34,025,33.8,88,20,244,33.3*5C
$GLGSV,2,2,5,78,07,331,*69
$BDGSV,2,1,8,13,48,202,32.2,06,37,216,31.4,09,37,287,31.8,04,36,126,30.5*57
$BDGSV,2,2,8,12,10,060,31.7,14,08,165,10.3,02,,,30.9,01,,,30.8*5E
$GNRMC,000236.000,A,3000.2234,N,12000.1332,E,75.293,53.57,230721,,,A*48
$GNVTG,53.57,T,,M,75.293,N,139.518,K,A*2A
$PMTKGEPH,0,0,0,0,0,0,0,0,0,0,0,0,0,0,0,0,0,0,0,0,0,0,0,0,0,0,0,0,0,0,0,0,0*04
$PMTKGALM,28,1,1,1,1,1,1,1,1,1,1,1,1,1,1,1,1,0,0,0,1,1,1,1,1,1,1,1,1,1,1,1,0*23
$GNACCURACY,2.2,2.0,2.1,25.1*23
$PMTKAGC,000236.000,2804,2774,5850,5825,0,3,0*67
$PMTKAG2,000236.000,5,0118,0,0,0,0,0,0,0,0,0,0,0,0*3E
$GNGGA,000237.000,3000.2349,N,12000.1536,E,1,9,1.09,-3.4,M,7.0,M,,*55
$GPGSA,A,3,,,,,,,,,,,,,2.07,1.09,1.77*0E
$GLGSA,A,3,77,87,86,88,,,,,,,,,2.07,1.09,1.77*13
$BDGSA,A,3,12,14,06,09,13,,,,,,,,2.07,1.09,1.77*14
$GPGSV,4,1,14,07,85,110,,25,66,042,,04,51,246,,13,49,032,*7C
$GPGSV,4,2,14,08,48,208,,02,33,299,,23,27,058,,39,20,251,*73
$GPGSV,4,3,14,27,19,219,,16,01,039,,10,01,311,,193,,,*78
$GPGSV,4,4,14,194,,,,195,,,*7D
$GLGSV,2,1,5,87,61,301,34.1,77,56,327,34.4,86,34,025,33.8,88,20,244,33.4*5B
$GLGSV,2,2,5,78,07,331,*69
$BDGSV,2,1,8,13,48,202,32.2,06,37,216,31.4,09,37,287,31.8,04,36,126,30.6*54
$BDGSV,2,2,8,12,10,060,31.5,14,08,165,10.3,02,,,30.9,01,,,30.8*5C
$GNRMC,000237.000,A,3000.2349,N,12000.1536,E,75.275,57.93,230721,,,A*44
$GNVTG,57.93,T,,M,75.275,N,139.485,K,A*2B
$PMTKGEPH,0,0,0,0,0,0,0,0,0,0,0,0,0,0,0,0,0,0,0,0,0,0,0,0,0,0,0,0,0,0,0,0,0*04
$PMTKGALM,28,1,1,1,1,1,1,1,1,1,1,1,1,1,1,1,1,0,0,0,1,1,1,1,1,1,1,1,1,1,1,1,0*23
$GNACCURACY,2.2,2.0,2.1,26.0*21
$PMTKAGC,000237.000,2815,2625,6045,5950,0,3,0*6F
$PMTKAG2,000237.000,5,0118,0,0,0,0,0,0,0,0,0,0,0,0*3F
$GNGGA,000238.000,3000.2450,N,12000.1749,E,1,8,1.24,-4.1,M,7.0,M,,*53
$GPGSA,A,3,,,,,,,,,,,,,2.21,1.24,1.83*0E
$GLGSA,A,3,77,87,86,88,,,,,,,,,2.21,1.24,1.83*13
$BDGSA,A,3,12,06,09,13,,,,,,,,,2.21,1.24,1.83*11
$GPGSV,4,1,14,07,85,110,,25,66,042,,04,51,246,,13,49,032,*7C
$GPGSV,4,2,14,08,48,208,,02,33,299,,23,27,058,,39,20,251,*73
$GPGSV,4,3,14,27,19,219,,16,01,039,,10,01,311,,193,,,*78
$GPGSV,4,4,14,194,,,,195,,,*7D
$GLGSV,2,1,5,87,61,301,34.2,77,56,327,34.4,86,34,025,33.8,88,20,244,33.0*5C
$GLGSV,2,2,5,78,07,331,*69
$BDGSV,2,1,8,13,48,202,32.2,06,37,216,31.5,09,37,287,31.8,04,36,126,30.7*54
$BDGSV,2,2,8,12,10,060,31.1,14,08,165,7.4,02,,,30.9,01,,,30.8*69
$GNRMC,000238.000,A,3000.2450,N,12000.1749,E,75.247,62.51,230721,,,A*47
$GNVTG,62.51,T,,M,75.247,N,139.432,K,A*2E
$PMTKGEPH,0,0,0,0,0,0,0,0,0,0,0,0,0,0,0,0,0,0,0,0,0,0,0,0,0,0,0,0,0,0,0,0,0*04
$PMTKGALM,28,1,1,1,1,1,1,1,1,1,1,1,1,1,1,1,1,0,0,0,1,1,1,1,1,1,1,1,1,1,1,1,0*23
$GNACCURACY,2.2,1.9,2.0,25.5*2C
$PMTKAGC,000238.000,2750,2781,6055,5919,0,3,0*6D
$PMTKAG2,000238.000,5,0118,0,0,0,0,0,0,0,0,0,0,0,0*30
$GNGGA,000239.000,3000.2534,N,12000.1972,E,1,8,1.24,-4.3,M,7.0,M,,*55
$GPGSA,A,3,,,,,,,,,,,,,2.21,1.24,1.83*0E
$GLGSA,A,3,77,87,86,88,,,,,,,,,2.21,1.24,1.83*13
$BDGSA,A,3,12,06,09,13,,,,,,,,,2.21,1.24,1.83*11
$GPGSV,4,1,14,07,85,110,,25,66,042,,04,51,246,,13,49,032,*7C
$GPGSV,4,2,14,08,48,208,,02,33,299,,23,27,058,,39,20,251,*73
$GPGSV,4,3,14,27,19,219,,16,01,039,,10,01,311,,193,,,*78
$GPGSV,4,4,14,194,,,,195,,,*7D
$GLGSV,2,1,5,87,61,301,34.1,77,56,327,34.5,86,34,025,33.7,88,20,244,32.5*55
$GLGSV,2,2,5,78,07,331,*69
$BDGSV,2,1,8,13,48,202,32.1,06,37,216,31.5,09,37,287,31.8,04,36,126,30.6*56
$BDGSV,2,2,8,12,10,060,31.3,14,08,165,7.4,02,,,30.9,01,,,30.9*6A
$GNRMC,000239.000,A,3000.2534,N,12000.1972,E,75.244,67.49,230721,,,A*4C
$GNVTG,67.49,T,,M,75.244,N,139.426,K,A*24
$PMTKGEPH,0,0,0,0,0,0,0,0,0,0,0,0,0,0,0,0,0,0,0,0,0,0,0,0,0,0,0,0,0,0,0,0,0*04
$PMTKGALM,28,1,1,1,1,1,1,1,1,1,1,1,1,1,1,1,1,0,0,0,1,1,1,1,1,1,1,1,1,1,1,1,0*23
$GNACCURACY,2.1,1.6,1.8,25.6*28
$PMTKAGC,000239.000,2808,2672,6119,5980,0,3,0*6A
$PMTKAG2,000239.000,5,0118,0,0,0,0,0,0,0,0,0,0,0,0*31
$GNGGA,000240.000,3000.2603,N,12000.2201,E,1,8,1.24,-4.4,M,7.0,M,,*57
$GPGSA,A,3,,,,,,,,,,,,,2.21,1.24,1.83*0E
$GLGSA,A,3,77,87,86,88,,,,,,,,,2.21,1.24,1.83*13
$BDGSA,A,3,12,06,09,13,,,,,,,,,2.21,1.24,1.83*11
$GPGSV,4,1,14,07,85,110,,25,66,042,,04,51,246,,13,49,032,*7C
$GPGSV,4,2,14,08,48,208,,42,48,143,,02,33,299,,23,27,058,*71
$GPGSV,4,3,14,27,19,219,,16,01,039,,10,01,311,,193,,,*78
$GPGSV,4,4,14,194,,,,195,,,*7D
$GLGSV,2,1,5,87,61,301,34.1,77,56,327,34.4,86,34,025,33.7,88,20,244,33.0*50
$GLGSV,2,2,5,78,07,331,*69
$BDGSV,2,1,8,13,48,202,32.2,06,37,216,31.6,09,37,287,31.7,04,36,126,30.6*59
$BDGSV,2,2,8,12,10,060,31.3,14,08,165,11.3,02,,,30.9,01,,,30.9*5A
$GNRMC,000240.000,A,3000.2603,N,12000.2201,E,75.254,72.26,230721,,,A*45
$GNVTG,72.26,T,,M,75.254,N,139.445,K,A*2D
$PMTKGEPH,0,0,0,0,0,0,0,0,0,0,0,0,0,0,0,0,0,0,0,0,0,0,0,0,0,0,0,0,0,0,0,0,0*04
$PMTKGALM,28,1,1,1,1,1,1,1,1,1,1,1,1,1,1,1,1,0,0,0,1,1,1,1,1,1,1,1,1,1,1,1,0*23
$GNACCURACY,2.1,1.4,1.6,25.6*24
$PMTKAGC,000240.000,3070,2817,5975,6037,0,3,0*68
$PMTKAG2,000240.000,5,0118,0,0,0,0,0,0,0,0,0,0,0,0*3F
$GNGGA,000241.000,3000.2658,N,12000.2435,E,1,8,1.24,-5.2,M,7.0,M,,*5E
$GPGSA,A,3,,,,,,,,,,,,,2.21,1.24,1.83*0E
$GLGSA,A,3,77,87,86,88,,,,,,,,,2.21,1.24,1.83*13
$BDGSA,A,3,12,06,09,13,,,,,,,,,2.21,1.24,1.83*11
$GPGSV,4,1,14,07,85,110,,25,66,042,,04,51,246,,13,49,032,*7C
$GPGSV,4,2,14,08,48,208,,42,48,143,,02,33,299,,23,27,058,*71
$GPGSV,4,3,14,27,19,219,,16,01,039,,10,01,311,,193,,,*78
$GPGSV,4,4,14,194,,,,195,,,*7D
$GLGSV,2,1,5,87,61,301,34.1,77,56,327,34.4,86,34,025,33.8,88,20,244,32.9*57
$GLGSV,2,2,5,78,07,331,*69
$BDGSV,2,1,8,13,48,202,32.2,06,37,216,31.5,09,37,287,31.7,04,36,126,30.6*5A
$BDGSV,2,2,8,12,10,060,31.2,14,08,165,11.3,02,,,31.0,01,,,30.8*52
$GNRMC,000241.000,A,3000.2658,N,12000.2435,E,75.032,76.33,230721,,,A*49
$GNVTG,76.33,T,,M,75.032,N,139.035,K,A*2C
$PMTKGEPH,0,0,0,0,0,0,0,0,0,0,0,0,0,0,0,0,0,0,0,0,0,0,0,0,0,0,0,0,0,0,0,0,0*04
$PMTKGALM,28,1,1,1,1,1,1,1,1,1,1,1,1,1,1,1,1,0,0,0,1,1,1,1,1,1,1,1,1,1,1,1,0*23
$GNACCURACY,2.1,1.9,1.9,26.1*22
$PMTKAGC,000241.000,2695,2991,6155,6087,0,3,0*68
$PMTKAG2,000241.000,5,0118,0,0,0,0,0,0,0,0,0,0,0,0*3E
$GNGGA,000242.000,3000.2694,N,12000.2674,E,1,8,1.24,-5.4,M,7.0,M,,*5C
$GPGSA,A,3,,,,,,,,,,,,,2.21,1.24,1.83*0E
$GLGSA,A,3,77,87,86,88,,,,,,,,,2.21,1.24,1.83*13
$BDGSA,A,3,12,06,09,13,,,,,,,,,2.21,1.24,1.83*11
$GPGSV,4,1,14,07,85,110,,25,66,042,,04,51,246,,13,49,032,*7C
$GPGSV,4,2,14,08,48,208,,42,48,143,,02,33,299,,23,27,058,*71
$GPGSV,4,3,14,27,19,219,,16,01,039,,10,01,311,,193,,,*78
$GPGSV,4,4,14,194,,,,195,,,*7D
$GLGSV,2,1,5,87,61,301,34.1,77,56,327,34.4,86,34,025,33.8,88,20,244,32.6*58
$GLGSV,2,2,5,78,07,331,*69
$BDGSV,2,1,8,13,48,202,32.2,06,37,216,31.6,09,37,287,31.7,04,36,126,30.6*59
$BDGSV,2,2,8,12,10,060,31.0,14,08,165,11.3,02,,,31.0,01,,,30.9*51
$GNRMC,000242.000,A,3000.2694,N,12000.2674,E,75.108,81.08,230721,,,A*45
$GNVTG,81.08,T,,M,75.108,N,139.175,K,A*21
$PMTKGEPH,0,0,0,0,0,0,0,0,0,0,0,0,0,0,0,0,0,0,0,0,0,0,0,0,0,0,0,0,0,0,0,0,0*04
$PMTKGALM,28,1,1,1,1,1,1,1,1,1,1,1,1,1,1,1,1,0,0,0,1,1,1,1,1,1,1,1,1,1,1,1,0*23
$GNACCURACY,2.1,1.6,1.8,25.9*27
$PMTKAGC,000242.000,2787,2812,5912,6079,0,3,0*6A
$PMTKAG2,000242.000,5,0119,0,0,0,0,0,0,0,0,0,0,0,0*3C
$GNGGA,000243.000,3000.2714,N,12000.2916,E,1,8,1.24,-5.3,M,7.0,M,,*58
$GPGSA,A,3,,,,,,,,,,,,,2.21,1.24,1.83*0E
$GLGSA,A,3,77,87,86,88,,,,,,,,,2.21,1.24,1.83*13
$BDGSA,A,3,12,06,09,13,,,,,,,,,2.21,1.24,1.83*11
$GPGSV,4,1,14,07,85,110,,25,66,042,,04,51,246,,13,49,032,*7C
$GPGSV,4,2,14,08,48,208,,42,48,143,,02,33,299,,23,27,058,*71
$GPGSV,4,3,14,27,19,219,,16,01,039,,10,01,311,,193,,,*78
$GPGSV,4,4,14,194,,,,195,,,*7D
$GLGSV,2,1,5,87,61,301,34.2,77,56,327,34.4,86,34,025,33.8,88,20,244,32.8*55
$GLGSV,2,2,5,78,07,331,*69
$BDGSV,2,1,8,13,48,202,32.2,06,37,216,31.5,09,37,287,31.7,04,36,126,30.6*5A
$BDGSV,2,2,8,12,10,060,30.9,14,08,165,,02,,,31.1,01,,,30.9*45
$GNRMC,000243.000,A,3000.2714,N,12000.2916,E,75.185,85.69,230721,,,A*40
$GNVTG,85.69,T,,M,75.185,N,139.317,K,A*21
$PMTKGEPH,0,0,0,0,0,0,0,0,0,0,0,0,0,0,0,0,0,0,0,0,0,0,0,0,0,0,0,0,0,0,0,0,0*04
$PMTKGALM,28,1,1,1,1,1,1,1,1,1,1,1,1,1,1,1,1,0,0,0,1,1,1,1,1,1,1,1,1,1,1,1,0*23
$GNACCURACY,2.1,1.6,1.8,26.6*2B
$PMTKAGC,000243.000,3151,2927,5952,5996,0,3,0*6F
$PMTKAG2,000243.000,5,0119,0,0,0,0,0,0,0,0,0,0,0,0*3D
$GNGGA,000244.000,3000.2718,N,12000.3159,E,1,8,1.24,-5.4,M,7.0,M,,*56
$GPGSA,A,3,,,,,,,,,,,,,2.21,1.24,1.83*0E
$GLGSA,A,3,77,87,86,88,,,,,,,,,2.21,1.24,1.83*13
$BDGSA,A,3,12,06,09,13,,,,,,,,,2.21,1.24,1.83*11
$GPGSV,4,1,14,07,85,110,,25,66,042,,04,51,246,,13,49,032,*7C
$GPGSV,4,2,14,08,48,208,,42,48,143,,02,33,299,,23,27,058,*71
$GPGSV,4,3,14,27,19,219,,16,01,039,,10,01,311,,193,,,*78
$GPGSV,4,4,14,194,,,,195,,,*7D
$GLGSV,2,1,5,87,61,301,34.1,77,56,327,34.5,86,34,025,33.9,88,20,244,33.1*5E
$GLGSV,2,2,5,78,07,331,*69
$BDGSV,2,1,8,13,48,202,32.1,06,37,216,31.5,09,37,287,31.7,04,36,126,30.7*58
$BDGSV,2,2,8,12,10,060,25.6,14,08,165,,02,,,31.1,01,,,30.9*4E
$GNRMC,000244.000,A,3000.2718,N,12000.3159,E,75.258,90.24,230721,,,A*47
$GNVTG,90.24,T,,M,75.258,N,139.453,K,A*28
$PMTKGEPH,0,0,0,0,0,0,0,0,0,0,0,0,0,0,0,0,0,0,0,0,0,0,0,0,0,0,0,0,0,0,0,0,0*04
$PMTKGALM,28,1,1,1,1,1,1,1,1,1,1,1,1,1,1,1,1,0,0,0,1,1,1,1,1,1,1,1,1,1,1,1,0*23
$GNACCURACY,2.1,1.6,2.0,26.0*26
$PMTKAGC,000244.000,3053,2747,6051,5931,0,3,0*67
$PMTKAG2,000244.000,5,0119,0,0,0,0,0,0,0,0,0,0,0,0*3A
$GNGGA,000245.000,3000.2706,N,12000.3402,E,1,8,1.24,-5.5,M,7.0,M,,*52
$GPGSA,A,3,,,,,,,,,,,,,2.21,1.24,1.83*0E
$GLGSA,A,3,77,87,86,88,,,,,,,,,2.21,1.24,1.83*13
$BDGSA,A,3,12,06,09,13,,,,,,,,,2.21,1.24,1.83*11
$GPGSV,4,1,14,07,85,110,,25,66,042,,04,51,246,,13,49,032,*7C
$GPGSV,4,2,14,08,48,208,,42,48,143,,02,33,299,,23,27,058,*71
$GPGSV,4,3,14,27,19,219,,16,01,039,,10,01,311,,193,,,*78
$GPGSV,4,4,14,194,,,,195,,,*7D
$GLGSV,2,1,5,87,61,301,34.0,77,56,327,34.4,86,34,025,33.8,88,20,244,32.6*59
$GLGSV,2,2,5,78,07,331,*69
$BDGSV,2,1,8,13,48,202,32.1,06,37,216,31.5,09,37,287,31.7,04,36,126,30.6*59
$BDGSV,2,2,8,12,10,060,25.6,14,08,165,,02,,,31.1,01,,,30.9*4E
$GNRMC,000245.000,A,3000.2706,N,12000.3402,E,75.498,94.55,230721,,,A*4A
$GNVTG,94.55,T,,M,75.498,N,139.898,K,A*2B
$PMTKGEPH,0,0,0,0,0,0,0,0,0,0,0,0,0,0,0,0,0,0,0,0,0,0,0,0,0,0,0,0,0,0,0,0,0*04
$PMTKGALM,28,1,1,1,1,1,1,1,1,1,1,1,1,1,1,1,1,0,0,0,1,1,1,1,1,1,1,1,1,1,1,1,0*23
$GNACCURACY,2.1,1.6,2.1,26.0*27
$PMTKAGC,000245.000,2726,2910,5863,6068,0,3,0*62
$PMTKAG2,000245.000,5,0119,0,0,0,0,0,0,0,0,0,0,0,0*3B
$GNGGA,000246.000,3000.2678,N,12000.3643,E,1,7,1.49,-5.9,M,7.0,M,,*56
$GPGSA,A,3,,,,,,,,,,,,,3.04,1.49,2.65*08
$GLGSA,A,3,77,87,86,,,,,,,,,,3.04,1.49,2.65*15
$BDGSA,A,3,12,06,09,13,,,,,,,,,3.04,1.49,2.65*17
$GPGSV,4,1,14,07,85,110,,25,66,042,,04,51,246,,13,49,032,*7C
$GPGSV,4,2,14,08,48,208,,42,48,143,,02,33,299,,23,27,058,*71
$GPGSV,4,3,14,27,19,219,,16,01,039,,10,01,311,,193,,,*78
$GPGSV,4,4,14,194,,,,195,,,*7D
$GLGSV,2,1,5,87,61,301,34.2,77,56,327,34.5,86,34,025,33.8,88,20,244,32.3*5F
$GLGSV,2,2,5,78,07,331,*69
$BDGSV,2,1,8,13,48,202,32.1,06,37,216,31.5,09,37,287,31.6,04,36,126,30.7*59
$BDGSV,2,2,8,12,10,060,25.6,14,08,165,,02,,,31.1,01,,,30.9*4E
$GNRMC,000246.000,A,3000.2678,N,12000.3643,E,75.481,99.09,230721,,,A*4A
$GNVTG,99.09,T,,M,75.481,N,139.866,K,A*26
$PMTKGEPH,0,0,0,0,0,0,0,0,0,0,0,0,0,0,0,0,0,0,0,0,0,0,0,0,0,0,0,0,0,0,0,0,0*04
$PMTKGALM,28,1,1,1,1,1,1,1,1,1,1,1,1,1,1,1,1,0,0,0,1,1,1,1,1,1,1,1,1,1,1,1,0*23
$GNACCURACY,2.1,1.5,2.2,26.7*20
$PMTKAGC,000246.000,2736,2857,6029,5937,0,3,0*67
$PMTKAG2,000246.000,5,0119,0,0,0,0,0,0,0,0,0,0,0,0*38
$GNGGA,000247.000,3000.2634,N,12000.3878,E,1,7,1.49,-6.2,M,7.0,M,,*51
$GPGSA,A,3,,,,,,,,,,,,,3.04,1.49,2.65*08
$GLGSA,A,3,77,87,86,,,,,,,,,,3.04,1.49,2.65*15
$BDGSA,A,3,12,06,09,13,,,,,,,,,3.04,1.49,2.65*17
$GPGSV,4,1,14,07,85,110,,25,66,042,,04,51,246,,13,49,032,*7C
$GPGSV,4,2,14,08,48,208,,42,48,143,,02,33,299,,23,27,058,*71
$GPGSV,4,3,14,27,19,219,,16,01,039,,10,01,311,,193,,,*78
$GPGSV,4,4,14,194,,,,195,,,*7D
$GLGSV,2,1,5,87,61,301,34.2,77,56,327,34.5,86,34,025,33.8,88,20,244,30.7*59
$GLGSV,2,2,5,78,07,331,*69
$BDGSV,2,1,8,13,48,202,32.1,06,37,216,31.5,09,37,287,31.6,04,36,126,30.7*59
$BDGSV,2,2,8,12,10,060,12.9,14,08,165,,02,,,31.1,01,,,31.0*4D
$GNRMC,000247.000,A,3000.2634,N,12000.3878,E,75.186,103.63,230721,,,A*79
$GNVTG,103.63,T,,M,75.186,N,139.320,K,A*13
$PMTKGEPH,0,0,0,0,0,0,0,0,0,0,0,0,0,0,0,0,0,0,0,0,0,0,0,0,0,0,0,0,0,0,0,0,0*04
$PMTKGALM,28,1,1,1,1,1,1,1,1,1,1,1,1,1,1,1,1,0,0,0,1,1,1,1,1,1,1,1,1,1,1,1,0*23
$GNACCURACY,2.2,1.5,2.1,26.7*20
$PMTKAGC,000247.000,2934,2855,6028,6074,0,3,0*64
$PMTKAG2,000247.000,5,0118,0,0,0,0,0,0,0,0,0,0,0,0*38
$GNGGA,000248.000,3000.2575,N,12000.4109,E,1,7,1.49,-6.5,M,7.0,M,,*57
$GPGSA,A,3,,,,,,,,,,,,,3.04,1.49,2.65*08
$GLGSA,A,3,77,87,86,,,,,,,,,,3.04,1.49,2.65*15
$BDGSA,A,3,12,06,09,13,,,,,,,,,3.04,1.49,2.65*17
$GPGSV,4,1,14,07,85,110,,25,66,042,,04,51,246,,13,49,032,*7C
$GPGSV,4,2,14,08,48,208,,42,48,143,,02,33,299,,23,27,058,*71
$GPGSV,4,3,14,27,19,219,,16,01,039,,10,01,311,,193,,,*78
$GPGSV,4,4,14,194,,,,195,,,*7D
$GLGSV,2,1,5,87,61,301,34.2,77,56,327,34.4,86,34,025,33.9,88,20,244,*43
$GLGSV,2,2,5,78,07,331,*69
$BDGSV,2,1,8,13,48,202,32.1,06,37,216,31.5,09,37,287,31.5,04,36,126,30.6*5B
$BDGSV,2,2,8,12,10,060,12.9,14,08,165,,02,,,31.1,01,,,30.9*45
$GNRMC,000248.000,A,3000.2575,N,12000.4109,E,75.154,108.21,230721,,,A*7A
$GNVTG,108.21,T,,M,75.154,N,139.261,K,A*15
$PMTKGEPH,0,0,0,0,0,0,0,0,0,0,0,0,0,0,0,0,0,0,0,0,0,0,0,0,0,0,0,0,0,0,0,0,0*04
$PMTKGALM,28,1,1,1,1,1,1,1,1,1,1,1,1,1,1,1,1,0,0,0,1,1,1,1,1,1,1,1,1,1,1,1,0*23
$GNACCURACY,2.2,1.5,2.1,27.1*27
$PMTKAGC,000248.000,2697,2738,5949,5881,0,3,0*65
$PMTKAG2,000248.000,5,0118,0,0,0,0,0,0,0,0,0,0,0,0*37
$GNGGA,000249.000,3000.2501,N,12000.4334,E,1,6,1.60,-6.7,M,7.0,M,,*51
$GPGSA,A,3,,,,,,,,,,,,,3.74,1.60,3.38*0D
$GLGSA,A,3,77,87,86,,,,,,,,,,3.74,1.60,3.38*10
$BDGSA,A,3,06,09,13,,,,,,,,,,3.74,1.60,3.38*11
$GPGSV,4,1,14,07,85,110,,25,66,042,,04,51,246,,13,49,032,*7C
$GPGSV,4,2,14,08,48,208,,50,45,136,,02,33,299,,23,27,058,*7D
$GPGSV,4,3,14,27,19,219,,16,01,039,,10,01,311,,193,,,*78
$GPGSV,4,4,14,194,,,,195,,,*7D
$GLGSV,2,1,5,87,61,301,34.3,77,56,327,34.4,86,34,025,33.9,88,20,244,*42
$GLGSV,2,2,5,78,07,331,*69
$BDGSV,2,1,8,13,48,202,32.2,06,37,216,31.4,09,37,287,31.5,04,36,126,30.6*59
$BDGSV,2,2,8,12,10,060,,14,08,165,,02,,,31.1,01,,,30.9*51
$GNRMC,000249.000,A,3000.2501,N,12000.4334,E,75.137,112.48,230721,,,A*75
$GNVTG,112.48,T,,M,75.137,N,139.228,K,A*19
$PMTKGEPH,0,0,0,0,0,0,0,0,0,0,0,0,0,0,0,0,0,0,0,0,0,0,0,0,0,0,0,0,0,0,0,0,0*04
$PMTKGALM,28,1,1,1,1,1,1,1,1,1,1,1,1,1,1,1,1,0,0,0,1,1,1,1,1,1,1,1,1,1,1,1,0*23
$GNACCURACY,2.2,1.6,2.1,27.6*23
$PMTKAGC,000249.000,3030,2984,5421,5394,0,4,0*6C
$PMTKAG2,000249.000,4,0119,0,0,0,0,0,0,0,0,0,0,0,0*36
$GNGGA,000250.000,3000.2412,N,12000.4552,E,1,6,1.60,-7.0,M,7.0,M,,*5A
$GPGSA,A,3,,,,,,,,,,,,,3.74,1.60,3.39*0C
$GLGSA,A,3,77,87,86,,,,,,,,,,3.74,1.60,3.39*11
$BDGSA,A,3,06,09,13,,,,,,,,,,3.74,1.60,3.39*10
$GPGSV,4,1,14,07,85,110,,25,66,042,,04,51,246,,13,49,032,*7C
$GPGSV,4,2,14,08,48,208,,50,45,136,,02,33,299,,23,27,058,*7D
$GPGSV,4,3,14,27,19,219,,16,01,039,,10,01,311,,193,,,*78
$GPGSV,4,4,14,194,,,,195,,,*7D
$GLGSV,2,1,5,87,61,301,34.2,77,56,327,34.4,86,34,025,33.8,88,20,244,*42
$GLGSV,2,2,5,78,07,331,*69
$BDGSV,2,1,8,13,48,202,32.2,06,37,216,31.4,09,37,287,31.5,04,36,126,30.6*59
$BDGSV,2,2,8,12,10,060,,14,08,165,,02,,,31.1,01,,,30.9*51
$GNRMC,000250.000,A,3000.2412,N,12000.4552,E,75.427,117.10,230721,,,A*74
$GNVTG,117.10,T,,M,75.427,N,139.767,K,A*1B
$PMTKGEPH,0,0,0,0,0,0,0,0,0,0,0,0,0,0,0,0,0,0,0,0,0,0,0,0,0,0,0,0,0,0,0,0,0*04
$PMTKGALM,28,1,1,1,1,1,1,1,1,1,1,1,1,1,1,1,1,0,0,0,1,1,1,1,1,1,1,1,1,1,1,1,0*23
$GNACCURACY,2.2,1.6,2.1,27.3*26
$PMTKAGC,000250.000,3158,3162,5561,5546,0,4,0*66
$PMTKAG2,000250.000,4,0119,0,0,0,0,0,0,0,0,0,0,0,0*3E
$GNGGA,000251.000,3000.2307,N,12000.4763,E,1,6,1.60,-7.3,M,7.0,M,,*5B
$GPGSA,A,3,,,,,,,,,,,,,3.74,1.60,3.38*0D
$GLGSA,A,3,77,87,86,,,,,,,,,,3.74,1.60,3.38*10
$BDGSA,A,3,06,09,13,,,,,,,,,,3.74,1.60,3.38*11
$GPGSV,4,1,14,07,85,110,,25,66,042,,04,51,246,,13,49,032,*7C
$GPGSV,4,2,14,08,48,208,,50,45,136,,02,33,299,,23,27,058,*7D
$GPGSV,4,3,14,27,19,219,,16,01,039,,10,01,311,,193,,,*78
$GPGSV,4,4,14,194,,,,195,,,*7D
$GLGSV,2,1,5,87,61,301,34.2,77,56,327,34.4,86,34,025,33.8,88,20,244,*42
$GLGSV,2,2,5,78,07,331,*69
$BDGSV,2,1,8,13,48,202,32.1,06,37,216,31.4,09,37,287,31.4,04,36,126,30.6*5B
$BDGSV,2,2,8,12,10,060,,14,08,165,,02,,,31.1,01,,,30.9*51
$GNRMC,000251.000,A,3000.2307,N,12000.4763,E,75.597,121.52,230721,,,A*7F
$GNVTG,121.52,T,,M,75.597,N,140.081,K,A*13
$PMTKGEPH,0,0,0,0,0,0,0,0,0,0,0,0,0,0,0,0,0,0,0,0,0,0,0,0,0,0,0,0,0,0,0,0,0*04
$PMTKGALM,28,1,1,1,1,1,1,1,1,1,1,1,1,1,1,1,1,0,0,0,1,1,1,1,1,1,1,1,1,1,1,1,0*23
$GNACCURACY,2.2,1.6,2.1,27.4*21
$PMTKAGC,000251.000,2983,3203,5545,5489,0,4,0*68
$PMTKAG2,000251.000,4,0120,0,0,0,0,0,0,0,0,0,0,0,0*35
$GNGGA,000252.000,3000.2188,N,12000.4965,E,1,7,1.46,-6.0,M,7.0,M,,*52
$GPGSA,A,3,,,,,,,,,,,,,2.33,1.46,1.82*08
$GLGSA,A,3,77,87,86,78,,,,,,,,,2.33,1.46,1.82*1A
$BDGSA,A,3,06,09,13,,,,,,,,,,2.33,1.46,1.82*14
$GPGSV,4,1,14,07,85,110,,25,66,042,,04,51,246,,13,49,032,*7C
$GPGSV,4,2,14,08,48,208,,50,45,136,,02,33,299,,23,27,058,*7D
$GPGSV,4,3,14,27,19,219,,16,01,039,,10,01,311,,193,,,*78
$GPGSV,4,4,14,194,,,,195,,,*7D
$GLGSV,2,1,5,87,61,301,34.3,77,56,327,34.4,86,34,025,33.8,88,20,244,*43
$GLGSV,2,2,5,78,07,331,34.1*71
$BDGSV,2,1,7,13,48,202,32.2,06,37,216,31.5,09,37,287,31.5,04,36,126,30.5*54
$BDGSV,2,2,7,12,10,060,,14,08,165,,02,,,31.2*48
$GNRMC,000252.000,A,3000.2188,N,12000.4965,E,75.572,126.03,230721,,,A*79
$GNVTG,126.03,T,,M,75.572,N,140.036,K,A*17
$PMTKGEPH,0,0,0,0,0,0,0,0,0,0,0,0,0,0,0,0,0,0,0,0,0,0,0,0,0,0,0,0,0,0,0,0,0*04
$PMTKGALM,28,1,1,1,1,1,1,1,1,1,1,1,1,1,1,1,1,0,0,0,1,1,1,1,1,1,1,1,1,1,1,1,0*23
$GNACCURACY,2.2,1.6,2.1,26.6*22
$PMTKAGC,000252.000,3124,2896,5603,5578,0,4,0*66
$PMTKAG2,000252.000,4,0120,0,0,0,0,0,0,0,0,0,0,0,0*36
$GNGGA,000253.000,3000.2054,N,12000.5159,E,1,7,1.46,-4.3,M,7.0,M,,*54
$GPGSA,A,3,,,,,,,,,,,,,2.33,1.46,1.82*08
$GLGSA,A,3,77,87,86,78,,,,,,,,,2.33,1.46,1.82*1A
$BDGSA,A,3,06,09,13,,,,,,,,,,2.33,1.46,1.82*14
$GPGSV,4,1,14,07,85,110,,25,66,042,,04,51,246,,13,49,032,*7C
$GPGSV,4,2,14,08,48,208,,50,45,136,,02,33,299,,23,27,058,*7D
$GPGSV,4,3,14,27,19,219,,16,01,039,,10,01,311,,193,,,*78
$GPGSV,4,4,14,194,,,,195,,,*7D
$GLGSV,2,1,5,87,61,301,34.3,77,56,327,34.4,86,34,025,33.8,88,20,244,*43
$GLGSV,2,2,5,78,07,331,33.2*75
$BDGSV,2,1,8,13,48,202,32.2,06,37,216,31.5,09,37,287,31.4,04,36,126,30.6*59
$BDGSV,2,2,8,12,10,060,,14,08,165,,02,,,31.2,01,,,29.4*57
$GNRMC,000253.000,A,3000.2054,N,12000.5159,E,75.632,130.33,230721,,,A*7D
$GNVTG,130.33,T,,M,75.632,N,140.147,K,A*13
$PMTKGEPH,0,0,0,0,0,0,0,0,0,0,0,0,0,0,0,0,0,0,0,0,0,0,0,0,0,0,0,0,0,0,0,0,0*04
$PMTKGALM,28,1,1,1,1,1,1,1,1,1,1,1,1,1,1,1,1,0,0,0,1,1,1,1,1,1,1,1,1,1,1,1,0*23
$GNACCURACY,2.2,1.7,2.1,27.3*27
$PMTKAGC,000253.000,2890,3221,5546,5449,0,4,0*66
$PMTKAG2,000253.000,4,0120,0,0,0,0,0,0,0,0,0,0,0,0*37
$GNGGA,000254.000,3000.1908,N,12000.5339,E,1,7,1.46,-3.0,M,7.0,M,,*50
$GPGSA,A,3,,,,,,,,,,,,,2.33,1.46,1.82*08
$GLGSA,A,3,77,87,86,78,,,,,,,,,2.33,1.46,1.82*1A
$BDGSA,A,3,06,09,13,,,,,,,,,,2.33,1.46,1.82*14
$GPGSV,4,1,14,07,85,110,,25,66,042,,04,51,246,,13,49,032,*7C
$GPGSV,4,2,14,08,48,208,,50,45,136,,02,33,299,,23,27,058,*7D
$GPGSV,4,3,14,27,19,219,,16,01,039,,10,01,311,,193,,,*78
$GPGSV,4,4,14,194,,,,195,,,*7D
$GLGSV,2,1,5,87,61,301,34.2,77,56,327,34.3,86,34,025,33.7,88,20,244,*4A
$GLGSV,2,2,5,78,07,331,33.6*71
$BDGSV,2,1,8,13,48,202,32.2,06,37,216,31.5,09,37,287,31.4,04,36,126,30.5*5A
$BDGSV,2,2,8,12,10,060,,14,08,165,,02,,,31.2,01,,,31.6*5C
$GNRMC,000254.000,A,3000.1908,N,12000.5339,E,76.033,134.79,230721,,,A*73
$GNVTG,134.79,T,,M,76.033,N,140.890,K,A*1E
$PMTKGEPH,0,0,0,0,0,0,0,0,0,0,0,0,0,0,0,0,0,0,0,0,0,0,0,0,0,0,0,0,0,0,0,0,0*04
$PMTKGALM,28,1,1,1,1,1,1,1,1,1,1,1,1,1,1,1,1,0,0,0,1,1,1,1,1,1,1,1,1,1,1,1,0*23
$GNACCURACY,2.2,1.7,2.0,26.7*23
$PMTKAGC,000254.000,2961,3304,5504,5428,0,4,0*69
$PMTKAG2,000254.000,4,0120,0,0,0,0,0,0,0,0,0,0,0,0*30
$GNGGA,000255.000,3000.1752,N,12000.5504,E,1,7,1.46,-2.2,M,7.0,M,,*5B
$GPGSA,A,3,,,,,,,,,,,,,2.33,1.46,1.82*08
$GLGSA,A,3,77,87,86,78,,,,,,,,,2.33,1.46,1.82*1A
$BDGSA,A,3,06,09,13,,,,,,,,,,2.33,1.46,1.82*14
$GPGSV,4,1,14,07,85,110,,25,66,042,,04,51,246,,13,49,032,*7C
$GPGSV,4,2,14,08,48,208,,50,45,136,,02,33,299,,23,27,058,*7D
$GPGSV,4,3,14,27,19,219,,16,01,039,,10,01,311,,193,,,*78
$GPGSV,4,4,14,194,,,,195,,,*7D
$GLGSV,2,1,5,87,61,301,34.2,77,56,327,34.4,86,34,025,33.7,88,20,244,*4D
$GLGSV,2,2,5,78,07,331,33.5*72
$BDGSV,2,1,8,13,48,202,32.2,06,37,216,31.5,09,37,287,31.4,04,36,126,30.5*5A
$BDGSV,2,2,8,12,10,060,,14,08,165,,02,,,31.2,01,,,30.2*59
$GNRMC,000255.000,A,3000.1752,N,12000.5504,E,75.956,139.24,230721,,,A*77
$GNVTG,139.24,T,,M,75.956,N,140.746,K,A*16
$PMTKGEPH,0,0,0,0,0,0,0,0,0,0,0,0,0,0,0,0,0,0,0,0,0,0,0,0,0,0,0,0,0,0,0,0,0*04
$PMTKGALM,28,1,1,1,1,1,1,1,1,1,1,1,1,1,1,1,1,0,0,0,1,1,1,1,1,1,1,1,1,1,1,1,0*23
$GNACCURACY,2.2,1.8,2.0,26.9*22
$PMTKAGC,000255.000,3211,3157,5674,5621,0,4,0*6E
$PMTKAG2,000255.000,4,0120,0,0,0,0,0,0,0,0,0,0,0,0*31
$GNGGA,000256.000,3000.1586,N,12000.5654,E,1,7,1.46,-1.4,M,7.0,M,,*50
$GPGSA,A,3,,,,,,,,,,,,,2.33,1.46,1.82*08
$GLGSA,A,3,77,87,86,78,,,,,,,,,2.33,1.46,1.82*1A
$BDGSA,A,3,06,09,13,,,,,,,,,,2.33,1.46,1.82*14
$GPGSV,4,1,14,07,85,110,,25,66,042,,04,51,246,,13,49,032,*7C
$GPGSV,4,2,14,08,48,208,,50,45,136,,02,33,299,,23,27,058,*7D
$GPGSV,4,3,14,27,19,219,,16,01,039,,10,01,311,,193,,,*78
$GPGSV,4,4,14,194,,,,195,,,*7D
$GLGSV,2,1,5,87,61,301,34.2,77,56,327,34.3,86,34,025,33.7,88,20,244,*4A
$GLGSV,2,2,5,78,07,331,33.4*73
$BDGSV,2,1,8,13,48,202,32.2,06,37,216,31.5,09,37,287,31.5,04,36,126,30.6*58
$BDGSV,2,2,8,12,10,060,,14,08,165,,02,,,31.3,01,,,31.6*5D
$GNRMC,000256.000,A,3000.1586,N,12000.5654,E,75.911,143.53,230721,,,A*77
$GNVTG,143.53,T,,M,75.911,N,140.664,K,A*19
$PMTKGEPH,0,0,0,0,0,0,0,0,0,0,0,0,0,0,0,0,0,0,0,0,0,0,0,0,0,0,0,0,0,0,0,0,0*04
$PMTKGALM,28,1,1,1,1,1,1,1,1,1,1,1,1,1,1,1,1,0,0,0,1,1,1,1,1,1,1,1,1,1,1,1,0*23
$GNACCURACY,2.2,1.8,2.0,26.9*22
$PMTKAGC,000256.000,2787,3085,5373,5400,0,4,0*6B
$PMTKAG2,000256.000,4,0120,0,0,0,0,0,0,0,0,0,0,0,0*32
$GNGGA,000257.000,3000.1409,N,12000.5788,E,1,7,1.46,-1.2,M,7.0,M,,*51
$GPGSA,A,3,,,,,,,,,,,,,2.33,1.46,1.82*08
$GLGSA,A,3,77,87,86,78,,,,,,,,,2.33,1.46,1.82*1A
$BDGSA,A,3,06,09,13,,,,,,,,,,2.33,1.46,1.82*14
$GPGSV,4,1,14,07,85,110,,25,66,042,,04,51,246,,13,49,032,*7C
$GPGSV,4,2,14,08,48,208,,50,45,136,,02,33,299,,23,27,058,*7D
$GPGSV,4,3,14,27,19,219,,16,01,039,,10,01,311,,193,,,*78
$GPGSV,4,4,14,194,,,,195,,,*7D
$GLGSV,2,1,5,87,61,301,34.1,77,56,327,34.3,86,34,025,33.7,88,20,244,*49
$GLGSV,2,2,5,78,07,331,32.5*73
$BDGSV,2,1,8,13,48,202,32.1,06,37,216,31.5,09,37,287,31.5,04,36,126,30.4*59
$BDGSV,2,2,8,12,10,060,,14,08,165,,02,,,31.3,01,,,30.1*5B
$GNRMC,000257.000,A,3000.1409,N,12000.5788,E,75.987,147.94,230721,,,A*70
$GNVTG,147.94,T,,M,75.987,N,140.803,K,A*16
$PMTKGEPH,0,0,0,0,0,0,0,0,0,0,0,0,0,0,0,0,0,0,0,0,0,0,0,0,0,0,0,0,0,0,0,0,0*04
$PMTKGALM,28,1,1,1,1,1,1,1,1,1,1,1,1,1,1,1,1,0,0,0,1,1,1,1,1,1,1,1,1,1,1,1,0*23
$GNACCURACY,2.2,1.9,2.0,26.6*2C
$PMTKAGC,000257.000,3074,2865,5537,5572,0,4,0*65
$PMTKAG2,000257.000,4,0120,0,0,0,0,0,0,0,0,0,0,0,0*33
$GNGGA,000258.000,3000.1225,N,12000.5907,E,1,7,1.46,-1.3,M,7.0,M,,*5E
$GPGSA,A,3,,,,,,,,,,,,,2.33,1.46,1.82*08
$GLGSA,A,3,77,87,86,78,,,,,,,,,2.33,1.46,1.82*1A
$BDGSA,A,3,06,09,13,,,,,,,,,,2.33,1.46,1.82*14
$GPGSV,4,1,14,07,85,110,,25,66,042,,04,51,246,,13,49,032,*7C
$GPGSV,4,2,14,08,48,208,,02,33,299,,23,27,058,,44,22,250,*7A
$GPGSV,4,3,14,27,19,219,,16,01,039,,10,01,311,,193,,,*78
$GPGSV,4,4,14,194,,,,195,,,*7D
$GLGSV,2,1,5,87,61,301,34.2,77,56,327,34.4,86,34,025,33.8,88,20,244,*42
$GLGSV,2,2,5,78,07,331,33.3*74
$BDGSV,2,1,8,13,48,202,32.2,06,37,216,31.5,09,37,287,31.5,04,36,126,30.4*5A
$BDGSV,2,2,8,12,10,060,,14,08,165,,02,,,31.3,01,,,31.0*5B
$GNRMC,000258.000,A,3000.1225,N,12000.5907,E,75.983,152.34,230721,,,A*74
$GNVTG,152.34,T,,M,75.983,N,140.797,K,A*1E
$PMTKGEPH,0,0,0,0,0,0,0,0,0,0,0,0,0,0,0,0,0,0,0,0,0,0,0,0,0,0,0,0,0,0,0,0,0*04
$PMTKGALM,28,1,1,1,1,1,1,1,1,1,1,1,1,1,1,1,1,0,0,0,1,1,1,1,1,1,1,1,1,1,1,1,0*23
$GNACCURACY,2.2,1.9,2.0,26.7*2D
$PMTKAGC,000258.000,3058,3021,5557,5574,0,4,0*6D
$PMTKAG2,000258.000,4,0120,0,0,0,0,0,0,0,0,0,0,0,0*3C
$GNGGA,000259.000,3000.1032,N,12000.6009,E,1,8,1.17,-2.3,M,7.0,M,,*57
$GPGSA,A,3,,,,,,,,,,,,,1.81,1.17,1.38*07
$GLGSA,A,3,77,87,86,78,,,,,,,,,1.81,1.17,1.38*15
$BDGSA,A,3,14,06,09,13,,,,,,,,,1.81,1.17,1.38*1E
$GPGSV,4,1,14,07,85,110,,25,66,042,,04,51,246,,13,49,032,*7C
$GPGSV,4,2,14,08,48,208,,02,33,299,,23,27,058,,44,22,250,*7A
$GPGSV,4,3,14,27,19,219,,16,01,039,,10,01,311,,193,,,*78
$GPGSV,4,4,14,194,,,,195,,,*7D
$GLGSV,2,1,5,87,61,301,34.2,77,56,327,34.4,86,34,025,33.8,88,20,244,*42
$GLGSV,2,2,5,78,07,331,33.7*70
$BDGSV,2,1,8,13,48,202,32.2,06,37,216,31.5,09,37,287,31.5,04,36,126,30.4*5A
$BDGSV,2,2,8,12,10,060,,14,08,165,31.0,02,,,31.4,01,,,31.7*47
$GNRMC,000259.000,A,3000.1032,N,12000.6009,E,75.953,156.99,230721,,,A*7B
$GNVTG,156.99,T,,M,75.953,N,140.741,K,A*1B
$PMTKGEPH,0,0,0,0,0,0,0,0,0,0,0,0,0,0,0,0,0,0,0,0,0,0,0,0,0,0,0,0,0,0,0,0,0*04
$PMTKGALM,28,1,1,1,1,1,1,1,1,1,1,1,1,1,1,1,1,0,0,0,1,1,1,1,1,1,1,1,1,1,1,1,0*23
$GNACCURACY,2.2,1.9,1.9,23.2*27
$PMTKAGC,000259.000,3153,3095,5473,5496,0,4,0*63
$PMTKAG2,000259.000,4,0120,0,0,0,0,0,0,0,0,0,0,0,0*3D
$GNGGA,000300.000,3000.0833,N,12000.6092,E,1,8,1.17,-2.3,M,7.0,M,,*50
$GPGSA,A,3,,,,,,,,,,,,,1.81,1.17,1.38*07
$GLGSA,A,3,77,87,86,78,,,,,,,,,1.81,1.17,1.38*15
$BDGSA,A,3,14,06,09,13,,,,,,,,,1.81,1.17,1.38*1E
$GPGSV,4,1,14,07,85,110,,25,66,042,,04,51,246,,13,49,032,*7C
$GPGSV,4,2,14,08,48,208,,02,33,299,,23,27,058,,44,22,250,*7A
$GPGSV,4,3,14,27,19,219,,16,01,039,,10,01,311,,193,,,*78
$GPGSV,4,4,14,194,,,,195,,,*7D
$GLGSV,2,1,5,87,61,301,34.3,77,56,327,34.4,86,34,025,33.8,88,20,244,*43
$GLGSV,2,2,5,78,07,331,33.2*75
$BDGSV,2,1,8,13,48,202,32.1,06,37,216,31.5,09,37,287,31.5,04,36,126,30.4*59
$BDGSV,2,2,8,12,10,060,,14,08,165,31.1,02,,,31.4,01,,,31.8*49
$GNRMC,000300.000,A,3000.0833,N,12000.6092,E,75.978,161.01,230721,,,A*70
$GNVTG,161.01,T,,M,75.978,N,140.787,K,A*1D
$PMTKGEPH,0,0,0,0,0,0,0,0,0,0,0,0,0,0,0,0,0,0,0,0,0,0,0,0,0,0,0,0,0,0,0,0,0*04
$PMTKGALM,28,1,1,1,1,1,1,1,1,1,1,1,1,1,1,1,1,0,0,0,1,1,1,1,1,1,1,1,1,1,1,1,0*23
$GNACCURACY,2.2,2.1,2.1,21.6*21
$PMTKAGC,000300.000,2863,3006,5408,5567,0,4,0*6C
$PMTKAG2,000300.000,4,0120,0,0,0,0,0,0,0,0,0,0,0,0*30
$GNGGA,000301.000,3000.0629,N,12000.6156,E,1,8,1.17,-2.7,M,7.0,M,,*59
$GPGSA,A,3,,,,,,,,,,,,,1.81,1.17,1.38*07
$GLGSA,A,3,77,87,86,78,,,,,,,,,1.81,1.17,1.38*15
$BDGSA,A,3,14,06,09,13,,,,,,,,,1.81,1.17,1.38*1E
$GPGSV,4,1,14,07,85,110,,25,66,042,,04,51,246,,13,49,032,*7C
$GPGSV,4,2,14,08,48,208,,02,33,299,,23,27,058,,44,22,250,*7A
$GPGSV,4,3,14,27,19,219,,16,01,039,,10,01,311,,193,,,*78
$GPGSV,4,4,14,194,,,,195,,,*7D
$GLGSV,2,1,5,87,61,301,34.2,77,56,327,34.4,86,34,025,33.8,88,20,244,*42
$GLGSV,2,2,5,78,07,331,33.3*74
$BDGSV,2,1,8,13,48,202,32.2,06,37,216,31.5,09,37,287,31.6,04,36,126,30.5*58
$BDGSV,2,2,8,12,10,060,,14,08,165,31.4,02,,,31.3,01,,,31.8*4B
$GNRMC,000301.000,A,3000.0629,N,12000.6156,E,75.965,165.66,230721,,,A*74
$GNVTG,165.66,T,,M,75.965,N,140.764,K,A*19
$PMTKGEPH,0,0,0,0,0,0,0,0,0,0,0,0,0,0,0,0,0,0,0,0,0,0,0,0,0,0,0,0,0,0,0,0,0*04
$PMTKGALM,28,1,1,1,1,1,1,1,1,1,1,1,1,1,1,1,1,0,0,0,1,1,1,1,1,1,1,1,1,1,1,1,0*23
$GNACCURACY,2.2,1.9,1.9,20.9*2F
$PMTKAGC,000301.000,3117,3176,5492,5534,0,4,0*65
$PMTKAG2,000301.000,4,0120,0,0,0,0,0,0,0,0,0,0,0,0*31
$GNGGA,000302.000,3000.0422,N,12000.6207,E,1,8,1.17,-2.7,M,7.0,M,,*54
$GPGSA,A,3,,,,,,,,,,,,,1.81,1.17,1.38*07
$GLGSA,A,3,77,87,86,78,,,,,,,,,1.81,1.17,1.38*15
$BDGSA,A,3,14,06,09,13,,,,,,,,,1.81,1.17,1.38*1E
$GPGSV,4,1,14,07,85,110,,25,66,042,,04,51,246,,13,49,032,*7C
$GPGSV,4,2,14,08,48,208,,02,33,299,,23,27,058,,44,22,250,*7A
$GPGSV,4,3,14,27,19,219,,16,01,039,,10,01,311,,193,,,*78
$GPGSV,4,4,14,194,,,,195,,,*7D
$GLGSV,2,1,5,87,61,301,34.2,77,56,327,34.4,86,34,025,33.8,88,20,244,*42
$GLGSV,2,2,5,78,07,331,33.7*70
$BDGSV,2,1,8,13,48,202,32.2,06,37,216,31.5,09,37,287,31.5,04,36,126,30.5*5B
$BDGSV,2,2,8,12,10,060,,14,08,165,31.2,02,,,31.4,01,,,31.5*47
$GNRMC,000302.000,A,3000.0422,N,12000.6207,E,75.915,168.53,230721,,,A*75
$GNVTG,168.53,T,,M,75.915,N,140.671,K,A*10
$PMTKGEPH,0,0,0,0,0,0,0,0,0,0,0,0,0,0,0,0,0,0,0,0,0,0,0,0,0,0,0,0,0,0,0,0,0*04
$PMTKGALM,28,1,1,1,1,1,1,1,1,1,1,1,1,1,1,1,1,0,0,0,1,1,1,1,1,1,1,1,1,1,1,1,0*23
$GNACCURACY,2.2,3.2,2.5,20.7*27
$PMTKAGC,000302.000,3195,3366,5531,5677,0,4,0*63
$PMTKAG2,000302.000,4,0120,0,0,0,0,0,0,0,0,0,0,0,0*32
$GNGGA,000303.000,3000.0212,N,12000.6233,E,1,8,1.17,-2.9,M,7.0,M,,*59
$GPGSA,A,3,,,,,,,,,,,,,1.81,1.17,1.38*07
$GLGSA,A,3,77,87,86,78,,,,,,,,,1.81,1.17,1.38*15
$BDGSA,A,3,14,06,09,13,,,,,,,,,1.81,1.17,1.38*1E
$GPGSV,4,1,14,07,85,110,,25,66,042,,04,51,246,,13,49,032,*7C
$GPGSV,4,2,14,08,48,208,,02,33,299,,23,27,058,,44,22,250,*7A
$GPGSV,4,3,14,27,19,219,,16,01,039,,10,01,311,,193,,,*78
$GPGSV,4,4,14,194,,,,195,,,*7D
$GLGSV,2,1,5,87,61,301,34.2,77,56,327,34.4,86,34,025,33.7,88,20,244,*4D
$GLGSV,2,2,5,78,07,331,33.5*72
$BDGSV,2,1,8,13,48,202,32.2,06,37,216,31.5,09,37,287,31.5,04,36,126,30.4*5A
$BDGSV,2,2,8,12,10,060,,14,08,165,31.4,02,,,31.3,01,,,31.5*46
$GNRMC,000303.000,A,3000.0212,N,12000.6233,E,75.917,174.35,230721,,,A*79
$GNVTG,174.35,T,,M,75.917,N,140.674,K,A*1A
$PMTKGEPH,0,0,0,0,0,0,0,0,0,0,0,0,0,0,0,0,0,0,0,0,0,0,0,0,0,0,0,0,0,0,0,0,0*04
$PMTKGALM,28,1,1,1,1,1,1,1,1,1,1,1,1,1,1,1,1,0,0,0,1,1,1,1,1,1,1,1,1,1,1,1,0*23
$GNACCURACY,2.2,2.2,2.0,21.0*25
$PMTKAGC,000303.000,3066,3142,5488,5417,0,4,0*6C
$PMTKAG2,000303.000,4,0120,0,0,0,0,0,0,0,0,0,0,0,0*33
$GNGGA,000304.000,3000.0001,N,12000.6240,E,1,8,1.17,-2.9,M,7.0,M,,*5A
$GPGSA,A,3,,,,,,,,,,,,,1.81,1.17,1.38*07
$GLGSA,A,3,77,87,86,78,,,,,,,,,1.81,1.17,1.38*15
$BDGSA,A,3,14,06,09,13,,,,,,,,,1.81,1.17,1.38*1E
$GPGSV,4,1,14,07,85,110,,25,66,042,,04,51,246,,13,49,032,*7C
$GPGSV,4,2,14,08,48,208,,02,33,299,,23,27,058,,44,22,250,*7A
$GPGSV,4,3,14,27,19,219,,16,01,039,,10,01,311,,193,,,*78
$GPGSV,4,4,14,194,,,,195,,,*7D
$GLGSV,2,1,5,87,61,301,34.3,77,56,327,34.4,86,34,025,33.7,88,20,244,*4C
$GLGSV,2,2,5,78,07,331,33.6*71
$BDGSV,2,1,8,13,48,202,32.2,06,37,216,31.5,09,37,287,31.6,04,36,126,30.4*59
$BDGSV,2,2,8,12,10,060,,14,08,165,31.0,02,,,31.3,01,,,31.4*43
$GNRMC,000304.000,A,3000.0001,N,12000.6240,E,75.577,178.84,230721,,,A*76
$GNVTG,178.84,T,,M,75.577,N,140.044,K,A*13
$PMTKGEPH,0,0,0,0,0,0,0,0,0,0,0,0,0,0,0,0,0,0,0,0,0,0,0,0,0,0,0,0,0,0,0,0,0*04
$PMTKGALM,28,1,1,1,1,1,1,1,1,1,1,1,1,1,1,1,1,0,0,0,1,1,1,1,1,1,1,1,1,1,1,1,0*23
$GNACCURACY,2.2,2.2,2.0,20.4*20
$PMTKAGC,000304.000,3177,3061,5424,5491,0,4,0*62
$PMTKAG2,000304.000,4,0120,0,0,0,0,0,0,0,0,0,0,0,0*34
$GNGGA,000305.000,2959.9790,N,12000.6230,E,1,8,1.15,-2.7,M,7.0,M,,*52
$GPGSA,A,3,,,,,,,,,,,,,1.40,1.15,0.81*0B
$GLGSA,A,3,77,87,86,78,,,,,,,,,1.40,1.15,0.81*19
