=~=~=~=~=~=~=~=~=~=~=~= PuTTY log 2021.09.08 13:53:52 =~=~=~=~=~=~=~=~=~=~=~=
$GNGGA,080400.000,3113.9988,N,12130.3055,E,1,12,0.93,48.8,M,8.2,M,,*7B
$GPGSA,A,3,30,29,21,05,24,09,12,,,,,,1.49,0.93,1.16*00
$GLGSA,A,3,87,73,88,72,,,,,,,,,1.49,0.93,1.16*10
$BDGSA,A,3,19,,,,,,,,,,,,1.49,0.93,1.16*1B
$GPGSV,3,1,12,29,66,275,39.6,30,61,356,39.2,05,59,054,39.5,12,49,066,39.5*75
$GPGSV,3,2,12,24,44,156,39.3,09,30,154,39.2,14,24,261,,39,19,251,*76
$GPGSV,3,3,12,21,13,191,39.4,193,,,,194,,,,195,,,*68
$GLGSV,3,1,9,88,45,298,38.2,87,44,210,37.9,72,35,034,37.5,74,27,073,*4D
$GLGSV,3,2,9,75,22,132,,66,15,278,,81,09,333,34.4,73,06,028,38.5*50
$GLGSV,3,3,9,86,02,174,*62
$BDGSV,1,1,2,19,11,177,35.9,02,,,34.9*60
$GNRMC,080400.000,A,3113.9988,N,12130.3055,E,161.900,270.00,200821,,,A*4D
$GNVTG,270.00,T,,M,161.900,N,300.000,K,A*2A
$PMTKGEPH,7,0,0,0,0,1,0,0,0,1,0,0,1,0,0,0,0,0,0,0,0,1,0,0,1,0,0,0,0,1,1,0,0*02
$PMTKGALM,6,0,0,0,0,0,0,0,0,0,0,0,0,1,1,1,1,1,1,0,0,0,0,0,0,0,0,0,0,0,0,0,0*1F
$GNACCURACY,1.3,0.1,0.2,11.4*21
$PMTKAGC,080400.000,2937,2848,5968,5799,0,3,0*6F
$PMTKAG2,080400.000,5,0121,0,0,0,0,0,0,0,0,0,0,0,0*3F
$GNGGA,080401.000,3113.9989,N,12130.2529,E,1,12,0.93,48.6,M,8.2,M,,*7A
$GPGSA,A,3,30,29,21,05,24,09,12,,,,,,1.49,0.93,1.16*00
$GLGSA,A,3,87,73,88,72,,,,,,,,,1.49,0.93,1.16*10
$BDGSA,A,3,19,,,,,,,,,,,,1.49,0.93,1.16*1B
$GPGSV,3,1,12,29,66,275,39.6,30,61,356,39.3,05,59,054,39.5,12,49,066,39.5*74
$GPGSV,3,2,12,24,44,156,39.4,09,30,154,39.2,14,24,261,,40,19,251,*7F
$GPGSV,3,3,12,21,13,191,39.4,193,,,,194,,,,195,,,*68
$GLGSV,3,1,9,88,45,298,38.3,87,44,210,37.9,72,35,034,37.5,74,27,073,*4C
$GLGSV,3,2,9,75,22,132,,66,15,278,,81,09,333,,73,06,028,38.6*4E
$GLGSV,3,3,9,86,02,174,*62
$BDGSV,1,1,2,19,11,177,35.8,02,,,34.9*61
$GNRMC,080401.000,A,3113.9989,N,12130.2529,E,161.898,270.00,200821,,,A*42
$GNVTG,270.00,T,,M,161.898,N,299.997,K,A*2C
$PMTKGEPH,7,0,0,0,0,1,0,0,0,1,0,0,1,0,0,0,0,0,0,0,0,1,0,0,1,0,0,0,0,1,1,0,0*02
$PMTKGALM,6,0,0,0,0,0,0,0,0,0,0,0,0,1,1,1,1,1,1,0,0,0,0,0,0,0,0,0,0,0,0,0,0*1F
$GNACCURACY,1.3,0.1,0.2,11.5*20
$PMTKAGC,080401.000,2979,2950,5988,5806,0,3,0*6B
$PMTKAG2,080401.000,5,0121,0,0,0,0,0,0,0,0,0,0,0,0*3E
$GNGGA,080402.000,3113.9990,N,12130.2003,E,1,12,0.93,48.3,M,8.2,M,,*79
$GPGSA,A,3,30,29,21,05,24,09,12,,,,,,1.49,0.93,1.16*00
$GLGSA,A,3,87,73,88,72,,,,,,,,,1.49,0.93,1.16*10
$BDGSA,A,3,19,,,,,,,,,,,,1.49,0.93,1.16*1B
$GPGSV,3,1,12,29,66,275,39.5,30,61,356,39.3,05,59,054,39.5,12,49,066,39.5*77
$GPGSV,3,2,12,24,44,156,39.3,09,30,154,39.2,14,24,261,,40,19,251,*78
$GPGSV,3,3,12,21,13,191,39.4,193,,,,194,,,,195,,,*68
$GLGSV,3,1,9,88,45,298,38.3,87,44,210,37.9,72,35,034,37.5,74,27,073,*4C
$GLGSV,3,2,9,75,22,132,,66,15,278,,81,09,333,34.5,73,06,028,38.5*51
$GLGSV,3,3,9,86,02,174,*62
$BDGSV,1,1,2,19,11,177,35.8,02,,,35.1*68
$GNRMC,080402.000,A,3113.9990,N,12130.2003,E,161.899,270.01,200821,,,A*44
$GNVTG,270.01,T,,M,161.899,N,300.000,K,A*2A
$PMTKGEPH,7,0,0,0,0,1,0,0,0,1,0,0,1,0,0,0,0,0,0,0,0,1,0,0,1,0,0,0,0,1,1,0,0*02
$PMTKGALM,6,0,0,0,0,0,0,0,0,0,0,0,0,1,1,1,1,1,1,0,0,0,0,0,0,0,0,0,0,0,0,0,0*1F
$GNACCURACY,1.3,0.1,0.2,11.4*21
$PMTKAGC,080402.000,2925,3102,5935,6098,0,3,0*65
$PMTKAG2,080402.000,5,0121,0,0,0,0,0,0,0,0,0,0,0,0*3D
$GNGGA,080403.000,3113.9991,N,12130.1482,E,1,12,0.93,47.9,M,8.2,M,,*72
$GPGSA,A,3,30,29,21,05,24,09,12,,,,,,1.49,0.93,1.16*00
$GLGSA,A,3,87,73,88,72,,,,,,,,,1.49,0.93,1.16*10
$BDGSA,A,3,19,,,,,,,,,,,,1.49,0.93,1.16*1B
$GPGSV,3,1,12,29,66,275,39.5,30,61,356,39.4,05,59,054,39.5,12,49,066,39.5*70
$GPGSV,3,2,12,24,44,156,39.4,09,30,154,39.2,14,24,261,,40,19,251,*7F
$GPGSV,3,3,12,21,13,191,39.5,193,,,,194,,,,195,,,*69
$GLGSV,3,1,9,88,45,298,38.4,87,44,210,37.9,72,35,034,37.5,74,27,073,*4B
$GLGSV,3,2,9,75,22,132,,66,15,278,,81,09,333,,73,06,028,38.6*4E
$GLGSV,3,3,9,86,02,174,*62
$BDGSV,1,1,2,19,11,177,35.8,02,,,35.0*69
$GNRMC,080403.000,A,3113.9991,N,12130.1482,E,159.077,270.01,200821,,,A*49
$GNVTG,270.01,T,,M,159.077,N,294.769,K,A*2D
$PMTKGEPH,7,0,0,0,0,1,0,0,0,1,0,0,1,0,0,0,0,0,0,0,0,1,0,0,1,0,0,0,0,1,1,0,0*02
$PMTKGALM,6,0,0,0,0,0,0,0,0,0,0,0,0,1,1,1,1,1,1,0,0,0,0,0,0,0,0,0,0,0,0,0,0*1F
$GNACCURACY,1.3,0.1,0.2,11.4*21
$PMTKAGC,080403.000,3268,2949,5911,5991,0,3,0*64
$PMTKAG2,080403.000,5,0121,0,0,0,0,0,0,0,0,0,0,0,0*3C
$GNGGA,080404.000,3113.9992,N,12130.1018,E,1,11,1.15,47.0,M,8.2,M,,*74
$GPGSA,A,3,30,29,21,05,24,09,12,,,,,,1.64,1.15,1.17*01
$GLGSA,A,3,87,73,72,,,,,,,,,,1.64,1.15,1.17*11
$BDGSA,A,3,19,,,,,,,,,,,,1.64,1.15,1.17*1A
$GPGSV,3,1,12,29,66,275,39.5,30,61,356,39.4,05,59,054,39.4,12,49,066,39.5*71
$GPGSV,3,2,12,24,44,156,39.4,09,30,154,39.2,14,24,261,,40,19,251,*7F
$GPGSV,3,3,12,21,13,191,39.5,193,,,,194,,,,195,,,*69
$GLGSV,3,1,9,88,45,298,,87,44,210,37.9,72,35,034,37.5,74,27,073,*5A
$GLGSV,3,2,9,75,22,132,,66,15,278,,81,09,333,,73,06,028,38.6*4E
$GLGSV,3,3,9,86,02,174,*62
$BDGSV,1,1,2,19,11,177,35.9,02,,,35.0*68
$GNRMC,080404.000,A,3113.9992,N,12130.1018,E,127.563,270.11,200821,,,A*42
$GNVTG,270.11,T,,M,127.563,N,236.374,K,A*25
$PMTKGEPH,7,0,0,0,0,1,0,0,0,1,0,0,1,0,0,0,0,0,0,0,0,1,0,0,1,0,0,0,0,1,1,0,0*02
$PMTKGALM,6,0,0,0,0,0,0,0,0,0,0,0,0,1,1,1,1,1,1,0,0,0,0,0,0,0,0,0,0,0,0,0,0*1F
$GNACCURACY,1.3,0.2,0.7,11.4*27
$PMTKAGC,080404.000,3083,2883,5976,5948,0,3,0*66
$PMTKAG2,080404.000,5,0121,0,0,0,0,0,0,0,0,0,0,0,0*3B
$GNGGA,080405.000,3113.9993,N,12130.0651,E,1,11,1.15,45.8,M,8.2,M,,*74
$GPGSA,A,3,30,29,21,05,24,09,12,,,,,,1.64,1.15,1.17*01
$GLGSA,A,3,87,73,72,,,,,,,,,,1.64,1.15,1.17*11
$BDGSA,A,3,19,,,,,,,,,,,,1.64,1.15,1.17*1A
$GPGSV,3,1,12,29,66,275,39.6,30,61,356,39.4,05,59,054,39.4,12,49,066,39.4*73
$GPGSV,3,2,12,24,44,156,39.4,09,30,154,39.2,14,24,261,,40,19,251,*7F
$GPGSV,3,3,12,21,13,191,39.5,193,,,,194,,,,195,,,*69
$GLGSV,3,1,9,88,45,298,,87,44,210,37.9,72,35,034,37.5,74,27,073,*5A
$GLGSV,3,2,9,75,22,132,,66,15,278,,81,09,333,,73,06,028,38.6*4E
$GLGSV,3,3,9,86,02,174,*62
$BDGSV,1,1,2,19,11,177,35.9,02,,,35.1*69
$GNRMC,080405.000,A,3113.9993,N,12130.0651,E,96.862,270.26,200821,,,A*7B
$GNVTG,270.26,T,,M,96.862,N,179.485,K,A*17
$PMTKGEPH,7,0,0,0,0,1,0,0,0,1,0,0,1,0,0,0,0,0,0,0,0,1,0,0,1,0,0,0,0,1,1,0,0*02
$PMTKGALM,6,0,0,0,0,0,0,0,0,0,0,0,0,1,1,1,1,1,1,0,0,0,0,0,0,0,0,0,0,0,0,0,0*1F
$GNACCURACY,1.4,0.3,0.9,11.4*2F
$PMTKAGC,080405.000,2951,2974,6089,5942,0,3,0*69
$PMTKAG2,080405.000,5,0121,0,0,0,0,0,0,0,0,0,0,0,0*3A
$GNGGA,080406.000,3113.9995,N,12130.0384,E,1,11,1.15,45.5,M,8.2,M,,*71
$GPGSA,A,3,30,29,21,05,24,09,12,,,,,,1.64,1.15,1.17*01
$GLGSA,A,3,87,73,72,,,,,,,,,,1.64,1.15,1.17*11
$BDGSA,A,3,19,,,,,,,,,,,,1.64,1.15,1.17*1A
$GPGSV,3,1,12,29,66,275,39.6,30,61,356,39.3,05,59,054,39.4,12,49,066,39.5*75
$GPGSV,3,2,12,24,44,156,39.4,09,30,154,39.2,14,24,261,,40,19,251,*7F
$GPGSV,3,3,12,21,13,191,39.5,193,,,,194,,,,195,,,*69
$GLGSV,3,1,9,88,45,298,,87,44,210,37.9,72,35,034,37.6,74,27,073,*59
$GLGSV,3,2,9,75,22,132,,66,15,278,,81,09,333,,73,06,028,38.6*4E
$GLGSV,3,3,9,86,02,174,*62
$BDGSV,1,1,2,19,11,177,35.9,02,,,35.0*68
$GNRMC,080406.000,A,3113.9995,N,12130.0384,E,69.534,270.39,200821,,,A*73
$GNVTG,270.39,T,,M,69.534,N,128.846,K,A*10
$PMTKGEPH,7,0,0,0,0,1,0,0,0,1,0,0,1,0,0,0,0,0,0,0,0,1,0,0,1,0,0,0,0,1,1,0,0*02
$PMTKGALM,6,0,0,0,0,0,0,0,0,0,0,0,0,1,1,1,1,1,1,0,0,0,0,0,0,0,0,0,0,0,0,0,0*1F
$GNACCURACY,1.4,0.5,0.9,11.4*29
$PMTKAGC,080406.000,3066,2908,6074,6001,0,3,0*62
$PMTKAG2,080406.000,5,0120,0,0,0,0,0,0,0,0,0,0,0,0*38
$GNGGA,080407.000,3113.9996,N,12130.0203,E,1,12,0.93,44.9,M,8.2,M,,*7C
$GPGSA,A,3,30,29,21,05,24,09,12,,,,,,1.49,0.93,1.16*00
$GLGSA,A,3,87,73,88,72,,,,,,,,,1.49,0.93,1.16*10
$BDGSA,A,3,19,,,,,,,,,,,,1.49,0.93,1.16*1B
$GPGSV,3,1,12,29,66,275,39.5,30,61,356,39.3,05,59,054,39.4,12,49,066,39.4*77
$GPGSV,3,2,12,24,44,156,39.4,09,30,154,39.2,14,24,261,,40,19,251,*7F
$GPGSV,3,3,12,21,13,191,39.5,193,,,,194,,,,195,,,*69
$GLGSV,3,1,9,88,45,298,38.4,87,44,210,38.0,72,35,035,37.5,74,27,073,*4C
$GLGSV,3,2,9,75,22,132,,66,15,278,,81,09,333,,73,06,028,38.6*4E
$GLGSV,3,3,9,86,02,174,*62
$BDGSV,1,1,2,19,11,177,35.9,02,,,35.0*68
$GNRMC,080407.000,A,3113.9996,N,12130.0203,E,43.705,270.85,200821,,,A*70
$GNVTG,270.85,T,,M,43.705,N,80.984,K,A*23
$PMTKGEPH,7,0,0,0,0,1,0,0,0,1,0,0,1,0,0,0,0,0,0,0,0,1,0,0,1,0,0,0,0,1,1,0,0*02
$PMTKGALM,6,0,0,0,0,0,0,0,0,0,0,0,0,1,1,1,1,1,1,0,0,0,0,0,0,0,0,0,0,0,0,0,0*1F
$GNACCURACY,1.5,0.8,0.9,11.5*24
$PMTKAGC,080407.000,3080,3104,6127,5886,0,3,0*6D
$PMTKAG2,080407.000,5,0121,0,0,0,0,0,0,0,0,0,0,0,0*38
$GNGGA,080408.000,3113.9998,N,12130.0108,E,1,11,1.15,44.3,M,8.2,M,,*73
$GPGSA,A,3,30,29,21,05,24,09,12,,,,,,1.64,1.15,1.16*00
$GLGSA,A,3,87,73,72,,,,,,,,,,1.64,1.15,1.16*10
$BDGSA,A,3,19,,,,,,,,,,,,1.64,1.15,1.16*1B
$GPGSV,3,1,12,29,66,275,39.4,30,61,356,39.2,05,59,054,39.4,12,49,066,39.4*77
$GPGSV,3,2,12,24,44,156,39.4,09,30,154,39.2,14,24,261,,40,19,251,*7F
$GPGSV,3,3,12,21,13,191,39.4,193,,,,194,,,,195,,,*68
$GLGSV,3,1,9,88,45,298,,87,44,210,37.9,72,35,035,37.5,74,27,073,*5B
$GLGSV,3,2,9,75,22,132,,66,15,278,,81,09,333,,73,05,027,38.6*42
$GLGSV,3,3,9,86,02,174,*62
$BDGSV,1,1,2,19,11,177,35.9,02,,,35.1*69
$GNRMC,080408.000,A,3113.9998,N,12130.0108,E,16.813,272.10,200821,,,A*7F
$GNVTG,272.10,T,,M,16.813,N,31.155,K,A*2B
$PMTKGEPH,7,0,0,0,0,1,0,0,0,1,0,0,1,0,0,0,0,0,0,0,0,1,0,0,1,0,0,0,0,1,1,0,0*02
$PMTKGALM,6,0,0,0,0,0,0,0,0,0,0,0,0,1,1,1,1,1,1,0,0,0,0,0,0,0,0,0,0,0,0,0,0*1F
$GNACCURACY,1.5,2.2,1.0,11.8*29
$PMTKAGC,080408.000,3112,2985,5910,5971,0,3,0*6E
$PMTKAG2,080408.000,5,0121,0,0,0,0,0,0,0,0,0,0,0,0*37
$GNGGA,080409.000,3114.0005,N,12130.0060,E,1,12,0.93,43.7,M,8.2,M,,*71
$GPGSA,A,3,30,29,21,05,24,09,12,,,,,,1.49,0.93,1.16*00
$GLGSA,A,3,87,73,88,72,,,,,,,,,1.49,0.93,1.16*10
$BDGSA,A,3,19,,,,,,,,,,,,1.49,0.93,1.16*1B
$GPGSV,3,1,12,29,66,275,39.4,30,61,356,39.2,05,59,054,39.3,12,49,066,39.4*70
$GPGSV,3,2,12,24,44,156,39.4,09,30,154,39.2,14,24,261,,40,19,251,*7F
$GPGSV,3,3,12,21,13,191,39.5,193,,,,194,,,,195,,,*69
$GLGSV,3,1,9,88,45,298,38.4,87,44,210,37.9,72,35,035,37.5,74,28,072,*44
$GLGSV,3,2,9,75,22,132,,66,15,278,,81,09,333,34.1,73,05,027,38.6*5A
$GLGSV,3,3,9,86,02,174,*62
$BDGSV,1,1,2,19,11,177,35.9,02,,,35.0*68
$GNRMC,080409.000,A,3114.0005,N,12130.0060,E,15.184,284.30,200821,,,A*7D
$GNVTG,284.30,T,,M,15.184,N,28.137,K,A*28
$PMTKGEPH,7,0,0,0,0,1,0,0,0,1,0,0,1,0,0,0,0,0,0,0,0,1,0,0,1,0,0,0,0,1,1,0,0*02
$PMTKGALM,6,0,0,0,0,0,0,0,0,0,0,0,0,1,1,1,1,1,1,0,0,0,0,0,0,0,0,0,0,0,0,0,0*1F
$GNACCURACY,1.5,3.1,1.2,11.5*24
$PMTKAGC,080409.000,3065,3365,5899,5823,0,3,0*6D
$PMTKAG2,080409.000,5,0121,0,0,0,0,0,0,0,0,0,0,0,0*36
$GNGGA,080410.000,3114.0027,N,12130.0021,E,1,12,0.93,43.0,M,8.2,M,,*7B
$GPGSA,A,3,30,29,21,05,24,09,12,,,,,,1.49,0.93,1.16*00
$GLGSA,A,3,87,73,88,72,,,,,,,,,1.49,0.93,1.16*10
$BDGSA,A,3,19,,,,,,,,,,,,1.49,0.93,1.16*1B
$GPGSV,3,1,12,29,66,275,39.4,30,61,356,39.3,05,59,054,39.3,12,49,066,39.4*71
$GPGSV,3,2,12,24,44,156,39.4,09,30,154,39.2,14,24,261,,21,13,191,39.5*6C
$GPGSV,3,3,12,193,,,,194,,,,195,,,,34,,,*47
$GLGSV,3,1,9,88,45,298,38.5,87,44,210,37.9,72,35,035,37.6,74,28,072,*46
$GLGSV,3,2,9,75,23,132,,66,15,278,,81,09,333,33.7,73,05,027,38.6*5A
$GLGSV,3,3,9,86,02,174,*62
$BDGSV,1,1,2,19,11,177,35.9,02,,,35.0*68
$GNRMC,080410.000,A,3114.0027,N,12130.0021,E,15.580,313.65,200821,,,A*7F
$GNVTG,313.65,T,,M,15.580,N,28.869,K,A*25
$PMTKGEPH,7,0,0,0,0,1,0,0,0,1,0,0,1,0,0,0,0,0,0,0,0,1,0,0,1,0,0,0,0,1,1,0,0*02
$PMTKGALM,6,0,0,0,0,0,0,0,0,0,0,0,0,1,1,1,1,1,1,0,0,0,0,0,0,0,0,0,0,0,0,0,0*1F
$GNACCURACY,1.5,5.4,1.3,11.6*25
$PMTKAGC,080410.000,3073,3150,5932,5990,0,3,0*6F
$PMTKAG2,080410.000,5,0121,0,0,0,0,0,0,0,0,0,0,0,0*3E
$GNGGA,080411.000,3114.0066,N,12129.9997,E,1,12,0.93,41.9,M,8.2,M,,*71
$GPGSA,A,3,30,29,21,05,24,09,12,,,,,,1.49,0.93,1.16*00
$GLGSA,A,3,87,73,88,72,,,,,,,,,1.49,0.93,1.16*10
$BDGSA,A,3,19,,,,,,,,,,,,1.49,0.93,1.16*1B
$GPGSV,3,1,12,29,66,275,39.4,30,61,356,39.3,05,59,054,39.3,12,49,066,39.4*71
$GPGSV,3,2,12,24,44,156,39.4,09,30,154,39.2,14,24,261,,21,13,191,39.5*6C
$GPGSV,3,3,12,193,,,,194,,,,195,,,,34,,,*47
$GLGSV,3,1,9,88,45,298,38.5,87,44,210,37.9,72,35,035,37.6,74,28,072,*46
$GLGSV,3,2,9,75,23,132,,66,15,278,,81,09,333,,73,05,027,38.5*40
$GLGSV,3,3,9,86,02,174,*62
$BDGSV,1,1,2,19,11,177,35.9,02,,,35.1*69
$GNRMC,080411.000,A,3114.0066,N,12129.9997,E,15.896,335.23,200821,,,A*72
$GNVTG,335.23,T,,M,15.896,N,29.455,K,A*2B
$PMTKGEPH,7,0,0,0,0,1,0,0,0,1,0,0,1,0,0,0,0,0,0,0,0,1,0,0,1,0,0,0,0,1,1,0,0*02
$PMTKGALM,6,0,0,0,0,0,0,0,0,0,0,0,0,1,1,1,1,1,1,0,0,0,0,0,0,0,0,0,0,0,0,0,0*1F
$GNACCURACY,1.5,5.1,1.1,11.6*22
$PMTKAGC,080411.000,3134,3089,5909,5960,0,3,0*6E
$PMTKAG2,080411.000,5,0121,0,0,0,0,0,0,0,0,0,0,0,0*3F
$GNGGA,080412.000,3114.0114,N,12129.9990,E,1,12,0.93,41.0,M,8.2,M,,*78
$GPGSA,A,3,30,29,21,05,24,09,12,,,,,,1.49,0.93,1.16*00
$GLGSA,A,3,87,73,88,72,,,,,,,,,1.49,0.93,1.16*10
$BDGSA,A,3,19,,,,,,,,,,,,1.49,0.93,1.16*1B
$GPGSV,3,1,12,29,66,275,39.4,30,61,356,39.3,05,59,054,39.3,12,49,066,39.4*71
$GPGSV,3,2,12,24,44,156,39.4,09,30,154,39.2,14,24,261,,21,13,191,39.5*6C
$GPGSV,3,3,12,193,,,,194,,,,195,,,,34,,,*47
$GLGSV,3,1,9,88,45,298,38.5,87,44,210,37.9,72,35,035,37.6,74,28,072,*46
$GLGSV,3,2,9,75,23,132,,66,15,278,,81,09,333,,73,05,027,38.6*43
$GLGSV,3,3,9,86,02,174,*62
$BDGSV,1,1,2,19,11,177,35.9,02,,,35.0*68
$GNRMC,080412.000,A,3114.0114,N,12129.9990,E,18.885,356.90,200821,,,A*70
$GNVTG,356.90,T,,M,18.885,N,34.993,K,A*22
$PMTKGEPH,7,0,0,0,0,1,0,0,0,1,0,0,1,0,0,0,0,0,0,0,0,1,0,0,1,0,0,0,0,1,1,0,0*02
$PMTKGALM,6,0,0,0,0,0,0,0,0,0,0,0,0,1,1,1,1,1,1,0,0,0,0,0,0,0,0,0,0,0,0,0,0*1F
$GNACCURACY,1.5,5.2,1.2,11.8*2C
$PMTKAGC,080412.000,3141,3110,5967,5877,0,3,0*61
$PMTKAG2,080412.000,5,0121,0,0,0,0,0,0,0,0,0,0,0,0*3C
$GNGGA,080413.000,3114.0206,N,12129.9992,E,1,12,0.93,40.6,M,8.2,M,,*7C
$GPGSA,A,3,30,29,21,05,24,09,12,,,,,,1.49,0.93,1.16*00
$GLGSA,A,3,87,73,88,72,,,,,,,,,1.49,0.93,1.16*10
$BDGSA,A,3,19,,,,,,,,,,,,1.49,0.93,1.16*1B
$GPGSV,3,1,12,29,66,275,39.4,30,61,356,39.3,05,59,054,39.3,12,49,066,39.4*71
$GPGSV,3,2,12,24,44,156,39.4,09,30,154,39.2,14,24,261,,21,13,191,39.5*6C
$GPGSV,3,3,12,193,,,,194,,,,195,,,,34,,,*47
$GLGSV,3,1,9,88,45,298,38.5,87,44,210,38.0,72,35,035,37.5,74,28,072,*43
$GLGSV,3,2,9,75,23,132,,66,15,278,,81,09,333,33.6,73,05,027,38.5*58
$GLGSV,3,3,9,86,02,174,*62
$BDGSV,1,1,2,19,11,177,35.9,02,,,35.0*68
$GNRMC,080413.000,A,3114.0206,N,12129.9992,E,42.830,358.97,200821,,,A*7B
$GNVTG,358.97,T,,M,42.830,N,79.364,K,A*21
$PMTKGEPH,7,0,0,0,0,1,0,0,0,1,0,0,1,0,0,0,0,0,0,0,0,1,0,0,1,0,0,0,0,1,1,0,0*02
$PMTKGALM,7,0,0,0,0,0,0,0,0,0,0,0,0,1,1,1,1,1,1,1,0,0,0,0,0,0,0,0,0,0,0,0,0*1F
$GNACCURACY,1.5,2.5,1.5,11.7*24
$PMTKAGC,080413.000,3127,3063,5918,6015,0,3,0*62
$PMTKAG2,080413.000,5,0121,0,0,0,0,0,0,0,0,0,0,0,0*3D
$GNGGA,080414.000,3114.0378,N,12129.9995,E,1,12,0.93,40.8,M,8.2,M,,*7A
$GPGSA,A,3,30,29,21,05,24,09,12,,,,,,1.49,0.93,1.16*00
$GLGSA,A,3,87,73,88,72,,,,,,,,,1.49,0.93,1.16*10
$BDGSA,A,3,19,,,,,,,,,,,,1.49,0.93,1.16*1B
$GPGSV,3,1,12,29,66,275,39.4,30,61,356,39.3,05,59,054,39.3,12,49,066,39.4*71
$GPGSV,3,2,12,24,44,156,39.4,09,30,154,39.2,14,24,261,,21,13,191,39.5*6C
$GPGSV,3,3,12,193,,,,194,,,,195,,,,34,,,*47
$GLGSV,3,1,9,88,45,298,38.4,87,44,210,38.0,72,35,035,37.5,74,28,072,*42
$GLGSV,3,2,9,75,23,132,,66,15,278,,81,09,333,30.0,73,05,027,38.5*5D
$GLGSV,3,3,9,86,02,174,*62
$BDGSV,1,1,2,19,11,177,35.9,02,,,35.1*69
$GNRMC,080414.000,A,3114.0378,N,12129.9995,E,73.068,0.31,200821,,,A*76
$GNVTG,0.31,T,,M,73.068,N,135.396,K,A*10
$PMTKGEPH,7,0,0,0,0,1,0,0,0,1,0,0,1,0,0,0,0,0,0,0,0,1,0,0,1,0,0,0,0,1,1,0,0*02
$PMTKGALM,7,0,0,0,0,0,0,0,0,0,0,0,0,1,1,1,1,1,1,1,0,0,0,0,0,0,0,0,0,0,0,0,0*1F
$GNACCURACY,1.6,1.6,1.7,12.0*21
$PMTKAGC,080414.000,3102,2949,5987,5872,0,3,0*6E
$PMTKAG2,080414.000,5,0121,0,0,0,0,0,0,0,0,0,0,0,0*3A
$GNGGA,080415.000,3114.0626,N,12129.9999,E,1,12,0.93,40.7,M,8.2,M,,*76
$GPGSA,A,3,30,29,21,05,24,09,12,,,,,,1.49,0.93,1.16*00
$GLGSA,A,3,87,73,88,72,,,,,,,,,1.49,0.93,1.16*10
$BDGSA,A,3,19,,,,,,,,,,,,1.49,0.93,1.16*1B
$GPGSV,3,1,12,29,66,275,39.4,30,61,356,39.3,05,59,054,39.3,12,49,066,39.4*71
$GPGSV,3,2,12,24,44,156,39.3,09,30,154,39.2,14,24,261,,21,13,191,39.5*6B
$GPGSV,3,3,12,193,,,,194,,,,195,,,,34,,,*47
$GLGSV,3,1,9,88,45,298,38.4,87,44,210,38.0,72,35,035,37.5,74,28,072,*42
$GLGSV,3,2,9,75,23,132,,66,15,278,,81,09,333,28.7,73,05,027,38.5*53
$GLGSV,3,3,9,86,02,174,*62
$BDGSV,1,1,2,19,11,177,35.9,02,,,35.0*68
$GNRMC,080415.000,A,3114.0626,N,12129.9999,E,102.596,0.34,200821,,,A*43
$GNVTG,0.34,T,,M,102.596,N,190.110,K,A*25
$PMTKGEPH,7,0,0,0,0,1,0,0,0,1,0,0,1,0,0,0,0,0,0,0,0,1,0,0,1,0,0,0,0,1,1,0,0*02
$PMTKGALM,7,0,0,0,0,0,0,0,0,0,0,0,0,1,1,1,1,1,1,1,0,0,0,0,0,0,0,0,0,0,0,0,0*1F
$GNACCURACY,1.7,0.3,0.8,11.8*21
$PMTKAGC,080415.000,2968,3146,5911,6001,0,3,0*6C
$PMTKAG2,080415.000,5,0121,0,0,0,0,0,0,0,0,0,0,0,0*3B
$GNGGA,080416.000,3114.0954,N,12130.0003,E,1,11,1.07,40.9,M,8.2,M,,*75
$GPGSA,A,3,30,29,21,05,24,09,12,,,,,,2.15,1.07,1.86*0F
$GLGSA,A,3,87,88,72,,,,,,,,,,2.15,1.07,1.86*1B
$BDGSA,A,3,19,,,,,,,,,,,,2.15,1.07,1.86*14
$GPGSV,3,1,12,29,66,275,39.4,30,61,356,39.3,05,59,054,39.3,12,49,066,39.4*71
$GPGSV,3,2,12,24,44,156,39.3,09,30,154,39.2,14,24,261,,21,13,191,39.5*6B
$GPGSV,3,3,12,193,,,,194,,,,195,,,,35,,,*46
$GLGSV,3,1,9,88,45,298,38.4,87,44,210,37.9,72,35,035,37.5,74,28,072,*44
$GLGSV,3,2,9,75,23,132,,66,15,278,,81,09,333,,73,05,027,*50
$GLGSV,3,3,9,86,02,174,*62
$BDGSV,1,1,2,19,11,177,35.9,02,,,35.0*68
$GNRMC,080416.000,A,3114.0954,N,12130.0003,E,129.183,0.33,200821,,,A*4F
$GNVTG,0.33,T,,M,129.183,N,239.377,K,A*28
$PMTKGEPH,7,0,0,0,0,1,0,0,0,1,0,0,1,0,0,0,0,0,0,0,0,1,0,0,1,0,0,0,0,1,1,0,0*02
$PMTKGALM,7,0,0,0,0,0,0,0,0,0,0,0,0,1,1,1,1,1,1,1,0,0,0,0,0,0,0,0,0,0,0,0,0*1F
$GNACCURACY,1.6,0.3,0.8,12.1*2A
$PMTKAGC,080416.000,3010,3085,5897,6058,0,3,0*65
$PMTKAG2,080416.000,5,0121,0,0,0,0,0,0,0,0,0,0,0,0*38
$GNGGA,080417.000,3114.1355,N,12129.9998,E,1,11,1.07,40.2,M,8.2,M,,*7F
$GPGSA,A,3,30,29,21,05,24,09,12,,,,,,2.15,1.07,1.86*0F
$GLGSA,A,3,87,88,72,,,,,,,,,,2.15,1.07,1.86*1B
$BDGSA,A,3,19,,,,,,,,,,,,2.15,1.07,1.86*14
$GPGSV,3,1,12,29,66,275,39.4,30,61,356,39.2,05,59,054,39.3,12,49,066,39.3*77
$GPGSV,3,2,12,24,44,156,39.3,09,30,154,39.2,14,24,261,,21,13,191,39.4*6A
$GPGSV,3,3,12,193,,,,194,,,,195,,,,35,,,*46
$GLGSV,3,1,9,88,45,298,38.4,87,44,210,38.0,72,35,035,37.6,74,28,072,*41
$GLGSV,3,2,9,75,23,132,,66,15,278,,81,09,333,,73,05,027,*50
$GLGSV,3,3,9,86,02,174,*62
$BDGSV,1,1,2,19,11,177,35.9,02,,,35.1*69
$GNRMC,080417.000,A,3114.1355,N,12129.9998,E,156.663,358.35,200821,,,A*47
$GNVTG,358.35,T,,M,156.663,N,290.296,K,A*2C
$PMTKGEPH,7,0,0,0,0,1,0,0,0,1,0,0,1,0,0,0,0,0,0,0,0,1,0,0,1,0,0,0,0,1,1,0,0*02
$PMTKGALM,7,0,0,0,0,0,0,0,0,0,0,0,0,1,1,1,1,1,1,1,0,0,0,0,0,0,0,0,0,0,0,0,0*1F
$GNACCURACY,1.6,0.1,0.9,11.8*23
$PMTKAGC,080417.000,3018,2945,5972,5982,0,3,0*6F
$PMTKAG2,080417.000,5,0121,0,0,0,0,0,0,0,0,0,0,0,0*39
$GNGGA,080418.000,3114.1804,N,12129.9993,E,1,12,0.93,40.0,M,8.2,M,,*79
$GPGSA,A,3,30,29,21,05,24,09,12,,,,,,1.49,0.93,1.16*00
$GLGSA,A,3,87,73,88,72,,,,,,,,,1.49,0.93,1.16*10
$BDGSA,A,3,19,,,,,,,,,,,,1.49,0.93,1.16*1B
$GPGSV,3,1,12,29,66,275,39.4,30,61,356,39.3,05,59,054,39.3,12,49,066,39.3*76
$GPGSV,3,2,12,24,44,156,39.4,09,30,154,39.2,14,24,261,,21,13,191,39.4*6D
$GPGSV,3,3,12,193,,,,194,,,,195,,,,35,,,*46
$GLGSV,3,1,9,88,45,298,38.4,87,44,210,38.0,72,35,035,37.6,74,28,072,*41
$GLGSV,3,2,9,75,23,132,,66,15,278,,81,09,333,,73,05,027,38.4*41
$GLGSV,3,3,9,86,02,174,*62
$BDGSV,1,1,2,19,11,177,35.9,02,,,35.0*68
$GNRMC,080418.000,A,3114.1804,N,12129.9993,E,163.782,359.99,200821,,,A*43
$GNVTG,359.99,T,,M,163.782,N,303.488,K,A*21
$PMTKGEPH,7,0,0,0,0,1,0,0,0,1,0,0,1,0,0,0,0,0,0,0,0,1,0,0,1,0,0,0,0,1,1,0,0*02
$PMTKGALM,7,0,0,0,0,0,0,0,0,0,0,0,0,1,1,1,1,1,1,1,0,0,0,0,0,0,0,0,0,0,0,0,0*1F
$GNACCURACY,1.5,0.2,0.8,11.6*2C
$PMTKAGC,080418.000,2977,3078,5819,5972,0,3,0*64
$PMTKAG2,080418.000,5,0121,0,0,0,0,0,0,0,0,0,0,0,0*36
$GNGGA,080419.000,3114.2259,N,12129.9995,E,1,12,0.93,40.3,M,8.2,M,,*7C
$GPGSA,A,3,30,29,21,05,24,09,12,,,,,,1.49,0.93,1.16*00
$GLGSA,A,3,87,73,88,72,,,,,,,,,1.49,0.93,1.16*10
$BDGSA,A,3,19,,,,,,,,,,,,1.49,0.93,1.16*1B
$GPGSV,3,1,12,29,66,275,39.4,30,61,356,39.3,05,59,054,39.3,12,49,066,39.3*76
$GPGSV,3,2,12,24,44,156,39.4,09,30,154,39.2,14,24,261,,21,13,191,39.4*6D
$GPGSV,3,3,12,193,,,,194,,,,195,,,,35,,,*46
$GLGSV,3,1,9,88,45,298,38.3,87,44,210,38.0,72,35,035,37.5,74,28,072,*45
$GLGSV,3,2,9,75,23,132,,66,15,278,,81,09,333,,73,05,027,38.5*40
$GLGSV,3,3,9,86,02,174,*62
$BDGSV,1,1,2,19,11,177,35.9,02,,,35.0*68
$GNRMC,080419.000,A,3114.2259,N,12129.9995,E,162.006,0.01,200821,,,A*41
$GNVTG,0.01,T,,M,162.006,N,300.197,K,A*2D
$PMTKGEPH,7,0,0,0,0,1,0,0,0,1,0,0,1,0,0,0,0,0,0,0,0,1,0,0,1,0,0,0,0,1,1,0,0*02
$PMTKGALM,7,0,0,0,0,0,0,0,0,0,0,0,0,1,1,1,1,1,1,1,0,0,0,0,0,0,0,0,0,0,0,0,0*1F
$GNACCURACY,1.5,0.2,0.7,11.9*2C
$PMTKAGC,080419.000,3089,3183,6083,5930,0,3,0*67
$PMTKAG2,080419.000,5,0121,0,0,0,0,0,0,0,0,0,0,0,0*37
$GNGGA,080420.000,3114.2712,N,12129.9998,E,1,12,0.93,40.8,M,8.2,M,,*7A
$GPGSA,A,3,30,29,21,05,24,09,12,,,,,,1.49,0.93,1.16*00
$GLGSA,A,3,87,73,88,72,,,,,,,,,1.49,0.93,1.16*10
$BDGSA,A,3,19,,,,,,,,,,,,1.49,0.93,1.16*1B
$GPGSV,3,1,12,29,66,275,39.4,30,61,356,39.3,05,59,054,39.4,12,49,066,39.3*71
$GPGSV,3,2,12,24,44,156,39.4,09,30,154,39.2,14,24,261,,21,13,191,39.4*6D
$GPGSV,3,3,12,193,,,,194,,,,195,,,,35,,,*46
$GLGSV,3,1,9,88,45,298,38.2,87,44,210,38.0,72,35,035,37.5,74,28,072,*44
$GLGSV,3,2,9,75,23,132,,66,15,278,,81,09,333,34.1,73,05,027,38.4*59
$GLGSV,3,3,9,86,02,174,*62
$BDGSV,1,1,2,19,11,177,35.9,02,,,35.0*68
$GNRMC,080420.000,A,3114.2712,N,12129.9998,E,161.953,359.99,200821,,,A*48
$GNVTG,359.99,T,,M,161.953,N,300.098,K,A*27
$PMTKGEPH,7,0,0,0,0,1,0,0,0,1,0,0,1,0,0,0,0,0,0,0,0,1,0,0,1,0,0,0,0,1,1,0,0*02
$PMTKGALM,7,0,0,0,0,0,0,0,0,0,0,0,0,1,1,1,1,1,1,1,0,0,0,0,0,0,0,0,0,0,0,0,0*1F
$GNACCURACY,1.5,0.2,0.7,11.6*23
$PMTKAGC,080420.000,3063,3104,5896,5939,0,3,0*60
$PMTKAG2,080420.000,5,0121,0,0,0,0,0,0,0,0,0,0,0,0*3D
$GNGGA,080421.000,3114.3164,N,12130.0000,E,1,12,0.93,41.1,M,8.2,M,,*7C
$GPGSA,A,3,30,29,21,05,24,09,12,,,,,,1.49,0.93,1.16*00
$GLGSA,A,3,87,73,88,72,,,,,,,,,1.49,0.93,1.16*10
$BDGSA,A,3,19,,,,,,,,,,,,1.49,0.93,1.16*1B
$GPGSV,3,1,12,29,66,275,39.4,30,61,356,39.3,05,59,054,39.3,12,49,066,39.3*76
$GPGSV,3,2,12,24,44,156,39.4,09,30,154,39.2,14,24,261,,21,13,191,39.4*6D
$GPGSV,3,3,12,193,,,,194,,,,195,,,,35,,,*46
$GLGSV,3,1,9,88,45,298,38.2,87,44,210,38.0,72,35,035,37.5,74,28,072,*44
$GLGSV,3,2,9,75,23,132,,66,15,278,,81,09,333,33.8,73,05,027,38.5*56
$GLGSV,3,3,9,86,01,174,*61
$BDGSV,1,1,2,19,11,177,35.9,02,,,34.9*60
$GNRMC,080421.000,A,3114.3164,N,12130.0000,E,161.955,0.02,200821,,,A*4D
$GNVTG,0.02,T,,M,161.955,N,300.103,K,A*2F
$PMTKGEPH,7,0,0,0,0,1,0,0,0,1,0,0,1,0,0,0,0,0,0,0,0,1,0,0,1,0,0,0,0,1,1,0,0*02
$PMTKGALM,7,0,0,0,0,0,0,0,0,0,0,0,0,1,1,1,1,1,1,1,0,0,0,0,0,0,0,0,0,0,0,0,0*1F
$GNACCURACY,1.4,0.2,0.7,11.6*22
$PMTKAGC,080421.000,3085,3103,5954,5957,0,3,0*69
$PMTKAG2,080421.000,5,0121,0,0,0,0,0,0,0,0,0,0,0,0*3C
$GNGGA,080422.000,3114.3615,N,12130.0001,E,1,12,0.93,41.6,M,8.2,M,,*78
$GPGSA,A,3,30,29,21,05,24,09,12,,,,,,1.49,0.93,1.16*00
$GLGSA,A,3,87,73,88,72,,,,,,,,,1.49,0.93,1.16*10
$BDGSA,A,3,19,,,,,,,,,,,,1.49,0.93,1.16*1B
$GPGSV,3,1,12,29,66,275,39.4,30,61,356,39.3,05,59,054,39.4,12,49,066,39.3*71
$GPGSV,3,2,12,24,44,156,39.4,09,30,154,39.2,14,24,261,,21,13,191,39.4*6D
$GPGSV,3,3,12,193,,,,194,,,,195,,,,36,,,*45
$GLGSV,3,1,9,88,45,298,38.2,87,43,210,38.0,72,35,035,37.6,74,28,072,*40
$GLGSV,3,2,9,75,23,132,,66,15,278,,81,09,333,35.0,73,05,027,38.5*58
$GLGSV,3,3,9,86,01,174,*61
$BDGSV,1,1,2,19,11,177,35.9,02,,,34.9*60
$GNRMC,080422.000,A,3114.3615,N,12130.0001,E,161.780,0.02,200821,,,A*48
$GNVTG,0.02,T,,M,161.780,N,299.778,K,A*22
$PMTKGEPH,7,0,0,0,0,1,0,0,0,1,0,0,1,0,0,0,0,0,0,0,0,1,0,0,1,0,0,0,0,1,1,0,0*02
$PMTKGALM,7,0,0,0,0,0,0,0,0,0,0,0,0,1,1,1,1,1,1,1,0,0,0,0,0,0,0,0,0,0,0,0,0*1F
$GNACCURACY,1.4,0.1,0.6,11.7*21
$PMTKAGC,080422.000,3089,3088,5996,5911,0,3,0*68
$PMTKAG2,080422.000,5,0121,0,0,0,0,0,0,0,0,0,0,0,0*3F
$GNGGA,080423.000,3114.4039,N,12130.0002,E,1,11,1.07,42.0,M,8.2,M,,*7F
$GPGSA,A,3,30,29,21,05,24,09,12,,,,,,2.15,1.07,1.86*0F
$GLGSA,A,3,87,88,72,,,,,,,,,,2.15,1.07,1.86*1B
$BDGSA,A,3,19,,,,,,,,,,,,2.15,1.07,1.86*14
$GPGSV,3,1,12,29,66,275,39.5,30,61,356,39.3,05,59,054,39.4,12,49,066,39.3*70
$GPGSV,3,2,12,24,44,156,39.4,09,30,154,39.2,14,24,261,,21,13,191,39.4*6D
$GPGSV,3,3,12,193,,,,194,,,,195,,,,36,,,*45
$GLGSV,3,1,9,88,46,296,38.1,87,43,210,38.0,72,35,035,37.6,74,28,072,*4E
$GLGSV,3,2,9,75,23,132,,66,15,278,,81,09,333,,73,05,027,*50
$GLGSV,3,3,9,86,01,174,*61
$BDGSV,1,1,2,19,11,177,36.0,02,,,34.9*6A
$GNRMC,080423.000,A,3114.4039,N,12130.0002,E,137.488,359.82,200821,,,A*4A
$GNVTG,359.82,T,,M,137.488,N,254.765,K,A*20
$PMTKGEPH,7,0,0,0,0,1,0,0,0,1,0,0,1,0,0,0,0,0,0,0,0,1,0,0,1,0,0,0,0,1,1,0,0*02
$PMTKGALM,7,0,0,0,0,0,0,0,0,0,0,0,0,1,1,1,1,1,1,1,0,0,0,0,0,0,0,0,0,0,0,0,0*1F
$GNACCURACY,1.5,0.2,0.8,11.6*2C
$PMTKAGC,080423.000,3083,3171,6012,5932,0,3,0*63
$PMTKAG2,080423.000,5,0121,0,0,0,0,0,0,0,0,0,0,0,0*3E
$GNGGA,080424.000,3114.4387,N,12130.0002,E,1,10,1.30,42.2,M,8.2,M,,*79
$GPGSA,A,3,30,29,21,05,24,09,12,,,,,,2.69,1.30,2.35*0B
$GLGSA,A,3,87,88,,,,,,,,,,,2.69,1.30,2.35*1A
$BDGSA,A,3,19,,,,,,,,,,,,2.69,1.30,2.35*10
$GPGSV,3,1,12,29,66,275,39.5,30,61,356,39.3,05,59,054,39.3,12,49,066,39.3*77
$GPGSV,3,2,12,24,44,156,39.4,09,30,154,39.2,14,24,261,,21,13,191,39.4*6D
$GPGSV,3,3,12,193,,,,194,,,,195,,,,36,,,*45
$GLGSV,3,1,9,88,46,296,38.1,87,43,210,38.0,72,35,035,,74,28,072,*52
$GLGSV,3,2,9,75,23,132,,66,15,278,,81,09,333,35.4,73,05,027,*4C
$GLGSV,3,3,9,86,01,174,*61
$BDGSV,1,1,2,19,11,177,36.0,02,,,34.9*6A
$GNRMC,080424.000,A,3114.4387,N,12130.0002,E,109.163,359.73,200821,,,A*48
$GNVTG,359.73,T,,M,109.163,N,202.279,K,A*28
$PMTKGEPH,7,0,0,0,0,1,0,0,0,1,0,0,1,0,0,0,0,0,0,0,0,1,0,0,1,0,0,0,0,1,1,0,0*02
$PMTKGALM,7,0,0,0,0,0,0,0,0,0,0,0,0,1,1,1,1,1,1,1,0,0,0,0,0,0,0,0,0,0,0,0,0*1F
$GNACCURACY,1.6,0.3,0.9,11.6*2F
$PMTKAGC,080424.000,3018,3019,5989,5833,0,3,0*61
$PMTKAG2,080424.000,5,0121,0,0,0,0,0,0,0,0,0,0,0,0*39
$GNGGA,080425.000,3114.4656,N,12130.0002,E,1,10,1.30,42.7,M,8.2,M,,*74
$GPGSA,A,3,30,29,21,05,24,09,12,,,,,,2.69,1.30,2.36*08
$GLGSA,A,3,87,88,,,,,,,,,,,2.69,1.30,2.36*19
$BDGSA,A,3,19,,,,,,,,,,,,2.69,1.30,2.36*13
$GPGSV,3,1,12,29,66,275,39.5,30,61,356,39.3,05,59,054,39.3,12,49,066,39.3*77
$GPGSV,3,2,12,24,44,156,39.4,09,30,154,39.2,14,24,261,,21,13,191,39.4*6D
$GPGSV,3,3,12,193,,,,194,,,,195,,,,36,,,*45
$GLGSV,3,1,9,88,46,296,38.1,87,43,210,38.0,72,35,035,,74,28,072,*52
$GLGSV,3,2,9,75,23,132,,66,15,278,,81,09,333,30.6,73,05,027,*4B
$GLGSV,3,3,9,86,01,174,*61
$BDGSV,1,1,2,19,11,177,36.0,02,,,34.9*6A
$GNRMC,080425.000,A,3114.4656,N,12130.0002,E,82.141,359.77,200821,,,A*76
$GNVTG,359.77,T,,M,82.141,N,152.207,K,A*11
$PMTKGEPH,7,0,0,0,0,1,0,0,0,1,0,0,1,0,0,0,0,0,0,0,0,1,0,0,1,0,0,0,0,1,1,0,0*02
$PMTKGALM,7,0,0,0,0,0,0,0,0,0,0,0,0,1,1,1,1,1,1,1,0,0,0,0,0,0,0,0,0,0,0,0,0*1F
$GNACCURACY,1.7,0.4,0.9,11.6*29
$PMTKAGC,080425.000,3068,2961,6026,6013,0,3,0*66
$PMTKAG2,080425.000,5,0121,0,0,0,0,0,0,0,0,0,0,0,0*38
$GNGGA,080426.000,3114.4849,N,12130.0001,E,1,11,1.07,43.5,M,8.2,M,,*72
$GPGSA,A,3,30,29,21,05,24,09,12,,,,,,2.15,1.07,1.86*0F
$GLGSA,A,3,87,88,72,,,,,,,,,,2.15,1.07,1.86*1B
$BDGSA,A,3,19,,,,,,,,,,,,2.15,1.07,1.86*14
$GPGSV,3,1,12,29,66,275,39.4,30,61,356,39.3,05,59,054,39.3,12,49,066,39.4*71
$GPGSV,3,2,12,24,44,156,39.4,09,30,154,39.2,14,24,261,,21,13,191,39.4*6D
$GPGSV,3,3,12,193,,,,194,,,,195,,,,36,,,*45
$GLGSV,3,1,9,88,46,296,38.1,87,43,210,38.0,72,35,035,37.6,74,28,072,*4E
$GLGSV,3,2,9,75,23,132,,66,15,278,,81,09,333,,73,05,027,*50
$GLGSV,3,3,9,86,01,174,*61
$BDGSV,1,1,2,19,11,177,36.0,02,,,35.0*62
$GNRMC,080426.000,A,3114.4849,N,12130.0001,E,55.567,359.48,200821,,,A*70
$GNVTG,359.48,T,,M,55.567,N,102.965,K,A*1D
$PMTKGEPH,7,0,0,0,0,1,0,0,0,1,0,0,1,0,0,0,0,0,0,0,0,1,0,0,1,0,0,0,0,1,1,0,0*02
$PMTKGALM,7,0,0,0,0,0,0,0,0,0,0,0,0,1,1,1,1,1,1,1,0,0,0,0,0,0,0,0,0,0,0,0,0*1F
$GNACCURACY,1.7,0.6,0.9,11.6*2B
$PMTKAGC,080426.000,3079,2867,6031,5970,0,3,0*6B
$PMTKAG2,080426.000,5,0121,0,0,0,0,0,0,0,0,0,0,0,0*3B
$GNGGA,080427.000,3114.4965,N,12130.0003,E,1,11,1.07,43.8,M,8.2,M,,*73
$GPGSA,A,3,30,29,21,05,24,09,12,,,,,,2.15,1.07,1.86*0F
$GLGSA,A,3,87,88,72,,,,,,,,,,2.15,1.07,1.86*1B
$BDGSA,A,3,19,,,,,,,,,,,,2.15,1.07,1.86*14
$GPGSV,3,1,12,29,66,275,39.5,30,61,356,39.3,05,59,054,39.3,12,49,066,39.4*70
$GPGSV,3,2,12,24,44,156,39.4,09,30,154,39.2,14,24,261,,21,13,191,39.4*6D
$GPGSV,3,3,12,193,,,,194,,,,195,,,,36,,,*45
$GLGSV,3,1,9,88,46,296,38.1,87,43,210,38.0,72,35,035,37.6,74,28,072,*4E
$GLGSV,3,2,9,75,23,132,,66,15,278,,81,09,333,,73,05,027,*50
$GLGSV,3,3,9,86,01,174,*61
$BDGSV,1,1,2,19,11,177,36.0,02,,,35.0*62
$GNRMC,080427.000,A,3114.4965,N,12130.0003,E,30.624,4.73,200821,,,A*78
$GNVTG,4.73,T,,M,30.624,N,56.747,K,A*27
$PMTKGEPH,7,0,0,0,0,1,0,0,0,1,0,0,1,0,0,0,0,0,0,0,0,1,0,0,1,0,0,0,0,1,1,0,0*02
$PMTKGALM,7,0,0,0,0,0,0,0,0,0,0,0,0,1,1,1,1,1,1,1,0,0,0,0,0,0,0,0,0,0,0,0,0*1F
$GNACCURACY,1.6,0.8,0.9,11.8*2A
$PMTKAGC,080427.000,3062,2924,5981,5911,0,3,0*60
$PMTKAG2,080427.000,5,0120,0,0,0,0,0,0,0,0,0,0,0,0*3B
$GNGGA,080428.000,3114.5017,N,12130.0011,E,1,12,0.93,45.3,M,8.2,M,,*70
$GPGSA,A,3,30,29,21,05,24,09,12,,,,,,1.49,0.93,1.16*00
$GLGSA,A,3,87,73,88,72,,,,,,,,,1.49,0.93,1.16*10
$BDGSA,A,3,19,,,,,,,,,,,,1.49,0.93,1.16*1B
$GPGSV,3,1,12,29,66,275,39.5,30,61,356,39.4,05,59,054,39.3,12,49,066,39.4*77
$GPGSV,3,2,12,24,44,156,39.4,09,30,154,39.2,14,24,261,,21,13,191,39.4*6D
$GPGSV,3,3,12,193,,,,194,,,,195,,,,38,,,*4B
$GLGSV,3,1,9,88,46,296,38.1,87,43,210,38.0,72,35,035,37.5,74,28,072,*4D
$GLGSV,3,2,9,75,23,132,,66,15,278,,81,09,333,,73,05,027,38.4*41
$GLGSV,3,3,9,86,01,174,*61
$BDGSV,1,1,2,19,11,177,36.0,02,,,34.9*6A
$GNRMC,080428.000,A,3114.5017,N,12130.0011,E,12.610,9.11,200821,,,A*77
$GNVTG,9.11,T,,M,12.610,N,23.367,K,A*2D
$PMTKGEPH,7,0,0,0,0,1,0,0,0,1,0,0,1,0,0,0,0,0,0,0,0,1,0,0,1,0,0,0,0,1,1,0,0*02
$PMTKGALM,7,0,0,0,0,0,0,0,0,0,0,0,0,1,1,1,1,1,1,1,0,0,0,0,0,0,0,0,0,0,0,0,0*1F
$GNACCURACY,1.5,2.5,0.8,11.5*2A
$PMTKAGC,080428.000,2871,3064,5860,5854,0,3,0*66
$PMTKAG2,080428.000,5,0120,0,0,0,0,0,0,0,0,0,0,0,0*34
$GNGGA,080429.000,3114.5050,N,12130.0027,E,1,12,0.93,46.3,M,8.2,M,,*74
$GPGSA,A,3,30,29,21,05,24,09,12,,,,,,1.49,0.93,1.16*00
$GLGSA,A,3,87,73,88,72,,,,,,,,,1.49,0.93,1.16*10
$BDGSA,A,3,19,,,,,,,,,,,,1.49,0.93,1.16*1B
$GPGSV,3,1,12,29,66,275,39.5,30,61,356,39.4,05,59,054,39.3,12,49,066,39.4*77
$GPGSV,3,2,12,24,44,156,39.4,09,30,154,39.3,14,24,261,,21,13,191,39.4*6C
$GPGSV,3,3,12,193,,,,194,,,,195,,,,38,,,*4B
$GLGSV,3,1,9,88,46,296,38.1,87,43,210,38.0,72,35,035,37.6,74,28,072,*4E
$GLGSV,3,2,9,75,23,132,,66,15,278,,81,09,333,,73,05,027,38.4*41
$GLGSV,3,3,9,86,01,174,*61
$BDGSV,1,1,2,19,11,177,36.0,02,,,35.0*62
$GNRMC,080429.000,A,3114.5050,N,12130.0027,E,14.794,32.48,200821,,,A*4F
$GNVTG,32.48,T,,M,14.794,N,27.413,K,A*12
$PMTKGEPH,7,0,0,0,0,1,0,0,0,1,0,0,1,0,0,0,0,0,0,0,0,1,0,0,1,0,0,0,0,1,1,0,0*02
$PMTKGALM,7,0,0,0,0,0,0,0,0,0,0,0,0,1,1,1,1,1,1,1,0,0,0,0,0,0,0,0,0,0,0,0,0*1F
$GNACCURACY,1.5,3.7,0.9,11.8*25
$PMTKAGC,080429.000,2883,3107,6012,5973,0,3,0*64
$PMTKAG2,080429.000,5,0120,0,0,0,0,0,0,0,0,0,0,0,0*35
$GNGGA,080430.000,3114.5079,N,12130.0062,E,1,12,0.93,47.0,M,8.2,M,,*74
$GPGSA,A,3,30,29,21,05,24,09,12,,,,,,1.49,0.93,1.16*00
$GLGSA,A,3,87,73,88,72,,,,,,,,,1.49,0.93,1.16*10
$BDGSA,A,3,19,,,,,,,,,,,,1.49,0.93,1.16*1B
$GPGSV,3,1,12,29,66,275,39.5,30,61,356,39.4,05,59,054,39.4,12,49,066,39.4*70
$GPGSV,3,2,12,24,44,156,39.4,09,30,154,39.3,14,24,261,,21,13,191,39.4*6C
$GPGSV,3,3,12,193,,,,194,,,,195,,,,38,,,*4B
$GLGSV,3,1,9,88,46,296,38.1,87,43,210,38.0,72,35,035,37.5,74,28,072,*4D
$GLGSV,3,2,9,75,23,132,,66,15,278,,81,09,333,,73,05,027,38.4*41
$GLGSV,3,3,9,86,01,174,*61
$BDGSV,1,1,2,19,11,177,36.0,02,,,35.0*62
$GNRMC,080430.000,A,3114.5079,N,12130.0062,E,15.705,54.26,200821,,,A*4C
$GNVTG,54.26,T,,M,15.705,N,29.102,K,A*18
$PMTKGEPH,7,0,0,0,0,1,0,0,0,1,0,0,1,0,0,0,0,0,0,0,0,1,0,0,1,0,0,0,0,1,1,0,0*02
$PMTKGALM,7,0,0,0,0,0,0,0,0,0,0,0,0,1,1,1,1,1,1,1,0,0,0,0,0,0,0,0,0,0,0,0,0*1F
$GNACCURACY,1.5,4.1,1.0,11.5*21
$PMTKAGC,080430.000,3075,2988,5947,5938,0,3,0*67
$PMTKAG2,080430.000,5,0120,0,0,0,0,0,0,0,0,0,0,0,0*3D
$GNGGA,080431.000,3114.5094,N,12130.0110,E,1,12,0.93,47.5,M,8.2,M,,*77
$GPGSA,A,3,30,29,21,05,24,09,12,,,,,,1.49,0.93,1.16*00
$GLGSA,A,3,87,73,88,72,,,,,,,,,1.49,0.93,1.16*10
$BDGSA,A,3,19,,,,,,,,,,,,1.49,0.93,1.16*1B
$GPGSV,3,1,12,29,66,275,39.6,30,61,356,39.4,05,59,054,39.4,12,49,066,39.4*73
$GPGSV,3,2,12,24,44,156,39.4,09,30,154,39.3,14,24,261,,21,13,191,39.4*6C
$GPGSV,3,3,12,193,,,,194,,,,195,,,,38,,,*4B
$GLGSV,3,1,9,88,46,296,38.1,87,43,210,38.0,72,35,035,37.6,74,28,072,*4E
$GLGSV,3,2,9,75,23,132,,66,15,278,,81,09,333,,73,05,027,38.4*41
$GLGSV,3,3,9,86,01,174,*61
$BDGSV,1,1,2,19,11,177,36.0,02,,,35.0*62
$GNRMC,080431.000,A,3114.5094,N,12130.0110,E,15.753,76.23,200821,,,A*4C
$GNVTG,76.23,T,,M,15.753,N,29.190,K,A*15
$PMTKGEPH,7,0,0,0,0,1,0,0,0,1,0,0,1,0,0,0,0,0,0,0,0,1,0,0,1,0,0,0,0,1,1,0,0*02
$PMTKGALM,7,0,0,0,0,0,0,0,0,0,0,0,0,1,1,1,1,1,1,1,0,0,0,0,0,0,0,0,0,0,0,0,0*1F
$GNACCURACY,1.5,7.1,1.3,11.5*21
$PMTKAGC,080431.000,2902,2976,5959,5972,0,3,0*6E
$PMTKAG2,080431.000,5,0120,0,0,0,0,0,0,0,0,0,0,0,0*3C
$GNGGA,080432.000,3114.5095,N,12130.0182,E,1,12,0.93,47.7,M,8.2,M,,*7C
$GPGSA,A,3,30,29,21,05,24,09,12,,,,,,1.49,0.93,1.16*00
$GLGSA,A,3,87,73,88,72,,,,,,,,,1.49,0.93,1.16*10
$BDGSA,A,3,19,,,,,,,,,,,,1.49,0.93,1.16*1B
$GPGSV,3,1,12,29,66,275,39.5,30,61,356,39.4,05,59,054,39.4,12,49,066,39.4*70
$GPGSV,3,2,12,24,44,156,39.4,09,30,154,39.3,14,24,261,,21,13,191,39.4*6C
$GPGSV,3,3,12,193,,,,194,,,,195,,,,38,,,*4B
$GLGSV,3,1,9,88,46,296,38.1,87,43,210,38.0,72,35,035,37.5,74,28,072,*4D
$GLGSV,3,2,9,75,23,132,,66,15,278,,81,09,333,,73,05,027,38.4*41
$GLGSV,3,3,9,86,01,174,*61
$BDGSV,1,1,2,19,11,177,36.0,02,,,35.1*63
$GNRMC,080432.000,A,3114.5095,N,12130.0182,E,26.899,88.97,200821,,,A*42
$GNVTG,88.97,T,,M,26.899,N,49.844,K,A*14
$PMTKGEPH,7,0,0,0,0,1,0,0,0,1,0,0,1,0,0,0,0,0,0,0,0,1,0,0,1,0,0,0,0,1,1,0,0*02
$PMTKGALM,7,0,0,0,0,0,0,0,0,0,0,0,0,1,1,1,1,1,1,1,0,0,0,0,0,0,0,0,0,0,0,0,0*1F
$GNACCURACY,1.5,3.0,1.6,11.7*23
$PMTKAGC,080432.000,2996,3134,5977,5929,0,3,0*6D
$PMTKAG2,080432.000,5,0120,0,0,0,0,0,0,0,0,0,0,0,0*3F
$GNGGA,080433.000,3114.5093,N,12130.0329,E,1,11,1.15,47.7,M,8.2,M,,*74
$GPGSA,A,3,30,29,21,05,24,09,12,,,,,,1.63,1.15,1.16*07
$GLGSA,A,3,87,73,72,,,,,,,,,,1.63,1.15,1.16*17
$BDGSA,A,3,19,,,,,,,,,,,,1.63,1.15,1.16*1C
$GPGSV,3,1,12,29,66,275,39.6,30,61,356,39.4,05,59,054,39.5,12,49,066,39.4*72
$GPGSV,3,2,12,24,44,156,39.4,09,30,154,39.2,14,24,261,,21,13,191,39.4*6D
$GPGSV,3,3,12,193,,,,194,,,,195,,,,38,,,*4B
$GLGSV,3,1,9,88,46,296,,87,43,210,37.9,72,35,035,37.6,74,28,072,*5C
$GLGSV,3,2,9,75,23,132,,66,15,278,,81,09,333,,73,05,027,38.4*41
$GLGSV,3,3,9,86,01,174,*61
$BDGSV,1,1,2,19,11,177,36.0,02,,,35.0*62
$GNRMC,080433.000,A,3114.5093,N,12130.0329,E,54.285,90.25,200821,,,A*44
$GNVTG,90.25,T,,M,54.285,N,100.589,K,A*26
$PMTKGEPH,7,0,0,0,0,1,0,0,0,1,0,0,1,0,0,0,0,0,0,0,0,1,0,0,1,0,0,0,0,1,1,0,0*02
$PMTKGALM,7,0,0,0,0,0,0,0,0,0,0,0,0,1,1,1,1,1,1,1,0,0,0,0,0,0,0,0,0,0,0,0,0*1F
$GNACCURACY,1.6,1.1,1.8,11.5*2F
$PMTKAGC,080433.000,3132,2946,6100,5918,0,3,0*6E
$PMTKAG2,080433.000,5,0120,0,0,0,0,0,0,0,0,0,0,0,0*3E
$GNGGA,080434.000,3114.5092,N,12130.0572,E,1,11,1.15,47.4,M,8.2,M,,*79
$GPGSA,A,3,30,29,21,05,24,09,12,,,,,,1.63,1.15,1.16*07
$GLGSA,A,3,87,73,72,,,,,,,,,,1.63,1.15,1.16*17
$BDGSA,A,3,19,,,,,,,,,,,,1.63,1.15,1.16*1C
$GPGSV,3,1,12,29,66,275,39.6,30,61,356,39.3,05,59,054,39.5,12,49,066,39.4*75
$GPGSV,3,2,12,24,44,156,39.4,09,30,154,39.2,14,24,261,,21,13,191,39.4*6D
$GPGSV,3,3,12,193,,,,194,,,,195,,,,41,,,*45
$GLGSV,3,1,9,88,46,296,,87,43,210,37.9,72,35,035,37.6,74,28,072,*5C
$GLGSV,3,2,9,75,23,132,,66,15,278,,81,09,333,31.7,73,05,027,38.4*5A
$GLGSV,3,3,9,86,01,174,*61
$BDGSV,1,1,2,19,11,177,36.0,02,,,34.9*6A
$GNRMC,080434.000,A,3114.5092,N,12130.0572,E,89.618,89.89,200821,,,A*44
$GNVTG,89.89,T,,M,89.618,N,166.062,K,A*28
$PMTKGEPH,7,0,0,0,0,1,0,0,0,1,0,0,1,0,0,0,0,0,0,0,0,1,0,0,1,0,0,0,0,1,1,0,0*02
$PMTKGALM,7,0,0,0,0,0,0,0,0,0,0,0,0,1,1,1,1,1,1,1,0,0,0,0,0,0,0,0,0,0,0,0,0*1F
$GNACCURACY,1.7,0.4,0.9,11.7*28
$PMTKAGC,080434.000,2917,3009,5887,5928,0,3,0*62
$PMTKAG2,080434.000,5,0121,0,0,0,0,0,0,0,0,0,0,0,0*38
$GNGGA,080435.000,3114.5091,N,12130.0907,E,1,11,1.15,46.9,M,8.2,M,,*79
$GPGSA,A,3,30,29,21,05,24,09,12,,,,,,1.64,1.15,1.16*00
$GLGSA,A,3,87,73,72,,,,,,,,,,1.64,1.15,1.16*10
$BDGSA,A,3,19,,,,,,,,,,,,1.64,1.15,1.16*1B
$GPGSV,3,1,12,29,66,275,39.6,30,61,356,39.3,05,59,054,39.5,12,49,066,39.4*75
$GPGSV,3,2,12,24,44,156,39.4,09,30,154,39.2,14,24,261,,21,13,191,39.4*6D
$GPGSV,3,3,12,193,,,,194,,,,195,,,,41,,,*45
$GLGSV,3,1,9,88,46,296,,87,43,210,37.9,72,35,035,37.7,74,28,072,*5D
$GLGSV,3,2,9,75,23,132,,66,15,278,,81,09,333,,73,05,027,38.4*41
$GLGSV,3,3,9,86,01,174,*61
$BDGSV,1,1,2,19,11,177,36.0,02,,,35.0*62
$GNRMC,080435.000,A,3114.5091,N,12130.0907,E,115.883,89.87,200821,,,A*7E
$GNVTG,89.87,T,,M,115.883,N,214.732,K,A*1A
$PMTKGEPH,7,0,0,0,0,1,0,0,0,1,0,0,1,0,0,0,0,0,0,0,0,1,0,0,1,0,0,0,0,1,1,0,0*02
$PMTKGALM,7,0,0,0,0,0,0,0,0,0,0,0,0,1,1,1,1,1,1,1,0,0,0,0,0,0,0,0,0,0,0,0,0*1F
$GNACCURACY,1.7,0.3,0.9,12.0*2B
$PMTKAGC,080435.000,3056,3023,5960,5886,0,3,0*6B
$PMTKAG2,080435.000,5,0121,0,0,0,0,0,0,0,0,0,0,0,0*39
$GNGGA,080436.000,3114.5090,N,12130.1333,E,1,11,1.15,46.7,M,8.2,M,,*79
$GPGSA,A,3,30,29,21,05,24,09,12,,,,,,1.63,1.15,1.16*07
$GLGSA,A,3,87,73,72,,,,,,,,,,1.63,1.15,1.16*17
$BDGSA,A,3,19,,,,,,,,,,,,1.63,1.15,1.16*1C
$GPGSV,3,1,12,29,66,275,39.6,30,61,356,39.3,05,59,054,39.5,12,49,066,39.4*75
$GPGSV,3,2,12,24,44,156,39.4,09,30,154,39.2,14,24,261,,21,13,191,39.4*6D
$GPGSV,3,3,12,193,,,,194,,,,195,,,,41,,,*45
$GLGSV,3,1,9,88,46,296,,87,43,210,37.9,72,35,035,37.6,74,28,072,*5C
$GLGSV,3,2,9,75,23,132,,66,15,278,,81,09,333,,73,05,027,38.4*41
$GLGSV,3,3,9,86,01,174,*61
$BDGSV,1,1,2,19,11,177,35.9,02,,,35.0*68
$GNRMC,080436.000,A,3114.5090,N,12130.1333,E,142.973,89.98,200821,,,A*72
$GNVTG,89.98,T,,M,142.973,N,264.929,K,A*1B
$PMTKGEPH,7,0,0,0,0,1,0,0,0,1,0,0,1,0,0,0,0,0,0,0,0,1,0,0,1,0,0,0,0,1,1,0,0*02
$PMTKGALM,7,0,0,0,0,0,0,0,0,0,0,0,0,1,1,1,1,1,1,1,0,0,0,0,0,0,0,0,0,0,0,0,0*1F
$GNACCURACY,1.6,0.3,1.0,11.9*28
$PMTKAGC,080436.000,2898,3099,5927,5916,0,3,0*69
$PMTKAG2,080436.000,5,0121,0,0,0,0,0,0,0,0,0,0,0,0*3A
$GNGGA,080437.000,3114.5088,N,12130.1840,E,1,12,0.93,46.6,M,8.2,M,,*73
$GPGSA,A,3,30,29,21,05,24,09,12,,,,,,1.49,0.93,1.16*00
$GLGSA,A,3,87,73,88,72,,,,,,,,,1.49,0.93,1.16*10
$BDGSA,A,3,19,,,,,,,,,,,,1.49,0.93,1.16*1B
$GPGSV,3,1,12,29,66,275,39.6,30,61,356,39.3,05,59,054,39.5,12,49,066,39.3*72
$GPGSV,3,2,12,24,44,156,39.4,09,30,154,39.2,14,24,261,,21,13,191,39.4*6D
$GPGSV,3,3,12,193,,,,194,,,,195,,,,41,,,*45
$GLGSV,3,1,9,88,46,296,38.1,87,43,210,37.9,72,35,035,37.6,74,28,072,*48
$GLGSV,3,2,9,75,23,132,,66,15,278,,81,09,333,,73,05,027,38.4*41
$GLGSV,3,3,9,86,01,174,*61
$BDGSV,1,1,2,19,11,177,36.0,02,,,34.9*6A
$GNRMC,080437.000,A,3114.5088,N,12130.1840,E,165.119,89.97,200821,,,A*7B
$GNVTG,89.97,T,,M,165.119,N,305.965,K,A*1B
$PMTKGEPH,7,0,0,0,0,1,0,0,0,1,0,0,1,0,0,0,0,0,0,0,0,1,0,0,1,0,0,0,0,1,1,0,0*02
$PMTKGALM,7,0,0,0,0,0,0,0,0,0,0,0,0,1,1,1,1,1,1,1,0,0,0,0,0,0,0,0,0,0,0,0,0*1F
$GNACCURACY,1.6,0.2,0.9,11.6*2E
$PMTKAGC,080437.000,3086,3075,6008,6242,0,3,0*62
$PMTKAG2,080437.000,5,0121,0,0,0,0,0,0,0,0,0,0,0,0*3B
$GNGGA,080438.000,3114.5087,N,12130.2376,E,1,12,0.93,46.6,M,8.2,M,,*7E
$GPGSA,A,3,30,29,21,05,24,09,12,,,,,,1.49,0.93,1.16*00
$GLGSA,A,3,87,73,88,72,,,,,,,,,1.49,0.93,1.16*10
$BDGSA,A,3,19,,,,,,,,,,,,1.49,0.93,1.16*1B
$GPGSV,3,1,12,29,66,275,39.6,30,61,356,39.3,05,59,054,39.5,12,49,066,39.4*75
$GPGSV,3,2,12,24,44,156,39.4,09,30,154,39.2,14,24,261,,21,13,191,39.4*6D
$GPGSV,3,3,12,193,,,,194,,,,195,,,,41,,,*45
$GLGSV,3,1,9,88,46,296,38.2,87,43,210,37.9,72,35,035,37.6,74,28,072,*4B
$GLGSV,3,2,9,75,23,132,,66,15,278,,81,09,333,,73,05,027,38.4*41
$GLGSV,3,3,9,86,01,174,*61
$BDGSV,1,1,2,19,11,177,36.0,02,,,35.1*63
$GNRMC,080438.000,A,3114.5087,N,12130.2376,E,162.594,90.06,200821,,,A*70
$GNVTG,90.06,T,,M,162.594,N,301.287,K,A*1E
$PMTKGEPH,7,0,0,0,0,1,0,0,0,1,0,0,1,0,0,0,0,0,0,0,0,1,0,0,1,0,0,0,0,1,1,0,0*02
$PMTKGALM,7,0,0,0,0,0,0,0,0,0,0,0,0,1,1,1,1,1,1,1,0,0,0,0,0,0,0,0,0,0,0,0,0*1F
$GNACCURACY,1.5,0.2,0.8,11.8*22
$PMTKAGC,080438.000,3082,3065,5961,5936,0,3,0*66
$PMTKAG2,080438.000,5,0121,0,0,0,0,0,0,0,0,0,0,0,0*34
$GNGGA,080439.000,3114.5086,N,12130.2903,E,1,12,0.93,46.5,M,8.2,M,,*75
$GPGSA,A,3,30,29,21,05,24,09,12,,,,,,1.49,0.93,1.16*00
$GLGSA,A,3,87,73,88,72,,,,,,,,,1.49,0.93,1.16*10
$BDGSA,A,3,19,,,,,,,,,,,,1.49,0.93,1.16*1B
$GPGSV,3,1,12,29,66,275,39.5,30,61,356,39.2,05,59,054,39.5,12,49,066,39.4*77
$GPGSV,3,2,12,24,44,156,39.4,09,30,154,39.2,14,24,261,,21,13,191,39.4*6D
$GPGSV,3,3,12,193,,,,194,,,,195,,,,41,,,*45
$GLGSV,3,1,9,88,46,296,38.2,87,43,210,37.8,72,35,035,37.6,74,28,072,*4A
$GLGSV,3,2,9,75,23,132,,66,15,278,,81,09,333,,73,05,027,38.5*40
$GLGSV,3,3,9,86,01,174,*61
$BDGSV,1,1,2,19,11,177,36.0,02,,,34.9*6A
$GNRMC,080439.000,A,3114.5086,N,12130.2903,E,161.987,90.01,200821,,,A*72
$GNVTG,90.01,T,,M,161.987,N,300.161,K,A*1E
$PMTKGEPH,7,0,0,0,0,1,0,0,0,1,0,0,1,0,0,0,0,0,0,0,0,1,0,0,1,0,0,0,0,1,1,0,0*02
$PMTKGALM,7,0,0,0,0,0,0,0,0,0,0,0,0,1,1,1,1,1,1,1,0,0,0,0,0,0,0,0,0,0,0,0,0*1F
$GNACCURACY,1.5,0.2,0.8,11.6*2C
$PMTKAGC,080439.000,2945,3053,5915,5821,0,3,0*65
$PMTKAG2,080439.000,5,0121,0,0,0,0,0,0,0,0,0,0,0,0*35
$GNGGA,080440.000,3114.5087,N,12130.3430,E,1,12,0.93,46.2,M,8.2,M,,*71
$GPGSA,A,3,30,29,21,05,24,09,12,,,,,,1.49,0.93,1.16*00
$GLGSA,A,3,87,73,88,72,,,,,,,,,1.49,0.93,1.16*10
$BDGSA,A,3,19,,,,,,,,,,,,1.49,0.93,1.16*1B
$GPGSV,3,1,12,29,66,275,39.5,30,61,356,39.2,05,59,054,39.5,12,49,066,39.4*77
$GPGSV,3,2,12,24,44,156,39.4,09,30,154,39.2,14,24,261,,21,13,191,39.4*6D
$GPGSV,3,3,12,193,,,,194,,,,195,,,,43,,,*47
$GLGSV,3,1,9,88,46,296,38.2,87,43,210,37.8,72,35,035,37.6,74,28,072,*4A
$GLGSV,3,2,9,75,23,132,,66,15,278,,81,09,333,,73,05,027,38.5*40
$GLGSV,3,3,9,86,01,174,*61
$BDGSV,1,1,2,19,11,177,36.0,02,,,34.9*6A
$GNRMC,080440.000,A,3114.5087,N,12130.3430,E,161.968,90.02,200821,,,A*73
$GNVTG,90.02,T,,M,161.968,N,300.127,K,A*1E
$PMTKGEPH,7,0,0,0,0,1,0,0,0,1,0,0,1,0,0,0,0,0,0,0,0,1,0,0,1,0,0,0,0,1,1,0,0*02
$PMTKGALM,7,0,0,0,0,0,0,0,0,0,0,0,0,1,1,1,1,1,1,1,0,0,0,0,0,0,0,0,0,0,0,0,0*1F
$GNACCURACY,1.5,0.2,0.8,11.5*2F
$PMTKAGC,080440.000,3143,3025,5975,5768,0,3,0*61
$PMTKAG2,080440.000,5,0121,0,0,0,0,0,0,0,0,0,0,0,0*3B
$GNGGA,080441.000,3114.5087,N,12130.3957,E,1,12,0.93,45.8,M,8.2,M,,*75
$GPGSA,A,3,30,29,21,05,24,09,12,,,,,,1.49,0.93,1.16*00
$GLGSA,A,3,87,73,88,72,,,,,,,,,1.49,0.93,1.16*10
$BDGSA,A,3,19,,,,,,,,,,,,1.49,0.93,1.16*1B
$GPGSV,3,1,12,29,66,275,39.5,30,61,356,39.3,05,59,054,39.5,12,49,066,39.4*76
$GPGSV,3,2,12,24,44,156,39.4,09,30,154,39.2,14,24,261,,21,13,191,39.4*6D
$GPGSV,3,3,12,193,,,,194,,,,195,,,,43,,,*47
$GLGSV,3,1,9,88,46,296,38.2,87,43,210,37.9,72,35,035,37.6,74,28,072,*4B
$GLGSV,3,2,9,75,23,132,,66,15,278,,81,09,333,,73,05,027,38.4*41
$GLGSV,3,3,9,86,01,174,*61
$BDGSV,1,1,2,19,11,177,36.0,02,,,34.9*6A
$GNRMC,080441.000,A,3114.5087,N,12130.3957,E,161.945,90.02,200821,,,A*71
$GNVTG,90.02,T,,M,161.945,N,300.084,K,A*19
$PMTKGEPH,7,0,0,0,0,1,0,0,0,1,0,0,1,0,0,0,0,0,0,0,0,1,0,0,1,0,0,0,0,1,1,0,0*02
$PMTKGALM,7,0,0,0,0,0,0,0,0,0,0,0,0,1,1,1,1,1,1,1,0,0,0,0,0,0,0,0,0,0,0,0,0*1F
$GNACCURACY,1.4,0.2,0.8,11.8*23
$PMTKAGC,080441.000,3074,2958,5903,5933,0,3,0*66
$PMTKAG2,080441.000,5,0121,0,0,0,0,0,0,0,0,0,0,0,0*3A
$GNGGA,080442.000,3114.5088,N,12130.4482,E,1,12,0.93,45.3,M,8.2,M,,*70
$GPGSA,A,3,30,29,21,05,24,09,12,,,,,,1.49,0.93,1.16*00
$GLGSA,A,3,87,73,88,72,,,,,,,,,1.49,0.93,1.16*10
$BDGSA,A,3,19,,,,,,,,,,,,1.49,0.93,1.16*1B
$GPGSV,3,1,12,29,66,275,39.5,30,61,356,39.3,05,59,054,39.5,12,49,066,39.4*76
$GPGSV,3,2,12,24,44,156,39.4,09,30,154,39.2,14,24,261,,21,13,191,39.4*6D
$GPGSV,3,3,12,193,,,,194,,,,195,,,,43,,,*47
$GLGSV,3,1,9,88,46,296,38.2,87,43,210,37.9,72,35,035,37.6,74,28,072,*4B
$GLGSV,3,2,9,75,23,132,,66,15,278,,81,09,333,,73,05,027,38.5*40
$GLGSV,3,3,9,86,01,174,*61
$BDGSV,1,1,2,19,12,177,36.0,02,,,34.8*68
$GNRMC,080442.000,A,3114.5088,N,12130.4482,E,161.919,90.01,200821,,,A*75
$GNVTG,90.01,T,,M,161.919,N,300.036,K,A*1A
$PMTKGEPH,7,0,0,0,0,1,0,0,0,1,0,0,1,0,0,0,0,0,0,0,0,1,0,0,1,0,0,0,0,1,1,0,0*02
$PMTKGALM,7,0,0,0,0,0,0,0,0,0,0,0,0,1,1,1,1,1,1,1,0,0,0,0,0,0,0,0,0,0,0,0,0*1F
$GNACCURACY,1.4,0.1,0.2,11.5*27
$PMTKAGC,080442.000,3055,2994,5928,5764,0,3,0*63
$PMTKAG2,080442.000,5,0121,0,0,0,0,0,0,0,0,0,0,0,0*39
$GNGGA,080443.000,3114.5088,N,12130.5008,E,1,12,0.93,45.1,M,8.2,M,,*74
$GPGSA,A,3,30,29,21,05,24,09,12,,,,,,1.49,0.93,1.16*00
$GLGSA,A,3,87,73,88,72,,,,,,,,,1.49,0.93,1.16*10
$BDGSA,A,3,19,,,,,,,,,,,,1.49,0.93,1.16*1B
$GPGSV,3,1,12,29,66,275,39.4,30,61,356,39.3,05,59,054,39.5,12,49,066,39.4*77
$GPGSV,3,2,12,24,44,156,39.4,09,30,154,39.2,14,24,261,,21,13,191,39.4*6D
$GPGSV,3,3,12,193,,,,194,,,,195,,,,43,,,*47
$GLGSV,3,1,9,88,46,296,38.3,87,43,210,37.9,72,35,035,37.5,74,28,072,*49
$GLGSV,3,2,9,75,23,132,,66,15,278,,81,09,333,,73,05,027,38.5*40
$GLGSV,3,3,9,86,01,174,*61
$BDGSV,1,1,2,19,12,177,35.9,02,,,34.8*62
$GNRMC,080443.000,A,3114.5088,N,12130.5008,E,161.909,90.00,200821,,,A*73
$GNVTG,90.00,T,,M,161.909,N,300.017,K,A*19
$PMTKGEPH,7,0,0,0,0,1,0,0,0,1,0,0,1,0,0,0,0,0,0,0,0,1,0,0,1,0,0,0,0,1,1,0,0*02
$PMTKGALM,8,0,0,0,0,0,0,0,0,0,0,0,0,1,1,1,1,1,1,1,1,0,0,0,0,0,0,0,0,0,0,0,0*11
$GNACCURACY,1.4,0.1,0.2,11.6*24
$PMTKAGC,080443.000,2940,2995,5911,5863,0,3,0*6D
$PMTKAG2,080443.000,5,0121,0,0,0,0,0,0,0,0,0,0,0,0*38
$GNGGA,080444.000,3114.5088,N,12130.5534,E,1,12,0.93,44.7,M,8.2,M,,*7E
$GPGSA,A,3,30,29,21,05,24,09,12,,,,,,1.49,0.93,1.16*00
$GLGSA,A,3,87,73,88,72,,,,,,,,,1.49,0.93,1.16*10
$BDGSA,A,3,19,,,,,,,,,,,,1.49,0.93,1.16*1B
$GPGSV,3,1,12,29,66,275,39.4,30,61,356,39.3,05,59,054,39.6,12,49,066,39.3*73
$GPGSV,3,2,12,24,44,156,39.4,09,30,154,39.2,14,24,261,,21,13,191,39.4*6D
$GPGSV,3,3,12,193,,,,194,,,,195,,,,43,,,*47
$GLGSV,3,1,9,88,46,296,38.2,87,43,210,37.8,72,35,035,37.6,74,28,072,*4A
$GLGSV,3,2,9,75,23,132,,66,15,278,,81,09,333,,73,05,027,38.5*40
$GLGSV,3,3,9,86,01,174,*61
$BDGSV,1,1,2,19,12,177,36.0,02,,,34.8*68
$GNRMC,080444.000,A,3114.5088,N,12130.5534,E,161.913,90.00,200821,,,A*75
$GNVTG,90.00,T,,M,161.913,N,300.025,K,A*13
$PMTKGEPH,7,0,0,0,0,1,0,0,0,1,0,0,1,0,0,0,0,0,0,0,0,1,0,0,1,0,0,0,0,1,1,0,0*02
$PMTKGALM,8,0,0,0,0,0,0,0,0,0,0,0,0,1,1,1,1,1,1,1,1,0,0,0,0,0,0,0,0,0,0,0,0*11
$GNACCURACY,1.4,0.1,0.2,11.4*26
$PMTKAGC,080444.000,3047,3078,6031,6001,0,3,0*69
$PMTKAG2,080444.000,5,0121,0,0,0,0,0,0,0,0,0,0,0,0*3F
$GNGGA,080445.000,3114.5089,N,12130.6060,E,1,12,0.93,44.5,M,8.2,M,,*7B
$GPGSA,A,3,30,29,21,05,24,09,12,,,,,,1.49,0.93,1.16*00
$GLGSA,A,3,87,73,88,72,,,,,,,,,1.49,0.93,1.16*10
$BDGSA,A,3,19,,,,,,,,,,,,1.49,0.93,1.16*1B
$GPGSV,3,1,12,29,66,275,39.4,30,61,356,39.3,05,59,054,39.6,12,49,066,39.3*73
$GPGSV,3,2,12,24,44,156,39.4,09,30,154,39.2,14,24,261,,21,13,191,39.4*6D
$GPGSV,3,3,12,193,,,,194,,,,195,,,,43,,,*47
$GLGSV,3,1,9,88,46,296,38.1,87,43,210,37.9,72,35,035,37.6,74,28,072,*48
$GLGSV,3,2,9,75,23,132,,66,15,278,,81,09,333,,73,05,027,38.5*40
$GLGSV,3,3,9,86,01,174,*61
$BDGSV,1,1,2,19,12,177,35.9,02,,,34.7*6D
$GNRMC,080445.000,A,3114.5089,N,12130.6060,E,161.900,90.00,200821,,,A*70
$GNVTG,90.00,T,,M,161.900,N,300.001,K,A*17
$PMTKGEPH,7,0,0,0,0,1,0,0,0,1,0,0,1,0,0,0,0,0,0,0,0,1,0,0,1,0,0,0,0,1,1,0,0*02
$PMTKGALM,8,0,0,0,0,0,0,0,0,0,0,0,0,1,1,1,1,1,1,1,1,0,0,0,0,0,0,0,0,0,0,0,0*11
$GNACCURACY,1.3,0.1,0.2,11.4*21
$PMTKAGC,080445.000,3063,3150,6007,5958,0,3,0*66
$PMTKAG2,080445.000,5,0121,0,0,0,0,0,0,0,0,0,0,0,0*3E
$GNGGA,080446.000,3114.5088,N,12130.6585,E,1,12,0.93,44.5,M,8.2,M,,*77
$GPGSA,A,3,30,29,21,05,24,09,12,,,,,,1.49,0.93,1.16*00
$GLGSA,A,3,87,73,88,72,,,,,,,,,1.49,0.93,1.16*10
$BDGSA,A,3,19,,,,,,,,,,,,1.49,0.93,1.16*1B
$GPGSV,3,1,12,29,66,275,39.5,30,61,356,39.3,05,59,054,39.6,12,49,066,39.3*72
$GPGSV,3,2,12,24,44,156,39.4,09,30,154,39.2,14,24,261,,21,13,191,39.4*6D
$GPGSV,3,3,12,193,,,,194,,,,195,,,,45,,,*41
$GLGSV,3,1,9,88,46,296,38.1,87,43,210,37.9,72,35,035,37.6,74,28,072,*48
$GLGSV,3,2,9,75,23,132,,66,15,278,,81,09,333,32.4,73,05,027,38.5*5B
$GLGSV,3,3,9,86,01,174,*61
$BDGSV,1,1,2,19,12,177,35.9,02,,,34.6*6C
$GNRMC,080446.000,A,3114.5088,N,12130.6585,E,161.897,90.00,200821,,,A*73
$GNVTG,90.00,T,,M,161.897,N,299.995,K,A*1D
$PMTKGEPH,7,0,0,0,0,1,0,0,0,1,0,0,1,0,0,0,0,0,0,0,0,1,0,0,1,0,0,0,0,1,1,0,0*02
$PMTKGALM,8,0,0,0,0,0,0,0,0,0,0,0,0,1,1,1,1,1,1,1,1,0,0,0,0,0,0,0,0,0,0,0,0*11
$GNACCURACY,1.3,0.1,0.2,11.4*21
$PMTKAGC,080446.000,3040,2920,6011,5915,0,3,0*64
$PMTKAG2,080446.000,5,0121,0,0,0,0,0,0,0,0,0,0,0,0*3D
$GNGGA,080447.000,3114.5088,N,12130.7110,E,1,12,0.93,44.5,M,8.2,M,,*7F
$GPGSA,A,3,30,29,21,05,24,09,12,,,,,,1.49,0.93,1.16*00
$GLGSA,A,3,87,73,88,72,,,,,,,,,1.49,0.93,1.16*10
$BDGSA,A,3,19,,,,,,,,,,,,1.49,0.93,1.16*1B
$GPGSV,3,1,12,29,66,275,39.4,30,61,356,39.4,05,59,054,39.6,12,49,066,39.3*74
$GPGSV,3,2,12,24,44,156,39.3,09,30,154,39.2,14,24,261,,21,13,191,39.4*6A
$GPGSV,3,3,12,193,,,,194,,,,195,,,,45,,,*41
$GLGSV,3,1,9,88,46,296,38.2,87,43,210,37.9,72,35,035,37.6,74,28,072,*4B
$GLGSV,3,2,9,75,23,132,,66,15,278,,81,09,333,,73,05,027,38.5*40
$GLGSV,3,3,9,86,01,174,*61
$BDGSV,1,1,2,19,12,177,35.9,02,,,34.6*6C
$GNRMC,080447.000,A,3114.5088,N,12130.7110,E,161.901,90.01,200821,,,A*74
$GNVTG,90.01,T,,M,161.901,N,300.002,K,A*14
$PMTKGEPH,7,0,0,0,0,1,0,0,0,1,0,0,1,0,0,0,0,0,0,0,0,1,0,0,1,0,0,0,0,1,1,0,0*02
$PMTKGALM,8,0,0,0,0,0,0,0,0,0,0,0,0,1,1,1,1,1,1,1,1,0,0,0,0,0,0,0,0,0,0,0,0*11
$GNACCURACY,1.3,0.1,0.2,11.3*26
$PMTKAGC,080447.000,2992,2973,6010,5993,0,3,0*6B
$PMTKAG2,080447.000,5,0121,0,0,0,0,0,0,0,0,0,0,0,0*3C
$GNGGA,080448.000,3114.5087,N,12130.7630,E,1,12,0.93,44.3,M,8.2,M,,*7C
$GPGSA,A,3,30,29,21,05,24,09,12,,,,,,1.49,0.93,1.16*00
$GLGSA,A,3,87,73,88,72,,,,,,,,,1.49,0.93,1.16*10
$BDGSA,A,3,19,,,,,,,,,,,,1.49,0.93,1.16*1B
$GPGSV,3,1,12,29,66,275,39.4,30,61,356,39.4,05,59,054,39.6,12,49,066,39.2*75
$GPGSV,3,2,12,24,44,156,39.4,09,30,154,39.2,14,24,261,,21,13,191,39.4*6D
$GPGSV,3,3,12,193,,,,194,,,,195,,,,45,,,*41
$GLGSV,3,1,9,88,46,296,38.2,87,43,210,37.8,72,35,035,37.6,74,28,072,*4A
$GLGSV,3,2,9,75,23,132,,66,15,278,,81,09,333,,73,05,027,38.6*43
$GLGSV,3,3,9,86,01,174,*61
$BDGSV,1,1,2,19,12,177,35.9,02,,,34.5*6F
$GNRMC,080448.000,A,3114.5087,N,12130.7630,E,158.660,90.00,200821,,,A*72
$GNVTG,90.00,T,,M,158.660,N,293.997,K,A*19
$PMTKGEPH,7,0,0,0,0,1,0,0,0,1,0,0,1,0,0,0,0,0,0,0,0,1,0,0,1,0,0,0,0,1,1,0,0*02
$PMTKGALM,8,0,0,0,0,0,0,0,0,0,0,0,0,1,1,1,1,1,1,1,1,0,0,0,0,0,0,0,0,0,0,0,0*11
$GNACCURACY,1.3,0.1,0.2,11.4*21
$PMTKAGC,080448.000,2953,3278,5863,5926,0,3,0*69
$PMTKAG2,080448.000,5,0121,0,0,0,0,0,0,0,0,0,0,0,0*33
$GNGGA,080449.000,3114.5086,N,12130.8107,E,1,11,1.15,44.2,M,8.2,M,,*7D
$GPGSA,A,3,30,29,21,05,24,09,12,,,,,,1.63,1.15,1.16*07
$GLGSA,A,3,87,73,72,,,,,,,,,,1.63,1.15,1.16*17
$BDGSA,A,3,19,,,,,,,,,,,,1.63,1.15,1.16*1C
$GPGSV,3,1,12,29,66,275,39.4,30,61,356,39.3,05,59,054,39.5,12,49,066,39.2*71
$GPGSV,3,2,12,24,44,156,39.4,09,30,154,39.1,14,24,261,,21,13,191,39.4*6E
$GPGSV,3,3,12,193,,,,194,,,,195,,,,45,,,*41
$GLGSV,3,1,9,88,46,296,,87,43,210,37.9,72,35,035,37.5,74,28,072,*5F
$GLGSV,3,2,9,75,23,132,,66,15,278,,81,09,333,,73,05,027,38.5*40
$GLGSV,3,3,9,86,01,174,*61
$BDGSV,1,1,2,19,12,177,35.9,02,,,34.5*6F
$GNRMC,080449.000,A,3114.5086,N,12130.8107,E,136.964,90.11,200821,,,A*7D
$GNVTG,90.11,T,,M,136.964,N,253.794,K,A*1B
$PMTKGEPH,7,0,0,0,0,1,0,0,0,1,0,0,1,0,0,0,0,0,0,0,0,1,0,0,1,0,0,0,0,1,1,0,0*02
$PMTKGALM,8,0,0,0,0,0,0,0,0,0,0,0,0,1,1,1,1,1,1,1,1,0,0,0,0,0,0,0,0,0,0,0,0*11
$GNACCURACY,1.4,0.4,2.2,11.3*26
$PMTKAGC,080449.000,3244,3202,5993,6098,0,3,0*68
$PMTKAG2,080449.000,5,0121,0,0,0,0,0,0,0,0,0,0,0,0*32
$GNGGA,080450.000,3114.5085,N,12130.8462,E,1,12,0.93,45.6,M,8.2,M,,*79
$GPGSA,A,3,30,29,21,05,24,09,12,,,,,,1.49,0.93,1.16*00
$GLGSA,A,3,87,73,88,72,,,,,,,,,1.49,0.93,1.16*10
$BDGSA,A,3,19,,,,,,,,,,,,1.49,0.93,1.16*1B
$GPGSV,3,1,12,29,66,275,39.4,30,61,356,39.3,05,59,054,39.5,12,49,066,39.2*71
$GPGSV,3,2,12,24,44,156,39.3,09,30,154,39.1,14,24,261,,21,13,191,39.4*69
$GPGSV,3,3,12,193,,,,194,,,,195,,,,45,,,*41
$GLGSV,3,1,9,88,46,296,38.2,87,43,210,37.9,72,35,035,37.5,74,28,072,*48
$GLGSV,3,2,9,75,23,132,,66,15,278,,81,09,333,35.8,73,05,027,38.5*50
$GLGSV,3,3,9,86,01,174,*61
$BDGSV,1,1,2,19,12,177,35.9,02,,,34.5*6F
$GNRMC,080450.000,A,3114.5085,N,12130.8462,E,96.783,90.21,200821,,,A*4F
$GNVTG,90.21,T,,M,96.783,N,179.339,K,A*2C
$PMTKGEPH,7,0,0,0,0,1,0,0,0,1,0,0,1,0,0,0,0,0,0,0,0,1,0,0,1,0,0,0,0,1,1,0,0*02
$PMTKGALM,8,0,0,0,0,0,0,0,0,0,0,0,0,1,1,1,1,1,1,1,1,0,0,0,0,0,0,0,0,0,0,0,0*11
$GNACCURACY,1.5,0.3,0.8,11.8*23
$PMTKAGC,080450.000,3008,3197,6038,5961,0,3,0*62
$PMTKAG2,080450.000,5,0121,0,0,0,0,0,0,0,0,0,0,0,0*3A
$GNGGA,080451.000,3114.5083,N,12130.8727,E,1,11,1.15,47.5,M,8.2,M,,*71
$GPGSA,A,3,30,29,21,05,24,09,12,,,,,,1.63,1.15,1.16*07
$GLGSA,A,3,87,73,72,,,,,,,,,,1.63,1.15,1.16*17
$BDGSA,A,3,19,,,,,,,,,,,,1.63,1.15,1.16*1C
$GPGSV,3,1,12,29,66,275,39.4,30,61,356,39.2,05,59,054,39.5,12,49,066,39.2*70
$GPGSV,3,2,12,24,44,156,39.3,09,30,154,39.1,14,24,261,,21,13,191,39.4*69
$GPGSV,3,3,12,193,,,,194,,,,195,,,,45,,,*41
$GLGSV,3,1,9,88,46,296,,87,43,210,37.9,72,35,035,37.5,74,28,072,*5F
$GLGSV,3,2,9,75,23,132,,66,15,278,,81,09,333,,73,05,027,38.5*40
$GLGSV,3,3,9,86,01,174,*61
$BDGSV,1,1,2,19,12,177,35.9,02,,,34.4*6E
$GNRMC,080451.000,A,3114.5083,N,12130.8727,E,70.452,90.71,200821,,,A*48
$GNVTG,90.71,T,,M,70.452,N,130.548,K,A*23
$PMTKGEPH,7,0,0,0,0,1,0,0,0,1,0,0,1,0,0,0,0,0,0,0,0,1,0,0,1,0,0,0,0,1,1,0,0*02
$PMTKGALM,8,0,0,0,0,0,0,0,0,0,0,0,0,1,1,1,1,1,1,1,1,0,0,0,0,0,0,0,0,0,0,0,0*11
$GNACCURACY,1.5,0.5,0.8,11.4*29
$PMTKAGC,080451.000,3128,3001,5945,5885,0,3,0*65
$PMTKAG2,080451.000,5,0121,0,0,0,0,0,0,0,0,0,0,0,0*3B
$GNGGA,080452.000,3114.5081,N,12130.8907,E,1,11,1.15,49.5,M,8.2,M,,*72
$GPGSA,A,3,30,29,21,05,24,09,12,,,,,,1.63,1.15,1.16*07
$GLGSA,A,3,87,73,72,,,,,,,,,,1.63,1.15,1.16*17
$BDGSA,A,3,19,,,,,,,,,,,,1.63,1.15,1.16*1C
$GPGSV,3,1,12,29,66,275,39.4,30,61,356,39.2,05,59,054,39.5,12,49,066,39.2*70
$GPGSV,3,2,12,24,44,156,39.3,09,30,154,39.1,14,24,261,,21,13,191,39.4*69
$GPGSV,3,3,12,193,,,,194,,,,195,,,,46,,,*42
$GLGSV,3,1,9,88,46,296,,87,43,210,37.9,72,35,035,37.5,74,28,072,*5F
$GLGSV,3,2,9,75,23,132,,66,15,278,,81,09,333,,73,05,027,38.5*40
$GLGSV,3,3,9,86,01,174,*61
$BDGSV,1,1,2,19,12,177,36.0,02,,,34.3*63
$GNRMC,080452.000,A,3114.5081,N,12130.8907,E,44.084,90.95,200821,,,A*47
$GNVTG,90.95,T,,M,44.084,N,81.688,K,A*15
$PMTKGEPH,7,0,0,0,0,1,0,0,0,1,0,0,1,0,0,0,0,0,0,0,0,1,0,0,1,0,0,0,0,1,1,0,0*02
$PMTKGALM,8,0,0,0,0,0,0,0,0,0,0,0,0,1,1,1,1,1,1,1,1,0,0,0,0,0,0,0,0,0,0,0,0*11
$GNACCURACY,1.5,0.8,0.9,11.8*29
$PMTKAGC,080452.000,3084,2974,5880,5807,0,3,0*69
$PMTKAG2,080452.000,5,0120,0,0,0,0,0,0,0,0,0,0,0,0*39
$GNGGA,080453.000,3114.5073,N,12130.9014,E,1,12,0.93,53.1,M,8.2,M,,*77
$GPGSA,A,3,30,29,21,05,24,09,12,,,,,,1.49,0.93,1.16*00
$GLGSA,A,3,87,73,88,72,,,,,,,,,1.49,0.93,1.16*10
$BDGSA,A,3,19,,,,,,,,,,,,1.49,0.93,1.16*1B
$GPGSV,3,1,12,29,66,275,39.3,30,61,356,39.2,05,59,054,39.5,12,49,066,39.2*77
$GPGSV,3,2,12,24,44,156,39.3,09,30,154,39.2,14,24,261,,21,13,191,39.4*6A
$GPGSV,3,3,12,193,,,,194,,,,195,,,,46,,,*42
$GLGSV,3,1,9,88,46,296,38.3,87,43,210,37.9,72,35,035,37.5,74,28,072,*49
$GLGSV,3,2,9,75,23,132,,66,15,278,,81,09,333,,73,05,027,38.5*40
$GLGSV,3,3,9,86,01,174,*61
$BDGSV,1,1,2,19,12,177,36.0,02,,,34.4*64
$GNRMC,080453.000,A,3114.5073,N,12130.9014,E,27.206,100.52,200821,,,A*7F
$GNVTG,100.52,T,,M,27.206,N,50.413,K,A*27
$PMTKGEPH,7,0,0,0,0,1,0,0,0,1,0,0,1,0,0,0,0,0,0,0,0,1,0,0,1,0,0,0,0,1,1,0,0*02
$PMTKGALM,8,0,0,0,0,0,0,0,0,0,0,0,0,1,1,1,1,1,1,1,1,0,0,0,0,0,0,0,0,0,0,0,0*11
$GNACCURACY,1.5,1.4,0.9,11.6*2A
$PMTKAGC,080453.000,3138,3052,6020,6013,0,3,0*6D
$PMTKAG2,080453.000,5,0121,0,0,0,0,0,0,0,0,0,0,0,0*39
$GNGGA,080454.000,3114.5058,N,12130.9074,E,1,12,0.93,57.3,M,8.2,M,,*79
$GPGSA,A,3,30,29,21,05,24,09,12,,,,,,1.49,0.93,1.16*00
$GLGSA,A,3,87,73,88,72,,,,,,,,,1.49,0.93,1.16*10
$BDGSA,A,3,19,,,,,,,,,,,,1.49,0.93,1.16*1B
$GPGSV,3,1,12,29,66,275,39.3,30,61,356,39.3,05,59,054,39.5,12,49,066,39.3*77
$GPGSV,3,2,12,24,44,156,39.4,09,30,154,39.2,14,24,261,,21,13,191,39.4*6D
$GPGSV,3,3,12,193,,,,194,,,,195,,,,46,,,*42
$GLGSV,3,1,9,88,46,296,38.3,87,43,210,37.9,72,35,035,37.5,74,28,072,*49
$GLGSV,3,2,9,75,23,132,,66,15,278,,81,09,333,,73,05,027,38.5*40
$GLGSV,3,3,9,86,01,174,*61
$BDGSV,1,1,2,19,12,177,36.0,02,,,34.4*64
$GNRMC,080454.000,A,3114.5058,N,12130.9074,E,18.489,114.73,200821,,,A*7C
$GNVTG,114.73,T,,M,18.489,N,34.261,K,A*2D
$PMTKGEPH,7,0,0,0,0,1,0,0,0,1,0,0,1,0,0,0,0,0,0,0,0,1,0,0,1,0,0,0,0,1,1,0,0*02
$PMTKGALM,8,0,0,0,0,0,0,0,0,0,0,0,0,1,1,1,1,1,1,1,1,0,0,0,0,0,0,0,0,0,0,0,0*11
$GNACCURACY,1.5,4.4,1.6,11.5*22
$PMTKAGC,080454.000,3076,3029,6008,5863,0,3,0*6B
$PMTKAG2,080454.000,5,0120,0,0,0,0,0,0,0,0,0,0,0,0*3F
$GNGGA,080455.000,3114.5031,N,12130.9107,E,1,12,0.93,59.7,M,8.2,M,,*78
$GPGSA,A,3,30,29,21,05,24,09,12,,,,,,1.48,0.93,1.16*01
$GLGSA,A,3,87,73,88,72,,,,,,,,,1.48,0.93,1.16*11
$BDGSA,A,3,19,,,,,,,,,,,,1.48,0.93,1.16*1A
$GPGSV,3,1,12,29,66,275,39.3,30,61,356,39.3,05,59,054,39.6,12,49,066,39.3*74
$GPGSV,3,2,12,24,44,156,39.4,09,30,154,39.2,14,24,261,,21,13,191,39.4*6D
$GPGSV,3,3,12,193,,,,194,,,,195,,,,46,,,*42
$GLGSV,3,1,9,88,46,296,38.3,87,43,210,38.0,72,35,035,37.5,74,28,072,*4F
$GLGSV,3,2,9,75,23,132,,66,15,278,,81,09,333,,73,05,027,38.5*40
$GLGSV,3,3,9,86,01,174,*61
$BDGSV,1,1,2,19,12,177,36.0,02,,,34.4*64
$GNRMC,080455.000,A,3114.5031,N,12130.9107,E,17.853,136.24,200821,,,A*71
$GNVTG,136.24,T,,M,17.853,N,33.082,K,A*23
$PMTKGEPH,7,0,0,0,0,1,0,0,0,1,0,0,1,0,0,0,0,0,0,0,0,1,0,0,1,0,0,0,0,1,1,0,0*02
$PMTKGALM,8,0,0,0,0,0,0,0,0,0,0,0,0,1,1,1,1,1,1,1,1,0,0,0,0,0,0,0,0,0,0,0,0*11
$GNACCURACY,1.5,4.6,1.3,11.9*29
$PMTKAGC,080455.000,3107,2736,5760,6027,0,3,0*64
$PMTKAG2,080455.000,5,0120,0,0,0,0,0,0,0,0,0,0,0,0*3E
$GNGGA,080456.000,3114.4994,N,12130.9122,E,1,12,0.93,59.9,M,8.2,M,,*75
$GPGSA,A,3,30,29,21,05,24,09,12,,,,,,1.48,0.93,1.16*01
$GLGSA,A,3,87,73,88,72,,,,,,,,,1.48,0.93,1.16*11
$BDGSA,A,3,19,,,,,,,,,,,,1.48,0.93,1.16*1A
$GPGSV,3,1,12,29,66,275,39.4,30,61,356,39.3,05,59,054,39.6,12,49,066,39.3*73
$GPGSV,3,2,12,24,44,156,39.4,09,30,154,39.2,14,24,261,,21,13,191,39.4*6D
$GPGSV,3,3,12,193,,,,194,,,,195,,,,46,,,*42
$GLGSV,3,1,9,88,46,296,38.3,87,43,210,38.0,72,35,035,37.6,74,28,072,*4C
$GLGSV,3,2,9,75,23,132,,66,15,278,,81,09,333,,73,05,027,38.6*43
$GLGSV,3,3,9,86,01,174,*61
$BDGSV,1,1,2,19,12,177,36.0,02,,,34.4*64
$GNRMC,080456.000,A,3114.4994,N,12130.9122,E,17.438,158.84,200821,,,A*71
$GNVTG,158.84,T,,M,17.438,N,32.312,K,A*2B
$PMTKGEPH,7,0,0,0,0,1,0,0,0,1,0,0,1,0,0,0,0,0,0,0,0,1,0,0,1,0,0,0,0,1,1,0,0*02
$PMTKGALM,8,0,0,0,0,0,0,0,0,0,0,0,0,1,1,1,1,1,1,1,1,0,0,0,0,0,0,0,0,0,0,0,0*11
$GNACCURACY,1.5,4.8,1.2,11.7*28
$PMTKAGC,080456.000,3198,3045,5858,5917,0,3,0*6E
$PMTKAG2,080456.000,5,0120,0,0,0,0,0,0,0,0,0,0,0,0*3D
$GNGGA,080457.000,3114.4946,N,12130.9122,E,1,12,0.93,59.7,M,8.2,M,,*75
$GPGSA,A,3,30,29,21,05,24,09,12,,,,,,1.49,0.93,1.16*00
$GLGSA,A,3,87,73,88,72,,,,,,,,,1.49,0.93,1.16*10
$BDGSA,A,3,19,,,,,,,,,,,,1.49,0.93,1.16*1B
$GPGSV,3,1,12,29,66,275,39.4,30,61,356,39.3,05,59,054,39.6,12,49,066,39.4*74
$GPGSV,3,2,12,24,44,156,39.4,09,30,154,39.2,14,24,261,,21,13,191,39.4*6D
$GPGSV,3,3,12,193,,,,194,,,,195,,,,46,,,*42
$GLGSV,3,1,9,88,46,296,38.3,87,43,210,38.0,72,35,035,37.6,74,28,072,*4C
$GLGSV,3,2,9,75,23,132,,66,15,278,,81,09,333,,73,05,027,38.5*40
$GLGSV,3,3,9,86,01,174,*61
$BDGSV,1,1,2,19,12,177,36.0,02,,,34.3*63
$GNRMC,080457.000,A,3114.4946,N,12130.9122,E,20.428,178.24,200821,,,A*72
$GNVTG,178.24,T,,M,20.428,N,37.854,K,A*2A
$PMTKGEPH,7,0,0,0,0,1,0,0,0,1,0,0,1,0,0,0,0,0,0,0,0,1,0,0,1,0,0,0,0,1,1,0,0*02
$PMTKGALM,8,0,0,0,0,0,0,0,0,0,0,0,0,1,1,1,1,1,1,1,1,0,0,0,0,0,0,0,0,0,0,0,0*11
$GNACCURACY,1.5,4.5,1.2,12.1*20
$PMTKAGC,080457.000,2984,2900,5860,5853,0,3,0*68
$PMTKAG2,080457.000,5,0120,0,0,0,0,0,0,0,0,0,0,0,0*3C
$GNGGA,080458.000,3114.4853,N,12130.9113,E,1,11,1.07,59.0,M,8.2,M,,*75
$GPGSA,A,3,30,29,21,05,24,09,12,,,,,,2.16,1.07,1.87*0D
$GLGSA,A,3,87,88,72,,,,,,,,,,2.16,1.07,1.87*19
$BDGSA,A,3,19,,,,,,,,,,,,2.16,1.07,1.87*16
$GPGSV,3,1,12,29,66,275,39.4,30,61,356,39.3,05,59,056,39.6,12,49,066,39.4*76
$GPGSV,3,2,12,24,44,156,39.4,09,30,154,39.2,14,24,261,,21,13,191,39.4*6D
$GPGSV,3,3,12,193,,,,194,,,,195,,,,47,,,*43
$GLGSV,3,1,9,88,46,296,38.4,87,43,210,38.0,72,35,035,37.5,74,28,072,*48
