=~=~=~=~=~=~=~=~=~=~=~= PuTTY log 2021.09.02 12:53:58 =~=~=~=~=~=~=~=~=~=~=~=
$GNGGA,000403.000,3000.0011,N,12000.0025,E,1,3,7.00,-11.0,M,7.0,M,,*6C
$GPGSA,A,2,,,,,,,,,,,,,7.07,7.00,1.00*05
$GLGSA,A,2,,,,,,,,,,,,,7.07,7.00,1.00*19
$BDGSA,A,2,06,09,13,,,,,,,,,,7.07,7.00,1.00*19
$GPGSV,4,1,15,07,85,106,,25,66,042,,04,51,245,,13,49,032,*79
$GPGSV,4,2,15,08,48,208,,42,48,143,,02,33,298,,23,27,058,*71
$GPGSV,4,3,15,27,19,219,,10,02,311,,16,01,038,,28,01,181,*73
$GPGSV,4,4,15,193,,,,194,,,,195,,,*47
$GLGSV,2,1,5,87,61,302,,77,57,327,,86,33,026,,88,20,244,*54
$GLGSV,2,2,5,78,08,331,*66
$BDGSV,2,1,8,13,47,202,32.3,06,37,216,31.5,09,37,286,31.5,04,36,126,30.3*52
$BDGSV,2,2,8,12,10,060,,14,08,165,,02,,,31.5,01,,,31.2*5F
$GNRMC,000403.000,A,3000.0011,N,12000.0025,E,0.000,0.00,230721,,,A*45
$GNVTG,0.00,T,,M,0.000,N,0.000,K,A*23
$PMTKGEPH,0,0,0,0,0,0,0,0,0,0,0,0,0,0,0,0,0,0,0,0,0,0,0,0,0,0,0,0,0,0,0,0,0*04
$PMTKGALM,28,1,1,1,1,1,1,1,1,1,1,1,1,1,1,1,1,0,0,0,1,1,1,1,1,1,1,1,1,1,1,1,0*23
$GNACCURACY,5.7,179.9,3.0,31.7*26
$PMTKAGC,000403.000,3006,2624,5843,5927,0,3,0*69
$PMTKAG2,000403.000,5,0118,0,0,0,0,0,0,0,0,0,0,0,0*3E
$GNGGA,000404.000,3000.0009,N,12000.0020,E,1,3,7.00,-11.0,M,7.0,M,,*67
$GPGSA,A,2,,,,,,,,,,,,,7.07,7.00,1.00*05
$GLGSA,A,2,,,,,,,,,,,,,7.07,7.00,1.00*19
$BDGSA,A,2,06,09,13,,,,,,,,,,7.07,7.00,1.00*19
$GPGSV,4,1,15,07,85,106,,25,66,042,,04,51,245,,13,49,032,*79
$GPGSV,4,2,15,08,48,208,,42,48,143,,02,33,298,,23,27,058,*71
$GPGSV,4,3,15,27,19,219,,10,02,311,,16,01,038,,28,01,181,*73
$GPGSV,4,4,15,193,,,,194,,,,195,,,*47
$GLGSV,2,1,5,87,61,302,,77,57,327,,86,33,026,,88,20,244,*54
$GLGSV,2,2,5,78,08,331,*66
$BDGSV,2,1,8,13,47,202,32.3,06,37,216,31.5,09,37,286,31.5,04,36,126,30.3*52
$BDGSV,2,2,8,12,10,060,,14,08,165,,02,,,31.4,01,,,31.2*5E
$GNRMC,000404.000,A,3000.0009,N,12000.0020,E,0.000,0.00,230721,,,A*4E
$GNVTG,0.00,T,,M,0.000,N,0.000,K,A*23
$PMTKGEPH,0,0,0,0,0,0,0,0,0,0,0,0,0,0,0,0,0,0,0,0,0,0,0,0,0,0,0,0,0,0,0,0,0*04
$PMTKGALM,28,1,1,1,1,1,1,1,1,1,1,1,1,1,1,1,1,0,0,0,1,1,1,1,1,1,1,1,1,1,1,1,0*23
$GNACCURACY,5.7,179.9,3.0,30.7*27
$PMTKAGC,000404.000,2726,2818,5841,5890,0,3,0*64
$PMTKAG2,000404.000,5,0118,0,0,0,0,0,0,0,0,0,0,0,0*39
$GNGGA,000405.000,3000.0010,N,12000.0022,E,1,3,7.00,-11.0,M,7.0,M,,*6C
$GPGSA,A,2,,,,,,,,,,,,,7.07,7.00,1.00*05
$GLGSA,A,2,,,,,,,,,,,,,7.07,7.00,1.00*19
$BDGSA,A,2,06,09,13,,,,,,,,,,7.07,7.00,1.00*19
$GPGSV,4,1,15,07,85,106,,25,66,042,,04,51,245,,13,49,032,*79
$GPGSV,4,2,15,08,48,208,,50,45,136,,02,33,298,,23,27,058,*7D
$GPGSV,4,3,15,27,19,219,,10,02,311,,16,01,038,,28,01,181,*73
$GPGSV,4,4,15,193,,,,194,,,,195,,,*47
$GLGSV,2,1,5,87,61,302,,77,57,327,,86,33,026,,88,20,244,*54
$GLGSV,2,2,5,78,08,331,*66
$BDGSV,2,1,8,13,47,202,32.2,06,37,216,31.5,09,37,286,31.6,04,36,126,30.3*50
$BDGSV,2,2,8,12,10,060,,14,08,165,,02,,,31.5,01,,,31.2*5F
$GNRMC,000405.000,A,3000.0010,N,12000.0022,E,0.000,0.00,230721,,,A*45
$GNVTG,0.00,T,,M,0.000,N,0.000,K,A*23
$PMTKGEPH,0,0,0,0,0,0,0,0,0,0,0,0,0,0,0,0,0,0,0,0,0,0,0,0,0,0,0,0,0,0,0,0,0*04
$PMTKGALM,28,1,1,1,1,1,1,1,1,1,1,1,1,1,1,1,1,0,0,0,1,1,1,1,1,1,1,1,1,1,1,1,0*23
$GNACCURACY,5.7,179.9,3.0,31.7*26
$PMTKAGC,000405.000,2802,2858,5953,5814,0,3,0*66
$PMTKAG2,000405.000,5,0118,0,0,0,0,0,0,0,0,0,0,0,0*38
$GNGGA,000406.000,3000.0010,N,12000.0023,E,1,3,7.00,-11.0,M,7.0,M,,*6E
$GPGSA,A,2,,,,,,,,,,,,,7.07,7.00,1.00*05
$GLGSA,A,2,,,,,,,,,,,,,7.07,7.00,1.00*19
$BDGSA,A,2,06,09,13,,,,,,,,,,7.07,7.00,1.00*19
$GPGSV,4,1,15,07,85,106,,25,66,042,,04,51,245,,13,49,032,*79
$GPGSV,4,2,15,08,48,208,,50,45,136,,02,33,298,,23,27,058,*7D
$GPGSV,4,3,15,27,19,219,,10,02,311,,16,01,038,,28,01,181,*73
$GPGSV,4,4,15,193,,,,194,,,,195,,,*47
$GLGSV,2,1,5,87,61,302,,77,57,327,,86,33,026,,88,20,244,*54
$GLGSV,2,2,5,78,08,331,*66
$BDGSV,2,1,8,13,47,202,32.3,06,37,216,31.5,09,37,286,31.6,04,36,126,30.2*50
$BDGSV,2,2,8,12,10,060,,14,08,165,,02,,,31.4,01,,,31.2*5E
$GNRMC,000406.000,A,3000.0010,N,12000.0023,E,0.000,0.00,230721,,,A*47
$GNVTG,0.00,T,,M,0.000,N,0.000,K,A*23
$PMTKGEPH,0,0,0,0,0,0,0,0,0,0,0,0,0,0,0,0,0,0,0,0,0,0,0,0,0,0,0,0,0,0,0,0,0*04
$PMTKGALM,28,1,1,1,1,1,1,1,1,1,1,1,1,1,1,1,1,0,0,0,1,1,1,1,1,1,1,1,1,1,1,1,0*23
$GNACCURACY,5.7,179.9,2.9,30.7*2F
$PMTKAGC,000406.000,2593,2807,5805,5900,0,3,0*6C
$PMTKAG2,000406.000,5,0118,0,0,0,0,0,0,0,0,0,0,0,0*3B
$GNGGA,000407.000,3000.0010,N,12000.0023,E,1,3,7.01,-11.0,M,7.0,M,,*6E
$GPGSA,A,2,,,,,,,,,,,,,7.08,7.01,1.00*0B
$GLGSA,A,2,,,,,,,,,,,,,7.08,7.01,1.00*17
$BDGSA,A,2,06,09,13,,,,,,,,,,7.08,7.01,1.00*17
$GPGSV,4,1,15,07,85,106,,25,66,042,,04,51,245,,13,49,032,*79
$GPGSV,4,2,15,08,48,208,,50,45,136,,02,33,298,,23,27,058,*7D
$GPGSV,4,3,15,27,19,219,,10,02,311,,16,01,038,,28,01,181,*73
$GPGSV,4,4,15,193,,,,194,,,,195,,,*47
$GLGSV,2,1,5,87,61,302,,77,57,327,,86,33,026,,88,20,244,*54
$GLGSV,2,2,5,78,08,331,*66
$BDGSV,2,1,8,13,47,202,32.3,06,37,216,31.6,09,37,286,31.6,04,36,126,30.2*53
$BDGSV,2,2,8,12,10,060,,14,08,165,,02,,,31.5,01,,,31.2*5F
$GNRMC,000407.000,A,3000.0010,N,12000.0023,E,0.000,0.00,230721,,,A*46
$GNVTG,0.00,T,,M,0.000,N,0.000,K,A*23
$PMTKGEPH,0,0,0,0,0,0,0,0,0,0,0,0,0,0,0,0,0,0,0,0,0,0,0,0,0,0,0,0,0,0,0,0,0*04
$PMTKGALM,28,1,1,1,1,1,1,1,1,1,1,1,1,1,1,1,1,0,0,0,1,1,1,1,1,1,1,1,1,1,1,1,0*23
$GNACCURACY,5.7,179.9,3.0,30.4*24
$PMTKAGC,000407.000,2836,2796,5926,5838,0,3,0*62
$PMTKAG2,000407.000,5,0118,0,0,0,0,0,0,0,0,0,0,0,0*3A
$GNGGA,000408.000,3000.0009,N,12000.0020,E,1,4,3.65,-10.8,M,7.0,M,,*62
$GPGSA,A,3,,,,,,,,,,,,,3.78,3.65,0.97*00
$GLGSA,A,3,,,,,,,,,,,,,3.78,3.65,0.97*1C
$BDGSA,A,3,14,06,09,13,,,,,,,,,3.78,3.65,0.97*19
$GPGSV,4,1,15,07,85,106,,25,66,042,,04,51,245,,13,49,032,*79
$GPGSV,4,2,15,08,48,208,,50,45,136,,02,33,298,,23,27,058,*7D
$GPGSV,4,3,15,27,19,219,,10,02,311,,16,01,038,,28,01,181,*73
$GPGSV,4,4,15,193,,,,194,,,,195,,,*47
$GLGSV,2,1,5,87,61,304,,77,57,327,,86,33,026,,88,20,244,*52
$GLGSV,2,2,5,78,08,331,*66
$BDGSV,2,1,8,13,47,202,32.2,06,37,216,31.6,09,37,286,31.6,04,36,126,30.3*53
$BDGSV,2,2,8,12,10,060,,14,08,165,31.8,02,,,31.5,01,,,31.2*4B
$GNRMC,000408.000,A,3000.0009,N,12000.0020,E,0.000,0.00,230721,,,A*42
$GNVTG,0.00,T,,M,0.000,N,0.000,K,A*23
$PMTKGEPH,0,0,0,0,0,0,0,0,0,0,0,0,0,0,0,0,0,0,0,0,0,0,0,0,0,0,0,0,0,0,0,0,0*04
$PMTKGALM,28,1,1,1,1,1,1,1,1,1,1,1,1,1,1,1,1,0,0,0,1,1,1,1,1,1,1,1,1,1,1,1,0*23
$GNACCURACY,5.5,179.9,3.0,30.4*26
$PMTKAGC,000408.000,2784,2770,5858,5856,0,3,0*63
$PMTKAG2,000408.000,5,0118,0,0,0,0,0,0,0,0,0,0,0,0*35
$GNGGA,000409.000,3000.0007,N,12000.0014,E,1,4,3.65,-10.6,M,7.0,M,,*64
$GPGSA,A,3,,,,,,,,,,,,,3.78,3.65,0.97*00
$GLGSA,A,3,,,,,,,,,,,,,3.78,3.65,0.97*1C
$BDGSA,A,3,14,06,09,13,,,,,,,,,3.78,3.65,0.97*19
$GPGSV,4,1,15,07,85,106,,25,66,042,,04,51,245,,13,49,032,*79
$GPGSV,4,2,15,08,48,208,,50,45,136,,02,33,298,,23,27,058,*7D
$GPGSV,4,3,15,27,19,219,,10,02,311,,16,01,038,,28,01,181,*73
$GPGSV,4,4,15,193,,,,194,,,,195,,,*47
$GLGSV,2,1,5,87,61,304,,77,57,327,,86,33,026,,88,21,245,*52
$GLGSV,2,2,5,78,08,331,*66
$BDGSV,2,1,8,13,47,202,32.2,06,37,216,31.6,09,37,286,31.6,04,36,126,30.2*52
$BDGSV,2,2,8,12,10,060,,14,08,165,30.4,02,,,31.4,01,,,31.2*47
$GNRMC,000409.000,A,3000.0007,N,12000.0014,E,0.000,0.00,230721,,,A*4A
$GNVTG,0.00,T,,M,0.000,N,0.000,K,A*23
$PMTKGEPH,0,0,0,0,0,0,0,0,0,0,0,0,0,0,0,0,0,0,0,0,0,0,0,0,0,0,0,0,0,0,0,0,0*04
$PMTKGALM,28,1,1,1,1,1,1,1,1,1,1,1,1,1,1,1,1,0,0,0,1,1,1,1,1,1,1,1,1,1,1,1,0*23
$GNACCURACY,5.3,179.9,2.9,28.6*23
$PMTKAGC,000409.000,2885,2782,5917,5879,0,3,0*66
$PMTKAG2,000409.000,5,0118,0,0,0,0,0,0,0,0,0,0,0,0*34
$GNGGA,000410.000,3000.0004,N,12000.0007,E,1,4,3.65,-10.3,M,7.0,M,,*68
$GPGSA,A,3,,,,,,,,,,,,,3.78,3.65,0.97*00
$GLGSA,A,3,,,,,,,,,,,,,3.78,3.65,0.97*1C
$BDGSA,A,3,14,06,09,13,,,,,,,,,3.78,3.65,0.97*19
$GPGSV,4,1,15,07,85,106,,25,66,042,,04,51,245,,13,49,032,*79
$GPGSV,4,2,15,08,48,208,,50,45,136,,02,33,298,,23,27,058,*7D
$GPGSV,4,3,15,27,19,219,,10,02,311,,16,01,038,,28,01,181,*73
$GPGSV,4,4,15,193,,,,194,,,,195,,,*47
$GLGSV,2,1,5,87,61,304,,77,57,327,,86,33,026,,88,21,245,*52
$GLGSV,2,2,5,78,08,331,*66
$BDGSV,2,1,8,13,47,202,32.2,06,37,216,31.5,09,37,286,31.6,04,36,126,30.3*50
$BDGSV,2,2,8,12,10,060,,14,08,165,31.1,02,,,31.4,01,,,31.2*43
$GNRMC,000410.000,A,3000.0004,N,12000.0007,E,0.000,232.31,230721,,,A*42
$GNVTG,232.31,T,,M,0.000,N,0.000,K,A*22
$PMTKGEPH,0,0,0,0,0,0,0,0,0,0,0,0,0,0,0,0,0,0,0,0,0,0,0,0,0,0,0,0,0,0,0,0,0*04
$PMTKGALM,28,1,1,1,1,1,1,1,1,1,1,1,1,1,1,1,1,0,0,0,1,1,1,1,1,1,1,1,1,1,1,1,0*23
$GNACCURACY,5.1,179.9,2.8,30.1*2E
$PMTKAGC,000410.000,2762,2659,5880,5761,0,3,0*66
$PMTKAG2,000410.000,5,0118,0,0,0,0,0,0,0,0,0,0,0,0*3C
$GNGGA,000411.000,3000.0004,N,12000.0007,E,1,4,3.65,-10.3,M,7.0,M,,*69
$GPGSA,A,3,,,,,,,,,,,,,3.78,3.65,0.97*00
$GLGSA,A,3,,,,,,,,,,,,,3.78,3.65,0.97*1C
$BDGSA,A,3,14,06,09,13,,,,,,,,,3.78,3.65,0.97*19
$GPGSV,4,1,15,07,85,106,,25,66,042,,04,51,245,,13,49,032,*79
$GPGSV,4,2,15,08,48,208,,50,45,136,,02,33,298,,23,27,058,*7D
$GPGSV,4,3,15,27,19,219,,10,02,311,,16,01,038,,28,01,181,*73
$GPGSV,4,4,15,193,,,,194,,,,195,,,*47
$GLGSV,2,1,5,87,61,304,,77,57,327,,86,33,026,,88,21,245,*52
$GLGSV,2,2,5,78,08,331,*66
$BDGSV,2,1,8,13,47,202,32.2,06,37,216,31.6,09,37,286,31.7,04,36,126,30.4*55
$BDGSV,2,2,8,12,10,060,,14,08,165,31.6,02,,,31.4,01,,,31.2*44
$GNRMC,000411.000,A,3000.0004,N,12000.0007,E,0.000,232.31,230721,,,A*43
$GNVTG,232.31,T,,M,0.000,N,0.000,K,A*22
$PMTKGEPH,0,0,0,0,0,0,0,0,0,0,0,0,0,0,0,0,0,0,0,0,0,0,0,0,0,0,0,0,0,0,0,0,0*04
$PMTKGALM,28,1,1,1,1,1,1,1,1,1,1,1,1,1,1,1,1,0,0,0,1,1,1,1,1,1,1,1,1,1,1,1,0*23
$GNACCURACY,5.0,179.9,2.7,28.0*28
$PMTKAGC,000411.000,2833,2592,5813,5788,0,3,0*65
$PMTKAG2,000411.000,5,0118,0,0,0,0,0,0,0,0,0,0,0,0*3D
$GNGGA,000412.000,3000.0004,N,12000.0007,E,1,4,3.65,-10.3,M,7.0,M,,*6A
$GPGSA,A,3,,,,,,,,,,,,,3.78,3.65,0.97*00
$GLGSA,A,3,,,,,,,,,,,,,3.78,3.65,0.97*1C
$BDGSA,A,3,14,06,09,13,,,,,,,,,3.78,3.65,0.97*19
$GPGSV,4,1,15,07,85,106,,25,66,042,,04,51,245,,13,49,032,*79
$GPGSV,4,2,15,08,48,208,,50,45,136,,02,33,298,,23,27,058,*7D
$GPGSV,4,3,15,27,19,219,,10,02,311,,16,01,038,,28,01,181,*73
$GPGSV,4,4,15,193,,,,194,,,,195,,,*47
$GLGSV,2,1,5,87,61,304,,77,57,327,,86,33,026,,88,21,245,*52
$GLGSV,2,2,5,78,08,331,*66
$BDGSV,2,1,8,13,47,202,32.2,06,37,216,31.5,09,37,286,31.6,04,36,126,30.4*57
$BDGSV,2,2,8,12,10,060,,14,08,165,31.4,02,,,31.5,01,,,31.1*44
$GNRMC,000412.000,A,3000.0004,N,12000.0007,E,0.000,232.31,230721,,,A*40
$GNVTG,232.31,T,,M,0.000,N,0.000,K,A*22
$PMTKGEPH,0,0,0,0,0,0,0,0,0,0,0,0,0,0,0,0,0,0,0,0,0,0,0,0,0,0,0,0,0,0,0,0,0*04
$PMTKGALM,28,1,1,1,1,1,1,1,1,1,1,1,1,1,1,1,1,0,0,0,1,1,1,1,1,1,1,1,1,1,1,1,0*23
$GNACCURACY,4.8,179.9,2.8,29.7*28
$PMTKAGC,000412.000,2699,2897,5923,5953,0,3,0*6A
$PMTKAG2,000412.000,5,0118,0,0,0,0,0,0,0,0,0,0,0,0*3E
$GNGGA,000413.000,3000.0004,N,12000.0007,E,1,4,3.65,-10.3,M,7.0,M,,*6B
$GPGSA,A,3,,,,,,,,,,,,,3.78,3.65,0.97*00
$GLGSA,A,3,,,,,,,,,,,,,3.78,3.65,0.97*1C
$BDGSA,A,3,14,06,09,13,,,,,,,,,3.78,3.65,0.97*19
$GPGSV,4,1,15,07,85,106,,25,66,042,,04,51,245,,13,49,032,*79
$GPGSV,4,2,15,08,48,208,,50,45,136,,02,33,298,,23,27,058,*7D
$GPGSV,4,3,15,27,19,219,,10,02,311,,16,01,038,,28,01,181,*73
$GPGSV,4,4,15,193,,,,194,,,,195,,,*47
$GLGSV,2,1,5,87,61,304,,77,57,327,,86,33,026,,88,21,245,*52
$GLGSV,2,2,5,78,08,331,*66
$BDGSV,2,1,8,13,47,202,32.2,06,37,216,31.5,09,37,286,31.6,04,36,126,30.3*50
$BDGSV,2,2,8,12,10,060,,14,08,165,30.7,02,,,31.5,01,,,31.1*46
$GNRMC,000413.000,A,3000.0004,N,12000.0007,E,0.000,232.31,230721,,,A*41
$GNVTG,232.31,T,,M,0.000,N,0.000,K,A*22
$PMTKGEPH,0,0,0,0,0,0,0,0,0,0,0,0,0,0,0,0,0,0,0,0,0,0,0,0,0,0,0,0,0,0,0,0,0*04
$PMTKGALM,28,1,1,1,1,1,1,1,1,1,1,1,1,1,1,1,1,0,0,0,1,1,1,1,1,1,1,1,1,1,1,1,0*23
$GNACCURACY,4.7,179.9,2.7,27.5*24
$PMTKAGC,000413.000,2590,2599,5877,5845,0,3,0*64
$PMTKAG2,000413.000,5,0118,0,0,0,0,0,0,0,0,0,0,0,0*3F
$GNGGA,000414.000,3000.0004,N,12000.0007,E,1,4,3.65,-10.3,M,7.0,M,,*6C
$GPGSA,A,3,,,,,,,,,,,,,3.78,3.65,0.97*00
$GLGSA,A,3,,,,,,,,,,,,,3.78,3.65,0.97*1C
$BDGSA,A,3,14,06,09,13,,,,,,,,,3.78,3.65,0.97*19
$GPGSV,4,1,15,07,85,106,,25,66,042,,04,51,245,,13,49,032,*79
$GPGSV,4,2,15,08,48,208,,02,33,298,,23,27,058,,44,22,250,*7A
$GPGSV,4,3,15,27,19,219,,10,02,311,,16,01,038,,28,01,181,*73
$GPGSV,4,4,15,193,,,,194,,,,195,,,*47
$GLGSV,2,1,5,87,61,304,,77,57,327,,86,33,026,,88,21,245,*52
$GLGSV,2,2,5,78,08,331,*66
$BDGSV,2,1,8,13,47,202,32.1,06,37,216,31.5,09,37,286,31.6,04,36,126,30.4*54
$BDGSV,2,2,8,12,10,060,,14,08,165,31.4,02,,,31.5,01,,,31.2*47
$GNRMC,000414.000,A,3000.0004,N,12000.0007,E,0.000,232.31,230721,,,A*46
$GNVTG,232.31,T,,M,0.000,N,0.000,K,A*22
$PMTKGEPH,0,0,0,0,0,0,0,0,0,0,0,0,0,0,0,0,0,0,0,0,0,0,0,0,0,0,0,0,0,0,0,0,0*04
$PMTKGALM,28,1,1,1,1,1,1,1,1,1,1,1,1,1,1,1,1,0,0,0,1,1,1,1,1,1,1,1,1,1,1,1,0*23
$GNACCURACY,4.7,179.9,2.6,29.4*2A
$PMTKAGC,000414.000,2890,2697,5975,5834,0,3,0*66
$PMTKAG2,000414.000,5,0118,0,0,0,0,0,0,0,0,0,0,0,0*38
$GNGGA,000415.000,3000.0004,N,12000.0007,E,1,4,3.65,-10.3,M,7.0,M,,*6D
$GPGSA,A,3,,,,,,,,,,,,,3.78,3.65,0.97*00
$GLGSA,A,3,,,,,,,,,,,,,3.78,3.65,0.97*1C
$BDGSA,A,3,14,06,09,13,,,,,,,,,3.78,3.65,0.97*19
$GPGSV,4,1,15,07,85,106,,25,66,042,,04,51,245,,13,49,032,*79
$GPGSV,4,2,15,08,48,208,,02,33,298,,23,27,058,,44,22,250,*7A
$GPGSV,4,3,15,27,19,219,,10,02,311,,16,01,038,,28,01,181,*73
$GPGSV,4,4,15,193,,,,194,,,,195,,,*47
$GLGSV,2,1,5,87,61,304,,77,57,327,,86,33,026,,88,21,245,*52
$GLGSV,2,2,5,78,08,331,*66
$BDGSV,2,1,8,13,47,202,32.2,09,37,286,31.6,06,36,216,31.5,04,36,126,30.3*51
$BDGSV,2,2,8,12,10,060,,14,08,165,31.9,02,,,31.5,01,,,31.1*49
$GNRMC,000415.000,A,3000.0004,N,12000.0007,E,0.000,232.31,230721,,,A*47
$GNVTG,232.31,T,,M,0.000,N,0.000,K,A*22
$PMTKGEPH,0,0,0,0,0,0,0,0,0,0,0,0,0,0,0,0,0,0,0,0,0,0,0,0,0,0,0,0,0,0,0,0,0*04
$PMTKGALM,28,1,1,1,1,1,1,1,1,1,1,1,1,1,1,1,1,0,0,0,1,1,1,1,1,1,1,1,1,1,1,1,0*23
$GNACCURACY,4.6,179.9,2.6,27.3*22
$PMTKAGC,000415.000,2788,2661,5921,6016,0,3,0*62
$PMTKAG2,000415.000,5,0118,0,0,0,0,0,0,0,0,0,0,0,0*39
$GNGGA,000416.000,3000.0004,N,12000.0007,E,1,4,3.65,-10.3,M,7.0,M,,*6E
$GPGSA,A,3,,,,,,,,,,,,,3.77,3.65,0.97*0F
$GLGSA,A,3,,,,,,,,,,,,,3.77,3.65,0.97*13
$BDGSA,A,3,14,06,09,13,,,,,,,,,3.77,3.65,0.97*16
$GPGSV,4,1,15,07,85,106,,25,66,042,,04,51,245,,13,49,032,*79
$GPGSV,4,2,15,08,48,208,,02,33,298,,23,27,058,,44,22,250,*7A
$GPGSV,4,3,15,27,19,219,,10,02,311,,16,01,038,,28,01,181,*73
$GPGSV,4,4,15,193,,,,194,,,,195,,,*47
$GLGSV,2,1,5,87,61,304,,77,57,327,,86,33,026,,88,21,245,*52
$GLGSV,2,2,5,78,08,331,*66
$BDGSV,2,1,8,13,47,202,32.2,09,37,286,31.7,06,36,216,31.5,04,36,126,30.3*50
$BDGSV,2,2,8,12,10,060,,14,08,165,31.4,02,,,31.5,01,,,31.1*44
$GNRMC,000416.000,A,3000.0004,N,12000.0007,E,0.000,232.31,230721,,,A*44
$GNVTG,232.31,T,,M,0.000,N,0.000,K,A*22
$PMTKGEPH,0,0,0,0,0,0,0,0,0,0,0,0,0,0,0,0,0,0,0,0,0,0,0,0,0,0,0,0,0,0,0,0,0*04
$PMTKGALM,28,1,1,1,1,1,1,1,1,1,1,1,1,1,1,1,1,0,0,0,1,1,1,1,1,1,1,1,1,1,1,1,0*23
$GNACCURACY,4.6,179.9,2.6,29.2*2D
$PMTKAGC,000416.000,2726,2807,5920,5866,0,3,0*66
$PMTKAG2,000416.000,5,0118,0,0,0,0,0,0,0,0,0,0,0,0*3A
$GNGGA,000417.000,3000.0004,N,12000.0007,E,1,4,3.65,-10.3,M,7.0,M,,*6F
$GPGSA,A,3,,,,,,,,,,,,,3.78,3.65,0.97*00
$GLGSA,A,3,,,,,,,,,,,,,3.78,3.65,0.97*1C
$BDGSA,A,3,14,06,09,13,,,,,,,,,3.78,3.65,0.97*19
$GPGSV,4,1,15,07,85,106,,25,66,042,,04,51,245,,13,49,032,*79
$GPGSV,4,2,15,08,48,208,,02,33,298,,23,27,058,,44,22,250,*7A
$GPGSV,4,3,15,27,19,219,,10,02,311,,16,01,038,,28,01,181,*73
$GPGSV,4,4,15,193,,,,194,,,,195,,,*47
$GLGSV,2,1,5,87,61,304,,77,57,327,,86,33,026,,88,21,245,*52
$GLGSV,2,2,5,78,08,331,*66
$BDGSV,2,1,8,13,47,202,32.2,09,37,286,31.7,06,36,216,31.4,04,36,126,30.4*56
$BDGSV,2,2,8,12,10,060,,14,08,165,31.2,02,,,31.5,01,,,31.1*42
$GNRMC,000417.000,A,3000.0004,N,12000.0007,E,0.000,232.31,230721,,,A*45
$GNVTG,232.31,T,,M,0.000,N,0.000,K,A*22
$PMTKGEPH,0,0,0,0,0,0,0,0,0,0,0,0,0,0,0,0,0,0,0,0,0,0,0,0,0,0,0,0,0,0,0,0,0*04
$PMTKGALM,28,1,1,1,1,1,1,1,1,1,1,1,1,1,1,1,1,0,0,0,1,1,1,1,1,1,1,1,1,1,1,1,0*23
$GNACCURACY,4.5,179.9,2.5,27.1*20
$PMTKAGC,000417.000,2590,2666,5841,5677,0,3,0*69
$PMTKAG2,000417.000,5,0118,0,0,0,0,0,0,0,0,0,0,0,0*3B
$GNGGA,000418.000,3000.0004,N,12000.0007,E,1,4,3.65,-10.3,M,7.0,M,,*60
$GPGSA,A,3,,,,,,,,,,,,,3.78,3.65,0.97*00
$GLGSA,A,3,,,,,,,,,,,,,3.78,3.65,0.97*1C
$BDGSA,A,3,14,06,09,13,,,,,,,,,3.78,3.65,0.97*19
$GPGSV,4,1,15,07,85,106,,25,66,042,,04,51,245,,13,49,032,*79
$GPGSV,4,2,15,08,48,208,,02,33,298,,23,27,058,,44,22,250,*7A
$GPGSV,4,3,15,27,19,219,,10,02,311,,16,01,038,,28,01,181,*73
$GPGSV,4,4,15,193,,,,194,,,,195,,,*47
$GLGSV,2,1,5,87,61,304,,77,57,327,,86,33,026,,88,21,245,*52
$GLGSV,2,2,5,78,08,331,*66
$BDGSV,2,1,8,13,47,202,32.3,09,37,286,31.7,06,36,216,31.4,04,36,126,30.3*50
$BDGSV,2,2,8,12,10,060,,14,08,165,31.4,02,,,31.4,01,,,31.2*46
$GNRMC,000418.000,A,3000.0004,N,12000.0007,E,0.000,232.31,230721,,,A*4A
$GNVTG,232.31,T,,M,0.000,N,0.000,K,A*22
$PMTKGEPH,0,0,0,0,0,0,0,0,0,0,0,0,0,0,0,0,0,0,0,0,0,0,0,0,0,0,0,0,0,0,0,0,0*04
$PMTKGALM,28,1,1,1,1,1,1,1,1,1,1,1,1,1,1,1,1,0,0,0,1,1,1,1,1,1,1,1,1,1,1,1,0*23
$GNACCURACY,4.5,179.9,2.5,27.1*20
$PMTKAGC,000418.000,2850,2706,5936,5864,0,3,0*6D
$PMTKAG2,000418.000,5,0119,0,0,0,0,0,0,0,0,0,0,0,0*35
$GNGGA,000419.000,3000.0004,N,12000.0007,E,1,4,3.65,-10.3,M,7.0,M,,*61
$GPGSA,A,3,,,,,,,,,,,,,3.78,3.65,0.97*00
$GLGSA,A,3,,,,,,,,,,,,,3.78,3.65,0.97*1C
$BDGSA,A,3,14,06,09,13,,,,,,,,,3.78,3.65,0.97*19
$GPGSV,4,1,15,07,85,106,,25,66,042,,04,51,245,,13,49,032,*79
$GPGSV,4,2,15,08,48,208,,02,33,298,,23,27,058,,44,22,250,*7A
$GPGSV,4,3,15,27,19,219,,10,02,311,,16,01,038,,28,01,181,*73
$GPGSV,4,4,15,193,,,,194,,,,195,,,*47
$GLGSV,2,1,5,87,61,304,,77,57,327,,86,33,026,,88,21,245,*52
$GLGSV,2,2,5,78,08,331,*66
$BDGSV,2,1,8,13,47,202,32.3,09,37,286,31.7,06,36,216,31.4,04,36,126,30.4*57
$BDGSV,2,2,8,12,10,060,,14,08,165,31.1,02,,,31.4,01,,,31.1*40
$GNRMC,000419.000,A,3000.0004,N,12000.0007,E,0.000,232.31,230721,,,A*4B
$GNVTG,232.31,T,,M,0.000,N,0.000,K,A*22
$PMTKGEPH,0,0,0,0,0,0,0,0,0,0,0,0,0,0,0,0,0,0,0,0,0,0,0,0,0,0,0,0,0,0,0,0,0*04
$PMTKGALM,28,1,1,1,1,1,1,1,1,1,1,1,1,1,1,1,1,0,0,0,1,1,1,1,1,1,1,1,1,1,1,1,0*23
$GNACCURACY,4.5,179.9,2.5,27.0*21
$PMTKAGC,000419.000,2768,2729,5865,5903,0,3,0*62
$PMTKAG2,000419.000,5,0119,0,0,0,0,0,0,0,0,0,0,0,0*34
$GNGGA,000420.000,3000.0004,N,12000.0007,E,1,4,3.65,-10.3,M,7.0,M,,*6B
$GPGSA,A,3,,,,,,,,,,,,,3.78,3.65,0.97*00
$GLGSA,A,3,,,,,,,,,,,,,3.78,3.65,0.97*1C
$BDGSA,A,3,14,06,09,13,,,,,,,,,3.78,3.65,0.97*19
$GPGSV,4,1,15,07,85,106,,25,66,042,,04,51,245,,13,49,032,*79
$GPGSV,4,2,15,08,48,208,,02,33,298,,23,27,058,,44,22,250,*7A
$GPGSV,4,3,15,27,19,219,,10,02,311,,16,01,038,,28,01,181,*73
$GPGSV,4,4,15,193,,,,194,,,,195,,,*47
$GLGSV,2,1,5,87,61,304,,77,57,327,,86,33,026,,88,21,245,*52
$GLGSV,2,2,5,78,08,331,*66
$BDGSV,2,1,8,13,47,202,32.3,09,37,286,31.7,06,36,216,31.4,04,36,126,30.5*56
$BDGSV,2,2,8,12,10,060,,14,08,165,30.9,02,,,31.4,01,,,31.1*49
$GNRMC,000420.000,A,3000.0004,N,12000.0007,E,0.000,232.31,230721,,,A*41
$GNVTG,232.31,T,,M,0.000,N,0.000,K,A*22
$PMTKGEPH,0,0,0,0,0,0,0,0,0,0,0,0,0,0,0,0,0,0,0,0,0,0,0,0,0,0,0,0,0,0,0,0,0*04
$PMTKGALM,28,1,1,1,1,1,1,1,1,1,1,1,1,1,1,1,1,0,0,0,1,1,1,1,1,1,1,1,1,1,1,1,0*23
$GNACCURACY,4.5,179.9,2.6,28.6*2B
$PMTKAGC,000420.000,2756,2550,5911,5815,0,3,0*6D
$PMTKAG2,000420.000,5,0118,0,0,0,0,0,0,0,0,0,0,0,0*3F
$GNGGA,000421.000,3000.0004,N,12000.0007,E,1,4,3.65,-10.3,M,7.0,M,,*6A
$GPGSA,A,3,,,,,,,,,,,,,3.78,3.65,0.97*00
$GLGSA,A,3,,,,,,,,,,,,,3.78,3.65,0.97*1C
$BDGSA,A,3,14,06,09,13,,,,,,,,,3.78,3.65,0.97*19
$GPGSV,4,1,15,07,85,106,,25,66,042,,04,51,245,,13,49,032,*79
$GPGSV,4,2,15,08,48,208,,02,33,298,,23,27,058,,44,22,250,*7A
$GPGSV,4,3,15,27,19,219,,10,02,311,,16,01,038,,28,01,181,*73
$GPGSV,4,4,15,193,,,,194,,,,195,,,*47
$GLGSV,2,1,5,87,61,304,,77,57,327,,86,33,026,,88,21,245,*52
$GLGSV,2,2,5,78,08,331,*66
$BDGSV,2,1,8,13,47,202,32.3,09,37,286,31.6,06,36,216,31.3,04,36,126,30.4*51
$BDGSV,2,2,8,12,10,059,,14,08,165,30.8,02,,,31.4,01,,,31.1*42
$GNRMC,000421.000,A,3000.0004,N,12000.0007,E,0.000,232.31,230721,,,A*40
$GNVTG,232.31,T,,M,0.000,N,0.000,K,A*22
$PMTKGEPH,0,0,0,0,0,0,0,0,0,0,0,0,0,0,0,0,0,0,0,0,0,0,0,0,0,0,0,0,0,0,0,0,0*04
$PMTKGALM,28,1,1,1,1,1,1,1,1,1,1,1,1,1,1,1,1,0,0,0,1,1,1,1,1,1,1,1,1,1,1,1,0*23
$GNACCURACY,4.5,179.9,2.5,27.4*25
$PMTKAGC,000421.000,2816,2719,5805,5909,0,3,0*60
$PMTKAG2,000421.000,5,0119,0,0,0,0,0,0,0,0,0,0,0,0*3F
$GNGGA,000422.000,3000.0004,N,12000.0007,E,1,4,3.65,-10.3,M,7.0,M,,*69
$GPGSA,A,3,,,,,,,,,,,,,3.78,3.65,0.97*00
$GLGSA,A,3,,,,,,,,,,,,,3.78,3.65,0.97*1C
$BDGSA,A,3,14,06,09,13,,,,,,,,,3.78,3.65,0.97*19
$GPGSV,4,1,15,07,85,106,,25,66,042,,04,51,245,,13,49,032,*79
$GPGSV,4,2,15,08,48,208,,02,33,298,,23,27,058,,44,22,250,*7A
$GPGSV,4,3,15,27,19,219,,10,02,311,,16,01,038,,28,01,181,*73
$GPGSV,4,4,15,193,,,,194,,,,195,,,*47
$GLGSV,2,1,5,87,61,304,,77,57,327,,86,33,026,,88,21,245,*52
$GLGSV,2,2,5,78,08,331,*66
$BDGSV,2,1,8,13,47,201,32.3,09,37,286,31.6,06,36,216,31.4,04,36,126,30.4*55
$BDGSV,2,2,8,12,10,059,,14,08,165,30.8,02,,,31.4,01,,,31.1*42
$GNRMC,000422.000,A,3000.0004,N,12000.0007,E,0.000,232.31,230721,,,A*43
$GNVTG,232.31,T,,M,0.000,N,0.000,K,A*22
$PMTKGEPH,0,0,0,0,0,0,0,0,0,0,0,0,0,0,0,0,0,0,0,0,0,0,0,0,0,0,0,0,0,0,0,0,0*04
$PMTKGALM,28,1,1,1,1,1,1,1,1,1,1,1,1,1,1,1,1,0,0,0,1,1,1,1,1,1,1,1,1,1,1,1,0*23
$GNACCURACY,4.5,179.9,2.5,28.6*28
$PMTKAGC,000422.000,2748,2816,5866,5723,0,3,0*64
$PMTKAG2,000422.000,5,0119,0,0,0,0,0,0,0,0,0,0,0,0*3C
$GNGGA,000423.000,3000.0004,N,12000.0007,E,1,4,3.65,-10.3,M,7.0,M,,*68
$GPGSA,A,3,,,,,,,,,,,,,3.77,3.65,0.97*0F
$GLGSA,A,3,,,,,,,,,,,,,3.77,3.65,0.97*13
$BDGSA,A,3,14,06,09,13,,,,,,,,,3.77,3.65,0.97*16
$GPGSV,4,1,15,07,85,106,,25,66,042,,04,51,245,,13,49,032,*79
$GPGSV,4,2,15,08,48,208,,02,33,298,,23,27,058,,40,20,251,*7D
$GPGSV,4,3,15,27,19,219,,10,02,311,,16,01,038,,28,01,181,*73
$GPGSV,4,4,15,193,,,,194,,,,195,,,*47
$GLGSV,2,1,5,87,61,304,,77,57,327,,86,33,026,,88,21,245,*52
$GLGSV,2,2,5,78,08,331,*66
$BDGSV,2,1,8,13,47,201,32.4,09,37,286,31.7,06,36,216,31.5,04,36,126,30.5*53
$BDGSV,2,2,8,12,10,059,,14,08,165,30.7,02,,,31.4,01,,,31.1*4D
$GNRMC,000423.000,A,3000.0004,N,12000.0007,E,0.000,232.31,230721,,,A*42
$GNVTG,232.31,T,,M,0.000,N,0.000,K,A*22
$PMTKGEPH,0,0,0,0,0,0,0,0,0,0,0,0,0,0,0,0,0,0,0,0,0,0,0,0,0,0,0,0,0,0,0,0,0*04
$PMTKGALM,28,1,1,1,1,1,1,1,1,1,1,1,1,1,1,1,1,0,0,0,1,1,1,1,1,1,1,1,1,1,1,1,0*23
$GNACCURACY,4.5,179.9,2.5,26.8*28
$PMTKAGC,000423.000,2806,2951,5955,5848,0,3,0*61
$PMTKAG2,000423.000,5,0118,0,0,0,0,0,0,0,0,0,0,0,0*3C
$GNGGA,000424.000,3000.0004,N,12000.0007,E,1,4,3.65,-10.3,M,7.0,M,,*6F
$GPGSA,A,3,,,,,,,,,,,,,3.78,3.65,0.97*00
$GLGSA,A,3,,,,,,,,,,,,,3.78,3.65,0.97*1C
$BDGSA,A,3,14,06,09,13,,,,,,,,,3.78,3.65,0.97*19
$GPGSV,4,1,15,07,85,106,,25,66,042,,04,51,245,,13,49,032,*79
$GPGSV,4,2,15,08,48,208,,02,33,298,,23,27,058,,40,20,251,*7D
$GPGSV,4,3,15,27,19,219,,10,02,311,,16,01,038,,28,01,181,*73
$GPGSV,4,4,15,193,,,,194,,,,195,,,*47
$GLGSV,2,1,5,87,61,304,,77,57,327,,86,33,026,,88,21,245,*52
$GLGSV,2,2,5,78,08,331,*66
$BDGSV,2,1,8,13,47,201,32.4,09,37,286,31.7,06,36,216,31.5,04,36,126,30.5*53
$BDGSV,2,2,8,12,10,059,,14,08,165,30.6,02,,,31.5,01,,,31.1*4D
$GNRMC,000424.000,A,3000.0004,N,12000.0007,E,0.000,267.50,230721,,,A*42
$GNVTG,267.50,T,,M,0.000,N,0.000,K,A*25
$PMTKGEPH,0,0,0,0,0,0,0,0,0,0,0,0,0,0,0,0,0,0,0,0,0,0,0,0,0,0,0,0,0,0,0,0,0*04
$PMTKGALM,28,1,1,1,1,1,1,1,1,1,1,1,1,1,1,1,1,0,0,0,1,1,1,1,1,1,1,1,1,1,1,1,0*23
$GNACCURACY,4.5,179.9,2.5,28.9*27
$PMTKAGC,000424.000,2736,2829,5922,5706,0,3,0*61
$PMTKAG2,000424.000,5,0118,0,0,0,0,0,0,0,0,0,0,0,0*3B
$GNGGA,000425.000,3000.0004,N,12000.0007,E,1,4,3.65,-10.3,M,7.0,M,,*6E
$GPGSA,A,3,,,,,,,,,,,,,3.78,3.65,0.97*00
$GLGSA,A,3,,,,,,,,,,,,,3.78,3.65,0.97*1C
$BDGSA,A,3,14,06,09,13,,,,,,,,,3.78,3.65,0.97*19
$GPGSV,4,1,15,07,85,106,,25,66,042,,04,51,245,,13,49,032,*79
$GPGSV,4,2,15,08,48,208,,02,33,298,,23,27,058,,40,20,251,*7D
$GPGSV,4,3,15,27,19,219,,10,02,311,,16,01,038,,28,01,181,*73
$GPGSV,4,4,15,193,,,,194,,,,195,,,*47
$GLGSV,2,1,5,87,61,304,,77,57,327,,86,33,026,,88,21,245,*52
$GLGSV,2,2,5,78,08,331,*66
$BDGSV,2,1,8,13,47,201,32.4,09,37,286,31.7,06,36,216,31.5,04,36,126,30.4*52
$BDGSV,2,2,8,12,10,059,,14,08,165,30.5,02,,,31.4,01,,,31.1*4F
$GNRMC,000425.000,A,3000.0004,N,12000.0007,E,0.000,267.50,230721,,,A*43
$GNVTG,267.50,T,,M,0.000,N,0.000,K,A*25
$PMTKGEPH,0,0,0,0,0,0,0,0,0,0,0,0,0,0,0,0,0,0,0,0,0,0,0,0,0,0,0,0,0,0,0,0,0*04
$PMTKGALM,28,1,1,1,1,1,1,1,1,1,1,1,1,1,1,1,1,0,0,0,1,1,1,1,1,1,1,1,1,1,1,1,0*23
$GNACCURACY,4.5,179.9,2.6,26.8*2B
$PMTKAGC,000425.000,2713,2935,6001,5965,0,3,0*6B
$PMTKAG2,000425.000,5,0118,0,0,0,0,0,0,0,0,0,0,0,0*3A
$GNGGA,000426.000,3000.0004,N,12000.0007,E,1,4,3.65,-10.3,M,7.0,M,,*6D
$GPGSA,A,3,,,,,,,,,,,,,3.78,3.65,0.97*00
$GLGSA,A,3,,,,,,,,,,,,,3.78,3.65,0.97*1C
$BDGSA,A,3,14,06,09,13,,,,,,,,,3.78,3.65,0.97*19
$GPGSV,4,1,15,07,85,106,,25,66,042,,04,51,245,,13,49,032,*79
$GPGSV,4,2,15,08,48,208,,02,33,298,,23,27,058,,40,20,251,*7D
$GPGSV,4,3,15,27,19,219,,10,02,311,,16,01,038,,28,01,181,*73
$GPGSV,4,4,15,193,,,,194,,,,195,,,*47
$GLGSV,2,1,5,87,61,304,,77,57,327,,86,33,026,,88,21,245,*52
$GLGSV,2,2,5,78,08,331,*66
$BDGSV,2,1,8,13,47,201,32.4,09,37,286,31.7,06,36,216,31.5,04,36,126,30.6*50
$BDGSV,2,2,8,12,10,059,,14,08,165,30.4,02,,,31.4,01,,,31.1*4E
$GNRMC,000426.000,A,3000.0004,N,12000.0007,E,0.000,267.50,230721,,,A*40
$GNVTG,267.50,T,,M,0.000,N,0.000,K,A*25
$PMTKGEPH,0,0,0,0,0,0,0,0,0,0,0,0,0,0,0,0,0,0,0,0,0,0,0,0,0,0,0,0,0,0,0,0,0*04
$PMTKGALM,28,1,1,1,1,1,1,1,1,1,1,1,1,1,1,1,1,0,0,0,1,1,1,1,1,1,1,1,1,1,1,1,0*23
$GNACCURACY,4.5,179.9,2.7,26.8*2A
$PMTKAGC,000426.000,2976,2659,5783,5867,0,3,0*6D
$PMTKAG2,000426.000,5,0118,0,0,0,0,0,0,0,0,0,0,0,0*39
$GNGGA,000427.000,3000.0004,N,12000.0007,E,1,4,3.65,-10.3,M,7.0,M,,*6C
$GPGSA,A,3,,,,,,,,,,,,,3.78,3.65,0.97*00
$GLGSA,A,3,,,,,,,,,,,,,3.78,3.65,0.97*1C
$BDGSA,A,3,14,06,09,13,,,,,,,,,3.78,3.65,0.97*19
$GPGSV,4,1,15,07,85,106,,25,66,042,,04,51,245,,13,49,032,*79
$GPGSV,4,2,15,08,48,208,,02,33,298,,23,27,058,,40,20,251,*7D
$GPGSV,4,3,15,27,19,219,,10,02,311,,16,01,038,,28,01,181,*73
$GPGSV,4,4,15,193,,,,194,,,,195,,,*47
$GLGSV,2,1,5,87,61,304,,77,57,327,,86,33,026,,88,21,245,*52
$GLGSV,2,2,5,78,08,331,*66
$BDGSV,2,1,8,13,47,201,32.3,09,37,286,31.8,06,36,216,31.5,04,36,126,30.5*5B
$BDGSV,2,2,8,12,10,059,,14,08,165,30.5,02,,,31.4,01,,,31.0*4E
$GNRMC,000427.000,A,3000.0004,N,12000.0007,E,0.000,267.50,230721,,,A*41
$GNVTG,267.50,T,,M,0.000,N,0.000,K,A*25
$PMTKGEPH,0,0,0,0,0,0,0,0,0,0,0,0,0,0,0,0,0,0,0,0,0,0,0,0,0,0,0,0,0,0,0,0,0*04
$PMTKGALM,28,1,1,1,1,1,1,1,1,1,1,1,1,1,1,1,1,0,0,0,1,1,1,1,1,1,1,1,1,1,1,1,0*23
$GNACCURACY,4.5,179.9,2.8,28.3*20
$PMTKAGC,000427.000,2850,2704,5840,5861,0,3,0*66
$PMTKAG2,000427.000,5,0118,0,0,0,0,0,0,0,0,0,0,0,0*38
$GNGGA,000428.000,3000.0004,N,12000.0007,E,1,4,3.65,-10.3,M,7.0,M,,*63
$GPGSA,A,3,,,,,,,,,,,,,3.78,3.65,0.97*00
$GLGSA,A,3,,,,,,,,,,,,,3.78,3.65,0.97*1C
$BDGSA,A,3,14,06,09,13,,,,,,,,,3.78,3.65,0.97*19
$GPGSV,4,1,15,07,85,106,,25,66,042,,04,51,245,,13,49,032,*79
$GPGSV,4,2,15,08,48,208,,02,33,298,,23,27,058,,40,20,251,*7D
$GPGSV,4,3,15,27,19,219,,10,02,311,,16,01,038,,28,01,181,*73
$GPGSV,4,4,15,193,,,,194,,,,195,,,*47
$GLGSV,2,1,5,87,61,304,,77,57,327,,86,33,026,,88,21,245,*52
$GLGSV,2,2,5,78,08,331,*66
$BDGSV,2,1,8,13,47,201,32.3,09,37,286,31.8,06,36,216,31.4,04,36,126,30.4*5B
$BDGSV,2,2,8,12,10,059,,14,08,165,30.5,02,,,31.5,01,,,31.0*4F
$GNRMC,000428.000,A,3000.0004,N,12000.0007,E,0.000,267.50,230721,,,A*4E
$GNVTG,267.50,T,,M,0.000,N,0.000,K,A*25
$PMTKGEPH,0,0,0,0,0,0,0,0,0,0,0,0,0,0,0,0,0,0,0,0,0,0,0,0,0,0,0,0,0,0,0,0,0*04
$PMTKGALM,28,1,1,1,1,1,1,1,1,1,1,1,1,1,1,1,1,0,0,0,1,1,1,1,1,1,1,1,1,1,1,1,0*23
$GNACCURACY,4.5,179.9,2.9,26.8*24
$PMTKAGC,000428.000,2714,2699,5912,5903,0,3,0*60
$PMTKAG2,000428.000,5,0118,0,0,0,0,0,0,0,0,0,0,0,0*37
$GNGGA,000429.000,3000.0004,N,12000.0007,E,1,4,3.65,-10.3,M,7.0,M,,*62
$GPGSA,A,3,,,,,,,,,,,,,3.77,3.65,0.97*0F
$GLGSA,A,3,,,,,,,,,,,,,3.77,3.65,0.97*13
$BDGSA,A,3,14,06,09,13,,,,,,,,,3.77,3.65,0.97*16
$GPGSV,4,1,15,07,85,106,,25,66,042,,04,51,245,,13,49,032,*79
$GPGSV,4,2,15,08,48,208,,02,33,298,,23,27,058,,40,20,251,*7D
$GPGSV,4,3,15,27,19,219,,10,02,311,,16,01,038,,28,01,181,*73
$GPGSV,4,4,15,193,,,,194,,,,195,,,*47
$GLGSV,2,1,5,87,61,304,,77,57,327,,86,33,026,,88,21,245,*52
$GLGSV,2,2,5,78,08,331,*66
$BDGSV,2,1,8,13,47,201,32.4,09,37,286,31.8,06,36,216,31.4,04,36,126,30.5*5D
$BDGSV,2,2,8,12,10,059,,14,08,165,30.7,02,,,31.5,01,,,31.1*4C
$GNRMC,000429.000,A,3000.0004,N,12000.0007,E,0.000,267.50,230721,,,A*4F
$GNVTG,267.50,T,,M,0.000,N,0.000,K,A*25
$PMTKGEPH,0,0,0,0,0,0,0,0,0,0,0,0,0,0,0,0,0,0,0,0,0,0,0,0,0,0,0,0,0,0,0,0,0*04
$PMTKGALM,28,1,1,1,1,1,1,1,1,1,1,1,1,1,1,1,1,0,0,0,1,1,1,1,1,1,1,1,1,1,1,1,0*23
$GNACCURACY,4.6,179.9,2.8,26.6*28
$PMTKAGC,000429.000,2779,2799,5960,5868,0,3,0*62
$PMTKAG2,000429.000,5,0118,0,0,0,0,0,0,0,0,0,0,0,0*36
$GNGGA,000430.000,3000.0004,N,12000.0007,E,1,4,3.65,-10.3,M,7.0,M,,*6A
$GPGSA,A,3,,,,,,,,,,,,,3.77,3.65,0.97*0F
$GLGSA,A,3,,,,,,,,,,,,,3.77,3.65,0.97*13
$BDGSA,A,3,14,06,09,13,,,,,,,,,3.77,3.65,0.97*16
$GPGSV,4,1,15,07,85,106,,25,66,042,,04,51,245,,13,49,032,*79
$GPGSV,4,2,15,08,48,208,,02,33,298,,23,27,058,,40,20,251,*7D
$GPGSV,4,3,15,27,19,219,,10,02,311,,16,01,038,,28,01,181,*73
$GPGSV,4,4,15,193,,,,194,,,,195,,,*47
$GLGSV,2,1,5,87,61,304,,77,57,327,,86,33,026,,88,21,245,*52
$GLGSV,2,2,5,78,08,331,*66
$BDGSV,2,1,8,13,47,201,32.4,09,37,286,31.8,06,36,216,31.4,04,36,126,30.5*5D
$BDGSV,2,2,8,12,10,059,,14,08,165,30.8,02,,,31.5,01,,,31.1*43
$GNRMC,000430.000,A,3000.0004,N,12000.0007,E,0.000,267.50,230721,,,A*47
$GNVTG,267.50,T,,M,0.000,N,0.000,K,A*25
$PMTKGEPH,0,0,0,0,0,0,0,0,0,0,0,0,0,0,0,0,0,0,0,0,0,0,0,0,0,0,0,0,0,0,0,0,0*04
$PMTKGALM,28,1,1,1,1,1,1,1,1,1,1,1,1,1,1,1,1,0,0,0,1,1,1,1,1,1,1,1,1,1,1,1,0*23
$GNACCURACY,4.5,179.9,2.6,26.7*24
$PMTKAGC,000430.000,3103,2848,5864,5725,0,3,0*60
$PMTKAG2,000430.000,5,0118,0,0,0,0,0,0,0,0,0,0,0,0*3E
$GNGGA,000431.000,3000.0004,N,12000.0007,E,1,4,3.65,-10.3,M,7.0,M,,*6B
$GPGSA,A,3,,,,,,,,,,,,,3.77,3.65,0.97*0F
$GLGSA,A,3,,,,,,,,,,,,,3.77,3.65,0.97*13
$BDGSA,A,3,14,06,09,13,,,,,,,,,3.77,3.65,0.97*16
$GPGSV,4,1,15,07,85,106,,25,66,042,,04,51,245,,13,49,032,*79
$GPGSV,4,2,15,08,48,208,,02,33,298,,23,27,058,,40,20,251,*7D
$GPGSV,4,3,15,27,19,219,,10,02,311,,16,01,038,,28,01,181,*73
$GPGSV,4,4,15,193,,,,194,,,,195,,,*47
$GLGSV,2,1,5,87,61,304,,77,57,327,,86,33,026,,88,21,245,*52
$GLGSV,2,2,5,78,08,331,*66
$BDGSV,2,1,8,13,47,201,32.4,09,37,286,31.8,06,36,216,31.5,04,36,126,30.4*5D
$BDGSV,2,2,8,12,10,059,,14,08,165,30.9,02,,,31.5,01,,,31.1*42
$GNRMC,000431.000,A,3000.0004,N,12000.0007,E,0.000,267.50,230721,,,A*46
$GNVTG,267.50,T,,M,0.000,N,0.000,K,A*25
$PMTKGEPH,0,0,0,0,0,0,0,0,0,0,0,0,0,0,0,0,0,0,0,0,0,0,0,0,0,0,0,0,0,0,0,0,0*04
$PMTKGALM,28,1,1,1,1,1,1,1,1,1,1,1,1,1,1,1,1,0,0,0,1,1,1,1,1,1,1,1,1,1,1,1,0*23
$GNACCURACY,4.6,179.9,2.6,26.6*26
$PMTKAGC,000431.000,2801,2717,5821,5879,0,3,0*69
$PMTKAG2,000431.000,5,0118,0,0,0,0,0,0,0,0,0,0,0,0*3F
$GNGGA,000432.000,3000.0004,N,12000.0007,E,1,4,3.65,-10.3,M,7.0,M,,*68
$GPGSA,A,3,,,,,,,,,,,,,3.77,3.65,0.97*0F
$GLGSA,A,3,,,,,,,,,,,,,3.77,3.65,0.97*13
$BDGSA,A,3,14,06,09,13,,,,,,,,,3.77,3.65,0.97*16
$GPGSV,4,1,15,07,85,106,,25,66,042,,04,51,245,,13,49,032,*79
$GPGSV,4,2,15,08,48,208,,02,33,298,,23,27,058,,27,19,219,*7A
$GPGSV,4,3,15,10,02,311,,16,01,038,,28,01,181,,193,,,*7F
$GPGSV,4,4,15,194,,,,195,,,,34,,,*7B
$GLGSV,2,1,5,87,61,304,,77,57,327,,86,33,026,,88,21,245,*52
$GLGSV,2,2,5,78,08,331,*66
$BDGSV,2,1,8,13,47,201,32.4,09,37,286,31.8,06,36,216,31.5,04,36,126,30.5*5C
$BDGSV,2,2,8,12,10,059,,14,08,165,30.8,02,,,31.5,01,,,31.1*43
$GNRMC,000432.000,A,3000.0004,N,12000.0007,E,0.000,267.50,230721,,,A*45
$GNVTG,267.50,T,,M,0.000,N,0.000,K,A*25
$PMTKGEPH,0,0,0,0,0,0,0,0,0,0,0,0,0,0,0,0,0,0,0,0,0,0,0,0,0,0,0,0,0,0,0,0,0*04
$PMTKGALM,28,1,1,1,1,1,1,1,1,1,1,1,1,1,1,1,1,0,0,0,1,1,1,1,1,1,1,1,1,1,1,1,0*23
$GNACCURACY,4.5,179.9,2.6,28.2*2F
$PMTKAGC,000432.000,2799,2913,5821,5809,0,3,0*69
$PMTKAG2,000432.000,5,0118,0,0,0,0,0,0,0,0,0,0,0,0*3C
$GNGGA,000433.000,3000.0004,N,12000.0007,E,1,4,3.65,-10.3,M,7.0,M,,*69
$GPGSA,A,3,,,,,,,,,,,,,3.78,3.65,0.97*00
$GLGSA,A,3,,,,,,,,,,,,,3.78,3.65,0.97*1C
$BDGSA,A,3,14,06,09,13,,,,,,,,,3.78,3.65,0.97*19
$GPGSV,4,1,15,07,85,106,,25,66,042,,04,51,245,,13,49,032,*79
$GPGSV,4,2,15,08,48,208,,02,33,298,,23,27,058,,27,19,219,*7A
$GPGSV,4,3,15,10,02,311,,16,01,038,,28,01,181,,193,,,*7F
$GPGSV,4,4,15,194,,,,195,,,,34,,,*7B
$GLGSV,2,1,5,87,61,304,,77,57,327,,86,33,026,,88,21,245,*52
$GLGSV,2,2,5,78,08,331,*66
$BDGSV,2,1,8,13,47,201,32.5,09,37,286,31.8,06,36,216,31.5,04,36,126,30.4*5C
$BDGSV,2,2,8,12,10,059,,14,08,165,30.9,02,,,31.5,01,,,31.1*42
$GNRMC,000433.000,A,3000.0004,N,12000.0007,E,0.000,267.50,230721,,,A*44
$GNVTG,267.50,T,,M,0.000,N,0.000,K,A*25
$PMTKGEPH,0,0,0,0,0,0,0,0,0,0,0,0,0,0,0,0,0,0,0,0,0,0,0,0,0,0,0,0,0,0,0,0,0*04
$PMTKGALM,28,1,1,1,1,1,1,1,1,1,1,1,1,1,1,1,1,0,0,0,1,1,1,1,1,1,1,1,1,1,1,1,0*23
$GNACCURACY,4.5,179.9,2.5,26.6*26
$PMTKAGC,000433.000,2828,2883,5882,5994,0,3,0*69
$PMTKAG2,000433.000,5,0119,0,0,0,0,0,0,0,0,0,0,0,0*3C
$GNGGA,000434.000,3000.0004,N,12000.0007,E,1,4,3.65,-10.3,M,7.0,M,,*6E
$GPGSA,A,3,,,,,,,,,,,,,3.78,3.65,0.97*00
$GLGSA,A,3,,,,,,,,,,,,,3.78,3.65,0.97*1C
$BDGSA,A,3,14,06,09,13,,,,,,,,,3.78,3.65,0.97*19
$GPGSV,4,1,15,07,85,106,,25,66,042,,04,51,245,,13,49,032,*79
$GPGSV,4,2,15,08,48,208,,02,33,298,,23,27,058,,27,19,219,*7A
$GPGSV,4,3,15,10,02,311,,16,01,038,,28,01,181,,193,,,*7F
$GPGSV,4,4,15,194,,,,195,,,,34,,,*7B
$GLGSV,2,1,5,87,61,304,,77,57,327,,86,33,026,,88,21,245,*52
$GLGSV,2,2,5,78,08,331,*66
$BDGSV,2,1,8,13,47,201,32.5,09,37,286,31.8,06,36,216,31.5,04,36,126,30.4*5C
$BDGSV,2,2,8,12,10,059,,14,08,165,30.8,02,,,31.5,01,,,31.1*43
$GNRMC,000434.000,A,3000.0004,N,12000.0007,E,0.000,267.50,230721,,,A*43
$GNVTG,267.50,T,,M,0.000,N,0.000,K,A*25
$PMTKGEPH,0,0,0,0,0,0,0,0,0,0,0,0,0,0,0,0,0,0,0,0,0,0,0,0,0,0,0,0,0,0,0,0,0*04
$PMTKGALM,28,1,1,1,1,1,1,1,1,1,1,1,1,1,1,1,1,0,0,0,1,1,1,1,1,1,1,1,1,1,1,1,0*23
$GNACCURACY,4.5,179.9,2.5,26.5*25
$PMTKAGC,000434.000,2766,2694,5886,5862,0,3,0*6F
$PMTKAG2,000434.000,5,0119,0,0,0,0,0,0,0,0,0,0,0,0*3B
$GNGGA,000435.000,3000.0004,N,12000.0007,E,1,4,3.65,-10.3,M,7.0,M,,*6F
$GPGSA,A,3,,,,,,,,,,,,,3.77,3.65,0.97*0F
$GLGSA,A,3,,,,,,,,,,,,,3.77,3.65,0.97*13
$BDGSA,A,3,14,06,09,13,,,,,,,,,3.77,3.65,0.97*16
$GPGSV,4,1,15,07,85,106,,25,66,042,,04,51,245,,13,49,032,*79
$GPGSV,4,2,15,08,48,208,,02,33,298,,23,27,058,,27,19,219,*7A
$GPGSV,4,3,15,10,02,311,,16,01,038,,28,01,181,,193,,,*7F
$GPGSV,4,4,15,194,,,,195,,,,34,,,*7B
$GLGSV,2,1,5,87,61,304,,77,57,327,,86,33,026,,88,21,245,*52
$GLGSV,2,2,5,78,08,331,*66
$BDGSV,2,1,8,13,47,201,32.5,09,37,286,31.8,06,36,216,31.6,04,36,126,30.5*5E
$BDGSV,2,2,8,12,10,059,,14,08,165,30.8,02,,,31.4,01,,,31.2*41
$GNRMC,000435.000,A,3000.0004,N,12000.0007,E,0.000,267.50,230721,,,A*42
$GNVTG,267.50,T,,M,0.000,N,0.000,K,A*25
$PMTKGEPH,0,0,0,0,0,0,0,0,0,0,0,0,0,0,0,0,0,0,0,0,0,0,0,0,0,0,0,0,0,0,0,0,0*04
$PMTKGALM,28,1,1,1,1,1,1,1,1,1,1,1,1,1,1,1,1,0,0,0,1,1,1,1,1,1,1,1,1,1,1,1,0*23
$GNACCURACY,4.5,179.9,2.4,26.5*24
$PMTKAGC,000435.000,2836,2753,5890,6035,0,3,0*60
$PMTKAG2,000435.000,5,0119,0,0,0,0,0,0,0,0,0,0,0,0*3A
$GNGGA,000436.000,3000.0004,N,12000.0007,E,1,4,3.65,-10.3,M,7.0,M,,*6C
$GPGSA,A,3,,,,,,,,,,,,,3.77,3.65,0.97*0F
$GLGSA,A,3,,,,,,,,,,,,,3.77,3.65,0.97*13
$BDGSA,A,3,14,06,09,13,,,,,,,,,3.77,3.65,0.97*16
$GPGSV,4,1,15,07,85,106,,25,66,042,,04,51,245,,13,49,032,*79
$GPGSV,4,2,15,08,48,208,,02,33,298,,23,27,058,,27,19,219,*7A
$GPGSV,4,3,15,10,02,311,,16,01,038,,28,01,181,,193,,,*7F
$GPGSV,4,4,15,194,,,,195,,,,34,,,*7B
$GLGSV,2,1,5,87,61,304,,77,57,327,,86,33,026,,88,21,245,*52
$GLGSV,2,2,5,78,08,331,*66
$BDGSV,2,1,8,13,47,201,32.5,09,37,286,31.7,06,36,216,31.6,04,36,126,30.5*51
$BDGSV,2,2,8,12,10,059,,14,08,165,30.7,02,,,31.5,01,,,31.1*4C
$GNRMC,000436.000,A,3000.0004,N,12000.0007,E,0.000,267.50,230721,,,A*41
$GNVTG,267.50,T,,M,0.000,N,0.000,K,A*25
$PMTKGEPH,0,0,0,0,0,0,0,0,0,0,0,0,0,0,0,0,0,0,0,0,0,0,0,0,0,0,0,0,0,0,0,0,0*04
$PMTKGALM,28,1,1,1,1,1,1,1,1,1,1,1,1,1,1,1,1,0,0,0,1,1,1,1,1,1,1,1,1,1,1,1,0*23
$GNACCURACY,4.5,179.9,2.5,26.8*28
$PMTKAGC,000436.000,2790,2929,6026,5926,0,3,0*6D
$PMTKAG2,000436.000,5,0119,0,0,0,0,0,0,0,0,0,0,0,0*39
$GNGGA,000437.000,3000.0004,N,12000.0007,E,1,4,3.65,-10.3,M,7.0,M,,*6D
$GPGSA,A,3,,,,,,,,,,,,,3.78,3.65,0.97*00
$GLGSA,A,3,,,,,,,,,,,,,3.78,3.65,0.97*1C
$BDGSA,A,3,14,06,09,13,,,,,,,,,3.78,3.65,0.97*19
$GPGSV,4,1,15,07,85,106,,25,66,042,,04,51,245,,13,49,032,*79
$GPGSV,4,2,15,08,48,208,,02,33,298,,23,27,058,,27,19,219,*7A
$GPGSV,4,3,15,10,02,311,,16,01,038,,28,01,181,,193,,,*7F
$GPGSV,4,4,15,194,,,,195,,,,34,,,*7B
$GLGSV,2,1,5,87,61,304,,77,57,327,,86,33,026,,88,21,245,*52
$GLGSV,2,2,5,78,08,331,*66
$BDGSV,2,1,8,13,47,201,32.4,09,37,286,31.7,06,36,216,31.7,04,36,126,30.5*51
$BDGSV,2,2,8,12,10,059,,14,08,165,30.8,02,,,31.5,01,,,31.1*43
$GNRMC,000437.000,A,3000.0004,N,12000.0007,E,0.000,267.50,230721,,,A*40
$GNVTG,267.50,T,,M,0.000,N,0.000,K,A*25
$PMTKGEPH,0,0,0,0,0,0,0,0,0,0,0,0,0,0,0,0,0,0,0,0,0,0,0,0,0,0,0,0,0,0,0,0,0*04
$PMTKGALM,28,1,1,1,1,1,1,1,1,1,1,1,1,1,1,1,1,0,0,0,1,1,1,1,1,1,1,1,1,1,1,1,0*23
$GNACCURACY,4.5,179.9,2.5,28.1*2F
$PMTKAGC,000437.000,2772,2906,5930,6001,0,3,0*6F
$PMTKAG2,000437.000,5,0119,0,0,0,0,0,0,0,0,0,0,0,0*38
$GNGGA,000438.000,3000.0004,N,12000.0007,E,1,4,3.65,-10.3,M,7.0,M,,*62
$GPGSA,A,3,,,,,,,,,,,,,3.78,3.65,0.97*00
$GLGSA,A,3,,,,,,,,,,,,,3.78,3.65,0.97*1C
$BDGSA,A,3,14,06,09,13,,,,,,,,,3.78,3.65,0.97*19
$GPGSV,4,1,15,07,85,106,,25,66,042,,04,51,245,,13,49,032,*79
$GPGSV,4,2,15,08,48,208,,02,33,298,,23,27,058,,27,19,219,*7A
$GPGSV,4,3,15,10,02,311,,16,01,038,,28,01,181,,193,,,*7F
$GPGSV,4,4,15,194,,,,195,,,,35,,,*7A
$GLGSV,2,1,5,87,61,304,,77,57,327,,86,33,026,,88,21,245,*52
$GLGSV,2,2,5,78,08,331,*66
$BDGSV,2,1,8,13,47,201,32.4,09,37,286,31.7,06,36,216,31.7,04,36,126,30.5*51
$BDGSV,2,2,8,12,10,059,,14,08,165,30.7,02,,,31.6,01,,,31.1*4F
$GNRMC,000438.000,A,3000.0004,N,12000.0007,E,0.000,267.50,230721,,,A*4F
$GNVTG,267.50,T,,M,0.000,N,0.000,K,A*25
$PMTKGEPH,0,0,0,0,0,0,0,0,0,0,0,0,0,0,0,0,0,0,0,0,0,0,0,0,0,0,0,0,0,0,0,0,0*04
$PMTKGALM,28,1,1,1,1,1,1,1,1,1,1,1,1,1,1,1,1,0,0,0,1,1,1,1,1,1,1,1,1,1,1,1,0*23
$GNACCURACY,4.5,179.9,2.5,26.4*24
$PMTKAGC,000438.000,2685,2939,5938,5988,0,3,0*66
$PMTKAG2,000438.000,5,0119,0,0,0,0,0,0,0,0,0,0,0,0*37
$GNGGA,000439.000,3000.0004,N,12000.0007,E,1,4,3.65,-10.3,M,7.0,M,,*63
$GPGSA,A,3,,,,,,,,,,,,,3.78,3.65,0.97*00
$GLGSA,A,3,,,,,,,,,,,,,3.78,3.65,0.97*1C
$BDGSA,A,3,14,06,09,13,,,,,,,,,3.78,3.65,0.97*19
$GPGSV,4,1,15,07,85,106,,25,66,042,,04,51,245,,13,49,032,*79
$GPGSV,4,2,15,08,48,208,,02,33,298,,23,27,058,,27,19,219,*7A
$GPGSV,4,3,15,10,02,311,,16,01,038,,28,01,181,,193,,,*7F
$GPGSV,4,4,15,194,,,,195,,,,35,,,*7A
$GLGSV,2,1,5,87,61,304,,77,57,327,,86,33,026,,88,21,245,*52
$GLGSV,2,2,5,78,08,331,*66
$BDGSV,2,1,8,13,47,201,32.4,09,37,286,31.7,06,36,216,31.8,04,36,126,30.4*5F
$BDGSV,2,2,8,12,10,059,,14,08,165,30.7,02,,,31.6,01,,,31.2*4C
$GNRMC,000439.000,A,3000.0004,N,12000.0007,E,0.000,267.50,230721,,,A*4E
$GNVTG,267.50,T,,M,0.000,N,0.000,K,A*25
$PMTKGEPH,0,0,0,0,0,0,0,0,0,0,0,0,0,0,0,0,0,0,0,0,0,0,0,0,0,0,0,0,0,0,0,0,0*04
$PMTKGALM,28,1,1,1,1,1,1,1,1,1,1,1,1,1,1,1,1,0,0,0,1,1,1,1,1,1,1,1,1,1,1,1,0*23
$GNACCURACY,4.5,179.9,2.4,28.0*2F
$PMTKAGC,000439.000,2976,2768,5984,5789,0,3,0*66
$PMTKAG2,000439.000,5,0119,0,0,0,0,0,0,0,0,0,0,0,0*36
$GNGGA,000440.000,3000.0004,N,12000.0007,E,1,4,3.64,-10.3,M,7.0,M,,*6C
$GPGSA,A,3,,,,,,,,,,,,,3.77,3.64,0.97*0E
$GLGSA,A,3,,,,,,,,,,,,,3.77,3.64,0.97*12
$BDGSA,A,3,14,06,09,13,,,,,,,,,3.77,3.64,0.97*17
$GPGSV,4,1,15,07,85,106,,25,66,042,,04,51,245,,13,49,032,*79
$GPGSV,4,2,15,08,48,208,,02,33,298,,23,27,058,,27,19,219,*7A
$GPGSV,4,3,15,10,02,311,,16,01,038,,28,01,181,,193,,,*7F
$GPGSV,4,4,15,194,,,,195,,,,35,,,*7A
$GLGSV,2,1,5,87,61,304,,77,57,327,,86,33,026,,88,21,245,*52
$GLGSV,2,2,5,78,08,331,*66
$BDGSV,2,1,8,13,47,201,32.4,09,37,286,31.8,06,36,216,31.8,04,36,126,30.4*50
$BDGSV,2,2,8,12,10,059,,14,08,165,30.7,02,,,31.5,01,,,31.2*4F
$GNRMC,000440.000,A,3000.0004,N,12000.0007,E,0.000,67.50,230721,,,A*72
$GNVTG,67.50,T,,M,0.000,N,0.000,K,A*17
$PMTKGEPH,0,0,0,0,0,0,0,0,0,0,0,0,0,0,0,0,0,0,0,0,0,0,0,0,0,0,0,0,0,0,0,0,0*04
$PMTKGALM,28,1,1,1,1,1,1,1,1,1,1,1,1,1,1,1,1,0,0,0,1,1,1,1,1,1,1,1,1,1,1,1,0*23
$GNACCURACY,4.4,179.9,2.5,26.7*26
$PMTKAGC,000440.000,2693,2806,5867,5858,0,3,0*64
$PMTKAG2,000440.000,5,0118,0,0,0,0,0,0,0,0,0,0,0,0*39
$GNGGA,000441.000,3000.0004,N,12000.0007,E,1,4,3.64,-10.3,M,7.0,M,,*6D
$GPGSA,A,3,,,,,,,,,,,,,3.77,3.64,0.97*0E
$GLGSA,A,3,,,,,,,,,,,,,3.77,3.64,0.97*12
$BDGSA,A,3,14,06,09,13,,,,,,,,,3.77,3.64,0.97*17
$GPGSV,4,1,15,07,85,106,,25,66,042,,04,51,245,,13,49,032,*79
$GPGSV,4,2,15,08,48,208,,02,33,297,,23,27,058,,27,19,219,*75
$GPGSV,4,3,15,10,02,311,,16,01,038,,28,01,181,,193,,,*7F
$GPGSV,4,4,15,194,,,,195,,,,35,,,*7A
$GLGSV,2,1,5,87,61,304,,77,57,327,,86,33,026,,88,21,245,*52
$GLGSV,2,2,5,78,08,331,*66
$BDGSV,2,1,8,13,47,201,32.4,09,37,286,31.8,06,36,216,31.8,04,36,126,30.5*51
$BDGSV,2,2,8,12,10,059,,14,08,165,30.7,02,,,31.5,01,,,31.2*4F
$GNRMC,000441.000,A,3000.0004,N,12000.0007,E,0.000,67.50,230721,,,A*73
$GNVTG,67.50,T,,M,0.000,N,0.000,K,A*17
$PMTKGEPH,0,0,0,0,0,0,0,0,0,0,0,0,0,0,0,0,0,0,0,0,0,0,0,0,0,0,0,0,0,0,0,0,0*04
$PMTKGALM,28,1,1,1,1,1,1,1,1,1,1,1,1,1,1,1,1,0,0,0,1,1,1,1,1,1,1,1,1,1,1,1,0*23
$GNACCURACY,4.4,179.9,2.5,26.4*25
$PMTKAGC,000441.000,2963,2773,5872,5963,0,3,0*65
$PMTKAG2,000441.000,5,0119,0,0,0,0,0,0,0,0,0,0,0,0*39
$GNGGA,000442.000,3000.0004,N,12000.0007,E,1,4,3.65,-10.3,M,7.0,M,,*6F
$GPGSA,A,3,,,,,,,,,,,,,3.77,3.65,0.97*0F
$GLGSA,A,3,,,,,,,,,,,,,3.77,3.65,0.97*13
$BDGSA,A,3,14,06,09,13,,,,,,,,,3.77,3.65,0.97*16
$GPGSV,4,1,15,07,85,106,,25,66,042,,04,51,245,,13,49,032,*79
$GPGSV,4,2,15,08,48,208,,02,33,297,,23,27,058,,27,19,219,*75
$GPGSV,4,3,15,10,02,311,,16,01,038,,28,01,181,,193,,,*7F
$GPGSV,4,4,15,194,,,,195,,,,35,,,*7A
$GLGSV,2,1,5,87,61,304,,77,57,327,,86,33,026,,88,21,245,*52
$GLGSV,2,2,5,78,08,331,*66
$BDGSV,2,1,8,13,47,201,32.4,09,37,286,31.8,06,36,216,31.7,04,36,126,30.5*5E
$BDGSV,2,2,8,12,10,059,,14,08,165,30.7,02,,,31.5,01,,,31.2*4F
$GNRMC,000442.000,A,3000.0004,N,12000.0007,E,0.000,67.50,230721,,,A*70
$GNVTG,67.50,T,,M,0.000,N,0.000,K,A*17
$PMTKGEPH,0,0,0,0,0,0,0,0,0,0,0,0,0,0,0,0,0,0,0,0,0,0,0,0,0,0,0,0,0,0,0,0,0*04
$PMTKGALM,28,1,1,1,1,1,1,1,1,1,1,1,1,1,1,1,1,0,0,0,1,1,1,1,1,1,1,1,1,1,1,1,0*23
$GNACCURACY,4.4,179.9,2.5,26.3*22
$PMTKAGC,000442.000,2823,2855,5817,5897,0,3,0*61
$PMTKAG2,000442.000,5,0119,0,0,0,0,0,0,0,0,0,0,0,0*3A
$GNGGA,000443.000,3000.0004,N,12000.0007,E,1,4,3.65,-10.3,M,7.0,M,,*6E
$GPGSA,A,3,,,,,,,,,,,,,3.78,3.65,0.97*00
$GLGSA,A,3,,,,,,,,,,,,,3.78,3.65,0.97*1C
$BDGSA,A,3,14,06,09,13,,,,,,,,,3.78,3.65,0.97*19
$GPGSV,4,1,15,07,85,106,,25,66,042,,04,51,244,,13,49,032,*78
$GPGSV,4,2,15,08,48,208,,02,33,297,,23,27,058,,27,19,219,*75
$GPGSV,4,3,15,10,02,311,,16,01,038,,28,01,181,,193,,,*7F
$GPGSV,4,4,15,194,,,,195,,,,35,,,*7A
$GLGSV,2,1,5,87,61,304,,77,57,327,,86,33,026,,88,21,245,*52
$GLGSV,2,2,5,78,08,331,*66
$BDGSV,2,1,8,13,47,201,32.5,09,37,286,31.7,06,36,216,31.7,04,36,126,30.5*50
$BDGSV,2,2,8,12,10,059,,14,08,165,30.7,02,,,31.5,01,,,31.2*4F
$GNRMC,000443.000,A,3000.0004,N,12000.0007,E,0.000,67.50,230721,,,A*71
$GNVTG,67.50,T,,M,0.000,N,0.000,K,A*17
$PMTKGEPH,0,0,0,0,0,0,0,0,0,0,0,0,0,0,0,0,0,0,0,0,0,0,0,0,0,0,0,0,0,0,0,0,0*04
$PMTKGALM,28,1,1,1,1,1,1,1,1,1,1,1,1,1,1,1,1,0,0,0,1,1,1,1,1,1,1,1,1,1,1,1,0*23
$GNACCURACY,4.4,179.9,2.5,26.3*22
$PMTKAGC,000443.000,2806,2850,5745,6016,0,3,0*68
$PMTKAG2,000443.000,5,0119,0,0,0,0,0,0,0,0,0,0,0,0*3B
$GNGGA,000444.000,3000.0004,N,12000.0007,E,1,4,3.65,-10.3,M,7.0,M,,*69
$GPGSA,A,3,,,,,,,,,,,,,3.77,3.65,0.97*0F
$GLGSA,A,3,,,,,,,,,,,,,3.77,3.65,0.97*13
$BDGSA,A,3,14,06,09,13,,,,,,,,,3.77,3.65,0.97*16
$GPGSV,4,1,15,07,85,106,,25,66,042,,04,51,244,,13,49,032,*78
$GPGSV,4,2,15,08,48,208,,02,33,297,,23,27,058,,27,19,219,*75
$GPGSV,4,3,15,10,02,311,,16,01,038,,28,01,181,,193,,,*7F
$GPGSV,4,4,15,194,,,,195,,,,36,,,*79
$GLGSV,2,1,5,87,61,304,,77,57,327,,86,33,026,,88,21,245,*52
$GLGSV,2,2,5,78,08,331,*66
$BDGSV,2,1,8,13,47,201,32.5,09,37,286,31.8,06,36,216,31.7,04,36,126,30.6*5C
$BDGSV,2,2,8,12,10,059,,14,08,165,30.8,02,,,31.6,01,,,31.2*43
$GNRMC,000444.000,A,3000.0004,N,12000.0007,E,0.000,67.50,230721,,,A*76
$GNVTG,67.50,T,,M,0.000,N,0.000,K,A*17
$PMTKGEPH,0,0,0,0,0,0,0,0,0,0,0,0,0,0,0,0,0,0,0,0,0,0,0,0,0,0,0,0,0,0,0,0,0*04
$PMTKGALM,28,1,1,1,1,1,1,1,1,1,1,1,1,1,1,1,1,0,0,0,1,1,1,1,1,1,1,1,1,1,1,1,0*23
$GNACCURACY,4.4,179.9,2.5,26.3*22
$PMTKAGC,000444.000,2694,2774,5851,5953,0,3,0*62
$PMTKAG2,000444.000,5,0119,0,0,0,0,0,0,0,0,0,0,0,0*3C
$GNGGA,000445.000,3000.0004,N,12000.0007,E,1,4,3.65,-10.3,M,7.0,M,,*68
$GPGSA,A,3,,,,,,,,,,,,,3.77,3.65,0.97*0F
$GLGSA,A,3,,,,,,,,,,,,,3.77,3.65,0.97*13
$BDGSA,A,3,14,06,09,13,,,,,,,,,3.77,3.65,0.97*16
$GPGSV,4,1,15,07,85,106,,25,66,042,,04,51,244,,13,49,032,*78
$GPGSV,4,2,15,08,48,208,,02,33,297,,23,27,058,,27,19,219,*75
$GPGSV,4,3,15,10,02,311,,16,01,038,,28,01,181,,193,,,*7F
$GPGSV,4,4,15,194,,,,195,,,,36,,,*79
$GLGSV,2,1,5,87,61,304,,77,57,327,,86,33,026,,88,21,245,*52
$GLGSV,2,2,5,78,08,331,*66
$BDGSV,2,1,8,13,47,201,32.5,09,37,286,31.6,06,36,216,31.7,04,36,126,30.6*52
$BDGSV,2,2,8,12,10,059,,14,08,165,30.7,02,,,31.6,01,,,31.2*4C
$GNRMC,000445.000,A,3000.0004,N,12000.0007,E,0.000,76.16,230721,,,A*75
$GNVTG,76.16,T,,M,0.000,N,0.000,K,A*15
$PMTKGEPH,0,0,0,0,0,0,0,0,0,0,0,0,0,0,0,0,0,0,0,0,0,0,0,0,0,0,0,0,0,0,0,0,0*04
$PMTKGALM,28,1,1,1,1,1,1,1,1,1,1,1,1,1,1,1,1,0,0,0,1,1,1,1,1,1,1,1,1,1,1,1,0*23
$GNACCURACY,4.4,179.9,2.5,26.3*22
$PMTKAGC,000445.000,2773,2712,5878,5948,0,3,0*6A
$PMTKAG2,000445.000,5,0119,0,0,0,0,0,0,0,0,0,0,0,0*3D
$GNGGA,000446.000,3000.0004,N,12000.0007,E,1,4,3.65,-10.3,M,7.0,M,,*6B
$GPGSA,A,3,,,,,,,,,,,,,3.77,3.65,0.97*0F
$GLGSA,A,3,,,,,,,,,,,,,3.77,3.65,0.97*13
$BDGSA,A,3,14,06,09,13,,,,,,,,,3.77,3.65,0.97*16
$GPGSV,4,1,15,07,85,095,,25,66,042,,04,51,244,,13,49,032,*73
$GPGSV,4,2,15,08,48,208,,02,33,297,,23,27,058,,27,19,219,*75
$GPGSV,4,3,15,10,02,311,,16,01,038,,28,01,181,,193,,,*7F
$GPGSV,4,4,15,194,,,,195,,,,36,,,*79
$GLGSV,2,1,5,87,61,304,,77,57,327,,86,33,026,,88,21,245,*52
$GLGSV,2,2,5,78,08,331,*66
$BDGSV,2,1,8,13,47,201,32.5,09,37,286,31.6,06,36,216,31.7,04,36,126,30.5*51
$BDGSV,2,2,8,12,10,059,,14,08,165,30.8,02,,,31.6,01,,,31.2*43
$GNRMC,000446.000,A,3000.0004,N,12000.0007,E,0.000,76.16,230721,,,A*76
$GNVTG,76.16,T,,M,0.000,N,0.000,K,A*15
$PMTKGEPH,0,0,0,0,0,0,0,0,0,0,0,0,0,0,0,0,0,0,0,0,0,0,0,0,0,0,0,0,0,0,0,0,0*04
$PMTKGALM,28,1,1,1,1,1,1,1,1,1,1,1,1,1,1,1,1,0,0,0,1,1,1,1,1,1,1,1,1,1,1,1,0*23
$GNACCURACY,4.4,179.9,2.5,27.9*29
$PMTKAGC,000446.000,3050,2926,5906,5901,0,3,0*62
$PMTKAG2,000446.000,5,0119,0,0,0,0,0,0,0,0,0,0,0,0*3E
$GNGGA,000447.000,3000.0004,N,12000.0007,E,1,4,3.64,-10.3,M,7.0,M,,*6B
$GPGSA,A,3,,,,,,,,,,,,,3.77,3.64,0.97*0E
$GLGSA,A,3,,,,,,,,,,,,,3.77,3.64,0.97*12
$BDGSA,A,3,14,06,09,13,,,,,,,,,3.77,3.64,0.97*17
$GPGSV,4,1,15,07,85,095,,25,66,042,,04,51,244,,08,49,208,*72
$GPGSV,4,2,15,13,49,032,,02,33,297,,23,27,058,,27,19,219,*75
$GPGSV,4,3,15,10,02,311,,16,01,038,,28,01,181,,193,,,*7F
$GPGSV,4,4,15,194,,,,195,,,,36,,,*79
$GLGSV,2,1,5,87,61,304,,77,57,327,,86,33,026,,88,21,245,*52
$GLGSV,2,2,5,78,08,331,*66
$BDGSV,2,1,8,13,47,201,32.5,09,37,286,31.5,06,36,216,31.7,04,36,126,30.7*50
$BDGSV,2,2,8,12,10,059,,14,08,165,30.8,02,,,31.5,01,,,31.2*40
$GNRMC,000447.000,A,3000.0004,N,12000.0007,E,0.000,76.16,230721,,,A*77
$GNVTG,76.16,T,,M,0.000,N,0.000,K,A*15
$PMTKGEPH,0,0,0,0,0,0,0,0,0,0,0,0,0,0,0,0,0,0,0,0,0,0,0,0,0,0,0,0,0,0,0,0,0*04
$PMTKGALM,28,1,1,1,1,1,1,1,1,1,1,1,1,1,1,1,1,0,0,0,1,1,1,1,1,1,1,1,1,1,1,1,0*23
$GNACCURACY,4.4,179.9,2.5,26.3*22
$PMTKAGC,000447.000,2806,2916,5866,5951,0,3,0*68
$PMTKAG2,000447.000,5,0119,0,0,0,0,0,0,0,0,0,0,0,0*3F
$GNGGA,000448.000,3000.0004,N,12000.0007,E,1,4,3.65,-10.3,M,7.0,M,,*65
$GPGSA,A,3,,,,,,,,,,,,,3.77,3.65,0.97*0F
$GLGSA,A,3,,,,,,,,,,,,,3.77,3.65,0.97*13
$BDGSA,A,3,14,06,09,13,,,,,,,,,3.77,3.65,0.97*16
$GPGSV,4,1,15,07,85,095,,25,66,042,,04,51,244,,08,49,208,*72
$GPGSV,4,2,15,13,49,032,,02,33,297,,23,27,058,,27,19,219,*75
$GPGSV,4,3,15,10,02,311,,16,01,038,,28,01,181,,193,,,*7F
$GPGSV,4,4,15,194,,,,195,,,,36,,,*79
$GLGSV,2,1,5,87,61,304,,77,57,327,,86,33,026,,88,21,245,*52
$GLGSV,2,2,5,78,08,331,*66
$BDGSV,2,1,8,13,47,201,32.5,09,37,286,31.5,06,36,216,31.8,04,36,126,30.6*5E
$BDGSV,2,2,8,12,10,059,,14,08,165,30.8,02,,,31.4,01,,,31.2*41
$GNRMC,000448.000,A,3000.0004,N,12000.0007,E,0.000,76.16,230721,,,A*78
$GNVTG,76.16,T,,M,0.000,N,0.000,K,A*15
$PMTKGEPH,0,0,0,0,0,0,0,0,0,0,0,0,0,0,0,0,0,0,0,0,0,0,0,0,0,0,0,0,0,0,0,0,0*04
$PMTKGALM,28,1,1,1,1,1,1,1,1,1,1,1,1,1,1,1,1,0,0,0,1,1,1,1,1,1,1,1,1,1,1,1,0*23
$GNACCURACY,4.4,179.9,2.4,26.2*22
$PMTKAGC,000448.000,2771,2913,5839,6000,0,3,0*69
$PMTKAG2,000448.000,5,0118,0,0,0,0,0,0,0,0,0,0,0,0*31
$GNGGA,000449.000,3000.0004,N,12000.0007,E,1,4,3.65,-10.3,M,7.0,M,,*64
$GPGSA,A,3,,,,,,,,,,,,,3.77,3.65,0.97*0F
$GLGSA,A,3,,,,,,,,,,,,,3.77,3.65,0.97*13
$BDGSA,A,3,14,06,09,13,,,,,,,,,3.77,3.65,0.97*16
$GPGSV,4,1,15,07,85,095,,25,66,042,,04,51,244,,08,49,208,*72
$GPGSV,4,2,15,13,49,032,,02,33,297,,23,27,058,,27,19,219,*75
$GPGSV,4,3,15,10,02,311,,16,01,038,,28,01,181,,193,,,*7F
$GPGSV,4,4,15,194,,,,195,,,,36,,,*79
$GLGSV,2,1,5,87,61,304,,77,57,327,,86,33,026,,88,21,245,*52
$GLGSV,2,2,5,78,08,331,*66
$BDGSV,2,1,8,13,47,201,32.5,09,37,286,31.5,06,36,216,31.8,04,36,126,30.5*5D
$BDGSV,2,2,8,12,10,059,,14,08,165,30.8,02,,,31.3,01,,,31.2*46
$GNRMC,000449.000,A,3000.0004,N,12000.0007,E,0.000,76.16,230721,,,A*79
$GNVTG,76.16,T,,M,0.000,N,0.000,K,A*15
$PMTKGEPH,0,0,0,0,0,0,0,0,0,0,0,0,0,0,0,0,0,0,0,0,0,0,0,0,0,0,0,0,0,0,0,0,0*04
$PMTKGALM,28,1,1,1,1,1,1,1,1,1,1,1,1,1,1,1,1,0,0,0,1,1,1,1,1,1,1,1,1,1,1,1,0*23
$GNACCURACY,4.4,179.9,2.5,28.3*2C
$PMTKAGC,000449.000,2936,2795,5928,5990,0,3,0*67
$PMTKAG2,000449.000,5,0118,0,0,0,0,0,0,0,0,0,0,0,0*30
$GNGGA,000450.000,3000.0004,N,12000.0007,E,1,4,3.64,-10.3,M,7.0,M,,*6D
$GPGSA,A,3,,,,,,,,,,,,,3.77,3.64,0.97*0E
$GLGSA,A,3,,,,,,,,,,,,,3.77,3.64,0.97*12
$BDGSA,A,3,14,06,09,13,,,,,,,,,3.77,3.64,0.97*17
$GPGSV,4,1,15,07,85,095,,25,66,042,,04,51,244,,08,49,208,*72
$GPGSV,4,2,15,13,49,032,,02,33,297,,23,27,058,,27,19,219,*75
$GPGSV,4,3,15,10,02,311,,16,01,038,,28,01,181,,193,,,*7F
$GPGSV,4,4,15,194,,,,195,,,,38,,,*77
$GLGSV,2,1,5,87,61,304,,77,57,327,,86,33,026,,88,21,245,*52
$GLGSV,2,2,5,78,08,331,*66
$BDGSV,2,1,8,13,47,201,32.5,09,37,286,31.5,06,36,216,31.8,04,36,126,30.6*5E
$BDGSV,2,2,8,12,10,059,,14,08,165,30.7,02,,,31.3,01,,,31.2*49
$GNRMC,000450.000,A,3000.0004,N,12000.0007,E,0.000,43.55,230721,,,A*70
$GNVTG,43.55,T,,M,0.000,N,0.000,K,A*14
$PMTKGEPH,0,0,0,0,0,0,0,0,0,0,0,0,0,0,0,0,0,0,0,0,0,0,0,0,0,0,0,0,0,0,0,0,0*04
$PMTKGALM,28,1,1,1,1,1,1,1,1,1,1,1,1,1,1,1,1,0,0,0,1,1,1,1,1,1,1,1,1,1,1,1,0*23
$GNACCURACY,4.4,179.9,2.5,26.2*23
$PMTKAGC,000450.000,3038,2900,6044,5821,0,3,0*60
$PMTKAG2,000450.000,5,0118,0,0,0,0,0,0,0,0,0,0,0,0*38
$GNGGA,000451.000,3000.0004,N,12000.0007,E,1,4,3.64,-10.3,M,7.0,M,,*6C
$GPGSA,A,3,,,,,,,,,,,,,3.77,3.64,0.97*0E
$GLGSA,A,3,,,,,,,,,,,,,3.77,3.64,0.97*12
$BDGSA,A,3,14,06,09,13,,,,,,,,,3.77,3.64,0.97*17
$GPGSV,4,1,15,07,85,095,,25,66,042,,04,51,244,,08,49,208,*72
$GPGSV,4,2,15,13,49,032,,02,33,297,,23,27,058,,27,19,219,*75
$GPGSV,4,3,15,10,02,311,,16,01,038,,28,01,181,,193,,,*7F
$GPGSV,4,4,15,194,,,,195,,,,38,,,*77
$GLGSV,2,1,5,87,61,304,,77,57,327,,86,33,026,,88,21,245,*52
$GLGSV,2,2,5,78,08,331,*66
$BDGSV,2,1,8,13,47,201,32.5,09,37,286,31.5,06,36,216,31.7,04,36,126,30.5*52
$BDGSV,2,2,8,12,10,059,,14,08,165,30.8,02,,,31.4,01,,,31.1*42
$GNRMC,000451.000,A,3000.0004,N,12000.0007,E,0.000,43.55,230721,,,A*71
$GNVTG,43.55,T,,M,0.000,N,0.000,K,A*14
$PMTKGEPH,0,0,0,0,0,0,0,0,0,0,0,0,0,0,0,0,0,0,0,0,0,0,0,0,0,0,0,0,0,0,0,0,0*04
$PMTKGALM,28,1,1,1,1,1,1,1,1,1,1,1,1,1,1,1,1,0,0,0,1,1,1,1,1,1,1,1,1,1,1,1,0*23
$GNACCURACY,4.4,179.9,2.5,26.2*23
$PMTKAGC,000451.000,2840,2765,5886,5962,0,3,0*69
$PMTKAG2,000451.000,5,0118,0,0,0,0,0,0,0,0,0,0,0,0*39
$GNGGA,000452.000,3000.0004,N,12000.0007,E,1,4,3.64,-10.3,M,7.0,M,,*6F
$GPGSA,A,3,,,,,,,,,,,,,3.77,3.64,0.97*0E
$GLGSA,A,3,,,,,,,,,,,,,3.77,3.64,0.97*12
$BDGSA,A,3,14,06,09,13,,,,,,,,,3.77,3.64,0.97*17
$GPGSV,4,1,15,07,85,095,,25,66,042,,04,51,244,,08,49,208,*72
$GPGSV,4,2,15,13,49,033,,02,33,297,,23,27,058,,27,19,219,*74
$GPGSV,4,3,15,10,02,311,,16,01,038,,28,01,181,,193,,,*7F
$GPGSV,4,4,15,194,,,,195,,,,38,,,*77
$GLGSV,2,1,5,87,61,304,,77,57,327,,86,33,026,,88,21,245,*52
$GLGSV,2,2,5,78,08,331,*66
$BDGSV,2,1,8,13,47,201,32.5,09,37,286,31.5,06,36,216,31.7,04,36,126,30.5*52
$BDGSV,2,2,8,12,10,059,,14,08,165,30.7,02,,,31.3,01,,,31.1*4A
$GNRMC,000452.000,A,3000.0004,N,12000.0007,E,0.000,310.54,230721,,,A*46
$GNVTG,310.54,T,,M,0.000,N,0.000,K,A*20
$PMTKGEPH,0,0,0,0,0,0,0,0,0,0,0,0,0,0,0,0,0,0,0,0,0,0,0,0,0,0,0,0,0,0,0,0,0*04
$PMTKGALM,28,1,1,1,1,1,1,1,1,1,1,1,1,1,1,1,1,0,0,0,1,1,1,1,1,1,1,1,1,1,1,1,0*23
$GNACCURACY,4.4,179.9,2.5,27.8*28
$PMTKAGC,000452.000,2779,2958,5764,5873,0,3,0*6D
$PMTKAG2,000452.000,5,0118,0,0,0,0,0,0,0,0,0,0,0,0*3A
$GNGGA,000453.000,3000.0004,N,12000.0007,E,1,4,3.64,-10.3,M,7.0,M,,*6E
$GPGSA,A,3,,,,,,,,,,,,,3.77,3.64,0.97*0E
$GLGSA,A,3,,,,,,,,,,,,,3.77,3.64,0.97*12
$BDGSA,A,3,14,06,09,13,,,,,,,,,3.77,3.64,0.97*17
$GPGSV,4,1,15,07,85,095,,25,66,042,,04,51,244,,08,49,208,*72
$GPGSV,4,2,15,13,49,033,,02,33,297,,23,27,058,,27,19,219,*74
$GPGSV,4,3,15,10,02,311,,16,01,038,,28,01,181,,193,,,*7F
$GPGSV,4,4,15,194,,,,195,,,,38,,,*77
$GLGSV,2,1,5,87,61,304,,77,57,327,,86,33,026,,88,21,245,*52
$GLGSV,2,2,5,78,08,331,*66
$BDGSV,2,1,8,13,47,201,32.5,09,37,286,31.5,06,36,216,31.8,04,36,126,30.6*5E
$BDGSV,2,2,8,12,10,059,,14,08,165,30.7,02,,,31.3,01,,,31.1*4A
$GNRMC,000453.000,A,3000.0004,N,12000.0007,E,0.000,310.54,230721,,,A*47
$GNVTG,310.54,T,,M,0.000,N,0.000,K,A*20
$PMTKGEPH,0,0,0,0,0,0,0,0,0,0,0,0,0,0,0,0,0,0,0,0,0,0,0,0,0,0,0,0,0,0,0,0,0*04
$PMTKGALM,28,1,1,1,1,1,1,1,1,1,1,1,1,1,1,1,1,0,0,0,1,1,1,1,1,1,1,1,1,1,1,1,0*23
$GNACCURACY,4.4,179.9,2.4,26.2*22
$PMTKAGC,000453.000,2692,2713,5839,5806,0,3,0*6C
$PMTKAG2,000453.000,5,0118,0,0,0,0,0,0,0,0,0,0,0,0*3B
$GNGGA,000454.000,3000.0004,N,12000.0007,E,1,4,3.64,-10.3,M,7.0,M,,*69
$GPGSA,A,3,,,,,,,,,,,,,3.77,3.64,0.97*0E
$GLGSA,A,3,,,,,,,,,,,,,3.77,3.64,0.97*12
$BDGSA,A,3,14,06,09,13,,,,,,,,,3.77,3.64,0.97*17
$GPGSV,4,1,15,07,85,095,,25,66,042,,04,51,244,,08,49,208,*72
$GPGSV,4,2,15,13,49,033,,02,33,297,,23,27,058,,27,19,219,*74
$GPGSV,4,3,15,10,02,311,,16,01,038,,28,01,181,,193,,,*7F
$GPGSV,4,4,15,194,,,,195,,,,38,,,*77
$GLGSV,2,1,5,87,61,304,,77,57,327,,86,33,026,,88,21,245,*52
$GLGSV,2,2,5,78,08,331,*66
$BDGSV,2,1,8,13,47,201,32.5,09,37,286,31.5,06,36,216,31.8,04,36,126,30.6*5E
$BDGSV,2,2,8,12,10,059,,14,08,165,30.7,02,,,31.3,01,,,31.1*4A
$GNRMC,000454.000,A,3000.0004,N,12000.0007,E,0.000,310.54,230721,,,A*40
$GNVTG,310.54,T,,M,0.000,N,0.000,K,A*20
$PMTKGEPH,0,0,0,0,0,0,0,0,0,0,0,0,0,0,0,0,0,0,0,0,0,0,0,0,0,0,0,0,0,0,0,0,0*04
$PMTKGALM,28,1,1,1,1,1,1,1,1,1,1,1,1,1,1,1,1,0,0,0,1,1,1,1,1,1,1,1,1,1,1,1,0*23
$GNACCURACY,4.4,179.9,2.5,26.5*24
$PMTKAGC,000454.000,2760,2954,5844,6020,0,3,0*6F
$PMTKAG2,000454.000,5,0118,0,0,0,0,0,0,0,0,0,0,0,0*3C
$GNGGA,000455.000,3000.0004,N,12000.0007,E,1,4,3.65,-10.3,M,7.0,M,,*69
$GPGSA,A,3,,,,,,,,,,,,,3.77,3.65,0.97*0F
$GLGSA,A,3,,,,,,,,,,,,,3.77,3.65,0.97*13
$BDGSA,A,3,14,06,09,13,,,,,,,,,3.77,3.65,0.97*16
$GPGSV,4,1,14,07,85,095,,25,66,042,,04,51,244,,08,49,208,*73
$GPGSV,4,2,14,13,49,033,,02,33,297,,23,27,058,,27,19,219,*75
$GPGSV,4,3,14,10,02,311,,28,01,181,,193,,,,194,,,*7F
$GPGSV,4,4,14,195,,,,38,,,*4A
$GLGSV,2,1,5,87,61,304,,77,57,327,,86,33,026,,88,21,245,*52
$GLGSV,2,2,5,78,08,331,*66
$BDGSV,2,1,8,13,47,201,32.5,09,37,286,31.5,06,36,216,31.7,04,36,126,30.6*51
$BDGSV,2,2,8,12,10,059,,14,08,165,30.7,02,,,31.3,01,,,31.1*4A
$GNRMC,000455.000,A,3000.0004,N,12000.0007,E,0.000,310.54,230721,,,A*41
$GNVTG,310.54,T,,M,0.000,N,0.000,K,A*20
$PMTKGEPH,0,0,0,0,0,0,0,0,0,0,0,0,0,0,0,0,0,0,0,0,0,0,0,0,0,0,0,0,0,0,0,0,0*04
$PMTKGALM,28,1,1,1,1,1,1,1,1,1,1,1,1,1,1,1,1,0,0,0,1,1,1,1,1,1,1,1,1,1,1,1,0*23
$GNACCURACY,4.4,179.9,2.5,26.2*23
$PMTKAGC,000455.000,2750,2816,5996,5951,0,3,0*68
$PMTKAG2,000455.000,5,0118,0,0,0,0,0,0,0,0,0,0,0,0*3D
$GNGGA,000456.000,3000.0004,N,12000.0007,E,1,4,3.65,-10.3,M,7.0,M,,*6A
$GPGSA,A,3,,,,,,,,,,,,,3.77,3.65,0.97*0F
$GLGSA,A,3,,,,,,,,,,,,,3.77,3.65,0.97*13
$BDGSA,A,3,14,06,09,13,,,,,,,,,3.77,3.65,0.97*16
$GPGSV,4,1,14,07,85,095,,25,66,042,,04,51,244,,08,49,208,*73
$GPGSV,4,2,14,13,49,033,,02,33,297,,23,27,058,,27,19,219,*75
$GPGSV,4,3,14,10,02,311,,28,01,181,,193,,,,194,,,*7F
$GPGSV,4,4,14,195,,,,41,,,*44
$GLGSV,2,1,5,87,61,304,,77,57,327,,86,33,026,,88,21,245,*52
$GLGSV,2,2,5,78,08,331,*66
$BDGSV,2,1,8,13,47,201,32.5,09,37,286,31.6,06,36,216,31.8,04,36,126,30.7*5C
$BDGSV,2,2,8,12,10,059,,14,08,165,30.8,02,,,31.3,01,,,31.1*45
$GNRMC,000456.000,A,3000.0004,N,12000.0007,E,0.000,310.54,230721,,,A*42
$GNVTG,310.54,T,,M,0.000,N,0.000,K,A*20
$PMTKGEPH,0,0,0,0,0,0,0,0,0,0,0,0,0,0,0,0,0,0,0,0,0,0,0,0,0,0,0,0,0,0,0,0,0*04
$PMTKGALM,28,1,1,1,1,1,1,1,1,1,1,1,1,1,1,1,1,0,0,0,1,1,1,1,1,1,1,1,1,1,1,1,0*23
$GNACCURACY,4.4,179.9,2.5,26.1*20
$PMTKAGC,000456.000,3004,2644,5914,5870,0,3,0*6D
$PMTKAG2,000456.000,5,0119,0,0,0,0,0,0,0,0,0,0,0,0*3F
$GNGGA,000457.000,3000.0004,N,12000.0007,E,1,4,3.64,-10.3,M,7.0,M,,*6A
$GPGSA,A,3,,,,,,,,,,,,,3.77,3.64,0.97*0E
$GLGSA,A,3,,,,,,,,,,,,,3.77,3.64,0.97*12
$BDGSA,A,3,14,06,09,13,,,,,,,,,3.77,3.64,0.97*17
$GPGSV,4,1,14,07,85,095,,25,66,042,,04,51,244,,08,49,208,*73
$GPGSV,4,2,14,13,49,033,,02,33,297,,23,27,058,,27,19,219,*75
$GPGSV,4,3,14,10,02,311,,28,01,181,,193,,,,194,,,*7F
$GPGSV,4,4,14,195,,,,41,,,*44
$GLGSV,2,1,5,87,61,304,,77,57,327,,86,33,026,,88,21,245,*52
$GLGSV,2,2,5,78,08,331,*66
$BDGSV,2,1,8,13,47,201,32.5,09,37,286,31.6,06,36,216,31.7,04,36,126,30.6*52
$BDGSV,2,2,8,12,10,059,,14,08,165,30.8,02,,,31.3,01,,,31.1*45
$GNRMC,000457.000,A,3000.0004,N,12000.0007,E,0.000,310.54,230721,,,A*43
$GNVTG,310.54,T,,M,0.000,N,0.000,K,A*20
$PMTKGEPH,0,0,0,0,0,0,0,0,0,0,0,0,0,0,0,0,0,0,0,0,0,0,0,0,0,0,0,0,0,0,0,0,0*04
$PMTKGALM,28,1,1,1,1,1,1,1,1,1,1,1,1,1,1,1,1,0,0,0,1,1,1,1,1,1,1,1,1,1,1,1,0*23
$GNACCURACY,4.4,179.9,2.5,27.8*28
$PMTKAGC,000457.000,2992,2739,5809,5731,0,3,0*67
$PMTKAG2,000457.000,5,0118,0,0,0,0,0,0,0,0,0,0,0,0*3F
$GNGGA,000458.000,3000.0004,N,12000.0007,E,1,4,3.64,-10.3,M,7.0,M,,*65
$GPGSA,A,3,,,,,,,,,,,,,3.77,3.64,0.97*0E
$GLGSA,A,3,,,,,,,,,,,,,3.77,3.64,0.97*12
$BDGSA,A,3,14,06,09,13,,,,,,,,,3.77,3.64,0.97*17
$GPGSV,4,1,14,07,85,095,,25,66,042,,04,51,244,,08,49,208,*73
$GPGSV,4,2,14,13,49,033,,02,33,297,,23,27,058,,27,19,219,*75
$GPGSV,4,3,14,10,02,311,,28,01,181,,193,,,,194,,,*7F
$GPGSV,4,4,14,195,,,,41,,,*44
$GLGSV,2,1,5,87,61,304,,77,57,327,,86,33,026,,88,21,245,*52
$GLGSV,2,2,5,78,08,331,*66
$BDGSV,2,1,8,13,47,201,32.5,09,37,286,31.6,06,36,216,31.7,04,36,126,30.6*52
$BDGSV,2,2,8,12,10,059,,14,08,165,30.8,02,,,31.2,01,,,31.1*44
$GNRMC,000458.000,A,3000.0004,N,12000.0007,E,0.000,34.21,230721,,,A*7B
$GNVTG,34.21,T,,M,0.000,N,0.000,K,A*17
$PMTKGEPH,0,0,0,0,0,0,0,0,0,0,0,0,0,0,0,0,0,0,0,0,0,0,0,0,0,0,0,0,0,0,0,0,0*04
$PMTKGALM,28,1,1,1,1,1,1,1,1,1,1,1,1,1,1,1,1,0,0,0,1,1,1,1,1,1,1,1,1,1,1,1,0*23
$GNACCURACY,4.4,179.9,2.5,26.1*20
$PMTKAGC,000458.000,2887,2897,5855,5911,0,3,0*63
$PMTKAG2,000458.000,5,0118,0,0,0,0,0,0,0,0,0,0,0,0*30
$GNGGA,000459.000,3000.0004,N,12000.0007,E,1,4,3.64,-10.3,M,7.0,M,,*64
$GPGSA,A,3,,,,,,,,,,,,,3.77,3.64,0.97*0E
$GLGSA,A,3,,,,,,,,,,,,,3.77,3.64,0.97*12
$BDGSA,A,3,14,06,09,13,,,,,,,,,3.77,3.64,0.97*17
$GPGSV,4,1,14,07,85,095,,25,66,042,,04,51,244,,08,49,208,*73
$GPGSV,4,2,14,13,49,033,,02,33,297,,23,27,058,,27,19,219,*75
$GPGSV,4,3,14,10,02,311,,28,01,181,,193,,,,194,,,*7F
$GPGSV,4,4,14,195,,,,41,,,*44
$GLGSV,2,1,5,87,61,304,,77,57,327,,86,33,026,,88,21,245,*52
$GLGSV,2,2,5,78,08,331,*66
$BDGSV,2,1,8,13,47,201,32.6,09,37,286,31.7,06,36,216,31.7,04,36,126,30.7*51
$BDGSV,2,2,8,12,10,059,,14,08,165,30.8,02,,,31.3,01,,,31.1*45
$GNRMC,000459.000,A,3000.0004,N,12000.0007,E,0.000,34.21,230721,,,A*7A
$GNVTG,34.21,T,,M,0.000,N,0.000,K,A*17
$PMTKGEPH,0,0,0,0,0,0,0,0,0,0,0,0,0,0,0,0,0,0,0,0,0,0,0,0,0,0,0,0,0,0,0,0,0*04
$PMTKGALM,28,1,1,1,1,1,1,1,1,1,1,1,1,1,1,1,1,0,0,0,1,1,1,1,1,1,1,1,1,1,1,1,0*23
$GNACCURACY,4.4,179.9,2.5,26.1*20
$PMTKAGC,000459.000,2725,2920,5933,5923,0,3,0*68
$PMTKAG2,000459.000,5,0118,0,0,0,0,0,0,0,0,0,0,0,0*31
