=~=~=~=~=~=~=~=~=~=~=~= PuTTY log 2021.09.08 13:01:48 =~=~=~=~=~=~=~=~=~=~=~=
$GNGGA,140513.000,3114.0045,N,12130.9062,E,1,7,1.16,41.8,M,8.2,M,,*4C
$GPGSA,A,3,,,,,,,,,,,,,2.22,1.16,1.89*06
$GLGSA,A,3,,,,,,,,,,,,,2.22,1.16,1.89*1A
$BDGSA,A,3,14,08,11,02,30,13,23,,,,,,2.22,1.16,1.89*18
$GPGSV,4,1,15,05,67,053,,30,61,346,,12,58,070,,29,56,284,*70
$GPGSV,4,2,15,24,50,173,,50,45,139,,02,33,049,,09,30,167,*77
$GPGSV,4,3,15,31,18,318,,21,14,200,,14,13,264,,10,10,109,*70
$GPGSV,4,4,15,193,,,,194,,,,195,,,*47
$GLGSV,3,1,9,81,49,212,,82,46,302,,67,43,312,,66,34,034,*54
$GLGSV,3,2,9,68,17,275,,77,17,137,,88,11,177,,75,08,032,*5C
$GLGSV,3,3,9,83,05,335,*67
$BDGSV,3,1,12,02,56,188,34.7,14,54,074,35.8,13,49,171,35.7,06,45,207,35.7*6A
$BDGSV,3,2,12,17,41,040,,01,39,129,,04,39,124,,08,38,318,35.6*72
$BDGSV,3,3,12,23,28,130,35.8,11,22,093,35.9,30,15,279,35.6,29,03,238,*7D
$GNRMC,140513.000,A,3114.0045,N,12130.9062,E,14.192,193.75,010620,,,A*7B
$GNVTG,193.75,T,,M,14.192,N,26.298,K,A*22
$PMTKGEPH,0,0,0,0,0,0,0,0,0,0,0,0,0,0,0,0,0,0,0,0,0,0,0,0,0,0,0,0,0,0,0,0,0*04
$PMTKGALM,31,1,1,1,1,1,1,1,1,1,1,1,1,1,1,1,1,1,1,1,1,1,1,1,1,1,1,1,1,1,1,1,0*2A
$GNACCURACY,1.9,3.1,1.3,15.2*2A
$PMTKAGC,140513.000,2788,2760,6041,6166,0,3,0*6A
$PMTKAG2,140513.000,5,0119,0,0,0,0,0,0,0,0,0,0,0,0*3A
$GNGGA,140514.000,3114.0014,N,12130.9041,E,1,7,1.16,41.8,M,8.2,M,,*4E
$GPGSA,A,3,,,,,,,,,,,,,2.22,1.16,1.89*06
$GLGSA,A,3,,,,,,,,,,,,,2.22,1.16,1.89*1A
$BDGSA,A,3,14,08,11,02,30,13,23,,,,,,2.22,1.16,1.89*18
$GPGSV,4,1,15,05,67,053,,30,61,346,,12,58,070,,29,56,284,*70
$GPGSV,4,2,15,24,50,173,,50,45,139,,02,33,049,,09,30,167,*77
$GPGSV,4,3,15,31,18,318,,21,14,200,,14,13,264,,10,10,109,*70
$GPGSV,4,4,15,193,,,,194,,,,195,,,*47
$GLGSV,3,1,9,81,49,212,,82,46,302,,67,43,312,,66,34,034,*54
$GLGSV,3,2,9,68,17,275,,77,17,137,,88,11,177,,75,08,032,*5C
$GLGSV,3,3,9,83,05,335,*67
$BDGSV,3,1,12,02,56,188,34.7,14,54,074,35.7,13,49,171,35.7,06,45,207,35.5*67
$BDGSV,3,2,12,17,41,040,,01,39,129,,04,39,124,,08,38,318,35.6*72
$BDGSV,3,3,12,23,28,130,35.8,11,22,093,35.9,30,15,279,35.6,29,03,238,*7D
$GNRMC,140514.000,A,3114.0014,N,12130.9041,E,15.372,217.07,010620,,,A*7E
$GNVTG,217.07,T,,M,15.372,N,28.485,K,A*21
$PMTKGEPH,0,0,0,0,0,0,0,0,0,0,0,0,0,0,0,0,0,0,0,0,0,0,0,0,0,0,0,0,0,0,0,0,0*04
$PMTKGALM,31,1,1,1,1,1,1,1,1,1,1,1,1,1,1,1,1,1,1,1,1,1,1,1,1,1,1,1,1,1,1,1,0*2A
$GNACCURACY,1.8,7.2,1.8,15.7*22
$PMTKAGC,140514.000,2851,2736,5914,6019,0,3,0*66
$PMTKAG2,140514.000,5,0119,0,0,0,0,0,0,0,0,0,0,0,0*3D
$GNGGA,140515.000,3113.9992,N,12130.9003,E,1,7,1.16,41.7,M,8.2,M,,*4F
$GPGSA,A,3,,,,,,,,,,,,,2.22,1.16,1.89*06
$GLGSA,A,3,,,,,,,,,,,,,2.22,1.16,1.89*1A
$BDGSA,A,3,14,08,11,02,30,13,23,,,,,,2.22,1.16,1.89*18
$GPGSV,4,1,15,05,67,053,,30,61,346,,12,58,070,,29,56,284,*70
$GPGSV,4,2,15,24,50,173,,50,45,139,,02,33,049,,09,30,167,*77
$GPGSV,4,3,15,31,18,318,,21,14,200,,14,13,264,,10,10,109,*70
$GPGSV,4,4,15,193,,,,194,,,,195,,,*47
$GLGSV,3,1,9,81,49,212,,82,46,302,,67,43,312,,66,34,034,*54
$GLGSV,3,2,9,68,17,275,,77,17,137,,88,11,177,,75,08,032,*5C
$GLGSV,3,3,9,83,05,335,*67
$BDGSV,3,1,12,02,56,188,34.7,14,54,074,35.7,13,49,171,35.7,06,45,207,35.2*60
$BDGSV,3,2,12,17,41,040,,01,39,129,,04,39,124,,08,38,318,35.6*72
$BDGSV,3,3,12,23,28,130,35.7,11,22,093,35.9,30,15,279,35.6,29,03,238,*72
$GNRMC,140515.000,A,3113.9992,N,12130.9003,E,15.951,239.78,010620,,,A*7F
$GNVTG,239.78,T,,M,15.951,N,29.558,K,A*2E
$PMTKGEPH,0,0,0,0,0,0,0,0,0,0,0,0,0,0,0,0,0,0,0,0,0,0,0,0,0,0,0,0,0,0,0,0,0*04
$PMTKGALM,31,1,1,1,1,1,1,1,1,1,1,1,1,1,1,1,1,1,1,1,1,1,1,1,1,1,1,1,1,1,1,1,0*2A
$GNACCURACY,1.8,7.2,1.7,15.3*29
$PMTKAGC,140515.000,2823,3047,5859,5867,0,3,0*68
$PMTKAG2,140515.000,5,0119,0,0,0,0,0,0,0,0,0,0,0,0*3C
$GNGGA,140516.000,3113.9981,N,12130.8955,E,1,7,1.16,41.5,M,8.2,M,,*47
$GPGSA,A,3,,,,,,,,,,,,,2.22,1.16,1.89*06
$GLGSA,A,3,,,,,,,,,,,,,2.22,1.16,1.89*1A
$BDGSA,A,3,14,08,11,02,30,13,23,,,,,,2.22,1.16,1.89*18
$GPGSV,4,1,15,05,67,053,,30,61,346,,12,58,070,,29,56,284,*70
$GPGSV,4,2,15,24,50,173,,50,45,139,,02,33,049,,09,30,167,*77
$GPGSV,4,3,15,31,18,318,,21,14,200,,14,13,264,,10,10,109,*70
$GPGSV,4,4,15,193,,,,194,,,,195,,,*47
$GLGSV,3,1,9,81,49,212,,82,46,302,,67,43,312,,66,34,034,*54
$GLGSV,3,2,9,68,17,275,,77,17,137,,88,11,177,,75,08,032,*5C
$GLGSV,3,3,9,83,05,335,*67
$BDGSV,3,1,12,02,56,188,34.7,14,54,074,35.7,13,49,171,35.7,06,45,207,35.5*67
$BDGSV,3,2,12,17,41,040,,01,39,129,,04,39,124,,08,38,318,35.6*72
$BDGSV,3,3,12,23,28,130,35.7,11,22,093,35.9,30,15,279,35.6,29,03,238,*72
$GNRMC,140516.000,A,3113.9981,N,12130.8955,E,16.650,255.84,010620,,,A*71
$GNVTG,255.84,T,,M,16.650,N,30.853,K,A*24
$PMTKGEPH,0,0,0,0,0,0,0,0,0,0,0,0,0,0,0,0,0,0,0,0,0,0,0,0,0,0,0,0,0,0,0,0,0*04
$PMTKGALM,31,1,1,1,1,1,1,1,1,1,1,1,1,1,1,1,1,1,1,1,1,1,1,1,1,1,1,1,1,1,1,1,0*2A
$GNACCURACY,1.8,8.1,1.7,14.9*2E
$PMTKAGC,140516.000,2707,2681,5973,5933,0,3,0*66
$PMTKAG2,140516.000,5,0119,0,0,0,0,0,0,0,0,0,0,0,0*3F
$GNGGA,140517.000,3113.9985,N,12130.8875,E,1,7,1.16,42.0,M,8.2,M,,*47
$GPGSA,A,3,,,,,,,,,,,,,2.22,1.16,1.89*06
$GLGSA,A,3,,,,,,,,,,,,,2.22,1.16,1.89*1A
$BDGSA,A,3,14,08,11,02,30,13,23,,,,,,2.22,1.16,1.89*18
$GPGSV,4,1,15,05,67,053,,30,61,346,,12,58,070,,29,56,284,*70
$GPGSV,4,2,15,24,50,173,,02,33,049,,09,30,167,,44,20,250,*7D
$GPGSV,4,3,15,31,18,318,,21,14,200,,14,13,264,,10,10,109,*70
$GPGSV,4,4,15,193,,,,194,,,,195,,,*47
$GLGSV,3,1,9,81,49,212,,82,46,302,,67,43,312,,66,34,034,*54
$GLGSV,3,2,9,68,17,275,,77,17,137,,88,11,177,,75,08,032,*5C
$GLGSV,3,3,9,83,05,335,*67
$BDGSV,3,1,12,02,56,188,34.8,14,54,074,35.7,13,49,171,35.7,06,45,207,36.0*6E
$BDGSV,3,2,12,17,41,040,,01,39,129,,04,39,124,,08,38,318,35.6*72
$BDGSV,3,3,12,23,28,130,35.7,11,22,093,35.9,30,15,279,35.6,29,03,238,*72
$GNRMC,140517.000,A,3113.9985,N,12130.8875,E,30.136,272.04,010620,,,A*79
$GNVTG,272.04,T,,M,30.136,N,55.843,K,A*28
$PMTKGEPH,0,0,0,0,0,0,0,0,0,0,0,0,0,0,0,0,0,0,0,0,0,0,0,0,0,0,0,0,0,0,0,0,0*04
$PMTKGALM,31,1,1,1,1,1,1,1,1,1,1,1,1,1,1,1,1,1,1,1,1,1,1,1,1,1,1,1,1,1,1,1,0*2A
$GNACCURACY,1.8,5.0,2.0,15.2*2C
$PMTKAGC,140517.000,2916,2832,5893,6090,0,3,0*63
$PMTKAG2,140517.000,5,0119,0,0,0,0,0,0,0,0,0,0,0,0*3E
$GNGGA,140518.000,3113.9989,N,12130.8746,E,1,7,1.16,42.1,M,8.2,M,,*4A
$GPGSA,A,3,,,,,,,,,,,,,2.22,1.16,1.89*06
$GLGSA,A,3,,,,,,,,,,,,,2.22,1.16,1.89*1A
$BDGSA,A,3,14,08,11,02,30,13,23,,,,,,2.22,1.16,1.89*18
$GPGSV,4,1,15,05,67,053,,30,61,346,,12,58,070,,29,56,284,*70
$GPGSV,4,2,15,24,50,173,,02,33,049,,09,30,167,,44,20,250,*7D
$GPGSV,4,3,15,31,18,318,,21,14,200,,14,13,264,,10,10,109,*70
$GPGSV,4,4,15,193,,,,194,,,,195,,,*47
$GLGSV,3,1,9,81,49,212,,82,46,302,,67,43,312,,66,34,034,*54
$GLGSV,3,2,9,68,17,275,,77,17,137,,88,11,177,,75,08,032,*5C
$GLGSV,3,3,9,83,05,335,*67
$BDGSV,3,1,12,02,56,188,34.7,14,54,074,35.6,13,49,171,35.7,06,45,207,35.9*6A
$BDGSV,3,2,12,17,41,040,,01,39,129,,04,39,124,,08,38,318,35.6*72
$BDGSV,3,3,12,23,28,130,35.7,11,22,093,35.8,30,15,279,35.6,29,03,238,*73
$GNRMC,140518.000,A,3113.9989,N,12130.8746,E,59.929,271.61,010620,,,A*7C
$GNVTG,271.61,T,,M,59.929,N,111.049,K,A*12
$PMTKGEPH,0,0,0,0,0,0,0,0,0,0,0,0,0,0,0,0,0,0,0,0,0,0,0,0,0,0,0,0,0,0,0,0,0*04
$PMTKGALM,31,1,1,1,1,1,1,1,1,1,1,1,1,1,1,1,1,1,1,1,1,1,1,1,1,1,1,1,1,1,1,1,0*2A
$GNACCURACY,2.0,3.1,3.2,15.5*24
$PMTKAGC,140518.000,2933,2830,5886,5917,0,3,0*68
$PMTKAG2,140518.000,5,0119,0,0,0,0,0,0,0,0,0,0,0,0*31
$GNGGA,140519.000,3113.9994,N,12130.8504,E,1,7,1.16,42.2,M,8.2,M,,*40
$GPGSA,A,3,,,,,,,,,,,,,2.22,1.16,1.89*06
$GLGSA,A,3,,,,,,,,,,,,,2.22,1.16,1.89*1A
$BDGSA,A,3,14,08,11,02,30,13,23,,,,,,2.22,1.16,1.89*18
$GPGSV,4,1,15,05,67,053,,30,61,346,,12,58,070,,29,56,284,*70
$GPGSV,4,2,15,24,50,173,,02,33,049,,09,30,167,,44,20,250,*7D
$GPGSV,4,3,15,31,18,318,,21,14,200,,14,13,264,,10,10,109,*70
$GPGSV,4,4,15,193,,,,194,,,,195,,,*47
$GLGSV,3,1,9,81,49,212,,82,46,302,,67,43,312,,66,34,034,*54
$GLGSV,3,2,9,68,17,275,,77,17,137,,88,11,177,,75,08,032,*5C
$GLGSV,3,3,9,83,05,335,*67
$BDGSV,3,1,12,02,56,188,34.7,14,54,074,35.6,13,49,171,35.7,06,45,207,35.8*6B
$BDGSV,3,2,12,17,41,040,,01,39,129,,04,39,124,,08,38,318,35.6*72
$BDGSV,3,3,12,23,28,130,35.7,11,22,093,35.8,30,15,279,35.6,29,03,238,*73
$GNRMC,140519.000,A,3113.9994,N,12130.8504,E,90.449,270.44,010620,,,A*7D
$GNVTG,270.44,T,,M,90.449,N,167.603,K,A*13
$PMTKGEPH,0,0,0,0,0,0,0,0,0,0,0,0,0,0,0,0,0,0,0,0,0,0,0,0,0,0,0,0,0,0,0,0,0*04
$PMTKGALM,31,1,1,1,1,1,1,1,1,1,1,1,1,1,1,1,1,1,1,1,1,1,1,1,1,1,1,1,1,1,1,1,0*2A
$GNACCURACY,2.1,0.7,1.3,15.8*2E
$PMTKAGC,140519.000,2802,2778,5937,5885,0,3,0*68
$PMTKAG2,140519.000,5,0119,0,0,0,0,0,0,0,0,0,0,0,0*30
$GNGGA,140520.000,3113.9998,N,12130.8169,E,1,7,1.16,42.2,M,8.2,M,,*49
$GPGSA,A,3,,,,,,,,,,,,,2.22,1.16,1.89*06
$GLGSA,A,3,,,,,,,,,,,,,2.22,1.16,1.89*1A
$BDGSA,A,3,14,08,11,02,30,13,23,,,,,,2.22,1.16,1.89*18
$GPGSV,4,1,15,05,67,053,,30,61,346,,12,58,070,,29,56,284,*70
$GPGSV,4,2,15,24,50,173,,02,33,049,,09,30,167,,44,20,250,*7D
$GPGSV,4,3,15,31,18,318,,21,14,200,,14,13,264,,10,10,109,*70
$GPGSV,4,4,15,193,,,,194,,,,195,,,*47
$GLGSV,3,1,9,81,49,212,,82,46,302,,67,43,312,,66,34,034,*54
$GLGSV,3,2,9,68,17,275,,77,17,137,,88,11,177,,75,08,032,*5C
$GLGSV,3,3,9,83,05,335,*67
$BDGSV,3,1,12,02,56,188,34.7,14,54,074,35.7,13,49,171,35.7,06,45,207,35.9*6B
$BDGSV,3,2,12,17,41,040,,01,39,129,,04,39,124,,08,38,318,35.6*72
$BDGSV,3,3,12,23,28,130,35.7,11,22,093,35.8,30,15,279,35.6,29,03,238,*73
$GNRMC,140520.000,A,3113.9998,N,12130.8169,E,117.541,270.12,010620,,,A*40
$GNVTG,270.12,T,,M,117.541,N,217.804,K,A*2A
$PMTKGEPH,0,0,0,0,0,0,0,0,0,0,0,0,0,0,0,0,0,0,0,0,0,0,0,0,0,0,0,0,0,0,0,0,0*04
$PMTKGALM,31,1,1,1,1,1,1,1,1,1,1,1,1,1,1,1,1,1,1,1,1,1,1,1,1,1,1,1,1,1,1,1,0*2A
$GNACCURACY,2.1,0.5,1.2,15.7*22
$PMTKAGC,140520.000,2996,2868,5913,5924,0,3,0*6C
$PMTKAG2,140520.000,5,0119,0,0,0,0,0,0,0,0,0,0,0,0*3A
$GNGGA,140521.000,3114.0000,N,12130.7746,E,1,7,1.16,42.1,M,8.2,M,,*49
$GPGSA,A,3,,,,,,,,,,,,,2.22,1.16,1.89*06
$GLGSA,A,3,,,,,,,,,,,,,2.22,1.16,1.89*1A
$BDGSA,A,3,14,08,11,02,30,13,23,,,,,,2.22,1.16,1.89*18
$GPGSV,4,1,15,05,67,053,,30,61,346,,12,58,070,,29,56,284,*70
$GPGSV,4,2,15,24,50,173,,02,33,049,,09,30,167,,44,20,250,*7D
$GPGSV,4,3,15,31,18,318,,21,14,200,,14,13,264,,10,10,109,*70
$GPGSV,4,4,15,193,,,,194,,,,195,,,*47
$GLGSV,3,1,9,81,49,212,,82,46,302,,67,43,312,,66,34,034,*54
$GLGSV,3,2,9,68,17,275,,77,17,137,,88,11,177,,75,08,032,*5C
$GLGSV,3,3,9,83,05,335,*67
$BDGSV,3,1,12,02,56,188,34.7,14,54,074,35.6,13,49,171,35.7,06,45,207,36.0*60
$BDGSV,3,2,12,17,41,040,,01,39,129,,04,39,124,,08,38,318,35.6*72
$BDGSV,3,3,12,23,28,130,35.7,11,22,093,35.9,30,15,279,35.6,29,03,238,*72
$GNRMC,140521.000,A,3114.0000,N,12130.7746,E,144.155,270.04,010620,,,A*43
$GNVTG,270.04,T,,M,144.155,N,267.119,K,A*28
$PMTKGEPH,0,0,0,0,0,0,0,0,0,0,0,0,0,0,0,0,0,0,0,0,0,0,0,0,0,0,0,0,0,0,0,0,0*04
$PMTKGALM,31,1,1,1,1,1,1,1,1,1,1,1,1,1,1,1,1,1,1,1,1,1,1,1,1,1,1,1,1,1,1,1,0*2A
$GNACCURACY,2.1,0.5,1.3,15.8*2C
$PMTKAGC,140521.000,2645,2828,5789,5867,0,3,0*63
$PMTKAG2,140521.000,5,0119,0,0,0,0,0,0,0,0,0,0,0,0*3B
$GNGGA,140522.000,3114.0002,N,12130.7241,E,1,7,1.16,42.1,M,8.2,M,,*4A
$GPGSA,A,3,,,,,,,,,,,,,2.22,1.16,1.89*06
$GLGSA,A,3,,,,,,,,,,,,,2.22,1.16,1.89*1A
$BDGSA,A,3,14,08,11,02,30,13,23,,,,,,2.22,1.16,1.89*18
$GPGSV,4,1,15,05,67,053,,30,61,346,,12,58,070,,29,56,284,*70
$GPGSV,4,2,15,24,50,173,,02,33,049,,09,30,167,,44,20,250,*7D
$GPGSV,4,3,15,31,18,318,,21,14,200,,14,13,264,,10,10,109,*70
$GPGSV,4,4,15,193,,,,194,,,,195,,,*47
$GLGSV,3,1,9,81,49,212,,82,46,302,,67,43,312,,66,34,034,*54
$GLGSV,3,2,9,68,17,275,,77,17,137,,88,11,177,,75,08,032,*5C
$GLGSV,3,3,9,83,05,335,*67
$BDGSV,3,1,12,02,56,188,34.7,14,54,074,35.6,13,49,171,35.7,06,45,207,35.9*6A
$BDGSV,3,2,12,17,41,040,,01,39,129,,04,39,124,,08,38,318,35.6*72
$BDGSV,3,3,12,23,28,130,35.6,11,22,093,35.8,30,15,279,35.6,29,03,238,*72
$GNRMC,140522.000,A,3114.0002,N,12130.7241,E,165.560,270.11,010620,,,A*45
$GNVTG,270.11,T,,M,165.560,N,306.782,K,A*2F
$PMTKGEPH,0,0,0,0,0,0,0,0,0,0,0,0,0,0,0,0,0,0,0,0,0,0,0,0,0,0,0,0,0,0,0,0,0*04
$PMTKGALM,31,1,1,1,1,1,1,1,1,1,1,1,1,1,1,1,1,1,1,1,1,1,1,1,1,1,1,1,1,1,1,1,0*2A
$GNACCURACY,2.1,0.4,1.2,15.6*22
$PMTKAGC,140522.000,2827,2858,5891,5868,0,3,0*64
$PMTKAG2,140522.000,5,0119,0,0,0,0,0,0,0,0,0,0,0,0*38
$GNGGA,140523.000,3114.0005,N,12130.6697,E,1,7,1.16,42.2,M,8.2,M,,*41
$GPGSA,A,3,,,,,,,,,,,,,2.22,1.16,1.89*06
$GLGSA,A,3,,,,,,,,,,,,,2.22,1.16,1.89*1A
$BDGSA,A,3,14,08,11,02,30,13,23,,,,,,2.22,1.16,1.89*18
$GPGSV,4,1,15,05,67,053,,30,61,346,,12,58,070,,29,56,284,*70
$GPGSV,4,2,15,24,50,173,,02,33,049,,09,30,167,,44,20,250,*7D
$GPGSV,4,3,15,31,18,318,,21,14,200,,14,13,264,,10,10,109,*70
$GPGSV,4,4,15,193,,,,194,,,,195,,,*47
$GLGSV,3,1,9,81,49,212,,82,46,302,,67,43,312,,66,34,034,*54
$GLGSV,3,2,9,68,17,275,,77,17,137,,88,11,177,,75,08,032,*5C
$GLGSV,3,3,9,83,05,335,*67
$BDGSV,3,1,12,02,56,188,34.8,14,54,074,35.6,13,49,171,35.7,06,45,207,35.9*65
$BDGSV,3,2,12,17,41,040,,01,39,129,,04,39,124,,08,38,318,35.6*72
$BDGSV,3,3,12,23,28,130,35.6,11,22,093,35.8,30,15,279,35.6,29,03,238,*72
$GNRMC,140523.000,A,3114.0005,N,12130.6697,E,162.074,270.25,010620,,,A*4D
$GNVTG,270.25,T,,M,162.074,N,300.323,K,A*26
$PMTKGEPH,0,0,0,0,0,0,0,0,0,0,0,0,0,0,0,0,0,0,0,0,0,0,0,0,0,0,0,0,0,0,0,0,0*04
$PMTKGALM,31,1,1,1,1,1,1,1,1,1,1,1,1,1,1,1,1,1,1,1,1,1,1,1,1,1,1,1,1,1,1,1,0*2A
$GNACCURACY,2.0,0.4,1.1,15.9*2F
$PMTKAGC,140523.000,3061,2715,5853,5894,0,3,0*65
$PMTKAG2,140523.000,5,0119,0,0,0,0,0,0,0,0,0,0,0,0*39
$GNGGA,140524.000,3114.0006,N,12130.6162,E,1,7,1.17,42.2,M,8.2,M,,*49
$GPGSA,A,3,,,,,,,,,,,,,2.22,1.17,1.89*07
$GLGSA,A,3,,,,,,,,,,,,,2.22,1.17,1.89*1B
$BDGSA,A,3,14,08,11,02,30,13,23,,,,,,2.22,1.17,1.89*19
$GPGSV,4,1,15,05,67,053,,30,61,346,,12,58,070,,29,56,284,*70
$GPGSV,4,2,15,24,50,173,,02,33,049,,09,30,167,,44,20,250,*7D
$GPGSV,4,3,15,31,18,318,,21,14,200,,14,13,264,,10,10,109,*70
$GPGSV,4,4,15,193,,,,194,,,,195,,,*47
$GLGSV,3,1,9,81,49,212,,82,46,302,,67,43,312,,66,34,034,*54
$GLGSV,3,2,9,68,17,275,,77,17,137,,88,11,177,,75,08,032,*5C
$GLGSV,3,3,9,83,05,335,*67
$BDGSV,3,1,12,02,56,188,34.7,14,54,074,35.6,13,49,171,35.7,06,45,207,35.7*64
$BDGSV,3,2,12,17,41,040,,01,39,129,,04,39,124,,08,38,318,35.6*72
$BDGSV,3,3,12,23,28,130,35.7,11,22,093,35.8,30,15,279,35.6,29,03,238,*73
$GNRMC,140524.000,A,3114.0006,N,12130.6162,E,161.861,270.01,010620,,,A*4D
$GNVTG,270.01,T,,M,161.861,N,299.928,K,A*2F
$PMTKGEPH,0,0,0,0,0,0,0,0,0,0,0,0,0,0,0,0,0,0,0,0,0,0,0,0,0,0,0,0,0,0,0,0,0*04
$PMTKGALM,31,1,1,1,1,1,1,1,1,1,1,1,1,1,1,1,1,1,1,1,1,1,1,1,1,1,1,1,1,1,1,1,0*2A
$GNACCURACY,1.9,0.4,1.1,15.4*28
$PMTKAGC,140524.000,2842,2741,5853,5990,0,3,0*6E
$PMTKAG2,140524.000,5,0118,0,0,0,0,0,0,0,0,0,0,0,0*3F
$GNGGA,140525.000,3114.0006,N,12130.5632,E,1,7,1.16,42.0,M,8.2,M,,*4A
$GPGSA,A,3,,,,,,,,,,,,,2.22,1.16,1.89*06
$GLGSA,A,3,,,,,,,,,,,,,2.22,1.16,1.89*1A
$BDGSA,A,3,14,08,11,02,30,13,23,,,,,,2.22,1.16,1.89*18
$GPGSV,4,1,15,05,67,053,,30,61,346,,12,58,070,,29,56,284,*70
$GPGSV,4,2,15,24,50,173,,02,33,049,,09,30,167,,44,20,250,*7D
$GPGSV,4,3,15,31,18,318,,21,14,200,,14,13,264,,10,10,109,*70
$GPGSV,4,4,15,193,,,,194,,,,195,,,*47
$GLGSV,3,1,9,81,49,212,,82,46,302,,67,43,312,,66,34,034,*54
$GLGSV,3,2,9,68,17,275,,77,17,137,,88,11,177,,75,08,032,*5C
$GLGSV,3,3,9,83,05,335,*67
$BDGSV,3,1,12,02,56,188,34.7,14,54,074,35.6,13,49,171,35.7,06,45,207,35.7*64
$BDGSV,3,2,12,17,41,040,,01,39,129,,04,39,124,,08,38,318,35.7*73
$BDGSV,3,3,12,23,28,130,35.6,11,22,093,35.8,30,15,279,35.7,29,03,238,*73
$GNRMC,140525.000,A,3114.0006,N,12130.5632,E,161.921,269.96,010620,,,A*4E
$GNVTG,269.96,T,,M,161.921,N,300.040,K,A*2A
$PMTKGEPH,0,0,0,0,0,0,0,0,0,0,0,0,0,0,0,0,0,0,0,0,0,0,0,0,0,0,0,0,0,0,0,0,0*04
$PMTKGALM,31,1,1,1,1,1,1,1,1,1,1,1,1,1,1,1,1,1,1,1,1,1,1,1,1,1,1,1,1,1,1,1,0*2A
$GNACCURACY,1.8,0.4,1.1,15.9*24
$PMTKAGC,140525.000,2729,2862,5975,5852,0,3,0*69
$PMTKAG2,140525.000,5,0118,0,0,0,0,0,0,0,0,0,0,0,0*3E
$GNGGA,140526.000,3114.0006,N,12130.5103,E,1,7,1.16,42.0,M,8.2,M,,*4C
$GPGSA,A,3,,,,,,,,,,,,,2.21,1.16,1.88*04
$GLGSA,A,3,,,,,,,,,,,,,2.21,1.16,1.88*18
$BDGSA,A,3,14,08,11,02,30,13,23,,,,,,2.21,1.16,1.88*1A
$GPGSV,4,1,15,05,67,053,,30,61,346,,12,58,070,,29,56,284,*70
$GPGSV,4,2,15,24,50,173,,02,33,049,,09,30,167,,40,19,251,*72
$GPGSV,4,3,15,31,18,318,,21,14,200,,14,13,264,,10,10,109,*70
$GPGSV,4,4,15,193,,,,194,,,,195,,,*47
$GLGSV,3,1,9,81,49,212,,82,46,302,,67,43,312,,66,34,034,*54
$GLGSV,3,2,9,68,17,275,,77,17,137,,88,11,177,,75,08,032,*5C
$GLGSV,3,3,9,83,05,335,*67
$BDGSV,3,1,12,02,56,188,34.7,14,54,074,35.5,13,49,171,35.6,06,45,207,35.7*66
$BDGSV,3,2,12,17,41,040,,01,39,129,,04,39,124,,08,38,318,35.7*73
$BDGSV,3,3,12,23,28,130,35.5,11,22,093,35.8,30,15,279,35.7,29,03,238,*70
$GNRMC,140526.000,A,3114.0006,N,12130.5103,E,161.940,269.96,010620,,,A*4F
$GNVTG,269.96,T,,M,161.940,N,300.074,K,A*2A
$PMTKGEPH,0,0,0,0,0,0,0,0,0,0,0,0,0,0,0,0,0,0,0,0,0,0,0,0,0,0,0,0,0,0,0,0,0*04
$PMTKGALM,31,1,1,1,1,1,1,1,1,1,1,1,1,1,1,1,1,1,1,1,1,1,1,1,1,1,1,1,1,1,1,1,0*2A
$GNACCURACY,1.7,0.4,1.1,15.2*20
$PMTKAGC,140526.000,2765,2692,5889,5977,0,3,0*67
$PMTKAG2,140526.000,5,0118,0,0,0,0,0,0,0,0,0,0,0,0*3D
$GNGGA,140527.000,3114.0005,N,12130.4576,E,1,7,1.16,41.8,M,8.2,M,,*42
$GPGSA,A,3,,,,,,,,,,,,,2.21,1.16,1.88*04
$GLGSA,A,3,,,,,,,,,,,,,2.21,1.16,1.88*18
$BDGSA,A,3,14,08,11,02,30,13,23,,,,,,2.21,1.16,1.88*1A
$GPGSV,4,1,15,05,67,053,,30,61,346,,12,58,070,,29,56,284,*70
$GPGSV,4,2,15,24,50,173,,02,33,049,,09,30,167,,40,19,251,*72
$GPGSV,4,3,15,31,18,318,,21,14,200,,14,13,264,,10,10,109,*70
$GPGSV,4,4,15,193,,,,194,,,,195,,,*47
$GLGSV,3,1,9,81,49,212,,82,46,302,,67,43,312,,66,34,034,*54
$GLGSV,3,2,9,68,17,275,,77,17,137,,88,11,177,,75,08,032,*5C
$GLGSV,3,3,9,83,05,335,*67
$BDGSV,3,1,12,02,56,188,34.7,14,54,074,35.5,13,49,171,35.6,06,45,207,35.7*66
$BDGSV,3,2,12,17,41,040,,01,39,129,,04,39,124,,08,38,318,35.7*73
$BDGSV,3,3,12,23,28,130,35.6,11,22,093,35.8,30,15,279,35.7,29,03,238,*73
$GNRMC,140527.000,A,3114.0005,N,12130.4576,E,161.932,270.03,010620,,,A*4B
$GNVTG,270.03,T,,M,161.932,N,300.059,K,A*24
$PMTKGEPH,0,0,0,0,0,0,0,0,0,0,0,0,0,0,0,0,0,0,0,0,0,0,0,0,0,0,0,0,0,0,0,0,0*04
$PMTKGALM,31,1,1,1,1,1,1,1,1,1,1,1,1,1,1,1,1,1,1,1,1,1,1,1,1,1,1,1,1,1,1,1,0*2A
$GNACCURACY,1.7,0.4,1.1,15.3*21
$PMTKAGC,140527.000,2802,2803,5997,5887,0,3,0*6E
$PMTKAG2,140527.000,5,0118,0,0,0,0,0,0,0,0,0,0,0,0*3C
$GNGGA,140528.000,3114.0005,N,12130.4049,E,1,7,1.16,41.5,M,8.2,M,,*49
$GPGSA,A,3,,,,,,,,,,,,,2.22,1.16,1.88*07
$GLGSA,A,3,,,,,,,,,,,,,2.22,1.16,1.88*1B
$BDGSA,A,3,14,08,11,02,30,13,23,,,,,,2.22,1.16,1.88*19
$GPGSV,4,1,15,05,67,053,,30,61,346,,12,58,070,,29,56,284,*70
$GPGSV,4,2,15,24,50,173,,02,33,049,,09,30,167,,40,19,251,*72
$GPGSV,4,3,15,31,18,318,,21,14,200,,14,13,264,,10,10,109,*70
$GPGSV,4,4,15,193,,,,194,,,,195,,,*47
$GLGSV,3,1,9,81,49,212,,82,46,302,,67,43,312,,66,34,034,*54
$GLGSV,3,2,9,68,17,275,,77,17,137,,88,11,177,,75,08,032,*5C
$GLGSV,3,3,9,83,05,335,*67
$BDGSV,3,1,12,02,56,188,34.8,14,54,074,35.5,13,49,171,35.6,06,45,207,35.7*69
$BDGSV,3,2,12,17,41,040,,01,39,129,,04,39,124,,08,38,318,35.7*73
$BDGSV,3,3,12,23,28,130,35.6,11,22,093,35.8,30,15,279,35.7,29,03,238,*73
$GNRMC,140528.000,A,3114.0005,N,12130.4049,E,161.900,269.99,010620,,,A*47
$GNVTG,269.99,T,,M,161.900,N,300.001,K,A*23
$PMTKGEPH,0,0,0,0,0,0,0,0,0,0,0,0,0,0,0,0,0,0,0,0,0,0,0,0,0,0,0,0,0,0,0,0,0*04
$PMTKGALM,31,1,1,1,1,1,1,1,1,1,1,1,1,1,1,1,1,1,1,1,1,1,1,1,1,1,1,1,1,1,1,1,0*2A
$GNACCURACY,1.6,0.4,1.1,15.3*20
$PMTKAGC,140528.000,2767,2830,5864,6018,0,3,0*6D
$PMTKAG2,140528.000,5,0118,0,0,0,0,0,0,0,0,0,0,0,0*33
$GNGGA,140529.000,3114.0004,N,12130.3523,E,1,7,1.16,41.3,M,8.2,M,,*41
$GPGSA,A,3,,,,,,,,,,,,,2.21,1.16,1.88*04
$GLGSA,A,3,,,,,,,,,,,,,2.21,1.16,1.88*18
$BDGSA,A,3,14,08,11,02,30,13,23,,,,,,2.21,1.16,1.88*1A
$GPGSV,4,1,15,05,67,053,,30,61,346,,12,58,070,,29,56,284,*70
$GPGSV,4,2,15,24,50,173,,02,33,049,,09,30,167,,40,19,251,*72
$GPGSV,4,3,15,31,18,318,,21,14,200,,14,13,264,,10,10,109,*70
$GPGSV,4,4,15,193,,,,194,,,,195,,,*47
$GLGSV,3,1,9,81,49,212,,82,46,302,,67,43,312,,66,34,034,*54
$GLGSV,3,2,9,68,17,275,,77,17,137,,88,11,177,,75,08,032,*5C
$GLGSV,3,3,9,83,05,335,*67
$BDGSV,3,1,12,02,56,188,34.8,14,54,074,35.5,13,49,171,35.6,06,45,207,35.9*67
$BDGSV,3,2,12,17,41,040,,01,39,129,,04,39,124,,08,38,318,35.7*73
$BDGSV,3,3,12,23,28,130,35.5,11,22,093,35.8,30,15,279,35.7,29,03,238,*70
$GNRMC,140529.000,A,3114.0004,N,12130.3523,E,161.893,269.99,010620,,,A*42
$GNVTG,269.99,T,,M,161.893,N,299.987,K,A*2E
$PMTKGEPH,0,0,0,0,0,0,0,0,0,0,0,0,0,0,0,0,0,0,0,0,0,0,0,0,0,0,0,0,0,0,0,0,0*04
$PMTKGALM,31,1,1,1,1,1,1,1,1,1,1,1,1,1,1,1,1,1,1,1,1,1,1,1,1,1,1,1,1,1,1,1,0*2A
$GNACCURACY,1.6,0.4,1.1,15.0*23
$PMTKAGC,140529.000,2855,2926,5970,6112,0,3,0*6B
$PMTKAG2,140529.000,5,0118,0,0,0,0,0,0,0,0,0,0,0,0*32
$GNGGA,140530.000,3114.0004,N,12130.2997,E,1,7,1.16,41.2,M,8.2,M,,*4A
$GPGSA,A,3,,,,,,,,,,,,,2.21,1.16,1.88*04
$GLGSA,A,3,,,,,,,,,,,,,2.21,1.16,1.88*18
$BDGSA,A,3,14,08,11,02,30,13,23,,,,,,2.21,1.16,1.88*1A
$GPGSV,4,1,15,05,67,053,,30,61,346,,12,58,070,,29,56,284,*70
$GPGSV,4,2,15,24,50,173,,02,33,049,,09,30,167,,40,19,251,*72
$GPGSV,4,3,15,31,18,318,,21,14,200,,14,13,264,,10,10,109,*70
$GPGSV,4,4,15,193,,,,194,,,,195,,,*47
$GLGSV,3,1,9,81,49,212,,82,46,302,,67,43,312,,66,34,034,*54
$GLGSV,3,2,9,68,17,275,,77,17,137,,88,11,177,,75,08,032,*5C
$GLGSV,3,3,9,83,05,335,*67
$BDGSV,3,1,12,02,56,188,34.8,14,54,074,35.5,13,49,171,35.5,06,45,207,35.9*64
$BDGSV,3,2,12,17,41,040,,01,39,129,,04,39,124,,08,38,318,35.7*73
$BDGSV,3,3,12,23,28,130,35.5,11,22,093,35.7,30,15,279,35.7,29,03,238,*7F
$GNRMC,140530.000,A,3114.0004,N,12130.2997,E,161.897,269.98,010620,,,A*4D
$GNVTG,269.98,T,,M,161.897,N,299.995,K,A*28
$PMTKGEPH,0,0,0,0,0,0,0,0,0,0,0,0,0,0,0,0,0,0,0,0,0,0,0,0,0,0,0,0,0,0,0,0,0*04
$PMTKGALM,31,1,1,1,1,1,1,1,1,1,1,1,1,1,1,1,1,1,1,1,1,1,1,1,1,1,1,1,1,1,1,1,0*2A
$GNACCURACY,1.6,0.4,1.1,15.1*22
$PMTKAGC,140530.000,2842,2920,5858,5984,0,3,0*6C
$PMTKAG2,140530.000,5,0118,0,0,0,0,0,0,0,0,0,0,0,0*3A
$GNGGA,140531.000,3114.0003,N,12130.2471,E,1,7,1.16,41.2,M,8.2,M,,*49
$GPGSA,A,3,,,,,,,,,,,,,2.21,1.16,1.88*04
$GLGSA,A,3,,,,,,,,,,,,,2.21,1.16,1.88*18
$BDGSA,A,3,14,08,11,02,30,13,23,,,,,,2.21,1.16,1.88*1A
$GPGSV,4,1,15,05,67,053,,30,61,346,,12,58,070,,29,56,284,*70
$GPGSV,4,2,15,24,50,173,,02,33,049,,09,30,167,,40,19,251,*72
$GPGSV,4,3,15,31,18,318,,21,14,200,,14,13,264,,10,10,109,*70
$GPGSV,4,4,15,193,,,,194,,,,195,,,*47
$GLGSV,3,1,9,81,49,212,,82,46,302,,67,44,312,,66,34,034,*53
$GLGSV,3,2,9,68,17,275,,77,17,137,,88,11,177,,75,08,032,*5C
$GLGSV,3,3,9,83,05,335,*67
$BDGSV,3,1,12,02,56,188,34.8,14,54,074,35.5,13,49,171,35.5,06,45,207,35.8*65
$BDGSV,3,2,12,17,41,040,,01,39,129,,04,39,124,,08,38,318,35.7*73
$BDGSV,3,3,12,23,28,130,35.5,11,22,093,35.7,30,15,279,35.7,29,03,238,*7F
$GNRMC,140531.000,A,3114.0003,N,12130.2471,E,161.908,270.03,010620,,,A*43
$GNVTG,270.03,T,,M,161.908,N,300.016,K,A*26
$PMTKGEPH,0,0,0,0,0,0,0,0,0,0,0,0,0,0,0,0,0,0,0,0,0,0,0,0,0,0,0,0,0,0,0,0,0*04
$PMTKGALM,31,1,1,1,1,1,1,1,1,1,1,1,1,1,1,1,1,1,1,1,1,1,1,1,1,1,1,1,1,1,1,1,0*2A
$GNACCURACY,1.6,0.4,1.1,15.0*23
$PMTKAGC,140531.000,2906,2853,5889,5850,0,3,0*6D
$PMTKAG2,140531.000,5,0119,0,0,0,0,0,0,0,0,0,0,0,0*3A
$GNGGA,140532.000,3114.0003,N,12130.1945,E,1,7,1.16,41.3,M,8.2,M,,*42
$GPGSA,A,3,,,,,,,,,,,,,2.22,1.16,1.88*07
$GLGSA,A,3,,,,,,,,,,,,,2.22,1.16,1.88*1B
$BDGSA,A,3,14,08,11,02,30,13,23,,,,,,2.22,1.16,1.88*19
$GPGSV,4,1,15,05,67,053,,30,61,346,,12,58,070,,29,56,284,*70
$GPGSV,4,2,15,24,50,173,,02,33,049,,09,30,167,,40,19,251,*72
$GPGSV,4,3,15,31,18,318,,21,14,200,,14,13,264,,10,10,109,*70
$GPGSV,4,4,15,193,,,,194,,,,195,,,*47
$GLGSV,3,1,9,81,49,212,,82,46,302,,67,44,312,,66,34,034,*53
$GLGSV,3,2,9,68,17,276,,77,17,137,,88,11,177,,75,08,032,*5F
$GLGSV,3,3,9,83,05,335,*67
$BDGSV,3,1,12,02,56,188,34.9,14,54,074,35.5,13,49,171,35.5,06,45,207,35.9*65
$BDGSV,3,2,12,17,41,040,,01,39,129,,04,39,124,,08,38,318,35.7*73
$BDGSV,3,3,12,23,28,130,35.5,11,22,093,35.7,30,15,279,35.6,29,03,238,*7E
$GNRMC,140532.000,A,3114.0003,N,12130.1945,E,161.917,269.98,010620,,,A*4D
$GNVTG,269.98,T,,M,161.917,N,300.032,K,A*24
$PMTKGEPH,0,0,0,0,0,0,0,0,0,0,0,0,0,0,0,0,0,0,0,0,0,0,0,0,0,0,0,0,0,0,0,0,0*04
$PMTKGALM,31,1,1,1,1,1,1,1,1,1,1,1,1,1,1,1,1,1,1,1,1,1,1,1,1,1,1,1,1,1,1,1,0*2A
$GNACCURACY,1.5,0.4,1.1,15.3*23
$PMTKAGC,140532.000,2961,2731,5801,6015,0,3,0*6E
$PMTKAG2,140532.000,5,0119,0,0,0,0,0,0,0,0,0,0,0,0*39
$GNGGA,140533.000,3114.0002,N,12130.1436,E,1,7,1.16,41.3,M,8.2,M,,*4B
$GPGSA,A,3,,,,,,,,,,,,,2.21,1.16,1.88*04
$GLGSA,A,3,,,,,,,,,,,,,2.21,1.16,1.88*18
$BDGSA,A,3,14,08,11,02,30,13,23,,,,,,2.21,1.16,1.88*1A
$GPGSV,4,1,15,05,67,053,,30,61,346,,12,58,070,,29,56,284,*70
$GPGSV,4,2,15,24,50,173,,02,33,049,,09,30,167,,40,19,251,*72
$GPGSV,4,3,15,31,18,318,,21,14,200,,14,13,264,,10,10,109,*70
$GPGSV,4,4,15,193,,,,194,,,,195,,,*47
$GLGSV,3,1,9,81,49,212,,82,46,302,,67,44,312,,66,34,034,*53
$GLGSV,3,2,9,68,17,276,,77,17,137,,88,11,177,,75,08,032,*5F
$GLGSV,3,3,9,83,05,335,*67
$BDGSV,3,1,12,02,56,188,34.8,14,54,074,35.5,13,49,171,35.5,06,45,207,36.0*6E
$BDGSV,3,2,12,17,41,040,,01,39,129,,04,39,124,,08,38,318,35.7*73
$BDGSV,3,3,12,23,28,130,35.5,11,22,093,35.7,30,15,279,35.6,29,03,238,*7E
$GNRMC,140533.000,A,3114.0002,N,12130.1436,E,150.749,269.94,010620,,,A*4F
$GNVTG,269.94,T,,M,150.749,N,279.338,K,A*29
$PMTKGEPH,0,0,0,0,0,0,0,0,0,0,0,0,0,0,0,0,0,0,0,0,0,0,0,0,0,0,0,0,0,0,0,0,0*04
$PMTKGALM,31,1,1,1,1,1,1,1,1,1,1,1,1,1,1,1,1,1,1,1,1,1,1,1,1,1,1,1,1,1,1,1,0*2A
$GNACCURACY,1.6,0.4,1.1,14.9*2B
$PMTKAGC,140533.000,2667,2839,5942,5990,0,3,0*60
$PMTKAG2,140533.000,5,0119,0,0,0,0,0,0,0,0,0,0,0,0*38
$GNGGA,140534.000,3114.0002,N,12130.0984,E,1,7,1.16,41.2,M,8.2,M,,*48
$GPGSA,A,3,,,,,,,,,,,,,2.21,1.16,1.88*04
$GLGSA,A,3,,,,,,,,,,,,,2.21,1.16,1.88*18
$BDGSA,A,3,14,08,11,02,30,13,23,,,,,,2.21,1.16,1.88*1A
$GPGSV,4,1,15,05,67,053,,30,61,346,,12,58,070,,29,56,284,*70
$GPGSV,4,2,15,24,50,173,,02,33,049,,09,30,167,,40,19,251,*72
$GPGSV,4,3,15,31,18,318,,21,14,200,,14,13,264,,10,10,109,*70
$GPGSV,4,4,15,193,,,,194,,,,195,,,*47
$GLGSV,3,1,9,81,49,212,,82,46,302,,67,44,312,,66,34,034,*53
$GLGSV,3,2,9,68,17,276,,77,17,137,,88,11,177,,75,08,032,*5F
$GLGSV,3,3,9,83,05,335,*67
$BDGSV,3,1,12,02,56,188,34.7,14,54,074,35.5,13,49,171,35.6,06,45,207,35.8*69
$BDGSV,3,2,12,17,41,040,,01,39,129,,04,39,124,,08,38,318,35.8*7C
$BDGSV,3,3,12,23,28,130,35.5,11,22,093,35.7,30,15,279,35.6,29,03,238,*7E
$GNRMC,140534.000,A,3114.0002,N,12130.0984,E,120.969,270.19,010620,,,A*4B
$GNVTG,270.19,T,,M,120.969,N,224.156,K,A*2D
$PMTKGEPH,0,0,0,0,0,0,0,0,0,0,0,0,0,0,0,0,0,0,0,0,0,0,0,0,0,0,0,0,0,0,0,0,0*04
$PMTKGALM,31,1,1,1,1,1,1,1,1,1,1,1,1,1,1,1,1,1,1,1,1,1,1,1,1,1,1,1,1,1,1,1,0*2A
$GNACCURACY,1.7,0.5,1.2,14.7*26
$PMTKAGC,140534.000,2904,2828,5927,6010,0,3,0*6C
$PMTKAG2,140534.000,5,0119,0,0,0,0,0,0,0,0,0,0,0,0*3F
$GNGGA,140535.000,3114.0002,N,12130.0628,E,1,7,1.16,41.1,M,8.2,M,,*43
$GPGSA,A,3,,,,,,,,,,,,,2.21,1.16,1.88*04
$GLGSA,A,3,,,,,,,,,,,,,2.21,1.16,1.88*18
$BDGSA,A,3,14,08,11,02,30,13,23,,,,,,2.21,1.16,1.88*1A
$GPGSV,4,1,15,05,67,053,,30,61,346,,12,58,070,,29,56,284,*70
$GPGSV,4,2,15,24,50,173,,02,33,049,,09,30,167,,39,19,251,*7C
$GPGSV,4,3,15,31,18,318,,21,14,200,,14,13,264,,10,10,109,*70
$GPGSV,4,4,15,193,,,,194,,,,195,,,*47
$GLGSV,3,1,9,81,49,212,,82,46,302,,67,44,312,,66,34,034,*53
$GLGSV,3,2,9,68,17,276,,77,17,137,,88,11,177,,75,08,032,*5F
$GLGSV,3,3,9,83,05,335,*67
$BDGSV,3,1,12,02,56,188,34.8,14,54,074,35.5,13,49,171,35.6,06,45,207,35.8*66
$BDGSV,3,2,12,17,41,040,,01,39,129,,04,39,124,,08,38,318,35.8*7C
$BDGSV,3,3,12,23,28,130,35.6,11,22,093,35.7,30,15,279,35.6,29,03,238,*7D
$GNRMC,140535.000,A,3114.0002,N,12130.0628,E,94.550,269.87,010620,,,A*74
$GNVTG,269.87,T,,M,94.550,N,175.202,K,A*1F
$PMTKGEPH,0,0,0,0,0,0,0,0,0,0,0,0,0,0,0,0,0,0,0,0,0,0,0,0,0,0,0,0,0,0,0,0,0*04
$PMTKGALM,31,1,1,1,1,1,1,1,1,1,1,1,1,1,1,1,1,1,1,1,1,1,1,1,1,1,1,1,1,1,1,1,0*2A
$GNACCURACY,1.8,0.6,1.2,14.7*2A
$PMTKAGC,140535.000,2756,3091,5975,5921,0,3,0*60
$PMTKAG2,140535.000,5,0119,0,0,0,0,0,0,0,0,0,0,0,0*3E
$GNGGA,140536.000,3114.0001,N,12130.0361,E,1,7,1.16,40.8,M,8.2,M,,*43
$GPGSA,A,3,,,,,,,,,,,,,2.21,1.16,1.88*04
$GLGSA,A,3,,,,,,,,,,,,,2.21,1.16,1.88*18
$BDGSA,A,3,14,08,11,02,30,13,23,,,,,,2.21,1.16,1.88*1A
$GPGSV,4,1,15,05,67,053,,30,61,346,,12,58,070,,29,56,284,*70
$GPGSV,4,2,15,24,50,173,,02,33,049,,09,30,167,,39,19,251,*7C
$GPGSV,4,3,15,31,18,318,,21,14,200,,14,13,264,,10,10,109,*70
$GPGSV,4,4,15,193,,,,194,,,,195,,,*47
$GLGSV,3,1,9,81,49,212,,82,46,302,,67,44,312,,66,34,034,*53
$GLGSV,3,2,9,68,17,276,,77,17,137,,88,11,177,,75,08,032,*5F
$GLGSV,3,3,9,83,05,335,*67
$BDGSV,3,1,12,02,56,188,34.8,14,54,074,35.5,13,49,171,35.6,06,45,207,35.9*67
$BDGSV,3,2,12,17,41,040,,01,39,129,,04,39,124,,08,38,318,35.8*7C
$BDGSV,3,3,12,23,28,130,35.6,11,22,093,35.7,30,15,279,35.6,29,03,238,*7D
$GNRMC,140536.000,A,3114.0001,N,12130.0361,E,67.455,270.01,010620,,,A*72
$GNVTG,270.01,T,,M,67.455,N,124.994,K,A*11
$PMTKGEPH,0,0,0,0,0,0,0,0,0,0,0,0,0,0,0,0,0,0,0,0,0,0,0,0,0,0,0,0,0,0,0,0,0*04
$PMTKGALM,31,1,1,1,1,1,1,1,1,1,1,1,1,1,1,1,1,1,1,1,1,1,1,1,1,1,1,1,1,1,1,1,0*2A
$GNACCURACY,1.8,0.9,1.2,14.9*2B
$PMTKAGC,140536.000,2994,3024,5992,5955,0,3,0*67
$PMTKAG2,140536.000,5,0118,0,0,0,0,0,0,0,0,0,0,0,0*3C
$GNGGA,140537.000,3114.0000,N,12130.0180,E,1,7,1.16,40.9,M,8.2,M,,*4F
$GPGSA,A,3,,,,,,,,,,,,,2.21,1.16,1.88*04
$GLGSA,A,3,,,,,,,,,,,,,2.21,1.16,1.88*18
$BDGSA,A,3,14,08,11,02,30,13,23,,,,,,2.21,1.16,1.88*1A
$GPGSV,4,1,15,05,67,053,,30,61,346,,12,58,070,,29,56,284,*70
$GPGSV,4,2,15,24,50,173,,02,33,049,,09,30,167,,39,19,251,*7C
$GPGSV,4,3,15,31,18,318,,21,14,200,,14,13,264,,10,10,109,*70
$GPGSV,4,4,15,193,,,,194,,,,195,,,*47
$GLGSV,3,1,9,81,49,212,,82,46,302,,67,44,312,,66,34,034,*53
$GLGSV,3,2,9,68,17,276,,77,17,137,,88,11,177,,75,08,032,*5F
$GLGSV,3,3,9,83,05,335,*67
$BDGSV,3,1,12,02,56,188,34.7,14,54,074,35.6,13,49,171,35.5,06,45,207,35.8*69
$BDGSV,3,2,12,17,41,040,,01,39,129,,04,39,124,,08,38,318,35.9*7D
$BDGSV,3,3,12,23,28,130,35.6,11,22,093,35.7,30,15,279,35.6,29,03,238,*7D
$GNRMC,140537.000,A,3114.0000,N,12130.0180,E,41.260,269.15,010620,,,A*76
$GNVTG,269.15,T,,M,41.260,N,76.455,K,A*2E
$PMTKGEPH,0,0,0,0,0,0,0,0,0,0,0,0,0,0,0,0,0,0,0,0,0,0,0,0,0,0,0,0,0,0,0,0,0*04
$PMTKGALM,31,1,1,1,1,1,1,1,1,1,1,1,1,1,1,1,1,1,1,1,1,1,1,1,1,1,1,1,1,1,1,1,0*2A
$GNACCURACY,1.9,1.6,1.3,15.0*2D
$PMTKAGC,140537.000,2939,2837,6099,5901,0,3,0*6A
$PMTKAG2,140537.000,5,0118,0,0,0,0,0,0,0,0,0,0,0,0*3D
$GNGGA,140538.000,3113.9998,N,12130.0086,E,1,7,1.16,41.3,M,8.2,M,,*4A
$GPGSA,A,3,,,,,,,,,,,,,2.21,1.16,1.88*04
$GLGSA,A,3,,,,,,,,,,,,,2.21,1.16,1.88*18
$BDGSA,A,3,14,08,11,02,30,13,23,,,,,,2.21,1.16,1.88*1A
$GPGSV,4,1,15,05,67,053,,30,61,346,,12,58,070,,29,56,284,*70
$GPGSV,4,2,15,24,50,173,,02,33,049,,09,30,167,,39,19,251,*7C
$GPGSV,4,3,15,31,18,318,,21,14,200,,14,13,264,,10,10,109,*70
$GPGSV,4,4,15,193,,,,194,,,,195,,,*47
$GLGSV,3,1,9,81,49,212,,82,46,302,,67,44,312,,66,34,034,*53
$GLGSV,3,2,9,68,17,276,,77,17,137,,88,11,177,,75,08,032,*5F
$GLGSV,3,3,9,83,05,335,*67
$BDGSV,3,1,12,02,56,188,34.8,14,54,074,35.5,13,49,171,35.6,06,45,207,35.8*66
$BDGSV,3,2,12,17,41,040,,01,39,129,,04,39,124,,08,38,318,35.9*7D
$BDGSV,3,3,12,23,28,130,35.6,11,22,093,35.7,30,15,279,35.6,29,03,238,*7D
$GNRMC,140538.000,A,3113.9998,N,12130.0086,E,14.753,268.88,010620,,,A*78
$GNVTG,268.88,T,,M,14.753,N,27.337,K,A*29
$PMTKGEPH,0,0,0,0,0,0,0,0,0,0,0,0,0,0,0,0,0,0,0,0,0,0,0,0,0,0,0,0,0,0,0,0,0*04
$PMTKGALM,31,1,1,1,1,1,1,1,1,1,1,1,1,1,1,1,1,1,1,1,1,1,1,1,1,1,1,1,1,1,1,1,0*2A
$GNACCURACY,1.9,4.3,1.2,15.4*28
$PMTKAGC,140538.000,2783,2763,5992,5915,0,3,0*60
$PMTKAG2,140538.000,5,0118,0,0,0,0,0,0,0,0,0,0,0,0*32
$GNGGA,140539.000,3114.0006,N,12130.0047,E,1,7,1.16,41.3,M,8.2,M,,*46
$GPGSA,A,3,,,,,,,,,,,,,2.21,1.16,1.88*04
$GLGSA,A,3,,,,,,,,,,,,,2.21,1.16,1.88*18
$BDGSA,A,3,14,08,11,02,30,13,23,,,,,,2.21,1.16,1.88*1A
$GPGSV,4,1,15,05,67,053,,30,61,346,,12,58,070,,29,56,284,*70
$GPGSV,4,2,15,24,50,173,,02,33,049,,09,30,167,,39,19,251,*7C
$GPGSV,4,3,15,31,18,318,,21,14,200,,14,13,264,,10,10,109,*70
$GPGSV,4,4,15,193,,,,194,,,,195,,,*47
$GLGSV,3,1,9,81,49,212,,82,46,302,,67,44,312,,66,34,034,*53
$GLGSV,3,2,9,68,17,276,,77,17,137,,88,11,177,,75,07,031,*53
$GLGSV,3,3,9,83,05,335,*67
$BDGSV,3,1,12,02,56,188,34.8,14,54,074,35.6,13,49,171,35.5,06,45,207,35.9*67
$BDGSV,3,2,12,17,41,040,,01,39,129,,04,39,124,,08,38,318,35.9*7D
$BDGSV,3,3,12,23,28,130,35.6,11,22,093,35.7,30,15,279,35.6,29,03,238,*7D
$GNRMC,140539.000,A,3114.0006,N,12130.0047,E,16.075,292.75,010620,,,A*72
$GNVTG,292.75,T,,M,16.075,N,29.787,K,A*2E
$PMTKGEPH,0,0,0,0,0,0,0,0,0,0,0,0,0,0,0,0,0,0,0,0,0,0,0,0,0,0,0,0,0,0,0,0,0*04
$PMTKGALM,31,1,1,1,1,1,1,1,1,1,1,1,1,1,1,1,1,1,1,1,1,1,1,1,1,1,1,1,1,1,1,1,0*2A
$GNACCURACY,1.8,7.4,1.7,15.2*2E
$PMTKAGC,140539.000,2784,2806,5982,5993,0,3,0*65
$PMTKAG2,140539.000,5,0119,0,0,0,0,0,0,0,0,0,0,0,0*32
$GNGGA,140540.000,3114.0032,N,12130.0011,E,1,7,1.16,41.7,M,8.2,M,,*48
$GPGSA,A,3,,,,,,,,,,,,,2.21,1.16,1.88*04
$GLGSA,A,3,,,,,,,,,,,,,2.21,1.16,1.88*18
$BDGSA,A,3,14,08,11,02,30,13,23,,,,,,2.21,1.16,1.88*1A
$GPGSV,4,1,15,05,67,053,,30,61,346,,12,58,070,,29,56,284,*70
$GPGSV,4,2,15,24,50,173,,02,33,049,,09,30,167,,39,19,251,*7C
$GPGSV,4,3,15,31,18,318,,21,14,200,,14,13,264,,10,10,109,*70
$GPGSV,4,4,15,193,,,,194,,,,195,,,*47
$GLGSV,3,1,9,81,49,212,,82,46,302,,67,44,312,,66,34,034,*53
$GLGSV,3,2,9,68,17,276,,77,17,137,,88,11,177,,75,07,031,*53
$GLGSV,3,3,9,83,05,335,*67
$BDGSV,3,1,12,02,56,188,34.7,14,54,074,35.6,13,49,171,35.5,06,45,207,35.9*68
$BDGSV,3,2,12,17,41,040,,01,39,129,,04,39,124,,08,38,318,35.9*7D
$BDGSV,3,3,12,23,28,130,35.6,11,22,093,35.7,30,15,279,35.6,29,03,238,*7D
$GNRMC,140540.000,A,3114.0032,N,12130.0011,E,16.022,312.00,010620,,,A*71
$GNVTG,312.00,T,,M,16.022,N,29.689,K,A*28
$PMTKGEPH,0,0,0,0,0,0,0,0,0,0,0,0,0,0,0,0,0,0,0,0,0,0,0,0,0,0,0,0,0,0,0,0,0*04
$PMTKGALM,31,1,1,1,1,1,1,1,1,1,1,1,1,1,1,1,1,1,1,1,1,1,1,1,1,1,1,1,1,1,1,1,0*2A
$GNACCURACY,1.8,6.1,1.6,15.4*2D
$PMTKAGC,140540.000,2926,2668,5842,5865,0,3,0*6E
$PMTKAG2,140540.000,5,0118,0,0,0,0,0,0,0,0,0,0,0,0*3D
$GNGGA,140541.000,3114.0071,N,12129.9990,E,1,7,1.17,41.8,M,8.2,M,,*41
$GPGSA,A,3,,,,,,,,,,,,,2.21,1.17,1.88*05
$GLGSA,A,3,,,,,,,,,,,,,2.21,1.17,1.88*19
$BDGSA,A,3,14,08,11,02,30,13,23,,,,,,2.21,1.17,1.88*1B
$GPGSV,4,1,15,05,67,053,,30,61,346,,12,58,070,,29,56,284,*70
$GPGSV,4,2,15,24,50,173,,02,33,049,,09,30,167,,39,19,251,*7C
$GPGSV,4,3,15,31,18,318,,21,14,200,,14,13,264,,10,10,109,*70
$GPGSV,4,4,15,193,,,,194,,,,195,,,*47
$GLGSV,3,1,9,81,49,212,,82,46,302,,67,44,312,,66,34,034,*53
$GLGSV,3,2,9,68,17,276,,77,17,136,,88,11,177,,75,07,031,*52
$GLGSV,3,3,9,83,05,335,*67
$BDGSV,3,1,12,02,56,188,34.8,14,54,074,35.6,13,49,171,35.6,06,45,207,35.8*65
$BDGSV,3,2,12,17,41,040,,01,39,129,,04,39,124,,08,38,318,35.9*7D
$BDGSV,3,3,12,23,28,130,35.6,11,22,093,35.7,30,15,279,35.6,29,03,238,*7D
$GNRMC,140541.000,A,3114.0071,N,12129.9990,E,15.435,337.36,010620,,,A*75
$GNVTG,337.36,T,,M,15.435,N,28.601,K,A*2A
$PMTKGEPH,0,0,0,0,0,0,0,0,0,0,0,0,0,0,0,0,0,0,0,0,0,0,0,0,0,0,0,0,0,0,0,0,0*04
$PMTKGALM,31,1,1,1,1,1,1,1,1,1,1,1,1,1,1,1,1,1,1,1,1,1,1,1,1,1,1,1,1,1,1,1,0*2A
$GNACCURACY,1.8,6.2,1.6,15.3*29
$PMTKAGC,140541.000,2718,2696,5796,5765,0,3,0*64
$PMTKAG2,140541.000,5,0119,0,0,0,0,0,0,0,0,0,0,0,0*3D
$GNGGA,140542.000,3114.0122,N,12129.9986,E,1,7,1.16,41.5,M,8.2,M,,*4E
$GPGSA,A,3,,,,,,,,,,,,,2.21,1.16,1.88*04
$GLGSA,A,3,,,,,,,,,,,,,2.21,1.16,1.88*18
$BDGSA,A,3,14,08,11,02,30,13,23,,,,,,2.21,1.16,1.88*1A
$GPGSV,4,1,15,05,67,053,,30,61,346,,12,58,070,,29,56,284,*70
$GPGSV,4,2,15,24,50,173,,02,33,049,,09,30,167,,39,19,251,*7C
$GPGSV,4,3,15,31,18,318,,21,14,200,,14,13,264,,10,10,109,*70
$GPGSV,4,4,15,193,,,,194,,,,195,,,*47
$GLGSV,3,1,9,81,49,212,,82,46,302,,67,44,312,,66,34,034,*53
$GLGSV,3,2,9,68,17,276,,77,17,136,,88,11,177,,75,07,031,*52
$GLGSV,3,3,9,83,05,335,*67
$BDGSV,3,1,12,02,56,188,34.7,14,54,074,35.6,13,49,171,35.6,06,45,207,35.8*6A
$BDGSV,3,2,12,17,41,040,,01,39,129,,04,39,124,,08,38,318,35.9*7D
$BDGSV,3,3,12,23,28,130,35.6,11,22,093,35.8,30,15,279,35.6,29,03,238,*72
$GNRMC,140542.000,A,3114.0122,N,12129.9986,E,19.099,356.80,010620,,,A*72
$GNVTG,356.80,T,,M,19.099,N,35.391,K,A*2E
$PMTKGEPH,0,0,0,0,0,0,0,0,0,0,0,0,0,0,0,0,0,0,0,0,0,0,0,0,0,0,0,0,0,0,0,0,0*04
$PMTKGALM,31,1,1,1,1,1,1,1,1,1,1,1,1,1,1,1,1,1,1,1,1,1,1,1,1,1,1,1,1,1,1,1,0*2A
$GNACCURACY,1.8,4.8,1.6,15.2*20
$PMTKAGC,140542.000,2874,2833,5846,5900,0,3,0*6C
$PMTKAG2,140542.000,5,0119,0,0,0,0,0,0,0,0,0,0,0,0*3E
$GNGGA,140543.000,3114.0211,N,12129.9988,E,1,7,1.16,40.9,M,8.2,M,,*4F
$GPGSA,A,3,,,,,,,,,,,,,2.21,1.16,1.88*04
$GLGSA,A,3,,,,,,,,,,,,,2.21,1.16,1.88*18
$BDGSA,A,3,14,08,11,02,30,13,23,,,,,,2.21,1.16,1.88*1A
$GPGSV,4,1,15,05,67,053,,30,61,346,,12,58,070,,29,56,284,*70
$GPGSV,4,2,15,24,50,173,,02,33,049,,09,30,167,,39,19,251,*7C
$GPGSV,4,3,15,31,18,318,,21,14,200,,14,13,264,,10,10,109,*70
$GPGSV,4,4,15,193,,,,194,,,,195,,,*47
$GLGSV,3,1,9,81,49,212,,82,46,302,,67,44,312,,66,34,034,*53
$GLGSV,3,2,9,68,17,276,,77,17,136,,88,11,177,,75,07,031,*52
$GLGSV,3,3,9,83,05,335,*67
$BDGSV,3,1,12,02,56,188,34.7,14,54,074,35.6,13,49,171,35.5,06,45,207,35.8*69
$BDGSV,3,2,12,17,41,040,,01,39,129,,04,39,124,,08,38,318,35.8*7C
$BDGSV,3,3,12,23,28,130,35.6,11,22,093,35.8,30,15,279,35.6,29,03,238,*72
$GNRMC,140543.000,A,3114.0211,N,12129.9988,E,34.717,356.33,010620,,,A*78
$GNVTG,356.33,T,,M,34.717,N,64.330,K,A*27
$PMTKGEPH,0,0,0,0,0,0,0,0,0,0,0,0,0,0,0,0,0,0,0,0,0,0,0,0,0,0,0,0,0,0,0,0,0*04
$PMTKGALM,31,1,1,1,1,1,1,1,1,1,1,1,1,1,1,1,1,1,1,1,1,1,1,1,1,1,1,1,1,1,1,1,0*2A
$GNACCURACY,1.8,2.5,2.0,15.0*2C
$PMTKAGC,140543.000,2756,2832,6035,5865,0,3,0*6E
$PMTKAG2,140543.000,5,0119,0,0,0,0,0,0,0,0,0,0,0,0*3F
$GNGGA,140544.000,3114.0321,N,12129.9985,E,1,7,1.15,40.9,M,8.2,M,,*44
$GPGSA,A,3,,,,,,,,,,,,,1.45,1.15,0.88*07
$GLGSA,A,3,,,,,,,,,,,,,1.45,1.15,0.88*1B
$BDGSA,A,3,14,08,11,02,30,13,23,,,,,,1.45,1.15,0.88*19
$GPGSV,4,1,15,05,67,053,,30,61,346,,12,58,070,,29,56,284,*70
$GPGSV,4,2,15,24,50,173,,02,33,049,,09,30,167,,39,19,251,*7C
$GPGSV,4,3,15,31,18,318,,21,14,200,,14,13,264,,10,10,109,*70
$GPGSV,4,4,15,193,,,,194,,,,195,,,*47
$GLGSV,3,1,9,81,49,212,,82,46,302,,67,44,312,,66,34,034,*53
$GLGSV,3,2,9,68,17,276,,77,17,136,,88,11,177,,75,07,031,*52
$GLGSV,3,3,9,83,05,335,*67
$BDGSV,3,1,12,02,56,188,34.8,14,54,074,35.6,13,49,171,35.6,06,45,207,35.9*64
$BDGSV,3,2,12,17,41,040,,01,39,129,,04,39,124,,08,38,318,35.9*7D
$BDGSV,3,3,12,23,28,130,35.6,11,22,093,35.8,30,15,279,35.6,29,03,238,*72
$GNRMC,140544.000,A,3114.0321,N,12129.9985,E,37.193,357.01,010620,,,A*79
$GNVTG,357.01,T,,M,37.193,N,68.919,K,A*23
$PMTKGEPH,0,0,0,0,0,0,0,0,0,0,0,0,0,0,0,0,0,0,0,0,0,0,0,0,0,0,0,0,0,0,0,0,0*04
$PMTKGALM,31,1,1,1,1,1,1,1,1,1,1,1,1,1,1,1,1,1,1,1,1,1,1,1,1,1,1,1,1,1,1,1,0*2A
$GNACCURACY,2.0,3.9,2.9,14.9*2B
$PMTKAGC,140544.000,2862,2828,6072,5902,0,3,0*69
$PMTKAG2,140544.000,5,0119,0,0,0,0,0,0,0,0,0,0,0,0*38
$GNGGA,140545.000,3114.0515,N,12129.9987,E,1,8,1.06,40.6,M,8.2,M,,*44
$GPGSA,A,3,,,,,,,,,,,,,2.15,1.06,1.87*0D
$GLGSA,A,3,,,,,,,,,,,,,2.15,1.06,1.87*11
$BDGSA,A,3,06,14,08,11,02,30,13,23,,,,,2.15,1.06,1.87*15
$GPGSV,4,1,15,05,67,053,,30,61,346,,12,58,070,,29,56,284,*70
$GPGSV,4,2,15,24,50,173,,02,33,049,,09,30,167,,39,19,251,*7C
$GPGSV,4,3,15,31,18,318,,21,14,200,,14,13,264,,10,10,109,*70
$GPGSV,4,4,15,193,,,,194,,,,195,,,*47
$GLGSV,3,1,9,81,48,211,,82,46,302,,67,44,312,,66,34,034,*51
$GLGSV,3,2,9,68,17,276,,77,17,136,,88,11,177,,75,07,031,*52
$GLGSV,3,3,9,83,05,335,*67
$BDGSV,3,1,12,02,56,188,34.8,14,54,074,35.5,13,49,171,35.6,06,45,207,35.8*66
$BDGSV,3,2,12,17,41,040,,01,39,129,,04,39,124,,08,38,318,35.9*7D
$BDGSV,3,3,12,23,28,130,35.6,11,22,093,35.8,30,15,279,35.6,29,03,238,*72
$GNRMC,140545.000,A,3114.0515,N,12129.9987,E,94.934,359.02,010620,,,A*7A
$GNVTG,359.02,T,,M,94.934,N,175.912,K,A*14
$PMTKGEPH,0,0,0,0,0,0,0,0,0,0,0,0,0,0,0,0,0,0,0,0,0,0,0,0,0,0,0,0,0,0,0,0,0*04
$PMTKGALM,31,1,1,1,1,1,1,1,1,1,1,1,1,1,1,1,1,1,1,1,1,1,1,1,1,1,1,1,1,1,1,1,0*2A
$GNACCURACY,2.3,1.3,3.6,15.4*22
$PMTKAGC,140545.000,2806,2907,5856,5862,0,3,0*6C
$PMTKAG2,140545.000,5,0119,0,0,0,0,0,0,0,0,0,0,0,0*39
$GNGGA,140546.000,3114.0847,N,12129.9986,E,1,8,1.06,40.2,M,8.2,M,,*48
$GPGSA,A,3,,,,,,,,,,,,,2.15,1.06,1.87*0D
$GLGSA,A,3,,,,,,,,,,,,,2.15,1.06,1.87*11
$BDGSA,A,3,06,14,08,11,02,30,13,23,,,,,2.15,1.06,1.87*15
$GPGSV,4,1,15,05,67,053,,30,61,346,,12,58,070,,29,56,284,*70
$GPGSV,4,2,15,24,50,173,,02,33,049,,09,30,167,,39,19,251,*7C
$GPGSV,4,3,15,31,18,318,,21,14,200,,14,13,264,,10,10,109,*70
$GPGSV,4,4,15,193,,,,194,,,,195,,,*47
$GLGSV,3,1,9,81,48,211,,82,46,301,,67,44,312,,66,34,034,*52
$GLGSV,3,2,9,68,17,276,,77,17,136,,88,11,177,,75,07,031,*52
$GLGSV,3,3,9,83,05,335,*67
$BDGSV,3,1,12,02,56,188,34.7,14,54,074,35.6,13,49,171,35.6,06,45,207,35.8*6A
$BDGSV,3,2,12,17,41,040,,01,39,129,,04,39,124,,08,38,318,35.9*7D
$BDGSV,3,3,12,23,28,130,35.6,11,22,093,35.8,30,15,279,35.6,29,03,238,*72
$GNRMC,140546.000,A,3114.0847,N,12129.9986,E,131.063,359.92,010620,,,A*4E
$GNVTG,359.92,T,,M,131.063,N,242.859,K,A*21
$PMTKGEPH,0,0,0,0,0,0,0,0,0,0,0,0,0,0,0,0,0,0,0,0,0,0,0,0,0,0,0,0,0,0,0,0,0*04
$PMTKGALM,31,1,1,1,1,1,1,1,1,1,1,1,1,1,1,1,1,1,1,1,1,1,1,1,1,1,1,1,1,1,1,1,0*2A
$GNACCURACY,2.3,0.3,1.2,14.8*28
$PMTKAGC,140546.000,2742,2843,5885,6009,0,3,0*69
$PMTKAG2,140546.000,5,0119,0,0,0,0,0,0,0,0,0,0,0,0*3A
$GNGGA,140547.000,3114.1261,N,12129.9987,E,1,8,1.06,40.0,M,8.2,M,,*45
$GPGSA,A,3,,,,,,,,,,,,,2.15,1.06,1.87*0D
$GLGSA,A,3,,,,,,,,,,,,,2.15,1.06,1.87*11
$BDGSA,A,3,06,14,08,11,02,30,13,23,,,,,2.15,1.06,1.87*15
$GPGSV,4,1,15,05,67,053,,30,61,346,,12,58,070,,29,56,284,*70
$GPGSV,4,2,15,24,50,173,,02,33,049,,09,30,167,,39,19,251,*7C
$GPGSV,4,3,15,31,18,318,,21,14,200,,14,13,264,,10,10,109,*70
$GPGSV,4,4,15,193,,,,194,,,,195,,,*47
$GLGSV,3,1,9,81,48,211,,82,46,301,,67,44,312,,66,34,034,*52
$GLGSV,3,2,9,68,17,276,,77,17,136,,88,11,177,,75,07,031,*52
$GLGSV,3,3,9,83,05,335,*67
$BDGSV,3,1,12,02,56,188,34.8,14,54,074,35.6,13,49,171,35.6,06,45,207,35.8*65
$BDGSV,3,2,12,17,41,040,,01,39,129,,04,39,124,,08,38,318,35.9*7D
$BDGSV,3,3,12,23,28,130,35.6,11,22,093,35.8,30,15,279,35.7,29,03,238,*73
$GNRMC,140547.000,A,3114.1261,N,12129.9987,E,157.898,359.86,010620,,,A*48
$GNVTG,359.86,T,,M,157.898,N,292.584,K,A*28
$PMTKGEPH,0,0,0,0,0,0,0,0,0,0,0,0,0,0,0,0,0,0,0,0,0,0,0,0,0,0,0,0,0,0,0,0,0*04
$PMTKGALM,31,1,1,1,1,1,1,1,1,1,1,1,1,1,1,1,1,1,1,1,1,1,1,1,1,1,1,1,1,1,1,1,0*2A
$GNACCURACY,2.3,0.3,1.2,15.5*24
$PMTKAGC,140547.000,2725,2883,5987,5799,0,3,0*6B
$PMTKAG2,140547.000,5,0119,0,0,0,0,0,0,0,0,0,0,0,0*3B
$GNGGA,140548.000,3114.1726,N,12129.9987,E,1,8,1.06,40.1,M,8.2,M,,*4D
$GPGSA,A,3,,,,,,,,,,,,,2.15,1.06,1.87*0D
$GLGSA,A,3,,,,,,,,,,,,,2.15,1.06,1.87*11
$BDGSA,A,3,06,14,08,11,02,30,13,23,,,,,2.15,1.06,1.87*15
$GPGSV,4,1,15,05,67,053,,30,61,346,,12,58,070,,29,56,284,*70
$GPGSV,4,2,15,24,50,173,,02,33,049,,09,30,167,,39,19,251,*7C
$GPGSV,4,3,15,31,18,318,,21,14,200,,14,13,264,,10,10,109,*70
$GPGSV,4,4,15,193,,,,194,,,,195,,,*47
$GLGSV,3,1,9,81,48,211,,82,46,301,,67,44,312,,66,34,034,*52
$GLGSV,3,2,9,68,17,276,,77,17,136,,88,11,177,,75,07,031,*52
$GLGSV,3,3,9,83,05,335,*67
$BDGSV,3,1,12,02,56,188,34.7,14,54,074,35.6,13,49,171,35.6,06,45,207,35.8*6A
$BDGSV,3,2,12,17,41,040,,01,39,129,,04,39,124,,08,38,318,35.9*7D
$BDGSV,3,3,12,23,28,130,35.6,11,22,093,35.7,30,15,279,35.7,29,03,238,*7C
$GNRMC,140548.000,A,3114.1726,N,12129.9987,E,163.006,359.82,010620,,,A*4D
$GNVTG,359.82,T,,M,163.006,N,302.051,K,A*21
$PMTKGEPH,0,0,0,0,0,0,0,0,0,0,0,0,0,0,0,0,0,0,0,0,0,0,0,0,0,0,0,0,0,0,0,0,0*04
$PMTKGALM,31,1,1,1,1,1,1,1,1,1,1,1,1,1,1,1,1,1,1,1,1,1,1,1,1,1,1,1,1,1,1,1,0*2A
$GNACCURACY,2.2,0.2,1.1,14.9*2A
$PMTKAGC,140548.000,2842,2686,5890,6085,0,3,0*6F
$PMTKAG2,140548.000,5,0119,0,0,0,0,0,0,0,0,0,0,0,0*34
$GNGGA,140549.000,3114.2196,N,12129.9989,E,1,8,1.06,40.0,M,8.2,M,,*4D
$GPGSA,A,3,,,,,,,,,,,,,2.15,1.06,1.87*0D
$GLGSA,A,3,,,,,,,,,,,,,2.15,1.06,1.87*11
$BDGSA,A,3,06,14,08,11,02,30,13,23,,,,,2.15,1.06,1.87*15
$GPGSV,4,1,15,05,67,053,,30,61,346,,12,58,070,,29,56,284,*70
$GPGSV,4,2,15,24,50,173,,02,33,049,,09,30,167,,39,19,251,*7C
$GPGSV,4,3,15,31,18,318,,21,14,200,,14,13,264,,10,10,109,*70
$GPGSV,4,4,15,193,,,,194,,,,195,,,*47
$GLGSV,3,1,9,81,48,211,,82,46,301,,67,44,312,,66,34,034,*52
$GLGSV,3,2,9,68,17,276,,77,17,136,,88,11,177,,75,07,031,*52
$GLGSV,3,3,9,83,05,335,*67
$BDGSV,3,1,12,02,56,188,34.7,14,54,074,35.6,13,49,171,35.6,06,45,207,35.8*6A
$BDGSV,3,2,12,17,41,040,,01,39,129,,04,39,124,,08,38,318,35.9*7D
$BDGSV,3,3,12,23,28,130,35.6,11,22,093,35.8,30,15,279,35.7,29,03,238,*73
$GNRMC,140549.000,A,3114.2196,N,12129.9989,E,161.356,359.97,010620,,,A*4C
$GNVTG,359.97,T,,M,161.356,N,298.992,K,A*25
$PMTKGEPH,0,0,0,0,0,0,0,0,0,0,0,0,0,0,0,0,0,0,0,0,0,0,0,0,0,0,0,0,0,0,0,0,0*04
$PMTKGALM,31,1,1,1,1,1,1,1,1,1,1,1,1,1,1,1,1,1,1,1,1,1,1,1,1,1,1,1,1,1,1,1,0*2A
$GNACCURACY,2.1,0.2,1.0,15.5*25
$PMTKAGC,140549.000,2912,2703,5839,5944,0,3,0*62
$PMTKAG2,140549.000,5,0119,0,0,0,0,0,0,0,0,0,0,0,0*35
$GNGGA,140550.000,3114.2663,N,12129.9990,E,1,8,1.06,39.9,M,8.2,M,,*47
$GPGSA,A,3,,,,,,,,,,,,,2.15,1.06,1.87*0D
$GLGSA,A,3,,,,,,,,,,,,,2.15,1.06,1.87*11
$BDGSA,A,3,06,14,08,11,02,30,13,23,,,,,2.15,1.06,1.87*15
$GPGSV,4,1,15,05,67,053,,30,61,346,,12,58,070,,29,56,284,*70
$GPGSV,4,2,15,24,50,173,,02,33,049,,09,30,167,,39,19,251,*7C
$GPGSV,4,3,15,31,18,318,,21,14,200,,14,13,264,,10,10,109,*70
$GPGSV,4,4,15,193,,,,194,,,,195,,,*47
$GLGSV,3,1,9,81,48,211,,82,46,301,,67,44,312,,66,34,034,*52
$GLGSV,3,2,9,68,17,276,,77,17,136,,88,11,177,,75,07,031,*52
$GLGSV,3,3,9,83,05,335,*67
$BDGSV,3,1,12,02,56,188,34.8,14,54,074,35.6,13,49,171,35.7,06,45,207,35.8*64
$BDGSV,3,2,12,17,41,040,,01,39,129,,04,39,124,,08,38,318,35.9*7D
$BDGSV,3,3,12,23,28,130,35.6,11,22,093,35.8,30,15,279,35.7,29,03,238,*73
$GNRMC,140550.000,A,3114.2663,N,12129.9990,E,161.849,359.93,010620,,,A*40
$GNVTG,359.93,T,,M,161.849,N,299.907,K,A*29
$PMTKGEPH,0,0,0,0,0,0,0,0,0,0,0,0,0,0,0,0,0,0,0,0,0,0,0,0,0,0,0,0,0,0,0,0,0*04
$PMTKGALM,31,1,1,1,1,1,1,1,1,1,1,1,1,1,1,1,1,1,1,1,1,1,1,1,1,1,1,1,1,1,1,1,0*2A
$GNACCURACY,2.1,0.2,1.0,15.0*20
$PMTKAGC,140550.000,2753,2786,5865,5886,0,3,0*6A
$PMTKAG2,140550.000,5,0119,0,0,0,0,0,0,0,0,0,0,0,0*3D
$GNGGA,140551.000,3114.3128,N,12129.9992,E,1,8,1.06,39.5,M,8.2,M,,*41
$GPGSA,A,3,,,,,,,,,,,,,2.15,1.06,1.87*0D
$GLGSA,A,3,,,,,,,,,,,,,2.15,1.06,1.87*11
$BDGSA,A,3,06,14,08,11,02,30,13,23,,,,,2.15,1.06,1.87*15
$GPGSV,4,1,15,05,67,053,,30,61,346,,12,58,070,,29,56,284,*70
$GPGSV,4,2,15,24,50,173,,02,33,049,,09,30,167,,39,19,251,*7C
$GPGSV,4,3,15,31,18,318,,21,14,200,,14,13,264,,10,10,109,*70
$GPGSV,4,4,15,193,,,,194,,,,195,,,*47
$GLGSV,3,1,9,81,48,211,,82,46,301,,67,44,312,,66,34,034,*52
$GLGSV,3,2,9,68,17,276,,77,17,136,,88,11,177,,75,07,031,*52
$GLGSV,3,3,9,83,05,335,*67
$BDGSV,3,1,12,02,56,188,34.7,14,54,074,35.6,13,49,171,35.7,06,45,207,35.8*6B
$BDGSV,3,2,12,17,41,040,,01,39,129,,04,39,124,,08,38,318,35.9*7D
$BDGSV,3,3,12,23,28,130,35.6,11,22,093,35.8,30,15,279,35.7,29,03,238,*73
$GNRMC,140551.000,A,3114.3128,N,12129.9992,E,162.202,0.10,010620,,,A*48
$GNVTG,0.10,T,,M,162.202,N,300.561,K,A*26
$PMTKGEPH,0,0,0,0,0,0,0,0,0,0,0,0,0,0,0,0,0,0,0,0,0,0,0,0,0,0,0,0,0,0,0,0,0*04
$PMTKGALM,31,1,1,1,1,1,1,1,1,1,1,1,1,1,1,1,1,1,1,1,1,1,1,1,1,1,1,1,1,1,1,1,0*2A
$GNACCURACY,2.0,0.2,1.0,15.5*24
$PMTKAGC,140551.000,2685,2831,5892,5903,0,3,0*66
$PMTKAG2,140551.000,5,0119,0,0,0,0,0,0,0,0,0,0,0,0*3C
$GNGGA,140552.000,3114.3594,N,12129.9994,E,1,8,1.06,39.0,M,8.2,M,,*42
$GPGSA,A,3,,,,,,,,,,,,,2.15,1.06,1.87*0D
$GLGSA,A,3,,,,,,,,,,,,,2.15,1.06,1.87*11
$BDGSA,A,3,06,14,08,11,02,30,13,23,,,,,2.15,1.06,1.87*15
$GPGSV,4,1,15,05,67,053,,30,61,346,,12,58,070,,29,56,284,*70
$GPGSV,4,2,15,24,50,173,,02,33,049,,09,30,167,,39,19,251,*7C
$GPGSV,4,3,15,31,18,318,,21,14,200,,14,13,264,,10,10,109,*70
$GPGSV,4,4,15,193,,,,194,,,,195,,,*47
$GLGSV,3,1,9,81,48,211,,82,46,301,,67,44,312,,66,34,034,*52
$GLGSV,3,2,9,68,17,276,,77,17,136,,88,10,177,,75,07,031,*53
$GLGSV,3,3,9,83,05,335,*67
$BDGSV,3,1,12,02,56,188,34.7,14,54,074,35.7,13,49,171,35.7,06,45,207,35.8*6A
$BDGSV,3,2,12,17,41,040,,01,39,129,,04,39,124,,08,38,318,35.9*7D
$BDGSV,3,3,12,23,28,130,35.5,11,22,093,35.8,30,15,279,35.6,29,03,238,*71
$GNRMC,140552.000,A,3114.3594,N,12129.9994,E,161.983,0.03,010620,,,A*4D
$GNVTG,0.03,T,,M,161.983,N,300.154,K,A*27
$PMTKGEPH,0,0,0,0,0,0,0,0,0,0,0,0,0,0,0,0,0,0,0,0,0,0,0,0,0,0,0,0,0,0,0,0,0*04
$PMTKGALM,31,1,1,1,1,1,1,1,1,1,1,1,1,1,1,1,1,1,1,1,1,1,1,1,1,1,1,1,1,1,1,1,0*2A
$GNACCURACY,1.9,0.2,1.0,15.3*28
$PMTKAGC,140552.000,2988,2778,5884,5882,0,3,0*6A
$PMTKAG2,140552.000,5,0118,0,0,0,0,0,0,0,0,0,0,0,0*3E
$GNGGA,140553.000,3114.4032,N,12129.9996,E,1,8,1.06,38.5,M,8.2,M,,*4B
$GPGSA,A,3,,,,,,,,,,,,,2.15,1.06,1.87*0D
$GLGSA,A,3,,,,,,,,,,,,,2.15,1.06,1.87*11
$BDGSA,A,3,06,14,08,11,02,30,13,23,,,,,2.15,1.06,1.87*15
$GPGSV,4,1,15,05,67,053,,30,61,346,,12,58,070,,29,56,284,*70
$GPGSV,4,2,15,24,50,173,,42,48,146,,02,33,049,,09,30,167,*71
$GPGSV,4,3,15,31,18,318,,21,14,200,,14,13,264,,10,10,109,*70
$GPGSV,4,4,15,193,,,,194,,,,195,,,*47
$GLGSV,3,1,9,81,48,211,,82,46,301,,67,44,312,,66,34,034,*52
$GLGSV,3,2,9,68,17,276,,77,17,136,,88,10,177,,75,07,031,*53
$GLGSV,3,3,9,83,05,335,*67
$BDGSV,3,1,12,02,56,188,34.8,14,54,074,35.7,13,49,171,35.7,06,45,207,35.8*65
$BDGSV,3,2,12,17,41,040,,01,39,129,,04,39,124,,08,38,318,35.9*7D
$BDGSV,3,3,12,23,28,130,35.5,11,22,093,35.8,30,15,279,35.7,29,03,238,*70
$GNRMC,140553.000,A,3114.4032,N,12129.9996,E,136.237,0.02,010620,,,A*47
$GNVTG,0.02,T,,M,136.237,N,252.446,K,A*20
$PMTKGEPH,0,0,0,0,0,0,0,0,0,0,0,0,0,0,0,0,0,0,0,0,0,0,0,0,0,0,0,0,0,0,0,0,0*04
$PMTKGALM,31,1,1,1,1,1,1,1,1,1,1,1,1,1,1,1,1,1,1,1,1,1,1,1,1,1,1,1,1,1,1,1,0*2A
$GNACCURACY,1.8,0.3,1.1,15.1*2B
$PMTKAGC,140553.000,2875,2700,5995,5896,0,3,0*63
$PMTKAG2,140553.000,5,0119,0,0,0,0,0,0,0,0,0,0,0,0*3E
$GNGGA,140554.000,3114.4384,N,12129.9997,E,1,8,1.06,38.6,M,8.2,M,,*40
$GPGSA,A,3,,,,,,,,,,,,,2.15,1.06,1.87*0D
$GLGSA,A,3,,,,,,,,,,,,,2.15,1.06,1.87*11
$BDGSA,A,3,06,14,08,11,02,30,13,23,,,,,2.15,1.06,1.87*15
$GPGSV,4,1,15,05,67,053,,30,61,346,,12,58,070,,29,56,284,*70
$GPGSV,4,2,15,24,50,173,,42,48,146,,02,33,049,,09,30,167,*71
$GPGSV,4,3,15,31,18,318,,21,14,200,,14,13,264,,10,10,109,*70
$GPGSV,4,4,15,193,,,,194,,,,195,,,*47
$GLGSV,3,1,9,81,48,211,,82,46,301,,67,44,312,,66,34,034,*52
$GLGSV,3,2,9,68,17,276,,77,17,136,,88,10,177,,75,07,031,*53
$GLGSV,3,3,9,83,05,335,*67
$BDGSV,3,1,12,02,56,188,34.8,14,54,074,35.7,13,49,171,35.6,06,45,207,35.8*64
$BDGSV,3,2,12,17,41,040,,01,39,129,,04,39,124,,08,38,318,35.8*7C
$BDGSV,3,3,12,23,28,130,35.5,11,22,093,35.8,30,15,279,35.7,29,03,238,*70
$GNRMC,140554.000,A,3114.4384,N,12129.9997,E,107.775,0.13,010620,,,A*4E
$GNVTG,0.13,T,,M,107.775,N,199.707,K,A*23
$PMTKGEPH,0,0,0,0,0,0,0,0,0,0,0,0,0,0,0,0,0,0,0,0,0,0,0,0,0,0,0,0,0,0,0,0,0*04
$PMTKGALM,31,1,1,1,1,1,1,1,1,1,1,1,1,1,1,1,1,1,1,1,1,1,1,1,1,1,1,1,1,1,1,1,0*2A
$GNACCURACY,1.7,0.3,1.2,15.4*22
$PMTKAGC,140554.000,2841,2895,5837,5953,0,3,0*61
$PMTKAG2,140554.000,5,0119,0,0,0,0,0,0,0,0,0,0,0,0*39
$GNGGA,140555.000,3114.4652,N,12129.9998,E,1,8,1.06,39.1,M,8.2,M,,*46
$GPGSA,A,3,,,,,,,,,,,,,2.15,1.06,1.87*0D
$GLGSA,A,3,,,,,,,,,,,,,2.15,1.06,1.87*11
$BDGSA,A,3,06,14,08,11,02,30,13,23,,,,,2.15,1.06,1.87*15
$GPGSV,4,1,15,05,67,053,,30,61,346,,12,58,070,,29,56,284,*70
$GPGSV,4,2,15,24,50,173,,42,48,146,,02,33,049,,09,30,167,*71
$GPGSV,4,3,15,31,18,318,,21,14,200,,14,13,264,,10,10,109,*70
$GPGSV,4,4,15,193,,,,194,,,,195,,,*47
$GLGSV,3,1,9,81,48,211,,82,46,301,,67,44,312,,66,34,034,*52
$GLGSV,3,2,9,68,17,276,,77,17,136,,88,10,177,,75,07,031,*53
$GLGSV,3,3,9,83,05,335,*67
$BDGSV,3,1,12,02,56,188,34.8,14,54,074,35.7,13,49,171,35.6,06,45,207,35.8*64
$BDGSV,3,2,12,17,41,040,,01,39,129,,04,39,124,,08,38,318,35.8*7C
$BDGSV,3,3,12,23,28,130,35.5,11,22,093,35.8,30,15,279,35.7,29,03,238,*70
$GNRMC,140555.000,A,3114.4652,N,12129.9998,E,79.881,359.74,010620,,,A*7C
$GNVTG,359.74,T,,M,79.881,N,148.020,K,A*1F
$PMTKGEPH,0,0,0,0,0,0,0,0,0,0,0,0,0,0,0,0,0,0,0,0,0,0,0,0,0,0,0,0,0,0,0,0,0*04
$PMTKGALM,31,1,1,1,1,1,1,1,1,1,1,1,1,1,1,1,1,1,1,1,1,1,1,1,1,1,1,1,1,1,1,1,0*2A
$GNACCURACY,1.7,0.4,1.1,14.7*24
$PMTKAGC,140555.000,2896,2871,5976,5822,0,3,0*63
$PMTKAG2,140555.000,5,0118,0,0,0,0,0,0,0,0,0,0,0,0*39
$GNGGA,140556.000,3114.4843,N,12129.9998,E,1,8,1.06,39.6,M,8.2,M,,*4C
$GPGSA,A,3,,,,,,,,,,,,,2.15,1.06,1.87*0D
$GLGSA,A,3,,,,,,,,,,,,,2.15,1.06,1.87*11
$BDGSA,A,3,06,14,08,11,02,30,13,23,,,,,2.15,1.06,1.87*15
$GPGSV,4,1,15,05,67,053,,30,61,346,,12,58,070,,29,56,284,*70
$GPGSV,4,2,15,24,50,173,,42,48,146,,02,33,049,,09,30,167,*71
$GPGSV,4,3,15,31,18,318,,21,14,200,,14,13,264,,10,10,109,*70
$GPGSV,4,4,15,193,,,,194,,,,195,,,*47
$GLGSV,3,1,9,81,48,211,,82,46,301,,67,44,312,,66,34,034,*52
$GLGSV,3,2,9,68,17,276,,77,17,136,,88,10,177,,75,07,031,*53
$GLGSV,3,3,9,83,05,335,*67
$BDGSV,3,1,12,02,56,188,34.8,14,54,074,35.7,13,49,171,35.7,06,45,207,35.9*64
$BDGSV,3,2,12,17,41,040,,01,39,129,,04,39,124,,08,38,318,35.8*7C
$BDGSV,3,3,12,23,28,130,35.5,11,22,093,35.7,30,15,279,35.7,29,03,238,*7F
$GNRMC,140556.000,A,3114.4843,N,12129.9998,E,53.978,359.89,010620,,,A*7C
$GNVTG,359.89,T,,M,53.978,N,100.021,K,A*1F
$PMTKGEPH,0,0,0,0,0,0,0,0,0,0,0,0,0,0,0,0,0,0,0,0,0,0,0,0,0,0,0,0,0,0,0,0,0*04
$PMTKGALM,31,1,1,1,1,1,1,1,1,1,1,1,1,1,1,1,1,1,1,1,1,1,1,1,1,1,1,1,1,1,1,1,0*2A
$GNACCURACY,1.7,0.7,1.2,14.7*24
$PMTKAGC,140556.000,2839,2819,5920,5996,0,3,0*66
$PMTKAG2,140556.000,5,0118,0,0,0,0,0,0,0,0,0,0,0,0*3A
$GNGGA,140557.000,3114.4959,N,12129.9999,E,1,8,1.06,40.1,M,8.2,M,,*4F
$GPGSA,A,3,,,,,,,,,,,,,2.15,1.06,1.87*0D
$GLGSA,A,3,,,,,,,,,,,,,2.15,1.06,1.87*11
$BDGSA,A,3,06,14,08,11,02,30,13,23,,,,,2.15,1.06,1.87*15
$GPGSV,4,1,15,05,67,053,,30,61,346,,12,58,070,,29,56,284,*70
$GPGSV,4,2,15,24,50,173,,42,48,146,,02,33,049,,09,30,167,*71
$GPGSV,4,3,15,31,18,318,,21,14,200,,14,13,264,,10,10,109,*70
$GPGSV,4,4,15,193,,,,194,,,,195,,,*47
$GLGSV,3,1,9,81,48,211,,82,46,301,,67,44,312,,66,34,034,*52
$GLGSV,3,2,9,68,17,276,,77,17,136,,88,10,177,,75,07,031,*53
$GLGSV,3,3,9,83,05,335,*67
$BDGSV,3,1,12,02,56,188,34.8,14,54,074,35.7,13,49,171,35.7,06,45,207,35.8*65
$BDGSV,3,2,12,17,41,040,,01,39,129,,04,39,124,,08,38,318,35.8*7C
$BDGSV,3,3,12,23,28,130,35.5,11,22,093,35.8,30,15,279,35.7,29,03,238,*70
$GNRMC,140557.000,A,3114.4959,N,12129.9999,E,27.486,0.29,010620,,,A*7C
$GNVTG,0.29,T,,M,27.486,N,50.931,K,A*29
$PMTKGEPH,0,0,0,0,0,0,0,0,0,0,0,0,0,0,0,0,0,0,0,0,0,0,0,0,0,0,0,0,0,0,0,0,0*04
$PMTKGALM,31,1,1,1,1,1,1,1,1,1,1,1,1,1,1,1,1,1,1,1,1,1,1,1,1,1,1,1,1,1,1,1,0*2A
$GNACCURACY,1.7,1.4,1.2,14.8*29
$PMTKAGC,140557.000,2847,2706,5946,5864,0,3,0*63
$PMTKAG2,140557.000,5,0118,0,0,0,0,0,0,0,0,0,0,0,0*3B
$GNGGA,140558.000,3114.5015,N,12130.0005,E,1,8,1.06,40.3,M,8.2,M,,*4F
$GPGSA,A,3,,,,,,,,,,,,,2.15,1.06,1.87*0D
$GLGSA,A,3,,,,,,,,,,,,,2.15,1.06,1.87*11
$BDGSA,A,3,06,14,08,11,02,30,13,23,,,,,2.15,1.06,1.87*15
$GPGSV,4,1,15,05,67,053,,30,61,346,,12,58,070,,29,56,284,*70
$GPGSV,4,2,15,24,50,173,,42,48,146,,02,33,049,,09,30,167,*71
$GPGSV,4,3,15,31,18,318,,21,14,200,,14,13,264,,10,10,109,*70
$GPGSV,4,4,15,193,,,,194,,,,195,,,*47
$GLGSV,3,1,9,81,48,211,,82,46,301,,67,44,312,,66,34,034,*52
$GLGSV,3,2,9,68,17,276,,77,17,136,,88,10,177,,75,07,031,*53
$GLGSV,3,3,9,83,05,335,*67
$BDGSV,3,1,12,02,56,188,34.7,14,54,074,35.7,13,49,171,35.7,06,45,208,35.8*65
$BDGSV,3,2,12,17,41,040,,01,39,129,,04,39,124,,08,38,318,35.7*73
$BDGSV,3,3,12,23,28,130,35.5,11,22,093,35.8,30,15,279,35.7,29,03,238,*70
$GNRMC,140558.000,A,3114.5015,N,12130.0005,E,14.364,13.53,010620,,,A*4A
$GNVTG,13.53,T,,M,14.364,N,26.616,K,A*16
$PMTKGEPH,0,0,0,0,0,0,0,0,0,0,0,0,0,0,0,0,0,0,0,0,0,0,0,0,0,0,0,0,0,0,0,0,0*04
$PMTKGALM,31,1,1,1,1,1,1,1,1,1,1,1,1,1,1,1,1,1,1,1,1,1,1,1,1,1,1,1,1,1,1,1,0*2A
$GNACCURACY,1.6,2.8,1.2,14.6*29
$PMTKAGC,140558.000,2786,2718,5893,6000,0,3,0*61
$PMTKAG2,140558.000,5,0119,0,0,0,0,0,0,0,0,0,0,0,0*35
$GNGGA,140559.000,3114.5051,N,12130.0027,E,1,8,1.06,40.3,M,8.2,M,,*4E
$GPGSA,A,3,,,,,,,,,,,,,2.15,1.06,1.87*0D
$GLGSA,A,3,,,,,,,,,,,,,2.15,1.06,1.87*11
$BDGSA,A,3,06,14,08,11,02,30,13,23,,,,,2.15,1.06,1.87*15
$GPGSV,4,1,15,05,67,053,,30,61,346,,12,58,070,,29,56,284,*70
$GPGSV,4,2,15,24,50,173,,42,48,146,,02,33,049,,09,30,167,*71
$GPGSV,4,3,15,31,18,318,,21,14,200,,14,13,264,,10,10,109,*70
$GPGSV,4,4,15,193,,,,194,,,,195,,,*47
$GLGSV,3,1,9,81,48,211,,82,46,301,,67,44,312,,66,34,034,*52
$GLGSV,3,2,9,68,17,276,,77,17,136,,88,10,177,,75,07,031,*53
$GLGSV,3,3,9,83,05,335,*67
$BDGSV,3,1,12,02,56,188,34.8,14,54,074,35.7,13,49,171,35.7,06,45,208,35.7*65
$BDGSV,3,2,12,17,41,040,,01,39,129,,04,39,124,,08,38,318,35.7*73
$BDGSV,3,3,12,23,28,130,35.5,11,22,093,35.8,30,15,279,35.7,29,03,238,*70
$GNRMC,140559.000,A,3114.5051,N,12130.0027,E,16.270,36.62,010620,,,A*48
$GNVTG,36.62,T,,M,16.270,N,30.148,K,A*1E
$PMTKGEPH,0,0,0,0,0,0,0,0,0,0,0,0,0,0,0,0,0,0,0,0,0,0,0,0,0,0,0,0,0,0,0,0,0*04
$PMTKGALM,31,1,1,1,1,1,1,1,1,1,1,1,1,1,1,1,1,1,1,1,1,1,1,1,1,1,1,1,1,1,1,1,0*2A
$GNACCURACY,1.6,6.9,1.8,14.6*26
$PMTKAGC,140559.000,2745,2794,5953,5866,0,3,0*6D
$PMTKAG2,140559.000,5,0119,0,0,0,0,0,0,0,0,0,0,0,0*34
$GNGGA,140600.000,3114.5077,N,12130.0068,E,1,8,1.06,40.3,M,8.2,M,,*4E
$GPGSA,A,3,,,,,,,,,,,,,2.15,1.06,1.87*0D
$GLGSA,A,3,,,,,,,,,,,,,2.15,1.06,1.87*11
$BDGSA,A,3,06,14,08,11,02,30,13,23,,,,,2.15,1.06,1.87*15
$GPGSV,4,1,15,05,67,053,,30,61,346,,12,58,070,,29,56,284,*70
$GPGSV,4,2,15,24,50,173,,42,48,146,,02,33,049,,09,30,167,*71
$GPGSV,4,3,15,31,18,318,,21,14,200,,14,13,264,,10,10,109,*70
$GPGSV,4,4,15,193,,,,194,,,,195,,,*47
$GLGSV,3,1,9,81,48,211,,82,46,301,,67,44,312,,66,34,034,*52
$GLGSV,3,2,9,68,17,276,,77,17,136,,88,10,177,,75,07,031,*53
$GLGSV,3,3,9,83,05,335,*67
$BDGSV,3,1,12,02,56,188,34.7,14,54,074,35.7,13,49,171,35.7,06,45,208,35.7*6A
$BDGSV,3,2,12,17,41,040,,08,39,318,35.7,01,39,129,,04,39,124,*72
$BDGSV,3,3,12,23,28,130,35.5,11,22,093,35.7,30,15,279,35.7,29,03,238,*7F
$GNRMC,140600.000,A,3114.5077,N,12130.0068,E,16.032,59.01,010620,,,A*40
$GNVTG,59.01,T,,M,16.032,N,29.707,K,A*13
$PMTKGEPH,0,0,0,0,0,0,0,0,0,0,0,0,0,0,0,0,0,0,0,0,0,0,0,0,0,0,0,0,0,0,0,0,0*04
$PMTKGALM,31,1,1,1,1,1,1,1,1,1,1,1,1,1,1,1,1,1,1,1,1,1,1,1,1,1,1,1,1,1,1,1,0*2A
$GNACCURACY,1.6,6.4,1.6,15.5*27
$PMTKAGC,140600.000,2912,2804,5899,5965,0,3,0*6D
$PMTKAG2,140600.000,5,0119,0,0,0,0,0,0,0,0,0,0,0,0*3B
$GNGGA,140601.000,3114.5087,N,12130.0118,E,1,8,1.06,40.6,M,8.2,M,,*43
$GPGSA,A,3,,,,,,,,,,,,,2.15,1.06,1.87*0D
$GLGSA,A,3,,,,,,,,,,,,,2.15,1.06,1.87*11
$BDGSA,A,3,06,14,08,11,02,30,13,23,,,,,2.15,1.06,1.87*15
$GPGSV,4,1,15,05,67,053,,30,61,346,,12,58,070,,29,56,284,*70
$GPGSV,4,2,15,24,50,173,,42,48,146,,02,33,049,,09,30,167,*71
$GPGSV,4,3,15,31,18,318,,21,14,200,,14,13,264,,10,10,109,*70
$GPGSV,4,4,15,193,,,,194,,,,195,,,*47
$GLGSV,3,1,9,81,48,211,,82,46,301,,67,44,312,,66,34,034,*52
$GLGSV,3,2,9,68,17,276,,77,17,136,,88,10,177,,75,07,031,*53
$GLGSV,3,3,9,83,05,335,*67
$BDGSV,3,1,12,02,56,188,34.7,14,54,074,35.7,13,49,171,35.6,06,45,208,35.7*6B
$BDGSV,3,2,12,17,41,040,,08,39,318,35.6,01,39,129,,04,39,124,*73
$BDGSV,3,3,12,23,28,130,35.5,11,22,093,35.7,30,15,279,35.7,29,03,238,*7F
$GNRMC,140601.000,A,3114.5087,N,12130.0118,E,16.592,82.98,010620,,,A*41
$GNVTG,82.98,T,,M,16.592,N,30.746,K,A*17
$PMTKGEPH,0,0,0,0,0,0,0,0,0,0,0,0,0,0,0,0,0,0,0,0,0,0,0,0,0,0,0,0,0,0,0,0,0*04
$PMTKGALM,31,1,1,1,1,1,1,1,1,1,1,1,1,1,1,1,1,1,1,1,1,1,1,1,1,1,1,1,1,1,1,1,0*2A
$GNACCURACY,1.6,6.3,1.5,14.9*2E
$PMTKAGC,140601.000,2807,2855,5977,6047,0,3,0*66
$PMTKAG2,140601.000,5,0119,0,0,0,0,0,0,0,0,0,0,0,0*3A
$GNGGA,140602.000,3114.5089,N,12130.0200,E,1,8,1.06,40.6,M,8.2,M,,*44
$GPGSA,A,3,,,,,,,,,,,,,2.15,1.06,1.87*0D
$GLGSA,A,3,,,,,,,,,,,,,2.15,1.06,1.87*11
$BDGSA,A,3,06,14,08,11,02,30,13,23,,,,,2.15,1.06,1.87*15
$GPGSV,4,1,15,05,67,053,,30,61,346,,12,58,070,,29,56,284,*70
$GPGSV,4,2,15,24,50,173,,50,45,139,,02,33,049,,09,30,167,*77
$GPGSV,4,3,15,31,18,318,,21,14,200,,14,13,264,,10,10,109,*70
$GPGSV,4,4,15,193,,,,194,,,,195,,,*47
$GLGSV,3,1,9,81,48,211,,82,46,301,,67,44,312,,66,34,034,*52
$GLGSV,3,2,9,68,17,276,,77,17,136,,88,10,177,,75,07,031,*53
$GLGSV,3,3,9,83,05,335,*67
$BDGSV,3,1,12,02,56,188,34.8,14,54,074,35.7,13,49,171,35.6,06,45,208,35.7*64
$BDGSV,3,2,12,17,41,040,,08,39,318,35.6,01,39,129,,04,39,124,*73
$BDGSV,3,3,12,23,28,130,35.5,11,22,093,35.7,30,15,279,35.7,29,03,238,*7F
$GNRMC,140602.000,A,3114.5089,N,12130.0200,E,31.452,90.20,010620,,,A*4E
$GNVTG,90.20,T,,M,31.452,N,58.280,K,A*1E
$PMTKGEPH,0,0,0,0,0,0,0,0,0,0,0,0,0,0,0,0,0,0,0,0,0,0,0,0,0,0,0,0,0,0,0,0,0*04
$PMTKGALM,31,1,1,1,1,1,1,1,1,1,1,1,1,1,1,1,1,1,1,1,1,1,1,1,1,1,1,1,1,1,1,1,0*2A
