$GPGSV,3,1,10,02,33,297,40,04,50,244,40,07,84,096,40,08,49,208,41,1*60
$GPGSV,3,2,10,13,48,033,40,20,21,122,40,23,26,058,40,25,65,041,40,1*63
$GPGSV,3,3,10,27,20,219,40,10,02,311,,1*6C
$GLGSV,2,1,06,78,00,000,40,86,00,000,41,77,00,000,40,75,00,000,40,1*7F
$GLGSV,2,2,06,88,00,000,40,87,00,000,40,1*71
$GBGSV,2,1,06,14,00,000,37,13,00,000,38,12,00,000,37,11,00,000,38,1*77
$GBGSV,2,2,06,09,36,285,39,06,00,000,38,1*74
$QL001,1626998699000,29.997922,120.000584,-0.602020,39.070,332.000,2.829,2.500,0.486,0.314
$QL002,4,4,1,0,2.000,2.000,34.490,-18.363,-0.089,0.349,0.339,0.269,18
$QL003,0.0000,0.0000,0.0000,0.0000,0.0000,0.0000,0.0000,0.0000,0.0000,0.0000
$QL004,2,1F,take_turns,line_accelerate
$GNGSA,A,3,02,04,07,08,13,20,23,25,27,,,,1.2,0.9,0.8,1*39
$GNGSA,A,3,77,86,87,88,,,,,,,,,1.2,0.9,0.8,2*31
$GNVTG,332.0,T,336.3,M,75.9,N,140.7,K,A*03
$GNDTM,P90,,0000.000022,S,00000.000001,W,0.988,W84*44
$GNRMC,000459.00,A,2959.875322,N,12000.035064,E,75.9,332.0,230721,4.3,W,A,V*79
$GNGNS,000459.00,2959.875322,N,12000.035064,E,AANNN,13,0.9,-7.6,7.0,,,V*7D
$GNGGA,000459.00,2959.875322,N,12000.035064,E,1,12,0.9,-7.6,M,7.0,M,,*62

$QL001,1626998699100,29.997953,120.000566,-0.567802,39.000,332.400,2.829,2.500,0.470,0.236
$QL002,4,4,1,0,2.000,2.000,34.578,-18.043,0.064,0.335,0.329,0.245,18
$QL003,0.0000,0.0000,0.0000,0.0000,0.0000,0.0000,0.0000,0.0000,0.0000,0.0000
$QL004,2,1F,take_turns,line_accelerate
$GNGSA,A,3,02,04,08,13,20,23,25,27,,,,,1.2,0.9,0.8,1*3E
$GNGSA,A,3,77,86,87,88,,,,,,,,,1.2,0.9,0.8,2*31
$GNVTG,332.4,T,336.7,M,75.8,N,140.4,K,A*01
$GNDTM,P90,,0000.000022,S,00000.000001,W,0.988,W84*44
$GNRMC,000459.10,A,2959.877192,N,12000.033958,E,75.8,332.4,230721,4.3,W,A,V*76
$GNGNS,000459.10,2959.877192,N,12000.033958,E,AANNN,12,0.9,-7.6,7.0,,,V*76
$GNGGA,000459.10,2959.877192,N,12000.033958,E,1,12,0.9,-7.6,M,7.0,M,,*68

$QL001,1626998699200,29.997984,120.000549,-0.455283,38.900,332.900,2.829,2.500,0.479,0.281
$QL002,4,4,1,0,2.000,2.000,34.640,-17.708,0.073,0.342,0.335,0.262,18
$QL003,0.0000,0.0000,0.0000,0.0000,0.0000,0.0000,0.0000,0.0000,0.0000,0.0000
$QL004,2,1F,take_turns,line_accelerate
$GNGSA,A,3,02,04,07,08,13,20,23,27,,,,,1.2,0.9,0.8,1*3E
$GNGSA,A,3,77,86,87,88,,,,,,,,,1.2,0.9,0.8,2*31
$GNVTG,332.9,T,337.2,M,75.6,N,140.0,K,A*02
$GNDTM,P90,,0000.000022,S,00000.000001,W,0.988,W84*44
$GNRMC,000459.20,A,2959.879012,N,12000.032916,E,75.6,332.9,230721,4.3,W,A,V*7A
$GNGNS,000459.20,2959.879012,N,12000.032916,E,AANNN,12,0.9,-7.5,7.0,,,V*7A
$GNGGA,000459.20,2959.879012,N,12000.032916,E,1,12,0.9,-7.5,M,7.0,M,,*64

$QL001,1626998699300,29.998015,120.000531,-0.507008,38.930,333.500,2.829,2.500,0.481,0.293
$QL002,4,4,1,0,2.000,2.000,34.850,-17.362,-0.136,0.344,0.336,0.262,18
$QL003,0.0000,0.0000,0.0000,0.0000,0.0000,0.0000,0.0000,0.0000,0.0000,0.0000
$QL004,2,1F,take_turns,line_accelerate
$GNGSA,A,3,02,04,07,08,13,20,23,25,27,,,,1.2,0.9,0.8,1*39
$GNGSA,A,3,77,86,87,88,,,,,,,,,1.2,0.9,0.8,2*31
$GNVTG,333.5,T,337.8,M,75.7,N,140.1,K,A*05
$GNDTM,P90,,0000.000022,S,00000.000001,W,0.988,W84*44
$GNRMC,000459.30,A,2959.880908,N,12000.031853,E,75.7,333.5,230721,4.3,W,A,V*70
$GNGNS,000459.30,2959.880908,N,12000.031853,E,AANNN,13,0.9,-7.5,7.0,,,V*7D
$GNGGA,000459.30,2959.880908,N,12000.031853,E,1,12,0.9,-7.5,M,7.0,M,,*62

$QL001,1626998699400,29.998047,120.000514,-0.538131,38.840,334.000,2.829,2.500,0.476,0.271
$QL002,4,4,1,0,2.000,2.000,34.911,-17.024,-0.201,0.339,0.334,0.253,18
$QL003,0.0000,0.0000,0.0000,0.0000,0.0000,0.0000,0.0000,0.0000,0.0000,0.0000
$QL004,2,1F,take_turns,line_accelerate
$GNGSA,A,3,02,04,07,08,13,20,23,25,27,,,,1.3,0.9,0.8,1*38
$GNGSA,A,3,77,86,87,,,,,,,,,,1.3,0.9,0.8,2*30
$GNVTG,334.0,T,338.3,M,75.5,N,139.8,K,A*06
$GNDTM,P90,,0000.000022,S,00000.000001,W,0.988,W84*44
$GNRMC,000459.40,A,2959.882795,N,12000.030810,E,75.5,334.0,230721,4.3,W,A,V*79
$GNGNS,000459.40,2959.882795,N,12000.030810,E,AANNN,12,0.9,-7.5,7.0,,,V*75
$GNGGA,000459.40,2959.882795,N,12000.030810,E,1,12,0.9,-7.5,M,7.0,M,,*6B

$QL001,1626998699500,29.998078,120.000496,-0.539723,38.820,334.200,2.829,2.500,0.451,0.095
$QL002,4,4,1,0,2.000,2.000,34.961,-16.895,-0.131,0.319,0.318,0.132,18
$QL003,0.0000,0.0000,0.0000,0.0000,0.0000,0.0000,0.0000,0.0000,0.0000,0.0000
$QL004,2,1F,take_turns,line_accelerate
$GNGSA,A,3,02,04,07,08,13,20,23,25,27,,,,1.2,0.9,0.8,1*39
$GNGSA,A,3,77,86,87,88,,,,,,,,,1.2,0.9,0.8,2*31
$GNVTG,334.2,T,338.5,M,75.5,N,139.8,K,A*02
$GNDTM,P90,,0000.000022,S,00000.000001,W,0.988,W84*44
$GNRMC,000459.50,A,2959.884684,N,12000.029759,E,75.5,334.2,230721,4.3,W,A,V*77
$GNGNS,000459.50,2959.884684,N,12000.029759,E,AANNN,13,0.9,-7.5,7.0,,,V*78
$GNGGA,000459.50,2959.884684,N,12000.029759,E,1,12,0.9,-7.5,M,7.0,M,,*67

$QL001,1626998699600,29.998110,120.000479,-0.576310,38.860,334.800,2.829,2.500,0.451,0.097
$QL002,4,4,1,0,2.000,2.000,35.154,-16.570,-0.229,0.319,0.319,0.135,18
$QL003,0.0000,0.0000,0.0000,0.0000,0.0000,0.0000,0.0000,0.0000,0.0000,0.0000
$QL004,2,1F,take_turns,line_accelerate
$GNGSA,A,3,02,04,07,08,13,20,23,25,27,,,,1.3,0.9,0.8,1*38
$GNGSA,A,3,77,86,87,,,,,,,,,,1.3,0.9,0.8,2*30
$GNVTG,334.8,T,339.1,M,75.5,N,139.9,K,A*0C
$GNDTM,P90,,0000.000022,S,00000.000001,W,0.988,W84*44
$GNRMC,000459.60,A,2959.886594,N,12000.028742,E,75.5,334.8,230721,4.3,W,A,V*75
$GNGNS,000459.60,2959.886594,N,12000.028742,E,AANNN,12,0.9,-7.6,7.0,,,V*72
$GNGGA,000459.60,2959.886594,N,12000.028742,E,1,12,0.9,-7.6,M,7.0,M,,*6C

$QL001,1626998699700,29.998142,120.000462,-0.568212,39.020,335.100,2.829,2.500,0.490,0.331
$QL002,4,4,1,0,2.000,2.000,35.397,-16.424,-0.094,0.351,0.342,0.260,18
$QL003,0.0000,0.0000,0.0000,0.0000,0.0000,0.0000,0.0000,0.0000,0.0000,0.0000
$QL004,2,1F,take_turns,line_accelerate
$GNGSA,A,3,02,04,07,08,13,20,23,25,27,,,,1.2,0.9,0.8,1*39
$GNGSA,A,3,77,86,87,88,,,,,,,,,1.2,0.9,0.8,2*31
$GNVTG,335.1,T,339.4,M,75.8,N,140.5,K,A*0E
$GNDTM,P90,,0000.000022,S,00000.000001,W,0.988,W84*44
$GNRMC,000459.70,A,2959.888520,N,12000.027720,E,75.8,335.1,230721,4.3,W,A,V*7B
$GNGNS,000459.70,2959.888520,N,12000.027720,E,AANNN,13,0.9,-7.6,7.0,,,V*78
$GNGGA,000459.70,2959.888520,N,12000.027720,E,1,12,0.9,-7.6,M,7.0,M,,*67

$QL001,1626998699800,29.998174,120.000445,-0.576661,38.990,335.500,2.829,2.500,0.481,0.293
$QL002,4,4,1,0,2.000,2.000,35.494,-16.142,-0.092,0.344,0.336,0.263,18
$QL003,0.0000,0.0000,0.0000,0.0000,0.0000,0.0000,0.0000,0.0000,0.0000,0.0000
$QL004,2,1F,take_turns,line_accelerate
$GNGSA,A,3,02,04,07,08,13,20,23,25,27,,,,1.2,0.9,0.8,1*39
$GNGSA,A,3,77,86,87,88,,,,,,,,,1.2,0.9,0.8,2*31
$GNVTG,335.5,T,339.8,M,75.8,N,140.4,K,A*07
$GNDTM,P90,,0000.000022,S,00000.000001,W,0.988,W84*44
$GNRMC,000459.80,A,2959.890441,N,12000.026729,E,75.8,335.5,230721,4.3,W,A,V*77
$GNGNS,000459.80,2959.890441,N,12000.026729,E,AANNN,13,0.9,-7.6,7.0,,,V*70
$GNGGA,000459.80,2959.890441,N,12000.026729,E,1,12,0.9,-7.6,M,7.0,M,,*6F

$QL001,1626998699900,29.998206,120.000429,-0.578646,38.950,335.900,2.829,2.500,0.451,0.098
$QL002,4,4,1,0,2.000,2.000,35.559,-15.919,-0.056,0.319,0.319,0.135,18
$QL003,0.0000,0.0000,0.0000,0.0000,0.0000,0.0000,0.0000,0.0000,0.0000,0.0000
$QL004,2,1F,take_turns,line_accelerate
$GNGSA,A,3,02,04,07,08,13,20,25,27,,,,,1.3,0.9,0.8,1*39
$GNGSA,A,3,77,86,87,88,,,,,,,,,1.3,0.9,0.8,2*30
$GNVTG,335.9,T,340.2,M,75.7,N,140.2,K,A*06
$GNDTM,P90,,0000.000022,S,00000.000001,W,0.988,W84*44
$GNRMC,000459.90,A,2959.892363,N,12000.025746,E,75.7,335.9,230721,4.3,W,A,V*7A
$GNGNS,000459.90,2959.892363,N,12000.025746,E,AANNN,12,0.9,-7.6,7.0,,,V*7F
$GNGGA,000459.90,2959.892363,N,12000.025746,E,1,12,0.9,-7.6,M,7.0,M,,*61

$GPGSV,3,1,10,02,33,297,40,04,50,244,40,07,84,096,41,08,49,208,40,1*60
$GPGSV,3,2,10,13,48,033,40,20,21,122,40,23,26,058,40,25,65,041,40,1*63
$GPGSV,3,3,10,27,20,219,40,10,02,311,,1*6C
$GLGSV,2,1,06,78,00,000,40,86,00,000,40,77,00,000,40,75,00,000,40,1*7E
$GLGSV,2,2,06,88,00,000,40,87,00,000,41,1*70
$GBGSV,2,1,06,14,00,000,37,13,00,000,38,12,00,000,38,11,00,000,38,1*78
$GBGSV,2,2,06,09,36,285,38,06,00,000,38,1*75

$QL001,1626998700000,29.998238,120.000413,-0.542776,38.840,336.500,2.829,2.500,0.491,0.336
$QL002,4,4,1,0,2.000,2.000,35.621,-15.498,0.123,0.352,0.343,0.262,18
$QL003,0.0000,0.0000,0.0000,0.0000,0.0000,0.0000,0.0000,0.0000,0.0000,0.0000
$QL004,2,1F,take_turns,line_accelerate
$GNGSA,A,3,02,04,07,08,13,20,23,25,27,,,,1.2,0.9,0.8,1*39
$GNGSA,A,3,77,86,87,88,,,,,,,,,1.2,0.9,0.8,2*31
$GNVTG,336.5,T,340.8,M,75.5,N,139.8,K,A*05
$GNDTM,P90,,0000.000022,S,00000.000001,W,0.988,W84*44
$GNRMC,000500.00,A,2959.894289,N,12000.024803,E,75.5,336.5,230721,4.3,W,A,V*7F
$GNGNS,000500.00,2959.894289,N,12000.024803,E,AANNN,13,0.9,-7.5,7.0,,,V*75
$GNGGA,000500.00,2959.894289,N,12000.024803,E,1,12,0.9,-7.5,M,7.0,M,,*6A
$QL001,1626998700100,29.998271,120.000398,-0.568561,38.900,337.100,2.829,2.500,0.484,0.305
$QL002,4,4,1,0,2.000,2.000,35.840,-15.136,-0.014,0.347,0.338,0.266,18
$QL003,0.0000,0.0000,0.0000,0.0000,0.0000,0.0000,0.0000,0.0000,0.0000,0.0000
$QL004,2,1F,take_turns,line_accelerate
$GNGSA,A,3,02,04,07,08,13,20,23,25,27,,,,1.2,0.9,0.8,1*39
$GNGSA,A,3,77,86,87,88,,,,,,,,,1.2,0.9,0.8,2*31
$GNVTG,337.1,T,341.4,M,75.6,N,140.0,K,A*08
$GNDTM,P90,,0000.000022,S,00000.000001,W,0.988,W84*44
$GNRMC,000500.10,A,2959.896239,N,12000.023881,E,75.6,337.1,230721,4.3,W,A,V*7C
$GNGNS,000500.10,2959.896239,N,12000.023881,E,AANNN,13,0.9,-7.6,7.0,,,V*73
$GNGGA,000500.10,2959.896239,N,12000.023881,E,1,12,0.9,-7.6,M,7.0,M,,*6C

$QL001,1626998700200,29.998303,120.000382,-0.562914,38.890,337.400,2.829,2.500,0.477,0.276
$QL002,4,4,1,0,2.000,2.000,35.923,-14.919,-0.050,0.341,0.334,0.254,18
$QL003,0.0000,0.0000,0.0000,0.0000,0.0000,0.0000,0.0000,0.0000,0.0000,0.0000
$QL004,2,1F,take_turns,line_accelerate
$GNGSA,A,3,02,04,07,08,13,20,23,25,27,,,,1.2,0.9,0.8,1*39
$GNGSA,A,3,77,86,87,88,,,,,,,,,1.2,0.9,0.8,2*31
$GNVTG,337.4,T,341.7,M,75.6,N,140.0,K,A*0E
$GNDTM,P90,,0000.000022,S,00000.000001,W,0.988,W84*44
$GNRMC,000500.20,A,2959.898170,N,12000.022940,E,75.6,337.4,230721,4.3,W,A,V*77
$GNGNS,000500.20,2959.898170,N,12000.022940,E,AANNN,13,0.9,-7.6,7.0,,,V*7D
$GNGGA,000500.20,2959.898170,N,12000.022940,E,1,12,0.9,-7.6,M,7.0,M,,*62

$QL001,1626998700300,29.998336,120.000367,-0.510327,39.070,337.800,2.829,2.500,0.469,0.232
$QL002,4,4,1,0,2.000,2.000,36.186,-14.750,0.152,0.334,0.329,0.226,18
$QL003,0.0000,0.0000,0.0000,0.0000,0.0000,0.0000,0.0000,0.0000,0.0000,0.0000
$QL004,2,1F,take_turns,line_accelerate
$GNGSA,A,3,02,04,07,08,13,20,23,25,27,,,,1.2,0.9,0.8,1*39
$GNGSA,A,3,77,86,87,88,,,,,,,,,1.2,0.9,0.8,2*31
$GNVTG,337.8,T,342.1,M,75.9,N,140.7,K,A*0F
$GNDTM,P90,,0000.000022,S,00000.000001,W,0.988,W84*44
$GNRMC,000500.30,A,2959.900142,N,12000.022024,E,75.9,337.8,230721,4.3,W,A,V*7F
$GNGNS,000500.30,2959.900142,N,12000.022024,E,AANNN,13,0.9,-7.5,7.0,,,V*75
$GNGGA,000500.30,2959.900142,N,12000.022024,E,1,12,0.9,-7.5,M,7.0,M,,*6A

$QL001,1626998700400,29.998368,120.000352,-0.515415,38.940,338.300,2.829,2.500,0.485,0.311
$QL002,4,4,1,0,2.000,2.000,36.188,-14.402,0.078,0.348,0.339,0.266,18
$QL003,0.0000,0.0000,0.0000,0.0000,0.0000,0.0000,0.0000,0.0000,0.0000,0.0000
$QL004,2,1F,take_turns,line_accelerate
$GNGSA,A,3,02,04,07,08,13,20,23,25,27,,,,1.2,0.9,0.8,1*39
$GNGSA,A,3,77,86,87,88,,,,,,,,,1.2,0.9,0.8,2*31
$GNVTG,338.3,T,342.6,M,75.7,N,140.2,K,A*07
$GNDTM,P90,,0000.000022,S,00000.000001,W,0.988,W84*44
$GNRMC,000500.40,A,2959.902095,N,12000.021145,E,75.7,338.3,230721,4.3,W,A,V*7E
$GNGNS,000500.40,2959.902095,N,12000.021145,E,AANNN,13,0.9,-7.5,7.0,,,V*7E
$GNGGA,000500.40,2959.902095,N,12000.021145,E,1,12,0.9,-7.5,M,7.0,M,,*61

$QL001,1626998700500,29.998401,120.000338,-0.535744,38.950,338.600,2.829,2.500,0.452,0.110
$QL002,4,4,1,0,2.000,2.000,36.262,-14.225,-0.027,0.320,0.319,0.132,18
$QL003,0.0000,0.0000,0.0000,0.0000,0.0000,0.0000,0.0000,0.0000,0.0000,0.0000
$QL004,2,1F,take_turns,line_accelerate
$GNGSA,A,3,02,04,07,08,13,23,25,27,,,,,1.4,1.2,0.8,1*37
$GNGSA,A,3,77,86,87,88,,,,,,,,,1.4,1.2,0.8,2*3D
$GNVTG,338.6,T,342.9,M,75.7,N,140.2,K,A*0D
$GNDTM,P90,,0000.000022,S,00000.000001,W,0.988,W84*44
$GNRMC,000500.50,A,2959.904057,N,12000.020262,E,75.7,338.6,230721,4.3,W,A,V*75
$GNGNS,000500.50,2959.904057,N,12000.020262,E,AANNN,12,1.2,-7.5,7.0,,,V*7B
$GNGGA,000500.50,2959.904057,N,12000.020262,E,1,12,1.2,-7.5,M,7.0,M,,*65

$QL001,1626998700600,29.998434,120.000324,-0.543865,38.820,339.300,2.829,2.500,0.499,0.366
$QL002,4,4,1,0,2.000,2.000,36.321,-13.709,-0.054,0.358,0.348,0.269,18
$QL003,0.0000,0.0000,0.0000,0.0000,0.0000,0.0000,0.0000,0.0000,0.0000,0.0000
$QL004,2,1F,take_turns,line_accelerate
$GNGSA,A,3,02,04,07,08,13,20,23,25,27,,,,1.2,0.9,0.8,1*39
$GNGSA,A,3,77,86,87,88,,,,,,,,,1.2,0.9,0.8,2*31
$GNVTG,339.3,T,343.6,M,75.5,N,139.8,K,A*01
$GNDTM,P90,,0000.000022,S,00000.000001,W,0.988,W84*44
$GNRMC,000500.60,A,2959.906021,N,12000.019438,E,75.5,339.3,230721,4.3,W,A,V*70
$GNGNS,000500.60,2959.906021,N,12000.019438,E,AANNN,13,0.9,-7.5,7.0,,,V*73
$GNGGA,000500.60,2959.906021,N,12000.019438,E,1,12,0.9,-7.5,M,7.0,M,,*6C

$QL001,1626998700700,29.998466,120.000310,-0.586601,38.730,339.600,2.829,2.500,0.479,0.282
$QL002,4,4,1,0,2.000,2.000,36.314,-13.485,-0.198,0.344,0.333,0.250,18
$QL003,0.0000,0.0000,0.0000,0.0000,0.0000,0.0000,0.0000,0.0000,0.0000,0.0000
$QL004,2,1F,take_turns,line_accelerate
$GNGSA,A,3,02,04,07,08,13,20,23,25,27,,,,1.3,0.9,0.8,1*38
$GNGSA,A,3,77,87,88,,,,,,,,,,1.3,0.9,0.8,2*3E
$GNVTG,339.6,T,343.9,M,75.3,N,139.4,K,A*01
$GNDTM,P90,,0000.000022,S,00000.000001,W,0.988,W84*44
$GNRMC,000500.70,A,2959.907980,N,12000.018606,E,75.3,339.6,230721,4.3,W,A,V*7F
$GNGNS,000500.70,2959.907980,N,12000.018606,E,AANNN,12,0.9,-7.6,7.0,,,V*7D
$GNGGA,000500.70,2959.907980,N,12000.018606,E,1,12,0.9,-7.6,M,7.0,M,,*63

$QL001,1626998700800,29.998499,120.000296,-0.561987,38.790,340.000,2.829,2.500,0.483,0.302
$QL002,4,4,1,0,2.000,2.000,36.459,-13.266,-0.037,0.346,0.337,0.265,18
$QL003,0.0000,0.0000,0.0000,0.0000,0.0000,0.0000,0.0000,0.0000,0.0000,0.0000
$QL004,2,1F,take_turns,line_accelerate
$GNGSA,A,3,02,04,07,08,13,20,23,25,27,,,,1.2,0.9,0.8,1*39
$GNGSA,A,3,77,86,87,88,,,,,,,,,1.2,0.9,0.8,2*31
$GNVTG,340.0,T,344.3,M,75.4,N,139.6,K,A*01
$GNDTM,P90,,0000.000022,S,00000.000001,W,0.988,W84*44
$GNRMC,000500.80,A,2959.909958,N,12000.017787,E,75.4,340.0,230721,4.3,W,A,V*73
$GNGNS,000500.80,2959.909958,N,12000.017787,E,AANNN,13,0.9,-7.6,7.0,,,V*7F
$GNGGA,000500.80,2959.909958,N,12000.017787,E,1,12,0.9,-7.6,M,7.0,M,,*60

$QL001,1626998700900,29.998533,120.000282,-0.629215,39.330,340.100,2.829,2.500,0.454,0.130
$QL002,4,4,1,0,2.000,2.000,36.998,-13.359,-0.245,0.322,0.321,0.133,18
$QL003,0.0000,0.0000,0.0000,0.0000,0.0000,0.0000,0.0000,0.0000,0.0000,0.0000
$QL004,2,1F,take_turns,line_accelerate
$GNGSA,A,3,04,07,08,13,23,25,27,,,,,,2.0,1.9,0.8,1*39
$GNGSA,A,3,77,86,87,88,,,,,,,,,2.0,1.9,0.8,2*31
$GNVTG,340.1,T,344.4,M,76.5,N,141.6,K,A*0A
$GNDTM,P90,,0000.000022,S,00000.000001,W,0.988,W84*44
$GNRMC,000500.90,A,2959.911998,N,12000.016934,E,76.5,340.1,230721,4.3,W,A,V*73
$GNGNS,000500.90,2959.911998,N,12000.016934,E,AANNN,11,1.9,-7.6,7.0,,,V*7F
$GNGGA,000500.90,2959.911998,N,12000.016934,E,1,11,1.9,-7.6,M,7.0,M,,*61

$GPGSV,3,1,10,02,33,297,40,04,50,244,41,07,84,096,41,08,49,208,41,1*60
$GPGSV,3,2,10,13,48,033,40,20,21,122,40,23,26,058,40,25,65,041,40,1*63
$GPGSV,3,3,10,27,20,219,40,10,02,311,,1*6C
$GLGSV,2,1,06,78,00,000,40,86,00,000,40,77,00,000,40,75,00,000,40,1*7E
$GLGSV,2,2,06,88,00,000,40,87,00,000,40,1*71
$GBGSV,2,1,06,14,00,000,37,13,00,000,38,12,00,000,37,11,00,000,37,1*78
$GBGSV,2,2,06,09,36,285,38,06,00,000,38,1*75
$QL001,1626998701000,29.998566,120.000270,-0.528868,38.960,341.100,2.829,2.500,0.451,0.100
$QL002,4,4,1,0,2.000,2.000,36.861,-12.616,0.282,0.320,0.319,0.140,18

$QL003,0.0000,0.0000,0.0000,0.0000,0.0000,0.0000,0.0000,0.0000,0.0000,0.0000
$QL004,2,1F,take_turns,line_accelerate
$GNGSA,A,3,02,04,08,13,20,25,27,,,,,,1.3,1.0,0.9,1*37
$GNGSA,A,3,77,86,87,88,,,,,,,,,1.3,1.0,0.9,2*39
$GNVTG,341.1,T,345.4,M,75.7,N,140.3,K,A*0F
$GNDTM,P90,,0000.000022,S,00000.000001,W,0.988,W84*44
$GNRMC,000501.00,A,2959.913976,N,12000.016196,E,75.7,341.1,230721,4.3,W,A,V*79
$GNGNS,000501.00,2959.913976,N,12000.016196,E,AANNN,11,1.0,-7.5,7.0,,,V*7F
$GNGGA,000501.00,2959.913976,N,12000.016196,E,1,11,1.0,-7.5,M,7.0,M,,*61
$QL001,1626998701100,29.998600,120.000257,-0.547184,39.070,341.400,2.829,2.500,0.451,0.093
$QL002,4,4,1,0,2.000,2.000,37.027,-12.489,0.078,0.319,0.318,0.130,18
$QL003,0.0000,0.0000,0.0000,0.0000,0.0000,0.0000,0.0000,0.0000,0.0000,0.0000
$QL004,2,1F,take_turns,line_accelerate
$GNGSA,A,3,02,04,07,08,13,20,23,25,27,,,,1.2,0.9,0.8,1*39
$GNGSA,A,3,77,86,87,88,,,,,,,,,1.2,0.9,0.8,2*31
$GNVTG,341.4,T,345.7,M,75.9,N,140.7,K,A*03
$GNDTM,P90,,0000.000022,S,00000.000001,W,0.988,W84*44
$GNRMC,000501.10,A,2959.915986,N,12000.015417,E,75.9,341.4,230721,4.3,W,A,V*75
$GNGNS,000501.10,2959.915986,N,12000.015417,E,AANNN,13,0.9,-7.5,7.0,,,V*72
$GNGGA,000501.10,2959.915986,N,12000.015417,E,1,12,0.9,-7.5,M,7.0,M,,*6D

$QL001,1626998701200,29.998633,120.000244,-0.573025,38.930,341.800,2.829,2.500,0.473,0.252
$QL002,4,4,1,0,2.000,2.000,36.996,-12.142,0.043,0.337,0.331,0.224,18
$QL003,0.0000,0.0000,0.0000,0.0000,0.0000,0.0000,0.0000,0.0000,0.0000,0.0000
$QL004,2,1F,take_turns,line_accelerate
$GNGSA,A,3,02,04,07,08,13,20,23,25,27,,,,1.2,0.9,0.8,1*39
$GNGSA,A,3,77,86,87,88,,,,,,,,,1.2,0.9,0.8,2*31
$GNVTG,341.8,T,346.1,M,75.7,N,140.1,K,A*02
$GNDTM,P90,,0000.000022,S,00000.000001,W,0.988,W84*44
$GNRMC,000501.20,A,2959.918003,N,12000.014654,E,75.7,341.8,230721,4.3,W,A,V*79
$GNGNS,000501.20,2959.918003,N,12000.014654,E,AANNN,13,0.9,-7.6,7.0,,,V*7F
$GNGGA,000501.20,2959.918003,N,12000.014654,E,1,12,0.9,-7.6,M,7.0,M,,*60

$QL001,1626998701300,29.998667,120.000232,-0.637759,38.890,342.300,2.829,2.500,0.451,0.100
$QL002,4,4,1,0,2.000,2.000,37.059,-11.803,-0.226,0.319,0.319,0.136,18
$QL003,0.0000,0.0000,0.0000,0.0000,0.0000,0.0000,0.0000,0.0000,0.0000,0.0000
$QL004,2,1F,take_turns,line_accelerate
$GNGSA,A,3,02,04,07,08,13,20,25,27,,,,,1.3,1.0,0.8,1*31
$GNGSA,A,3,77,86,87,,,,,,,,,,1.3,1.0,0.8,2*38
$GNVTG,342.3,T,346.6,M,75.6,N,140.0,K,A*0D
$GNDTM,P90,,0000.000022,S,00000.000001,W,0.988,W84*44
$GNRMC,000501.30,A,2959.920009,N,12000.013935,E,75.6,342.3,230721,4.3,W,A,V*7F
$GNGNS,000501.30,2959.920009,N,12000.013935,E,AANNN,11,1.0,-7.6,7.0,,,V*7A
$GNGGA,000501.30,2959.920009,N,12000.013935,E,1,11,1.0,-7.6,M,7.0,M,,*64

$QL001,1626998701400,29.998700,120.000220,-0.634904,38.970,342.700,2.829,2.500,0.506,0.389
$QL002,4,4,1,0,2.000,2.000,37.212,-11.572,-0.117,0.363,0.352,0.273,18
$QL003,0.0000,0.0000,0.0000,0.0000,0.0000,0.0000,0.0000,0.0000,0.0000,0.0000
$QL004,2,1F,take_turns,line_accelerate
$GNGSA,A,3,02,04,07,08,13,20,23,25,27,,,,1.2,0.9,0.8,1*39
$GNGSA,A,3,77,86,87,88,,,,,,,,,1.2,0.9,0.8,2*31
$GNVTG,342.7,T,347.0,M,75.8,N,140.3,K,A*03
$GNDTM,P90,,0000.000022,S,00000.000001,W,0.988,W84*44
$GNRMC,000501.40,A,2959.922029,N,12000.013221,E,75.8,342.7,230721,4.3,W,A,V*7C
$GNGNS,000501.40,2959.922029,N,12000.013221,E,AANNN,13,0.9,-7.6,7.0,,,V*79
$GNGGA,000501.40,2959.922029,N,12000.013221,E,1,12,0.9,-7.6,M,7.0,M,,*66

$QL001,1626998701500,29.998734,120.000209,-0.648704,38.910,343.000,2.829,2.500,0.479,0.282
$QL002,4,4,1,0,2.000,2.000,37.210,-11.392,-0.127,0.342,0.335,0.254,18
$QL003,0.0000,0.0000,0.0000,0.0000,0.0000,0.0000,0.0000,0.0000,0.0000,0.0000
$QL004,2,1F,take_turns,line_accelerate
$GNGSA,A,3,02,04,07,08,13,20,23,25,27,,,,1.2,0.9,0.8,1*39
$GNGSA,A,3,77,86,87,88,,,,,,,,,1.2,0.9,0.8,2*31
$GNVTG,343.0,T,347.3,M,75.6,N,140.1,K,A*0A
$GNDTM,P90,,0000.000022,S,00000.000001,W,0.988,W84*44
$GNRMC,000501.50,A,2959.924037,N,12000.012516,E,75.6,343.0,230721,4.3,W,A,V*7E
$GNGNS,000501.50,2959.924037,N,12000.012516,E,AANNN,13,0.9,-7.6,7.0,,,V*73
$GNGGA,000501.50,2959.924037,N,12000.012516,E,1,12,0.9,-7.6,M,7.0,M,,*6C

$QL001,1626998701600,29.998768,120.000197,-0.613155,38.930,343.500,2.829,2.500,0.476,0.268
$QL002,4,4,1,0,2.000,2.000,37.339,-11.045,0.039,0.341,0.331,0.242,18
$QL003,0.0000,0.0000,0.0000,0.0000,0.0000,0.0000,0.0000,0.0000,0.0000,0.0000
$QL004,2,1F,take_turns,line_accelerate
$GNGSA,A,3,02,04,07,08,13,20,23,25,27,,,,1.3,0.9,0.8,1*38
$GNGSA,A,3,77,87,88,,,,,,,,,,1.3,0.9,0.8,2*3E
$GNVTG,343.5,T,347.8,M,75.7,N,140.1,K,A*05
$GNDTM,P90,,0000.000022,S,00000.000001,W,0.988,W84*44
$GNRMC,000501.60,A,2959.926062,N,12000.011845,E,75.7,343.5,230721,4.3,W,A,V*73
$GNGNS,000501.60,2959.926062,N,12000.011845,E,AANNN,12,0.9,-7.6,7.0,,,V*7B
$GNGGA,000501.60,2959.926062,N,12000.011845,E,1,12,0.9,-7.6,M,7.0,M,,*65

$QL001,1626998701700,29.998801,120.000187,-0.636652,38.880,344.100,2.829,2.500,0.468,0.226
$QL002,4,4,1,0,2.000,2.000,37.396,-10.661,-0.059,0.334,0.328,0.233,18
$QL003,0.0000,0.0000,0.0000,0.0000,0.0000,0.0000,0.0000,0.0000,0.0000,0.0000
$QL004,2,1F,take_turns,line_accelerate
$GNGSA,A,3,02,04,08,13,20,23,25,27,,,,,1.2,0.9,0.8,1*3E
$GNGSA,A,3,77,86,87,88,,,,,,,,,1.2,0.9,0.8,2*31
$GNVTG,344.1,T,348.4,M,75.6,N,140.0,K,A*05
$GNDTM,P90,,0000.000022,S,00000.000001,W,0.988,W84*44
$GNRMC,000501.70,A,2959.928085,N,12000.011201,E,75.6,344.1,230721,4.3,W,A,V*7D
$GNGNS,000501.70,2959.928085,N,12000.011201,E,AANNN,12,0.9,-7.6,7.0,,,V*77
$GNGGA,000501.70,2959.928085,N,12000.011201,E,1,12,0.9,-7.6,M,7.0,M,,*69

$QL001,1626998701800,29.998835,120.000176,-0.626468,38.850,344.700,2.829,2.500,0.478,0.278
$QL002,4,4,1,0,2.000,2.000,37.482,-10.234,-0.008,0.341,0.334,0.249,18
$QL003,0.0000,0.0000,0.0000,0.0000,0.0000,0.0000,0.0000,0.0000,0.0000,0.0000
$QL004,2,1F,take_turns,line_accelerate
$GNGSA,A,3,02,07,08,13,20,23,25,27,,,,,1.2,0.9,0.8,1*3D
$GNGSA,A,3,77,86,87,88,,,,,,,,,1.2,0.9,0.8,2*31
$GNVTG,344.7,T,349.0,M,75.5,N,139.9,K,A*02
$GNDTM,P90,,0000.000022,S,00000.000001,W,0.988,W84*44
$GNRMC,000501.80,A,2959.930114,N,12000.010587,E,75.5,344.7,230721,4.3,W,A,V*7F
$GNGNS,000501.80,2959.930114,N,12000.010587,E,AANNN,12,0.9,-7.6,7.0,,,V*70
$GNGGA,000501.80,2959.930114,N,12000.010587,E,1,12,0.9,-7.6,M,7.0,M,,*6E

$QL001,1626998701900,29.998869,120.000166,-0.638119,38.890,344.900,2.829,2.500,0.452,0.103
$QL002,4,4,1,0,2.000,2.000,37.550,-10.136,-0.042,0.320,0.319,0.132,18
$QL003,0.0000,0.0000,0.0000,0.0000,0.0000,0.0000,0.0000,0.0000,0.0000,0.0000
$QL004,2,1F,take_turns,line_accelerate
$GNGSA,A,3,04,07,08,13,20,23,25,27,,,,,1.4,1.1,0.8,1*34
$GNGSA,A,3,77,86,87,88,,,,,,,,,1.4,1.1,0.8,2*3E
$GNVTG,344.9,T,349.2,M,75.6,N,140.0,K,A*0A
$GNDTM,P90,,0000.000022,S,00000.000001,W,0.988,W84*44
$GNRMC,000501.90,A,2959.932147,N,12000.009952,E,75.6,344.9,230721,4.3,W,A,V*7B
$GNGNS,000501.90,2959.932147,N,12000.009952,E,AANNN,12,1.1,-7.6,7.0,,,V*70
$GNGGA,000501.90,2959.932147,N,12000.009952,E,1,12,1.1,-7.6,M,7.0,M,,*6E

$GPGSV,3,1,10,02,33,297,40,04,50,244,40,07,84,096,41,08,49,208,40,1*60
$GPGSV,3,2,10,13,48,033,41,20,21,122,40,23,26,058,40,25,65,041,40,1*62
$GPGSV,3,3,10,27,20,219,40,10,02,311,,1*6C
$GLGSV,2,1,06,78,00,000,40,86,00,000,40,77,00,000,40,75,00,000,40,1*7E
$GLGSV,2,2,06,88,00,000,40,87,00,000,40,1*71
$GBGSV,2,1,06,14,00,000,38,13,00,000,37,12,00,000,38,11,00,000,38,1*78
$GBGSV,2,2,06,09,36,285,38,06,00,000,38,1*75
$QL001,1626998702000,29.998903,120.000156,-0.677922,38.920,345.500,2.829,2.500,0.491,0.333
$QL002,4,4,1,0,2.000,2.000,37.690,-9.746,-0.197,0.351,0.343,0.256,18
$QL003,0.0000,0.0000,0.0000,0.0000,0.0000,0.0000,0.0000,0.0000,0.0000,0.0000
$QL004,2,1F,take_turns,line_accelerate
$GNGSA,A,3,02,04,07,08,13,20,23,25,27,,,,1.2,0.9,0.8,1*39
$GNGSA,A,3,77,86,87,88,,,,,,,,,1.2,0.9,0.8,2*31
$GNVTG,345.5,T,349.8,M,75.7,N,140.1,K,A*0D
$GNDTM,P90,,0000.000022,S,00000.000001,W,0.988,W84*44
$GNRMC,000502.00,A,2959.934192,N,12000.009364,E,75.7,345.5,230721,4.3,W,A,V*7C
$GNGNS,000502.00,2959.934192,N,12000.009364,E,AANNN,13,0.9,-7.7,7.0,,,V*72
$GNGGA,000502.00,2959.934192,N,12000.009364,E,1,12,0.9,-7.7,M,7.0,M,,*6D

$QL001,1626998702100,29.998937,120.000146,-0.595254,39.030,345.900,2.829,2.500,0.451,0.098
$QL002,4,4,1,0,2.000,2.000,37.861,-9.518,0.192,0.320,0.318,0.131,18
$QL003,0.0000,0.0000,0.0000,0.0000,0.0000,0.0000,0.0000,0.0000,0.0000,0.0000
$QL004,2,1F,take_turns,line_accelerate
$GNGSA,A,3,02,04,07,08,13,20,23,25,27,,,,1.3,0.9,0.8,1*38
$GNGSA,A,3,77,87,88,,,,,,,,,,1.3,0.9,0.8,2*3E
$GNVTG,345.9,T,350.2,M,75.9,N,140.5,K,A*09
$GNDTM,P90,,0000.000022,S,00000.000001,W,0.988,W84*44
$GNRMC,000502.10,A,2959.936248,N,12000.008778,E,75.9,345.9,230721,4.3,W,A,V*71
$GNGNS,000502.10,2959.936248,N,12000.008778,E,AANNN,12,0.9,-7.6,7.0,,,V*7D
$GNGGA,000502.10,2959.936248,N,12000.008778,E,1,12,0.9,-7.6,M,7.0,M,,*63

$QL001,1626998702200,29.998971,120.000138,-0.552391,38.970,346.200,2.829,2.500,0.488,0.322
$QL002,4,4,1,0,2.000,2.000,37.847,-9.300,0.296,0.349,0.341,0.256,18
$QL003,0.0000,0.0000,0.0000,0.0000,0.0000,0.0000,0.0000,0.0000,0.0000,0.0000
$QL004,2,1F,take_turns,line_accelerate
$GNGSA,A,3,02,04,07,08,13,20,23,25,27,,,,1.2,0.9,0.8,1*39
$GNGSA,A,3,77,86,87,88,,,,,,,,,1.2,0.9,0.8,2*31
$GNVTG,346.2,T,350.5,M,75.8,N,140.3,K,A*01
$GNDTM,P90,,0000.000022,S,00000.000001,W,0.988,W84*44
$GNRMC,000502.20,A,2959.938258,N,12000.008256,E,75.8,346.2,230721,4.3,W,A,V*7D
$GNGNS,000502.20,2959.938258,N,12000.008256,E,AANNN,13,0.9,-7.6,7.0,,,V*79
$GNGGA,000502.20,2959.938258,N,12000.008256,E,1,12,0.9,-7.6,M,7.0,M,,*66

$QL001,1626998702300,29.999005,120.000129,-0.550190,38.920,346.900,2.829,2.500,0.467,0.224
$QL002,4,4,1,0,2.000,2.000,37.915,-8.818,0.200,0.333,0.328,0.224,18
$QL003,0.0000,0.0000,0.0000,0.0000,0.0000,0.0000,0.0000,0.0000,0.0000,0.0000
$QL004,2,1F,take_turns,line_accelerate
$GNGSA,A,3,02,04,07,08,13,20,23,27,,,,,1.2,0.9,0.8,1*3E
$GNGSA,A,3,77,86,87,88,,,,,,,,,1.2,0.9,0.8,2*31
$GNVTG,346.9,T,351.2,M,75.7,N,140.1,K,A*01
$GNDTM,P90,,0000.000022,S,00000.000001,W,0.988,W84*44
$GNRMC,000502.30,A,2959.940310,N,12000.007735,E,75.7,346.9,230721,4.3,W,A,V*75
$GNGNS,000502.30,2959.940310,N,12000.007735,E,AANNN,12,0.9,-7.6,7.0,,,V*74
$GNGGA,000502.30,2959.940310,N,12000.007735,E,1,12,0.9,-7.6,M,7.0,M,,*6A

$QL001,1626998702400,29.999039,120.000120,-0.531383,38.920,346.900,2.829,2.500,0.626,0.723
$QL002,4,4,1,0,2.000,2.000,37.919,-8.801,0.197,0.445,0.440,0.366,18
$QL003,0.0000,0.0000,0.0000,0.0000,0.0000,0.0000,0.0000,0.0000,0.0000,0.0000
$QL004,2,1F,take_turns,line_accelerate
$GNGSA,A,3,02,04,08,13,23,25,27,,,,,,1.5,1.2,0.8,1*31
$GNGSA,A,3,77,86,87,88,,,,,,,,,1.5,1.2,0.8,2*3C
$GNVTG,346.9,T,351.2,M,75.7,N,140.1,K,A*01
$GNDTM,P90,,0000.000022,S,00000.000001,W,0.988,W84*44
$GNRMC,000502.40,A,2959.942359,N,12000.007176,E,75.7,346.9,230721,4.3,W,A,V*7C
$GNGNS,000502.40,2959.942359,N,12000.007176,E,AANNN,11,1.2,-7.5,7.0,,,V*77
$GNGGA,000502.40,2959.942359,N,12000.007176,E,1,11,1.2,-7.5,M,7.0,M,,*69

$QL001,1626998702500,29.999074,120.000111,-0.581147,38.880,347.500,2.829,2.500,0.486,0.315
$QL002,4,4,1,0,2.000,2.000,37.974,-8.390,-0.033,0.348,0.339,0.283,18
$QL003,0.0000,0.0000,0.0000,0.0000,0.0000,0.0000,0.0000,0.0000,0.0000,0.0000
$QL004,2,1F,take_turns,line_accelerate
$GNGSA,A,3,02,04,07,08,13,20,23,25,27,,,,1.2,0.9,0.8,1*39
$GNGSA,A,3,77,86,87,88,,,,,,,,,1.2,0.9,0.8,2*31
$GNVTG,347.5,T,351.8,M,75.6,N,140.0,K,A*06
$GNDTM,P90,,0000.000022,S,00000.000001,W,0.988,W84*44
$GNRMC,000502.50,A,2959.944415,N,12000.006686,E,75.6,347.5,230721,4.3,W,A,V*71
$GNGNS,000502.50,2959.944415,N,12000.006686,E,AANNN,13,0.9,-7.6,7.0,,,V*7D
$GNGGA,000502.50,2959.944415,N,12000.006686,E,1,12,0.9,-7.6,M,7.0,M,,*62

$QL001,1626998702600,29.999108,120.000103,-0.531325,38.910,348.000,2.829,2.500,0.451,0.096
$QL002,4,4,1,0,2.000,2.000,38.073,-8.074,0.137,0.319,0.318,0.133,18
$QL003,0.0000,0.0000,0.0000,0.0000,0.0000,0.0000,0.0000,0.0000,0.0000,0.0000
$QL004,2,1F,take_turns,line_accelerate
$GNGSA,A,3,02,07,08,13,20,23,25,27,,,,,1.2,0.9,0.8,1*3D
$GNGSA,A,3,77,86,87,88,,,,,,,,,1.2,0.9,0.8,2*31
$GNVTG,348.0,T,352.3,M,75.6,N,140.1,K,A*05
$GNDTM,P90,,0000.000022,S,00000.000001,W,0.988,W84*44
$GNRMC,000502.60,A,2959.946477,N,12000.006199,E,75.6,348.0,230721,4.3,W,A,V*77
$GNGNS,000502.60,2959.946477,N,12000.006199,E,AANNN,12,0.9,-7.5,7.0,,,V*73
$GNGGA,000502.60,2959.946477,N,12000.006199,E,1,12,0.9,-7.5,M,7.0,M,,*6D

$QL001,1626998702700,29.999142,120.000095,-0.558484,38.840,348.500,2.829,2.500,0.488,0.324
$QL002,4,4,1,0,2.000,2.000,38.057,-7.766,-0.036,0.349,0.341,0.255,18
$QL003,0.0000,0.0000,0.0000,0.0000,0.0000,0.0000,0.0000,0.0000,0.0000,0.0000
$QL004,2,1F,take_turns,line_accelerate
$GNGSA,A,3,02,04,07,08,13,20,23,25,27,,,,1.2,0.9,0.8,1*39
$GNGSA,A,3,77,86,87,88,,,,,,,,,1.2,0.9,0.8,2*31
$GNVTG,348.5,T,352.8,M,75.5,N,139.8,K,A*0F
$GNDTM,P90,,0000.000022,S,00000.000001,W,0.988,W84*44
$GNRMC,000502.70,A,2959.948532,N,12000.005726,E,75.5,348.5,230721,4.3,W,A,V*7F
$GNGNS,000502.70,2959.948532,N,12000.005726,E,AANNN,13,0.9,-7.6,7.0,,,V*7F
$GNGGA,000502.70,2959.948532,N,12000.005726,E,1,12,0.9,-7.6,M,7.0,M,,*60

$QL001,1626998702800,29.999177,120.000088,-0.533170,38.860,349.100,2.829,2.500,0.452,0.104
$QL002,4,4,1,0,2.000,2.000,38.159,-7.363,0.071,0.320,0.319,0.133,18
$QL003,0.0000,0.0000,0.0000,0.0000,0.0000,0.0000,0.0000,0.0000,0.0000,0.0000
$QL004,2,1F,take_turns,line_accelerate
$GNGSA,A,3,04,07,08,13,20,23,25,27,,,,,1.4,1.1,0.8,1*34
$GNGSA,A,3,77,86,87,88,,,,,,,,,1.4,1.1,0.8,2*3E
$GNVTG,349.1,T,353.4,M,75.5,N,139.9,K,A*06
$GNDTM,P90,,0000.000022,S,00000.000001,W,0.988,W84*44
$GNRMC,000502.80,A,2959.950600,N,12000.005290,E,75.5,349.1,230721,4.3,W,A,V*76
$GNGNS,000502.80,2959.950600,N,12000.005290,E,AANNN,12,1.1,-7.5,7.0,,,V*78
$GNGGA,000502.80,2959.950600,N,12000.005290,E,1,12,1.1,-7.5,M,7.0,M,,*66

$QL001,1626998702900,29.999211,120.000081,-0.575082,39.060,349.300,2.829,2.500,0.452,0.107
$QL002,4,4,1,0,2.000,2.000,38.381,-7.257,-0.135,0.320,0.319,0.135,18
$QL003,0.0000,0.0000,0.0000,0.0000,0.0000,0.0000,0.0000,0.0000,0.0000,0.0000
$QL004,2,1F,take_turns,line_accelerate
$GNGSA,A,3,04,07,13,20,23,25,27,,,,,,1.4,1.2,0.8,1*3F
$GNGSA,A,3,77,86,87,88,,,,,,,,,1.4,1.2,0.8,2*3D
$GNVTG,349.3,T,353.6,M,75.9,N,140.6,K,A*0B
$GNDTM,P90,,0000.000022,S,00000.000001,W,0.988,W84*44
$GNRMC,000502.90,A,2959.952689,N,12000.004833,E,75.9,349.3,230721,4.3,W,A,V*78
$GNGNS,000502.90,2959.952689,N,12000.004833,E,AANNN,11,1.2,-7.6,7.0,,,V*7B
$GNGGA,000502.90,2959.952689,N,12000.004833,E,1,11,1.2,-7.6,M,7.0,M,,*65

$GPGSV,3,1,10,02,33,297,40,04,50,244,41,07,84,096,41,08,49,208,40,1*61
$GPGSV,3,2,10,13,48,033,40,20,21,122,40,23,26,058,40,25,65,041,40,1*63
$GPGSV,3,3,10,27,20,219,40,10,02,311,,1*6C
$GLGSV,2,1,06,78,00,000,40,86,00,000,40,77,00,000,41,75,00,000,40,1*7F
$GLGSV,2,2,06,88,00,000,41,87,00,000,39,1*7E
$GBGSV,2,1,06,14,00,000,38,13,00,000,38,12,00,000,38,11,00,000,38,1*77
$GBGSV,2,2,06,09,36,285,38,06,00,000,38,1*75

$QL001,1626998703000,29.999246,120.000074,-0.536581,39.040,349.900,2.829,2.500,0.473,0.255
$QL002,4,4,1,0,2.000,2.000,38.434,-6.875,0.091,0.338,0.332,0.229,18
$QL003,0.0000,0.0000,0.0000,0.0000,0.0000,0.0000,0.0000,0.0000,0.0000,0.0000
$QL004,2,1F,take_turns,line_accelerate
$GNGSA,A,3,02,04,07,08,13,20,23,25,27,,,,1.2,0.9,0.8,1*39
$GNGSA,A,3,77,86,87,88,,,,,,,,,1.2,0.9,0.8,2*31
$GNVTG,349.9,T,354.2,M,75.9,N,140.5,K,A*01
$GNDTM,P90,,0000.000022,S,00000.000001,W,0.988,W84*44
$GNRMC,000503.00,A,2959.954768,N,12000.004422,E,75.9,349.9,230721,4.3,W,A,V*7E
$GNGNS,000503.00,2959.954768,N,12000.004422,E,AANNN,13,0.9,-7.5,7.0,,,V*7C
$GNGGA,000503.00,2959.954768,N,12000.004422,E,1,12,0.9,-7.5,M,7.0,M,,*63
$QL001,1626998703100,29.999280,120.000067,-0.511284,38.790,350.400,2.829,2.500,0.474,0.261
$QL002,4,4,1,0,2.000,2.000,38.259,-6.441,0.150,0.339,0.332,0.238,18
$QL003,0.0000,0.0000,0.0000,0.0000,0.0000,0.0000,0.0000,0.0000,0.0000,0.0000
$QL004,2,1F,take_turns,line_accelerate
$GNGSA,A,3,02,04,07,08,13,20,23,25,27,,,,1.2,0.9,0.8,1*39
$GNGSA,A,3,77,86,87,88,,,,,,,,,1.2,0.9,0.8,2*31
$GNVTG,350.4,T,354.7,M,75.4,N,139.6,K,A*01
$GNDTM,P90,,0000.000022,S,00000.000001,W,0.988,W84*44
$GNRMC,000503.10,A,2959.956821,N,12000.004045,E,75.4,350.4,230721,4.3,W,A,V*72
$GNGNS,000503.10,2959.956821,N,12000.004045,E,AANNN,13,0.9,-7.5,7.0,,,V*78
$GNGGA,000503.10,2959.956821,N,12000.004045,E,1,12,0.9,-7.5,M,7.0,M,,*67

$QL001,1626998703200,29.999315,120.000061,-0.346220,38.880,350.600,2.829,2.500,0.497,0.358
$QL002,4,4,1,0,2.000,2.000,38.363,-6.333,0.039,0.357,0.346,0.292,18
$QL003,0.0000,0.0000,0.0000,0.0000,0.0000,0.0000,0.0000,0.0000,0.0000,0.0000
$QL004,2,1F,take_turns,line_accelerate
$GNGSA,A,3,02,07,08,13,20,23,25,27,,,,,1.2,0.9,0.8,1*3D
$GNGSA,A,3,77,86,87,88,,,,,,,,,1.2,0.9,0.8,2*31
$GNVTG,350.6,T,354.9,M,75.6,N,140.0,K,A*07
$GNDTM,P90,,0000.000022,S,00000.000001,W,0.988,W84*44
$GNRMC,000503.20,A,2959.958891,N,12000.003671,E,75.6,350.6,230721,4.3,W,A,V*72
$GNGNS,000503.20,2959.958891,N,12000.003671,E,AANNN,12,0.9,-7.3,7.0,,,V*7F
$GNGGA,000503.20,2959.958891,N,12000.003671,E,1,12,0.9,-7.3,M,7.0,M,,*61

$QL001,1626998703300,29.999349,120.000055,-0.291311,38.830,351.200,2.829,2.500,0.451,0.096
$QL002,4,4,1,0,2.000,2.000,38.380,-5.914,0.214,0.319,0.318,0.133,18
$QL003,0.0000,0.0000,0.0000,0.0000,0.0000,0.0000,0.0000,0.0000,0.0000,0.0000
$QL004,2,1F,take_turns,line_accelerate
$GNGSA,A,3,02,04,07,08,13,20,23,25,27,,,,1.2,0.9,0.8,1*39
$GNGSA,A,3,77,86,87,88,,,,,,,,,1.2,0.9,0.8,2*31
$GNVTG,351.2,T,355.5,M,75.5,N,139.8,K,A*0A
$GNDTM,P90,,0000.000022,S,00000.000001,W,0.988,W84*44
$GNRMC,000503.30,A,2959.960965,N,12000.003326,E,75.5,351.2,230721,4.3,W,A,V*73
$GNGNS,000503.30,2959.960965,N,12000.003326,E,AANNN,13,0.9,-7.3,7.0,,,V*79
$GNGGA,000503.30,2959.960965,N,12000.003326,E,1,12,0.9,-7.3,M,7.0,M,,*66

$QL001,1626998703400,29.999385,120.000050,-0.301714,39.090,351.700,2.829,2.500,0.466,0.215
$QL002,4,4,1,0,2.000,2.000,38.680,-5.646,0.080,0.332,0.327,0.209,18
$QL003,0.0000,0.0000,0.0000,0.0000,0.0000,0.0000,0.0000,0.0000,0.0000,0.0000
$QL004,2,1F,take_turns,line_accelerate
$GNGSA,A,3,02,04,07,08,13,20,23,25,27,,,,1.2,0.9,0.8,1*39
$GNGSA,A,3,77,86,87,88,,,,,,,,,1.2,0.9,0.8,2*31
$GNVTG,351.7,T,356.0,M,76.0,N,140.7,K,A*0E
$GNDTM,P90,,0000.000022,S,00000.000001,W,0.988,W84*44
$GNRMC,000503.40,A,2959.963076,N,12000.002983,E,76.0,351.7,230721,4.3,W,A,V*7B
$GNGNS,000503.40,2959.963076,N,12000.002983,E,AANNN,13,0.9,-7.3,7.0,,,V*72
$GNGGA,000503.40,2959.963076,N,12000.002983,E,1,12,0.9,-7.3,M,7.0,M,,*6D

$QL001,1626998703500,29.999419,120.000044,-0.315862,38.870,352.100,2.829,2.500,0.470,0.237
$QL002,4,4,1,0,2.000,2.000,38.510,-5.325,-0.011,0.335,0.329,0.225,18
$QL003,0.0000,0.0000,0.0000,0.0000,0.0000,0.0000,0.0000,0.0000,0.0000,0.0000
$QL004,2,1F,take_turns,line_accelerate
$GNGSA,A,3,02,04,07,08,13,20,23,25,27,,,,1.2,0.9,0.8,1*39
$GNGSA,A,3,77,86,87,88,,,,,,,,,1.2,0.9,0.8,2*31
$GNVTG,352.1,T,356.4,M,75.6,N,139.9,K,A*0A
$GNDTM,P90,,0000.000022,S,00000.000001,W,0.988,W84*44
$GNRMC,000503.50,A,2959.965145,N,12000.002664,E,75.6,352.1,230721,4.3,W,A,V*7B
$GNGNS,000503.50,2959.965145,N,12000.002664,E,AANNN,13,0.9,-7.3,7.0,,,V*72
$GNGGA,000503.50,2959.965145,N,12000.002664,E,1,12,0.9,-7.3,M,7.0,M,,*6D

$QL001,1626998703600,29.999454,120.000039,-0.317202,38.880,352.200,2.829,2.500,0.628,0.728
$QL002,4,4,1,0,2.000,2.000,38.522,-5.299,-0.011,0.447,0.441,0.368,18
$QL003,0.0000,0.0000,0.0000,0.0000,0.0000,0.0000,0.0000,0.0000,0.0000,0.0000
$QL004,2,1F,take_turns,line_accelerate
$GNGSA,A,3,02,04,07,13,20,23,25,27,,,,,1.3,1.0,0.8,1*38
$GNGSA,A,3,77,86,87,,,,,,,,,,1.3,1.0,0.8,2*38
$GNVTG,352.2,T,356.5,M,75.6,N,140.0,K,A*0F
$GNDTM,P90,,0000.000022,S,00000.000001,W,0.988,W84*44
$GNRMC,000503.60,A,2959.967227,N,12000.002323,E,75.6,352.2,230721,4.3,W,A,V*78
$GNGNS,000503.60,2959.967227,N,12000.002323,E,AANNN,11,1.0,-7.3,7.0,,,V*78
$GNGGA,000503.60,2959.967227,N,12000.002323,E,1,11,1.0,-7.3,M,7.0,M,,*66

$QL001,1626998703700,29.999489,120.000033,-0.317019,38.890,352.200,2.829,2.500,0.733,0.959
$QL002,4,4,1,0,2.001,2.001,38.541,-5.251,-0.007,0.522,0.514,0.451,18
$QL003,0.0000,0.0000,0.0000,0.0000,0.0000,0.0000,0.0000,0.0000,0.0000,0.0000
$QL004,2,1F,take_turns,line_accelerate
$GNGSA,A,3,02,08,13,20,23,25,27,,,,,,1.3,0.9,0.9,1*3A
$GNGSA,A,3,77,86,87,88,,,,,,,,,1.3,0.9,0.9,2*31
$GNVTG,352.2,T,356.5,M,75.6,N,140.0,K,A*0F
$GNDTM,P90,,0000.000022,S,00000.000001,W,0.988,W84*44
$GNRMC,000503.70,A,2959.969312,N,12000.001988,E,75.6,352.2,230721,4.3,W,A,V*78
$GNGNS,000503.70,2959.969312,N,12000.001988,E,AANNN,11,0.9,-7.3,7.0,,,V*70
$GNGGA,000503.70,2959.969312,N,12000.001988,E,1,11,0.9,-7.3,M,7.0,M,,*6E

$QL001,1626998703800,29.999524,120.000030,-0.341072,39.030,353.300,2.829,2.500,0.504,0.384
$QL002,4,4,1,0,2.000,2.000,38.767,-4.556,-0.081,0.364,0.349,0.333,18
$QL003,0.0000,0.0000,0.0000,0.0000,0.0000,0.0000,0.0000,0.0000,0.0000,0.0000
$QL004,2,1F,take_turns,line_accelerate
$GNGSA,A,3,02,04,07,08,13,20,23,25,27,,,,1.2,0.9,0.8,1*39
$GNGSA,A,3,77,86,87,88,,,,,,,,,1.2,0.9,0.8,2*31
$GNVTG,353.3,T,357.6,M,75.9,N,140.5,K,A*07
$GNDTM,P90,,0000.000022,S,00000.000001,W,0.988,W84*44
$GNRMC,000503.80,A,2959.971434,N,12000.001788,E,75.9,353.3,230721,4.3,W,A,V*7C
$GNGNS,000503.80,2959.971434,N,12000.001788,E,AANNN,13,0.9,-7.3,7.0,,,V*79
$GNGGA,000503.80,2959.971434,N,12000.001788,E,1,12,0.9,-7.3,M,7.0,M,,*66

$QL001,1626998703900,29.999559,120.000026,-0.322091,38.980,353.800,2.829,2.500,0.489,0.325
$QL002,4,4,1,0,2.000,2.000,38.761,-4.191,0.001,0.350,0.341,0.290,18
$QL003,0.0000,0.0000,0.0000,0.0000,0.0000,0.0000,0.0000,0.0000,0.0000,0.0000
$QL004,2,1F,take_turns,line_accelerate
$GNGSA,A,3,02,04,07,08,13,20,23,25,27,,,,1.2,0.9,0.8,1*39
$GNGSA,A,3,77,86,87,88,,,,,,,,,1.2,0.9,0.8,2*31
$GNVTG,353.8,T,358.1,M,75.8,N,140.3,K,A*03
$GNDTM,P90,,0000.000022,S,00000.000001,W,0.988,W84*44
$GNRMC,000503.90,A,2959.973526,N,12000.001550,E,75.8,353.8,230721,4.3,W,A,V*70
$GNGNS,000503.90,2959.973526,N,12000.001550,E,AANNN,13,0.9,-7.3,7.0,,,V*7F
$GNGGA,000503.90,2959.973526,N,12000.001550,E,1,12,0.9,-7.3,M,7.0,M,,*60

$GPGSV,3,1,10,02,33,297,40,04,50,244,41,07,84,096,40,08,49,208,40,1*60
$GPGSV,3,2,10,13,48,033,40,20,21,122,39,23,26,058,40,25,65,041,41,1*6C
$GPGSV,3,3,10,27,20,219,40,10,02,311,,1*6C
$GLGSV,2,1,06,78,00,000,40,86,00,000,40,77,00,000,41,75,00,000,41,1*7E
$GLGSV,2,2,06,88,00,000,40,87,00,000,41,1*70
$GBGSV,2,1,06,14,00,000,37,13,00,000,38,12,00,000,37,11,00,000,38,1*77
$GBGSV,2,2,06,09,36,285,38,06,00,000,38,1*75
$QL001,1626998704000,29.999594,120.000023,-0.319373,38.920,354.600,2.829,2.500,0.451,0.095
$QL002,4,4,1,0,2.000,2.000,38.749,-3.672,0.001,0.319,0.318,0.131,18
$QL003,0.0000,0.0000,0.0000,0.0000,0.0000,0.0000,0.0000,0.0000,0.0000,0.0000
$QL004,2,1F,take_turns,line_accelerate
$GNGSA,A,3,02,04,07,08,13,20,23,25,27,,,,1.2,0.9,0.8,1*39
$GNGSA,A,3,77,86,87,88,,,,,,,,,1.2,0.9,0.8,2*31
$GNVTG,354.6,T,358.9,M,75.7,N,140.1,K,A*0F
$GNDTM,P90,,0000.000022,S,00000.000001,W,0.988,W84*44
$GNRMC,000504.00,A,2959.975617,N,12000.001354,E,75.7,354.6,230721,4.3,W,A,V*7D
$GNGNS,000504.00,2959.975617,N,12000.001354,E,AANNN,13,0.9,-7.3,7.0,,,V*74
$GNGGA,000504.00,2959.975617,N,12000.001354,E,1,12,0.9,-7.3,M,7.0,M,,*6B

$QL001,1626998704100,29.999629,120.000019,-0.323231,39.010,354.600,2.829,2.500,0.503,0.379
$QL002,4,4,1,0,2.000,2.000,38.843,-3.648,-0.015,0.361,0.351,0.273,18
$QL003,0.0000,0.0000,0.0000,0.0000,0.0000,0.0000,0.0000,0.0000,0.0000,0.0000
$QL004,2,1F,take_turns,line_accelerate
$GNGSA,A,3,02,04,07,08,13,20,23,25,27,,,,1.2,0.9,0.8,1*39
$GNGSA,A,3,77,86,87,88,,,,,,,,,1.2,0.9,0.8,2*31
$GNVTG,354.6,T,358.9,M,75.8,N,140.4,K,A*05
$GNDTM,P90,,0000.000022,S,00000.000001,W,0.988,W84*44
$GNRMC,000504.10,A,2959.977723,N,12000.001115,E,75.8,354.6,230721,4.3,W,A,V*70
$GNGNS,000504.10,2959.977723,N,12000.001115,E,AANNN,13,0.9,-7.3,7.0,,,V*76
$GNGGA,000504.10,2959.977723,N,12000.001115,E,1,12,0.9,-7.3,M,7.0,M,,*69

$QL001,1626998704200,29.999663,120.000016,-0.263340,38.790,355.300,2.829,2.500,0.468,0.229
$QL002,4,4,1,0,2.000,2.000,38.667,-3.196,-0.120,0.334,0.328,0.227,18
$QL003,0.0000,0.0000,0.0000,0.0000,0.0000,0.0000,0.0000,0.0000,0.0000,0.0000
$QL004,2,1F,take_turns,line_accelerate
$GNGSA,A,3,02,04,07,08,13,20,23,25,27,,,,1.2,0.9,0.8,1*39
$GNGSA,A,3,77,86,88,,,,,,,,,,1.2,0.9,0.8,2*3E
$GNVTG,355.3,T,359.6,M,75.4,N,139.6,K,A*0F
$GNDTM,P90,,0000.000022,S,00000.000001,W,0.988,W84*44
$GNRMC,000504.20,A,2959.979762,N,12000.000979,E,75.4,355.3,230721,4.3,W,A,V*73
$GNGNS,000504.20,2959.979762,N,12000.000979,E,AANNN,12,0.9,-7.3,7.0,,,V*7C
$GNGGA,000504.20,2959.979762,N,12000.000979,E,1,12,0.9,-7.3,M,7.0,M,,*62

$QL001,1626998704300,29.999698,120.000013,-0.307769,39.040,355.600,2.829,2.500,0.498,0.361
$QL002,4,4,1,0,2.000,2.000,38.930,-2.962,-0.232,0.357,0.347,0.288,18
$QL003,0.0000,0.0000,0.0000,0.0000,0.0000,0.0000,0.0000,0.0000,0.0000,0.0000
$QL004,2,1F,take_turns,line_accelerate
$GNGSA,A,3,02,04,07,08,13,20,23,25,27,,,,1.2,0.9,0.8,1*39
$GNGSA,A,3,77,86,87,88,,,,,,,,,1.2,0.9,0.8,2*31
$GNVTG,355.6,T,359.9,M,75.9,N,140.5,K,A*05
$GNDTM,P90,,0000.000022,S,00000.000001,W,0.988,W84*44
$GNRMC,000504.30,A,2959.981887,N,12000.000799,E,75.9,355.6,230721,4.3,W,A,V*79
$GNGNS,000504.30,2959.981887,N,12000.000799,E,AANNN,13,0.9,-7.3,7.0,,,V*7F
$GNGGA,000504.30,2959.981887,N,12000.000799,E,1,12,0.9,-7.3,M,7.0,M,,*60

$QL001,1626998704400,29.999733,120.000010,-0.231925,38.960,355.900,2.829,2.500,0.473,0.255
$QL002,4,4,1,0,2.000,2.000,38.863,-2.797,0.095,0.338,0.331,0.243,18
$QL003,0.0000,0.0000,0.0000,0.0000,0.0000,0.0000,0.0000,0.0000,0.0000,0.0000
$QL004,2,1F,take_turns,line_accelerate
$GNGSA,A,3,02,04,07,08,13,20,23,25,27,,,,1.2,0.9,0.8,1*39
$GNGSA,A,3,77,86,87,88,,,,,,,,,1.2,0.9,0.8,2*31
$GNVTG,355.9,T,0.2,M,75.7,N,140.3,K,A*06
$GNDTM,P90,,0000.000022,S,00000.000001,W,0.988,W84*44
$GNRMC,000504.40,A,2959.983981,N,12000.000626,E,75.7,355.9,230721,4.3,W,A,V*7F
$GNGNS,000504.40,2959.983981,N,12000.000626,E,AANNN,13,0.9,-7.2,7.0,,,V*79
$GNGGA,000504.40,2959.983981,N,12000.000626,E,1,12,0.9,-7.2,M,7.0,M,,*66

$QL001,1626998704500,29.999768,120.000008,-0.256248,38.880,356.400,2.829,2.500,0.451,0.096
$QL002,4,4,1,0,2.000,2.000,38.814,-2.436,-0.026,0.319,0.318,0.133,18
$QL003,0.0000,0.0000,0.0000,0.0000,0.0000,0.0000,0.0000,0.0000,0.0000,0.0000
$QL004,2,1F,take_turns,line_accelerate
$GNGSA,A,3,02,07,08,13,20,23,25,27,,,,,1.2,0.9,0.8,1*3D
$GNGSA,A,3,77,86,87,88,,,,,,,,,1.2,0.9,0.8,2*31
$GNVTG,356.4,T,0.7,M,75.6,N,140.0,K,A*0F
$GNDTM,P90,,0000.000022,S,00000.000001,W,0.988,W84*44
$GNRMC,000504.50,A,2959.986076,N,12000.000491,E,75.6,356.4,230721,4.3,W,A,V*7B
$GNGNS,000504.50,2959.986076,N,12000.000491,E,AANNN,12,0.9,-7.3,7.0,,,V*72
$GNGGA,000504.50,2959.986076,N,12000.000491,E,1,12,0.9,-7.3,M,7.0,M,,*6C

$QL001,1626998704600,29.999803,120.000006,-0.300216,39.130,356.900,2.829,2.500,0.451,0.095
$QL002,4,4,1,0,2.000,2.000,39.074,-2.101,-0.203,0.319,0.318,0.133,18
$QL003,0.0000,0.0000,0.0000,0.0000,0.0000,0.0000,0.0000,0.0000,0.0000,0.0000
$QL004,2,1F,take_turns,line_accelerate
$GNGSA,A,3,02,07,08,13,20,23,25,27,,,,,1.2,0.9,0.8,1*3D
$GNGSA,A,3,77,86,87,88,,,,,,,,,1.2,0.9,0.8,2*31
$GNVTG,356.9,T,1.2,M,76.1,N,140.9,K,A*0B
$GNDTM,P90,,0000.000022,S,00000.000001,W,0.988,W84*44
$GNRMC,000504.60,A,2959.988208,N,12000.000372,E,76.1,356.9,230721,4.3,W,A,V*7E
$GNGNS,000504.60,2959.988208,N,12000.000372,E,AANNN,12,0.9,-7.3,7.0,,,V*7E
$GNGGA,000504.60,2959.988208,N,12000.000372,E,1,12,0.9,-7.3,M,7.0,M,,*60

$QL001,1626998704700,29.999838,120.000005,-0.307875,38.970,357.600,2.829,2.500,0.489,0.327
$QL002,4,4,1,0,2.000,2.000,38.939,-1.603,-0.148,0.349,0.343,0.259,18
$QL003,0.0000,0.0000,0.0000,0.0000,0.0000,0.0000,0.0000,0.0000,0.0000,0.0000
$QL004,2,1F,take_turns,line_accelerate
$GNGSA,A,3,02,04,07,08,13,20,23,25,27,,,,1.3,0.9,0.8,1*38
$GNGSA,A,3,77,86,87,,,,,,,,,,1.3,0.9,0.8,2*30
$GNVTG,357.6,T,1.9,M,75.8,N,140.3,K,A*0E
$GNDTM,P90,,0000.000022,S,00000.000001,W,0.988,W84*44
$GNRMC,000504.70,A,2959.990304,N,12000.000298,E,75.8,357.6,230721,4.3,W,A,V*7A
$GNGNS,000504.70,2959.990304,N,12000.000298,E,AANNN,12,0.9,-7.3,7.0,,,V*7E
$GNGGA,000504.70,2959.990304,N,12000.000298,E,1,12,0.9,-7.3,M,7.0,M,,*60

$QL001,1626998704800,29.999874,120.000003,-0.305845,38.990,357.600,2.829,2.500,0.498,0.359
$QL002,4,4,1,0,2.000,2.000,38.966,-1.599,-0.085,0.357,0.346,0.293,18
$QL003,0.0000,0.0000,0.0000,0.0000,0.0000,0.0000,0.0000,0.0000,0.0000,0.0000
$QL004,2,1F,take_turns,line_accelerate
$GNGSA,A,3,02,04,07,08,13,20,23,25,27,,,,1.2,0.9,0.8,1*39
$GNGSA,A,3,77,86,87,88,,,,,,,,,1.2,0.9,0.8,2*31
$GNVTG,357.6,T,1.9,M,75.8,N,140.4,K,A*09
$GNDTM,P90,,0000.000022,S,00000.000001,W,0.988,W84*44
$GNRMC,000504.80,A,2959.992413,N,12000.000184,E,75.8,357.6,230721,4.3,W,A,V*78
$GNGNS,000504.80,2959.992413,N,12000.000184,E,AANNN,13,0.9,-7.3,7.0,,,V*7D
$GNGGA,000504.80,2959.992413,N,12000.000184,E,1,12,0.9,-7.3,M,7.0,M,,*62

$QL001,1626998704900,29.999909,120.000002,-0.338051,38.940,358.300,2.829,2.500,0.467,0.223
$QL002,4,4,1,0,2.000,2.000,38.929,-1.125,-0.176,0.333,0.328,0.238,18
$QL003,0.0000,0.0000,0.0000,0.0000,0.0000,0.0000,0.0000,0.0000,0.0000,0.0000
$QL004,2,1F,take_turns,line_accelerate
$GNGSA,A,3,02,04,08,13,20,23,25,27,,,,,1.2,0.9,0.8,1*3E
$GNGSA,A,3,77,86,87,88,,,,,,,,,1.2,0.9,0.8,2*31
$GNVTG,358.3,T,2.6,M,75.7,N,140.2,K,A*06
$GNDTM,P90,,0000.000022,S,00000.000001,W,0.988,W84*44
$GNRMC,000504.90,A,2959.994514,N,12000.000142,E,75.7,358.3,230721,4.3,W,A,V*76
$GNGNS,000504.90,2959.994514,N,12000.000142,E,AANNN,12,0.9,-7.3,7.0,,,V*77
$GNGGA,000504.90,2959.994514,N,12000.000142,E,1,12,0.9,-7.3,M,7.0,M,,*69

$GPGSV,3,1,10,02,33,297,40,04,50,244,40,07,84,096,40,08,49,208,40,1*61
$GPGSV,3,2,10,13,48,033,41,20,21,122,40,23,26,058,39,25,65,041,40,1*6C
$GPGSV,3,3,10,27,20,219,40,10,02,311,,1*6C
$GLGSV,2,1,06,78,00,000,40,86,00,000,40,77,00,000,40,75,00,000,40,1*7E
$GLGSV,2,2,06,88,00,000,40,87,00,000,40,1*71
$GBGSV,2,1,06,14,00,000,38,13,00,000,38,12,00,000,37,11,00,000,38,1*78
$GBGSV,2,2,06,09,36,285,37,06,00,000,38,1*7A
$QL001,1626998705000,29.999943,120.000002,-0.244859,38.810,358.700,2.829,2.500,0.482,0.296
$QL002,4,4,1,0,2.000,2.000,38.805,-0.848,0.210,0.346,0.335,0.258,18
$QL003,0.0000,0.0000,0.0000,0.0000,0.0000,0.0000,0.0000,0.0000,0.0000,0.0000
$QL004,2,1F,take_turns,line_accelerate
$GNGSA,A,3,02,04,07,08,13,20,23,25,27,,,,1.3,0.9,0.8,1*38
$GNGSA,A,3,77,87,88,,,,,,,,,,1.3,0.9,0.8,2*3E
$GNVTG,358.7,T,3.0,M,75.4,N,139.7,K,A*0D
$GNDTM,P90,,0000.000022,S,00000.000001,W,0.988,W84*44
$GNRMC,000505.00,A,2959.996601,N,12000.000100,E,75.4,358.7,230721,4.3,W,A,V*7A
$GNGNS,000505.00,2959.996601,N,12000.000100,E,AANNN,12,0.9,-7.2,7.0,,,V*7D
$GNGGA,000505.00,2959.996601,N,12000.000100,E,1,12,0.9,-7.2,M,7.0,M,,*63

$QL001,1626998705100,29.999978,120.000001,-0.309775,38.820,359.200,2.829,2.500,0.473,0.255
$QL002,4,4,1,0,2.000,2.000,38.818,-0.516,-0.088,0.339,0.331,0.240,18
$QL003,0.0000,0.0000,0.0000,0.0000,0.0000,0.0000,0.0000,0.0000,0.0000,0.0000
$QL004,2,1F,take_turns,line_accelerate
$GNGSA,A,3,02,04,07,08,13,20,23,25,,,,,1.3,0.9,0.8,1*3D
$GNGSA,A,3,77,86,87,88,,,,,,,,,1.3,0.9,0.8,2*30
$GNVTG,359.2,T,3.5,M,75.5,N,139.8,K,A*02
$GNDTM,P90,,0000.000022,S,00000.000001,W,0.988,W84*44
$GNRMC,000505.10,A,2959.998703,N,12000.000081,E,75.5,359.2,230721,4.3,W,A,V*7B
$GNGNS,000505.10,2959.998703,N,12000.000081,E,AANNN,12,0.9,-7.3,7.0,,,V*78
$GNGGA,000505.10,2959.998703,N,12000.000081,E,1,12,0.9,-7.3,M,7.0,M,,*66

$QL001,1626998705200,30.000013,120.000001,-0.414406,38.940,359.700,2.829,2.500,0.477,0.275
$QL002,4,4,1,0,2.000,2.000,38.944,-0.234,-0.256,0.341,0.334,0.250,18
$QL003,0.0000,0.0000,0.0000,0.0000,0.0000,0.0000,0.0000,0.0000,0.0000,0.0000
$QL004,2,1F,take_turns,line_accelerate
$GNGSA,A,3,02,04,07,08,13,20,23,25,27,,,,1.2,0.9,0.8,1*39
$GNGSA,A,3,77,86,87,88,,,,,,,,,1.2,0.9,0.8,2*31
$GNVTG,359.7,T,4.0,M,75.7,N,140.2,K,A*03
$GNDTM,P90,,0000.000022,S,00000.000001,W,0.988,W84*44
$GNRMC,000505.20,A,3000.000799,N,12000.000086,E,75.7,359.7,230721,4.3,W,A,V*77
$GNGNS,000505.20,3000.000799,N,12000.000086,E,AANNN,13,0.9,-7.4,7.0,,,V*75
$GNGGA,000505.20,3000.000799,N,12000.000086,E,1,12,0.9,-7.4,M,7.0,M,,*6A

$QL001,1626998705300,30.000048,120.000002,-0.346629,38.860,0.200,2.829,2.500,0.477,0.273
$QL002,4,4,1,0,2.000,2.000,38.865,0.127,0.067,0.340,0.334,0.253,18
$QL003,0.0000,0.0000,0.0000,0.0000,0.0000,0.0000,0.0000,0.0000,0.0000,0.0000
$QL004,2,1F,take_turns,line_accelerate
$GNGSA,A,3,02,04,07,08,13,20,23,27,,,,,1.2,0.9,0.8,1*3E
$GNGSA,A,3,77,86,87,88,,,,,,,,,1.2,0.9,0.8,2*31
$GNVTG,0.2,T,4.5,M,75.5,N,139.9,K,A*0B
$GNDTM,P90,,0000.000022,S,00000.000001,W,0.988,W84*44
$GNRMC,000505.30,A,3000.002893,N,12000.000110,E,75.5,0.2,230721,4.3,W,A,V*77
$GNGNS,000505.30,3000.002893,N,12000.000110,E,AANNN,12,0.9,-7.3,7.0,,,V*7B
$GNGGA,000505.30,3000.002893,N,12000.000110,E,1,12,0.9,-7.3,M,7.0,M,,*65

$QL001,1626998705400,30.000083,120.000003,-0.334982,38.870,0.800,2.829,2.500,0.467,0.221
$QL002,4,4,1,0,2.000,2.000,38.872,0.511,0.077,0.332,0.328,0.220,18
$QL003,0.0000,0.0000,0.0000,0.0000,0.0000,0.0000,0.0000,0.0000,0.0000,0.0000
$QL004,2,1F,take_turns,line_accelerate
$GNGSA,A,3,02,04,07,08,13,20,23,25,27,,,,1.2,0.9,0.8,1*39
$GNGSA,A,3,77,86,88,,,,,,,,,,1.2,0.9,0.8,2*3E
$GNVTG,0.8,T,5.1,M,75.6,N,139.9,K,A*07
$GNDTM,P90,,0000.000022,S,00000.000001,W,0.988,W84*44
$GNRMC,000505.40,A,3000.004995,N,12000.000161,E,75.6,0.8,230721,4.3,W,A,V*7E
$GNGNS,000505.40,3000.004995,N,12000.000161,E,AANNN,12,0.9,-7.3,7.0,,,V*7B
$GNGGA,000505.40,3000.004995,N,12000.000161,E,1,12,0.9,-7.3,M,7.0,M,,*65

$QL001,1626998705500,30.000119,120.000003,-0.316840,39.010,0.900,2.829,2.500,0.481,0.291
$QL002,4,4,1,0,2.000,2.000,39.011,0.640,0.124,0.344,0.336,0.256,18
$QL003,0.0000,0.0000,0.0000,0.0000,0.0000,0.0000,0.0000,0.0000,0.0000,0.0000
$QL004,2,1F,take_turns,line_accelerate
$GNGSA,A,3,02,04,07,08,13,20,23,25,27,,,,1.2,0.9,0.8,1*39
$GNGSA,A,3,77,86,87,88,,,,,,,,,1.2,0.9,0.8,2*31
$GNVTG,0.9,T,5.2,M,75.8,N,140.4,K,A*08
$GNDTM,P90,,0000.000022,S,00000.000001,W,0.988,W84*44
$GNRMC,000505.50,A,3000.007115,N,12000.000196,E,75.8,0.9,230721,4.3,W,A,V*7B
$GNGNS,000505.50,3000.007115,N,12000.000196,E,AANNN,13,0.9,-7.3,7.0,,,V*70
$GNGGA,000505.50,3000.007115,N,12000.000196,E,1,12,0.9,-7.3,M,7.0,M,,*6F

$QL001,1626998705600,30.000154,120.000004,-0.276756,38.970,1.400,2.829,2.500,0.478,0.276
$QL002,4,4,1,0,2.000,2.000,38.964,0.931,0.218,0.341,0.334,0.251,18
$QL003,0.0000,0.0000,0.0000,0.0000,0.0000,0.0000,0.0000,0.0000,0.0000,0.0000
$QL004,2,1F,take_turns,line_accelerate
$GNGSA,A,3,02,04,07,08,13,20,23,25,27,,,,1.2,0.9,0.8,1*39
$GNGSA,A,3,77,86,87,88,,,,,,,,,1.2,0.9,0.8,2*31
$GNVTG,1.4,T,5.7,M,75.8,N,140.3,K,A*06
$GNDTM,P90,,0000.000022,S,00000.000001,W,0.988,W84*44
$GNRMC,000505.60,A,3000.009219,N,12000.000266,E,75.8,1.4,230721,4.3,W,A,V*79
$GNGNS,000505.60,3000.009219,N,12000.000266,E,AANNN,13,0.9,-7.3,7.0,,,V*7E
$GNGGA,000505.60,3000.009219,N,12000.000266,E,1,12,0.9,-7.3,M,7.0,M,,*61

$QL001,1626998705700,30.000188,120.000006,-0.246928,38.630,2.100,2.829,2.500,0.476,0.273
$QL002,4,4,1,0,2.000,2.000,38.605,1.394,0.233,0.341,0.333,0.246,18
$QL003,0.0000,0.0000,0.0000,0.0000,0.0000,0.0000,0.0000,0.0000,0.0000,0.0000
$QL004,2,1F,take_turns,line_accelerate
$GNGSA,A,3,02,04,07,08,13,20,23,25,27,,,,1.2,0.9,0.8,1*39
$GNGSA,A,3,77,86,87,88,,,,,,,,,1.2,0.9,0.8,2*31
$GNVTG,2.1,T,6.4,M,75.1,N,139.1,K,A*05
$GNDTM,P90,,0000.000022,S,00000.000001,W,0.988,W84*44
$GNRMC,000505.70,A,3000.011279,N,12000.000378,E,75.1,2.1,230721,4.3,W,A,V*76
$GNGNS,000505.70,3000.011279,N,12000.000378,E,AANNN,13,0.9,-7.2,7.0,,,V*7F
$GNGGA,000505.70,3000.011279,N,12000.000378,E,1,12,0.9,-7.2,M,7.0,M,,*60

$QL001,1626998705800,30.000223,120.000008,-0.249200,38.860,2.500,2.829,2.500,0.490,0.332
$QL002,4,4,1,0,2.000,2.000,38.832,1.696,0.149,0.352,0.342,0.278,18
$QL003,0.0000,0.0000,0.0000,0.0000,0.0000,0.0000,0.0000,0.0000,0.0000,0.0000
$QL004,2,1F,take_turns,line_accelerate
$GNGSA,A,3,02,04,07,08,13,20,23,25,27,,,,1.2,0.9,0.8,1*39
$GNGSA,A,3,77,86,87,88,,,,,,,,,1.2,0.9,0.8,2*31
$GNVTG,2.5,T,6.8,M,75.5,N,139.9,K,A*01
$GNDTM,P90,,0000.000022,S,00000.000001,W,0.988,W84*44
$GNRMC,000505.80,A,3000.013396,N,12000.000494,E,75.5,2.5,230721,4.3,W,A,V*7E
$GNGNS,000505.80,3000.013396,N,12000.000494,E,AANNN,13,0.9,-7.2,7.0,,,V*77
$GNGGA,000505.80,3000.013396,N,12000.000494,E,1,12,0.9,-7.2,M,7.0,M,,*68

$QL001,1626998705900,30.000259,120.000010,-0.350559,39.020,2.700,2.829,2.500,0.480,0.287
$QL002,4,4,1,0,2.000,2.000,38.978,1.826,-0.251,0.343,0.336,0.250,18
$QL003,0.0000,0.0000,0.0000,0.0000,0.0000,0.0000,0.0000,0.0000,0.0000,0.0000
$QL004,2,1F,take_turns,line_accelerate
$GNGSA,A,3,04,07,08,13,20,23,25,27,,,,,1.4,1.1,0.8,1*34
$GNGSA,A,3,77,86,87,88,,,,,,,,,1.4,1.1,0.8,2*3E
$GNVTG,2.7,T,7.0,M,75.8,N,140.5,K,A*05
$GNDTM,P90,,0000.000022,S,00000.000001,W,0.988,W84*44
$GNRMC,000505.90,A,3000.015518,N,12000.000604,E,75.8,2.7,230721,4.3,W,A,V*7D
$GNGNS,000505.90,3000.015518,N,12000.000604,E,AANNN,12,1.1,-7.4,7.0,,,V*75
$GNGGA,000505.90,3000.015518,N,12000.000604,E,1,12,1.1,-7.4,M,7.0,M,,*6B

$GPGSV,3,1,10,02,33,297,40,04,50,244,40,07,84,096,40,08,49,208,40,1*61
$GPGSV,3,2,10,13,48,033,40,20,21,122,40,23,26,058,40,25,65,041,40,1*63
$GPGSV,3,3,10,27,20,219,40,10,02,311,,1*6C
$GLGSV,2,1,06,78,00,000,40,86,00,000,40,77,00,000,40,75,00,000,40,1*7E
$GLGSV,2,2,06,88,00,000,40,87,00,000,40,1*71
$GBGSV,2,1,06,14,00,000,38,13,00,000,37,12,00,000,37,11,00,000,38,1*77
$GBGSV,2,2,06,09,36,285,38,06,00,000,38,1*75
$QL001,1626998706000,30.000294,120.000013,-0.372573,39.020,3.200,2.829,2.500,0.483,0.301
$QL002,4,4,1,0,2.000,2.000,38.970,2.154,-0.248,0.346,0.337,0.265,18
$QL003,0.0000,0.0000,0.0000,0.0000,0.0000,0.0000,0.0000,0.0000,0.0000,0.0000
$QL004,2,1F,take_turns,line_accelerate
$GNGSA,A,3,02,04,07,08,13,20,23,25,27,,,,1.2,0.9,0.8,1*39
$GNGSA,A,3,77,86,87,88,,,,,,,,,1.2,0.9,0.8,2*31
$GNVTG,3.2,T,7.5,M,75.8,N,140.5,K,A*04
$GNDTM,P90,,0000.000022,S,00000.000001,W,0.988,W84*44
$GNRMC,000506.00,A,3000.017624,N,12000.000752,E,75.8,3.2,230721,4.3,W,A,V*7F
$GNGNS,000506.00,3000.017624,N,12000.000752,E,AANNN,13,0.9,-7.4,7.0,,,V*7B
$GNGGA,000506.00,3000.017624,N,12000.000752,E,1,12,0.9,-7.4,M,7.0,M,,*64

$QL001,1626998706100,30.000328,120.000015,-0.361182,38.850,3.700,2.829,2.500,0.488,0.321
$QL002,4,4,1,0,2.000,2.000,38.779,2.500,-0.133,0.349,0.340,0.276,18
$QL003,0.0000,0.0000,0.0000,0.0000,0.0000,0.0000,0.0000,0.0000,0.0000,0.0000
$QL004,2,1F,take_turns,line_accelerate
$GNGSA,A,3,02,04,07,08,13,20,23,25,27,,,,1.2,0.9,0.8,1*39
$GNGSA,A,3,77,86,87,88,,,,,,,,,1.2,0.9,0.8,2*31
$GNVTG,3.7,T,8.0,M,75.5,N,139.9,K,A*04
$GNDTM,P90,,0000.000022,S,00000.000001,W,0.988,W84*44
$GNRMC,000506.10,A,3000.019705,N,12000.000924,E,75.5,3.7,230721,4.3,W,A,V*75
$GNGNS,000506.10,3000.019705,N,12000.000924,E,AANNN,13,0.9,-7.4,7.0,,,V*79
$GNGGA,000506.10,3000.019705,N,12000.000924,E,1,12,0.9,-7.4,M,7.0,M,,*66

$QL001,1626998706200,30.000364,120.000018,-0.389788,38.800,4.100,2.829,2.500,0.483,0.302
$QL002,4,4,1,0,2.000,2.000,38.706,2.787,-0.319,0.346,0.337,0.266,18
$QL003,0.0000,0.0000,0.0000,0.0000,0.0000,0.0000,0.0000,0.0000,0.0000,0.0000
$QL004,2,1F,take_turns,line_accelerate
$GNGSA,A,3,02,04,07,08,13,20,23,25,27,,,,1.2,0.9,0.8,1*39
$GNGSA,A,3,77,86,87,88,,,,,,,,,1.2,0.9,0.8,2*31
$GNVTG,4.1,T,8.4,M,75.4,N,139.7,K,A*0E
$GNDTM,P90,,0000.000022,S,00000.000001,W,0.988,W84*44
$GNRMC,000506.20,A,3000.021832,N,12000.001097,E,75.4,4.1,230721,4.3,W,A,V*76
$GNGNS,000506.20,3000.021832,N,12000.001097,E,AANNN,13,0.9,-7.4,7.0,,,V*7A
$GNGGA,000506.20,3000.021832,N,12000.001097,E,1,12,0.9,-7.4,M,7.0,M,,*65

$QL001,1626998706300,30.000399,120.000022,-0.371196,38.890,4.600,2.829,2.500,0.489,0.325
$QL002,4,4,1,0,2.000,2.000,38.772,3.089,-0.149,0.350,0.341,0.279,18
$QL003,0.0000,0.0000,0.0000,0.0000,0.0000,0.0000,0.0000,0.0000,0.0000,0.0000
$QL004,2,1F,take_turns,line_accelerate
$GNGSA,A,3,02,04,07,08,13,20,23,25,27,,,,1.2,0.9,0.8,1*39
$GNGSA,A,3,77,86,87,88,,,,,,,,,1.2,0.9,0.8,2*31
$GNVTG,4.6,T,8.9,M,75.6,N,140.0,K,A*0F
$GNDTM,P90,,0000.000022,S,00000.000001,W,0.988,W84*44
$GNRMC,000506.30,A,3000.023934,N,12000.001302,E,75.6,4.6,230721,4.3,W,A,V*78
$GNGNS,000506.30,3000.023934,N,12000.001302,E,AANNN,13,0.9,-7.4,7.0,,,V*71
$GNGGA,000506.30,3000.023934,N,12000.001302,E,1,12,0.9,-7.4,M,7.0,M,,*6E

$QL001,1626998706400,30.000433,120.000026,-0.255509,38.700,5.300,2.829,2.500,0.452,0.104
$QL002,4,4,1,0,2.000,2.000,38.539,3.549,0.264,0.320,0.319,0.133,18
$QL003,0.0000,0.0000,0.0000,0.0000,0.0000,0.0000,0.0000,0.0000,0.0000,0.0000
$QL004,2,1F,take_turns,line_accelerate
$GNGSA,A,3,04,07,08,13,20,23,25,27,,,,,1.4,1.1,0.8,1*34
$GNGSA,A,3,77,86,87,88,,,,,,,,,1.4,1.1,0.8,2*3E
$GNVTG,5.3,T,9.6,M,75.2,N,139.3,K,A*0C
$GNDTM,P90,,0000.000022,S,00000.000001,W,0.988,W84*44
$GNRMC,000506.40,A,3000.025997,N,12000.001550,E,75.2,5.3,230721,4.3,W,A,V*71
$GNGNS,000506.40,3000.025997,N,12000.001550,E,AANNN,12,1.1,-7.3,7.0,,,V*77
$GNGGA,000506.40,3000.025997,N,12000.001550,E,1,12,1.1,-7.3,M,7.0,M,,*69

$QL001,1626998706500,30.000468,120.000030,-0.263764,38.880,5.500,2.829,2.500,0.482,0.298
$QL002,4,4,1,0,2.000,2.000,38.708,3.756,0.114,0.345,0.337,0.246,18
$QL003,0.0000,0.0000,0.0000,0.0000,0.0000,0.0000,0.0000,0.0000,0.0000,0.0000
$QL004,2,1F,take_turns,line_accelerate
$GNGSA,A,3,02,04,07,08,13,20,23,25,27,,,,1.2,0.9,0.8,1*39
$GNGSA,A,3,77,86,87,88,,,,,,,,,1.2,0.9,0.8,2*31
$GNVTG,5.5,T,9.8,M,75.6,N,140.0,K,A*0D
$GNDTM,P90,,0000.000022,S,00000.000001,W,0.988,W84*44
$GNRMC,000506.50,A,3000.028104,N,12000.001785,E,75.6,5.5,230721,4.3,W,A,V*77
$GNGNS,000506.50,3000.028104,N,12000.001785,E,AANNN,13,0.9,-7.3,7.0,,,V*7B
$GNGGA,000506.50,3000.028104,N,12000.001785,E,1,12,0.9,-7.3,M,7.0,M,,*64

$QL001,1626998706600,30.000504,120.000034,-0.366567,39.050,6.000,2.829,2.500,0.474,0.258
$QL002,4,4,1,0,2.000,2.000,38.841,4.049,-0.317,0.340,0.331,0.237,18
$QL003,0.0000,0.0000,0.0000,0.0000,0.0000,0.0000,0.0000,0.0000,0.0000,0.0000
$QL004,2,1F,take_turns,line_accelerate
$GNGSA,A,3,02,04,07,08,13,20,23,25,27,,,,1.3,0.9,0.8,1*38
$GNGSA,A,3,77,87,88,,,,,,,,,,1.3,0.9,0.8,2*3E
$GNVTG,6.0,T,10.3,M,75.9,N,140.6,K,A*31
$GNDTM,P90,,0000.000022,S,00000.000001,W,0.988,W84*44
$GNRMC,000506.60,A,3000.030216,N,12000.002047,E,75.9,6.0,230721,4.3,W,A,V*7E
$GNGNS,000506.60,3000.030216,N,12000.002047,E,AANNN,12,0.9,-7.4,7.0,,,V*7D
$GNGGA,000506.60,3000.030216,N,12000.002047,E,1,12,0.9,-7.4,M,7.0,M,,*63

$QL001,1626998706700,30.000538,120.000039,-0.353877,38.960,6.300,2.829,2.500,0.515,0.420
$QL002,4,4,1,0,2.000,2.000,38.735,4.246,-0.167,0.371,0.357,0.310,18
$QL003,0.0000,0.0000,0.0000,0.0000,0.0000,0.0000,0.0000,0.0000,0.0000,0.0000
$QL004,2,1F,take_turns,line_accelerate
$GNGSA,A,3,02,04,07,08,13,20,23,25,27,,,,1.2,0.9,0.8,1*39
$GNGSA,A,3,77,86,87,88,,,,,,,,,1.2,0.9,0.8,2*31
$GNVTG,6.3,T,10.6,M,75.7,N,140.3,K,A*3C
$GNDTM,P90,,0000.000022,S,00000.000001,W,0.988,W84*44
$GNRMC,000506.70,A,3000.032304,N,12000.002314,E,75.7,6.3,230721,4.3,W,A,V*77
$GNGNS,000506.70,3000.032304,N,12000.002314,E,AANNN,13,0.9,-7.4,7.0,,,V*78
$GNGGA,000506.70,3000.032304,N,12000.002314,E,1,12,0.9,-7.4,M,7.0,M,,*67

$QL001,1626998706800,30.000573,120.000043,-0.335867,38.790,6.700,2.829,2.500,0.451,0.095
$QL002,4,4,1,0,2.000,2.000,38.528,4.539,-0.055,0.319,0.318,0.131,18
$QL003,0.0000,0.0000,0.0000,0.0000,0.0000,0.0000,0.0000,0.0000,0.0000,0.0000
$QL004,2,1F,take_turns,line_accelerate
$GNGSA,A,3,02,04,07,08,13,20,23,25,27,,,,1.2,0.9,0.8,1*39
$GNGSA,A,3,86,87,88,,,,,,,,,,1.2,0.9,0.8,2*31
$GNVTG,6.7,T,11.0,M,75.4,N,139.6,K,A*37
$GNDTM,P90,,0000.000022,S,00000.000001,W,0.988,W84*44
$GNRMC,000506.80,A,3000.034370,N,12000.002610,E,75.4,6.7,230721,4.3,W,A,V*7B
$GNGNS,000506.80,3000.034370,N,12000.002610,E,AANNN,12,0.9,-7.3,7.0,,,V*75
$GNGGA,000506.80,3000.034370,N,12000.002610,E,1,12,0.9,-7.3,M,7.0,M,,*6B

$QL001,1626998706900,30.000608,120.000049,-0.323956,38.860,7.200,2.829,2.500,0.479,0.284
$QL002,4,4,1,0,2.000,2.000,38.566,4.843,0.016,0.342,0.335,0.239,18
$QL003,0.0000,0.0000,0.0000,0.0000,0.0000,0.0000,0.0000,0.0000,0.0000,0.0000
$QL004,2,1F,take_turns,line_accelerate
$GNGSA,A,3,02,04,07,08,13,20,23,25,27,,,,1.2,0.9,0.8,1*39
$GNGSA,A,3,77,86,87,88,,,,,,,,,1.2,0.9,0.8,2*31
$GNVTG,7.2,T,11.5,M,75.5,N,139.9,K,A*38
$GNDTM,P90,,0000.000022,S,00000.000001,W,0.988,W84*44
$GNRMC,000506.90,A,3000.036460,N,12000.002921,E,75.5,7.2,230721,4.3,W,A,V*76
$GNGNS,000506.90,3000.036460,N,12000.002921,E,AANNN,13,0.9,-7.3,7.0,,,V*7C
$GNGGA,000506.90,3000.036460,N,12000.002921,E,1,12,0.9,-7.3,M,7.0,M,,*63

$GPGSV,3,1,10,02,33,297,40,04,50,244,40,07,84,096,41,08,49,208,40,1*60
$GPGSV,3,2,10,13,48,033,40,20,21,122,40,23,26,058,41,25,65,041,40,1*62
$GPGSV,3,3,10,27,20,219,40,10,02,311,,1*6C
$GLGSV,2,1,06,78,00,000,40,86,00,000,40,77,00,000,40,75,00,000,40,1*7E
$GLGSV,2,2,06,88,00,000,41,87,00,000,40,1*70
