$GBGSV,4,1,16,14,07,164,49,13,46,201,50,09,36,286,49,06,36,215,49,1*7B
$GBGSV,4,2,16,04,36,125,,02,50,173,50,01,37,122,,11,19,130,,1*79
$GBGSV,4,3,16,12,10,059,,20,19,318,,23,51,142,,24,24,077,,1*7A
$GBGSV,4,4,16,29,06,277,,32,14,059,,36,50,052,,39,35,203,,1*7C
$QL001,1626998702000,29.999994,119.999999,-0.975769,0.000,0.000,8.914,2.500,0.453,0.000
$QL002,4,4,1,0,6.303,6.303,0.000,0.000,0.000,0.320,0.320,0.113,18
$QL003,0.0000,0.0000,0.0000,0.0000,0.0000,0.0000,0.0000,0.0000,0.0000,0.0000
$QL004,2,1F,take_turns,line_accelerate
$GBGSA,A,3,02,06,09,13,,,,,,,,,3.4,3.3,1.0,4*31
$GBVTG,,T,,M,0.0,N,0.0,K,A*31
$GBDTM,P90,,0000.000022,S,00000.000001,W,0.988,W84*48
$GBRMC,000502.00,A,2959.999632,N,11959.999924,E,0.0,,230721,4.3,W,A,V*6E
$GBGNS,000502.00,2959.999632,N,11959.999924,E,NNNAN,04,3.3,-8.0,7.0,,,V*74
$GBGGA,000502.00,2959.999632,N,11959.999924,E,1,04,3.3,-8.0,M,7.0,M,,*65

$GBGSV,4,1,16,14,07,164,49,13,46,201,50,09,36,286,49,06,36,215,50,1*73
$GBGSV,4,2,16,04,36,125,,02,50,173,50,01,37,122,,11,19,130,,1*79
$GBGSV,4,3,16,12,10,059,,20,19,318,,23,51,142,,24,24,077,,1*7A
$GBGSV,4,4,16,29,06,277,,32,14,059,,36,50,052,,39,35,203,,1*7C
$QL001,1626998703000,29.999994,119.999999,-0.979614,0.000,0.000,8.914,2.500,0.453,0.000
$QL002,4,4,1,0,6.303,6.303,0.000,0.000,0.000,0.320,0.320,0.113,18
$QL003,0.0000,0.0000,0.0000,0.0000,0.0000,0.0000,0.0000,0.0000,0.0000,0.0000
$QL004,2,1F,take_turns,line_accelerate
$GBGSA,A,3,02,06,09,13,,,,,,,,,3.4,3.3,1.0,4*31
$GBVTG,,T,,M,0.0,N,0.0,K,A*31
$GBDTM,P90,,0000.000022,S,00000.000001,W,0.988,W84*48
$GBRMC,000503.00,A,2959.999633,N,11959.999925,E,0.0,,230721,4.3,W,A,V*6F
$GBGNS,000503.00,2959.999633,N,11959.999925,E,NNNAN,04,3.3,-8.0,7.0,,,V*75
$GBGGA,000503.00,2959.999633,N,11959.999925,E,1,04,3.3,-8.0,M,7.0,M,,*64

$GBGSV,4,1,16,14,07,164,49,13,46,201,50,09,36,286,50,06,36,215,50,1*7B
$GBGSV,4,2,16,04,36,125,,02,50,173,50,01,37,122,,11,19,130,,1*79
$GBGSV,4,3,16,12,10,059,,20,19,318,,23,51,142,,24,24,077,,1*7A
$GBGSV,4,4,16,29,06,277,,32,14,059,,36,50,052,,39,35,203,,1*7C
$QL001,1626998704000,29.999994,119.999999,-0.973877,0.000,0.000,8.914,2.500,0.453,0.000
$QL002,4,4,1,0,6.303,6.303,0.000,0.000,0.000,0.320,0.320,0.113,18
$QL003,0.0000,0.0000,0.0000,0.0000,0.0000,0.0000,0.0000,0.0000,0.0000,0.0000
$QL004,2,1F,take_turns,line_accelerate
$GBGSA,A,3,02,06,09,13,,,,,,,,,3.4,3.3,1.0,4*31
$GBVTG,,T,,M,0.0,N,0.0,K,A*31
$GBDTM,P90,,0000.000022,S,00000.000001,W,0.988,W84*48
$GBRMC,000504.00,A,2959.999633,N,11959.999926,E,0.0,,230721,4.3,W,A,V*6B
$GBGNS,000504.00,2959.999633,N,11959.999926,E,NNNAN,04,3.3,-8.0,7.0,,,V*71
$GBGGA,000504.00,2959.999633,N,11959.999926,E,1,04,3.3,-8.0,M,7.0,M,,*60

$GBGSV,4,1,16,14,07,164,49,13,46,201,50,09,36,286,50,06,36,215,50,1*7B
$GBGSV,4,2,16,04,36,125,,02,50,173,50,01,37,122,,11,19,130,,1*79
$GBGSV,4,3,16,12,10,059,,20,19,318,,23,51,142,,24,24,077,,1*7A
$GBGSV,4,4,16,29,06,277,,32,14,059,,36,50,052,,39,35,203,,1*7C
$QL001,1626998705000,29.999994,119.999999,-0.974701,0.000,0.000,8.914,2.500,0.453,0.000
$QL002,4,4,1,0,6.303,6.303,0.000,0.000,0.000,0.320,0.320,0.113,18
$QL003,0.0000,0.0000,0.0000,0.0000,0.0000,0.0000,0.0000,0.0000,0.0000,0.0000
$QL004,2,1F,take_turns,line_accelerate
$GBGSA,A,3,02,06,09,13,,,,,,,,,3.4,3.3,1.0,4*31
$GBVTG,,T,,M,0.0,N,0.0,K,A*31
$GBDTM,P90,,0000.000022,S,00000.000001,W,0.988,W84*48
$GBRMC,000505.00,A,2959.999632,N,11959.999926,E,0.0,,230721,4.3,W,A,V*6B
$GBGNS,000505.00,2959.999632,N,11959.999926,E,NNNAN,04,3.3,-8.0,7.0,,,V*71
$GBGGA,000505.00,2959.999632,N,11959.999926,E,1,04,3.3,-8.0,M,7.0,M,,*60

$GBGSV,4,1,16,14,07,164,49,13,46,201,50,09,36,286,50,06,36,215,50,1*7B
$GBGSV,4,2,16,04,36,125,,02,50,173,50,01,37,122,,11,19,130,,1*79
$GBGSV,4,3,16,12,10,059,,20,19,318,,23,51,142,,24,24,077,,1*7A
$GBGSV,4,4,16,29,06,277,,32,14,059,,36,50,052,,39,35,203,,1*7C
$QL001,1626998706000,29.999994,119.999999,-0.976074,0.000,0.000,8.914,2.500,0.453,0.000
$QL002,4,4,1,0,6.303,6.303,0.000,0.000,0.000,0.320,0.320,0.113,18
$QL003,0.0000,0.0000,0.0000,0.0000,0.0000,0.0000,0.0000,0.0000,0.0000,0.0000
$QL004,2,1F,take_turns,line_accelerate
$GBGSA,A,3,02,06,09,13,,,,,,,,,3.4,3.3,1.0,4*31
$GBVTG,,T,,M,0.0,N,0.0,K,A*31
$GBDTM,P90,,0000.000022,S,00000.000001,W,0.988,W84*48
$GBRMC,000506.00,A,2959.999632,N,11959.999926,E,0.0,,230721,4.3,W,A,V*68
$GBGNS,000506.00,2959.999632,N,11959.999926,E,NNNAN,04,3.3,-8.0,7.0,,,V*72
$GBGGA,000506.00,2959.999632,N,11959.999926,E,1,04,3.3,-8.0,M,7.0,M,,*63

$GBGSV,4,1,16,14,07,164,49,13,46,201,50,09,36,286,50,06,36,215,50,1*7B
$GBGSV,4,2,16,04,36,125,,02,50,173,50,01,37,122,,11,19,130,,1*79
$GBGSV,4,3,16,12,10,059,,20,19,318,,23,51,142,,24,24,077,,1*7A
$GBGSV,4,4,16,29,06,277,,32,14,059,,36,50,052,,39,35,203,,1*7C
$QL001,1626998707000,29.999994,119.999999,-0.980347,0.000,0.000,8.914,2.500,0.453,0.000
$QL002,4,4,1,0,6.303,6.303,0.000,0.000,0.000,0.320,0.320,0.113,18
$QL003,0.0000,0.0000,0.0000,0.0000,0.0000,0.0000,0.0000,0.0000,0.0000,0.0000
$QL004,2,1F,take_turns,line_accelerate
$GBGSA,A,3,02,06,09,13,,,,,,,,,3.4,3.3,1.0,4*31
$GBVTG,,T,,M,0.0,N,0.0,K,A*31
$GBDTM,P90,,0000.000022,S,00000.000001,W,0.988,W84*48
$GBRMC,000507.00,A,2959.999632,N,11959.999926,E,0.0,,230721,4.3,W,A,V*69
$GBGNS,000507.00,2959.999632,N,11959.999926,E,NNNAN,04,3.3,-8.0,7.0,,,V*73
$GBGGA,000507.00,2959.999632,N,11959.999926,E,1,04,3.3,-8.0,M,7.0,M,,*62

$GBGSV,4,1,16,14,07,164,49,13,46,201,50,09,36,286,50,06,36,215,50,1*7B
$GBGSV,4,2,16,04,36,125,,02,50,173,50,01,37,122,,11,19,130,,1*79
$GBGSV,4,3,16,12,10,059,,20,19,318,,23,51,142,,24,24,077,,1*7A
$GBGSV,4,4,16,29,06,277,,32,14,059,,36,50,052,,39,35,203,,1*7C
$QL001,1626998708000,29.999994,119.999999,-0.978668,0.000,0.000,8.914,2.500,0.453,0.000
$QL002,4,4,1,0,6.303,6.303,0.000,0.000,0.000,0.320,0.320,0.113,18
$QL003,0.0000,0.0000,0.0000,0.0000,0.0000,0.0000,0.0000,0.0000,0.0000,0.0000
$QL004,2,1F,take_turns,line_accelerate
$GBGSA,A,3,02,06,09,13,,,,,,,,,3.4,3.3,1.0,4*31
$GBVTG,,T,,M,0.0,N,0.0,K,A*31
$GBDTM,P90,,0000.000022,S,00000.000001,W,0.988,W84*48
$GBRMC,000508.00,A,2959.999633,N,11959.999926,E,0.0,,230721,4.3,W,A,V*67
$GBGNS,000508.00,2959.999633,N,11959.999926,E,NNNAN,04,3.3,-8.0,7.0,,,V*7D
$GBGGA,000508.00,2959.999633,N,11959.999926,E,1,04,3.3,-8.0,M,7.0,M,,*6C

$GBGSV,4,1,16,14,07,164,49,13,46,201,50,09,36,286,50,06,36,215,50,1*7B
$GBGSV,4,2,16,04,36,125,,02,50,173,50,01,37,122,,11,19,130,,1*79
$GBGSV,4,3,16,12,10,059,,20,19,318,,23,51,142,,24,24,077,,1*7A
$GBGSV,4,4,16,29,06,277,,32,14,059,,36,50,052,,39,35,203,,1*7C
$QL001,1626998709000,29.999994,119.999999,-0.987152,0.000,0.000,8.914,2.500,0.453,0.000
$QL002,4,4,1,0,6.303,6.303,0.000,0.000,0.000,0.320,0.320,0.113,18
$QL003,0.0000,0.0000,0.0000,0.0000,0.0000,0.0000,0.0000,0.0000,0.0000,0.0000
$QL004,2,1F,take_turns,line_accelerate
$GBGSA,A,3,02,06,09,13,,,,,,,,,3.4,3.3,1.0,4*31
$GBVTG,,T,,M,0.0,N,0.0,K,A*31
$GBDTM,P90,,0000.000022,S,00000.000001,W,0.988,W84*48
$GBRMC,000509.00,A,2959.999633,N,11959.999926,E,0.0,,230721,4.3,W,A,V*66
$GBGNS,000509.00,2959.999633,N,11959.999926,E,NNNAN,04,3.3,-8.0,7.0,,,V*7C
$GBGGA,000509.00,2959.999633,N,11959.999926,E,1,04,3.3,-8.0,M,7.0,M,,*6D

$GBGSV,4,1,16,14,07,164,49,13,46,201,50,09,36,286,50,06,36,215,50,1*7B
$GBGSV,4,2,16,04,36,125,,02,50,173,50,01,37,122,,11,19,130,,1*79
$GBGSV,4,3,16,12,10,059,,20,19,318,,23,51,142,,24,24,077,,1*7A
$GBGSV,4,4,16,29,06,277,,32,14,059,,36,50,052,,39,35,203,,1*7C
$QL001,1626998710000,29.999994,119.999999,-0.990417,0.000,0.000,8.914,2.500,0.453,0.000
$QL002,4,4,1,0,6.303,6.303,0.000,0.000,0.000,0.320,0.320,0.113,18
$QL003,0.0000,0.0000,0.0000,0.0000,0.0000,0.0000,0.0000,0.0000,0.0000,0.0000
$QL004,2,1F,take_turns,line_accelerate
$GBGSA,A,3,02,06,09,13,,,,,,,,,3.4,3.3,1.0,4*31
$GBVTG,,T,,M,0.0,N,0.0,K,A*31
$GBDTM,P90,,0000.000022,S,00000.000001,W,0.988,W84*48
$GBRMC,000510.00,A,2959.999633,N,11959.999926,E,0.0,,230721,4.3,W,A,V*6E
$GBGNS,000510.00,2959.999633,N,11959.999926,E,NNNAN,04,3.3,-8.0,7.0,,,V*74
$GBGGA,000510.00,2959.999633,N,11959.999926,E,1,04,3.3,-8.0,M,7.0,M,,*65

$GBGSV,4,1,16,14,07,164,49,13,46,201,51,09,36,286,50,06,36,215,50,1*7A
$GBGSV,4,2,16,04,36,125,,02,50,173,50,01,37,122,,11,19,130,,1*79
$GBGSV,4,3,16,12,10,059,,20,19,318,,23,51,142,,24,24,077,,1*7A
$GBGSV,4,4,16,29,06,277,,32,14,059,,36,50,052,,39,35,203,,1*7C
$QL001,1626998711000,29.999994,119.999999,-0.994873,0.000,0.000,8.914,2.500,0.453,0.000
$QL002,4,4,1,0,6.303,6.303,0.000,0.000,0.000,0.320,0.320,0.113,18
$QL003,0.0000,0.0000,0.0000,0.0000,0.0000,0.0000,0.0000,0.0000,0.0000,0.0000
$QL004,2,1F,take_turns,line_accelerate
$GBGSA,A,3,02,06,09,13,,,,,,,,,3.4,3.3,1.0,4*31
$GBVTG,,T,,M,0.0,N,0.0,K,A*31
$GBDTM,P90,,0000.000022,S,00000.000001,W,0.988,W84*48
$GBRMC,000511.00,A,2959.999633,N,11959.999926,E,0.0,,230721,4.3,W,A,V*6F
$GBGNS,000511.00,2959.999633,N,11959.999926,E,NNNAN,04,3.3,-8.0,7.0,,,V*75
$GBGGA,000511.00,2959.999633,N,11959.999926,E,1,04,3.3,-8.0,M,7.0,M,,*64

$GBGSV,4,1,16,14,07,164,49,13,46,201,50,09,36,286,50,06,36,215,50,1*7B
$GBGSV,4,2,16,04,36,125,,02,50,173,50,01,37,122,,11,19,130,,1*79
$GBGSV,4,3,16,12,10,059,,20,19,318,,23,51,142,,24,24,077,,1*7A
$GBGSV,4,4,16,29,06,277,,32,14,059,,36,50,052,,39,35,203,,1*7C
$QL001,1626998712000,29.999994,119.999999,-1.001740,0.000,0.000,8.914,2.500,0.453,0.000
$QL002,4,4,1,0,6.303,6.303,0.000,0.000,0.000,0.320,0.320,0.113,18
$QL003,0.0000,0.0000,0.0000,0.0000,0.0000,0.0000,0.0000,0.0000,0.0000,0.0000
$QL004,2,1F,take_turns,line_accelerate
$GBGSA,A,2,02,06,13,,,,,,,,,,227.0,227.0,1.2,4*3C
$GBVTG,,T,,M,0.0,N,0.0,K,A*31
$GBDTM,P90,,0000.000022,S,00000.000001,W,0.988,W84*48
$GBRMC,000512.00,A,2959.999633,N,11959.999926,E,0.0,,230721,4.3,W,A,V*6C
$GBGNS,000512.00,2959.999633,N,11959.999926,E,NNNAN,03,227.0,-8.0,7.0,,,V*76
$GBGGA,000512.00,2959.999633,N,11959.999926,E,1,03,227.0,-8.0,M,7.0,M,,*67

$GBGSV,4,1,16,14,07,164,49,13,46,201,50,09,36,286,50,06,36,215,50,1*7B
$GBGSV,4,2,16,04,36,125,,02,50,173,50,01,37,122,,11,19,130,,1*79
$GBGSV,4,3,16,12,10,059,,20,19,318,,23,51,142,,24,24,077,,1*7A
$GBGSV,4,4,16,29,06,277,,32,14,059,,36,50,052,,39,35,203,,1*7C
$QL001,1626998713000,29.999994,119.999999,-1.004303,0.000,0.000,8.914,2.500,0.453,0.000
$QL002,4,4,1,0,6.303,6.303,0.000,0.000,0.000,0.320,0.320,0.113,18
$QL003,0.0000,0.0000,0.0000,0.0000,0.0000,0.0000,0.0000,0.0000,0.0000,0.0000
$QL004,2,1F,take_turns,line_accelerate
$GBGSA,A,3,02,06,09,13,,,,,,,,,3.4,3.3,1.0,4*31
$GBVTG,,T,,M,0.0,N,0.0,K,A*31
$GBDTM,P90,,0000.000022,S,00000.000001,W,0.988,W84*48
$GBRMC,000513.00,A,2959.999633,N,11959.999927,E,0.0,,230721,4.3,W,A,V*6C
$GBGNS,000513.00,2959.999633,N,11959.999927,E,NNNAN,04,3.3,-8.0,7.0,,,V*76
$GBGGA,000513.00,2959.999633,N,11959.999927,E,1,04,3.3,-8.0,M,7.0,M,,*67

$GBGSV,4,1,16,14,07,164,49,13,46,201,50,09,36,286,50,06,36,215,50,1*7B
$GBGSV,4,2,16,04,36,125,,02,50,173,50,01,37,122,,11,19,130,,1*79
$GBGSV,4,3,16,12,10,059,,20,19,318,,23,51,142,,24,24,077,,1*7A
$GBGSV,4,4,16,29,06,277,,32,14,059,,36,50,052,,39,35,203,,1*7C
$QL001,1626998714000,29.999994,119.999999,-1.007507,0.000,0.000,8.914,2.500,0.453,0.000
$QL002,4,4,1,0,6.303,6.303,0.000,0.000,0.000,0.320,0.320,0.113,18
$QL003,0.0000,0.0000,0.0000,0.0000,0.0000,0.0000,0.0000,0.0000,0.0000,0.0000
$QL004,2,1F,take_turns,line_accelerate
$GBGSA,A,3,02,06,09,13,,,,,,,,,3.4,3.3,1.0,4*31
$GBVTG,,T,,M,0.0,N,0.0,K,A*31
$GBDTM,P90,,0000.000022,S,00000.000001,W,0.988,W84*48
$GBRMC,000514.00,A,2959.999634,N,11959.999927,E,0.0,,230721,4.3,W,A,V*6C
$GBGNS,000514.00,2959.999634,N,11959.999927,E,NNNAN,04,3.3,-8.0,7.0,,,V*76
$GBGGA,000514.00,2959.999634,N,11959.999927,E,1,04,3.3,-8.0,M,7.0,M,,*67

$GBGSV,4,1,16,14,07,164,49,13,46,201,50,09,36,286,50,06,36,215,50,1*7B
$GBGSV,4,2,16,04,36,125,,02,50,173,50,01,37,122,,11,19,130,,1*79
$GBGSV,4,3,16,12,10,059,,20,19,318,,23,51,142,,24,24,077,,1*7A
$GBGSV,4,4,16,29,06,277,,32,14,059,,36,50,052,,39,35,203,,1*7C
$QL001,1626998715000,29.999994,119.999999,-1.005981,0.000,0.000,8.914,2.500,0.453,0.000
$QL002,4,4,1,0,6.303,6.303,0.000,0.000,0.000,0.320,0.320,0.113,18
$QL003,0.0000,0.0000,0.0000,0.0000,0.0000,0.0000,0.0000,0.0000,0.0000,0.0000
$QL004,2,1F,take_turns,line_accelerate
$GBGSA,A,3,02,06,09,13,,,,,,,,,3.4,3.3,1.0,4*31
$GBVTG,,T,,M,0.0,N,0.0,K,A*31
$GBDTM,P90,,0000.000022,S,00000.000001,W,0.988,W84*48
$GBRMC,000515.00,A,2959.999635,N,11959.999928,E,0.0,,230721,4.3,W,A,V*63
$GBGNS,000515.00,2959.999635,N,11959.999928,E,NNNAN,04,3.3,-8.0,7.0,,,V*79
$GBGGA,000515.00,2959.999635,N,11959.999928,E,1,04,3.3,-8.0,M,7.0,M,,*68

$GBGSV,4,1,16,14,07,164,49,13,46,201,50,09,36,286,50,06,36,215,50,1*7B
$GBGSV,4,2,16,04,36,125,,02,50,173,50,01,37,122,,11,19,130,,1*79
$GBGSV,4,3,16,12,10,059,,20,19,318,,23,51,142,,24,24,077,,1*7A
$GBGSV,4,4,16,29,06,277,,32,14,059,,36,50,052,,39,35,203,,1*7C
$QL001,1626998716000,29.999994,119.999999,-1.006134,0.000,0.000,8.914,2.500,0.453,0.000
$QL002,4,4,1,0,6.303,6.303,0.000,0.000,0.000,0.320,0.320,0.113,18
$QL003,0.0000,0.0000,0.0000,0.0000,0.0000,0.0000,0.0000,0.0000,0.0000,0.0000
$QL004,2,1F,take_turns,line_accelerate
$GBGSA,A,3,02,06,09,13,,,,,,,,,3.4,3.3,1.0,4*31
$GBVTG,,T,,M,0.0,N,0.0,K,A*31
$GBDTM,P90,,0000.000022,S,00000.000001,W,0.988,W84*48
$GBRMC,000516.00,A,2959.999635,N,11959.999929,E,0.0,,230721,4.3,W,A,V*61
$GBGNS,000516.00,2959.999635,N,11959.999929,E,NNNAN,04,3.3,-8.0,7.0,,,V*7B
$GBGGA,000516.00,2959.999635,N,11959.999929,E,1,04,3.3,-8.0,M,7.0,M,,*6A

$GBGSV,4,1,16,14,07,164,49,13,46,201,50,09,36,286,49,06,36,215,50,1*73
$GBGSV,4,2,16,04,36,125,,02,50,173,50,01,37,122,,11,19,130,,1*79
$GBGSV,4,3,16,12,10,059,,20,19,318,,23,51,142,,24,24,077,,1*7A
$GBGSV,4,4,16,29,06,277,,32,14,059,,36,50,052,,39,35,203,,1*7C
$QL001,1626998717000,29.999994,119.999999,-1.009735,0.000,0.000,8.914,2.500,0.453,0.000
$QL002,4,4,1,0,6.303,6.303,0.000,0.000,0.000,0.320,0.320,0.113,18
$QL003,0.0000,0.0000,0.0000,0.0000,0.0000,0.0000,0.0000,0.0000,0.0000,0.0000
$QL004,2,1F,take_turns,line_accelerate
$GBGSA,A,3,02,06,09,13,,,,,,,,,3.4,3.3,1.0,4*31
$GBVTG,,T,,M,0.0,N,0.0,K,A*31
$GBDTM,P90,,0000.000022,S,00000.000001,W,0.988,W84*48
$GBRMC,000517.00,A,2959.999635,N,11959.999929,E,0.0,,230721,4.3,W,A,V*60
$GBGNS,000517.00,2959.999635,N,11959.999929,E,NNNAN,04,3.3,-8.0,7.0,,,V*7A
$GBGGA,000517.00,2959.999635,N,11959.999929,E,1,04,3.3,-8.0,M,7.0,M,,*6B

$GBGSV,4,1,16,14,07,164,49,13,46,201,50,09,36,286,50,06,36,215,50,1*7B
$GBGSV,4,2,16,04,36,125,,02,50,173,50,01,37,122,,11,19,130,,1*79
$GBGSV,4,3,16,12,10,059,,20,19,318,,23,51,142,,24,24,077,,1*7A
$GBGSV,4,4,16,29,06,277,,32,14,059,,36,50,052,,39,35,203,,1*7C
$QL001,1626998718000,29.999994,119.999999,-1.007629,0.000,0.000,8.914,2.500,0.453,0.000
$QL002,4,4,1,0,6.303,6.303,0.000,0.000,0.000,0.320,0.320,0.113,18
$QL003,0.0000,0.0000,0.0000,0.0000,0.0000,0.0000,0.0000,0.0000,0.0000,0.0000
$QL004,2,1F,take_turns,line_accelerate
$GBGSA,A,3,02,06,09,13,,,,,,,,,3.4,3.3,1.0,4*31
$GBVTG,,T,,M,0.0,N,0.0,K,A*31
$GBDTM,P90,,0000.000022,S,00000.000001,W,0.988,W84*48
$GBRMC,000518.00,A,2959.999635,N,11959.999929,E,0.0,,230721,4.3,W,A,V*6F
$GBGNS,000518.00,2959.999635,N,11959.999929,E,NNNAN,04,3.3,-8.0,7.0,,,V*75
$GBGGA,000518.00,2959.999635,N,11959.999929,E,1,04,3.3,-8.0,M,7.0,M,,*64

$GBGSV,4,1,16,14,07,164,49,13,46,201,50,09,36,286,50,06,36,215,50,1*7B
$GBGSV,4,2,16,04,36,125,,02,50,173,50,01,37,122,,11,19,130,,1*79
$GBGSV,4,3,16,12,10,059,,20,19,318,,23,51,142,,24,24,077,,1*7A
$GBGSV,4,4,16,29,06,277,,32,14,059,,36,50,052,,39,35,203,,1*7C
$QL001,1626998719000,29.999994,119.999999,-1.015106,0.000,0.000,8.914,2.500,0.453,0.000
$QL002,4,4,1,0,6.303,6.303,0.000,0.000,0.000,0.320,0.320,0.113,18
$QL003,0.0000,0.0000,0.0000,0.0000,0.0000,0.0000,0.0000,0.0000,0.0000,0.0000
$QL004,2,1F,take_turns,line_accelerate
$GBGSA,A,3,02,06,09,13,,,,,,,,,3.4,3.3,1.0,4*31
$GBVTG,,T,,M,0.0,N,0.0,K,A*31
$GBDTM,P90,,0000.000022,S,00000.000001,W,0.988,W84*48
$GBRMC,000519.00,A,2959.999635,N,11959.999929,E,0.0,,230721,4.3,W,A,V*6E
$GBGNS,000519.00,2959.999635,N,11959.999929,E,NNNAN,04,3.3,-8.0,7.0,,,V*74
$GBGGA,000519.00,2959.999635,N,11959.999929,E,1,04,3.3,-8.0,M,7.0,M,,*65

$GBGSV,4,1,16,14,07,164,49,13,46,201,50,09,36,286,50,06,36,215,50,1*7B
$GBGSV,4,2,16,04,36,125,,02,50,173,50,01,37,122,,11,19,130,,1*79
$GBGSV,4,3,16,12,10,059,,20,19,318,,23,51,142,,24,24,077,,1*7A
$GBGSV,4,4,16,29,06,277,,32,14,059,,36,50,052,,39,35,203,,1*7C
$QL001,1626998720000,29.999994,119.999999,-1.019623,0.000,0.000,8.914,2.500,0.453,0.000
$QL002,4,4,1,0,6.303,6.303,0.000,0.000,0.000,0.320,0.320,0.113,18
$QL003,0.0000,0.0000,0.0000,0.0000,0.0000,0.0000,0.0000,0.0000,0.0000,0.0000
$QL004,2,1F,take_turns,line_accelerate
$GBGSA,A,3,02,06,09,13,,,,,,,,,3.4,3.3,1.0,4*31
$GBVTG,,T,,M,0.0,N,0.0,K,A*31
$GBDTM,P90,,0000.000022,S,00000.000001,W,0.988,W84*48
$GBRMC,000520.00,A,2959.999635,N,11959.999929,E,0.0,,230721,4.3,W,A,V*64
$GBGNS,000520.00,2959.999635,N,11959.999929,E,NNNAN,04,3.3,-8.0,7.0,,,V*7E
$GBGGA,000520.00,2959.999635,N,11959.999929,E,1,04,3.3,-8.0,M,7.0,M,,*6F

$GBGSV,4,1,16,14,07,164,49,13,46,201,50,09,36,286,50,06,36,215,50,1*7B
$GBGSV,4,2,16,04,36,125,,02,50,173,50,01,37,122,,11,19,130,,1*79
$GBGSV,4,3,16,12,10,059,,20,19,318,,23,51,142,,24,24,077,,1*7A
$GBGSV,4,4,16,29,06,277,,32,14,059,,36,50,052,,39,35,203,,1*7C
$QL001,1626998721000,29.999994,119.999999,-1.021698,0.000,0.000,8.914,2.500,0.453,0.000
$QL002,4,4,1,0,6.303,6.303,0.000,0.000,0.000,0.320,0.320,0.113,18
$QL003,0.0000,0.0000,0.0000,0.0000,0.0000,0.0000,0.0000,0.0000,0.0000,0.0000
$QL004,2,1F,take_turns,line_accelerate
$GBGSA,A,3,02,06,09,13,,,,,,,,,3.4,3.3,1.0,4*31
$GBVTG,,T,,M,0.0,N,0.0,K,A*31
$GBDTM,P90,,0000.000022,S,00000.000001,W,0.988,W84*48
$GBRMC,000521.00,A,2959.999635,N,11959.999929,E,0.0,,230721,4.3,W,A,V*65
$GBGNS,000521.00,2959.999635,N,11959.999929,E,NNNAN,04,3.3,-8.0,7.0,,,V*7F
$GBGGA,000521.00,2959.999635,N,11959.999929,E,1,04,3.3,-8.0,M,7.0,M,,*6E

$GBGSV,4,1,16,14,07,164,49,13,46,201,50,09,36,286,50,06,36,215,50,1*7B
$GBGSV,4,2,16,04,36,125,,02,50,173,50,01,37,122,,11,19,130,,1*79
$GBGSV,4,3,16,12,10,059,,20,19,318,,23,51,142,,24,24,077,,1*7A
$GBGSV,4,4,16,29,06,277,,32,14,059,,36,50,052,,39,35,203,,1*7C
$QL001,1626998722000,29.999994,119.999999,-1.020081,0.000,0.000,8.914,2.500,0.453,0.000
$QL002,4,4,1,0,6.303,6.303,0.000,0.000,0.000,0.320,0.320,0.113,18
$QL003,0.0000,0.0000,0.0000,0.0000,0.0000,0.0000,0.0000,0.0000,0.0000,0.0000
$QL004,2,1F,take_turns,line_accelerate
$GBGSA,A,3,02,06,09,13,,,,,,,,,3.4,3.3,1.0,4*31
$GBVTG,,T,,M,0.0,N,0.0,K,A*31
$GBDTM,P90,,0000.000022,S,00000.000001,W,0.988,W84*48
$GBRMC,000522.00,A,2959.999635,N,11959.999929,E,0.0,,230721,4.3,W,A,V*66
$GBGNS,000522.00,2959.999635,N,11959.999929,E,NNNAN,04,3.3,-8.0,7.0,,,V*7C
$GBGGA,000522.00,2959.999635,N,11959.999929,E,1,04,3.3,-8.0,M,7.0,M,,*6D

$GBGSV,4,1,16,14,07,164,49,13,46,201,50,09,36,286,50,06,36,215,50,1*7B
$GBGSV,4,2,16,04,36,125,,02,50,173,50,01,37,122,,11,19,130,,1*79
$GBGSV,4,3,16,12,10,059,,20,19,318,,23,51,142,,24,24,077,,1*7A
$GBGSV,4,4,16,29,06,277,,32,14,059,,36,50,052,,39,35,203,,1*7C
$QL001,1626998723000,29.999994,119.999999,-1.017700,0.000,0.000,8.914,2.500,0.453,0.000
$QL002,4,4,1,0,6.303,6.303,0.000,0.000,0.000,0.320,0.320,0.113,18
$QL003,0.0000,0.0000,0.0000,0.0000,0.0000,0.0000,0.0000,0.0000,0.0000,0.0000
$QL004,2,1F,take_turns,line_accelerate
$GBGSA,A,3,02,06,09,13,,,,,,,,,3.4,3.3,1.0,4*31
$GBVTG,,T,,M,0.0,N,0.0,K,A*31
$GBDTM,P90,,0000.000022,S,00000.000001,W,0.988,W84*48
$GBRMC,000523.00,A,2959.999635,N,11959.999927,E,0.0,,230721,4.3,W,A,V*69
$GBGNS,000523.00,2959.999635,N,11959.999927,E,NNNAN,04,3.3,-8.0,7.0,,,V*73
$GBGGA,000523.00,2959.999635,N,11959.999927,E,1,04,3.3,-8.0,M,7.0,M,,*62

$GBGSV,4,1,16,14,07,164,49,13,46,201,50,09,36,286,50,06,36,215,50,1*7B
$GBGSV,4,2,16,04,36,125,,02,50,173,50,01,37,122,,11,19,130,,1*79
$GBGSV,4,3,16,12,10,059,,20,19,318,,23,51,142,,24,24,077,,1*7A
$GBGSV,4,4,16,29,06,277,,32,14,059,,36,50,052,,39,35,203,,1*7C
$QL001,1626998724000,29.999994,119.999999,-1.018219,0.000,0.000,8.914,2.500,0.453,0.000
$QL002,4,4,1,0,6.303,6.303,0.000,0.000,0.000,0.320,0.320,0.113,18
$QL003,0.0000,0.0000,0.0000,0.0000,0.0000,0.0000,0.0000,0.0000,0.0000,0.0000
$QL004,2,1F,take_turns,line_accelerate
$GBGSA,A,3,02,06,09,13,,,,,,,,,3.4,3.3,1.0,4*31
$GBVTG,,T,,M,0.0,N,0.0,K,A*31
$GBDTM,P90,,0000.000022,S,00000.000001,W,0.988,W84*48
$GBRMC,000524.00,A,2959.999635,N,11959.999926,E,0.0,,230721,4.3,W,A,V*6F
$GBGNS,000524.00,2959.999635,N,11959.999926,E,NNNAN,04,3.3,-8.0,7.0,,,V*75
$GBGGA,000524.00,2959.999635,N,11959.999926,E,1,04,3.3,-8.0,M,7.0,M,,*64

$GBGSV,4,1,16,14,07,164,49,13,46,201,50,09,36,286,50,06,36,215,50,1*7B
$GBGSV,4,2,16,04,36,125,,02,50,173,50,01,37,122,,11,19,130,,1*79
$GBGSV,4,3,16,12,10,059,,20,19,318,,23,51,142,,24,24,077,,1*7A
$GBGSV,4,4,16,29,06,277,,32,14,059,,36,50,052,,39,35,203,,1*7C
$QL001,1626998725000,29.999994,119.999999,-1.018951,0.000,0.000,8.914,2.500,0.453,0.000
$QL002,4,4,1,0,6.303,6.303,0.000,0.000,0.000,0.320,0.320,0.113,18
$QL003,0.0000,0.0000,0.0000,0.0000,0.0000,0.0000,0.0000,0.0000,0.0000,0.0000
$QL004,2,1F,take_turns,line_accelerate
$GBGSA,A,3,02,06,09,13,,,,,,,,,3.4,3.3,1.0,4*31
$GBVTG,,T,,M,0.0,N,0.0,K,A*31
$GBDTM,P90,,0000.000022,S,00000.000001,W,0.988,W84*48
$GBRMC,000525.00,A,2959.999635,N,11959.999926,E,0.0,,230721,4.3,W,A,V*6E
$GBGNS,000525.00,2959.999635,N,11959.999926,E,NNNAN,04,3.3,-8.0,7.0,,,V*74
$GBGGA,000525.00,2959.999635,N,11959.999926,E,1,04,3.3,-8.0,M,7.0,M,,*65

$GBGSV,4,1,16,14,07,164,49,13,46,201,50,09,36,286,50,06,36,215,50,1*7B
$GBGSV,4,2,16,04,36,125,,02,50,173,50,01,37,122,,11,19,130,,1*79
$GBGSV,4,3,16,12,10,059,,20,19,318,,23,51,142,,24,24,077,,1*7A
$GBGSV,4,4,16,29,06,277,,32,14,059,,36,50,052,,39,35,203,,1*7C
$QL001,1626998726000,29.999994,119.999999,-1.025604,0.000,0.000,8.914,2.500,0.453,0.000
$QL002,4,4,1,0,6.303,6.303,0.000,0.000,0.000,0.320,0.320,0.113,18
$QL003,0.0000,0.0000,0.0000,0.0000,0.0000,0.0000,0.0000,0.0000,0.0000,0.0000
$QL004,2,1F,take_turns,line_accelerate
$GBGSA,A,3,02,06,09,13,,,,,,,,,3.4,3.3,1.0,4*31
$GBVTG,,T,,M,0.0,N,0.0,K,A*31
$GBDTM,P90,,0000.000022,S,00000.000001,W,0.988,W84*48
$GBRMC,000526.00,A,2959.999635,N,11959.999926,E,0.0,,230721,4.3,W,A,V*6D
$GBGNS,000526.00,2959.999635,N,11959.999926,E,NNNAN,04,3.3,-8.0,7.0,,,V*77
$GBGGA,000526.00,2959.999635,N,11959.999926,E,1,04,3.3,-8.0,M,7.0,M,,*66

$GBGSV,4,1,16,14,07,164,49,13,46,201,50,09,36,286,50,06,36,215,50,1*7B
$GBGSV,4,2,16,04,36,125,,02,50,173,50,01,37,122,,11,19,130,,1*79
$GBGSV,4,3,16,12,10,059,,20,19,318,,23,51,142,,24,24,077,,1*7A
$GBGSV,4,4,16,29,06,277,,32,14,059,,36,50,052,,39,35,203,,1*7C
$QL001,1626998727000,29.999994,119.999999,-1.026611,0.000,0.000,8.914,2.500,0.453,0.000
$QL002,4,4,1,0,6.303,6.303,0.000,0.000,0.000,0.320,0.320,0.113,18
$QL003,0.0000,0.0000,0.0000,0.0000,0.0000,0.0000,0.0000,0.0000,0.0000,0.0000
$QL004,2,1F,take_turns,line_accelerate
$GBGSA,A,3,02,06,09,13,,,,,,,,,3.4,3.3,1.0,4*31
$GBVTG,,T,,M,0.0,N,0.0,K,A*31
$GBDTM,P90,,0000.000022,S,00000.000001,W,0.988,W84*48
$GBRMC,000527.00,A,2959.999635,N,11959.999927,E,0.0,,230721,4.3,W,A,V*6D
$GBGNS,000527.00,2959.999635,N,11959.999927,E,NNNAN,04,3.3,-8.0,7.0,,,V*77
$GBGGA,000527.00,2959.999635,N,11959.999927,E,1,04,3.3,-8.0,M,7.0,M,,*66

$GBGSV,4,1,16,14,07,164,49,13,46,201,50,09,36,286,50,06,36,215,50,1*7B
$GBGSV,4,2,16,04,36,125,,02,50,173,50,01,37,122,,11,19,130,,1*79
$GBGSV,4,3,16,12,10,059,,20,19,318,,23,51,142,,24,24,077,,1*7A
$GBGSV,4,4,16,29,06,277,,32,14,059,,36,50,052,,39,35,203,,1*7C
$QL001,1626998728000,29.999994,119.999999,-1.022827,0.000,0.000,8.914,2.500,0.453,0.000
$QL002,4,4,1,0,6.303,6.303,0.000,0.000,0.000,0.320,0.320,0.113,18
$QL003,0.0000,0.0000,0.0000,0.0000,0.0000,0.0000,0.0000,0.0000,0.0000,0.0000
$QL004,2,1F,take_turns,line_accelerate
$GBGSA,A,3,02,06,09,13,,,,,,,,,3.4,3.3,1.0,4*31
$GBVTG,,T,,M,0.0,N,0.0,K,A*31
$GBDTM,P90,,0000.000022,S,00000.000001,W,0.988,W84*48
$GBRMC,000528.00,A,2959.999635,N,11959.999926,E,0.0,,230721,4.3,W,A,V*63
$GBGNS,000528.00,2959.999635,N,11959.999926,E,NNNAN,04,3.3,-8.0,7.0,,,V*79
$GBGGA,000528.00,2959.999635,N,11959.999926,E,1,04,3.3,-8.0,M,7.0,M,,*68

$GBGSV,4,1,16,14,07,164,49,13,46,201,50,09,36,286,50,06,36,215,50,1*7B
$GBGSV,4,2,16,04,36,125,,02,50,173,50,01,37,122,,11,19,130,,1*79
$GBGSV,4,3,16,12,10,059,,20,19,318,,23,51,142,,24,24,077,,1*7A
$GBGSV,4,4,16,29,06,277,,32,14,059,,36,50,052,,39,35,203,,1*7C
$QL001,1626998729000,29.999994,119.999999,-1.022278,0.000,0.000,8.914,2.500,0.453,0.000
$QL002,4,4,1,0,6.303,6.303,0.000,0.000,0.000,0.320,0.320,0.113,18
$QL003,0.0000,0.0000,0.0000,0.0000,0.0000,0.0000,0.0000,0.0000,0.0000,0.0000
$QL004,2,1F,take_turns,line_accelerate
$GBGSA,A,2,06,09,13,,,,,,,,,,7.1,7.0,1.0,4*34
$GBVTG,,T,,M,0.0,N,0.0,K,A*31
$GBDTM,P90,,0000.000022,S,00000.000001,W,0.988,W84*48
$GBRMC,000529.00,A,2959.999635,N,11959.999926,E,0.0,,230721,4.3,W,A,V*62
$GBGNS,000529.00,2959.999635,N,11959.999926,E,NNNAN,03,7.0,-8.0,7.0,,,V*78
$GBGGA,000529.00,2959.999635,N,11959.999926,E,1,03,7.0,-8.0,M,7.0,M,,*69

$GBGSV,4,1,16,14,07,164,49,13,46,201,50,09,36,286,50,06,36,215,50,1*7B
$GBGSV,4,2,16,04,36,125,,02,50,173,50,01,37,122,,11,19,130,,1*79
$GBGSV,4,3,16,12,10,059,,20,19,318,,23,51,142,,24,24,077,,1*7A
$GBGSV,4,4,16,29,06,277,,32,14,059,,36,50,052,,39,35,203,,1*7C
$QL001,1626998730000,29.999994,119.999999,-1.018555,0.000,0.000,8.914,2.500,0.453,0.000
$QL002,4,4,1,0,6.303,6.303,0.000,0.000,0.000,0.320,0.320,0.113,18
$QL003,0.0000,0.0000,0.0000,0.0000,0.0000,0.0000,0.0000,0.0000,0.0000,0.0000
$QL004,2,1F,take_turns,line_accelerate
$GBGSA,A,3,02,06,09,13,,,,,,,,,3.4,3.3,1.0,4*31
$GBVTG,,T,,M,0.0,N,0.0,K,A*31
$GBDTM,P90,,0000.000022,S,00000.000001,W,0.988,W84*48
$GBRMC,000530.00,A,2959.999636,N,11959.999927,E,0.0,,230721,4.3,W,A,V*68
$GBGNS,000530.00,2959.999636,N,11959.999927,E,NNNAN,04,3.3,-8.0,7.0,,,V*72
$GBGGA,000530.00,2959.999636,N,11959.999927,E,1,04,3.3,-8.0,M,7.0,M,,*63

$GBGSV,4,1,16,14,07,164,49,13,46,201,50,09,36,286,50,06,36,215,50,1*7B
$GBGSV,4,2,16,04,36,125,,02,50,173,50,01,37,122,,11,19,130,,1*79
$GBGSV,4,3,16,12,10,059,,20,19,318,,23,51,142,,24,24,077,,1*7A
$GBGSV,4,4,16,29,06,277,,32,14,059,,36,50,052,,39,35,203,,1*7C
$QL001,1626998731000,29.999994,119.999999,-1.016296,0.000,0.000,8.914,2.500,0.453,0.000
$QL002,4,4,1,0,6.303,6.303,0.000,0.000,0.000,0.320,0.320,0.113,18
$QL003,0.0000,0.0000,0.0000,0.0000,0.0000,0.0000,0.0000,0.0000,0.0000,0.0000
$QL004,2,1F,take_turns,line_accelerate
$GBGSA,A,3,02,06,09,13,,,,,,,,,3.4,3.3,1.0,4*31
$GBVTG,,T,,M,0.0,N,0.0,K,A*31
$GBDTM,P90,,0000.000022,S,00000.000001,W,0.988,W84*48
$GBRMC,000531.00,A,2959.999636,N,11959.999927,E,0.0,,230721,4.3,W,A,V*69
$GBGNS,000531.00,2959.999636,N,11959.999927,E,NNNAN,04,3.3,-8.0,7.0,,,V*73
$GBGGA,000531.00,2959.999636,N,11959.999927,E,1,04,3.3,-8.0,M,7.0,M,,*62

$GBGSV,4,1,16,14,07,164,49,13,46,201,50,09,36,286,50,06,36,215,50,1*7B
$GBGSV,4,2,16,04,36,125,,02,50,173,50,01,37,122,,11,19,130,,1*79
$GBGSV,4,3,16,12,10,059,,20,19,318,,23,51,142,,24,24,077,,1*7A
$GBGSV,4,4,16,29,06,277,,32,14,059,,36,50,052,,39,35,203,,1*7C
$QL001,1626998732000,29.999994,119.999999,-1.013428,0.000,0.000,8.914,2.500,0.453,0.000
$QL002,4,4,1,0,6.303,6.303,0.000,0.000,0.000,0.320,0.320,0.113,18
$QL003,0.0000,0.0000,0.0000,0.0000,0.0000,0.0000,0.0000,0.0000,0.0000,0.0000
$QL004,2,1F,take_turns,line_accelerate
$GBGSA,A,3,02,06,09,13,,,,,,,,,3.4,3.3,1.0,4*31
$GBVTG,,T,,M,0.0,N,0.0,K,A*31
$GBDTM,P90,,0000.000022,S,00000.000001,W,0.988,W84*48
$GBRMC,000532.00,A,2959.999638,N,11959.999927,E,0.0,,230721,4.3,W,A,V*64
$GBGNS,000532.00,2959.999638,N,11959.999927,E,NNNAN,04,3.3,-8.0,7.0,,,V*7E
$GBGGA,000532.00,2959.999638,N,11959.999927,E,1,04,3.3,-8.0,M,7.0,M,,*6F

$GBGSV,4,1,16,14,07,164,49,13,46,201,50,09,36,286,50,06,36,215,50,1*7B
$GBGSV,4,2,16,04,36,125,,02,50,173,50,01,37,122,,11,19,130,,1*79
$GBGSV,4,3,16,12,10,059,,20,19,318,,23,51,142,,24,24,077,,1*7A
$GBGSV,4,4,16,29,06,277,,32,14,059,,36,50,052,,39,35,203,,1*7C
$QL001,1626998733000,29.999994,119.999999,-1.016235,0.000,0.000,8.914,2.500,0.453,0.000
$QL002,4,4,1,0,6.303,6.303,0.000,0.000,0.000,0.320,0.320,0.113,18
$QL003,0.0000,0.0000,0.0000,0.0000,0.0000,0.0000,0.0000,0.0000,0.0000,0.0000
$QL004,2,1F,take_turns,line_accelerate
$GBGSA,A,3,02,06,09,13,,,,,,,,,3.4,3.3,1.0,4*31
$GBVTG,,T,,M,0.0,N,0.0,K,A*31
$GBDTM,P90,,0000.000022,S,00000.000001,W,0.988,W84*48
$GBRMC,000533.00,A,2959.999637,N,11959.999927,E,0.0,,230721,4.3,W,A,V*6A
$GBGNS,000533.00,2959.999637,N,11959.999927,E,NNNAN,04,3.3,-8.0,7.0,,,V*70
$GBGGA,000533.00,2959.999637,N,11959.999927,E,1,04,3.3,-8.0,M,7.0,M,,*61

$GBGSV,4,1,16,14,07,164,49,13,46,201,50,09,36,286,50,06,36,215,50,1*7B
$GBGSV,4,2,16,04,36,125,,02,50,173,50,01,37,122,,11,19,130,,1*79
$GBGSV,4,3,16,12,10,059,,20,19,318,,23,51,142,,24,24,077,,1*7A
$GBGSV,4,4,16,29,06,277,,32,14,059,,36,50,052,,39,35,203,,1*7C
$QL001,1626998734000,29.999994,119.999999,-1.018951,0.000,0.000,8.914,2.500,0.453,0.000
$QL002,4,4,1,0,6.303,6.303,0.000,0.000,0.000,0.320,0.320,0.113,18
$QL003,0.0000,0.0000,0.0000,0.0000,0.0000,0.0000,0.0000,0.0000,0.0000,0.0000
$QL004,2,1F,take_turns,line_accelerate
$GBGSA,A,3,02,06,09,13,,,,,,,,,3.4,3.3,1.0,4*31
$GBVTG,,T,,M,0.0,N,0.0,K,A*31
$GBDTM,P90,,0000.000022,S,00000.000001,W,0.988,W84*48
$GBRMC,000534.00,A,2959.999638,N,11959.999928,E,0.0,,230721,4.3,W,A,V*6D
$GBGNS,000534.00,2959.999638,N,11959.999928,E,NNNAN,04,3.3,-8.0,7.0,,,V*77
$GBGGA,000534.00,2959.999638,N,11959.999928,E,1,04,3.3,-8.0,M,7.0,M,,*66

$GBGSV,4,1,16,14,07,164,49,13,46,201,50,09,36,286,50,06,36,215,50,1*7B
$GBGSV,4,2,16,04,36,125,,02,50,173,50,01,37,122,,11,19,130,,1*79
$GBGSV,4,3,16,12,10,059,,20,19,318,,23,51,142,,24,24,077,,1*7A
$GBGSV,4,4,16,29,06,277,,32,14,059,,36,50,052,,39,35,203,,1*7C
$QL001,1626998735000,29.999994,119.999999,-1.018921,0.000,0.000,8.914,2.500,0.453,0.000
$QL002,4,4,1,0,6.303,6.303,0.000,0.000,0.000,0.320,0.320,0.113,18
$QL003,0.0000,0.0000,0.0000,0.0000,0.0000,0.0000,0.0000,0.0000,0.0000,0.0000
$QL004,2,1F,take_turns,line_accelerate
$GBGSA,A,3,02,06,09,13,,,,,,,,,3.4,3.3,1.0,4*31
$GBVTG,,T,,M,0.0,N,0.0,K,A*31
$GBDTM,P90,,0000.000022,S,00000.000001,W,0.988,W84*48
$GBRMC,000535.00,A,2959.999639,N,11959.999927,E,0.0,,230721,4.3,W,A,V*62
$GBGNS,000535.00,2959.999639,N,11959.999927,E,NNNAN,04,3.3,-8.0,7.0,,,V*78
$GBGGA,000535.00,2959.999639,N,11959.999927,E,1,04,3.3,-8.0,M,7.0,M,,*69

$GBGSV,4,1,16,14,07,164,49,13,46,201,50,09,36,286,50,06,36,215,50,1*7B
$GBGSV,4,2,16,04,36,125,,02,50,173,50,01,37,122,,11,19,130,,1*79
$GBGSV,4,3,16,12,10,059,,20,19,318,,23,51,142,,24,24,077,,1*7A
$GBGSV,4,4,16,29,06,277,,32,14,059,,36,50,052,,39,35,203,,1*7C
$QL001,1626998736000,29.999994,119.999999,-1.022247,0.000,0.000,8.914,2.500,0.453,0.000
$QL002,4,4,1,0,6.303,6.303,0.000,0.000,0.000,0.320,0.320,0.113,18
$QL003,0.0000,0.0000,0.0000,0.0000,0.0000,0.0000,0.0000,0.0000,0.0000,0.0000
$QL004,2,1F,take_turns,line_accelerate
$GBGSA,A,3,02,06,09,13,,,,,,,,,3.4,3.3,1.0,4*31
$GBVTG,,T,,M,0.0,N,0.0,K,A*31
$GBDTM,P90,,0000.000022,S,00000.000001,W,0.988,W84*48
$GBRMC,000536.00,A,2959.999639,N,11959.999929,E,0.0,,230721,4.3,W,A,V*6F
$GBGNS,000536.00,2959.999639,N,11959.999929,E,NNNAN,04,3.3,-8.0,7.0,,,V*75
$GBGGA,000536.00,2959.999639,N,11959.999929,E,1,04,3.3,-8.0,M,7.0,M,,*64

$GBGSV,4,1,16,14,07,164,49,13,46,201,50,09,36,286,50,06,36,215,50,1*7B
$GBGSV,4,2,16,04,36,125,,02,50,173,50,01,37,122,,11,19,130,,1*79
$GBGSV,4,3,16,12,10,059,,20,19,318,,23,51,142,,24,24,077,,1*7A
$GBGSV,4,4,16,29,06,277,,32,14,059,,36,50,052,,39,35,203,,1*7C
$QL001,1626998737000,29.999994,119.999999,-1.022369,0.000,0.000,8.914,2.500,0.453,0.000
$QL002,4,4,1,0,6.303,6.303,0.000,0.000,0.000,0.320,0.320,0.113,18
$QL003,0.0000,0.0000,0.0000,0.0000,0.0000,0.0000,0.0000,0.0000,0.0000,0.0000
$QL004,2,1F,take_turns,line_accelerate
$GBGSA,A,3,02,06,09,13,,,,,,,,,3.4,3.3,1.0,4*31
$GBVTG,,T,,M,0.0,N,0.0,K,A*31
$GBDTM,P90,,0000.000022,S,00000.000001,W,0.988,W84*48
$GBRMC,000537.00,A,2959.999639,N,11959.999928,E,0.0,,230721,4.3,W,A,V*6F
$GBGNS,000537.00,2959.999639,N,11959.999928,E,NNNAN,04,3.3,-8.0,7.0,,,V*75
$GBGGA,000537.00,2959.999639,N,11959.999928,E,1,04,3.3,-8.0,M,7.0,M,,*64

$GBGSV,4,1,16,14,07,164,49,13,46,201,50,09,36,286,50,06,36,215,50,1*7B
$GBGSV,4,2,16,04,36,125,,02,50,173,50,01,37,122,,11,19,130,,1*79
$GBGSV,4,3,16,12,10,059,,20,19,318,,23,51,142,,24,24,077,,1*7A
$GBGSV,4,4,16,29,06,277,,32,14,059,,36,50,052,,39,35,203,,1*7C
$QL001,1626998738000,29.999994,119.999999,-1.025452,0.000,0.000,8.914,2.500,0.453,0.000
$QL002,4,4,1,0,6.303,6.303,0.000,0.000,0.000,0.320,0.320,0.113,18
$QL003,0.0000,0.0000,0.0000,0.0000,0.0000,0.0000,0.0000,0.0000,0.0000,0.0000
$QL004,2,1F,take_turns,line_accelerate
$GBGSA,A,3,02,06,09,13,,,,,,,,,3.4,3.3,1.0,4*31
$GBVTG,,T,,M,0.0,N,0.0,K,A*31
$GBDTM,P90,,0000.000022,S,00000.000001,W,0.988,W84*48
$GBRMC,000538.00,A,2959.999639,N,11959.999928,E,0.0,,230721,4.3,W,A,V*60
$GBGNS,000538.00,2959.999639,N,11959.999928,E,NNNAN,04,3.3,-8.0,7.0,,,V*7A
$GBGGA,000538.00,2959.999639,N,11959.999928,E,1,04,3.3,-8.0,M,7.0,M,,*6B

$GBGSV,4,1,16,14,07,164,49,13,46,201,50,09,36,286,50,06,36,215,50,1*7B
$GBGSV,4,2,16,04,36,125,,02,50,173,50,01,37,122,,11,19,130,,1*79
$GBGSV,4,3,16,12,10,059,,20,19,318,,23,51,142,,24,24,077,,1*7A
$GBGSV,4,4,16,29,06,277,,32,14,059,,36,50,052,,39,35,203,,1*7C
$QL001,1626998739000,29.999994,119.999999,-1.025909,0.000,0.000,8.914,2.500,0.453,0.000
$QL002,4,4,1,0,6.303,6.303,0.000,0.000,0.000,0.320,0.320,0.113,18
$QL003,0.0000,0.0000,0.0000,0.0000,0.0000,0.0000,0.0000,0.0000,0.0000,0.0000
$QL004,2,1F,take_turns,line_accelerate
$GBGSA,A,3,02,06,09,13,,,,,,,,,3.4,3.3,1.0,4*31
$GBVTG,,T,,M,0.0,N,0.0,K,A*31
$GBDTM,P90,,0000.000022,S,00000.000001,W,0.988,W84*48
$GBRMC,000539.00,A,2959.999638,N,11959.999928,E,0.0,,230721,4.3,W,A,V*60
$GBGNS,000539.00,2959.999638,N,11959.999928,E,NNNAN,04,3.3,-8.0,7.0,,,V*7A
$GBGGA,000539.00,2959.999638,N,11959.999928,E,1,04,3.3,-8.0,M,7.0,M,,*6B

$GBGSV,4,1,16,14,07,164,49,13,46,201,50,09,36,286,50,06,36,215,50,1*7B
$GBGSV,4,2,16,04,36,125,,02,50,173,50,01,37,122,,11,19,130,,1*79
$GBGSV,4,3,16,12,10,059,,20,19,318,,23,51,142,,24,24,077,,1*7A
$GBGSV,4,4,16,29,06,277,,32,14,059,,36,50,052,,39,35,203,,1*7C
$QL001,1626998740000,29.999994,119.999999,-1.027039,0.000,0.000,8.914,2.500,0.453,0.000
$QL002,4,4,1,0,6.303,6.303,0.000,0.000,0.000,0.320,0.320,0.113,18
$QL003,0.0000,0.0000,0.0000,0.0000,0.0000,0.0000,0.0000,0.0000,0.0000,0.0000
$QL004,2,1F,take_turns,line_accelerate
$GBGSA,A,3,02,06,09,13,,,,,,,,,3.4,3.3,1.0,4*31
$GBVTG,,T,,M,0.0,N,0.0,K,A*31
$GBDTM,P90,,0000.000022,S,00000.000001,W,0.988,W84*48
$GBRMC,000540.00,A,2959.999638,N,11959.999928,E,0.0,,230721,4.3,W,A,V*6E
$GBGNS,000540.00,2959.999638,N,11959.999928,E,NNNAN,04,3.3,-8.0,7.0,,,V*74
$GBGGA,000540.00,2959.999638,N,11959.999928,E,1,04,3.3,-8.0,M,7.0,M,,*65

$GBGSV,4,1,16,14,07,164,49,13,46,201,50,09,36,286,50,06,36,215,50,1*7B
$GBGSV,4,2,16,04,36,125,,02,50,173,50,01,37,122,,11,19,130,,1*79
$GBGSV,4,3,16,12,10,059,,20,19,318,,23,51,142,,24,24,077,,1*7A
$GBGSV,4,4,16,29,06,277,,32,14,059,,36,50,052,,39,35,203,,1*7C
$QL001,1626998741000,29.999994,119.999999,-1.030823,0.000,0.000,8.914,2.500,0.453,0.000
$QL002,4,4,1,0,6.303,6.303,0.000,0.000,0.000,0.320,0.320,0.113,18
$QL003,0.0000,0.0000,0.0000,0.0000,0.0000,0.0000,0.0000,0.0000,0.0000,0.0000
$QL004,2,1F,take_turns,line_accelerate
$GBGSA,A,3,02,06,09,13,,,,,,,,,3.4,3.3,1.0,4*31
$GBVTG,,T,,M,0.0,N,0.0,K,A*31
$GBDTM,P90,,0000.000022,S,00000.000001,W,0.988,W84*48
$GBRMC,000541.00,A,2959.999638,N,11959.999927,E,0.0,,230721,4.3,W,A,V*60
$GBGNS,000541.00,2959.999638,N,11959.999927,E,NNNAN,04,3.3,-8.0,7.0,,,V*7A
$GBGGA,000541.00,2959.999638,N,11959.999927,E,1,04,3.3,-8.0,M,7.0,M,,*6B

$GBGSV,4,1,16,14,07,164,49,13,46,201,50,09,36,286,50,06,36,215,50,1*7B
$GBGSV,4,2,16,04,36,125,,02,50,173,50,01,37,122,,11,19,130,,1*79
$GBGSV,4,3,16,12,10,059,,20,19,318,,23,51,142,,24,24,077,,1*7A
$GBGSV,4,4,16,29,06,277,,32,14,059,,36,50,052,,39,35,203,,1*7C
$QL001,1626998742000,29.999994,119.999999,-1.036316,0.000,0.000,8.914,2.500,0.453,0.000
$QL002,4,4,1,0,6.303,6.303,0.000,0.000,0.000,0.320,0.320,0.113,18
$QL003,0.0000,0.0000,0.0000,0.0000,0.0000,0.0000,0.0000,0.0000,0.0000,0.0000
$QL004,2,1F,take_turns,line_accelerate
$GBGSA,A,3,02,06,09,13,,,,,,,,,3.4,3.3,1.0,4*31
$GBVTG,,T,,M,0.0,N,0.0,K,A*31
$GBDTM,P90,,0000.000022,S,00000.000001,W,0.988,W84*48
$GBRMC,000542.00,A,2959.999638,N,11959.999926,E,0.0,,230721,4.3,W,A,V*62
$GBGNS,000542.00,2959.999638,N,11959.999926,E,NNNAN,04,3.3,-8.0,7.0,,,V*78
$GBGGA,000542.00,2959.999638,N,11959.999926,E,1,04,3.3,-8.0,M,7.0,M,,*69

$GBGSV,4,1,16,14,07,164,49,13,46,201,50,09,36,286,50,06,36,215,50,1*7B
$GBGSV,4,2,16,04,36,125,,02,50,173,50,01,37,122,,11,19,130,,1*79
$GBGSV,4,3,16,12,10,059,,20,19,318,,23,51,142,,24,24,077,,1*7A
$GBGSV,4,4,16,29,06,277,,32,14,059,,36,50,052,,39,35,203,,1*7C
$QL001,1626998743000,29.999994,119.999999,-1.033752,0.000,0.000,8.914,2.500,0.453,0.000
$QL002,4,4,1,0,6.303,6.303,0.000,0.000,0.000,0.320,0.320,0.113,18
$QL003,0.0000,0.0000,0.0000,0.0000,0.0000,0.0000,0.0000,0.0000,0.0000,0.0000
$QL004,2,1F,take_turns,line_accelerate
$GBGSA,A,3,02,06,09,13,,,,,,,,,3.4,3.3,1.0,4*31
$GBVTG,,T,,M,0.0,N,0.0,K,A*31
$GBDTM,P90,,0000.000022,S,00000.000001,W,0.988,W84*48
$GBRMC,000543.00,A,2959.999638,N,11959.999926,E,0.0,,230721,4.3,W,A,V*63
$GBGNS,000543.00,2959.999638,N,11959.999926,E,NNNAN,04,3.3,-8.0,7.0,,,V*79
$GBGGA,000543.00,2959.999638,N,11959.999926,E,1,04,3.3,-8.0,M,7.0,M,,*68

$GBGSV,4,1,16,14,07,164,49,13,46,201,50,09,36,286,50,06,36,215,50,1*7B
$GBGSV,4,2,16,04,36,125,,02,50,173,50,01,37,122,,11,19,130,,1*79
$GBGSV,4,3,16,12,10,059,,20,19,318,,23,51,142,,24,24,077,,1*7A
$GBGSV,4,4,16,29,06,277,,32,14,059,,36,50,052,,39,35,203,,1*7C
$QL001,1626998744000,29.999994,119.999999,-1.032196,0.000,0.000,8.914,2.500,0.453,0.000
$QL002,4,4,1,0,6.303,6.303,0.000,0.000,0.000,0.320,0.320,0.113,18
$QL003,0.0000,0.0000,0.0000,0.0000,0.0000,0.0000,0.0000,0.0000,0.0000,0.0000
$QL004,2,1F,take_turns,line_accelerate
$GBGSA,A,3,02,06,09,13,,,,,,,,,3.4,3.3,1.0,4*31
$GBVTG,,T,,M,0.0,N,0.0,K,A*31
$GBDTM,P90,,0000.000022,S,00000.000001,W,0.988,W84*48
$GBRMC,000544.00,A,2959.999638,N,11959.999926,E,0.0,,230721,4.3,W,A,V*64
$GBGNS,000544.00,2959.999638,N,11959.999926,E,NNNAN,04,3.3,-8.0,7.0,,,V*7E
$GBGGA,000544.00,2959.999638,N,11959.999926,E,1,04,3.3,-8.0,M,7.0,M,,*6F

$GBGSV,4,1,16,14,07,164,49,13,46,201,50,09,36,286,50,06,36,215,50,1*7B
$GBGSV,4,2,16,04,36,125,,02,50,173,50,01,37,122,,11,19,130,,1*79
$GBGSV,4,3,16,12,10,059,,20,19,318,,23,51,142,,24,24,077,,1*7A
$GBGSV,4,4,16,29,06,277,,32,14,059,,36,50,052,,39,35,203,,1*7C
$QL001,1626998745000,29.999994,119.999999,-1.036163,0.000,0.000,8.914,2.500,0.453,0.000
$QL002,4,4,1,0,6.303,6.303,0.000,0.000,0.000,0.320,0.320,0.113,18
$QL003,0.0000,0.0000,0.0000,0.0000,0.0000,0.0000,0.0000,0.0000,0.0000,0.0000
$QL004,2,1F,take_turns,line_accelerate
$GBGSA,A,3,02,06,09,13,,,,,,,,,3.4,3.3,1.0,4*31
$GBVTG,,T,,M,0.0,N,0.0,K,A*31
$GBDTM,P90,,0000.000022,S,00000.000001,W,0.988,W84*48
$GBRMC,000545.00,A,2959.999638,N,11959.999925,E,0.0,,230721,4.3,W,A,V*66
$GBGNS,000545.00,2959.999638,N,11959.999925,E,NNNAN,04,3.3,-8.0,7.0,,,V*7C
$GBGGA,000545.00,2959.999638,N,11959.999925,E,1,04,3.3,-8.0,M,7.0,M,,*6D

$GBGSV,4,1,16,14,07,164,49,13,46,201,50,09,36,286,50,06,36,215,49,1*73
$GBGSV,4,2,16,04,36,125,,02,50,173,50,01,37,122,,11,19,130,,1*79
$GBGSV,4,3,16,12,10,059,,20,19,318,,23,51,142,,24,24,077,,1*7A
$GBGSV,4,4,16,29,06,277,,32,14,059,,36,50,052,,39,35,203,,1*7C
$QL001,1626998746000,29.999994,119.999999,-1.036926,0.000,0.000,8.914,2.500,0.453,0.000
$QL002,4,4,1,0,6.303,6.303,0.000,0.000,0.000,0.320,0.320,0.113,18
$QL003,0.0000,0.0000,0.0000,0.0000,0.0000,0.0000,0.0000,0.0000,0.0000,0.0000
$QL004,2,1F,take_turns,line_accelerate
$GBGSA,A,3,02,06,09,13,,,,,,,,,3.4,3.3,1.0,4*31
$GBVTG,,T,,M,0.0,N,0.0,K,A*31
$GBDTM,P90,,0000.000022,S,00000.000001,W,0.988,W84*48
$GBRMC,000546.00,A,2959.999638,N,11959.999925,E,0.0,,230721,4.3,W,A,V*65
$GBGNS,000546.00,2959.999638,N,11959.999925,E,NNNAN,04,3.3,-8.0,7.0,,,V*7F
$GBGGA,000546.00,2959.999638,N,11959.999925,E,1,04,3.3,-8.0,M,7.0,M,,*6E

$GBGSV,4,1,16,14,07,164,49,13,46,201,50,09,36,286,50,06,36,215,49,1*73
$GBGSV,4,2,16,04,36,125,,02,50,173,50,01,37,122,,11,19,130,,1*79
$GBGSV,4,3,16,12,10,059,,20,19,318,,23,51,142,,24,24,077,,1*7A
$GBGSV,4,4,16,29,06,277,,32,14,059,,36,50,052,,39,35,203,,1*7C
$QL001,1626998747000,29.999994,119.999999,-1.039978,0.000,0.000,8.914,2.500,0.453,0.000
$QL002,4,4,1,0,6.303,6.303,0.000,0.000,0.000,0.320,0.320,0.113,18
$QL003,0.0000,0.0000,0.0000,0.0000,0.0000,0.0000,0.0000,0.0000,0.0000,0.0000
$QL004,2,1F,take_turns,line_accelerate
$GBGSA,A,2,06,09,13,,,,,,,,,,7.1,7.0,1.0,4*34
$GBVTG,,T,,M,0.0,N,0.0,K,A*31
$GBDTM,P90,,0000.000022,S,00000.000001,W,0.988,W84*48
$GBRMC,000547.00,A,2959.999636,N,11959.999923,E,0.0,,230721,4.3,W,A,V*6C
$GBGNS,000547.00,2959.999636,N,11959.999923,E,NNNAN,03,7.0,-8.0,7.0,,,V*76
$GBGGA,000547.00,2959.999636,N,11959.999923,E,1,03,7.0,-8.0,M,7.0,M,,*67

$GBGSV,4,1,16,14,07,164,49,13,46,201,50,09,36,286,50,06,36,215,50,1*7B
$GBGSV,4,2,16,04,36,125,,02,50,173,50,01,37,122,,11,19,130,,1*79
$GBGSV,4,3,16,12,10,059,,20,19,318,,23,51,142,,24,24,077,,1*7A
$GBGSV,4,4,16,29,06,277,,32,14,059,,36,50,052,,39,35,203,,1*7C
$QL001,1626998748000,29.999994,119.999999,-1.047852,0.000,0.000,8.914,2.500,0.453,0.000
$QL002,4,4,1,0,6.303,6.303,0.000,0.000,0.000,0.320,0.320,0.113,18
$QL003,0.0000,0.0000,0.0000,0.0000,0.0000,0.0000,0.0000,0.0000,0.0000,0.0000
$QL004,2,1F,take_turns,line_accelerate
$GBGSA,A,3,02,06,09,13,,,,,,,,,3.4,3.3,1.0,4*31
$GBVTG,,T,,M,0.0,N,0.0,K,A*31
$GBDTM,P90,,0000.000022,S,00000.000001,W,0.988,W84*48
$GBRMC,000548.00,A,2959.999637,N,11959.999923,E,0.0,,230721,4.3,W,A,V*62
$GBGNS,000548.00,2959.999637,N,11959.999923,E,NNNAN,04,3.3,-8.0,7.0,,,V*78
$GBGGA,000548.00,2959.999637,N,11959.999923,E,1,04,3.3,-8.0,M,7.0,M,,*69

$GBGSV,4,1,16,14,07,164,49,13,46,201,50,09,36,286,50,06,36,215,50,1*7B
$GBGSV,4,2,16,04,36,125,,02,50,173,50,01,37,122,,11,19,130,,1*79
$GBGSV,4,3,16,12,10,059,,20,19,318,,23,51,142,,24,24,077,,1*7A
$GBGSV,4,4,16,29,06,277,,32,14,059,,36,50,052,,39,35,203,,1*7C
$QL001,1626998749000,29.999994,119.999999,-1.049164,0.000,0.000,8.914,2.500,0.453,0.000
$QL002,4,4,1,0,6.303,6.303,0.000,0.000,0.000,0.320,0.320,0.113,18
$QL003,0.0000,0.0000,0.0000,0.0000,0.0000,0.0000,0.0000,0.0000,0.0000,0.0000
$QL004,2,1F,take_turns,line_accelerate
$GBGSA,A,3,02,06,09,13,,,,,,,,,3.4,3.3,1.0,4*31
$GBVTG,,T,,M,0.0,N,0.0,K,A*31
$GBDTM,P90,,0000.000022,S,00000.000001,W,0.988,W84*48
$GBRMC,000549.00,A,2959.999637,N,11959.999923,E,0.0,,230721,4.3,W,A,V*63
$GBGNS,000549.00,2959.999637,N,11959.999923,E,NNNAN,04,3.3,-8.0,7.0,,,V*79
$GBGGA,000549.00,2959.999637,N,11959.999923,E,1,04,3.3,-8.0,M,7.0,M,,*68

$GBGSV,4,1,16,14,07,164,49,13,46,201,50,09,36,286,50,06,36,215,50,1*7B
$GBGSV,4,2,16,04,36,125,,02,50,173,50,01,37,122,,11,19,130,,1*79
$GBGSV,4,3,16,12,10,059,,20,19,318,,23,51,142,,24,24,077,,1*7A
$GBGSV,4,4,16,29,06,277,,32,14,059,,36,50,052,,39,35,203,,1*7C
$QL001,1626998750000,29.999994,119.999999,-1.056274,0.000,0.000,8.914,2.500,0.453,0.000
$QL002,4,4,1,0,6.303,6.303,0.000,0.000,0.000,0.320,0.320,0.113,18
$QL003,0.0000,0.0000,0.0000,0.0000,0.0000,0.0000,0.0000,0.0000,0.0000,0.0000
$QL004,2,1F,take_turns,line_accelerate
$GBGSA,A,3,02,06,09,13,,,,,,,,,3.4,3.3,1.0,4*31
$GBVTG,,T,,M,0.0,N,0.0,K,A*31
$GBDTM,P90,,0000.000022,S,00000.000001,W,0.988,W84*48
$GBRMC,000550.00,A,2959.999637,N,11959.999923,E,0.0,,230721,4.3,W,A,V*6B
$GBGNS,000550.00,2959.999637,N,11959.999923,E,NNNAN,04,3.3,-8.1,7.0,,,V*70
$GBGGA,000550.00,2959.999637,N,11959.999923,E,1,04,3.3,-8.1,M,7.0,M,,*61

$GBGSV,4,1,16,14,07,164,49,13,46,201,50,09,36,286,50,06,36,215,50,1*7B
$GBGSV,4,2,16,04,36,125,,02,50,173,50,01,37,122,,11,19,130,,1*79
$GBGSV,4,3,16,12,10,059,,20,19,318,,23,51,142,,24,24,077,,1*7A
$GBGSV,4,4,16,29,06,277,,32,14,059,,36,50,052,,39,35,203,,1*7C
$QL001,1626998751000,29.999994,119.999999,-1.059723,0.000,0.000,8.914,2.500,0.453,0.000
$QL002,4,4,1,0,6.303,6.303,0.000,0.000,0.000,0.320,0.320,0.113,18
$QL003,0.0000,0.0000,0.0000,0.0000,0.0000,0.0000,0.0000,0.0000,0.0000,0.0000
$QL004,2,1F,take_turns,line_accelerate
$GBGSA,A,3,02,06,09,13,,,,,,,,,3.4,3.3,1.0,4*31
$GBVTG,,T,,M,0.0,N,0.0,K,A*31
$GBDTM,P90,,0000.000022,S,00000.000001,W,0.988,W84*48
$GBRMC,000551.00,A,2959.999637,N,11959.999923,E,0.0,,230721,4.3,W,A,V*6A
$GBGNS,000551.00,2959.999637,N,11959.999923,E,NNNAN,04,3.3,-8.1,7.0,,,V*71
$GBGGA,000551.00,2959.999637,N,11959.999923,E,1,04,3.3,-8.1,M,7.0,M,,*60

$GBGSV,4,1,16,14,07,164,49,13,46,201,50,09,36,286,50,06,36,215,50,1*7B
$GBGSV,4,2,16,04,36,125,,02,50,173,50,01,37,122,,11,19,130,,1*79
$GBGSV,4,3,16,12,10,059,,20,19,318,,23,51,142,,24,24,077,,1*7A
$GBGSV,4,4,16,29,06,277,,32,14,059,,36,50,052,,39,35,203,,1*7C
$QL001,1626998752000,29.999994,119.999999,-1.056305,0.000,0.000,8.914,2.500,0.453,0.000
$QL002,4,4,1,0,6.303,6.303,0.000,0.000,0.000,0.320,0.320,0.113,18
$QL003,0.0000,0.0000,0.0000,0.0000,0.0000,0.0000,0.0000,0.0000,0.0000,0.0000
$QL004,2,1F,take_turns,line_accelerate
$GBGSA,A,3,02,06,09,13,,,,,,,,,3.4,3.3,1.0,4*31
$GBVTG,,T,,M,0.0,N,0.0,K,A*31
$GBDTM,P90,,0000.000022,S,00000.000001,W,0.988,W84*48
$GBRMC,000552.00,A,2959.999638,N,11959.999924,E,0.0,,230721,4.3,W,A,V*61
$GBGNS,000552.00,2959.999638,N,11959.999924,E,NNNAN,04,3.3,-8.1,7.0,,,V*7A
$GBGGA,000552.00,2959.999638,N,11959.999924,E,1,04,3.3,-8.1,M,7.0,M,,*6B

$GBGSV,4,1,16,14,07,164,49,13,46,201,50,09,36,286,49,06,36,215,50,1*73
$GBGSV,4,2,16,04,36,125,,02,50,173,50,01,37,122,,11,19,130,,1*79
$GBGSV,4,3,16,12,10,059,,20,19,318,,23,51,142,,24,24,077,,1*7A
$GBGSV,4,4,16,29,06,277,,32,14,059,,36,50,052,,39,35,203,,1*7C
$QL001,1626998753000,29.999994,119.999999,-1.058014,0.000,0.000,8.914,2.500,0.453,0.000
$QL002,4,4,1,0,6.303,6.303,0.000,0.000,0.000,0.320,0.320,0.113,18
$QL003,0.0000,0.0000,0.0000,0.0000,0.0000,0.0000,0.0000,0.0000,0.0000,0.0000
$QL004,2,1F,take_turns,line_accelerate
$GBGSA,A,2,02,06,13,,,,,,,,,,500.0,500.0,500.0,4*3A
$GBVTG,,T,,M,0.0,N,0.0,K,A*31
$GBDTM,P90,,0000.000022,S,00000.000001,W,0.988,W84*48
$GBRMC,000553.00,A,2959.999638,N,11959.999923,E,0.0,,230721,4.3,W,A,V*67
$GBGNS,000553.00,2959.999638,N,11959.999923,E,NNNAN,03,500.0,-8.1,7.0,,,V*7E
$GBGGA,000553.00,2959.999638,N,11959.999923,E,1,03,500.0,-8.1,M,7.0,M,,*6F

$GBGSV,4,1,16,14,07,164,49,13,46,201,50,09,36,286,50,06,36,215,50,1*7B
$GBGSV,4,2,16,04,36,125,,02,50,173,50,01,37,122,,11,19,130,,1*79
$GBGSV,4,3,16,12,10,059,,20,19,318,,23,51,142,,24,24,077,,1*7A
$GBGSV,4,4,16,29,06,277,,32,14,059,,36,50,052,,39,35,203,,1*7C
$QL001,1626998754000,29.999994,119.999999,-1.059570,0.000,0.000,8.914,2.500,0.453,0.000
$QL002,4,4,1,0,6.303,6.303,0.000,0.000,0.000,0.320,0.320,0.113,18
$QL003,0.0000,0.0000,0.0000,0.0000,0.0000,0.0000,0.0000,0.0000,0.0000,0.0000
$QL004,2,1F,take_turns,line_accelerate
$GBGSA,A,3,02,06,09,13,,,,,,,,,3.4,3.3,1.0,4*31
$GBVTG,,T,,M,0.0,N,0.0,K,A*31
$GBDTM,P90,,0000.000022,S,00000.000001,W,0.988,W84*48
$GBRMC,000554.00,A,2959.999638,N,11959.999923,E,0.0,,230721,4.3,W,A,V*60
$GBGNS,000554.00,2959.999638,N,11959.999923,E,NNNAN,04,3.3,-8.1,7.0,,,V*7B
$GBGGA,000554.00,2959.999638,N,11959.999923,E,1,04,3.3,-8.1,M,7.0,M,,*6A

$GBGSV,4,1,16,14,07,164,49,13,46,201,50,09,36,286,50,06,36,215,50,1*7B
$GBGSV,4,2,16,04,36,125,,02,50,173,50,01,37,122,,11,19,130,,1*79
$GBGSV,4,3,16,12,10,059,,20,19,318,,23,51,142,,24,24,077,,1*7A
$GBGSV,4,4,16,29,06,277,,32,14,059,,36,50,052,,39,35,203,,1*7C
$QL001,1626998755000,29.999994,119.999999,-1.061493,0.000,0.000,8.914,2.500,0.453,0.000
$QL002,4,4,1,0,6.303,6.303,0.000,0.000,0.000,0.320,0.320,0.113,18
$QL003,0.0000,0.0000,0.0000,0.0000,0.0000,0.0000,0.0000,0.0000,0.0000,0.0000
$QL004,2,1F,take_turns,line_accelerate
$GBGSA,A,3,02,06,09,13,,,,,,,,,3.4,3.3,1.0,4*31
$GBVTG,,T,,M,0.0,N,0.0,K,A*31
$GBDTM,P90,,0000.000022,S,00000.000001,W,0.988,W84*48
$GBRMC,000555.00,A,2959.999638,N,11959.999923,E,0.0,,230721,4.3,W,A,V*61
$GBGNS,000555.00,2959.999638,N,11959.999923,E,NNNAN,04,3.3,-8.1,7.0,,,V*7A
$GBGGA,000555.00,2959.999638,N,11959.999923,E,1,04,3.3,-8.1,M,7.0,M,,*6B

$GBGSV,4,1,16,14,07,164,49,13,46,201,50,09,36,286,50,06,36,215,50,1*7B
$GBGSV,4,2,16,04,36,125,,02,50,173,50,01,37,122,,11,19,130,,1*79
$GBGSV,4,3,16,12,10,059,,20,19,318,,23,51,142,,24,24,077,,1*7A
$GBGSV,4,4,16,29,06,277,,32,14,059,,36,50,052,,39,35,203,,1*7C
$QL001,1626998756000,29.999994,119.999999,-1.066254,0.000,0.000,8.914,2.500,0.453,0.000
$QL002,4,4,1,0,6.303,6.303,0.000,0.000,0.000,0.320,0.320,0.113,18
$QL003,0.0000,0.0000,0.0000,0.0000,0.0000,0.0000,0.0000,0.0000,0.0000,0.0000
$QL004,2,1F,take_turns,line_accelerate
$GBGSA,A,3,02,06,09,13,,,,,,,,,3.4,3.3,1.0,4*31
$GBVTG,,T,,M,0.0,N,0.0,K,A*31
$GBDTM,P90,,0000.000022,S,00000.000001,W,0.988,W84*48
$GBRMC,000556.00,A,2959.999638,N,11959.999923,E,0.0,,230721,4.3,W,A,V*62
$GBGNS,000556.00,2959.999638,N,11959.999923,E,NNNAN,04,3.3,-8.1,7.0,,,V*79
$GBGGA,000556.00,2959.999638,N,11959.999923,E,1,04,3.3,-8.1,M,7.0,M,,*68

$GBGSV,4,1,16,14,07,164,49,13,46,201,50,09,36,286,50,06,36,215,50,1*7B
$GBGSV,4,2,16,04,36,125,,02,50,173,50,01,37,122,,11,19,130,,1*79
$GBGSV,4,3,16,12,10,059,,20,19,318,,23,51,142,,24,24,077,,1*7A
$GBGSV,4,4,16,29,06,277,,32,14,059,,36,50,052,,39,35,203,,1*7C
$QL001,1626998757000,29.999994,119.999999,-1.068329,0.000,0.000,8.914,2.500,0.453,0.000
$QL002,4,4,1,0,6.303,6.303,0.000,0.000,0.000,0.320,0.320,0.113,18
$QL003,0.0000,0.0000,0.0000,0.0000,0.0000,0.0000,0.0000,0.0000,0.0000,0.0000
$QL004,2,1F,take_turns,line_accelerate
$GBGSA,A,3,02,06,09,13,,,,,,,,,3.4,3.3,1.0,4*31
$GBVTG,,T,,M,0.0,N,0.0,K,A*31
$GBDTM,P90,,0000.000022,S,00000.000001,W,0.988,W84*48
$GBRMC,000557.00,A,2959.999639,N,11959.999923,E,0.0,,230721,4.3,W,A,V*62
$GBGNS,000557.00,2959.999639,N,11959.999923,E,NNNAN,04,3.3,-8.1,7.0,,,V*79
$GBGGA,000557.00,2959.999639,N,11959.999923,E,1,04,3.3,-8.1,M,7.0,M,,*68

$GBGSV,4,1,16,14,07,164,49,13,46,201,50,09,36,286,50,06,36,215,50,1*7B
$GBGSV,4,2,16,04,36,125,,02,50,173,50,01,37,122,,11,19,130,,1*79
$GBGSV,4,3,16,12,10,059,,20,19,318,,23,51,142,,24,24,077,,1*7A
$GBGSV,4,4,16,29,06,277,,32,14,059,,36,50,052,,39,35,203,,1*7C
$QL001,1626998758000,29.999994,119.999999,-1.068848,0.000,0.000,8.914,2.500,0.453,0.000
$QL002,4,4,1,0,6.303,6.303,0.000,0.000,0.000,0.320,0.320,0.113,18
$QL003,0.0000,0.0000,0.0000,0.0000,0.0000,0.0000,0.0000,0.0000,0.0000,0.0000
$QL004,2,1F,take_turns,line_accelerate
$GBGSA,A,3,02,06,09,13,,,,,,,,,3.4,3.3,1.0,4*31
$GBVTG,,T,,M,0.0,N,0.0,K,A*31
$GBDTM,P90,,0000.000022,S,00000.000001,W,0.988,W84*48
$GBRMC,000558.00,A,2959.999639,N,11959.999923,E,0.0,,230721,4.3,W,A,V*6D
$GBGNS,000558.00,2959.999639,N,11959.999923,E,NNNAN,04,3.3,-8.1,7.0,,,V*76
$GBGGA,000558.00,2959.999639,N,11959.999923,E,1,04,3.3,-8.1,M,7.0,M,,*67

$GBGSV,4,1,16,14,07,164,49,13,46,201,50,09,36,286,50,06,36,215,50,1*7B
$GBGSV,4,2,16,04,36,125,,02,50,173,50,01,37,122,,11,19,130,,1*79
$GBGSV,4,3,16,12,10,059,,20,19,318,,23,51,142,,24,24,077,,1*7A
$GBGSV,4,4,16,29,06,277,,32,14,059,,36,50,052,,39,35,203,,1*7C
$QL001,1626998759000,29.999994,119.999999,-1.062927,0.000,0.000,8.914,2.500,0.453,0.000
$QL002,4,4,1,0,6.303,6.303,0.000,0.000,0.000,0.320,0.320,0.113,18
$QL003,0.0000,0.0000,0.0000,0.0000,0.0000,0.0000,0.0000,0.0000,0.0000,0.0000
$QL004,2,1F,take_turns,line_accelerate
$GBGSA,A,3,02,06,09,13,,,,,,,,,3.4,3.3,1.0,4*31
$GBVTG,,T,,M,0.0,N,0.0,K,A*31
$GBDTM,P90,,0000.000022,S,00000.000001,W,0.988,W84*48
$GBRMC,000559.00,A,2959.999640,N,11959.999924,E,0.0,,230721,4.3,W,A,V*65
$GBGNS,000559.00,2959.999640,N,11959.999924,E,NNNAN,04,3.3,-8.1,7.0,,,V*7E
$GBGGA,000559.00,2959.999640,N,11959.999924,E,1,04,3.3,-8.1,M,7.0,M,,*6F

$GBGSV,4,1,16,14,07,164,49,13,46,201,50,09,36,286,50,06,36,215,50,1*7B
$GBGSV,4,2,16,04,36,125,,02,50,173,50,01,37,122,,11,19,130,,1*79
$GBGSV,4,3,16,12,10,059,,20,19,318,,23,51,142,,24,24,077,,1*7A
$GBGSV,4,4,16,29,06,277,,32,14,059,,36,50,052,,39,35,203,,1*7C
$QL001,1626998760000,29.999994,119.999999,-1.064606,0.000,0.000,8.914,2.500,0.453,0.000
$QL002,4,4,1,0,6.303,6.303,0.000,0.000,0.000,0.320,0.320,0.113,18
$QL003,0.0000,0.0000,0.0000,0.0000,0.0000,0.0000,0.0000,0.0000,0.0000,0.0000
$QL004,2,1F,take_turns,line_accelerate
$GBGSA,A,3,02,06,09,13,,,,,,,,,3.4,3.3,1.0,4*31
$GBVTG,,T,,M,0.0,N,0.0,K,A*31
$GBDTM,P90,,0000.000022,S,00000.000001,W,0.988,W84*48
$GBRMC,000600.00,A,2959.999641,N,11959.999924,E,0.0,,230721,4.3,W,A,V*6B
$GBGNS,000600.00,2959.999641,N,11959.999924,E,NNNAN,04,3.3,-8.1,7.0,,,V*70
$GBGGA,000600.00,2959.999641,N,11959.999924,E,1,04,3.3,-8.1,M,7.0,M,,*61

$GBGSV,4,1,16,14,07,164,49,13,46,201,51,09,36,286,50,06,36,215,50,1*7A
$GBGSV,4,2,16,04,36,125,,02,50,173,50,01,37,122,,11,19,130,,1*79
$GBGSV,4,3,16,12,10,059,,20,19,318,,23,51,142,,24,24,077,,1*7A
$GBGSV,4,4,16,29,06,277,,32,14,059,,36,50,052,,39,35,203,,1*7C
$QL001,1626998761000,29.999994,119.999999,-1.066254,0.000,0.000,8.914,2.500,0.453,0.000
$QL002,4,4,1,0,6.303,6.303,0.000,0.000,0.000,0.320,0.320,0.113,18
$QL003,0.0000,0.0000,0.0000,0.0000,0.0000,0.0000,0.0000,0.0000,0.0000,0.0000
$QL004,2,1F,take_turns,line_accelerate
$GBGSA,A,3,02,06,09,13,,,,,,,,,3.4,3.3,1.0,4*31
$GBVTG,,T,,M,0.0,N,0.0,K,A*31
$GBDTM,P90,,0000.000022,S,00000.000001,W,0.988,W84*48
$GBRMC,000601.00,A,2959.999641,N,11959.999924,E,0.0,,230721,4.3,W,A,V*6A
$GBGNS,000601.00,2959.999641,N,11959.999924,E,NNNAN,04,3.3,-8.1,7.0,,,V*71
$GBGGA,000601.00,2959.999641,N,11959.999924,E,1,04,3.3,-8.1,M,7.0,M,,*60

$GBGSV,4,1,16,14,07,164,49,13,46,201,50,09,36,286,50,06,36,215,50,1*7B
$GBGSV,4,2,16,04,36,125,,02,50,173,50,01,37,122,,11,19,130,,1*79
$GBGSV,4,3,16,12,10,059,,20,19,318,,23,51,142,,24,24,077,,1*7A
$GBGSV,4,4,16,29,06,277,,32,14,059,,36,50,052,,39,35,203,,1*7C
$QL001,1626998762000,29.999994,119.999999,-1.066772,0.000,0.000,8.914,2.500,0.453,0.000
$QL002,4,4,1,0,6.303,6.303,0.000,0.000,0.000,0.320,0.320,0.113,18
$QL003,0.0000,0.0000,0.0000,0.0000,0.0000,0.0000,0.0000,0.0000,0.0000,0.0000
$QL004,2,1F,take_turns,line_accelerate
$GBGSA,A,3,02,06,09,13,,,,,,,,,3.4,3.3,1.0,4*31
$GBVTG,,T,,M,0.0,N,0.0,K,A*31
$GBDTM,P90,,0000.000022,S,00000.000001,W,0.988,W84*48
$GBRMC,000602.00,A,2959.999641,N,11959.999925,E,0.0,,230721,4.3,W,A,V*68
$GBGNS,000602.00,2959.999641,N,11959.999925,E,NNNAN,04,3.3,-8.1,7.0,,,V*73
$GBGGA,000602.00,2959.999641,N,11959.999925,E,1,04,3.3,-8.1,M,7.0,M,,*62

$GBGSV,4,1,16,14,07,164,49,13,46,201,50,09,36,286,50,06,36,215,50,1*7B
$GBGSV,4,2,16,04,36,125,,02,50,173,50,01,37,122,,11,19,130,,1*79
$GBGSV,4,3,16,12,10,059,,20,19,318,,23,51,142,,24,24,077,,1*7A
$GBGSV,4,4,16,29,06,277,,32,14,059,,36,50,052,,39,35,203,,1*7C
$QL001,1626998763000,29.999994,119.999999,-1.061371,0.000,0.000,8.914,2.500,0.453,0.000
$QL002,4,4,1,0,6.303,6.303,0.000,0.000,0.000,0.320,0.320,0.113,18
$QL003,0.0000,0.0000,0.0000,0.0000,0.0000,0.0000,0.0000,0.0000,0.0000,0.0000
$QL004,2,1F,take_turns,line_accelerate
$GBGSA,A,3,02,06,09,13,,,,,,,,,3.4,3.3,1.0,4*31
$GBVTG,,T,,M,0.0,N,0.0,K,A*31
$GBDTM,P90,,0000.000022,S,00000.000001,W,0.988,W84*48
$GBRMC,000603.00,A,2959.999642,N,11959.999926,E,0.0,,230721,4.3,W,A,V*69
$GBGNS,000603.00,2959.999642,N,11959.999926,E,NNNAN,04,3.3,-8.1,7.0,,,V*72
$GBGGA,000603.00,2959.999642,N,11959.999926,E,1,04,3.3,-8.1,M,7.0,M,,*63

$GBGSV,4,1,16,14,07,164,49,13,46,201,50,09,36,286,50,06,36,215,49,1*73
$GBGSV,4,2,16,04,36,125,,02,50,173,50,01,37,122,,11,19,130,,1*79
$GBGSV,4,3,16,12,10,059,,20,19,318,,23,51,142,,24,24,077,,1*7A
$GBGSV,4,4,16,29,06,277,,32,14,059,,36,50,052,,39,35,203,,1*7C
$QL001,1626998764000,29.999994,119.999999,-1.061798,0.000,0.000,8.914,2.500,0.453,0.000
$QL002,4,4,1,0,6.303,6.303,0.000,0.000,0.000,0.320,0.320,0.113,18
$QL003,0.0000,0.0000,0.0000,0.0000,0.0000,0.0000,0.0000,0.0000,0.0000,0.0000
$QL004,2,1F,take_turns,line_accelerate
$GBGSA,A,3,02,06,09,13,,,,,,,,,3.4,3.3,1.0,4*31
$GBVTG,,T,,M,0.0,N,0.0,K,A*31
$GBDTM,P90,,0000.000022,S,00000.000001,W,0.988,W84*48
$GBRMC,000604.00,A,2959.999642,N,11959.999925,E,0.0,,230721,4.3,W,A,V*6D
$GBGNS,000604.00,2959.999642,N,11959.999925,E,NNNAN,04,3.3,-8.1,7.0,,,V*76
$GBGGA,000604.00,2959.999642,N,11959.999925,E,1,04,3.3,-8.1,M,7.0,M,,*67

$GBGSV,4,1,16,14,07,164,49,13,46,201,50,09,36,286,50,06,36,215,50,1*7B
$GBGSV,4,2,16,04,36,125,,02,50,173,50,01,37,122,,11,19,130,,1*79
$GBGSV,4,3,16,12,10,059,,20,19,318,,23,51,142,,24,24,077,,1*7A
$GBGSV,4,4,16,29,06,277,,32,14,059,,36,50,052,,39,35,203,,1*7C
$QL001,1626998765000,29.999994,119.999999,-1.064423,0.000,0.000,8.914,2.500,0.453,0.000
$QL002,4,4,1,0,6.303,6.303,0.000,0.000,0.000,0.320,0.320,0.113,18
$QL003,0.0000,0.0000,0.0000,0.0000,0.0000,0.0000,0.0000,0.0000,0.0000,0.0000
$QL004,2,1F,take_turns,line_accelerate
$GBGSA,A,3,02,06,09,13,,,,,,,,,3.4,3.3,1.0,4*31
$GBVTG,,T,,M,0.0,N,0.0,K,A*31
$GBDTM,P90,,0000.000022,S,00000.000001,W,0.988,W84*48
$GBRMC,000605.00,A,2959.999641,N,11959.999924,E,0.0,,230721,4.3,W,A,V*6E
$GBGNS,000605.00,2959.999641,N,11959.999924,E,NNNAN,04,3.3,-8.1,7.0,,,V*75
$GBGGA,000605.00,2959.999641,N,11959.999924,E,1,04,3.3,-8.1,M,7.0,M,,*64

$GBGSV,4,1,16,14,06,164,49,13,46,201,50,09,36,285,50,06,35,215,50,1*7A
$GBGSV,4,2,16,04,36,125,,02,50,173,50,01,37,122,,11,19,129,,1*71
$GBGSV,4,3,16,12,10,058,,20,20,318,,23,52,141,,24,23,079,,1*78
$GBGSV,4,4,16,29,05,276,,32,13,060,,36,49,050,,39,37,204,,1*7C
$QL001,1626998766000,29.999994,119.999999,-1.065918,0.000,0.000,8.914,2.500,0.453,0.000
$QL002,4,4,1,0,6.303,6.303,0.000,0.000,0.000,0.320,0.320,0.113,18
$QL003,0.0000,0.0000,0.0000,0.0000,0.0000,0.0000,0.0000,0.0000,0.0000,0.0000
$QL004,2,1F,take_turns,line_accelerate
$GBGSA,A,3,02,06,09,13,,,,,,,,,3.4,3.3,1.0,4*31
$GBVTG,,T,,M,0.0,N,0.0,K,A*31
$GBDTM,P90,,0000.000022,S,00000.000001,W,0.988,W84*48
$GBRMC,000606.00,A,2959.999641,N,11959.999924,E,0.0,,230721,4.3,W,A,V*6D
$GBGNS,000606.00,2959.999641,N,11959.999924,E,NNNAN,04,3.3,-8.1,7.0,,,V*76
$GBGGA,000606.00,2959.999641,N,11959.999924,E,1,04,3.3,-8.1,M,7.0,M,,*67

$GBGSV,4,1,16,14,06,164,49,13,46,201,50,09,36,285,50,06,35,215,50,1*7A
$GBGSV,4,2,16,04,36,125,,02,50,173,50,01,37,122,,11,19,129,,1*71
$GBGSV,4,3,16,12,10,058,,20,20,318,,23,52,141,,24,23,079,,1*78
$GBGSV,4,4,16,29,05,276,,32,13,060,,36,49,050,,39,37,204,,1*7C
$QL001,1626998767000,29.999994,119.999999,-1.070770,0.000,0.000,8.914,2.500,0.453,0.000
$QL002,4,4,1,0,6.303,6.303,0.000,0.000,0.000,0.320,0.320,0.113,18
$QL003,0.0000,0.0000,0.0000,0.0000,0.0000,0.0000,0.0000,0.0000,0.0000,0.0000
$QL004,2,1F,take_turns,line_accelerate
$GBGSA,A,3,02,06,09,13,,,,,,,,,3.4,3.3,1.0,4*31
$GBVTG,,T,,M,0.0,N,0.0,K,A*31
$GBDTM,P90,,0000.000022,S,00000.000001,W,0.988,W84*48
$GBRMC,000607.00,A,2959.999641,N,11959.999923,E,0.0,,230721,4.3,W,A,V*6B
$GBGNS,000607.00,2959.999641,N,11959.999923,E,NNNAN,04,3.3,-8.1,7.0,,,V*70
$GBGGA,000607.00,2959.999641,N,11959.999923,E,1,04,3.3,-8.1,M,7.0,M,,*61

$GBGSV,4,1,16,14,06,164,49,13,46,201,50,09,36,285,50,06,35,215,50,1*7A
$GBGSV,4,2,16,04,36,125,,02,50,173,50,01,37,122,,11,19,129,,1*71
$GBGSV,4,3,16,12,10,058,,20,20,318,,23,52,141,,24,23,079,,1*78
$GBGSV,4,4,16,29,05,276,,32,13,060,,36,49,050,,39,37,204,,1*7C
$QL001,1626998768000,29.999994,119.999999,-1.073822,0.000,0.000,8.914,2.500,0.453,0.000
$QL002,4,4,1,0,6.303,6.303,0.000,0.000,0.000,0.320,0.320,0.113,18
$QL003,0.0000,0.0000,0.0000,0.0000,0.0000,0.0000,0.0000,0.0000,0.0000,0.0000
$QL004,2,1F,take_turns,line_accelerate
$GBGSA,A,3,02,06,09,13,,,,,,,,,3.4,3.3,1.0,4*31
$GBVTG,,T,,M,0.0,N,0.0,K,A*31
$GBDTM,P90,,0000.000022,S,00000.000001,W,0.988,W84*48
$GBRMC,000608.00,A,2959.999641,N,11959.999923,E,0.0,,230721,4.3,W,A,V*64
$GBGNS,000608.00,2959.999641,N,11959.999923,E,NNNAN,04,3.3,-8.1,7.0,,,V*7F
$GBGGA,000608.00,2959.999641,N,11959.999923,E,1,04,3.3,-8.1,M,7.0,M,,*6E

$GBGSV,4,1,16,14,06,164,49,13,46,201,50,09,36,285,50,06,35,215,49,1*72
$GBGSV,4,2,16,04,36,125,,02,50,173,50,01,37,122,,11,19,129,,1*71
$GBGSV,4,3,16,12,10,058,,20,20,318,,23,52,141,,24,23,079,,1*78
$GBGSV,4,4,16,29,05,276,,32,13,060,,36,49,050,,39,37,204,,1*7C
$QL001,1626998769000,29.999994,119.999999,-1.078278,0.000,0.000,8.914,2.500,0.453,0.000
$QL002,4,4,1,0,6.303,6.303,0.000,0.000,0.000,0.320,0.320,0.113,18
$QL003,0.0000,0.0000,0.0000,0.0000,0.0000,0.0000,0.0000,0.0000,0.0000,0.0000
$QL004,2,1F,take_turns,line_accelerate
$GBGSA,A,3,02,06,09,13,,,,,,,,,3.4,3.3,1.0,4*31
$GBVTG,,T,,M,0.0,N,0.0,K,A*31
