
$GLGSV,8,4,8,77,15,138,51,81,51,214,51,82,45,305,51,88,13,177,51,2*45
$GLGSV,8,5,8,66,35,31,51,67,43,308,51,68,16,273,51,75,8,34,51,3*74
$GLGSV,8,6,8,77,15,138,51,81,51,214,51,82,45,305,51,88,13,177,51,3*46
$GLGSV,8,7,8,66,35,31,51,67,43,308,51,68,16,273,51,75,8,34,51,4*71
$GLGSV,8,8,8,77,15,138,51,81,51,214,51,82,45,305,51,88,13,177,51,4*4F
$GARMC,135951,A,3114.30609,N,12130.00000,E,161.986,0.000,010620,0.000,E,A*0E
$GAGSV,3,1,10,1,49,33,48,2,5,62,48,7,12,259,48,8,55,295,48*58
$GAGSV,3,2,10,14,13,139,48,15,17,88,48,17,44,302,48,18,59,208,48*5E
$GAGSV,3,3,10,19,17,165,48,25,27,51,48*53
$GPGGA,135952,3114.35119,N,12130.00000,E,3,37,0.81,38.12,M,11.88,M,,*45
$GPRMC,135952,A,3114.35119,N,12130.00000,E,161.986,0.000,010620,0.000,E,A,V*65
$GPGSV,11,1,11,2,35,50,65,5,67,47,65,9,32,167,65,10,9,111,65,1*52
$GPGSV,11,2,11,12,58,66,65,14,14,266,65,21,12,200,65,24,48,174,65,1*60
$GPGSV,11,3,11,29,55,279,0,30,59,343,65,31,17,319,65,2,35,50,65,5*62
$GPGSV,11,4,11,5,67,47,65,9,32,167,65,10,9,111,65,12,58,66,65,5*6C
$GPGSV,11,5,11,14,14,266,65,21,12,200,65,24,48,174,65,29,55,279,0,5*69
$GPGSV,11,6,11,30,59,343,65,31,17,319,65,2,35,50,65,5,67,47,65,6*57
$GPGSV,11,7,11,9,32,167,65,10,9,111,65,12,58,66,65,14,14,266,65,6*69
$GPGSV,11,8,11,21,12,200,65,24,48,174,65,29,55,279,0,30,59,343,65,6*6E
$GPGSV,11,9,11,31,17,319,65,2,35,50,65,5,67,47,65,9,32,167,65,7*6A
$GPGSV,11,10,11,10,9,111,65,12,58,66,65,14,14,266,65,21,12,200,65,7*64
$GPGSV,11,11,11,24,48,174,65,29,55,279,0,30,59,343,65,31,17,319,65,7*5A
$GLRMC,135952,A,3114.35119,N,12130.00000,E,161.986,0.000,010620,0.000,E,A,V*79
$GLGSV,8,1,8,66,35,31,65,67,43,308,65,68,16,273,65,75,8,34,65,1*72
$GLGSV,8,2,8,77,15,138,65,81,51,214,65,82,45,305,65,88,13,177,65,1*40
$GLGSV,8,3,8,66,35,31,65,67,43,308,65,68,16,273,65,75,8,34,65,2*73
$GLGSV,8,4,8,77,15,138,65,81,51,214,65,82,45,305,65,88,13,177,65,2*45
$GLGSV,8,5,8,66,35,31,65,67,43,308,65,68,16,273,65,75,8,34,65,3*74
$GLGSV,8,6,8,77,15,138,65,81,51,214,65,82,45,305,65,88,13,177,65,3*46
$GLGSV,8,7,8,66,35,31,65,67,43,308,65,68,16,273,65,75,8,34,65,4*71
$GLGSV,8,8,8,77,15,138,65,81,51,214,65,82,45,305,65,88,13,177,65,4*4F
$GARMC,135952,A,3114.35119,N,12130.00000,E,161.986,0.000,010620,0.000,E,A*0E
$GAGSV,3,1,10,1,49,33,63,2,5,62,63,7,12,259,63,8,55,295,63*58
$GAGSV,3,2,10,14,13,139,63,15,17,88,63,17,44,302,63,18,59,208,63*5E
$GAGSV,3,3,10,19,17,165,63,25,27,51,63*53
$GPGGA,135953,3114.39424,N,12130.00000,E,3,37,0.81,38.12,M,11.88,M,,*43
$GPRMC,135953,A,3114.39424,N,12130.00000,E,142.191,0.000,010620,0.000,E,A,V*6C
$GPGSV,11,1,11,2,35,50,65,5,67,47,65,9,32,167,65,10,9,111,65,1*52
$GPGSV,11,2,11,12,58,66,65,14,14,266,65,21,12,200,65,24,48,174,65,1*60
$GPGSV,11,3,11,29,55,279,0,30,59,343,65,31,17,319,65,2,35,50,65,5*62
$GPGSV,11,4,11,5,67,47,65,9,32,167,65,10,9,111,65,12,58,66,65,5*6C
$GPGSV,11,5,11,14,14,266,65,21,12,200,65,24,48,174,65,29,55,279,0,5*69
$GPGSV,11,6,11,30,59,343,65,31,17,319,65,2,35,50,65,5,67,47,65,6*57
$GPGSV,11,7,11,9,32,167,65,10,9,111,65,12,58,66,65,14,14,266,65,6*69
$GPGSV,11,8,11,21,12,200,65,24,48,174,65,29,55,279,0,30,59,343,65,6*6E
$GPGSV,11,9,11,31,17,319,65,2,35,50,65,5,67,47,65,9,32,167,65,7*6A
$GPGSV,11,10,11,10,9,111,65,12,58,66,65,14,14,266,65,21,12,200,65,7*64
$GPGSV,11,11,11,24,48,174,65,29,55,279,0,30,59,343,65,31,17,319,65,7*5A
$GLRMC,135953,A,3114.39424,N,12130.00000,E,142.191,0.000,010620,0.000,E,A,V*70
$GLGSV,8,1,8,66,35,31,65,67,43,308,65,68,16,273,65,75,8,34,65,1*72
$GLGSV,8,2,8,77,15,138,65,81,51,214,65,82,45,305,65,88,13,177,65,1*40
$GLGSV,8,3,8,66,35,31,65,67,43,308,65,68,16,273,65,75,8,34,65,2*73
$GLGSV,8,4,8,77,15,138,65,81,51,214,65,82,45,305,65,88,13,177,65,2*45
$GLGSV,8,5,8,66,35,31,65,67,43,308,65,68,16,273,65,75,8,34,65,3*74
$GLGSV,8,6,8,77,15,138,65,81,51,214,65,82,45,305,65,88,13,177,65,3*46
$GLGSV,8,7,8,66,35,31,65,67,43,308,65,68,16,273,65,75,8,34,65,4*71
$GLGSV,8,8,8,77,15,138,65,81,51,214,65,82,45,305,65,88,13,177,65,4*4F
$GARMC,135953,A,3114.39424,N,12130.00000,E,142.191,0.000,010620,0.000,E,A*07
$GAGSV,3,1,10,1,49,33,63,2,5,62,63,7,12,259,63,8,55,295,63*58
$GAGSV,3,2,10,14,13,139,63,15,17,88,63,17,44,302,63,18,59,208,63*5E
$GAGSV,3,3,10,19,17,165,63,25,27,51,63*53
$GPGGA,135954,3114.43010,N,12130.00000,E,3,37,0.81,38.13,M,11.87,M,,*44
$GPRMC,135954,A,3114.43010,N,12130.00000,E,115.441,0.000,010620,0.000,E,A,V*6F
$GPGSV,11,1,11,2,35,50,65,5,67,47,65,9,32,167,65,10,9,111,65,1*52
$GPGSV,11,2,11,12,58,66,65,14,14,266,65,21,12,200,65,24,48,174,65,1*60
$GPGSV,11,3,11,29,55,280,0,30,59,343,65,31,17,319,65,2,35,50,65,5*64
$GPGSV,11,4,11,5,67,47,65,9,32,167,65,10,9,111,65,12,58,66,65,5*6C
$GPGSV,11,5,11,14,14,266,65,21,12,200,65,24,48,174,65,29,55,280,0,5*6F
$GPGSV,11,6,11,30,59,343,65,31,17,319,65,2,35,50,65,5,67,47,65,6*57
$GPGSV,11,7,11,9,32,167,65,10,9,111,65,12,58,66,65,14,14,266,65,6*69
$GPGSV,11,8,11,21,12,200,65,24,48,174,65,29,55,280,0,30,59,343,65,6*68
$GPGSV,11,9,11,31,17,319,65,2,35,50,65,5,67,47,65,9,32,167,65,7*6A
$GPGSV,11,10,11,10,9,111,65,12,58,66,65,14,14,266,65,21,12,200,65,7*64
$GPGSV,11,11,11,24,48,174,65,29,55,280,0,30,59,343,65,31,17,319,65,7*5C
$GLRMC,135954,A,3114.43010,N,12130.00000,E,115.441,0.000,010620,0.000,E,A,V*73
$GLGSV,8,1,8,66,35,31,65,67,43,308,65,68,16,273,65,75,8,34,65,1*72
$GLGSV,8,2,8,77,15,138,65,81,51,214,65,82,45,305,65,88,13,177,65,1*40
$GLGSV,8,3,8,66,35,31,65,67,43,308,65,68,16,273,65,75,8,34,65,2*73
$GLGSV,8,4,8,77,15,138,65,81,51,214,65,82,45,305,65,88,13,177,65,2*45
$GLGSV,8,5,8,66,35,31,65,67,43,308,65,68,16,273,65,75,8,34,65,3*74
$GLGSV,8,6,8,77,15,138,65,81,51,214,65,82,45,305,65,88,13,177,65,3*46
$GLGSV,8,7,8,66,35,31,65,67,43,308,65,68,16,273,65,75,8,34,65,4*71
$GLGSV,8,8,8,77,15,138,65,81,51,214,65,82,45,305,65,88,13,177,65,4*4F
$GARMC,135954,A,3114.43010,N,12130.00000,E,115.441,0.000,010620,0.000,E,A*04
$GAGSV,3,1,10,1,49,33,63,2,5,62,63,7,13,259,63,8,55,295,63*59
$GAGSV,3,2,10,14,13,139,63,15,17,88,63,17,44,302,63,18,59,208,63*5E
$GAGSV,3,3,10,19,17,165,63,25,27,51,63*53
$GPGGA,135955,3114.45852,N,12130.00000,E,3,37,0.81,38.13,M,11.87,M,,*4D
$GPRMC,135955,A,3114.45852,N,12130.00000,E,88.691,0.000,010620,0.000,E,A,V*5C
$GPGSV,11,1,11,2,35,50,65,5,67,47,65,9,32,167,65,10,9,111,65,1*52
$GPGSV,11,2,11,12,58,66,65,14,14,266,65,21,12,200,65,24,48,174,65,1*60
$GPGSV,11,3,11,29,55,280,0,30,59,343,65,31,17,319,65,2,35,50,65,5*64
$GPGSV,11,4,11,5,67,47,65,9,32,167,65,10,9,111,65,12,58,66,65,5*6C
$GPGSV,11,5,11,14,14,266,65,21,12,200,65,24,48,174,65,29,55,280,0,5*6F
$GPGSV,11,6,11,30,59,343,65,31,17,319,65,2,35,50,65,5,67,47,65,6*57
$GPGSV,11,7,11,9,32,167,65,10,9,111,65,12,58,66,65,14,14,266,65,6*69
$GPGSV,11,8,11,21,12,200,65,24,48,174,65,29,55,280,0,30,59,343,65,6*68
$GPGSV,11,9,11,31,17,319,65,2,35,50,65,5,67,47,65,9,32,167,65,7*6A
$GPGSV,11,10,11,10,9,111,65,12,58,66,65,14,14,266,65,21,12,200,65,7*64
$GPGSV,11,11,11,24,48,174,65,29,55,280,0,30,59,343,65,31,17,319,65,7*5C
$GLRMC,135955,A,3114.45852,N,12130.00000,E,88.691,0.000,010620,0.000,E,A,V*40
$GLGSV,8,1,8,66,35,31,65,67,43,308,65,68,16,273,65,75,8,34,65,1*72
$GLGSV,8,2,8,77,15,138,65,81,51,214,65,82,45,305,65,88,13,177,65,1*40
$GLGSV,8,3,8,66,35,31,65,67,43,308,65,68,16,273,65,75,8,34,65,2*73
$GLGSV,8,4,8,77,15,138,65,81,51,214,65,82,45,305,65,88,13,177,65,2*45
$GLGSV,8,5,8,66,35,31,65,67,43,308,65,68,16,273,65,75,8,34,65,3*74
$GLGSV,8,6,8,77,15,138,65,81,51,214,65,82,45,305,65,88,13,177,65,3*46
$GLGSV,8,7,8,66,35,31,65,67,43,308,65,68,16,273,65,75,8,34,65,4*71
$GLGSV,8,8,8,77,15,138,65,81,51,214,65,82,45,305,65,88,13,177,65,4*4F
$GARMC,135955,A,3114.45852,N,12130.00000,E,88.691,0.000,010620,0.000,E,A*37
$GAGSV,3,1,10,1,49,33,63,2,5,62,63,7,13,259,63,8,55,295,63*59
$GAGSV,3,2,10,14,13,139,63,15,17,88,63,17,44,302,63,18,59,208,63*5E
$GAGSV,3,3,10,19,17,165,63,25,27,51,63*53
$GPGGA,135956,3114.47949,N,12130.00000,E,3,37,0.81,38.13,M,11.87,M,,*47
$GPRMC,135956,A,3114.47949,N,12130.00000,E,61.941,0.000,010620,0.000,E,A,V*53
$GPGSV,11,1,11,2,35,50,65,5,67,47,65,9,32,167,65,10,9,111,65,1*52
$GPGSV,11,2,11,12,58,66,65,14,14,266,65,21,12,200,65,24,48,174,65,1*60
$GPGSV,11,3,11,29,55,280,0,30,59,343,65,31,17,319,65,2,35,50,65,5*64
$GPGSV,11,4,11,5,67,47,65,9,32,167,65,10,9,111,65,12,58,66,65,5*6C
$GPGSV,11,5,11,14,14,266,65,21,12,200,65,24,48,174,65,29,55,280,0,5*6F
$GPGSV,11,6,11,30,59,343,65,31,17,319,65,2,35,50,65,5,67,47,65,6*57
$GPGSV,11,7,11,9,32,167,65,10,9,111,65,12,58,66,65,14,14,266,65,6*69
$GPGSV,11,8,11,21,12,200,65,24,48,174,65,29,55,280,0,30,59,343,65,6*68
$GPGSV,11,9,11,31,17,319,65,2,35,50,65,5,67,47,65,9,32,167,65,7*6A
$GPGSV,11,10,11,10,9,111,65,12,58,66,65,14,14,266,65,21,12,200,65,7*64
$GPGSV,11,11,11,24,48,174,65,29,55,280,0,30,59,343,65,31,17,319,65,7*5C
$GLRMC,135956,A,3114.47949,N,12130.00000,E,61.941,0.000,010620,0.000,E,A,V*4F
$GLGSV,8,1,8,66,35,31,65,67,43,308,65,68,16,273,65,75,8,34,65,1*72
$GLGSV,8,2,8,77,15,138,65,81,51,214,65,82,45,305,65,88,13,177,65,1*40
$GLGSV,8,3,8,66,35,31,65,67,43,308,65,68,16,273,65,75,8,34,65,2*73
$GLGSV,8,4,8,77,15,138,65,81,51,214,65,82,45,305,65,88,13,177,65,2*45
$GLGSV,8,5,8,66,35,31,65,67,43,308,65,68,16,273,65,75,8,34,65,3*74
$GLGSV,8,6,8,77,15,138,65,81,51,214,65,82,45,305,65,88,13,177,65,3*46
$GLGSV,8,7,8,66,35,31,65,67,43,308,65,68,16,273,65,75,8,34,65,4*71
$GLGSV,8,8,8,77,15,138,65,81,51,214,65,82,45,305,65,88,13,177,65,4*4F
$GARMC,135956,A,3114.47949,N,12130.00000,E,61.941,0.000,010620,0.000,E,A*38
$GAGSV,3,1,10,1,49,33,63,2,5,62,63,7,13,259,63,8,55,295,63*59
$GAGSV,3,2,10,14,13,139,63,15,17,88,63,17,44,302,63,18,59,208,63*5E
$GAGSV,3,3,10,19,17,165,63,25,27,51,63*53
$GPGGA,135957,3114.49301,N,12130.00000,E,3,37,0.81,38.13,M,11.87,M,,*4E
$GPRMC,135957,A,3114.49301,N,12130.00000,E,35.191,0.000,010620,0.000,E,A,V*5E
$GPGSV,11,1,11,2,35,50,65,5,67,47,65,9,32,167,65,10,9,111,65,1*52
$GPGSV,11,2,11,12,58,66,65,14,14,266,65,21,12,200,65,24,48,174,65,1*60
$GPGSV,11,3,11,29,55,280,0,30,59,343,65,31,17,319,65,2,35,50,65,5*64
$GPGSV,11,4,11,5,67,47,65,9,32,167,65,10,9,111,65,12,58,66,65,5*6C
$GPGSV,11,5,11,14,14,266,65,21,12,200,65,24,48,174,65,29,55,280,0,5*6F
$GPGSV,11,6,11,30,59,343,65,31,17,319,65,2,35,50,65,5,67,47,65,6*57
$GPGSV,11,7,11,9,32,167,65,10,9,111,65,12,58,66,65,14,14,266,65,6*69
$GPGSV,11,8,11,21,12,200,65,24,48,174,65,29,55,280,0,30,59,343,65,6*68
$GPGSV,11,9,11,31,17,319,65,2,35,50,65,5,67,47,65,9,32,167,65,7*6A
$GPGSV,11,10,11,10,9,111,65,12,58,66,65,14,14,266,65,21,12,200,65,7*64
$GPGSV,11,11,11,24,48,174,65,29,55,280,0,30,59,343,65,31,17,319,65,7*5C
$GLRMC,135957,A,3114.49301,N,12130.00000,E,35.191,0.000,010620,0.000,E,A,V*42
$GLGSV,8,1,8,66,35,31,65,67,43,308,65,68,16,273,65,75,8,34,65,1*72
$GLGSV,8,2,8,77,15,138,65,81,51,214,65,82,45,305,65,88,13,177,65,1*40
$GLGSV,8,3,8,66,35,31,65,67,43,308,65,68,16,273,65,75,8,34,65,2*73
$GLGSV,8,4,8,77,15,138,65,81,51,214,65,82,45,305,65,88,13,177,65,2*45
$GLGSV,8,5,8,66,35,31,65,67,43,308,65,68,16,273,65,75,8,34,65,3*74
$GLGSV,8,6,8,77,15,138,65,81,51,214,65,82,45,305,65,88,13,177,65,3*46
$GLGSV,8,7,8,66,35,31,65,67,43,308,65,68,16,273,65,75,8,34,65,4*71
$GLGSV,8,8,8,77,15,138,65,81,51,214,65,82,45,305,65,88,13,177,65,4*4F
$GARMC,135957,A,3114.49301,N,12130.00000,E,35.191,0.000,010620,0.000,E,A*35
$GAGSV,3,1,10,1,49,33,63,2,5,62,63,7,13,259,63,8,55,295,63*59
$GAGSV,3,2,10,14,13,139,63,15,17,88,63,17,44,302,63,18,59,208,63*5E
$GAGSV,3,3,10,19,17,165,63,25,27,51,63*53
$GPGGA,135958,3114.49939,N,12130.00009,E,3,37,0.81,38.13,M,11.87,M,,*49
$GPRMC,135958,A,3114.49939,N,12130.00009,E,16.199,6.923,010620,0.000,E,A,V*5E
$GPGSV,11,1,11,2,35,50,65,5,67,47,65,9,32,167,65,10,9,111,65,1*52
$GPGSV,11,2,11,12,58,66,65,14,14,266,65,21,12,200,65,24,48,174,65,1*60
$GPGSV,11,3,11,29,55,280,0,30,59,343,65,31,17,319,65,2,35,50,65,5*64
$GPGSV,11,4,11,5,67,47,65,9,32,167,65,10,9,111,65,12,58,66,65,5*6C
$GPGSV,11,5,11,14,14,266,65,21,12,200,65,24,48,174,65,29,55,280,0,5*6F
$GPGSV,11,6,11,30,59,343,65,31,17,319,65,2,35,50,65,5,67,47,65,6*57
$GPGSV,11,7,11,9,32,167,65,10,9,111,65,12,58,66,65,14,14,266,65,6*69
$GPGSV,11,8,11,21,12,200,65,24,48,174,65,29,55,280,0,30,59,343,65,6*68
$GPGSV,11,9,11,31,17,319,65,2,35,50,65,5,67,47,65,9,32,167,65,7*6A
$GPGSV,11,10,11,10,9,111,65,12,58,66,65,14,14,266,65,21,12,200,65,7*64
$GPGSV,11,11,11,24,48,174,65,29,55,280,0,30,59,343,65,31,17,319,65,7*5C
$GLRMC,135958,A,3114.49939,N,12130.00009,E,16.199,6.923,010620,0.000,E,A,V*42
$GLGSV,8,1,8,66,35,31,65,67,43,308,65,68,16,273,65,75,8,34,65,1*72
$GLGSV,8,2,8,77,15,138,65,81,51,214,65,82,45,305,65,88,13,177,65,1*40
$GLGSV,8,3,8,66,35,31,65,67,43,308,65,68,16,273,65,75,8,34,65,2*73
$GLGSV,8,4,8,77,15,138,65,81,51,214,65,82,45,305,65,88,13,177,65,2*45
$GLGSV,8,5,8,66,35,31,65,67,43,308,65,68,16,273,65,75,8,34,65,3*74
$GLGSV,8,6,8,77,15,138,65,81,51,214,65,82,45,305,65,88,13,177,65,3*46
$GLGSV,8,7,8,66,35,31,65,67,43,308,65,68,16,273,65,75,8,34,65,4*71
$GLGSV,8,8,8,77,15,138,65,81,51,214,65,82,45,305,65,88,13,177,65,4*4F
$GARMC,135958,A,3114.49939,N,12130.00009,E,16.199,6.923,010620,0.000,E,A*35
$GAGSV,3,1,10,1,49,33,63,2,5,62,63,7,13,259,63,8,55,295,63*59
$GAGSV,3,2,10,14,13,139,63,15,17,88,63,17,44,302,63,18,59,208,63*5E
$GAGSV,3,3,10,19,17,165,63,25,27,51,63*53
$GPGGA,135959,3114.50363,N,12130.00178,E,3,36,0.81,38.13,M,11.87,M,,*43
$GPRMC,135959,A,3114.50363,N,12130.00178,E,16.199,30.796,010620,0.000,E,A,V*60
$GPGSV,11,1,11,2,35,50,65,5,67,47,65,9,32,167,65,10,9,111,65,1*52
$GPGSV,11,2,11,12,58,66,65,14,14,266,65,21,12,200,65,24,48,174,65,1*60
$GPGSV,11,3,11,29,55,280,0,30,59,343,65,31,17,319,65,2,35,50,65,5*64
$GPGSV,11,4,11,5,67,47,65,9,32,167,65,10,9,111,65,12,58,66,65,5*6C
$GPGSV,11,5,11,14,14,266,65,21,12,200,65,24,48,174,65,29,55,280,0,5*6F
$GPGSV,11,6,11,30,59,343,65,31,17,319,65,2,35,50,65,5,67,47,65,6*57
$GPGSV,11,7,11,9,32,167,65,10,9,111,65,12,58,66,65,14,14,266,65,6*69
$GPGSV,11,8,11,21,12,200,65,24,48,174,65,29,55,280,0,30,59,343,65,6*68
$GPGSV,11,9,11,31,17,319,65,2,35,50,65,5,67,47,65,9,32,167,65,7*6A
$GPGSV,11,10,11,10,9,111,65,12,58,66,65,14,14,266,65,21,12,200,65,7*64
$GPGSV,11,11,11,24,48,174,65,29,55,280,0,30,59,343,65,31,17,319,65,7*5C
$GLRMC,135959,A,3114.50363,N,12130.00178,E,16.199,30.796,010620,0.000,E,A,V*7C
$GLGSV,8,1,8,66,35,31,65,67,43,308,65,68,16,273,65,75,8,34,65,1*72
$GLGSV,8,2,8,77,15,138,65,81,51,214,65,82,45,305,65,88,13,177,65,1*40
$GLGSV,8,3,8,66,35,31,65,67,43,308,65,68,16,273,65,75,8,34,65,2*73
$GLGSV,8,4,8,77,15,138,65,81,51,214,65,82,45,305,65,88,13,177,65,2*45
$GLGSV,8,5,8,66,35,31,65,67,43,308,65,68,16,273,65,75,8,34,65,3*74
$GLGSV,8,6,8,77,15,138,65,81,51,214,65,82,45,305,65,88,13,177,65,3*46
$GLGSV,8,7,8,66,35,31,65,67,43,308,65,68,16,273,65,75,8,34,65,4*71
$GLGSV,8,8,8,77,15,138,65,81,51,214,65,82,45,305,65,88,13,177,65,4*4F
$GARMC,135959,A,3114.50363,N,12130.00178,E,16.199,30.796,010620,0.000,E,A*0B
$GAGSV,3,1,10,1,49,33,63,2,5,62,63,7,13,259,63,8,55,295,63*59
$GAGSV,3,2,10,14,13,139,63,15,17,88,63,17,44,302,63,18,59,208,63*5E
$GAGSV,3,3,10,19,17,165,63,25,27,51,63*53
$GPGGA,140000,3114.50692,N,12130.00531,E,3,36,0.81,38.13,M,11.87,M,,*46
$GPRMC,140000,A,3114.50692,N,12130.00531,E,16.199,54.670,010620,0.000,E,A,V*6E
$GPGSV,11,1,11,2,35,50,65,5,67,47,65,9,32,167,65,10,9,111,65,1*52
$GPGSV,11,2,11,12,58,66,65,14,14,266,65,21,12,200,65,24,48,174,65,1*60
$GPGSV,11,3,11,29,56,280,0,30,59,343,65,31,17,319,65,2,35,50,65,5*67
$GPGSV,11,4,11,5,67,47,65,9,32,167,65,10,9,111,65,12,58,66,65,5*6C
$GPGSV,11,5,11,14,14,266,65,21,12,200,65,24,48,174,65,29,56,280,0,5*6C
$GPGSV,11,6,11,30,59,343,65,31,17,319,65,2,35,50,65,5,67,47,65,6*57
$GPGSV,11,7,11,9,32,167,65,10,9,111,65,12,58,66,65,14,14,266,65,6*69
$GPGSV,11,8,11,21,12,200,65,24,48,174,65,29,56,280,0,30,59,343,65,6*6B
$GPGSV,11,9,11,31,17,319,65,2,35,50,65,5,67,47,65,9,32,167,65,7*6A
$GPGSV,11,10,11,10,9,111,65,12,58,66,65,14,14,266,65,21,12,200,65,7*64
$GPGSV,11,11,11,24,48,174,65,29,56,280,0,30,59,343,65,31,17,319,65,7*5F
$GLRMC,140000,A,3114.50692,N,12130.00531,E,16.199,54.670,010620,0.000,E,A,V*72
$GLGSV,8,1,8,66,35,31,65,67,43,308,65,68,16,273,65,75,8,34,65,1*72
$GLGSV,8,2,8,77,15,138,65,81,51,214,65,82,45,305,65,88,13,177,65,1*40
$GLGSV,8,3,8,66,35,31,65,67,43,308,65,68,16,273,65,75,8,34,65,2*73
$GLGSV,8,4,8,77,15,138,65,81,51,214,65,82,45,305,65,88,13,177,65,2*45
$GLGSV,8,5,8,66,35,31,65,67,43,308,65,68,16,273,65,75,8,34,65,3*74
$GLGSV,8,6,8,77,15,138,65,81,51,214,65,82,45,305,65,88,13,177,65,3*46
$GLGSV,8,7,8,66,35,31,65,67,43,308,65,68,16,273,65,75,8,34,65,4*71
$GLGSV,8,8,8,77,15,138,65,81,51,214,65,82,45,305,65,88,13,177,65,4*4F
$GARMC,140000,A,3114.50692,N,12130.00531,E,16.199,54.670,010620,0.000,E,A*05
$GAGSV,3,1,9,1,49,33,63,7,13,259,63,8,55,295,63,14,13,139,63*5E
$GAGSV,3,2,9,15,17,88,63,17,44,302,63,18,59,208,63,19,17,165,63*66
$GAGSV,3,3,9,25,27,51,63*52
$GPGGA,140001,3114.50869,N,12130.01009,E,3,36,0.81,38.13,M,11.87,M,,*42
$GPRMC,140001,A,3114.50869,N,12130.01009,E,16.199,78.543,010620,0.000,E,A,V*67
$GPGSV,11,1,11,2,35,50,65,5,67,47,65,9,32,167,65,10,9,111,65,1*52
$GPGSV,11,2,11,12,58,66,65,14,14,266,65,21,12,200,65,24,48,174,65,1*60
$GPGSV,11,3,11,29,56,280,0,30,59,343,65,31,17,319,65,2,35,50,65,5*67
$GPGSV,11,4,11,5,67,47,65,9,32,167,65,10,9,111,65,12,58,66,65,5*6C
$GPGSV,11,5,11,14,14,266,65,21,12,200,65,24,48,174,65,29,56,280,0,5*6C
$GPGSV,11,6,11,30,59,343,65,31,17,319,65,2,35,50,65,5,67,47,65,6*57
$GPGSV,11,7,11,9,32,167,65,10,9,111,65,12,58,66,65,14,14,266,65,6*69
$GPGSV,11,8,11,21,12,200,65,24,48,174,65,29,56,280,0,30,59,343,65,6*6B
$GPGSV,11,9,11,31,17,319,65,2,35,50,65,5,67,47,65,9,32,167,65,7*6A
$GPGSV,11,10,11,10,9,111,65,12,58,66,65,14,14,266,65,21,12,200,65,7*64
$GPGSV,11,11,11,24,48,174,65,29,56,280,0,30,59,343,65,31,17,319,65,7*5F
$GLRMC,140001,A,3114.50869,N,12130.01009,E,16.199,78.543,010620,0.000,E,A,V*7B
$GLGSV,8,1,8,66,35,31,65,67,43,308,65,68,16,273,65,75,8,34,65,1*72
$GLGSV,8,2,8,77,15,138,65,81,51,214,65,82,45,305,65,88,13,177,65,1*40
$GLGSV,8,3,8,66,35,31,65,67,43,308,65,68,16,273,65,75,8,34,65,2*73
$GLGSV,8,4,8,77,15,138,65,81,51,214,65,82,45,305,65,88,13,177,65,2*45
$GLGSV,8,5,8,66,35,31,65,67,43,308,65,68,16,273,65,75,8,34,65,3*74
$GLGSV,8,6,8,77,15,138,65,81,51,214,65,82,45,305,65,88,13,177,65,3*46
$GLGSV,8,7,8,66,35,31,65,67,43,308,65,68,16,273,65,75,8,34,65,4*71
$GLGSV,8,8,8,77,15,138,65,81,51,214,65,82,45,305,65,88,13,177,65,4*4F
$GARMC,140001,A,3114.50869,N,12130.01009,E,16.199,78.543,010620,0.000,E,A*0C
$GAGSV,3,1,9,1,49,33,63,7,13,259,63,8,55,295,63,14,13,139,63*5E
$GAGSV,3,2,9,15,17,88,63,17,44,302,63,18,59,208,63,19,17,165,63*66
$GAGSV,3,3,9,25,27,51,63*52
$GPGGA,140002,3114.50891,N,12130.01650,E,3,36,0.81,38.13,M,11.87,M,,*4C
$GPRMC,140002,A,3114.50891,N,12130.01650,E,30.109,90.000,010620,0.000,E,A,V*60
$GPGSV,11,1,11,2,35,50,65,5,67,47,65,9,32,167,65,10,9,111,65,1*52
$GPGSV,11,2,11,12,58,66,65,14,14,266,65,21,12,200,65,24,48,174,65,1*60
$GPGSV,11,3,11,29,56,280,0,30,59,343,65,31,17,319,65,2,35,50,65,5*67
$GPGSV,11,4,11,5,67,47,65,9,32,167,65,10,9,111,65,12,58,66,65,5*6C
$GPGSV,11,5,11,14,14,266,65,21,12,200,65,24,48,174,65,29,56,280,0,5*6C
$GPGSV,11,6,11,30,59,343,65,31,17,319,65,2,35,50,65,5,67,47,65,6*57
$GPGSV,11,7,11,9,32,167,65,10,9,111,65,12,58,66,65,14,14,266,65,6*69
$GPGSV,11,8,11,21,12,200,65,24,48,174,65,29,56,280,0,30,59,343,65,6*6B
$GPGSV,11,9,11,31,17,319,65,2,35,50,65,5,67,47,65,9,32,167,65,7*6A
$GPGSV,11,10,11,10,9,111,65,12,58,66,65,14,14,266,65,21,12,200,65,7*64
$GPGSV,11,11,11,24,48,174,65,29,56,280,0,30,59,343,65,31,17,319,65,7*5F
$GLRMC,140002,A,3114.50891,N,12130.01650,E,30.109,90.000,010620,0.000,E,A,V*7C
$GLGSV,8,1,8,66,35,31,65,67,43,308,65,68,16,273,65,75,8,34,65,1*72
$GLGSV,8,2,8,77,15,138,65,81,51,214,65,82,45,305,65,88,13,177,65,1*40
$GLGSV,8,3,8,66,35,31,65,67,43,308,65,68,16,273,65,75,8,34,65,2*73
$GLGSV,8,4,8,77,15,138,65,81,51,214,65,82,45,305,65,88,13,177,65,2*45
$GLGSV,8,5,8,66,35,31,65,67,43,308,65,68,16,273,65,75,8,34,65,3*74
$GLGSV,8,6,8,77,15,138,65,81,51,214,65,82,45,305,65,88,13,177,65,3*46
$GLGSV,8,7,8,66,35,31,65,67,43,308,65,68,16,273,65,75,8,34,65,4*71
$GLGSV,8,8,8,77,15,138,65,81,51,214,65,82,45,305,65,88,13,177,65,4*4F
$GARMC,140002,A,3114.50891,N,12130.01650,E,30.109,90.000,010620,0.000,E,A*0B
$GAGSV,3,1,9,1,49,33,63,7,13,259,63,8,55,295,63,14,13,139,63*5E
$GAGSV,3,2,9,15,17,88,63,17,44,302,63,18,59,208,63,19,17,165,63*66
$GAGSV,3,3,9,25,27,51,63*52
$GPGGA,140003,3114.50891,N,12130.03059,E,3,36,0.81,38.12,M,11.88,M,,*4E
$GPRMC,140003,A,3114.50891,N,12130.03059,E,56.858,90.000,010620,0.000,E,A,V*61
$GPGSV,11,1,11,2,35,50,65,5,67,47,65,9,32,167,65,10,9,111,65,1*52
$GPGSV,11,2,11,12,58,66,65,14,14,266,65,21,12,200,65,24,48,174,65,1*60
$GPGSV,11,3,11,29,56,280,0,30,59,343,65,31,17,319,65,2,35,50,65,5*67
$GPGSV,11,4,11,5,67,47,65,9,32,167,65,10,9,111,65,12,58,66,65,5*6C
$GPGSV,11,5,11,14,14,266,65,21,12,200,65,24,48,174,65,29,56,280,0,5*6C
$GPGSV,11,6,11,30,59,343,65,31,17,319,65,2,35,50,65,5,67,47,65,6*57
$GPGSV,11,7,11,9,32,167,65,10,9,111,65,12,58,66,65,14,14,266,65,6*69
$GPGSV,11,8,11,21,12,200,65,24,48,174,65,29,56,280,0,30,59,343,65,6*6B
$GPGSV,11,9,11,31,17,319,65,2,35,50,65,5,67,47,65,9,32,167,65,7*6A
$GPGSV,11,10,11,10,9,111,65,12,58,66,65,14,14,266,65,21,12,200,65,7*64
$GPGSV,11,11,11,24,48,174,65,29,56,280,0,30,59,343,65,31,17,319,65,7*5F
$GLRMC,140003,A,3114.50891,N,12130.03059,E,56.858,90.000,010620,0.000,E,A,V*7D
$GLGSV,8,1,8,66,35,31,65,67,43,308,65,68,16,273,65,75,8,34,65,1*72
$GLGSV,8,2,8,77,15,138,65,81,51,214,65,82,45,305,65,88,13,177,65,1*40
$GLGSV,8,3,8,66,35,31,65,67,43,308,65,68,16,273,65,75,8,34,65,2*73
$GLGSV,8,4,8,77,15,138,65,81,51,214,65,82,45,305,65,88,13,177,65,2*45
$GLGSV,8,5,8,66,35,31,65,67,43,308,65,68,16,273,65,75,8,34,65,3*74
$GLGSV,8,6,8,77,15,138,65,81,51,214,65,82,45,305,65,88,13,177,65,3*46
$GLGSV,8,7,8,66,35,31,65,67,43,308,65,68,16,273,65,75,8,34,65,4*71
$GLGSV,8,8,8,77,15,138,65,81,51,214,65,82,45,305,65,88,13,177,65,4*4F
$GARMC,140003,A,3114.50891,N,12130.03059,E,56.858,90.000,010620,0.000,E,A*0A
$GAGSV,3,1,9,1,49,33,63,7,13,259,63,8,55,295,63,14,13,139,63*5E
$GAGSV,3,2,9,15,17,88,63,17,44,302,63,18,59,208,63,19,17,165,63*66
$GAGSV,3,3,9,25,27,51,63*52
$GPGGA,140004,3114.50891,N,12130.05334,E,3,36,0.81,38.12,M,11.88,M,,*47
$GPRMC,140004,A,3114.50891,N,12130.05334,E,83.608,90.000,010620,0.000,E,A,V*6B
$GPGSV,11,1,11,2,35,50,65,5,67,47,65,9,32,167,65,10,9,111,65,1*52
$GPGSV,11,2,11,12,58,66,65,14,14,266,65,21,12,200,65,24,48,174,65,1*60
$GPGSV,11,3,11,29,56,280,0,30,59,343,65,31,17,319,65,2,35,50,65,5*67
$GPGSV,11,4,11,5,67,47,65,9,32,167,65,10,9,111,65,12,58,66,65,5*6C
$GPGSV,11,5,11,14,14,266,65,21,12,200,65,24,48,174,65,29,56,280,0,5*6C
$GPGSV,11,6,11,30,59,343,65,31,17,319,65,2,35,50,65,5,67,47,65,6*57
$GPGSV,11,7,11,9,32,167,65,10,9,111,65,12,58,66,65,14,14,266,65,6*69
$GPGSV,11,8,11,21,12,200,65,24,48,174,65,29,56,280,0,30,59,343,65,6*6B
$GPGSV,11,9,11,31,17,319,65,2,35,50,65,5,67,47,65,9,32,167,65,7*6A
$GPGSV,11,10,11,10,9,111,65,12,58,66,65,14,14,266,65,21,12,200,65,7*64
$GPGSV,11,11,11,24,48,174,65,29,56,280,0,30,59,343,65,31,17,319,65,7*5F
$GLRMC,140004,A,3114.50891,N,12130.05334,E,83.608,90.000,010620,0.000,E,A,V*77
$GLGSV,8,1,8,66,35,31,65,67,43,308,65,68,16,273,65,75,8,34,65,1*72
$GLGSV,8,2,8,77,15,138,65,81,51,214,65,82,45,305,65,88,13,177,65,1*40
$GLGSV,8,3,8,66,35,31,65,67,43,308,65,68,16,273,65,75,8,34,65,2*73
$GLGSV,8,4,8,77,15,138,65,81,51,214,65,82,45,305,65,88,13,177,65,2*45
$GLGSV,8,5,8,66,35,31,65,67,43,308,65,68,16,273,65,75,8,34,65,3*74
$GLGSV,8,6,8,77,15,138,65,81,51,214,65,82,45,305,65,88,13,177,65,3*46
$GLGSV,8,7,8,66,35,31,65,67,43,308,65,68,16,273,65,75,8,34,65,4*71
$GLGSV,8,8,8,77,15,138,65,81,51,214,65,82,45,305,65,88,13,177,65,4*4F
$GARMC,140004,A,3114.50891,N,12130.05334,E,83.608,90.000,010620,0.000,E,A*00
$GAGSV,3,1,9,1,49,33,63,7,13,259,63,8,55,295,63,14,13,139,63*5E
$GAGSV,3,2,9,15,17,88,63,17,44,302,63,18,59,208,63,19,17,165,63*66
$GAGSV,3,3,9,25,27,51,63*52
$GPGGA,140005,3114.50891,N,12130.08477,E,3,36,0.81,38.12,M,11.88,M,,*4B
$GPRMC,140005,A,3114.50891,N,12130.08477,E,110.358,90.001,010620,0.000,E,A,V*5D
$GPGSV,11,1,11,2,35,50,65,5,67,47,65,9,32,167,65,10,9,111,65,1*52
$GPGSV,11,2,11,12,58,66,65,14,14,266,65,21,12,200,65,24,48,174,65,1*60
$GPGSV,11,3,11,29,56,280,0,30,59,343,65,31,17,319,65,2,35,50,65,5*67
$GPGSV,11,4,11,5,67,47,65,9,32,167,65,10,9,111,65,12,58,66,65,5*6C
$GPGSV,11,5,11,14,14,266,65,21,12,200,65,24,48,174,65,29,56,280,0,5*6C
$GPGSV,11,6,11,30,59,343,65,31,17,319,65,2,35,50,65,5,67,47,65,6*57
$GPGSV,11,7,11,9,32,167,65,10,9,111,65,12,58,66,65,14,14,266,65,6*69
$GPGSV,11,8,11,21,12,200,65,24,48,174,65,29,56,280,0,30,59,343,65,6*6B
$GPGSV,11,9,11,31,17,319,65,2,35,50,65,5,67,47,65,9,32,167,65,7*6A
$GPGSV,11,10,11,10,9,111,65,12,58,66,65,14,14,266,65,21,12,200,65,7*64
$GPGSV,11,11,11,24,48,174,65,29,56,280,0,30,59,343,65,31,17,319,65,7*5F
$GLRMC,140005,A,3114.50891,N,12130.08477,E,110.358,90.001,010620,0.000,E,A,V*41
$GLGSV,8,1,8,66,35,31,65,67,43,308,65,68,16,273,65,75,8,34,65,1*72
$GLGSV,8,2,8,77,15,138,65,81,51,214,65,82,45,305,65,88,13,177,65,1*40
$GLGSV,8,3,8,66,35,31,65,67,43,308,65,68,16,273,65,75,8,34,65,2*73
$GLGSV,8,4,8,77,15,138,65,81,51,214,65,82,45,305,65,88,13,177,65,2*45
$GLGSV,8,5,8,66,35,31,65,67,43,308,65,68,16,273,65,75,8,34,65,3*74
$GLGSV,8,6,8,77,15,138,65,81,51,214,65,82,45,305,65,88,13,177,65,3*46
$GLGSV,8,7,8,66,35,31,65,67,43,308,65,68,16,273,65,75,8,34,65,4*71
$GLGSV,8,8,8,77,15,138,65,81,51,214,65,82,45,305,65,88,13,177,65,4*4F
$GARMC,140005,A,3114.50891,N,12130.08477,E,110.358,90.001,010620,0.000,E,A*36
$GAGSV,3,1,9,1,49,33,63,7,13,259,63,8,55,295,63,14,13,139,63*5E
$GAGSV,3,2,9,15,17,88,63,17,44,302,63,18,59,208,63,19,17,165,63*66
$GAGSV,3,3,9,25,27,51,63*52
$GPGGA,140006,3114.50891,N,12130.12486,E,3,36,0.81,38.12,M,11.88,M,,*4D
$GPRMC,140006,A,3114.50891,N,12130.12486,E,137.108,90.001,010620,0.000,E,A,V*59
$GPGSV,11,1,11,2,35,50,65,5,67,47,65,9,32,167,65,10,9,111,65,1*52
$GPGSV,11,2,11,12,58,66,65,14,14,266,65,21,12,200,65,24,48,173,65,1*67
$GPGSV,11,3,11,29,56,280,0,30,59,343,65,31,17,319,65,2,35,50,65,5*67
$GPGSV,11,4,11,5,67,47,65,9,32,167,65,10,9,111,65,12,58,66,65,5*6C
$GPGSV,11,5,11,14,14,266,65,21,12,200,65,24,48,173,65,29,56,280,0,5*6B
$GPGSV,11,6,11,30,59,343,65,31,17,319,65,2,35,50,65,5,67,47,65,6*57
$GPGSV,11,7,11,9,32,167,65,10,9,111,65,12,58,66,65,14,14,266,65,6*69
$GPGSV,11,8,11,21,12,200,65,24,48,173,65,29,56,280,0,30,59,343,65,6*6C
$GPGSV,11,9,11,31,17,319,65,2,35,50,65,5,67,47,65,9,32,167,65,7*6A
$GPGSV,11,10,11,10,9,111,65,12,58,66,65,14,14,266,65,21,12,200,65,7*64
$GPGSV,11,11,11,24,48,173,65,29,56,280,0,30,59,343,65,31,17,319,65,7*58
$GLRMC,140006,A,3114.50891,N,12130.12486,E,137.108,90.001,010620,0.000,E,A,V*45
$GLGSV,8,1,8,66,35,31,65,67,43,308,65,68,16,273,65,75,8,34,65,1*72
$GLGSV,8,2,8,77,15,138,65,81,51,214,65,82,45,305,65,88,13,177,65,1*40
$GLGSV,8,3,8,66,35,31,65,67,43,308,65,68,16,273,65,75,8,34,65,2*73
$GLGSV,8,4,8,77,15,138,65,81,51,214,65,82,45,305,65,88,13,177,65,2*45
$GLGSV,8,5,8,66,35,31,65,67,43,308,65,68,16,273,65,75,8,34,65,3*74
$GLGSV,8,6,8,77,15,138,65,81,51,214,65,82,45,305,65,88,13,177,65,3*46
$GLGSV,8,7,8,66,35,31,65,67,43,308,65,68,16,273,65,75,8,34,65,4*71
$GLGSV,8,8,8,77,15,138,65,81,51,214,65,82,45,305,65,88,13,177,65,4*4F
$GARMC,140006,A,3114.50891,N,12130.12486,E,137.108,90.001,010620,0.000,E,A*32
$GAGSV,3,1,9,1,49,33,63,7,13,259,63,8,55,295,63,14,13,139,63*5E
$GAGSV,3,2,9,15,17,88,63,17,44,302,63,18,59,208,63,19,17,165,63*66
$GAGSV,3,3,9,25,27,51,63*52
$GPGGA,140007,3114.50891,N,12130.17360,E,3,36,0.81,38.11,M,11.89,M,,*44
$GPRMC,140007,A,3114.50891,N,12130.17360,E,161.986,90.002,010620,0.000,E,A,V*5C
$GPGSV,11,1,11,2,35,50,65,5,67,47,65,9,32,167,65,10,9,111,65,1*52
$GPGSV,11,2,11,12,58,66,65,14,14,266,65,21,12,200,65,24,48,173,65,1*67
$GPGSV,11,3,11,29,56,280,0,30,59,343,65,31,17,319,65,2,35,50,65,5*67
$GPGSV,11,4,11,5,67,47,65,9,32,167,65,10,9,111,65,12,58,66,65,5*6C
$GPGSV,11,5,11,14,14,266,65,21,12,200,65,24,48,173,65,29,56,280,0,5*6B
$GPGSV,11,6,11,30,59,343,65,31,17,319,65,2,35,50,65,5,67,47,65,6*57
$GPGSV,11,7,11,9,32,167,65,10,9,111,65,12,58,66,65,14,14,266,65,6*69
$GPGSV,11,8,11,21,12,200,65,24,48,173,65,29,56,280,0,30,59,343,65,6*6C
$GPGSV,11,9,11,31,17,319,65,2,35,50,65,5,67,47,65,9,32,167,65,7*6A
$GPGSV,11,10,11,10,9,111,65,12,58,66,65,14,14,266,65,21,12,200,65,7*64
$GPGSV,11,11,11,24,48,173,65,29,56,280,0,30,59,343,65,31,17,319,65,7*58
$GLRMC,140007,A,3114.50891,N,12130.17360,E,161.986,90.002,010620,0.000,E,A,V*40
$GLGSV,8,1,8,66,35,31,65,67,43,308,65,68,16,273,65,75,8,34,65,1*72
$GLGSV,8,2,8,77,15,138,65,81,51,214,65,82,45,305,65,88,13,177,65,1*40
$GLGSV,8,3,8,66,35,31,65,67,43,308,65,68,16,273,65,75,8,34,65,2*73
$GLGSV,8,4,8,77,15,138,65,81,51,214,65,82,45,305,65,88,13,177,65,2*45
$GLGSV,8,5,8,66,35,31,65,67,43,308,65,68,16,273,65,75,8,34,65,3*74
$GLGSV,8,6,8,77,15,138,65,81,51,214,65,82,45,305,65,88,13,177,65,3*46
$GLGSV,8,7,8,66,35,31,65,67,43,308,65,68,16,273,65,75,8,34,65,4*71
$GLGSV,8,8,8,77,15,138,65,81,51,214,65,82,45,305,65,88,13,177,65,4*4F
$GARMC,140007,A,3114.50891,N,12130.17360,E,161.986,90.002,010620,0.000,E,A*37
$GAGSV,3,1,9,1,49,33,63,7,13,259,63,8,55,295,63,14,13,139,63*5E
$GAGSV,3,2,9,15,17,88,63,17,44,302,63,18,59,208,63,19,17,165,63*66
$GAGSV,3,3,9,25,27,51,63*52
$GPGGA,140008,3114.50891,N,12130.22608,E,3,36,0.81,38.11,M,11.89,M,,*46
$GPRMC,140008,A,3114.50891,N,12130.22608,E,161.986,90.002,010620,0.000,E,A,V*5E
$GPGSV,11,1,11,2,35,50,65,5,67,47,65,9,32,167,65,10,9,111,65,1*52
$GPGSV,11,2,11,12,58,66,65,14,14,266,65,21,12,200,65,24,48,173,65,1*67
$GPGSV,11,3,11,29,56,280,0,30,59,343,65,31,17,319,65,2,35,50,65,5*67
$GPGSV,11,4,11,5,67,47,65,9,32,167,65,10,9,111,65,12,58,66,65,5*6C
$GPGSV,11,5,11,14,14,266,65,21,12,200,65,24,48,173,65,29,56,280,0,5*6B
$GPGSV,11,6,11,30,59,343,65,31,17,319,65,2,35,50,65,5,67,47,65,6*57
$GPGSV,11,7,11,9,32,167,65,10,9,111,65,12,58,66,65,14,14,266,65,6*69
$GPGSV,11,8,11,21,12,200,65,24,48,173,65,29,56,280,0,30,59,343,65,6*6C
$GPGSV,11,9,11,31,17,319,65,2,35,50,65,5,67,47,65,9,32,167,65,7*6A
$GPGSV,11,10,11,10,9,111,65,12,58,66,65,14,14,266,65,21,12,200,65,7*64
$GPGSV,11,11,11,24,48,173,65,29,56,280,0,30,59,343,65,31,17,319,65,7*58
$GLRMC,140008,A,3114.50891,N,12130.22608,E,161.986,90.002,010620,0.000,E,A,V*42
$GLGSV,8,1,8,66,35,31,65,67,43,308,65,68,16,273,65,75,8,34,65,1*72
$GLGSV,8,2,8,77,15,138,65,81,51,214,65,82,45,305,65,88,13,177,65,1*40
$GLGSV,8,3,8,66,35,31,65,67,43,308,65,68,16,273,65,75,8,34,65,2*73
$GLGSV,8,4,8,77,15,138,65,81,51,214,65,82,45,305,65,88,13,177,65,2*45
$GLGSV,8,5,8,66,35,31,65,67,43,308,65,68,16,273,65,75,8,34,65,3*74
$GLGSV,8,6,8,77,15,138,65,81,51,214,65,82,45,305,65,88,13,177,65,3*46
$GLGSV,8,7,8,66,35,31,65,67,43,308,65,68,16,273,65,75,8,34,65,4*71
$GLGSV,8,8,8,77,15,138,65,81,51,214,65,82,45,305,65,88,13,177,65,4*4F
$GARMC,140008,A,3114.50891,N,12130.22608,E,161.986,90.002,010620,0.000,E,A*35
$GAGSV,3,1,9,1,49,33,63,7,13,259,63,8,55,295,63,14,13,139,63*5E
$GAGSV,3,2,9,15,17,88,63,17,44,302,63,18,59,208,63,19,17,165,63*66
$GAGSV,3,3,9,25,27,51,63*52
$GPGGA,140009,3114.50890,N,12130.27857,E,3,36,0.81,38.10,M,11.90,M,,*4E
$GPRMC,140009,A,3114.50890,N,12130.27857,E,161.986,90.002,010620,0.000,E,A,V*5F
$GPGSV,11,1,11,2,35,50,65,5,67,47,65,9,32,167,65,10,9,111,65,1*52
$GPGSV,11,2,11,12,58,66,65,14,14,266,65,21,12,200,65,24,48,173,65,1*67
$GPGSV,11,3,11,29,56,280,0,30,59,343,65,31,17,319,65,2,35,50,65,5*67
$GPGSV,11,4,11,5,67,47,65,9,32,167,65,10,9,111,65,12,58,66,65,5*6C
$GPGSV,11,5,11,14,14,266,65,21,12,200,65,24,48,173,65,29,56,280,0,5*6B
$GPGSV,11,6,11,30,59,343,65,31,17,319,65,2,35,50,65,5,67,47,65,6*57
$GPGSV,11,7,11,9,32,167,65,10,9,111,65,12,58,66,65,14,14,266,65,6*69
$GPGSV,11,8,11,21,12,200,65,24,48,173,65,29,56,280,0,30,59,343,65,6*6C
$GPGSV,11,9,11,31,17,319,65,2,35,50,65,5,67,47,65,9,32,167,65,7*6A
$GPGSV,11,10,11,10,9,111,65,12,58,66,65,14,14,266,65,21,12,200,65,7*64
$GPGSV,11,11,11,24,48,173,65,29,56,280,0,30,59,343,65,31,17,319,65,7*58
$GLRMC,140009,A,3114.50890,N,12130.27857,E,161.986,90.002,010620,0.000,E,A,V*43
$GLGSV,8,1,8,66,35,31,65,67,43,308,65,68,16,273,65,75,8,34,65,1*72
$GLGSV,8,2,8,77,15,138,65,81,51,214,65,82,45,305,65,88,13,177,65,1*40
$GLGSV,8,3,8,66,35,31,65,67,43,308,65,68,16,273,65,75,8,34,65,2*73
$GLGSV,8,4,8,77,15,138,65,81,51,214,65,82,45,305,65,88,13,177,65,2*45
$GLGSV,8,5,8,66,35,31,65,67,43,308,65,68,16,273,65,75,8,34,65,3*74
$GLGSV,8,6,8,77,15,138,65,81,51,214,65,82,45,305,65,88,13,177,65,3*46
$GLGSV,8,7,8,66,35,31,65,67,43,308,65,68,16,273,65,75,8,34,65,4*71
$GLGSV,8,8,8,77,15,138,65,81,51,214,65,82,45,305,65,88,13,177,65,4*4F
$GARMC,140009,A,3114.50890,N,12130.27857,E,161.986,90.002,010620,0.000,E,A*34
$GAGSV,3,1,9,1,49,33,63,7,13,259,63,8,55,295,63,14,13,139,63*5E
$GAGSV,3,2,9,15,17,88,63,17,44,302,63,18,59,208,63,19,17,165,63*66
$GAGSV,3,3,9,25,27,51,63*52
$GPGGA,140010,3114.50890,N,12130.33106,E,3,36,0.81,38.10,M,11.90,M,,*4E
$GPRMC,140010,A,3114.50890,N,12130.33106,E,161.986,90.003,010620,0.000,E,A,V*5E
$GPGSV,11,1,11,2,35,50,65,5,67,47,65,9,32,167,65,10,9,111,65,1*52
$GPGSV,11,2,11,12,58,66,65,14,14,266,65,21,12,200,65,24,48,173,65,1*67
$GPGSV,11,3,11,29,56,280,0,30,59,343,65,31,17,319,65,2,35,50,65,5*67
$GPGSV,11,4,11,5,67,47,65,9,32,167,65,10,9,111,65,12,58,66,65,5*6C
$GPGSV,11,5,11,14,14,266,65,21,12,200,65,24,48,173,65,29,56,280,0,5*6B
$GPGSV,11,6,11,30,59,343,65,31,17,319,65,2,35,50,65,5,67,47,65,6*57
$GPGSV,11,7,11,9,32,167,65,10,9,111,65,12,58,66,65,14,14,266,65,6*69
$GPGSV,11,8,11,21,12,200,65,24,48,173,65,29,56,280,0,30,59,343,65,6*6C
$GPGSV,11,9,11,31,17,319,65,2,35,50,65,5,67,47,65,9,32,167,65,7*6A
$GPGSV,11,10,11,10,9,111,65,12,58,66,65,14,14,266,65,21,12,200,65,7*64
$GPGSV,11,11,11,24,48,173,65,29,56,280,0,30,59,343,65,31,17,319,65,7*58
$GLRMC,140010,A,3114.50890,N,12130.33106,E,161.986,90.003,010620,0.000,E,A,V*42
$GLGSV,8,1,8,66,35,31,65,67,43,308,65,68,16,273,65,75,8,34,65,1*72
$GLGSV,8,2,8,77,15,138,65,81,51,214,65,82,45,305,65,88,13,177,65,1*40
$GLGSV,8,3,8,66,35,31,65,67,43,308,65,68,16,273,65,75,8,34,65,2*73
$GLGSV,8,4,8,77,15,138,65,81,51,214,65,82,45,305,65,88,13,177,65,2*45
$GLGSV,8,5,8,66,35,31,65,67,43,308,65,68,16,273,65,75,8,34,65,3*74
$GLGSV,8,6,8,77,15,138,65,81,51,214,65,82,45,305,65,88,13,177,65,3*46
$GLGSV,8,7,8,66,35,31,65,67,43,308,65,68,16,273,65,75,8,34,65,4*71
$GLGSV,8,8,8,77,15,138,65,81,51,214,65,82,45,305,65,88,13,177,65,4*4F
$GARMC,140010,A,3114.50890,N,12130.33106,E,161.986,90.003,010620,0.000,E,A*35
$GAGSV,3,1,9,1,49,33,63,7,13,259,63,8,55,295,63,14,13,139,63*5E
$GAGSV,3,2,9,15,17,88,63,17,44,302,63,18,59,208,63,19,17,165,63*66
$GAGSV,3,3,9,25,27,51,63*52
$GPGGA,140011,3114.50890,N,12130.38354,E,3,36,0.81,38.09,M,11.91,M,,*48
$GPRMC,140011,A,3114.50890,N,12130.38354,E,161.986,90.003,010620,0.000,E,A,V*51
$GPGSV,11,1,11,2,35,50,65,5,67,47,65,9,32,167,65,10,9,111,65,1*52
$GPGSV,11,2,11,12,58,66,65,14,14,266,65,21,12,200,65,24,48,173,65,1*67
$GPGSV,11,3,11,29,56,280,0,30,59,343,65,31,17,319,65,2,35,50,65,5*67
$GPGSV,11,4,11,5,67,47,65,9,32,167,65,10,9,111,65,12,58,66,65,5*6C
$GPGSV,11,5,11,14,14,266,65,21,12,200,65,24,48,173,65,29,56,280,0,5*6B
$GPGSV,11,6,11,30,59,343,65,31,17,319,65,2,35,50,65,5,67,47,65,6*57
$GPGSV,11,7,11,9,32,167,65,10,9,111,65,12,58,66,65,14,14,266,65,6*69
$GPGSV,11,8,11,21,12,200,65,24,48,173,65,29,56,280,0,30,59,343,65,6*6C
$GPGSV,11,9,11,31,17,319,65,2,35,50,65,5,67,47,65,9,32,167,65,7*6A
$GPGSV,11,10,11,10,9,111,65,12,58,66,65,14,14,266,65,21,12,200,65,7*64
$GPGSV,11,11,11,24,48,173,65,29,56,280,0,30,59,343,65,31,17,319,65,7*58
$GLRMC,140011,A,3114.50890,N,12130.38354,E,161.986,90.003,010620,0.000,E,A,V*4D
$GLGSV,8,1,8,66,35,31,65,67,43,308,65,68,16,273,65,75,8,34,65,1*72
$GLGSV,8,2,8,77,15,138,65,81,51,214,65,82,45,305,65,88,13,177,65,1*40
$GLGSV,8,3,8,66,35,31,65,67,43,308,65,68,16,273,65,75,8,34,65,2*73
$GLGSV,8,4,8,77,15,138,65,81,51,214,65,82,45,305,65,88,13,177,65,2*45
$GLGSV,8,5,8,66,35,31,65,67,43,308,65,68,16,273,65,75,8,34,65,3*74
$GLGSV,8,6,8,77,15,138,65,81,51,214,65,82,45,305,65,88,13,177,65,3*46
$GLGSV,8,7,8,66,35,31,65,67,43,308,65,68,16,273,65,75,8,34,65,4*71
$GLGSV,8,8,8,77,15,138,65,81,51,214,65,82,45,305,65,88,13,177,65,4*4F
$GARMC,140011,A,3114.50890,N,12130.38354,E,161.986,90.003,010620,0.000,E,A*3A
$GAGSV,3,1,9,1,49,33,63,7,13,259,63,8,55,295,63,14,13,139,63*5E
$GAGSV,3,2,9,15,17,88,63,17,44,302,63,18,59,208,63,19,17,165,63*66
$GAGSV,3,3,9,25,27,51,63*52
$GPGGA,140012,3114.50890,N,12130.43603,E,3,36,0.81,38.09,M,11.91,M,,*40
$GPRMC,140012,A,3114.50890,N,12130.43603,E,161.986,90.004,010620,0.000,E,A,V*5E
$GPGSV,11,1,11,2,35,50,65,5,67,47,65,9,32,167,65,10,9,111,65,1*52
$GPGSV,11,2,11,12,58,66,65,14,14,266,65,21,12,200,65,24,48,173,65,1*67
$GPGSV,11,3,11,29,56,280,0,30,59,343,65,31,17,319,65,2,35,50,65,5*67
$GPGSV,11,4,11,5,67,47,65,9,32,167,65,10,9,111,65,12,58,66,65,5*6C
$GPGSV,11,5,11,14,14,266,65,21,12,200,65,24,48,173,65,29,56,280,0,5*6B
$GPGSV,11,6,11,30,59,343,65,31,17,319,65,2,35,50,65,5,67,47,65,6*57
$GPGSV,11,7,11,9,32,167,65,10,9,111,65,12,58,66,65,14,14,266,65,6*69
$GPGSV,11,8,11,21,12,200,65,24,48,173,65,29,56,280,0,30,59,343,65,6*6C
$GPGSV,11,9,11,31,17,319,65,2,35,50,65,5,67,47,65,9,32,167,65,7*6A
$GPGSV,11,10,11,10,9,111,65,12,58,66,65,14,14,266,65,21,12,200,65,7*64
$GPGSV,11,11,11,24,48,173,65,29,56,280,0,30,59,343,65,31,17,319,65,7*58
$GLRMC,140012,A,3114.50890,N,12130.43603,E,161.986,90.004,010620,0.000,E,A,V*42
$GLGSV,8,1,8,66,35,31,65,67,43,308,65,68,16,273,65,75,8,34,65,1*72
$GLGSV,8,2,8,77,15,138,65,81,51,214,65,82,45,305,65,88,13,177,65,1*40
$GLGSV,8,3,8,66,35,31,65,67,43,308,65,68,16,273,65,75,8,34,65,2*73
$GLGSV,8,4,8,77,15,138,65,81,51,214,65,82,45,305,65,88,13,177,65,2*45
$GLGSV,8,5,8,66,35,31,65,67,43,308,65,68,16,273,65,75,8,34,65,3*74
$GLGSV,8,6,8,77,15,138,65,81,51,214,65,82,45,305,65,88,13,177,65,3*46
$GLGSV,8,7,8,66,35,31,65,67,43,308,65,68,16,273,65,75,8,34,65,4*71
$GLGSV,8,8,8,77,15,138,65,81,51,214,65,82,45,305,65,88,13,177,65,4*4F
$GARMC,140012,A,3114.50890,N,12130.43603,E,161.986,90.004,010620,0.000,E,A*35
$GAGSV,3,1,9,1,48,33,63,7,13,259,63,8,55,295,63,14,13,139,63*5F
$GAGSV,3,2,9,15,17,88,63,17,44,302,63,18,59,208,63,19,17,165,63*66
$GAGSV,3,3,9,25,27,51,63*52
$GPGGA,140013,3114.50889,N,12130.48852,E,3,36,0.81,38.08,M,11.92,M,,*4A
$GPRMC,140013,A,3114.50889,N,12130.48852,E,161.986,90.004,010620,0.000,E,A,V*56
$GPGSV,11,1,11,2,35,50,65,5,67,47,65,9,32,167,65,10,9,111,65,1*52
$GPGSV,11,2,11,12,58,66,65,14,14,266,65,21,12,200,65,24,48,173,65,1*67
$GPGSV,11,3,11,29,56,280,0,30,59,343,65,31,17,319,65,2,35,50,65,5*67
$GPGSV,11,4,11,5,67,47,65,9,32,167,65,10,9,111,65,12,58,66,65,5*6C
$GPGSV,11,5,11,14,14,266,65,21,12,200,65,24,48,173,65,29,56,280,0,5*6B
$GPGSV,11,6,11,30,59,343,65,31,17,319,65,2,35,50,65,5,67,47,65,6*57
$GPGSV,11,7,11,9,32,167,65,10,9,111,65,12,58,66,65,14,14,266,65,6*69
$GPGSV,11,8,11,21,12,200,65,24,48,173,65,29,56,280,0,30,59,343,65,6*6C
$GPGSV,11,9,11,31,17,319,65,2,35,50,65,5,67,47,65,9,32,167,65,7*6A
$GPGSV,11,10,11,10,9,111,65,12,58,66,65,14,14,266,65,21,12,200,65,7*64
$GPGSV,11,11,11,24,48,173,65,29,56,280,0,30,59,343,65,31,17,319,65,7*58
$GLRMC,140013,A,3114.50889,N,12130.48852,E,161.986,90.004,010620,0.000,E,A,V*4A
$GLGSV,8,1,8,66,35,31,65,67,43,308,65,68,16,273,65,75,8,34,65,1*72
$GLGSV,8,2,8,77,15,138,65,81,51,214,65,82,45,305,65,88,13,177,65,1*40
$GLGSV,8,3,8,66,35,31,65,67,43,308,65,68,16,273,65,75,8,34,65,2*73
$GLGSV,8,4,8,77,15,138,65,81,51,214,65,82,45,305,65,88,13,177,65,2*45
$GLGSV,8,5,8,66,35,31,65,67,43,308,65,68,16,273,65,75,8,34,65,3*74
$GLGSV,8,6,8,77,15,138,65,81,51,214,65,82,45,305,65,88,13,177,65,3*46
$GLGSV,8,7,8,66,35,31,65,67,43,308,65,68,16,273,65,75,8,34,65,4*71
$GLGSV,8,8,8,77,15,138,65,81,51,214,65,82,45,305,65,88,13,177,65,4*4F
$GARMC,140013,A,3114.50889,N,12130.48852,E,161.986,90.004,010620,0.000,E,A*3D
$GAGSV,3,1,9,1,48,33,63,7,13,259,63,8,55,295,63,14,13,139,63*5F
$GAGSV,3,2,9,15,17,88,63,17,44,302,63,18,59,208,63,19,17,165,63*66
$GAGSV,3,3,9,25,27,51,63*52
$GPGGA,140014,3114.50889,N,12130.54100,E,3,36,0.81,38.08,M,11.92,M,,*4E
$GPRMC,140014,A,3114.50889,N,12130.54100,E,161.986,90.005,010620,0.000,E,A,V*53
$GPGSV,11,1,11,2,35,50,65,5,67,47,65,9,32,167,65,10,9,111,65,1*52
$GPGSV,11,2,11,12,58,66,65,14,14,266,65,21,12,200,65,24,48,173,65,1*67
$GPGSV,11,3,11,29,56,280,0,30,59,343,65,31,17,319,65,2,35,50,65,5*67
$GPGSV,11,4,11,5,67,47,65,9,32,167,65,10,9,111,65,12,58,66,65,5*6C
$GPGSV,11,5,11,14,14,266,65,21,12,200,65,24,48,173,65,29,56,280,0,5*6B
$GPGSV,11,6,11,30,59,343,65,31,17,319,65,2,35,50,65,5,67,47,65,6*57
$GPGSV,11,7,11,9,32,167,65,10,9,111,65,12,58,66,65,14,14,266,65,6*69
$GPGSV,11,8,11,21,12,200,65,24,48,173,65,29,56,280,0,30,59,343,65,6*6C
$GPGSV,11,9,11,31,17,319,65,2,35,50,65,5,67,47,65,9,32,167,65,7*6A
$GPGSV,11,10,11,10,9,111,65,12,58,66,65,14,14,266,65,21,12,200,65,7*64
$GPGSV,11,11,11,24,48,173,65,29,56,280,0,30,59,343,65,31,17,319,65,7*58
$GLRMC,140014,A,3114.50889,N,12130.54100,E,161.986,90.005,010620,0.000,E,A,V*4F
$GLGSV,8,1,8,66,35,31,65,67,43,308,65,68,16,273,65,75,8,34,65,1*72
$GLGSV,8,2,8,77,15,138,65,81,51,214,65,82,45,305,65,88,13,177,65,1*40
$GLGSV,8,3,8,66,35,31,65,67,43,308,65,68,16,273,65,75,8,34,65,2*73
$GLGSV,8,4,8,77,15,138,65,81,51,214,65,82,45,305,65,88,13,177,65,2*45
$GLGSV,8,5,8,66,35,31,65,67,43,308,65,68,16,273,65,75,8,34,65,3*74
$GLGSV,8,6,8,77,15,138,65,81,51,214,65,82,45,305,65,88,13,177,65,3*46
$GLGSV,8,7,8,66,35,31,65,67,43,308,65,68,16,273,65,75,8,34,65,4*71
$GLGSV,8,8,8,77,15,138,65,81,51,214,65,82,45,305,65,88,13,177,65,4*4F
$GARMC,140014,A,3114.50889,N,12130.54100,E,161.986,90.005,010620,0.000,E,A*38
$GAGSV,3,1,9,1,48,33,63,7,13,259,63,8,55,295,63,14,13,139,63*5F
$GAGSV,3,2,9,15,17,88,63,17,44,302,63,18,59,208,63,19,17,165,63*66
$GAGSV,3,3,9,25,27,51,63*52
$GPGGA,140015,3114.50889,N,12130.59349,E,3,36,0.81,38.07,M,11.93,M,,*43
$GPRMC,140015,A,3114.50889,N,12130.59349,E,161.986,90.005,010620,0.000,E,A,V*50
$GPGSV,11,1,11,2,35,50,65,5,67,47,65,9,32,167,65,10,9,111,65,1*52
$GPGSV,11,2,11,12,58,66,65,14,14,266,65,21,12,200,65,24,48,173,65,1*67
$GPGSV,11,3,11,29,56,280,0,30,59,343,65,31,17,319,65,2,35,50,65,5*67
$GPGSV,11,4,11,5,67,47,65,9,32,167,65,10,9,111,65,12,58,66,65,5*6C
$GPGSV,11,5,11,14,14,266,65,21,12,200,65,24,48,173,65,29,56,280,0,5*6B
$GPGSV,11,6,11,30,59,343,65,31,17,319,65,2,35,50,65,5,67,47,65,6*57
$GPGSV,11,7,11,9,32,167,65,10,9,111,65,12,58,66,65,14,14,266,65,6*69
$GPGSV,11,8,11,21,12,200,65,24,48,173,65,29,56,280,0,30,59,343,65,6*6C
$GPGSV,11,9,11,31,17,319,65,2,35,50,65,5,67,47,65,9,32,167,65,7*6A
$GPGSV,11,10,11,10,9,111,65,12,58,66,65,14,14,266,65,21,12,200,65,7*64
$GPGSV,11,11,11,24,48,173,65,29,56,280,0,30,59,343,65,31,17,319,65,7*58
$GLRMC,140015,A,3114.50889,N,12130.59349,E,161.986,90.005,010620,0.000,E,A,V*4C
$GLGSV,8,1,8,66,35,31,65,67,43,308,65,68,16,273,65,75,8,34,65,1*72
$GLGSV,8,2,8,77,15,138,65,81,51,214,65,82,45,305,65,88,13,177,65,1*40
$GLGSV,8,3,8,66,35,31,65,67,43,308,65,68,16,273,65,75,8,34,65,2*73
$GLGSV,8,4,8,77,15,138,65,81,51,214,65,82,45,305,65,88,13,177,65,2*45
$GLGSV,8,5,8,66,35,31,65,67,43,308,65,68,16,273,65,75,8,34,65,3*74
$GLGSV,8,6,8,77,15,138,65,81,51,214,65,82,45,305,65,88,13,177,65,3*46
$GLGSV,8,7,8,66,35,31,65,67,43,308,65,68,16,273,65,75,8,34,65,4*71
$GLGSV,8,8,8,77,15,138,65,81,51,214,65,82,45,305,65,88,13,177,65,4*4F
$GARMC,140015,A,3114.50889,N,12130.59349,E,161.986,90.005,010620,0.000,E,A*3B
$GAGSV,3,1,9,1,48,33,63,7,13,259,63,8,55,295,63,14,13,139,63*5F
$GAGSV,3,2,9,15,17,88,63,17,44,302,63,18,59,208,63,19,17,165,63*66
$GAGSV,3,3,9,25,27,51,63*52
$GPGGA,140016,3114.50888,N,12130.64597,E,3,36,0.81,38.07,M,11.93,M,,*4A
$GPRMC,140016,A,3114.50888,N,12130.64597,E,161.986,90.006,010620,0.000,E,A,V*5A
$GPGSV,11,1,11,2,35,50,65,5,67,47,65,9,32,167,65,10,9,111,65,1*52
$GPGSV,11,2,11,12,58,66,65,14,14,266,65,21,12,200,65,24,48,173,65,1*67
$GPGSV,11,3,11,29,56,280,0,30,59,343,65,31,17,319,65,2,35,50,65,5*67
$GPGSV,11,4,11,5,67,47,65,9,32,167,65,10,9,111,65,12,58,66,65,5*6C
$GPGSV,11,5,11,14,14,266,65,21,12,200,65,24,48,173,65,29,56,280,0,5*6B
$GPGSV,11,6,11,30,59,343,65,31,17,319,65,2,35,50,65,5,67,47,65,6*57
$GPGSV,11,7,11,9,32,167,65,10,9,111,65,12,58,66,65,14,14,266,65,6*69
$GPGSV,11,8,11,21,12,200,65,24,48,173,65,29,56,280,0,30,59,343,65,6*6C
$GPGSV,11,9,11,31,17,319,65,2,35,50,65,5,67,47,65,9,32,167,65,7*6A
$GPGSV,11,10,11,10,9,111,65,12,58,66,65,14,14,266,65,21,12,200,65,7*64
$GPGSV,11,11,11,24,48,173,65,29,56,280,0,30,59,343,65,31,17,319,65,7*58
$GLRMC,140016,A,3114.50888,N,12130.64597,E,161.986,90.006,010620,0.000,E,A,V*46
$GLGSV,8,1,8,66,35,31,65,67,43,308,65,68,16,273,65,75,8,34,65,1*72
$GLGSV,8,2,8,77,15,138,65,81,51,214,65,82,45,305,65,88,13,177,65,1*40
$GLGSV,8,3,8,66,35,31,65,67,43,308,65,68,16,273,65,75,8,34,65,2*73
$GLGSV,8,4,8,77,15,138,65,81,51,214,65,82,45,305,65,88,13,177,65,2*45
$GLGSV,8,5,8,66,35,31,65,67,43,308,65,68,16,273,65,75,8,34,65,3*74
$GLGSV,8,6,8,77,15,138,65,81,51,214,65,82,45,305,65,88,13,177,65,3*46
$GLGSV,8,7,8,66,35,31,65,67,43,308,65,68,16,273,65,75,8,34,65,4*71
$GLGSV,8,8,8,77,15,138,65,81,51,214,65,82,45,305,65,88,13,177,65,4*4F
$GARMC,140016,A,3114.50888,N,12130.64597,E,161.986,90.006,010620,0.000,E,A*31
$GAGSV,3,1,9,1,48,33,63,7,13,259,63,8,55,295,63,14,13,139,63*5F
$GAGSV,3,2,9,15,17,88,63,17,44,302,63,18,59,208,63,19,17,165,63*66
$GAGSV,3,3,9,25,27,51,63*52
$GPGGA,140017,3114.50888,N,12130.69846,E,3,36,0.81,38.06,M,11.94,M,,*41
$GPRMC,140017,A,3114.50888,N,12130.69846,E,161.986,90.006,010620,0.000,E,A,V*57
$GPGSV,11,1,11,2,35,50,65,5,67,47,65,9,32,167,65,10,9,111,65,1*52
$GPGSV,11,2,11,12,58,66,65,14,14,266,65,21,12,200,65,24,48,173,65,1*67
$GPGSV,11,3,11,29,56,280,0,30,59,343,65,31,17,319,65,2,35,50,65,5*67
$GPGSV,11,4,11,5,67,47,65,9,32,167,65,10,9,111,65,12,58,66,65,5*6C
$GPGSV,11,5,11,14,14,266,65,21,12,200,65,24,48,173,65,29,56,280,0,5*6B
$GPGSV,11,6,11,30,59,343,65,31,17,319,65,2,35,50,65,5,67,47,65,6*57
$GPGSV,11,7,11,9,32,167,65,10,9,111,65,12,58,66,65,14,14,266,65,6*69
$GPGSV,11,8,11,21,12,200,65,24,48,173,65,29,56,280,0,30,59,343,65,6*6C
$GPGSV,11,9,11,31,17,319,65,2,35,50,65,5,67,47,65,9,32,167,65,7*6A
$GPGSV,11,10,11,10,9,111,65,12,58,66,65,14,14,266,65,21,12,200,65,7*64
$GPGSV,11,11,11,24,48,173,65,29,56,280,0,30,59,343,65,31,17,319,65,7*58
$GLRMC,140017,A,3114.50888,N,12130.69846,E,161.986,90.006,010620,0.000,E,A,V*4B
$GLGSV,8,1,8,66,35,31,65,67,43,308,65,68,16,273,65,75,8,34,65,1*72
$GLGSV,8,2,8,77,15,138,65,81,51,214,65,82,45,305,65,88,13,177,65,1*40
$GLGSV,8,3,8,66,35,31,65,67,43,308,65,68,16,273,65,75,8,34,65,2*73
$GLGSV,8,4,8,77,15,138,65,81,51,214,65,82,45,305,65,88,13,177,65,2*45
$GLGSV,8,5,8,66,35,31,65,67,43,308,65,68,16,273,65,75,8,34,65,3*74
$GLGSV,8,6,8,77,15,138,65,81,51,214,65,82,45,305,65,88,13,177,65,3*46
$GLGSV,8,7,8,66,35,31,65,67,43,308,65,68,16,273,65,75,8,34,65,4*71
$GLGSV,8,8,8,77,15,138,65,81,51,214,65,82,45,305,65,88,13,177,65,4*4F
$GARMC,140017,A,3114.50888,N,12130.69846,E,161.986,90.006,010620,0.000,E,A*3C
$GAGSV,3,1,9,1,48,33,63,7,13,259,63,8,55,295,63,14,13,139,63*5F
$GAGSV,3,2,9,15,17,88,63,17,44,302,63,18,59,208,63,19,17,165,63*66
$GAGSV,3,3,9,25,27,51,63*52
$GPGGA,140018,3114.50887,N,12130.75065,E,3,36,0.81,38.06,M,11.94,M,,*45
$GPRMC,140018,A,3114.50887,N,12130.75065,E,155.031,90.006,010620,0.000,E,A,V*51
$GPGSV,11,1,11,2,35,50,65,5,67,48,65,9,32,167,65,10,9,111,65,1*5D
$GPGSV,11,2,11,12,58,66,65,14,14,266,65,21,12,200,65,24,48,173,65,1*67
$GPGSV,11,3,11,29,56,280,0,30,59,343,65,31,17,319,65,2,35,50,65,5*67
$GPGSV,11,4,11,5,67,48,65,9,32,167,65,10,9,111,65,12,58,66,65,5*63
$GPGSV,11,5,11,14,14,266,65,21,12,200,65,24,48,173,65,29,56,280,0,5*6B
$GPGSV,11,6,11,30,59,343,65,31,17,319,65,2,35,50,65,5,67,48,65,6*58
$GPGSV,11,7,11,9,32,167,65,10,9,111,65,12,58,66,65,14,14,266,65,6*69
$GPGSV,11,8,11,21,12,200,65,24,48,173,65,29,56,280,0,30,59,343,65,6*6C
$GPGSV,11,9,11,31,17,319,65,2,35,50,65,5,67,48,65,9,32,167,65,7*65
$GPGSV,11,10,11,10,9,111,65,12,58,66,65,14,14,266,65,21,12,200,65,7*64
$GPGSV,11,11,11,24,48,173,65,29,56,280,0,30,59,343,65,31,17,319,65,7*58
$GLRMC,140018,A,3114.50887,N,12130.75065,E,155.031,90.006,010620,0.000,E,A,V*4D
$GLGSV,8,1,8,66,35,31,65,67,43,309,65,68,16,273,65,75,8,34,65,1*73
$GLGSV,8,2,8,77,15,138,65,81,51,214,65,82,45,305,65,88,13,177,65,1*40
$GLGSV,8,3,8,66,35,31,65,67,43,309,65,68,16,273,65,75,8,34,65,2*72
$GLGSV,8,4,8,77,15,138,65,81,51,214,65,82,45,305,65,88,13,177,65,2*45
$GLGSV,8,5,8,66,35,31,65,67,43,309,65,68,16,273,65,75,8,34,65,3*75
$GLGSV,8,6,8,77,15,138,65,81,51,214,65,82,45,305,65,88,13,177,65,3*46
$GLGSV,8,7,8,66,35,31,65,67,43,309,65,68,16,273,65,75,8,34,65,4*70
$GLGSV,8,8,8,77,15,138,65,81,51,214,65,82,45,305,65,88,13,177,65,4*4F
$GARMC,140018,A,3114.50887,N,12130.75065,E,155.031,90.006,010620,0.000,E,A*3A
$GAGSV,3,1,9,1,48,33,63,7,13,259,63,8,55,296,63,14,14,139,63*5B
$GAGSV,3,2,9,15,17,88,63,17,44,302,63,18,59,208,63,19,17,165,63*66
$GAGSV,3,3,9,25,27,51,63*52
$GPGGA,140019,3114.50887,N,12130.79655,E,3,36,0.81,38.05,M,11.95,M,,*4F
$GPRMC,140019,A,3114.50887,N,12130.79655,E,128.281,90.007,010620,0.000,E,A,V*5B
$GPGSV,11,1,11,2,35,50,65,5,67,48,65,9,32,167,65,10,9,111,65,1*5D
$GPGSV,11,2,11,12,58,66,65,14,14,266,65,21,12,200,65,24,48,173,65,1*67
$GPGSV,11,3,11,29,56,280,0,30,59,343,65,31,17,319,65,2,35,50,65,5*67
$GPGSV,11,4,11,5,67,48,65,9,32,167,65,10,9,111,65,12,58,66,65,5*63
$GPGSV,11,5,11,14,14,266,65,21,12,200,65,24,48,173,65,29,56,280,0,5*6B
$GPGSV,11,6,11,30,59,343,65,31,17,319,65,2,35,50,65,5,67,48,65,6*58
$GPGSV,11,7,11,9,32,167,65,10,9,111,65,12,58,66,65,14,14,266,65,6*69
$GPGSV,11,8,11,21,12,200,65,24,48,173,65,29,56,280,0,30,59,343,65,6*6C
$GPGSV,11,9,11,31,17,319,65,2,35,50,65,5,67,48,65,9,32,167,65,7*65
$GPGSV,11,10,11,10,9,111,65,12,58,66,65,14,14,266,65,21,12,200,65,7*64
$GPGSV,11,11,11,24,48,173,65,29,56,280,0,30,59,343,65,31,17,319,65,7*58
$GLRMC,140019,A,3114.50887,N,12130.79655,E,128.281,90.007,010620,0.000,E,A,V*47
$GLGSV,8,1,8,66,35,31,65,67,43,309,65,68,16,273,65,75,8,34,65,1*73
$GLGSV,8,2,8,77,15,138,65,81,51,214,65,82,45,305,65,88,13,177,65,1*40
$GLGSV,8,3,8,66,35,31,65,67,43,309,65,68,16,273,65,75,8,34,65,2*72
$GLGSV,8,4,8,77,15,138,65,81,51,214,65,82,45,305,65,88,13,177,65,2*45
$GLGSV,8,5,8,66,35,31,65,67,43,309,65,68,16,273,65,75,8,34,65,3*75
$GLGSV,8,6,8,77,15,138,65,81,51,214,65,82,45,305,65,88,13,177,65,3*46
$GLGSV,8,7,8,66,35,31,65,67,43,309,65,68,16,273,65,75,8,34,65,4*70
$GLGSV,8,8,8,77,15,138,65,81,51,214,65,82,45,305,65,88,13,177,65,4*4F
$GARMC,140019,A,3114.50887,N,12130.79655,E,128.281,90.007,010620,0.000,E,A*30
$GAGSV,3,1,9,1,48,33,63,7,13,259,63,8,55,296,63,14,14,139,63*5B
$GAGSV,3,2,9,15,17,88,63,17,44,302,63,18,59,208,63,19,17,165,63*66
$GAGSV,3,3,9,25,27,51,63*52
$GPGGA,140020,3114.50886,N,12130.83378,E,3,36,0.81,38.05,M,11.95,M,,*4B
$GPRMC,140020,A,3114.50886,N,12130.83378,E,101.531,90.007,010620,0.000,E,A,V*58
$GPGSV,11,1,11,2,35,50,65,5,67,48,65,9,32,167,65,10,9,111,65,1*5D
$GPGSV,11,2,11,12,58,66,65,14,14,266,65,21,12,200,65,24,48,173,65,1*67
$GPGSV,11,3,11,29,56,280,0,30,59,343,65,31,17,319,65,2,35,50,65,5*67
$GPGSV,11,4,11,5,67,48,65,9,32,167,65,10,9,111,65,12,58,66,65,5*63
$GPGSV,11,5,11,14,14,266,65,21,12,200,65,24,48,173,65,29,56,280,0,5*6B
$GPGSV,11,6,11,30,59,343,65,31,17,319,65,2,35,50,65,5,67,48,65,6*58
$GPGSV,11,7,11,9,32,167,65,10,9,111,65,12,58,66,65,14,14,266,65,6*69
$GPGSV,11,8,11,21,12,200,65,24,48,173,65,29,56,280,0,30,59,343,65,6*6C
$GPGSV,11,9,11,31,17,319,65,2,35,50,65,5,67,48,65,9,32,167,65,7*65
$GPGSV,11,10,11,10,9,111,65,12,58,66,65,14,14,266,65,21,12,200,65,7*64
$GPGSV,11,11,11,24,48,173,65,29,56,280,0,30,59,343,65,31,17,319,65,7*58
$GLRMC,140020,A,3114.50886,N,12130.83378,E,101.531,90.007,010620,0.000,E,A,V*44
$GLGSV,8,1,8,66,35,31,65,67,43,309,65,68,16,273,65,75,8,34,65,1*73
$GLGSV,8,2,8,77,15,138,65,81,51,214,65,82,45,305,65,88,13,177,65,1*40
$GLGSV,8,3,8,66,35,31,65,67,43,309,65,68,16,273,65,75,8,34,65,2*72
$GLGSV,8,4,8,77,15,138,65,81,51,214,65,82,45,305,65,88,13,177,65,2*45
$GLGSV,8,5,8,66,35,31,65,67,43,309,65,68,16,273,65,75,8,34,65,3*75
$GLGSV,8,6,8,77,15,138,65,81,51,214,65,82,45,305,65,88,13,177,65,3*46
$GLGSV,8,7,8,66,35,31,65,67,43,309,65,68,16,273,65,75,8,34,65,4*70
$GLGSV,8,8,8,77,15,138,65,81,51,214,65,82,45,305,65,88,13,177,65,4*4F
$GARMC,140020,A,3114.50886,N,12130.83378,E,101.531,90.007,010620,0.000,E,A*33
$GAGSV,3,1,9,1,48,33,63,7,13,259,63,8,55,296,63,14,14,139,63*5B
$GAGSV,3,2,9,15,17,88,63,17,44,302,63,18,59,208,63,19,17,165,63*66
$GAGSV,3,3,9,25,27,51,63*52
$GPGGA,140021,3114.50886,N,12130.86235,E,3,36,0.81,38.05,M,11.95,M,,*47
$GPRMC,140021,A,3114.50886,N,12130.86235,E,74.781,90.007,010620,0.000,E,A,V*6E
$GPGSV,11,1,11,2,35,50,65,5,67,48,65,9,32,167,65,10,9,111,65,1*5D
$GPGSV,11,2,11,12,58,66,65,14,14,266,65,21,12,200,65,24,48,173,65,1*67
$GPGSV,11,3,11,29,56,280,0,30,59,343,65,31,17,319,65,2,35,50,65,5*67
$GPGSV,11,4,11,5,67,48,65,9,32,167,65,10,9,111,65,12,58,66,65,5*63
$GPGSV,11,5,11,14,14,266,65,21,12,200,65,24,48,173,65,29,56,280,0,5*6B
$GPGSV,11,6,11,30,59,343,65,31,17,319,65,2,35,50,65,5,67,48,65,6*58
$GPGSV,11,7,11,9,32,167,65,10,9,111,65,12,58,66,65,14,14,266,65,6*69
$GPGSV,11,8,11,21,12,200,65,24,48,173,65,29,56,280,0,30,59,343,65,6*6C
$GPGSV,11,9,11,31,17,319,65,2,35,50,65,5,67,48,65,9,32,167,65,7*65
$GPGSV,11,10,11,10,9,111,65,12,58,66,65,14,14,266,65,21,12,200,65,7*64
$GPGSV,11,11,11,24,48,173,65,29,56,280,0,30,59,343,65,31,17,319,65,7*58
$GLRMC,140021,A,3114.50886,N,12130.86235,E,74.781,90.007,010620,0.000,E,A,V*72
$GLGSV,8,1,8,66,35,31,65,67,43,309,65,68,16,273,65,75,8,34,65,1*73
$GLGSV,8,2,8,77,15,138,65,81,51,214,65,82,45,305,65,88,13,177,65,1*40
$GLGSV,8,3,8,66,35,31,65,67,43,309,65,68,16,273,65,75,8,34,65,2*72
$GLGSV,8,4,8,77,15,138,65,81,51,214,65,82,45,305,65,88,13,177,65,2*45
$GLGSV,8,5,8,66,35,31,65,67,43,309,65,68,16,273,65,75,8,34,65,3*75
$GLGSV,8,6,8,77,15,138,65,81,51,214,65,82,45,305,65,88,13,177,65,3*46
$GLGSV,8,7,8,66,35,31,65,67,43,309,65,68,16,273,65,75,8,34,65,4*70
$GLGSV,8,8,8,77,15,138,65,81,51,214,65,82,45,305,65,88,13,177,65,4*4F
$GARMC,140021,A,3114.50886,N,12130.86235,E,74.781,90.007,010620,0.000,E,A*05
$GAGSV,3,1,9,1,48,33,63,7,13,259,63,8,55,296,63,14,14,139,63*5B
$GAGSV,3,2,9,15,17,88,63,17,44,302,63,18,59,208,63,19,17,165,63*66
$GAGSV,3,3,9,25,27,51,63*52
$GPGGA,140022,3114.50886,N,12130.88224,E,3,36,0.81,38.05,M,11.95,M,,*4A
$GPRMC,140022,A,3114.50886,N,12130.88224,E,48.031,90.008,010620,0.000,E,A,V*6F
$GPGSV,11,1,11,2,35,50,65,5,67,48,65,9,32,167,65,10,9,111,65,1*5D
$GPGSV,11,2,11,12,58,66,65,14,14,266,65,21,12,200,65,24,48,173,65,1*67
$GPGSV,11,3,11,29,56,280,0,30,59,343,65,31,17,319,65,2,35,50,65,5*67
$GPGSV,11,4,11,5,67,48,65,9,32,167,65,10,9,111,65,12,58,66,65,5*63
$GPGSV,11,5,11,14,14,266,65,21,12,200,65,24,48,173,65,29,56,280,0,5*6B
$GPGSV,11,6,11,30,59,343,65,31,17,319,65,2,35,50,65,5,67,48,65,6*58
$GPGSV,11,7,11,9,32,167,65,10,9,111,65,12,58,66,65,14,14,266,65,6*69
$GPGSV,11,8,11,21,12,200,65,24,48,173,65,29,56,280,0,30,59,343,65,6*6C
$GPGSV,11,9,11,31,17,319,65,2,35,50,65,5,67,48,65,9,32,167,65,7*65
$GPGSV,11,10,11,10,9,111,65,12,58,66,65,14,14,266,65,21,12,200,65,7*64
$GPGSV,11,11,11,24,48,173,65,29,56,280,0,30,59,343,65,31,17,319,65,7*58
$GLRMC,140022,A,3114.50886,N,12130.88224,E,48.031,90.008,010620,0.000,E,A,V*73
$GLGSV,8,1,8,66,35,31,65,67,43,309,65,68,16,273,65,75,8,34,65,1*73
$GLGSV,8,2,8,77,15,138,65,81,51,214,65,82,45,305,65,88,13,177,65,1*40
$GLGSV,8,3,8,66,35,31,65,67,43,309,65,68,16,273,65,75,8,34,65,2*72
$GLGSV,8,4,8,77,15,138,65,81,51,214,65,82,45,305,65,88,13,177,65,2*45
$GLGSV,8,5,8,66,35,31,65,67,43,309,65,68,16,273,65,75,8,34,65,3*75
$GLGSV,8,6,8,77,15,138,65,81,51,214,65,82,45,305,65,88,13,177,65,3*46
$GLGSV,8,7,8,66,35,31,65,67,43,309,65,68,16,273,65,75,8,34,65,4*70
$GLGSV,8,8,8,77,15,138,65,81,51,214,65,82,45,305,65,88,13,177,65,4*4F
$GARMC,140022,A,3114.50886,N,12130.88224,E,48.031,90.008,010620,0.000,E,A*04
$GAGSV,3,1,9,1,48,33,63,7,13,259,63,8,55,296,63,14,14,139,63*5B
$GAGSV,3,2,9,15,17,88,63,17,44,302,63,18,59,208,63,19,17,165,63*66
$GAGSV,3,3,9,25,27,51,63*52
$GPGGA,140023,3114.50886,N,12130.89347,E,3,36,0.81,38.04,M,11.96,M,,*4C
$GPRMC,140023,A,3114.50886,N,12130.89347,E,21.281,90.008,010620,0.000,E,A,V*6D
$GPGSV,11,1,11,2,35,50,65,5,67,48,65,9,32,167,65,10,9,111,65,1*5D
$GPGSV,11,2,11,12,58,66,65,14,14,266,65,21,12,200,65,24,48,173,65,1*67
$GPGSV,11,3,11,29,56,280,0,30,59,343,65,31,17,319,65,2,35,50,65,5*67
$GPGSV,11,4,11,5,67,48,65,9,32,167,65,10,9,111,65,12,58,66,65,5*63
$GPGSV,11,5,11,14,14,266,65,21,12,200,65,24,48,173,65,29,56,280,0,5*6B
$GPGSV,11,6,11,30,59,343,65,31,17,319,65,2,35,50,65,5,67,48,65,6*58
$GPGSV,11,7,11,9,32,167,65,10,9,111,65,12,58,66,65,14,14,266,65,6*69
$GPGSV,11,8,11,21,12,200,65,24,48,173,65,29,56,280,0,30,59,343,65,6*6C
$GPGSV,11,9,11,31,17,319,65,2,35,50,65,5,67,48,65,9,32,167,65,7*65
$GPGSV,11,10,11,10,9,111,65,12,58,66,65,14,14,266,65,21,12,200,65,7*64
$GPGSV,11,11,11,24,48,173,65,29,56,280,0,30,59,343,65,31,17,319,65,7*58
$GLRMC,140023,A,3114.50886,N,12130.89347,E,21.281,90.008,010620,0.000,E,A,V*71
$GLGSV,8,1,8,66,35,31,65,67,43,309,65,68,16,273,65,75,8,34,65,1*73
$GLGSV,8,2,8,77,15,138,65,81,51,214,65,82,45,305,65,88,13,177,65,1*40
$GLGSV,8,3,8,66,35,31,65,67,43,309,65,68,16,273,65,75,8,34,65,2*72
$GLGSV,8,4,8,77,15,138,65,81,51,214,65,82,45,305,65,88,13,177,65,2*45
$GLGSV,8,5,8,66,35,31,65,67,43,309,65,68,16,273,65,75,8,34,65,3*75
$GLGSV,8,6,8,77,15,138,65,81,51,214,65,82,45,305,65,88,13,177,65,3*46
$GLGSV,8,7,8,66,35,31,65,67,43,309,65,68,16,273,65,75,8,34,65,4*70
$GLGSV,8,8,8,77,15,138,65,81,51,214,65,82,45,305,65,88,13,177,65,4*4F
$GARMC,140023,A,3114.50886,N,12130.89347,E,21.281,90.008,010620,0.000,E,A*06
$GAGSV,3,1,9,1,48,33,63,7,13,259,63,8,55,296,63,14,14,139,63*5B
$GAGSV,3,2,9,15,17,88,63,17,44,302,63,18,59,208,63,19,17,165,63*66
$GAGSV,3,3,9,25,27,51,63*52
$GPGGA,140024,3114.50825,N,12130.89880,E,3,36,0.81,38.04,M,11.96,M,,*42
$GPRMC,140024,A,3114.50825,N,12130.89880,E,16.199,109.345,010620,0.000,E,A,V*56
$GPGSV,11,1,11,2,35,50,65,5,67,48,65,9,32,167,65,10,9,111,65,1*5D
$GPGSV,11,2,11,12,58,66,65,14,14,266,65,21,12,200,65,24,48,173,65,1*67
$GPGSV,11,3,11,29,56,280,0,30,59,343,65,31,17,319,65,2,35,50,65,5*67
$GPGSV,11,4,11,5,67,48,65,9,32,167,65,10,9,111,65,12,58,66,65,5*63
$GPGSV,11,5,11,14,14,266,65,21,12,200,65,24,48,173,65,29,56,280,0,5*6B
$GPGSV,11,6,11,30,59,343,65,31,17,319,65,2,35,50,65,5,67,48,65,6*58
$GPGSV,11,7,11,9,32,167,65,10,9,111,65,12,58,66,65,14,14,266,65,6*69
$GPGSV,11,8,11,21,12,200,65,24,48,173,65,29,56,280,0,30,59,343,65,6*6C
$GPGSV,11,9,11,31,17,319,65,2,35,50,65,5,67,48,65,9,32,167,65,7*65
$GPGSV,11,10,11,10,9,111,65,12,58,66,65,14,14,266,65,21,12,200,65,7*64
$GPGSV,11,11,11,24,48,173,65,29,56,280,0,30,59,343,65,31,17,319,65,7*58
$GLRMC,140024,A,3114.50825,N,12130.89880,E,16.199,109.345,010620,0.000,E,A,V*4A
$GLGSV,8,1,8,66,35,31,65,67,43,309,65,68,16,273,65,75,8,34,65,1*73
$GLGSV,8,2,8,77,15,138,65,81,51,214,65,82,45,305,65,88,12,177,65,1*41
$GLGSV,8,3,8,66,35,31,65,67,43,309,65,68,16,273,65,75,8,34,65,2*72
$GLGSV,8,4,8,77,15,138,65,81,51,214,65,82,45,305,65,88,12,177,65,2*44
$GLGSV,8,5,8,66,35,31,65,67,43,309,65,68,16,273,65,75,8,34,65,3*75
$GLGSV,8,6,8,77,15,138,65,81,51,214,65,82,45,305,65,88,12,177,65,3*47
$GLGSV,8,7,8,66,35,31,65,67,43,309,65,68,16,273,65,75,8,34,65,4*70
$GLGSV,8,8,8,77,15,138,65,81,51,214,65,82,45,305,65,88,12,177,65,4*4E
$GARMC,140024,A,3114.50825,N,12130.89880,E,16.199,109.345,010620,0.000,E,A*3D
$GAGSV,3,1,9,1,48,33,63,7,13,259,63,8,55,296,63,14,14,139,63*5B
$GAGSV,3,2,9,15,17,88,63,17,44,302,63,18,59,208,63,19,17,165,63*66
$GAGSV,3,3,9,25,27,51,63*52
$GPGGA,140025,3114.50592,N,12130.90325,E,3,36,0.81,38.04,M,11.96,M,,*4E
$GPRMC,140025,A,3114.50592,N,12130.90325,E,16.199,133.218,010620,0.000,E,A,V*5A
$GPGSV,11,1,11,2,35,50,65,5,67,48,65,9,32,167,65,10,9,111,65,1*5D
$GPGSV,11,2,11,12,58,66,65,14,14,266,65,21,12,200,65,24,48,173,65,1*67
$GPGSV,11,3,11,29,56,280,0,30,59,343,65,31,17,319,65,2,35,50,65,5*67
$GPGSV,11,4,11,5,67,48,65,9,32,167,65,10,9,111,65,12,58,66,65,5*63
$GPGSV,11,5,11,14,14,266,65,21,12,200,65,24,48,173,65,29,56,280,0,5*6B
$GPGSV,11,6,11,30,59,343,65,31,17,319,65,2,35,50,65,5,67,48,65,6*58
$GPGSV,11,7,11,9,32,167,65,10,9,111,65,12,58,66,65,14,14,266,65,6*69
