$GPGSV,3,1,11,02,27,050,,05,58,054,,09,29,153,,10,00,000,,1*69
$GPGSV,3,2,11,12,48,065,,14,24,260,,21,13,190,,24,44,156,,1*63
$GPGSV,3,3,11,29,66,274,,30,60,356,,31,22,318,,1*53
$GLGSV,3,1,09,74,27,072,,76,22,057,,86,01,174,,73,05,027,,1*7A
$GLGSV,3,2,09,75,22,131,,66,15,277,,87,43,210,,81,09,332,,1*7E
$GLGSV,3,3,09,72,35,034,,1*45
$GBGSV,5,1,19,46,28,204,39,42,56,301,42,38,68,312,42,29,49,037,42,1*78
$GBGSV,5,2,19,27,56,136,42,26,45,042,42,25,55,231,42,19,11,177,39,1*7A
$GBGSV,5,3,19,15,35,217,40,06,33,197,40,04,40,123,43,02,56,174,,1*73
$GBGSV,5,4,19,01,37,125,43,08,26,308,,20,16,110,,30,24,056,,1*7F
$GBGSV,5,5,19,33,16,303,,35,24,214,,43,19,057,,1*43
$QL001,1629446619000,31.234540,121.515121,46.133256,58.730,180.300,2.829,2.501,0.566,0.379
$QL002,4,4,1,0,2.000,2.000,-58.736,-0.303,0.027,0.391,0.409,0.533,18
$QL003,0.0000,0.0000,0.0000,0.0000,0.0000,0.0000,0.0000,0.0000,0.0000,0.0000
$QL004,2,00
$GBGSA,A,3,25,26,27,29,38,42,46,,,,,,1.6,1.3,1.0,4*3E
$GBVTG,180.3,T,184.8,M,114.2,N,211.4,K,A*3E
$GBDTM,P90,,0000.000023,S,00000.000001,W,0.987,W84*46
$GBRMC,080339.00,A,3114.072392,N,12130.907243,E,114.2,180.3,200821,4.5,W,A,V*4A
$GBGNS,080339.00,3114.072392,N,12130.907243,E,NNNAN,07,1.3,36.1,10.0,,,V*5E
$GBGGA,080339.00,3114.072392,N,12130.907243,E,1,07,1.3,36.1,M,10.0,M,,*4F

$GPGSV,3,1,11,02,27,050,,05,58,054,,09,29,153,,10,00,000,,1*69
$GPGSV,3,2,11,12,48,065,,14,24,260,,21,13,190,,24,44,156,,1*63
$GPGSV,3,3,11,29,66,274,,30,60,356,,31,22,318,,1*53
$GLGSV,3,1,09,74,27,072,,76,22,057,,86,01,174,,73,05,027,,1*7A
$GLGSV,3,2,09,75,22,131,,66,15,277,,87,43,210,,81,09,332,,1*7E
$GLGSV,3,3,09,72,35,034,,1*45
$GBGSV,5,1,19,46,28,204,40,42,56,301,42,38,68,312,42,29,49,037,42,1*76
$GBGSV,5,2,19,27,56,136,42,26,45,042,42,25,55,231,42,19,11,177,39,1*7A
$GBGSV,5,3,19,15,35,217,41,06,33,197,40,04,40,123,43,02,56,174,,1*72
$GBGSV,5,4,19,01,37,125,43,08,26,308,,20,16,110,,30,24,056,,1*7F
$GBGSV,5,5,19,33,16,303,,35,24,214,,43,19,057,,1*43
$QL001,1629446620000,31.234092,121.515120,45.852138,44.290,180.200,2.829,2.500,0.458,0.145
$QL002,4,4,1,0,2.000,2.000,-44.296,-0.124,-0.671,0.323,0.325,0.217,18
$QL003,0.0000,0.0000,0.0000,0.0000,0.0000,0.0000,0.0000,0.0000,0.0000,0.0000
$QL004,2,00
$GBGSA,A,3,26,27,29,38,42,46,,,,,,,1.7,1.4,1.0,4*3F
$GBVTG,180.2,T,184.7,M,86.1,N,159.4,K,A*06
$GBDTM,P90,,0000.000023,S,00000.000001,W,0.987,W84*46
$GBRMC,080340.00,A,3114.045495,N,12130.907194,E,86.1,180.2,200821,4.5,W,A,V*71
$GBGNS,080340.00,3114.045495,N,12130.907194,E,NNNAN,06,1.4,35.9,10.0,,,V*50
$GBGGA,080340.00,3114.045495,N,12130.907194,E,1,06,1.4,35.9,M,10.0,M,,*41

$GPGSV,3,1,11,02,27,050,,05,58,054,,09,29,153,,10,00,000,,1*69
$GPGSV,3,2,11,12,48,065,,14,24,260,,21,13,190,,24,44,156,,1*63
$GPGSV,3,3,11,29,66,274,,30,60,356,,31,22,318,,1*53
$GLGSV,3,1,09,74,27,072,,76,22,057,,86,01,174,,73,05,027,,1*7A
$GLGSV,3,2,09,75,22,131,,66,15,277,,87,43,210,,81,09,332,,1*7E
$GLGSV,3,3,09,72,35,034,,1*45
$GBGSV,5,1,19,46,28,204,40,42,56,301,42,38,68,312,42,29,49,037,41,1*75
$GBGSV,5,2,19,27,56,136,42,26,45,042,41,25,55,231,42,19,11,177,38,1*78
$GBGSV,5,3,19,15,35,217,41,06,33,197,40,04,40,123,43,02,56,174,,1*72
$GBGSV,5,4,19,01,37,125,42,08,26,308,,20,16,110,,30,24,056,,1*7E
$GBGSV,5,5,19,33,16,303,,35,24,214,,43,19,057,,1*43
$QL001,1629446621000,31.233766,121.515121,45.971360,30.690,179.800,2.829,2.500,0.454,0.166
$QL002,4,4,1,0,2.000,2.000,-30.700,0.113,-0.134,0.320,0.322,0.200,18
$QL003,0.0000,0.0000,0.0000,0.0000,0.0000,0.0000,0.0000,0.0000,0.0000,0.0000
$QL004,2,00
$GBGSA,A,3,25,26,27,29,38,42,46,,,,,,1.6,1.3,1.0,4*3E
$GBVTG,179.8,T,184.3,M,59.7,N,110.5,K,A*06
$GBDTM,P90,,0000.000023,S,00000.000001,W,0.987,W84*46
$GBRMC,080341.00,A,3114.025933,N,12130.907237,E,59.7,179.8,200821,4.5,W,A,V*75
$GBGNS,080341.00,3114.025933,N,12130.907237,E,NNNAN,07,1.3,36.0,10.0,,,V*50
$GBGGA,080341.00,3114.025933,N,12130.907237,E,1,07,1.3,36.0,M,10.0,M,,*41

$GPGSV,3,1,11,02,27,050,,05,58,054,,09,29,153,,10,00,000,,1*69
$GPGSV,3,2,11,12,48,065,,14,24,260,,21,13,190,,24,44,156,,1*63
$GPGSV,3,3,11,29,66,274,,30,60,356,,31,22,318,,1*53
$GLGSV,3,1,09,74,27,072,,76,22,057,,86,01,174,,73,05,027,,1*7A
$GLGSV,3,2,09,75,22,131,,66,15,277,,87,43,210,,81,09,332,,1*7E
$GLGSV,3,3,09,72,35,034,,1*45
$GBGSV,5,1,19,46,28,204,39,42,56,301,43,38,68,312,43,29,49,037,42,1*78
$GBGSV,5,2,19,27,56,136,41,26,45,042,42,25,55,231,42,19,11,177,39,1*79
$GBGSV,5,3,19,15,35,217,41,06,33,197,40,04,40,123,42,02,56,174,,1*73
$GBGSV,5,4,19,01,37,125,43,08,26,308,,20,16,110,,30,24,056,,1*7F
$GBGSV,5,5,19,33,16,303,,35,24,214,,43,19,057,,1*43
$QL001,1629446622000,31.233562,121.515121,45.904587,17.000,179.900,2.829,2.500,0.549,1.204
$QL002,4,4,1,0,2.000,2.000,-17.010,0.027,0.275,0.379,0.398,0.440,18
$QL003,0.0000,0.0000,0.0000,0.0000,0.0000,0.0000,0.0000,0.0000,0.0000,0.0000
$QL004,2,1F,take_turns,line_accelerate
$GBGSA,A,3,25,27,29,38,42,46,,,,,,,1.7,1.5,1.0,4*3D
$GBVTG,179.9,T,184.4,M,33.0,N,61.2,K,A*3B
$GBDTM,P90,,0000.000023,S,00000.000001,W,0.987,W84*46
$GBRMC,080342.00,A,3114.013716,N,12130.907246,E,33.0,179.9,200821,4.5,W,A,V*76
$GBGNS,080342.00,3114.013716,N,12130.907246,E,NNNAN,06,1.5,35.9,10.0,,,V*54
$GBGGA,080342.00,3114.013716,N,12130.907246,E,1,06,1.5,35.9,M,10.0,M,,*45

$GPGSV,3,1,11,02,27,050,,05,58,054,,09,29,153,,10,00,000,,1*69
$GPGSV,3,2,11,12,48,065,,14,24,260,,21,13,190,,24,44,156,,1*63
$GPGSV,3,3,11,29,66,274,,30,60,356,,31,22,318,,1*53
$GLGSV,3,1,09,74,27,072,,76,22,057,,86,01,174,,73,05,027,,1*7A
$GLGSV,3,2,09,75,22,131,,66,15,277,,87,43,210,,81,09,332,,1*7E
$GLGSV,3,3,09,72,35,034,,1*45
$GBGSV,5,1,19,46,28,204,41,42,56,301,42,38,68,312,43,29,49,037,42,1*76
$GBGSV,5,2,19,27,56,136,43,26,45,042,42,25,55,231,42,19,11,177,41,1*74
$GBGSV,5,3,19,15,35,217,42,06,33,197,41,04,40,123,43,02,56,174,,1*70
$GBGSV,5,4,19,01,37,125,43,08,26,308,,20,16,110,,30,24,056,,1*7F
$GBGSV,5,5,19,33,16,303,,35,24,214,,43,19,057,,1*43
$QL001,1629446623000,31.233472,121.515116,45.984888,7.560,189.000,2.829,2.500,0.457,0.786
$QL002,4,4,1,0,2.000,2.000,-7.475,-1.188,0.059,0.322,0.324,0.195,18
$QL003,0.0000,0.0000,0.0000,0.0000,0.0000,0.0000,0.0000,0.0000,0.0000,0.0000
$QL004,2,1F,take_turns,line_accelerate
$GBGSA,A,3,25,26,27,29,38,42,46,,,,,,1.6,1.3,1.0,4*3E
$GBVTG,189.0,T,193.5,M,14.7,N,27.2,K,A*3A
$GBDTM,P90,,0000.000023,S,00000.000001,W,0.987,W84*46
$GBRMC,080343.00,A,3114.008326,N,12130.906985,E,14.7,189.0,200821,4.5,W,A,V*7B
$GBGNS,080343.00,3114.008326,N,12130.906985,E,NNNAN,07,1.3,36.0,10.0,,,V*50
$GBGGA,080343.00,3114.008326,N,12130.906985,E,1,07,1.3,36.0,M,10.0,M,,*41

$GPGSV,3,1,11,02,27,050,,05,58,054,,09,29,153,,10,00,000,,1*69
$GPGSV,3,2,11,12,48,065,,14,24,260,,21,13,190,,24,44,156,,1*63
$GPGSV,3,3,11,29,66,274,,30,60,356,,31,22,318,,1*53
$GLGSV,3,1,09,74,27,072,,76,22,057,,86,01,174,,73,05,027,,1*7A
$GLGSV,3,2,09,75,22,131,,66,15,277,,87,43,210,,81,09,332,,1*7E
$GLGSV,3,3,09,72,35,034,,1*45
$GBGSV,5,1,19,46,28,204,42,42,56,301,42,38,68,312,43,29,49,037,43,1*74
$GBGSV,5,2,19,27,56,136,42,26,45,042,42,25,55,231,43,19,11,177,43,1*76
$GBGSV,5,3,19,15,35,217,43,06,33,197,43,04,40,123,43,02,56,174,,1*73
$GBGSV,5,4,19,01,37,125,43,08,26,308,,20,16,110,,30,24,056,,1*7F
$GBGSV,5,5,19,33,16,303,,35,24,214,,43,19,057,,1*43
$QL001,1629446624000,31.233403,121.515082,45.820944,7.580,214.600,2.829,2.500,0.501,1.925
$QL002,4,4,1,0,2.000,2.000,-6.243,-4.307,-0.238,0.349,0.360,0.312,18
$QL003,0.0000,0.0000,0.0000,0.0000,0.0000,0.0000,0.0000,0.0000,0.0000,0.0000
$QL004,2,1F,take_turns,line_accelerate
$GBGSA,A,3,25,26,27,29,38,42,46,,,,,,1.6,1.3,1.0,4*3E
$GBVTG,214.6,T,219.1,M,14.7,N,27.3,K,A*3F
$GBDTM,P90,,0000.000023,S,00000.000001,W,0.987,W84*46
$GBRMC,080344.00,A,3114.004169,N,12130.904899,E,14.7,214.6,200821,4.5,W,A,V*76
$GBGNS,080344.00,3114.004169,N,12130.904899,E,NNNAN,07,1.3,35.8,10.0,,,V*57
$GBGGA,080344.00,3114.004169,N,12130.904899,E,1,07,1.3,35.8,M,10.0,M,,*46

$GPGSV,3,1,11,02,27,050,,05,58,054,,09,29,153,,10,00,000,,1*69
$GPGSV,3,2,11,12,48,065,,14,24,260,,21,13,190,,24,44,156,,1*63
$GPGSV,3,3,11,29,66,274,,30,60,356,,31,22,318,,1*53
$GLGSV,3,1,09,74,27,072,,76,22,057,,86,01,174,,73,05,027,,1*7A
$GLGSV,3,2,09,75,22,131,,66,15,277,,87,43,210,,81,09,332,,1*7E
$GLGSV,3,3,09,72,35,034,,1*45
$GBGSV,5,1,19,46,28,204,43,42,56,301,43,38,68,312,43,29,49,037,42,1*75
$GBGSV,5,2,19,27,56,136,43,26,45,042,43,25,55,231,43,19,11,177,43,1*76
$GBGSV,5,3,19,15,35,217,42,06,33,197,43,04,40,123,43,02,56,174,,1*72
$GBGSV,5,4,19,01,37,125,43,08,26,308,,20,16,110,,30,24,056,,1*7F
$GBGSV,5,5,19,33,16,303,,35,24,214,,43,19,057,,1*43
$QL001,1629446625000,31.233351,121.515017,45.549871,8.250,235.000,2.829,2.500,0.535,2.288
$QL002,4,4,1,0,2.000,2.000,-4.740,-6.761,-0.206,0.371,0.385,0.382,18
$QL003,0.0000,0.0000,0.0000,0.0000,0.0000,0.0000,0.0000,0.0000,0.0000,0.0000
$QL004,2,1F,take_turns,line_accelerate
$GBGSA,A,3,25,26,27,29,38,42,46,,,,,,1.6,1.3,1.0,4*3E
$GBVTG,235.0,T,239.5,M,16.0,N,29.7,K,A*33
$GBDTM,P90,,0000.000023,S,00000.000001,W,0.987,W84*46
$GBRMC,080345.00,A,3114.001058,N,12130.901047,E,16.0,235.0,200821,4.5,W,A,V*7F
$GBGNS,080345.00,3114.001058,N,12130.901047,E,NNNAN,07,1.3,35.5,10.0,,,V*53
$GBGGA,080345.00,3114.001058,N,12130.901047,E,1,07,1.3,35.5,M,10.0,M,,*42

$GPGSV,3,1,11,02,27,050,,05,58,054,,09,29,153,,10,00,000,,1*69
$GPGSV,3,2,11,12,48,065,,14,24,260,,21,13,190,,24,44,156,,1*63
$GPGSV,3,3,11,29,66,274,,30,60,356,,31,22,318,,1*53
$GLGSV,3,1,09,74,27,072,,76,22,057,,86,01,174,,73,05,027,,1*7A
$GLGSV,3,2,09,75,22,131,,66,15,277,,87,43,210,,81,09,332,,1*7E
$GLGSV,3,3,09,72,35,034,,1*45
$GBGSV,5,1,19,46,28,204,43,42,56,301,43,38,68,312,43,29,49,037,42,1*75
$GBGSV,5,2,19,27,56,136,43,26,45,042,43,25,55,231,42,19,11,177,43,1*77
$GBGSV,5,3,19,15,35,217,42,06,33,197,43,04,40,123,43,02,56,174,,1*72
$GBGSV,5,4,19,01,37,125,43,08,26,308,,20,16,110,,30,24,056,,1*7F
$GBGSV,5,5,19,33,16,303,,35,24,214,,43,19,057,,1*43
$QL001,1629446626000,31.233326,121.514935,45.857982,8.410,258.600,2.829,2.500,0.508,1.847

$GPGSV,3,1,11,02,27,050,,05,58,054,,09,29,153,,10,00,000,,1*69
$GPGSV,3,2,11,12,48,065,,14,24,260,,21,13,190,,24,44,156,,1*63
$GPGSV,3,3,11,29,66,274,,30,60,356,,31,22,318,,1*53
$GLGSV,3,1,09,74,27,072,,76,22,057,,86,01,174,,73,05,027,,1*7A
$GLGSV,3,2,09,75,22,131,,66,15,277,,87,43,210,,81,09,332,,1*7E
$GLGSV,3,3,09,72,35,034,,1*45
$GBGSV,5,1,19,46,28,204,43,42,56,301,42,38,68,312,43,29,49,037,43,1*75
$GBGSV,5,2,19,27,56,136,42,26,45,042,43,25,55,231,43,19,11,177,42,1*76
$GBGSV,5,3,19,15,35,217,42,06,33,197,43,04,40,123,43,02,56,174,,1*72
$GBGSV,5,4,19,01,37,125,43,08,26,308,,20,16,110,,30,24,056,,1*7F
$GBGSV,5,5,19,33,16,303,,35,24,214,,43,19,057,,1*43
$QL001,1629446627000,31.233327,121.514813,45.642509,15.740,270.500,2.829,2.500,0.531,1.168
$QL002,4,4,1,0,2.000,2.000,0.150,-15.744,-0.016,0.367,0.384,0.474,18
$QL003,0.0000,0.0000,0.0000,0.0000,0.0000,0.0000,0.0000,0.0000,0.0000,0.0000
$QL004,2,1F,take_turns,line_accelerate
$GBGSA,A,3,06,15,25,26,27,29,38,42,46,,,,1.6,1.3,1.0,4*3C
$GBVTG,270.5,T,275.0,M,30.6,N,56.7,K,A*30
$GBDTM,P90,,0000.000023,S,00000.000001,W,0.987,W84*46
$GBRMC,080347.00,A,3113.999596,N,12130.888775,E,30.6,270.5,200821,4.5,W,A,V*75
$GBGNS,080347.00,3113.999596,N,12130.888775,E,NNNAN,09,1.3,35.6,10.0,,,V*52
$GBGGA,080347.00,3113.999596,N,12130.888775,E,1,09,1.3,35.6,M,10.0,M,,*43

$GPGSV,3,1,11,02,27,050,,05,58,054,,09,29,153,,10,00,000,,1*69
$GPGSV,3,2,11,12,48,065,,14,24,260,,21,13,190,,24,44,156,,1*63
$GPGSV,3,3,11,29,66,274,,30,60,356,,31,22,318,,1*53
$GLGSV,3,1,09,74,27,072,,76,22,057,,86,01,174,,73,05,027,,1*7A
$GLGSV,3,2,09,75,22,131,,66,15,277,,87,43,210,,81,09,332,,1*7E
$GLGSV,3,3,09,72,35,034,,1*45
$GBGSV,5,1,19,46,28,204,42,42,56,301,42,38,68,312,42,29,49,037,42,1*74
$GBGSV,5,2,19,27,56,136,42,26,45,042,42,25,55,231,42,19,11,177,43,1*77
$GBGSV,5,3,19,15,35,217,42,06,33,197,43,04,40,123,43,02,56,174,,1*72
$GBGSV,5,4,19,01,37,125,43,08,26,308,,20,16,110,,30,24,056,,1*7F
$GBGSV,5,5,19,33,16,303,,35,24,214,,43,19,057,,1*43
$QL001,1629446628000,31.233326,121.514550,46.179362,29.710,270.500,2.829,2.500,0.454,0.168
$QL002,4,4,1,0,2.000,2.000,0.267,-29.715,0.067,0.320,0.322,0.187,18
$QL003,0.0000,0.0000,0.0000,0.0000,0.0000,0.0000,0.0000,0.0000,0.0000,0.0000
$QL004,2,1F,take_turns,line_accelerate
$GBGSA,A,3,06,15,25,26,27,29,42,46,,,,,1.6,1.3,1.0,4*37
$GBVTG,270.5,T,275.0,M,57.8,N,107.0,K,A*0D
$GBDTM,P90,,0000.000023,S,00000.000001,W,0.987,W84*46
$GBRMC,080348.00,A,3113.999532,N,12130.873002,E,57.8,270.5,200821,4.5,W,A,V*78
$GBGNS,080348.00,3113.999532,N,12130.873002,E,NNNAN,08,1.3,36.2,10.0,,,V*56
$GBGGA,080348.00,3113.999532,N,12130.873002,E,1,08,1.3,36.2,M,10.0,M,,*47

$GPGSV,3,1,11,02,27,050,,05,58,054,,09,29,153,,10,00,000,,1*69
$GPGSV,3,2,11,12,48,065,,14,24,260,,21,13,190,,24,44,156,,1*63
$GPGSV,3,3,11,29,66,274,,30,60,356,,31,22,318,,1*53
$GLGSV,3,1,09,74,27,072,,76,22,057,,86,01,174,,73,05,027,,1*7A
$GLGSV,3,2,09,75,22,131,,66,15,277,,87,43,210,,81,09,332,,1*7E
$GLGSV,3,3,09,72,35,034,,1*45
$GBGSV,5,1,19,46,28,204,42,42,56,301,42,38,68,312,42,29,49,037,42,1*74
$GBGSV,5,2,19,27,56,136,42,26,45,042,41,25,55,231,42,19,11,177,43,1*74
$GBGSV,5,3,19,15,35,217,42,06,33,197,42,04,40,123,43,02,56,174,,1*73
$GBGSV,5,4,19,01,37,125,43,08,26,308,,20,16,110,,30,24,056,,1*7F
$GBGSV,5,5,19,33,16,303,,35,24,214,,43,19,057,,1*43
$QL001,1629446629000,31.233325,121.514142,46.107039,44.110,269.900,2.829,2.500,0.457,0.134
$QL002,4,4,1,0,2.000,2.000,-0.077,-44.112,-0.086,0.322,0.324,0.195,18
$QL003,0.0000,0.0000,0.0000,0.0000,0.0000,0.0000,0.0000,0.0000,0.0000,0.0000
$QL004,2,00
$GBGSA,A,3,06,15,25,26,27,29,38,42,,,,,1.6,1.3,1.0,4*3E
$GBVTG,269.9,T,274.4,M,85.7,N,158.8,K,A*0E
$GBDTM,P90,,0000.000023,S,00000.000001,W,0.987,W84*46
$GBRMC,080349.00,A,3113.999525,N,12130.848538,E,85.7,269.9,200821,4.5,W,A,V*7F
$GBGNS,080349.00,3113.999525,N,12130.848538,E,NNNAN,08,1.3,36.1,10.0,,,V*56
$GBGGA,080349.00,3113.999525,N,12130.848538,E,1,08,1.3,36.1,M,10.0,M,,*47

$GPGSV,3,1,11,02,27,050,,05,58,054,,09,29,153,,10,00,000,,1*69
$GPGSV,3,2,11,12,48,065,,14,24,260,,21,13,190,,24,44,156,,1*63
$GPGSV,3,3,11,29,66,274,,30,60,356,,31,22,318,,1*53
$GLGSV,3,1,09,74,27,072,,76,22,057,,86,01,174,,73,05,027,,1*7A
$GLGSV,3,2,09,75,22,131,,66,15,277,,87,43,210,,81,09,332,,1*7E
$GLGSV,3,3,09,72,35,034,,1*45
$GBGSV,5,1,19,46,28,204,42,42,56,301,42,38,68,312,42,29,49,037,42,1*74
$GBGSV,5,2,19,27,56,136,42,26,45,042,42,25,55,231,42,19,11,177,43,1*77
$GBGSV,5,3,19,15,35,217,42,06,33,197,42,04,40,123,43,02,56,174,,1*73
$GBGSV,5,4,19,01,37,125,43,08,26,308,,20,16,110,,30,24,056,,1*7F
$GBGSV,5,5,19,33,16,303,,35,24,214,,43,19,057,,1*43
$QL001,1629446630000,31.233326,121.513592,46.066666,57.840,270.000,2.829,2.500,0.541,0.339
$QL002,4,4,1,0,2.000,2.000,-0.035,-57.841,0.208,0.372,0.393,0.435,18
$QL003,0.0000,0.0000,0.0000,0.0000,0.0000,0.0000,0.0000,0.0000,0.0000,0.0000
$QL004,2,00
$GBGSA,A,3,06,15,25,26,27,29,38,42,46,,,,1.6,1.3,1.0,4*3C
$GBVTG,270.0,T,274.5,M,112.4,N,208.2,K,A*3E
$GBDTM,P90,,0000.000023,S,00000.000001,W,0.987,W84*46
$GBRMC,080350.00,A,3113.999549,N,12130.815504,E,112.4,270.0,200821,4.5,W,A,V*47
$GBGNS,080350.00,3113.999549,N,12130.815504,E,NNNAN,09,1.3,36.1,10.0,,,V*52
$GBGGA,080350.00,3113.999549,N,12130.815504,E,1,09,1.3,36.1,M,10.0,M,,*43

$GPGSV,3,1,11,02,27,050,,05,58,054,,09,29,153,,10,00,000,,1*69
$GPGSV,3,2,11,12,48,065,,14,24,260,,21,13,190,,24,44,156,,1*63
$GPGSV,3,3,11,29,66,274,,30,60,356,,31,22,318,,1*53
$GLGSV,3,1,09,74,27,072,,76,22,057,,86,01,174,,73,05,027,,1*7A
$GLGSV,3,2,09,75,22,131,,66,15,277,,87,43,210,,81,09,332,,1*7E
$GLGSV,3,3,09,72,35,034,,1*45
$GBGSV,5,1,19,46,28,204,42,42,56,301,42,38,68,312,42,29,49,037,42,1*74
$GBGSV,5,2,19,27,56,136,42,26,45,042,42,25,55,231,42,19,11,177,42,1*76
$GBGSV,5,3,19,15,35,217,41,06,33,197,42,04,40,123,43,02,56,174,,1*70
$GBGSV,5,4,19,01,37,125,43,08,26,308,,20,16,110,,30,24,056,,1*7F
$GBGSV,5,5,19,33,16,303,,35,24,214,,43,19,057,,1*43
$QL001,1629446631000,31.233325,121.512897,46.007168,71.060,269.800,2.829,2.500,0.515,0.232
$QL002,4,4,1,0,2.000,2.000,-0.220,-71.067,0.240,0.356,0.373,0.308,18
$QL003,0.0000,0.0000,0.0000,0.0000,0.0000,0.0000,0.0000,0.0000,0.0000,0.0000
$QL004,2,00
$GBGSA,A,3,06,15,25,26,27,29,38,42,46,,,,1.6,1.3,1.0,4*3C
$GBVTG,269.8,T,274.3,M,138.1,N,255.8,K,A*37
$GBDTM,P90,,0000.000023,S,00000.000001,W,0.987,W84*46
$GBRMC,080351.00,A,3113.999510,N,12130.773813,E,138.1,269.8,200821,4.5,W,A,V*43
$GBGNS,080351.00,3113.999510,N,12130.773813,E,NNNAN,09,1.3,36.0,10.0,,,V*5A
$GBGGA,080351.00,3113.999510,N,12130.773813,E,1,09,1.3,36.0,M,10.0,M,,*4B

$GPGSV,3,1,11,02,27,050,,05,58,054,,09,29,153,,10,00,000,,1*69
$GPGSV,3,2,11,12,48,065,,14,24,260,,21,13,190,,24,44,156,,1*63
$GPGSV,3,3,11,29,66,274,,30,60,356,,31,22,318,,1*53
$GLGSV,3,1,09,74,27,072,,76,22,057,,86,01,174,,73,05,027,,1*7A
$GLGSV,3,2,09,75,22,131,,66,15,277,,87,43,210,,81,09,332,,1*7E
$GLGSV,3,3,09,72,35,034,,1*45
$GBGSV,5,1,19,46,28,204,42,42,56,301,42,38,68,312,42,29,49,037,42,1*74
$GBGSV,5,2,19,27,56,136,42,26,45,042,42,25,55,231,41,19,11,177,43,1*74
$GBGSV,5,3,19,15,35,217,42,06,33,197,43,04,40,123,43,02,56,174,,1*72
$GBGSV,5,4,19,01,37,125,43,08,26,308,,20,16,110,,30,24,056,,1*7F
$GBGSV,5,5,19,33,16,303,,35,24,214,,43,19,057,,1*43
$QL001,1629446632000,31.233325,121.512059,45.917997,83.980,269.900,2.829,2.500,0.526,0.212
$QL002,4,4,1,0,2.000,2.000,-0.124,-83.981,0.135,0.363,0.381,0.413,18
$QL003,0.0000,0.0000,0.0000,0.0000,0.0000,0.0000,0.0000,0.0000,0.0000,0.0000
$QL004,2,00
$GBGSA,A,3,06,15,25,26,27,29,38,42,46,,,,1.6,1.3,1.0,4*3C
$GBVTG,269.9,T,274.4,M,163.2,N,302.3,K,A*34
$GBDTM,P90,,0000.000023,S,00000.000001,W,0.987,W84*46
$GBRMC,080352.00,A,3113.999509,N,12130.723541,E,163.2,269.9,200821,4.5,W,A,V*4B
$GBGNS,080352.00,3113.999509,N,12130.723541,E,NNNAN,09,1.3,35.9,10.0,,,V*54
$GBGGA,080352.00,3113.999509,N,12130.723541,E,1,09,1.3,35.9,M,10.0,M,,*45

$GPGSV,3,1,11,02,27,050,,05,58,054,,09,29,153,,10,00,000,,1*69
$GPGSV,3,2,11,12,48,065,,14,24,260,,21,13,190,,24,44,156,,1*63
$GPGSV,3,3,11,29,66,274,,30,60,356,,31,22,318,,1*53
$GLGSV,3,1,09,74,27,072,,76,22,057,,86,01,174,,73,05,027,,1*7A
$GLGSV,3,2,09,75,22,131,,66,15,277,,87,43,210,,81,09,332,,1*7E
$GLGSV,3,3,09,72,35,034,,1*45
$GBGSV,5,1,19,46,28,204,42,42,56,301,43,38,68,312,43,29,49,037,43,1*75
$GBGSV,5,2,19,27,56,136,43,26,45,042,42,25,55,231,43,19,11,177,43,1*77
$GBGSV,5,3,19,15,35,217,42,06,33,197,43,04,40,123,43,02,56,174,,1*72
$GBGSV,5,4,19,01,37,125,43,08,26,308,,20,16,110,,30,24,056,,1*7F
$GBGSV,5,5,19,33,16,303,,35,24,214,,43,19,057,,1*43
$QL001,1629446633000,31.233325,121.511184,46.176351,84.190,270.000,2.829,2.500,0.501,0.173
$QL002,4,4,1,0,2.000,2.000,-0.069,-84.193,0.348,0.348,0.361,0.365,18
$QL003,0.0000,0.0000,0.0000,0.0000,0.0000,0.0000,0.0000,0.0000,0.0000,0.0000
$QL004,2,00
$GBGSA,A,3,06,15,25,26,27,29,38,42,46,,,,1.6,1.3,1.0,4*3C
$GBVTG,270.0,T,274.5,M,163.7,N,303.1,K,A*32
$GBDTM,P90,,0000.000023,S,00000.000001,W,0.987,W84*46
$GBRMC,080353.00,A,3113.999497,N,12130.671045,E,163.7,270.0,200821,4.5,W,A,V*4F
$GBGNS,080353.00,3113.999497,N,12130.671045,E,NNNAN,09,1.3,36.2,10.0,,,V*5C
$GBGGA,080353.00,3113.999497,N,12130.671045,E,1,09,1.3,36.2,M,10.0,M,,*4D

$GPGSV,3,1,11,02,27,050,,05,58,054,,09,29,153,,10,00,000,,1*69
$GPGSV,3,2,11,12,48,065,,14,24,260,,21,13,190,,24,44,156,,1*63
$GPGSV,3,3,11,29,66,274,,30,60,356,,31,22,318,,1*53
$GLGSV,3,1,09,74,27,072,,76,22,057,,86,01,174,,73,05,027,,1*7A
$GLGSV,3,2,09,75,22,131,,66,15,277,,87,43,210,,81,09,332,,1*7E
$GLGSV,3,3,09,72,35,034,,1*45
$GBGSV,5,1,19,46,28,204,43,42,56,301,42,38,68,312,42,29,49,037,43,1*74
$GBGSV,5,2,19,27,56,136,43,26,45,042,43,25,55,231,42,19,11,177,43,1*77
$GBGSV,5,3,19,15,35,217,42,06,33,197,42,04,40,123,43,02,56,174,,1*73
$GBGSV,5,4,19,01,37,125,43,08,26,308,,20,16,110,,30,24,056,,1*7F
$GBGSV,5,5,19,33,16,303,,35,24,214,,43,19,057,,1*43
$QL001,1629446634000,31.233325,121.510310,46.148974,83.690,270.000,2.829,2.500,0.453,0.057
$QL002,4,4,1,0,2.000,2.000,-0.018,-83.694,0.178,0.320,0.321,0.175,18
$QL003,0.0000,0.0000,0.0000,0.0000,0.0000,0.0000,0.0000,0.0000,0.0000,0.0000
$QL004,2,00
$GBGSA,A,3,15,25,26,27,29,38,42,46,,,,,1.6,1.3,1.0,4*3A
$GBVTG,270.0,T,274.5,M,162.7,N,301.3,K,A*33
$GBDTM,P90,,0000.000023,S,00000.000001,W,0.987,W84*46
$GBRMC,080354.00,A,3113.999529,N,12130.618593,E,162.7,270.0,200821,4.5,W,A,V*4C
$GBGNS,080354.00,3113.999529,N,12130.618593,E,NNNAN,08,1.3,36.1,10.0,,,V*5C
$GBGGA,080354.00,3113.999529,N,12130.618593,E,1,08,1.3,36.1,M,10.0,M,,*4D

$GPGSV,3,1,11,02,27,050,,05,58,054,,09,29,153,,10,00,000,,1*69
$GPGSV,3,2,11,12,48,065,,14,24,260,,21,13,190,,24,44,156,,1*63
$GPGSV,3,3,11,29,66,274,,30,60,356,,31,22,318,,1*53
$GLGSV,3,1,09,74,27,072,,76,22,057,,86,01,174,,73,05,027,,1*7A
$GLGSV,3,2,09,75,22,131,,66,15,277,,87,43,210,,81,09,332,,1*7E
$GLGSV,3,3,09,72,35,034,,1*45
$GBGSV,5,1,19,46,28,204,43,42,56,301,42,38,68,312,42,29,49,037,42,1*75
$GBGSV,5,2,19,27,56,136,43,26,45,042,43,25,55,231,42,19,11,177,43,1*77
$GBGSV,5,3,19,15,35,217,43,06,33,197,43,04,40,123,43,02,56,174,,1*73
$GBGSV,5,4,19,01,37,125,43,08,26,308,,20,16,110,,30,24,056,,1*7F
$GBGSV,5,5,19,33,16,303,,35,24,214,,43,19,057,,1*43
$QL001,1629446635000,31.233326,121.509434,46.423921,83.660,270.100,2.829,2.500,0.454,0.060
$QL002,4,4,1,0,2.000,2.000,0.078,-83.662,0.542,0.321,0.322,0.174,18
$QL003,0.0000,0.0000,0.0000,0.0000,0.0000,0.0000,0.0000,0.0000,0.0000,0.0000
$QL004,2,00
$GBGSA,A,3,06,15,25,26,27,29,38,46,,,,,1.8,1.5,1.0,4*32
$GBVTG,270.1,T,274.6,M,162.6,N,301.2,K,A*31
$GBDTM,P90,,0000.000023,S,00000.000001,W,0.987,W84*46
$GBRMC,080355.00,A,3113.999537,N,12130.566011,E,162.6,270.1,200821,4.5,W,A,V*47
$GBGNS,080355.00,3113.999537,N,12130.566011,E,NNNAN,08,1.5,36.4,10.0,,,V*54
$GBGGA,080355.00,3113.999537,N,12130.566011,E,1,08,1.5,36.4,M,10.0,M,,*45

$GPGSV,3,1,11,02,27,050,,05,58,054,,09,29,153,,10,00,000,,1*69
$GPGSV,3,2,11,12,48,065,,14,24,260,,21,13,190,,24,44,156,,1*63
$GPGSV,3,3,11,29,66,274,,30,60,356,,31,22,318,,1*53
$GLGSV,3,1,09,74,27,072,,76,22,057,,86,01,174,,73,05,027,,1*7A
$GLGSV,3,2,09,75,22,131,,66,15,277,,87,43,210,,81,09,332,,1*7E
$GLGSV,3,3,09,72,35,034,,1*45
$GBGSV,5,1,19,46,28,204,42,42,56,301,42,38,68,312,43,29,49,037,42,1*75
$GBGSV,5,2,19,27,56,136,42,26,45,042,43,25,55,231,43,19,11,177,42,1*76
$GBGSV,5,3,19,15,35,217,42,06,33,197,43,04,40,123,43,02,56,174,,1*72
$GBGSV,5,4,19,01,37,125,43,08,26,308,,20,16,110,,30,24,056,,1*7F
$GBGSV,5,5,19,33,16,303,,35,24,214,,43,19,057,,1*43
$QL001,1629446636000,31.233326,121.508559,46.488999,83.330,270.100,2.829,2.500,0.452,0.052
$QL002,4,4,1,0,2.000,2.000,0.215,-83.337,-0.056,0.320,0.320,0.179,18
$QL003,0.0000,0.0000,0.0000,0.0000,0.0000,0.0000,0.0000,0.0000,0.0000,0.0000
$QL004,2,00
$GBGSA,A,3,06,15,25,26,27,29,38,42,,,,,1.6,1.3,1.0,4*3E
$GBVTG,270.1,T,274.6,M,162.0,N,300.0,K,A*34
$GBDTM,P90,,0000.000023,S,00000.000001,W,0.987,W84*46
$GBRMC,080356.00,A,3113.999555,N,12130.513531,E,162.0,270.1,200821,4.5,W,A,V*43
$GBGNS,080356.00,3113.999555,N,12130.513531,E,NNNAN,08,1.3,36.5,10.0,,,V*51
$GBGGA,080356.00,3113.999555,N,12130.513531,E,1,08,1.3,36.5,M,10.0,M,,*40

$GPGSV,3,1,11,02,27,050,,05,58,054,,09,29,153,,10,00,000,,1*69
$GPGSV,3,2,11,12,48,065,,14,24,260,,21,13,190,,24,44,156,,1*63
$GPGSV,3,3,11,29,66,274,,30,60,356,,31,22,318,,1*53
$GLGSV,3,1,09,74,27,072,,76,22,057,,86,01,174,,73,05,027,,1*7A
$GLGSV,3,2,09,75,22,131,,66,15,277,,87,43,210,,81,09,332,,1*7E
$GLGSV,3,3,09,72,35,034,,1*45
$GBGSV,5,1,19,46,28,204,42,42,56,301,43,38,68,312,42,29,49,037,43,1*74
$GBGSV,5,2,19,27,56,136,43,26,45,042,42,25,55,231,43,19,11,177,43,1*77
$GBGSV,5,3,19,15,35,217,43,06,33,197,43,04,40,123,43,02,56,174,,1*73
$GBGSV,5,4,19,01,37,125,43,08,26,308,,20,16,110,,30,24,056,,1*7F
$GBGSV,5,5,19,33,16,303,,35,24,214,,43,19,057,,1*43
$QL001,1629446637000,31.233325,121.507683,46.561282,83.380,269.900,2.829,2.500,0.492,0.158
$QL002,4,4,1,0,2.000,2.000,-0.136,-83.390,0.528,0.344,0.352,0.329,18
$QL003,0.0000,0.0000,0.0000,0.0000,0.0000,0.0000,0.0000,0.0000,0.0000,0.0000
$QL004,2,00
$GBGSA,A,3,06,15,25,26,27,29,38,42,46,,,,1.6,1.3,1.0,4*3C
$GBVTG,269.9,T,274.4,M,162.1,N,300.2,K,A*35
$GBDTM,P90,,0000.000023,S,00000.000001,W,0.987,W84*46
$GBRMC,080357.00,A,3113.999517,N,12130.460972,E,162.1,269.9,200821,4.5,W,A,V*4B
$GBGNS,080357.00,3113.999517,N,12130.460972,E,NNNAN,09,1.3,36.6,10.0,,,V*5A
$GBGGA,080357.00,3113.999517,N,12130.460972,E,1,09,1.3,36.6,M,10.0,M,,*4B

$GPGSV,3,1,11,02,27,050,,05,58,054,,09,29,153,,10,00,000,,1*69
$GPGSV,3,2,11,12,48,065,,14,24,260,,21,13,190,,24,44,156,,1*63
$GPGSV,3,3,11,29,66,274,,30,60,356,,31,22,318,,1*53
$GLGSV,3,1,09,74,27,072,,76,22,057,,86,01,174,,73,05,027,,1*7A
$GLGSV,3,2,09,75,22,131,,66,15,277,,87,43,210,,81,09,332,,1*7E
$GLGSV,3,3,09,72,35,034,,1*45
$GBGSV,5,1,19,46,28,204,43,42,56,301,43,38,68,312,42,29,49,037,43,1*75
$GBGSV,5,2,19,27,56,136,43,26,45,042,42,25,55,231,42,19,11,177,43,1*76
$GBGSV,5,3,19,15,35,217,42,06,33,197,43,04,40,123,43,02,56,174,,1*72
$GBGSV,5,4,19,01,37,125,43,08,26,308,,20,16,110,,30,24,056,,1*7F
$GBGSV,5,5,19,33,16,303,,35,24,214,,43,19,057,,1*43
$QL001,1629446638000,31.233325,121.506807,46.614026,83.410,270.000,2.829,2.500,0.510,0.188
$QL002,4,4,1,0,2.000,2.000,-0.070,-83.411,0.271,0.355,0.365,0.388,18
$QL003,0.0000,0.0000,0.0000,0.0000,0.0000,0.0000,0.0000,0.0000,0.0000,0.0000
$QL004,2,00
$GBGSA,A,3,06,15,25,26,27,29,38,42,46,,,,1.6,1.3,1.0,4*3C
$GBVTG,270.0,T,274.5,M,162.1,N,300.3,K,A*34
$GBDTM,P90,,0000.000023,S,00000.000001,W,0.987,W84*46
$GBRMC,080358.00,A,3113.999513,N,12130.408436,E,162.1,270.0,200821,4.5,W,A,V*42
$GBGNS,080358.00,3113.999513,N,12130.408436,E,NNNAN,09,1.3,36.6,10.0,,,V*52
$GBGGA,080358.00,3113.999513,N,12130.408436,E,1,09,1.3,36.6,M,10.0,M,,*43

$GPGSV,3,1,11,02,27,050,,05,58,054,,09,29,153,,10,00,000,,1*69
$GPGSV,3,2,11,12,48,065,,14,24,260,,21,13,190,,24,44,156,,1*63
$GPGSV,3,3,11,29,66,274,,30,60,356,,31,22,318,,1*53
$GLGSV,3,1,09,74,27,072,,76,22,057,,86,01,174,,73,05,027,,1*7A
$GLGSV,3,2,09,75,22,131,,66,15,277,,87,43,210,,81,09,332,,1*7E
$GLGSV,3,3,09,72,35,034,,1*45
$GBGSV,5,1,19,46,28,204,43,42,56,301,42,38,68,312,43,29,49,037,43,1*75
$GBGSV,5,2,19,27,56,136,42,26,45,042,43,25,55,231,43,19,11,177,43,1*77
$GBGSV,5,3,19,15,35,217,43,06,33,197,43,04,40,123,43,02,56,174,,1*73
$GBGSV,5,4,19,01,37,125,43,08,26,308,,20,16,110,,30,24,056,,1*7F
$GBGSV,5,5,19,33,16,303,,35,24,214,,43,19,057,,1*43
$QL001,1629446639000,31.233325,121.505932,46.722526,83.340,270.000,2.829,2.500,0.486,0.147
$QL002,4,4,1,0,2.000,2.000,0.010,-83.348,0.339,0.340,0.348,0.283,18
$QL003,0.0000,0.0000,0.0000,0.0000,0.0000,0.0000,0.0000,0.0000,0.0000,0.0000
$QL004,2,00
$GBGSA,A,3,06,15,25,26,27,29,38,42,46,,,,1.6,1.3,1.0,4*3C
$GBVTG,270.0,T,274.5,M,162.0,N,300.0,K,A*36
$GBDTM,P90,,0000.000023,S,00000.000001,W,0.987,W84*46
$GBRMC,080359.00,A,3113.999506,N,12130.355903,E,162.0,270.0,200821,4.5,W,A,V*42
$GBGNS,080359.00,3113.999506,N,12130.355903,E,NNNAN,09,1.3,36.7,10.0,,,V*52
$GBGGA,080359.00,3113.999506,N,12130.355903,E,1,09,1.3,36.7,M,10.0,M,,*43

$GPGSV,3,1,11,02,27,050,,05,58,054,,09,29,153,,10,00,000,,1*69
$GPGSV,3,2,11,12,48,065,,14,24,260,,21,13,190,,24,44,156,,1*63
$GPGSV,3,3,11,29,66,274,,30,60,356,,31,22,318,,1*53
$GLGSV,3,1,09,74,27,072,,76,22,057,,86,01,174,,73,05,027,,1*7A
$GLGSV,3,2,09,75,22,131,,66,15,277,,87,43,210,,81,09,332,,1*7E
$GLGSV,3,3,09,72,35,034,,1*45
$GBGSV,5,1,19,46,28,204,43,42,56,301,43,38,68,312,43,29,49,037,42,1*75
$GBGSV,5,2,19,27,56,136,43,26,45,042,42,25,55,231,43,19,11,177,43,1*77
$GBGSV,5,3,19,15,35,217,43,06,33,197,42,04,40,123,43,02,56,174,,1*72
$GBGSV,5,4,19,01,37,125,43,08,26,308,,20,16,110,,30,24,056,,1*7F
$GBGSV,5,5,19,33,16,303,,35,24,214,,43,19,057,,1*43
$QL001,1629446640000,31.233326,121.505057,46.726938,83.420,270.000,2.829,2.500,0.505,0.180
$QL002,4,4,1,0,2.000,2.000,0.016,-83.423,-0.115,0.353,0.361,0.392,18
$QL003,0.0000,0.0000,0.0000,0.0000,0.0000,0.0000,0.0000,0.0000,0.0000,0.0000
$QL004,2,00
$GBGSA,A,3,06,15,25,26,27,29,38,42,46,,,,1.6,1.3,1.0,4*3C
$GBVTG,270.0,T,274.5,M,162.2,N,300.3,K,A*37
$GBDTM,P90,,0000.000023,S,00000.000001,W,0.987,W84*46
$GBRMC,080400.00,A,3113.999542,N,12130.303409,E,162.2,270.0,200821,4.5,W,A,V*4F
$GBGNS,080400.00,3113.999542,N,12130.303409,E,NNNAN,09,1.3,36.7,10.0,,,V*5D
$GBGGA,080400.00,3113.999542,N,12130.303409,E,1,09,1.3,36.7,M,10.0,M,,*4C

$GPGSV,3,1,11,02,27,050,,05,58,054,,09,29,153,,10,00,000,,1*69
$GPGSV,3,2,11,12,48,065,,14,24,260,,21,13,190,,24,44,156,,1*63
$GPGSV,3,3,11,29,66,274,,30,60,356,,31,22,318,,1*53
$GLGSV,3,1,09,74,27,072,,76,22,057,,86,01,174,,73,05,027,,1*7A
$GLGSV,3,2,09,75,22,131,,66,15,277,,87,43,210,,81,09,332,,1*7E
$GLGSV,3,3,09,72,35,034,,1*45
$GBGSV,5,1,19,46,28,204,43,42,56,301,43,38,68,312,43,29,49,037,43,1*74
$GBGSV,5,2,19,27,56,136,43,26,45,042,43,25,55,231,43,19,11,177,43,1*76
$GBGSV,5,3,19,15,35,217,43,06,33,197,43,04,40,123,43,02,56,174,,1*73
$GBGSV,5,4,19,01,37,125,43,08,26,308,,20,16,110,,30,24,056,,1*7F
$GBGSV,5,5,19,33,16,303,,35,24,214,,43,19,057,,1*43
$QL001,1629446641000,31.233326,121.504181,46.790388,83.350,270.100,2.829,2.500,0.483,0.139
$QL002,4,4,1,0,2.000,2.000,0.130,-83.354,-0.129,0.338,0.344,0.282,18
$QL003,0.0000,0.0000,0.0000,0.0000,0.0000,0.0000,0.0000,0.0000,0.0000,0.0000
$QL004,2,00
$GBGSA,A,3,06,15,25,26,27,29,38,42,46,,,,1.6,1.3,1.0,4*3C
$GBVTG,270.1,T,274.6,M,162.0,N,300.1,K,A*35
$GBDTM,P90,,0000.000023,S,00000.000001,W,0.987,W84*46
$GBRMC,080401.00,A,3113.999584,N,12130.250862,E,162.0,270.1,200821,4.5,W,A,V*41
$GBGNS,080401.00,3113.999584,N,12130.250862,E,NNNAN,09,1.3,36.8,10.0,,,V*5F
$GBGGA,080401.00,3113.999584,N,12130.250862,E,1,09,1.3,36.8,M,10.0,M,,*4E

$GPGSV,3,1,11,02,27,050,,05,58,054,,09,29,153,,10,00,000,,1*69
$GPGSV,3,2,11,12,48,065,,14,24,260,,21,13,190,,24,44,156,,1*63
$GPGSV,3,3,11,29,66,274,,30,60,356,,31,22,318,,1*53
$GLGSV,3,1,09,74,27,072,,76,22,057,,86,01,174,,73,05,027,,1*7A
$GLGSV,3,2,09,75,22,131,,66,15,277,,87,43,210,,81,09,332,,1*7E
$GLGSV,3,3,09,72,35,034,,1*45
$GBGSV,5,1,19,46,28,204,43,42,56,301,43,38,68,312,43,29,49,037,43,1*74
$GBGSV,5,2,19,27,56,136,42,26,45,042,42,25,55,231,43,19,11,177,43,1*76
$GBGSV,5,3,19,15,35,217,43,06,33,197,43,04,40,123,43,02,56,174,,1*73
$GBGSV,5,4,19,01,37,125,43,08,26,308,,20,16,110,,30,24,056,,1*7F
$GBGSV,5,5,19,33,16,303,,35,24,214,,43,19,057,,1*43
$QL001,1629446642000,31.233326,121.503306,46.689025,83.280,269.800,2.829,2.500,0.453,0.054
$QL002,4,4,1,0,2.000,2.000,-0.242,-83.282,-0.016,0.320,0.320,0.177,18
$QL003,0.0000,0.0000,0.0000,0.0000,0.0000,0.0000,0.0000,0.0000,0.0000,0.0000
$QL004,2,00
$GBGSA,A,3,06,15,25,26,27,38,42,46,,,,,1.6,1.3,1.0,4*37
$GBVTG,269.8,T,274.3,M,161.9,N,299.8,K,A*33
$GBDTM,P90,,0000.000023,S,00000.000001,W,0.987,W84*46
$GBRMC,080402.00,A,3113.999539,N,12130.198367,E,161.9,269.8,200821,4.5,W,A,V*46
$GBGNS,080402.00,3113.999539,N,12130.198367,E,NNNAN,08,1.3,36.7,10.0,,,V*5D
$GBGGA,080402.00,3113.999539,N,12130.198367,E,1,08,1.3,36.7,M,10.0,M,,*4C

$GPGSV,3,1,11,02,27,050,,05,58,054,,09,29,153,,10,00,000,,1*69
$GPGSV,3,2,11,12,48,065,,14,24,260,,21,13,190,,24,44,156,,1*63
$GPGSV,3,3,11,29,66,274,,30,60,356,,31,22,318,,1*53
$GLGSV,3,1,09,74,27,072,,76,22,057,,86,01,174,,73,05,027,,1*7A
$GLGSV,3,2,09,75,22,131,,66,15,277,,87,43,210,,81,09,332,,1*7E
$GLGSV,3,3,09,72,35,034,,1*45
$GBGSV,5,1,19,46,28,204,43,42,56,301,43,38,68,312,43,29,49,037,42,1*75
$GBGSV,5,2,19,27,56,136,43,26,45,042,43,25,55,231,43,19,11,177,43,1*76
$GBGSV,5,3,19,15,35,217,42,06,33,197,43,04,40,123,43,02,56,174,,1*72
$GBGSV,5,4,19,01,37,125,43,08,26,308,,20,16,110,,30,24,056,,1*7F
$GBGSV,5,5,19,33,16,303,,35,24,214,,43,19,057,,1*43
$QL001,1629446643000,31.233326,121.502443,46.947369,79.770,269.900,2.829,2.500,0.453,0.056
$QL002,4,4,1,0,2.000,2.000,-0.129,-79.777,1.281,0.320,0.320,0.193,18
$QL003,0.0000,0.0000,0.0000,0.0000,0.0000,0.0000,0.0000,0.0000,0.0000,0.0000
$QL004,2,00
$GBGSA,A,3,06,15,26,27,29,38,42,,,,,,1.6,1.3,1.0,4*39
$GBVTG,269.9,T,274.4,M,155.1,N,287.2,K,A*3F
$GBDTM,P90,,0000.000023,S,00000.000001,W,0.987,W84*46
$GBRMC,080403.00,A,3113.999563,N,12130.146578,E,155.1,269.9,200821,4.5,W,A,V*4D
$GBGNS,080403.00,3113.999563,N,12130.146578,E,NNNAN,07,1.3,36.9,10.0,,,V*59
$GBGGA,080403.00,3113.999563,N,12130.146578,E,1,07,1.3,36.9,M,10.0,M,,*48

$GPGSV,3,1,11,02,27,050,,05,58,054,,09,29,153,,10,00,000,,1*69
$GPGSV,3,2,11,12,48,065,,14,24,260,,21,13,190,,24,44,156,,1*63
$GPGSV,3,3,11,29,66,274,,30,60,356,,31,22,318,,1*53
$GLGSV,3,1,09,74,27,072,,76,22,057,,86,01,174,,73,05,027,,1*7A
$GLGSV,3,2,09,75,22,131,,66,15,277,,87,43,210,,81,09,332,,1*7E
$GLGSV,3,3,09,72,35,034,,1*45
$GBGSV,5,1,19,46,28,204,42,42,56,301,42,38,68,312,42,29,49,037,42,1*74
$GBGSV,5,2,19,27,56,136,43,26,45,042,42,25,55,231,42,19,11,177,43,1*76
$GBGSV,5,3,19,15,35,217,42,06,33,197,42,04,40,123,43,02,56,174,,1*73
$GBGSV,5,4,19,01,37,125,43,08,26,308,,20,16,110,,30,24,056,,1*7F
$GBGSV,5,5,19,33,16,303,,35,24,214,,43,19,057,,1*43
$QL001,1629446644000,31.233327,121.501706,46.636163,65.860,270.300,2.829,2.500,0.453,0.068
$QL002,4,4,1,0,2.000,2.000,0.299,-65.865,0.187,0.320,0.320,0.180,18
$QL003,0.0000,0.0000,0.0000,0.0000,0.0000,0.0000,0.0000,0.0000,0.0000,0.0000
$QL004,2,00
$GBGSA,A,3,06,25,26,27,29,42,46,,,,,,1.7,1.4,1.0,4*35
$GBVTG,270.3,T,274.8,M,128.0,N,237.1,K,A*32
$GBDTM,P90,,0000.000023,S,00000.000001,W,0.987,W84*46
$GBRMC,080404.00,A,3113.999646,N,12130.102364,E,128.0,270.3,200821,4.5,W,A,V*4C
$GBGNS,080404.00,3113.999646,N,12130.102364,E,NNNAN,07,1.4,36.6,10.0,,,V*59
$GBGGA,080404.00,3113.999646,N,12130.102364,E,1,07,1.4,36.6,M,10.0,M,,*48

$GPGSV,3,1,11,02,27,050,,05,58,054,,09,29,153,,10,00,000,,1*69
$GPGSV,3,2,11,12,48,065,,14,24,260,,21,13,190,,24,44,156,,1*63
$GPGSV,3,3,11,29,66,274,,30,60,356,,31,22,318,,1*53
$GLGSV,3,1,09,74,27,072,,76,22,057,,86,01,174,,73,05,027,,1*7A
$GLGSV,3,2,09,75,22,131,,66,15,277,,87,43,210,,81,09,332,,1*7E
$GLGSV,3,3,09,72,35,034,,1*45
$GBGSV,5,1,19,46,28,204,42,42,56,301,42,38,68,312,42,29,49,037,42,1*74
$GBGSV,5,2,19,27,56,136,43,26,45,042,42,25,55,231,42,19,11,177,42,1*77
$GBGSV,5,3,19,15,35,217,42,06,33,197,42,04,40,123,43,02,56,174,,1*73
$GBGSV,5,4,19,01,37,125,43,08,26,308,,20,16,110,,30,24,056,,1*7F
$GBGSV,5,5,19,33,16,303,,35,24,214,,43,19,057,,1*43
$QL001,1629446645000,31.233328,121.501114,46.650004,51.280,270.000,2.829,2.500,0.453,0.088
$QL002,4,4,1,0,2.000,2.000,0.037,-51.285,-0.072,0.320,0.320,0.173,18
$QL003,0.0000,0.0000,0.0000,0.0000,0.0000,0.0000,0.0000,0.0000,0.0000,0.0000
$QL004,2,00
$GBGSA,A,3,06,15,25,26,27,29,38,42,46,,,,1.6,1.3,1.0,4*3C
$GBVTG,270.0,T,274.5,M,99.7,N,184.6,K,A*0C
$GBDTM,P90,,0000.000023,S,00000.000001,W,0.987,W84*46
$GBRMC,080405.00,A,3113.999651,N,12130.066845,E,99.7,270.0,200821,4.5,W,A,V*7F
$GBGNS,080405.00,3113.999651,N,12130.066845,E,NNNAN,09,1.3,36.7,10.0,,,V*5D
$GBGGA,080405.00,3113.999651,N,12130.066845,E,1,09,1.3,36.7,M,10.0,M,,*4C

$GPGSV,3,1,11,02,27,050,,05,58,054,,09,29,153,,10,00,000,,1*69
$GPGSV,3,2,11,12,48,065,,14,24,260,,21,13,190,,24,44,156,,1*63
$GPGSV,3,3,11,29,66,274,,30,60,356,,31,22,318,,1*53
$GLGSV,3,1,09,74,27,072,,76,22,057,,86,01,174,,73,05,027,,1*7A
$GLGSV,3,2,09,75,22,131,,66,15,277,,87,43,210,,81,09,332,,1*7E
$GLGSV,3,3,09,72,35,034,,1*45
$GBGSV,5,1,19,46,28,204,42,42,56,301,41,38,68,312,42,29,49,037,42,1*77
$GBGSV,5,2,19,27,56,136,42,26,45,042,42,25,55,231,42,19,11,177,43,1*77
$GBGSV,5,3,19,15,35,217,41,06,33,197,42,04,40,123,43,02,56,174,,1*70
$GBGSV,5,4,19,01,37,125,43,08,26,308,,20,16,110,,30,24,056,,1*7F
$GBGSV,5,5,19,33,16,303,,35,24,214,,43,19,057,,1*43
$QL001,1629446646000,31.233328,121.500664,46.705059,37.470,269.800,2.829,2.500,0.527,0.476
$QL002,4,4,1,0,2.000,2.000,-0.112,-37.474,0.191,0.364,0.380,0.459,18
$QL003,0.0000,0.0000,0.0000,0.0000,0.0000,0.0000,0.0000,0.0000,0.0000,0.0000
$QL004,2,00
$GBGSA,A,3,06,15,25,26,27,29,38,42,46,,,,1.6,1.3,1.0,4*3C
$GBVTG,269.8,T,274.3,M,72.8,N,134.9,K,A*04
$GBDTM,P90,,0000.000023,S,00000.000001,W,0.987,W84*46
$GBRMC,080406.00,A,3113.999654,N,12130.039831,E,72.8,269.8,200821,4.5,W,A,V*7A
$GBGNS,080406.00,3113.999654,N,12130.039831,E,NNNAN,09,1.3,36.7,10.0,,,V*52
$GBGGA,080406.00,3113.999654,N,12130.039831,E,1,09,1.3,36.7,M,10.0,M,,*43

$GPGSV,3,1,11,02,27,050,,05,58,054,,09,29,153,,10,00,000,,1*69
$GPGSV,3,2,11,12,48,065,,14,24,260,,21,13,190,,24,44,156,,1*63
$GPGSV,3,3,11,29,66,274,,30,60,356,,31,22,318,,1*53
$GLGSV,3,1,09,74,27,072,,76,22,057,,86,01,174,,73,05,027,,1*7A
$GLGSV,3,2,09,75,22,131,,66,15,277,,87,43,210,,81,09,332,,1*7E
$GLGSV,3,3,09,72,35,034,,1*45
$GBGSV,5,1,19,46,28,204,42,42,56,301,42,38,68,312,42,29,49,037,42,1*74
$GBGSV,5,2,19,27,56,136,42,26,45,042,42,25,55,231,42,19,11,177,42,1*76
$GBGSV,5,3,19,15,35,217,42,06,33,197,43,04,40,123,43,02,56,174,,1*72
$GBGSV,5,4,19,01,37,125,43,08,26,308,,20,16,110,,30,24,056,,1*7F
$GBGSV,5,5,19,33,16,303,,35,24,214,,43,19,057,,1*43
$QL001,1629446647000,31.233328,121.500359,46.806286,24.030,270.700,2.829,2.500,0.490,0.538
$QL002,4,4,1,0,2.000,2.000,0.300,-24.038,-0.211,0.344,0.350,0.353,18
$QL003,0.0000,0.0000,0.0000,0.0000,0.0000,0.0000,0.0000,0.0000,0.0000,0.0000
$QL004,2,1F,take_turns,line_accelerate
$GBGSA,A,3,06,15,25,26,27,29,38,42,46,,,,1.6,1.3,1.0,4*3C
$GBVTG,270.7,T,275.2,M,46.7,N,86.5,K,A*3F
$GBDTM,P90,,0000.000023,S,00000.000001,W,0.987,W84*46
$GBRMC,080407.00,A,3113.999662,N,12130.021561,E,46.7,270.7,200821,4.5,W,A,V*70
$GBGNS,080407.00,3113.999662,N,12130.021561,E,NNNAN,09,1.3,36.8,10.0,,,V*58
$GBGGA,080407.00,3113.999662,N,12130.021561,E,1,09,1.3,36.8,M,10.0,M,,*49

$GPGSV,3,1,11,02,27,050,,05,58,054,,09,29,153,,10,00,000,,1*69
$GPGSV,3,2,11,12,48,065,,14,24,260,,21,13,190,,24,44,156,,1*63
$GPGSV,3,3,11,29,66,274,,30,60,356,,31,22,318,,1*53
$GLGSV,3,1,09,74,27,072,,76,22,057,,86,01,174,,73,05,027,,1*7A
$GLGSV,3,2,09,75,22,131,,66,15,277,,87,43,210,,81,09,332,,1*7E
$GLGSV,3,3,09,72,35,034,,1*45
$GBGSV,5,1,19,46,28,204,42,42,56,301,41,38,68,312,42,29,49,037,42,1*77
$GBGSV,5,2,19,27,56,136,42,26,45,042,42,25,55,231,42,19,11,177,43,1*77
$GBGSV,5,3,19,15,35,217,41,06,33,197,43,04,40,123,43,02,56,174,,1*71
$GBGSV,5,4,19,01,37,125,43,08,26,308,,20,16,110,,30,24,056,,1*7F
$GBGSV,5,5,19,33,16,303,,35,24,214,,43,19,057,,1*43
$QL001,1629446648000,31.233328,121.500200,46.585101,10.150,271.400,2.829,2.500,0.462,0.727
$QL002,4,4,1,0,2.000,2.000,0.240,-10.154,-1.045,0.326,0.327,0.240,18
$QL003,0.0000,0.0000,0.0000,0.0000,0.0000,0.0000,0.0000,0.0000,0.0000,0.0000
$QL004,2,1F,take_turns,line_accelerate
$GBGSA,A,3,06,25,26,29,38,42,46,,,,,,1.9,1.6,1.0,4*37
$GBVTG,271.4,T,275.9,M,19.7,N,36.5,K,A*37
$GBDTM,P90,,0000.000023,S,00000.000001,W,0.987,W84*46
$GBRMC,080408.00,A,3113.999691,N,12130.011984,E,19.7,271.4,200821,4.5,W,A,V*7F
$GBGNS,080408.00,3113.999691,N,12130.011984,E,NNNAN,07,1.6,36.6,10.0,,,V*5A
$GBGGA,080408.00,3113.999691,N,12130.011984,E,1,07,1.6,36.6,M,10.0,M,,*4B

$GPGSV,3,1,11,02,27,050,,05,58,054,,09,29,153,,10,00,000,,1*69
$GPGSV,3,2,11,12,48,065,,14,24,260,,21,13,190,,24,44,156,,1*63
$GPGSV,3,3,11,29,66,274,,30,60,356,,31,22,318,,1*53
$GLGSV,3,1,09,74,27,072,,76,22,057,,86,01,174,,73,05,027,,1*7A
$GLGSV,3,2,09,75,22,131,,66,15,277,,87,43,210,,81,09,332,,1*7E
$GLGSV,3,3,09,72,35,034,,1*45
$GBGSV,5,1,19,46,28,204,42,42,56,301,43,38,68,312,42,29,49,037,42,1*75
$GBGSV,5,2,19,27,56,136,42,26,45,042,42,25,55,231,42,19,11,177,42,1*76
$GBGSV,5,3,19,15,35,217,42,06,33,197,42,04,40,123,43,02,56,174,,1*73
$GBGSV,5,4,19,01,37,125,43,08,26,308,,20,16,110,,30,24,056,,1*7F
$GBGSV,5,5,19,33,16,303,,35,24,214,,43,19,057,,1*43

$GPGSV,3,1,11,02,27,050,,05,58,054,,09,29,153,,10,00,000,,1*69
$GPGSV,3,2,11,12,48,065,,14,24,260,,21,13,190,,24,44,156,,1*63
$GPGSV,3,3,11,29,66,274,,30,60,356,,31,22,318,,1*53
$GLGSV,3,1,09,74,27,072,,76,22,057,,86,01,174,,73,05,027,,1*7A
$GLGSV,3,2,09,75,22,131,,66,15,277,,87,43,210,,81,09,332,,1*7E
$GLGSV,3,3,09,72,35,034,,1*45
$GBGSV,5,1,19,46,28,204,42,42,56,301,43,38,68,312,42,29,49,037,43,1*74
$GBGSV,5,2,19,27,56,136,42,26,45,042,42,25,55,231,43,19,11,177,42,1*77
$GBGSV,5,3,19,15,35,217,42,06,33,197,43,04,40,123,43,02,56,174,,1*72
$GBGSV,5,4,19,01,37,125,43,08,26,308,,20,16,110,,30,24,056,,1*7F
$GBGSV,5,5,19,33,16,303,,35,24,214,,43,19,057,,1*43
$QL001,1629446650000,31.233387,121.500046,46.889595,8.110,316.000,2.829,2.500,0.482,1.427
$QL002,4,4,1,0,2.000,2.000,5.838,-5.630,0.396,0.338,0.343,0.313,18
$QL003,0.0000,0.0000,0.0000,0.0000,0.0000,0.0000,0.0000,0.0000,0.0000,0.0000
$QL004,2,1F,take_turns,line_accelerate
$GBGSA,A,3,06,15,25,26,27,29,38,42,46,,,,1.6,1.3,1.0,4*3C
$GBVTG,316.0,T,320.5,M,15.8,N,29.2,K,A*34
$GBDTM,P90,,0000.000023,S,00000.000001,W,0.987,W84*46
$GBRMC,080410.00,A,3114.003238,N,12130.002740,E,15.8,316.0,200821,4.5,W,A,V*7F
$GBGNS,080410.00,3114.003238,N,12130.002740,E,NNNAN,09,1.3,36.9,10.0,,,V*59
$GBGGA,080410.00,3114.003238,N,12130.002740,E,1,09,1.3,36.9,M,10.0,M,,*48

$GPGSV,3,1,11,02,27,050,,05,58,054,,09,29,153,,10,00,000,,1*69
$GPGSV,3,2,11,12,48,065,,14,24,260,,21,13,190,,24,44,156,,1*63
$GPGSV,3,3,11,29,66,274,,30,60,356,,31,22,318,,1*53
$GLGSV,3,1,09,74,27,072,,76,22,057,,86,01,174,,73,05,027,,1*7A
$GLGSV,3,2,09,75,22,131,,66,15,277,,87,43,210,,81,09,332,,1*7E
$GLGSV,3,3,09,72,35,034,,1*45
$GBGSV,5,1,19,46,28,204,42,42,56,301,43,38,68,312,43,29,49,037,43,1*75
$GBGSV,5,2,19,27,56,136,42,26,45,042,42,25,55,231,43,19,11,177,42,1*77
$GBGSV,5,3,19,15,35,217,42,06,33,197,43,04,40,123,43,02,56,174,,1*72
$GBGSV,5,4,19,01,37,125,43,08,26,308,,20,16,110,,30,24,056,,1*7F
$GBGSV,5,5,19,33,16,303,,35,24,214,,43,19,057,,1*43
$QL001,1629446651000,31.233452,121.500001,46.729711,8.580,338.500,2.829,2.500,0.496,1.603
$QL002,4,4,1,0,2.000,2.000,7.986,-3.151,-0.124,0.347,0.354,0.360,18
$QL003,0.0000,0.0000,0.0000,0.0000,0.0000,0.0000,0.0000,0.0000,0.0000,0.0000
$QL004,2,1F,take_turns,line_accelerate
$GBGSA,A,3,06,15,25,26,27,29,38,42,46,,,,1.6,1.3,1.0,4*3C
$GBVTG,338.5,T,343.0,M,16.7,N,30.9,K,A*32
$GBDTM,P90,,0000.000023,S,00000.000001,W,0.987,W84*46
$GBRMC,080411.00,A,3114.007144,N,12130.000049,E,16.7,338.5,200821,4.5,W,A,V*7B
$GBGNS,080411.00,3114.007144,N,12130.000049,E,NNNAN,09,1.3,36.7,10.0,,,V*56
$GBGGA,080411.00,3114.007144,N,12130.000049,E,1,09,1.3,36.7,M,10.0,M,,*47

$GPGSV,3,1,11,02,27,050,,05,58,054,,09,29,153,,10,00,000,,1*69
$GPGSV,3,2,11,12,48,065,,14,24,260,,21,13,190,,24,44,156,,1*63
$GPGSV,3,3,11,29,66,274,,30,60,356,,31,22,318,,1*53
$GLGSV,3,1,09,74,27,072,,76,22,057,,86,01,174,,73,05,027,,1*7A
$GLGSV,3,2,09,75,22,131,,66,15,277,,87,43,210,,81,09,332,,1*7E
$GLGSV,3,3,09,72,35,034,,1*45
$GBGSV,5,1,19,46,28,204,42,42,56,301,43,38,68,312,42,29,49,037,42,1*75
$GBGSV,5,2,19,27,56,136,43,26,45,042,42,25,55,231,42,19,11,177,43,1*76
$GBGSV,5,3,19,15,35,217,42,06,33,197,42,04,40,123,43,02,56,174,43,1*74
$GBGSV,5,4,19,01,37,125,43,08,26,308,,20,16,110,,30,24,056,,1*7F
$GBGSV,5,5,19,33,16,303,,35,24,214,,43,19,057,,1*43
$QL001,1629446652000,31.233527,121.499990,47.261210,9.060,1.100,2.829,2.500,0.484,1.319
$QL002,4,4,1,0,2.000,2.000,9.062,0.179,0.552,0.341,0.344,0.316,18
$QL003,0.0000,0.0000,0.0000,0.0000,0.0000,0.0000,0.0000,0.0000,0.0000,0.0000
$QL004,2,1F,take_turns,line_accelerate
$GBGSA,A,3,15,25,26,27,29,38,42,46,,,,,1.6,1.3,1.0,4*3A
$GBVTG,1.1,T,5.6,M,17.6,N,32.6,K,A*35
$GBDTM,P90,,0000.000023,S,00000.000001,W,0.987,W84*46
$GBRMC,080412.00,A,3114.011642,N,12129.999418,E,17.6,1.1,200821,4.5,W,A,V*72
$GBGNS,080412.00,3114.011642,N,12129.999418,E,NNNAN,08,1.3,37.3,10.0,,,V*56
$GBGGA,080412.00,3114.011642,N,12129.999418,E,1,08,1.3,37.3,M,10.0,M,,*47

$GPGSV,3,1,11,02,27,050,,05,58,054,,09,29,153,,10,00,000,,1*69
$GPGSV,3,2,11,12,48,065,,14,24,260,,21,13,190,,24,44,156,,1*63
$GPGSV,3,3,11,29,66,274,,30,60,356,,31,22,318,,1*53
$GLGSV,3,1,09,74,27,072,,76,22,057,,86,01,174,,73,05,027,,1*7A
$GLGSV,3,2,09,75,22,131,,66,15,277,,87,43,210,,81,09,332,,1*7E
$GLGSV,3,3,09,72,35,034,,1*45
$GBGSV,5,1,19,46,28,204,41,42,56,301,43,38,68,312,43,29,49,037,42,1*77
$GBGSV,5,2,19,27,56,136,42,26,45,042,42,25,55,231,43,19,11,177,40,1*75
$GBGSV,5,3,19,15,35,217,41,06,33,197,41,04,40,123,43,02,56,174,43,1*74
$GBGSV,5,4,19,01,37,125,43,08,26,308,,20,16,110,,30,24,056,,1*7F
$GBGSV,5,5,19,33,16,303,,35,24,214,,43,19,057,,1*43
$QL001,1629446653000,31.233693,121.499991,47.210819,22.870,0.700,2.829,2.500,0.551,0.902
$QL002,4,4,1,0,2.000,2.000,22.876,0.283,-0.143,0.378,0.400,0.449,18
$QL003,0.0000,0.0000,0.0000,0.0000,0.0000,0.0000,0.0000,0.0000,0.0000,0.0000
$QL004,2,1F,take_turns,line_accelerate
$GBGSA,A,3,02,06,15,25,26,27,29,38,42,46,,,1.5,1.2,0.9,4*34
$GBVTG,0.7,T,5.2,M,44.5,N,82.3,K,A*3D
$GBDTM,P90,,0000.000023,S,00000.000001,W,0.987,W84*46
$GBRMC,080413.00,A,3114.021602,N,12129.999448,E,44.5,0.7,200821,4.5,W,A,V*73
$GBGNS,080413.00,3114.021602,N,12129.999448,E,NNNAN,10,1.2,37.2,10.0,,,V*5C
$GBGGA,080413.00,3114.021602,N,12129.999448,E,1,10,1.2,37.2,M,10.0,M,,*4D

$GPGSV,3,1,11,02,27,050,,05,58,054,,09,29,153,,10,00,000,,1*69
$GPGSV,3,2,11,12,48,065,,14,24,260,,21,13,190,,24,44,156,,1*63
$GPGSV,3,3,11,29,66,274,,30,60,356,,31,22,318,,1*53
$GLGSV,3,1,09,74,27,072,,76,22,057,,86,01,174,,73,05,027,,1*7A
$GLGSV,3,2,09,75,22,131,,66,15,277,,87,43,210,,81,09,332,,1*7E
$GLGSV,3,3,09,72,35,034,,1*45
$GBGSV,5,1,19,46,28,204,40,42,56,301,42,38,68,312,43,29,49,037,41,1*74
$GBGSV,5,2,19,27,56,136,42,26,45,042,41,25,55,231,42,19,11,177,38,1*78
$GBGSV,5,3,19,15,35,217,41,06,33,197,40,04,40,123,43,02,56,174,42,1*74
$GBGSV,5,4,19,01,37,125,43,08,26,308,,20,16,110,,30,24,056,,1*7F
$GBGSV,5,5,19,33,16,303,,35,24,214,,43,19,057,,1*43
$QL001,1629446654000,31.233984,121.499990,47.478344,37.450,359.800,2.829,2.500,0.520,0.455
$QL002,4,4,1,0,2.000,2.000,37.454,-0.158,0.101,0.363,0.372,0.478,18
$QL003,0.0000,0.0000,0.0000,0.0000,0.0000,0.0000,0.0000,0.0000,0.0000,0.0000
$QL004,2,00
$GBGSA,A,3,06,15,25,26,27,29,38,42,46,,,,1.6,1.3,1.0,4*3C
$GBVTG,359.8,T,4.3,M,72.8,N,134.8,K,A*02
$GBDTM,P90,,0000.000023,S,00000.000001,W,0.987,W84*46
$GBRMC,080414.00,A,3114.039056,N,12129.999418,E,72.8,359.8,200821,4.5,W,A,V*77
$GBGNS,080414.00,3114.039056,N,12129.999418,E,NNNAN,09,1.3,37.5,10.0,,,V*5E
$GBGGA,080414.00,3114.039056,N,12129.999418,E,1,09,1.3,37.5,M,10.0,M,,*4F

$GPGSV,3,1,11,02,27,050,,05,58,054,,09,29,153,,10,00,000,,1*69
$GPGSV,3,2,11,12,48,065,,14,24,260,,21,13,190,,24,44,156,,1*63
$GPGSV,3,3,11,29,66,274,,30,60,356,,31,22,318,,1*53
$GLGSV,3,1,09,74,27,072,,76,22,057,,86,01,174,,73,05,027,,1*7A
$GLGSV,3,2,09,75,22,131,,66,15,277,,87,43,210,,81,09,332,,1*7E
$GLGSV,3,3,09,72,35,034,,1*45
$GBGSV,5,1,19,46,28,204,40,42,56,301,42,38,68,312,42,29,49,037,42,1*76
$GBGSV,5,2,19,27,56,136,42,26,45,042,42,25,55,231,42,19,11,177,38,1*7B
$GBGSV,5,3,19,15,35,217,41,06,33,197,40,04,40,123,43,02,56,174,43,1*75
$GBGSV,5,4,19,01,37,125,43,08,26,308,,20,16,110,,30,24,056,,1*7F
$GBGSV,5,5,19,33,16,303,,35,24,214,,43,19,057,,1*43
$QL001,1629446655000,31.234398,121.499991,47.643839,50.660,0.500,2.829,2.501,0.553,0.413
$QL002,4,4,1,0,2.000,2.000,50.663,0.448,0.669,0.385,0.397,0.548,18
$QL003,0.0000,0.0000,0.0000,0.0000,0.0000,0.0000,0.0000,0.0000,0.0000,0.0000
$QL004,2,00

$GPGSV,3,1,11,02,27,050,,05,58,054,,09,29,153,,10,00,000,,1*69
$GPGSV,3,2,11,12,48,065,,14,24,260,,21,13,190,,24,44,156,,1*63
$GPGSV,3,3,11,29,66,274,,30,60,356,,31,22,318,,1*53
$GLGSV,3,1,09,74,27,072,,76,22,057,,86,01,174,,73,05,027,,1*7A
$GLGSV,3,2,09,75,22,131,,66,15,277,,87,43,210,,81,09,332,,1*7E
$GLGSV,3,3,09,72,35,034,,1*45
$GBGSV,5,1,19,46,28,204,40,42,56,301,42,38,68,312,42,29,49,037,41,1*75
$GBGSV,5,2,19,27,56,136,42,26,45,042,41,25,55,231,42,19,11,177,39,1*79
$GBGSV,5,3,19,15,35,217,41,06,33,197,41,04,40,123,43,02,56,174,43,1*74
$GBGSV,5,4,19,01,37,125,43,08,26,308,,20,16,110,,30,24,056,,1*7F
$GBGSV,5,5,19,33,16,303,,35,24,214,,43,19,057,,1*43
$QL001,1629446656000,31.234937,121.499991,47.409473,65.000,0.100,2.829,2.500,0.453,0.071
$QL002,4,4,1,0,2.000,2.000,65.008,0.161,-0.456,0.321,0.320,0.208,18
$QL003,0.0000,0.0000,0.0000,0.0000,0.0000,0.0000,0.0000,0.0000,0.0000,0.0000
$QL004,2,00
$GBGSA,A,3,06,15,25,26,27,29,38,42,,,,,1.6,1.3,1.0,4*3E
$GBVTG,0.1,T,4.6,M,126.3,N,234.0,K,A*31
$GBDTM,P90,,0000.000023,S,00000.000001,W,0.987,W84*46
$GBRMC,080416.00,A,3114.096220,N,12129.999431,E,126.3,0.1,200821,4.5,W,A,V*45
$GBGNS,080416.00,3114.096220,N,12129.999431,E,NNNAN,08,1.3,37.4,10.0,,,V*51
$GBGGA,080416.00,3114.096220,N,12129.999431,E,1,08,1.3,37.4,M,10.0,M,,*40

$GPGSV,3,1,11,02,27,050,,05,58,054,,09,29,153,,10,00,000,,1*69
$GPGSV,3,2,11,12,48,065,,14,24,260,,21,13,190,,24,44,156,,1*63
$GPGSV,3,3,11,29,66,274,,30,60,356,,31,22,318,,1*53
$GLGSV,3,1,09,74,27,072,,76,22,057,,86,01,174,,73,05,027,,1*7A
$GLGSV,3,2,09,75,22,131,,66,15,277,,87,43,210,,81,09,332,,1*7E
$GLGSV,3,3,09,72,35,034,,1*45
$GBGSV,5,1,19,46,28,204,40,42,56,301,42,38,68,312,42,29,49,037,41,1*75
$GBGSV,5,2,19,27,56,136,41,26,45,042,42,25,55,231,42,19,11,177,39,1*79
$GBGSV,5,3,19,15,35,217,41,06,33,197,40,04,40,123,43,02,56,174,43,1*75
$GBGSV,5,4,19,01,37,125,43,08,26,308,,20,16,110,,30,24,056,,1*7F
$GBGSV,5,5,19,33,16,303,,35,24,214,,43,19,057,,1*43
$QL001,1629446657000,31.235598,121.499991,47.441392,77.670,0.200,2.832,2.501,1.336,1.043
$QL002,4,4,1,0,2.002,2.002,77.679,0.292,-0.092,0.926,0.963,0.857,18
$QL003,0.0000,0.0000,0.0000,0.0000,0.0000,0.0000,0.0000,0.0000,0.0000,0.0000
$QL004,2,00
$GBGSA,A,3,06,15,25,26,27,29,42,,,,,,1.7,1.4,1.0,4*33
$GBVTG,0.2,T,4.7,M,151.0,N,279.6,K,A*3F
$GBDTM,P90,,0000.000023,S,00000.000001,W,0.987,W84*46
$GBRMC,080417.00,A,3114.135870,N,12129.999436,E,151.0,0.2,200821,4.5,W,A,V*44
$GBGNS,080417.00,3114.135870,N,12129.999436,E,NNNAN,07,1.4,37.4,10.0,,,V*58
$GBGGA,080417.00,3114.135870,N,12129.999436,E,1,07,1.4,37.4,M,10.0,M,,*49

$GPGSV,3,1,11,02,27,050,,05,58,054,,09,29,153,,10,00,000,,1*69
$GPGSV,3,2,11,12,48,065,,14,24,260,,21,13,190,,24,44,156,,1*63
$GPGSV,3,3,11,29,66,274,,30,60,356,,31,22,318,,1*53
$GLGSV,3,1,09,74,27,072,,76,22,057,,86,01,174,,73,05,027,,1*7A
$GLGSV,3,2,09,75,22,131,,66,15,277,,87,43,210,,81,09,332,,1*7E
$GLGSV,3,3,09,72,35,034,,1*45
$GBGSV,5,1,19,46,28,204,42,42,56,301,43,38,68,312,42,29,49,037,43,1*74
$GBGSV,5,2,19,27,56,136,42,26,45,042,42,25,55,231,42,19,11,177,41,1*75
$GBGSV,5,3,19,15,35,217,42,06,33,197,42,04,40,123,43,02,56,174,43,1*74
$GBGSV,5,4,19,01,37,125,43,08,26,308,,20,16,110,,30,24,056,,1*7F
$GBGSV,5,5,19,33,16,303,,35,24,214,,43,19,057,,1*43
$QL001,1629446658000,31.236351,121.499990,47.510697,84.010,0.100,8.914,2.500,0.453,0.053
$QL002,4,4,1,0,6.303,6.303,84.013,0.112,0.484,0.320,0.320,0.184,18
$QL003,0.0000,0.0000,0.0000,0.0000,0.0000,0.0000,0.0000,0.0000,0.0000,0.0000
$QL004,2,00
$GBGSA,A,3,06,15,25,26,27,29,38,42,46,,,,1.6,1.3,1.0,4*3C
$GBVTG,0.1,T,4.6,M,163.3,N,302.4,K,A*30
$GBDTM,P90,,0000.000023,S,00000.000001,W,0.987,W84*46
$GBRMC,080418.00,A,3114.181033,N,12129.999429,E,163.3,0.1,200821,4.5,W,A,V*44
$GBGNS,080418.00,3114.181033,N,12129.999429,E,NNNAN,09,1.3,37.5,10.0,,,V*51
$GBGGA,080418.00,3114.181033,N,12129.999429,E,1,09,1.3,37.5,M,10.0,M,,*40

$GPGSV,3,1,11,02,27,050,,05,58,054,,09,29,153,,10,00,000,,1*69
$GPGSV,3,2,11,12,48,065,,14,24,260,,21,13,190,,24,44,156,,1*63
$GPGSV,3,3,11,29,66,274,,30,60,356,,31,22,318,,1*53
$GLGSV,3,1,09,74,27,072,,76,22,057,,86,01,174,,73,05,027,,1*7A
$GLGSV,3,2,09,75,22,131,,66,15,277,,87,43,210,,81,09,332,,1*7E
$GLGSV,3,3,09,72,35,034,,1*45
$GBGSV,5,1,19,46,28,204,43,42,56,301,42,38,68,312,43,29,49,037,43,1*75
$GBGSV,5,2,19,27,56,136,43,26,45,042,43,25,55,231,42,19,11,177,43,1*77
$GBGSV,5,3,19,15,35,217,42,06,33,197,42,04,40,123,43,02,56,174,43,1*74
$GBGSV,5,4,19,01,37,125,43,08,26,308,,20,16,110,,30,24,056,,1*7F
$GBGSV,5,5,19,33,16,303,,35,24,214,,43,19,057,,1*43
$QL001,1629446659000,31.237101,121.499990,47.732033,84.010,0.100,8.914,2.500,0.498,0.167
$QL002,4,4,1,0,6.303,6.303,84.016,0.092,0.114,0.348,0.356,0.341,18
$QL003,0.0000,0.0000,0.0000,0.0000,0.0000,0.0000,0.0000,0.0000,0.0000,0.0000
$QL004,2,00
$GBGSA,A,3,06,15,25,26,27,29,38,42,46,,,,1.6,1.3,1.0,4*3C
$GBVTG,0.1,T,4.6,M,163.3,N,302.4,K,A*30
$GBDTM,P90,,0000.000023,S,00000.000001,W,0.987,W84*46
$GBRMC,080419.00,A,3114.226078,N,12129.999421,E,163.3,0.1,200821,4.5,W,A,V*4C
$GBGNS,080419.00,3114.226078,N,12129.999421,E,NNNAN,09,1.3,37.7,10.0,,,V*5B
$GBGGA,080419.00,3114.226078,N,12129.999421,E,1,09,1.3,37.7,M,10.0,M,,*4A

$GPGSV,3,1,11,02,27,050,,05,58,054,,09,29,153,,10,00,000,,1*69
$GPGSV,3,2,11,12,48,065,,14,24,260,,21,13,190,,24,44,156,,1*63
$GPGSV,3,3,11,29,66,274,,30,60,356,,31,22,318,,1*53
$GLGSV,3,1,09,74,27,072,,76,22,057,,86,01,174,,73,05,027,,1*7A
$GLGSV,3,2,09,75,22,131,,66,15,277,,87,43,210,,81,09,332,,1*7E
$GLGSV,3,3,09,72,35,034,,1*45
$GBGSV,5,1,19,46,28,204,42,42,56,301,43,38,68,312,43,29,49,037,43,1*75
$GBGSV,5,2,19,27,56,136,42,26,45,042,42,25,55,231,43,19,11,177,43,1*76
$GBGSV,5,3,19,15,35,217,43,06,33,197,43,04,40,123,43,02,56,174,43,1*74
$GBGSV,5,4,19,01,37,125,43,08,26,308,,20,16,110,,30,24,056,,1*7F
$GBGSV,5,5,19,33,16,303,,35,24,214,,43,19,057,,1*43
$QL001,1629446660000,31.237852,121.499991,47.599513,83.310,0.100,8.914,2.500,0.452,0.051
$QL002,4,4,1,0,6.303,6.303,83.319,0.077,-0.128,0.320,0.320,0.168,18
$QL003,0.0000,0.0000,0.0000,0.0000,0.0000,0.0000,0.0000,0.0000,0.0000,0.0000
$QL004,2,00
$GBGSA,A,3,06,15,25,26,27,29,38,42,46,,,,1.6,1.3,1.0,4*3C
$GBVTG,0.1,T,4.6,M,161.9,N,299.9,K,A*36
$GBDTM,P90,,0000.000023,S,00000.000001,W,0.987,W84*46
$GBRMC,080420.00,A,3114.271129,N,12129.999452,E,161.9,0.1,200821,4.5,W,A,V*4D
$GBGNS,080420.00,3114.271129,N,12129.999452,E,NNNAN,09,1.3,37.6,10.0,,,V*53
$GBGGA,080420.00,3114.271129,N,12129.999452,E,1,09,1.3,37.6,M,10.0,M,,*42

$GPGSV,3,1,11,02,27,050,,05,58,054,,09,29,153,,10,00,000,,1*69
$GPGSV,3,2,11,12,48,065,,14,24,260,,21,13,190,,24,44,156,,1*63
$GPGSV,3,3,11,29,66,274,,30,60,356,,31,22,318,,1*53
$GLGSV,3,1,09,74,27,072,,76,22,057,,86,01,174,,73,05,027,,1*7A
$GLGSV,3,2,09,75,22,131,,66,15,277,,87,43,210,,81,09,332,,1*7E
$GLGSV,3,3,09,72,35,034,,1*45
$GBGSV,5,1,19,46,28,204,42,42,56,301,43,38,68,312,43,29,49,037,43,1*75
$GBGSV,5,2,19,27,56,136,43,26,45,042,43,25,55,231,42,19,11,177,42,1*76
$GBGSV,5,3,19,15,35,217,43,06,33,197,42,04,40,123,43,02,56,174,43,1*75
$GBGSV,5,4,19,01,37,125,43,08,26,308,,20,16,110,,30,24,056,,1*7F
$GBGSV,5,5,19,33,16,303,,35,24,214,,43,19,057,,1*43
$QL001,1629446661000,31.238604,121.499991,47.523990,83.290,0.000,8.914,2.500,0.452,0.052
$QL002,4,4,1,0,6.303,6.303,83.296,0.009,0.034,0.320,0.320,0.171,18
$QL003,0.0000,0.0000,0.0000,0.0000,0.0000,0.0000,0.0000,0.0000,0.0000,0.0000
$QL004,2,00
$GBGSA,A,3,06,25,26,27,29,38,42,46,,,,,1.6,1.3,1.0,4*38
$GBVTG,0.0,T,4.5,M,161.9,N,299.8,K,A*35
$GBDTM,P90,,0000.000023,S,00000.000001,W,0.987,W84*46
$GBRMC,080421.00,A,3114.316247,N,12129.999435,E,161.9,0.0,200821,4.5,W,A,V*47
$GBGNS,080421.00,3114.316247,N,12129.999435,E,NNNAN,08,1.3,37.5,10.0,,,V*5A
$GBGGA,080421.00,3114.316247,N,12129.999435,E,1,08,1.3,37.5,M,10.0,M,,*4B

$GPGSV,3,1,11,02,27,050,,05,58,054,,09,29,153,,10,00,000,,1*69
$GPGSV,3,2,11,12,48,065,,14,24,260,,21,13,190,,24,44,156,,1*63
$GPGSV,3,3,11,29,66,274,,30,60,356,,31,22,318,,1*53
$GLGSV,3,1,09,74,27,072,,76,22,057,,86,01,174,,73,05,027,,1*7A
$GLGSV,3,2,09,75,22,131,,66,15,277,,87,43,210,,81,09,332,,1*7E
$GLGSV,3,3,09,72,35,034,,1*45
$GBGSV,5,1,19,46,28,204,43,42,56,301,42,38,68,312,43,29,49,037,43,1*75
$GBGSV,5,2,19,27,56,136,43,26,45,042,42,25,55,231,43,19,11,177,42,1*76
$GBGSV,5,3,19,15,35,217,42,06,33,197,42,04,40,123,43,02,56,174,43,1*74
$GBGSV,5,4,19,01,37,125,43,08,26,308,,20,16,110,,30,24,056,,1*7F
$GBGSV,5,5,19,33,16,303,,35,24,214,,43,19,057,,1*43
$QL001,1629446662000,31.239356,121.499991,47.802472,83.400,0.100,8.914,2.500,0.481,0.137
$QL002,4,4,1,0,6.303,6.303,83.402,0.078,0.271,0.338,0.343,0.316,18
$QL003,0.0000,0.0000,0.0000,0.0000,0.0000,0.0000,0.0000,0.0000,0.0000,0.0000
$QL004,2,00
$GBGSA,A,3,06,15,25,26,27,29,38,42,46,,,,1.6,1.3,1.0,4*3C
$GBVTG,0.1,T,4.6,M,162.1,N,300.2,K,A*37
$GBDTM,P90,,0000.000023,S,00000.000001,W,0.987,W84*46
$GBRMC,080422.00,A,3114.361336,N,12129.999436,E,162.1,0.1,200821,4.5,W,A,V*4A
$GBGNS,080422.00,3114.361336,N,12129.999436,E,NNNAN,09,1.3,37.8,10.0,,,V*51
$GBGGA,080422.00,3114.361336,N,12129.999436,E,1,09,1.3,37.8,M,10.0,M,,*40

$GPGSV,3,1,11,02,27,050,,05,58,054,,09,29,153,,10,00,000,,1*69
$GPGSV,3,2,11,12,48,065,,14,24,260,,21,13,190,,24,44,156,,1*63
$GPGSV,3,3,11,29,66,274,,30,60,356,,31,22,318,,1*53
$GLGSV,3,1,09,74,27,072,,76,22,057,,86,01,174,,73,05,027,,1*7A
$GLGSV,3,2,09,75,22,131,,66,15,277,,87,43,210,,81,09,332,,1*7E
$GLGSV,3,3,09,72,35,034,,1*45
$GBGSV,5,1,19,46,28,204,42,42,56,301,43,38,68,312,42,29,49,037,42,1*75
$GBGSV,5,2,19,27,56,136,42,26,45,042,41,25,55,231,42,19,11,177,42,1*75
$GBGSV,5,3,19,15,35,217,43,06,33,197,42,04,40,123,43,02,56,174,43,1*75
$GBGSV,5,4,19,01,37,125,43,08,26,308,,20,16,110,,30,24,056,,1*7F
$GBGSV,5,5,19,33,16,303,,35,24,214,,43,19,057,,1*43
$QL001,1629446663000,31.240051,121.499991,47.783197,72.360,359.900,8.914,2.500,0.525,0.245
$QL002,4,4,1,0,6.303,6.303,72.366,-0.090,0.010,0.364,0.379,0.424,18
$QL003,0.0000,0.0000,0.0000,0.0000,0.0000,0.0000,0.0000,0.0000,0.0000,0.0000
$QL004,2,00
$GBGSA,A,3,06,15,25,26,27,29,38,42,46,,,,1.6,1.3,1.0,4*3C
$GBVTG,359.9,T,4.4,M,140.7,N,260.5,K,A*34
$GBDTM,P90,,0000.000023,S,00000.000001,W,0.987,W84*46
$GBRMC,080423.00,A,3114.403031,N,12129.999467,E,140.7,359.9,200821,4.5,W,A,V*49
$GBGNS,080423.00,3114.403031,N,12129.999467,E,NNNAN,09,1.3,37.8,10.0,,,V*53
$GBGGA,080423.00,3114.403031,N,12129.999467,E,1,09,1.3,37.8,M,10.0,M,,*42

$GPGSV,3,1,11,02,27,050,,05,58,054,,09,29,153,,10,00,000,,1*69
$GPGSV,3,2,11,12,48,065,,14,24,260,,21,13,190,,24,44,156,,1*63
$GPGSV,3,3,11,29,66,274,,30,60,356,,31,22,318,,1*53
$GLGSV,3,1,09,74,27,072,,76,22,057,,86,01,174,,73,05,027,,1*7A
$GLGSV,3,2,09,75,22,131,,66,15,277,,87,43,210,,81,09,332,,1*7E
$GLGSV,3,3,09,72,35,034,,1*45
$GBGSV,5,1,19,46,28,204,40,42,56,301,42,38,68,312,42,29,49,037,41,1*75
$GBGSV,5,2,19,27,56,136,42,26,45,042,42,25,55,231,42,19,11,177,39,1*7A
$GBGSV,5,3,19,15,35,217,41,06,33,197,40,04,40,123,43,02,56,174,43,1*75
$GBGSV,5,4,19,01,37,125,43,08,26,308,,20,16,110,,30,24,056,,1*7F
$GBGSV,5,5,19,33,16,303,,35,24,214,,43,19,057,,1*43
$QL001,1629446664000,31.240619,121.499991,47.726378,58.190,359.800,8.914,2.500,0.453,0.079
$QL002,4,4,1,0,6.303,6.303,58.195,-0.239,-0.239,0.320,0.320,0.189,18
$QL003,0.0000,0.0000,0.0000,0.0000,0.0000,0.0000,0.0000,0.0000,0.0000,0.0000
$QL004,2,00
$GBGSA,A,3,06,15,26,27,29,38,42,46,,,,,1.6,1.3,1.0,4*3B
$GBVTG,359.8,T,4.3,M,113.1,N,209.5,K,A*3D
$GBDTM,P90,,0000.000023,S,00000.000001,W,0.987,W84*46
$GBRMC,080424.00,A,3114.437125,N,12129.999447,E,113.1,359.8,200821,4.5,W,A,V*4E
$GBGNS,080424.00,3114.437125,N,12129.999447,E,NNNAN,08,1.3,37.7,10.0,,,V*5B
$GBGGA,080424.00,3114.437125,N,12129.999447,E,1,08,1.3,37.7,M,10.0,M,,*4A

$GPGSV,3,1,11,02,27,050,,05,58,054,,09,29,153,,10,00,000,,1*69
$GPGSV,3,2,11,12,48,065,,14,24,260,,21,13,190,,24,44,156,,1*63
$GPGSV,3,3,11,29,66,274,,30,60,356,,31,22,318,,1*53
$GLGSV,3,1,09,74,27,072,,76,22,057,,86,01,174,,73,05,027,,1*7A
$GLGSV,3,2,09,75,22,131,,66,15,277,,87,43,210,,81,09,332,,1*7E
$GLGSV,3,3,09,72,35,034,,1*45
$GBGSV,5,1,19,46,28,204,40,42,56,301,42,38,68,312,43,29,49,037,41,1*74
$GBGSV,5,2,19,27,56,136,42,26,45,042,42,25,55,231,42,19,11,177,38,1*7B
$GBGSV,5,3,19,15,35,217,41,06,33,197,40,04,40,123,43,02,56,174,43,1*75
$GBGSV,5,4,19,01,37,125,43,08,26,308,,20,16,110,,30,24,056,,1*7F
$GBGSV,5,5,19,33,16,303,,35,24,214,,43,19,057,,1*43
$QL001,1629446665000,31.241064,121.499990,47.620539,44.110,359.999,8.914,2.500,0.576,0.529
$QL002,4,4,1,0,6.303,6.303,44.117,-0.013,0.044,0.393,0.421,0.469,18
$QL003,0.0000,0.0000,0.0000,0.0000,0.0000,0.0000,0.0000,0.0000,0.0000,0.0000
$QL004,2,00
$GBGSA,A,3,06,15,25,26,27,29,38,42,46,,,,1.6,1.3,1.0,4*3C
$GBVTG,360.0,T,4.5,M,85.7,N,158.8,K,A*0B
$GBDTM,P90,,0000.000023,S,00000.000001,W,0.987,W84*46
$GBRMC,080425.00,A,3114.463844,N,12129.999430,E,85.7,360.0,200821,4.5,W,A,V*7A
$GBGNS,080425.00,3114.463844,N,12129.999430,E,NNNAN,09,1.3,37.6,10.0,,,V*55
$GBGGA,080425.00,3114.463844,N,12129.999430,E,1,09,1.3,37.6,M,10.0,M,,*44

$GPGSV,3,1,11,02,27,050,,05,58,054,,09,29,153,,10,00,000,,1*69
$GPGSV,3,2,11,12,48,065,,14,24,260,,21,13,190,,24,44,156,,1*63
$GPGSV,3,3,11,29,66,274,,30,60,356,,31,22,318,,1*53
$GLGSV,3,1,09,74,27,072,,76,22,057,,86,01,174,,73,05,027,,1*7A
$GLGSV,3,2,09,75,22,131,,66,15,277,,87,43,210,,81,09,332,,1*7E
$GLGSV,3,3,09,72,35,034,,1*45
$GBGSV,5,1,19,46,28,204,40,42,56,301,42,38,68,312,42,29,49,037,41,1*75
