61,356,0,31,22,318,0,7*60
$GPGSA,A,3,02,05,09,12,14,21,24,29,30,31,,,1.8,0.9,1.5,1*2C
$GPZDA,080330.00,20,08,2021,-8,00*70
$GPGGA,080331,3114.41341,N,12130.90721,E,3,29,0.88,38.04,M,11.96,M,,*4A
$GPRMC,080331,A,3114.41341,N,12130.90721,E,128.548,180.008,200821,0.000,E,A,V*6A
$GPVTG,180.008,T,180.008,M,128.548,N,238.072,K*40
$GPGSV,10,1,10,2,28,51,0,5,59,54,0,9,29,154,0,12,49,66,0,1*5D
$GPGSV,10,2,10,14,24,261,0,21,14,191,0,24,44,156,0,29,66,275,0,1*50
$GPGSV,10,3,10,30,61,356,0,31,22,318,0,2,28,51,0,5,59,54,0,5*5B
$GPGSV,10,4,10,9,29,154,0,12,49,66,0,14,24,261,0,21,14,191,0,5*51
$GPGSV,10,5,10,24,44,156,0,29,66,275,0,30,61,356,0,31,22,318,0,5*56
$GPGSV,10,6,10,2,28,51,0,5,59,54,0,9,29,154,0,12,49,66,0,6*5D
$GPGSV,10,7,10,14,24,261,0,21,14,191,0,24,44,156,0,29,66,275,0,6*52
$GPGSV,10,8,10,30,61,356,0,31,22,318,0,2,28,51,0,5,59,54,0,7*52
$GPGSV,10,9,10,9,29,154,0,12,49,66,0,14,24,261,0,21,14,191,0,7*5E
$GPGSV,10,10,10,24,44,156,0,29,66,275,0,30,61,356,0,31,22,318,0,7*60
$GPGSA,A,3,02,05,09,12,14,21,24,29,30,31,,,1.8,0.9,1.5,1*2C
$GPZDA,080331.00,20,08,2021,-8,00*71
$GPGGA,080332,3114.37390,N,12130.90720,E,3,29,0.88,38.04,M,11.96,M,,*45
$GPRMC,080332,A,3114.37390,N,12130.90720,E,155.298,180.008,200821,0.000,E,A,V*65
$GPVTG,180.008,T,180.008,M,155.298,N,287.612,K*44
$GPGSV,10,1,10,2,28,51,0,5,59,54,0,9,29,154,0,12,49,66,0,1*5D
$GPGSV,10,2,10,14,24,261,0,21,14,191,0,24,44,156,0,29,66,275,0,1*50
$GPGSV,10,3,10,30,61,356,0,31,22,318,0,2,28,51,0,5,59,54,0,5*5B
$GPGSV,10,4,10,9,29,154,0,12,49,66,0,14,24,261,0,21,14,191,0,5*51
$GPGSV,10,5,10,24,44,156,0,29,66,275,0,30,61,356,0,31,22,318,0,5*56
$GPGSV,10,6,10,2,28,51,0,5,59,54,0,9,29,154,0,12,49,66,0,6*5D
$GPGSV,10,7,10,14,24,261,0,21,14,191,0,24,44,156,0,29,66,275,0,6*52
$GPGSV,10,8,10,30,61,356,0,31,22,318,0,2,28,51,0,5,59,54,0,7*52
$GPGSV,10,9,10,9,29,154,0,12,49,66,0,14,24,261,0,21,14,191,0,7*5E
$GPGSV,10,10,10,24,44,156,0,29,66,275,0,30,61,356,0,31,22,318,0,7*60
$GPGSA,A,3,02,05,09,12,14,21,24,29,30,31,,,1.8,0.9,1.5,1*2C
$GPZDA,080332.00,20,08,2021,-8,00*72
$GPGGA,080333,3114.32904,N,12130.90720,E,3,29,0.88,38.04,M,11.96,M,,*46
$GPRMC,080333,A,3114.32904,N,12130.90720,E,161.986,180.008,200821,0.000,E,A,V*65
$GPVTG,180.008,T,180.008,M,161.986,N,299.998,K*45
$GPGSV,10,1,10,2,28,51,0,5,59,54,0,9,29,154,0,12,49,66,0,1*5D
$GPGSV,10,2,10,14,24,261,0,21,14,191,0,24,44,156,0,29,66,275,0,1*50
$GPGSV,10,3,10,30,61,356,0,31,22,318,0,2,28,51,0,5,59,54,0,5*5B
$GPGSV,10,4,10,9,29,154,0,12,49,66,0,14,24,261,0,21,14,191,0,5*51
$GPGSV,10,5,10,24,44,156,0,29,66,275,0,30,61,356,0,31,22,318,0,5*56
$GPGSV,10,6,10,2,28,51,0,5,59,54,0,9,29,154,0,12,49,66,0,6*5D
$GPGSV,10,7,10,14,24,261,0,21,14,191,0,24,44,156,0,29,66,275,0,6*52
$GPGSV,10,8,10,30,61,356,0,31,22,318,0,2,28,51,0,5,59,54,0,7*52
$GPGSV,10,9,10,9,29,154,0,12,49,66,0,14,24,261,0,21,14,191,0,7*5E
$GPGSV,10,10,10,24,44,156,0,29,66,275,0,30,61,356,0,31,22,318,0,7*60
$GPGSA,A,3,02,05,09,12,14,21,24,29,30,31,,,1.8,0.9,1.5,1*2C
$GPZDA,080333.00,20,08,2021,-8,00*73
$GPGGA,080334,3114.28394,N,12130.90719,E,3,29,0.88,38.04,M,11.96,M,,*43
$GPRMC,080334,A,3114.28394,N,12130.90719,E,161.986,180.008,200821,0.000,E,A,V*60
$GPVTG,180.008,T,180.008,M,161.986,N,299.998,K*45
$GPGSV,10,1,10,2,28,51,0,5,59,54,0,9,29,154,0,12,49,66,0,1*5D
$GPGSV,10,2,10,14,24,261,0,21,14,191,0,24,44,156,0,29,66,275,0,1*50
$GPGSV,10,3,10,30,61,356,0,31,22,318,0,2,28,51,0,5,59,54,0,5*5B
$GPGSV,10,4,10,9,29,154,0,12,49,66,0,14,24,261,0,21,14,191,0,5*51
$GPGSV,10,5,10,24,44,156,0,29,66,275,0,30,61,356,0,31,22,318,0,5*56
$GPGSV,10,6,10,2,28,51,0,5,59,54,0,9,29,154,0,12,49,66,0,6*5D
$GPGSV,10,7,10,14,24,261,0,21,14,191,0,24,44,156,0,29,66,275,0,6*52
$GPGSV,10,8,10,30,61,356,0,31,22,318,0,2,28,51,0,5,59,54,0,7*52
$GPGSV,10,9,10,9,29,154,0,12,49,66,0,14,24,261,0,21,14,191,0,7*5E
$GPGSV,10,10,10,24,44,156,0,29,66,275,0,30,61,356,0,31,22,318,0,7*60
$GPGSA,A,3,02,05,09,12,14,21,24,29,30,31,,,1.8,0.9,1.5,1*2C
$GPZDA,080334.00,20,08,2021,-8,00*74
$GPGGA,080335,3114.23884,N,12130.90718,E,3,29,0.88,38.04,M,11.96,M,,*42
$GPRMC,080335,A,3114.23884,N,12130.90718,E,161.986,180.008,200821,0.000,E,A,V*61
$GPVTG,180.008,T,180.008,M,161.986,N,299.998,K*45
$GPGSV,10,1,10,2,28,51,0,5,59,54,0,9,29,154,0,12,49,66,0,1*5D
$GPGSV,10,2,10,14,24,261,0,21,14,191,0,24,44,156,0,29,66,275,0,1*50
$GPGSV,10,3,10,30,61,356,0,31,22,318,0,2,28,51,0,5,59,54,0,5*5B
$GPGSV,10,4,10,9,29,154,0,12,49,66,0,14,24,261,0,21,14,191,0,5*51
$GPGSV,10,5,10,24,44,156,0,29,66,275,0,30,61,356,0,31,22,318,0,5*56
$GPGSV,10,6,10,2,28,51,0,5,59,54,0,9,29,154,0,12,49,66,0,6*5D
$GPGSV,10,7,10,14,24,261,0,21,14,191,0,24,44,156,0,29,66,275,0,6*52
$GPGSV,10,8,10,30,61,356,0,31,22,318,0,2,28,51,0,5,59,54,0,7*52
$GPGSV,10,9,10,9,29,154,0,12,49,66,0,14,24,261,0,21,14,191,0,7*5E
$GPGSV,10,10,10,24,44,156,0,29,66,275,0,30,61,356,0,31,22,318,0,7*60
$GPGSA,A,3,02,05,09,12,14,21,24,29,30,31,,,1.8,0.9,1.5,1*2C
$GPZDA,080335.00,20,08,2021,-8,00*75
$GPGGA,080336,3114.19375,N,12130.90717,E,3,29,0.88,38.04,M,11.96,M,,*42
$GPRMC,080336,A,3114.19375,N,12130.90717,E,161.986,180.008,200821,0.000,E,A,V*61
$GPVTG,180.008,T,180.008,M,161.986,N,299.998,K*45
$GPGSV,10,1,10,2,28,51,0,5,59,55,0,9,29,154,0,12,49,66,0,1*5C
$GPGSV,10,2,10,14,24,261,0,21,14,191,0,24,44,156,0,29,66,275,0,1*50
$GPGSV,10,3,10,30,61,356,0,31,22,318,0,2,28,51,0,5,59,55,0,5*5A
$GPGSV,10,4,10,9,29,154,0,12,49,66,0,14,24,261,0,21,14,191,0,5*51
$GPGSV,10,5,10,24,44,156,0,29,66,275,0,30,61,356,0,31,22,318,0,5*56
$GPGSV,10,6,10,2,28,51,0,5,59,55,0,9,29,154,0,12,49,66,0,6*5C
$GPGSV,10,7,10,14,24,261,0,21,14,191,0,24,44,156,0,29,66,275,0,6*52
$GPGSV,10,8,10,30,61,356,0,31,22,318,0,2,28,51,0,5,59,55,0,7*53
$GPGSV,10,9,10,9,29,154,0,12,49,66,0,14,24,261,0,21,14,191,0,7*5E
$GPGSV,10,10,10,24,44,156,0,29,66,275,0,30,61,356,0,31,22,318,0,7*60
$GPGSA,A,3,02,05,09,12,14,21,24,29,30,31,,,1.8,0.9,1.5,1*2C
$GPZDA,080336.00,20,08,2021,-8,00*76
$GPGGA,080337,3114.14865,N,12130.90717,E,3,29,0.88,38.04,M,11.96,M,,*44
$GPRMC,080337,A,3114.14865,N,12130.90717,E,161.986,180.008,200821,0.000,E,A,V*67
$GPVTG,180.008,T,180.008,M,161.986,N,299.998,K*45
$GPGSV,10,1,10,2,28,51,0,5,59,55,0,9,29,154,0,12,49,66,0,1*5C
$GPGSV,10,2,10,14,24,261,0,21,14,191,0,24,44,156,0,29,66,275,0,1*50
$GPGSV,10,3,10,30,61,356,0,31,22,318,0,2,28,51,0,5,59,55,0,5*5A
$GPGSV,10,4,10,9,29,154,0,12,49,66,0,14,24,261,0,21,14,191,0,5*51
$GPGSV,10,5,10,24,44,156,0,29,66,275,0,30,61,356,0,31,22,318,0,5*56
$GPGSV,10,6,10,2,28,51,0,5,59,55,0,9,29,154,0,12,49,66,0,6*5C
$GPGSV,10,7,10,14,24,261,0,21,14,191,0,24,44,156,0,29,66,275,0,6*52
$GPGSV,10,8,10,30,61,356,0,31,22,318,0,2,28,51,0,5,59,55,0,7*53
$GPGSV,10,9,10,9,29,154,0,12,49,66,0,14,24,261,0,21,14,191,0,7*5E
$GPGSV,10,10,10,24,44,156,0,29,66,275,0,30,61,356,0,31,22,318,0,7*60
$GPGSA,A,3,02,05,09,12,14,21,24,29,30,31,,,1.8,0.9,1.5,1*2C
$GPZDA,080337.00,20,08,2021,-8,00*77
$GPGGA,080338,3114.10684,N,12130.90716,E,3,29,0.88,38.04,M,11.96,M,,*4F
$GPRMC,080338,A,3114.10684,N,12130.90716,E,136.841,180.008,200821,0.000,E,A,V*64
$GPVTG,180.008,T,180.008,M,136.841,N,253.429,K*4C
$GPGSV,10,1,10,2,28,51,0,5,59,55,0,9,29,154,0,12,49,66,0,1*5C
$GPGSV,10,2,10,14,24,261,0,21,14,191,0,24,44,156,0,29,66,275,0,1*50
$GPGSV,10,3,10,30,61,356,0,31,22,318,0,2,28,51,0,5,59,55,0,5*5A
$GPGSV,10,4,10,9,29,154,0,12,49,66,0,14,24,261,0,21,14,191,0,5*51
$GPGSV,10,5,10,24,44,156,0,29,66,275,0,30,61,356,0,31,22,318,0,5*56
$GPGSV,10,6,10,2,28,51,0,5,59,55,0,9,29,154,0,12,49,66,0,6*5C
$GPGSV,10,7,10,14,24,261,0,21,14,191,0,24,44,156,0,29,66,275,0,6*52
$GPGSV,10,8,10,30,61,356,0,31,22,318,0,2,28,51,0,5,59,55,0,7*53
$GPGSV,10,9,10,9,29,154,0,12,49,66,0,14,24,261,0,21,14,191,0,7*5E
$GPGSV,10,10,10,24,44,156,0,29,66,275,0,30,61,356,0,31,22,318,0,7*60
$GPGSA,A,3,02,05,09,12,14,21,24,29,30,31,,,1.8,0.9,1.5,1*2C
$GPZDA,080338.00,20,08,2021,-8,00*78
$GPGGA,080339,3114.07247,N,12130.90715,E,3,29,0.88,38.03,M,11.97,M,,*46
$GPRMC,080339,A,3114.07247,N,12130.90715,E,110.091,180.008,200821,0.000,E,A,V*6A
$GPVTG,180.008,T,180.008,M,110.091,N,203.888,K*4F
$GPGSV,10,1,10,2,28,51,0,5,59,55,0,9,29,154,0,12,49,66,0,1*5C
$GPGSV,10,2,10,14,24,261,0,21,14,191,0,24,44,156,0,29,66,275,0,1*50
$GPGSV,10,3,10,30,61,356,0,31,22,318,0,2,28,51,0,5,59,55,0,5*5A
$GPGSV,10,4,10,9,29,154,0,12,49,66,0,14,24,261,0,21,14,191,0,5*51
$GPGSV,10,5,10,24,44,156,0,29,66,275,0,30,61,356,0,31,22,318,0,5*56
$GPGSV,10,6,10,2,28,51,0,5,59,55,0,9,29,154,0,12,49,66,0,6*5C
$GPGSV,10,7,10,14,24,261,0,21,14,191,0,24,44,156,0,29,66,275,0,6*52
$GPGSV,10,8,10,30,61,356,0,31,22,318,0,2,28,51,0,5,59,55,0,7*53
$GPGSV,10,9,10,9,29,154,0,12,49,66,0,14,24,261,0,21,14,191,0,7*5E
$GPGSV,10,10,10,24,44,156,0,29,66,275,0,30,61,356,0,31,22,318,0,7*60
$GPGSA,A,3,02,05,09,12,14,21,24,29,30,31,,,1.8,0.9,1.5,1*2C
$GPZDA,080339.00,20,08,2021,-8,00*79
$GPGGA,080340,3114.04555,N,12130.90715,E,3,29,0.88,38.03,M,11.97,M,,*4F
$GPRMC,080340,A,3114.04555,N,12130.90715,E,83.341,180.008,200821,0.000,E,A,V*56
$GPVTG,180.008,T,180.008,M,83.341,N,154.347,K*73
$GPGSV,10,1,10,2,28,51,0,5,59,55,0,9,29,154,0,12,49,66,0,1*5C
$GPGSV,10,2,10,14,24,261,0,21,14,191,0,24,44,156,0,29,66,275,0,1*50
$GPGSV,10,3,10,30,61,356,0,31,22,318,0,2,28,51,0,5,59,55,0,5*5A
$GPGSV,10,4,10,9,29,154,0,12,49,66,0,14,24,261,0,21,14,191,0,5*51
$GPGSV,10,5,10,24,44,156,0,29,66,275,0,30,61,356,0,31,22,318,0,5*56
$GPGSV,10,6,10,2,28,51,0,5,59,55,0,9,29,154,0,12,49,66,0,6*5C
$GPGSV,10,7,10,14,24,261,0,21,14,191,0,24,44,156,0,29,66,275,0,6*52
$GPGSV,10,8,10,30,61,356,0,31,22,318,0,2,28,51,0,5,59,55,0,7*53
$GPGSV,10,9,10,9,29,154,0,12,49,66,0,14,24,261,0,21,14,191,0,7*5E
$GPGSV,10,10,10,24,44,156,0,29,66,275,0,30,61,356,0,31,22,318,0,7*60
$GPGSA,A,3,02,05,09,12,14,21,24,29,30,31,,,1.8,0.9,1.5,1*2C
$GPZDA,080340.00,20,08,2021,-8,00*77
$GPGGA,080341,3114.02607,N,12130.90715,E,3,29,0.88,38.03,M,11.97,M,,*4C
$GPRMC,080341,A,3114.02607,N,12130.90715,E,56.591,180.008,200821,0.000,E,A,V*56
$GPVTG,180.008,T,180.008,M,56.591,N,104.807,K*7A
$GPGSV,10,1,10,2,28,51,0,5,59,55,0,9,29,154,0,12,49,66,0,1*5C
$GPGSV,10,2,10,14,24,261,0,21,14,191,0,24,44,156,0,29,66,275,0,1*50
$GPGSV,10,3,10,30,61,356,0,31,22,318,0,2,28,51,0,5,59,55,0,5*5A
$GPGSV,10,4,10,9,29,154,0,12,49,66,0,14,24,261,0,21,14,191,0,5*51
$GPGSV,10,5,10,24,44,156,0,29,66,275,0,30,61,356,0,31,22,318,0,5*56
$GPGSV,10,6,10,2,28,51,0,5,59,55,0,9,29,154,0,12,49,66,0,6*5C
$GPGSV,10,7,10,14,24,261,0,21,14,191,0,24,44,156,0,29,66,275,0,6*52
$GPGSV,10,8,10,30,61,356,0,31,22,318,0,2,28,51,0,5,59,55,0,7*53
$GPGSV,10,9,10,9,29,154,0,12,49,66,0,14,24,261,0,21,14,191,0,7*5E
$GPGSV,10,10,10,24,44,156,0,29,66,275,0,30,61,356,0,31,22,318,0,7*60
$GPGSA,A,3,02,05,09,12,14,21,24,29,30,31,,,1.8,0.9,1.5,1*2C
$GPZDA,080341.00,20,08,2021,-8,00*76
$GPGGA,080342,3114.01404,N,12130.90714,E,3,29,0.88,38.03,M,11.97,M,,*4C
$GPRMC,080342,A,3114.01404,N,12130.90714,E,29.841,180.008,200821,0.000,E,A,V*5E
$GPVTG,180.008,T,180.008,M,29.841,N,55.266,K*4A
$GPGSV,10,1,10,2,28,51,0,5,59,55,0,9,29,154,0,12,49,66,0,1*5C
$GPGSV,10,2,10,14,24,261,0,21,14,191,0,24,44,156,0,29,66,275,0,1*50
$GPGSV,10,3,10,30,61,356,0,31,22,318,0,2,28,51,0,5,59,55,0,5*5A
$GPGSV,10,4,10,9,29,154,0,12,49,66,0,14,24,261,0,21,14,191,0,5*51
$GPGSV,10,5,10,24,44,156,0,29,66,275,0,30,61,356,0,31,22,318,0,5*56
$GPGSV,10,6,10,2,28,51,0,5,59,55,0,9,29,154,0,12,49,66,0,6*5C
$GPGSV,10,7,10,14,24,261,0,21,14,191,0,24,44,156,0,29,66,275,0,6*52
$GPGSV,10,8,10,30,61,356,0,31,22,318,0,2,28,51,0,5,59,55,0,7*53
$GPGSV,10,9,10,9,29,154,0,12,49,66,0,14,24,261,0,21,14,191,0,7*5E
$GPGSV,10,10,10,24,44,156,0,29,66,275,0,30,61,356,0,31,22,318,0,7*60
$GPGSA,A,3,02,05,09,12,14,21,24,29,30,31,,,1.8,0.9,1.5,1*2C
$GPZDA,080342.00,20,08,2021,-8,00*75
$GPGGA,080343,3114.00858,N,12130.90688,E,3,29,0.88,38.03,M,11.97,M,,*4D
$GPRMC,080343,A,3114.00858,N,12130.90688,E,16.199,191.706,200821,0.000,E,A,V*56
$GPVTG,191.706,T,191.706,M,16.199,N,30.000,K*4B
$GPGSV,10,1,10,2,28,51,0,5,59,55,0,9,29,154,0,12,49,66,0,1*5C
$GPGSV,10,2,10,14,24,261,0,21,14,191,0,24,44,156,0,29,66,275,0,1*50
$GPGSV,10,3,10,30,61,356,0,31,22,318,0,2,28,51,0,5,59,55,0,5*5A
$GPGSV,10,4,10,9,29,154,0,12,49,66,0,14,24,261,0,21,14,191,0,5*51
$GPGSV,10,5,10,24,44,156,0,29,66,275,0,30,61,356,0,31,22,318,0,5*56
$GPGSV,10,6,10,2,28,51,0,5,59,55,0,9,29,154,0,12,49,66,0,6*5C
$GPGSV,10,7,10,14,24,261,0,21,14,191,0,24,44,156,0,29,66,275,0,6*52
$GPGSV,10,8,10,30,61,356,0,31,22,318,0,2,28,51,0,5,59,55,0,7*53
$GPGSV,10,9,10,9,29,154,0,12,49,66,0,14,24,261,0,21,14,191,0,7*5E
$GPGSV,10,10,10,24,44,156,0,29,66,275,0,30,61,356,0,31,22,318,0,7*60
$GPGSA,A,3,02,05,09,12,14,21,24,29,30,31,,,1.8,0.9,1.5,1*2C
$GPZDA,080343.00,20,08,2021,-8,00*74
$GPGGA,080344,3114.00447,N,12130.90479,E,3,29,0.88,38.03,M,11.97,M,,*44
$GPRMC,080344,A,3114.00447,N,12130.90479,E,16.199,215.579,200821,0.000,E,A,V*5A
$GPVTG,215.579,T,215.579,M,16.199,N,30.000,K*4B
$GPGSV,10,1,10,2,28,51,0,5,59,55,0,9,29,154,0,12,49,66,0,1*5C
$GPGSV,10,2,10,14,24,261,0,21,14,191,0,24,44,156,0,29,66,275,0,1*50
$GPGSV,10,3,10,30,61,356,0,31,22,318,0,2,28,51,0,5,59,55,0,5*5A
$GPGSV,10,4,10,9,29,154,0,12,49,66,0,14,24,261,0,21,14,191,0,5*51
$GPGSV,10,5,10,24,44,156,0,29,66,275,0,30,61,356,0,31,22,318,0,5*56
$GPGSV,10,6,10,2,28,51,0,5,59,55,0,9,29,154,0,12,49,66,0,6*5C
$GPGSV,10,7,10,14,24,261,0,21,14,191,0,24,44,156,0,29,66,275,0,6*52
$GPGSV,10,8,10,30,61,356,0,31,22,318,0,2,28,51,0,5,59,55,0,7*53
$GPGSV,10,9,10,9,29,154,0,12,49,66,0,14,24,261,0,21,14,191,0,7*5E
$GPGSV,10,10,10,24,44,156,0,29,66,275,0,30,61,356,0,31,22,318,0,7*60
$GPGSA,A,3,02,05,09,12,14,21,24,29,30,31,,,1.8,0.9,1.5,1*2C
$GPZDA,080344.00,20,08,2021,-8,00*73
$GPGGA,080345,3114.00145,N,12130.90095,E,3,29,0.88,38.03,M,11.97,M,,*44
$GPRMC,080345,A,3114.00145,N,12130.90095,E,16.199,239.452,200821,0.000,E,A,V*5C
$GPVTG,239.452,T,239.452,M,16.199,N,30.000,K*4B
$GPGSV,10,1,10,2,28,51,0,5,59,55,0,9,29,154,0,12,49,66,0,1*5C
$GPGSV,10,2,10,14,24,261,0,21,14,191,0,24,44,156,0,29,66,275,0,1*50
$GPGSV,10,3,10,30,61,356,0,31,22,318,0,2,28,51,0,5,59,55,0,5*5A
$GPGSV,10,4,10,9,29,154,0,12,49,66,0,14,24,261,0,21,14,191,0,5*51
$GPGSV,10,5,10,24,44,156,0,29,66,275,0,30,61,356,0,31,22,318,0,5*56
$GPGSV,10,6,10,2,28,51,0,5,59,55,0,9,29,154,0,12,49,66,0,6*5C
$GPGSV,10,7,10,14,24,261,0,21,14,191,0,24,44,156,0,29,66,275,0,6*52
$GPGSV,10,8,10,30,61,356,0,31,22,318,0,2,28,51,0,5,59,55,0,7*53
$GPGSV,10,9,10,9,29,154,0,12,49,66,0,14,24,261,0,21,14,191,0,7*5E
$GPGSV,10,10,10,24,44,156,0,29,66,275,0,30,61,356,0,31,22,318,0,7*60
$GPGSA,A,3,02,05,09,12,14,21,24,29,30,31,,,1.8,0.9,1.5,1*2C
$GPZDA,080345.00,20,08,2021,-8,00*72
$GPGGA,080346,3114.00002,N,12130.89601,E,3,29,0.88,38.03,M,11.97,M,,*46
$GPRMC,080346,A,3114.00002,N,12130.89601,E,16.199,263.325,200821,0.000,E,A,V*56
$GPVTG,263.325,T,263.325,M,16.199,N,30.000,K*4B
$GPGSV,10,1,10,2,28,51,0,5,59,55,0,9,29,154,0,12,49,66,0,1*5C
$GPGSV,10,2,10,14,24,261,0,21,14,191,0,24,44,156,0,29,66,275,0,1*50
$GPGSV,10,3,10,30,61,356,0,31,22,318,0,2,28,51,0,5,59,55,0,5*5A
$GPGSV,10,4,10,9,29,154,0,12,49,66,0,14,24,261,0,21,14,191,0,5*51
$GPGSV,10,5,10,24,44,156,0,29,66,275,0,30,61,356,0,31,22,318,0,5*56
$GPGSV,10,6,10,2,28,51,0,5,59,55,0,9,29,154,0,12,49,66,0,6*5C
$GPGSV,10,7,10,14,24,261,0,21,14,191,0,24,44,156,0,29,66,275,0,6*52
$GPGSV,10,8,10,30,61,356,0,31,22,318,0,2,28,51,0,5,59,55,0,7*53
$GPGSV,10,9,10,9,29,154,0,12,49,66,0,14,24,261,0,21,14,191,0,7*5E
$GPGSV,10,10,10,24,44,156,0,29,66,275,0,30,61,356,0,31,22,318,0,7*60
$GPGSA,A,3,02,05,09,12,14,21,24,29,30,31,,,1.8,0.9,1.5,1*2C
$GPZDA,080346.00,20,08,2021,-8,00*71
$GPGGA,080347,3113.99995,N,12130.88852,E,3,29,0.88,38.03,M,11.97,M,,*4E
$GPRMC,080347,A,3113.99995,N,12130.88852,E,35.459,270.008,200821,0.000,E,A,V*58
$GPVTG,270.008,T,270.008,M,35.459,N,65.669,K*4A
$GPGSV,10,1,10,2,28,51,0,5,59,55,0,9,29,154,0,12,49,66,0,1*5C
$GPGSV,10,2,10,14,24,261,0,21,14,191,0,24,44,156,0,29,66,275,0,1*50
$GPGSV,10,3,10,30,61,356,0,31,22,318,0,2,28,51,0,5,59,55,0,5*5A
$GPGSV,10,4,10,9,29,154,0,12,49,66,0,14,24,261,0,21,14,191,0,5*51
$GPGSV,10,5,10,24,44,156,0,29,66,275,0,30,61,356,0,31,22,318,0,5*56
$GPGSV,10,6,10,2,28,51,0,5,59,55,0,9,29,154,0,12,49,66,0,6*5C
$GPGSV,10,7,10,14,24,261,0,21,14,191,0,24,44,156,0,29,66,275,0,6*52
$GPGSV,10,8,10,30,61,356,0,31,22,318,0,2,28,51,0,5,59,55,0,7*53
$GPGSV,10,9,10,9,29,154,0,12,49,66,0,14,24,261,0,21,14,191,0,7*5E
$GPGSV,10,10,10,24,44,156,0,29,66,275,0,30,61,356,0,31,22,318,0,7*60
$GPGSA,A,3,02,05,09,12,14,21,24,29,30,31,,,1.8,0.9,1.5,1*2C
$GPZDA,080347.00,20,08,2021,-8,00*70
$GPGGA,080348,3113.99995,N,12130.87270,E,3,29,0.88,38.04,M,11.96,M,,*42
$GPRMC,080348,A,3113.99995,N,12130.87270,E,62.208,270.008,200821,0.000,E,A,V*52
$GPVTG,270.008,T,270.008,M,62.208,N,115.210,K*76
$GPGSV,10,1,10,2,28,51,0,5,59,55,0,9,29,154,0,12,49,66,0,1*5C
$GPGSV,10,2,10,14,24,261,0,21,14,191,0,24,44,156,0,29,66,276,0,1*53
$GPGSV,10,3,10,30,61,356,0,31,22,318,0,2,28,51,0,5,59,55,0,5*5A
$GPGSV,10,4,10,9,29,154,0,12,49,66,0,14,24,261,0,21,14,191,0,5*51
$GPGSV,10,5,10,24,44,156,0,29,66,276,0,30,61,356,0,31,22,318,0,5*55
$GPGSV,10,6,10,2,28,51,0,5,59,55,0,9,29,154,0,12,49,66,0,6*5C
$GPGSV,10,7,10,14,24,261,0,21,14,191,0,24,44,156,0,29,66,276,0,6*51
$GPGSV,10,8,10,30,61,356,0,31,22,318,0,2,28,51,0,5,59,55,0,7*53
$GPGSV,10,9,10,9,29,154,0,12,49,66,0,14,24,261,0,21,14,191,0,7*5E
$GPGSV,10,10,10,24,44,156,0,29,66,276,0,30,61,356,0,31,22,318,0,7*63
$GPGSA,A,3,02,05,09,12,14,21,24,29,30,31,,,1.8,0.9,1.5,1*2C
$GPZDA,080348.00,20,08,2021,-8,00*7F
$GPGGA,080349,3113.99995,N,12130.84821,E,3,29,0.88,38.04,M,11.96,M,,*4E
$GPRMC,080349,A,3113.99995,N,12130.84821,E,88.958,270.007,200821,0.000,E,A,V*5B
$GPVTG,270.007,T,270.007,M,88.958,N,164.751,K*7A
$GPGSV,10,1,10,2,28,51,0,5,59,55,0,9,29,154,0,12,49,66,0,1*5C
$GPGSV,10,2,10,14,24,261,0,21,14,191,0,24,44,156,0,29,66,276,0,1*53
$GPGSV,10,3,10,30,61,356,0,31,22,318,0,2,28,51,0,5,59,55,0,5*5A
$GPGSV,10,4,10,9,29,154,0,12,49,66,0,14,24,261,0,21,14,191,0,5*51
$GPGSV,10,5,10,24,44,156,0,29,66,276,0,30,61,356,0,31,22,318,0,5*55
$GPGSV,10,6,10,2,28,51,0,5,59,55,0,9,29,154,0,12,49,66,0,6*5C
$GPGSV,10,7,10,14,24,261,0,21,14,191,0,24,44,156,0,29,66,276,0,6*51
$GPGSV,10,8,10,30,61,356,0,31,22,318,0,2,28,51,0,5,59,55,0,7*53
$GPGSV,10,9,10,9,29,154,0,12,49,66,0,14,24,261,0,21,14,191,0,7*5E
$GPGSV,10,10,10,24,44,156,0,29,66,276,0,30,61,356,0,31,22,318,0,7*63
$GPGSA,A,3,02,05,09,12,14,21,24,29,30,31,,,1.8,0.9,1.5,1*2C
$GPZDA,080349.00,20,08,2021,-8,00*7E
$GPGGA,080350,3113.99996,N,12130.81506,E,3,29,0.88,38.04,M,11.96,M,,*48
$GPRMC,080350,A,3113.99996,N,12130.81506,E,115.708,270.007,200821,0.000,E,A,V*63
$GPVTG,270.007,T,270.007,M,115.708,N,214.292,K*4A
$GPGSV,10,1,10,2,28,51,0,5,59,55,0,9,29,154,0,12,49,66,0,1*5C
$GPGSV,10,2,10,14,24,261,0,21,14,191,0,24,44,156,0,29,66,276,0,1*53
$GPGSV,10,3,10,30,61,356,0,31,22,318,0,2,28,51,0,5,59,55,0,5*5A
$GPGSV,10,4,10,9,29,154,0,12,49,66,0,14,24,261,0,21,14,191,0,5*51
$GPGSV,10,5,10,24,44,156,0,29,66,276,0,30,61,356,0,31,22,318,0,5*55
$GPGSV,10,6,10,2,28,51,0,5,59,55,0,9,29,154,0,12,49,66,0,6*5C
$GPGSV,10,7,10,14,24,261,0,21,14,191,0,24,44,156,0,29,66,276,0,6*51
$GPGSV,10,8,10,30,61,356,0,31,22,318,0,2,28,51,0,5,59,55,0,7*53
$GPGSV,10,9,10,9,29,154,0,12,49,66,0,14,24,261,0,21,14,191,0,7*5E
$GPGSV,10,10,10,24,44,156,0,29,66,276,0,30,61,356,0,31,22,318,0,7*63
$GPGSA,A,3,02,05,09,12,14,21,24,29,30,31,,,1.8,0.9,1.5,1*2C
$GPZDA,080350.00,20,08,2021,-8,00*76
$GPGGA,080351,3113.99996,N,12130.77324,E,3,29,0.88,38.05,M,11.95,M,,*44
$GPRMC,080351,A,3113.99996,N,12130.77324,E,142.458,270.007,200821,0.000,E,A,V*69
$GPVTG,270.007,T,270.007,M,142.458,N,263.833,K*4F
$GPGSV,10,1,10,2,28,51,0,5,59,55,0,9,29,154,0,12,49,66,0,1*5C
$GPGSV,10,2,10,14,24,261,0,21,14,191,0,24,44,156,0,29,66,276,0,1*53
$GPGSV,10,3,10,30,61,356,0,31,22,318,0,2,28,51,0,5,59,55,0,5*5A
$GPGSV,10,4,10,9,29,154,0,12,49,66,0,14,24,261,0,21,14,191,0,5*51
$GPGSV,10,5,10,24,44,156,0,29,66,276,0,30,61,356,0,31,22,318,0,5*55
$GPGSV,10,6,10,2,28,51,0,5,59,55,0,9,29,154,0,12,49,66,0,6*5C
$GPGSV,10,7,10,14,24,261,0,21,14,191,0,24,44,156,0,29,66,276,0,6*51
$GPGSV,10,8,10,30,61,356,0,31,22,318,0,2,28,51,0,5,59,55,0,7*53
$GPGSV,10,9,10,9,29,154,0,12,49,66,0,14,24,261,0,21,14,191,0,7*5E
$GPGSV,10,10,10,24,44,156,0,29,66,276,0,30,61,356,0,31,22,318,0,7*63
$GPGSA,A,3,02,05,09,12,14,21,24,29,30,31,,,1.8,0.9,1.5,1*2C
$GPZDA,080351.00,20,08,2021,-8,00*77
$GPGGA,080352,3113.99997,N,12130.72306,E,3,29,0.88,38.05,M,11.95,M,,*43
$GPRMC,080352,A,3113.99997,N,12130.72306,E,161.986,270.006,200821,0.000,E,A,V*60
$GPVTG,270.006,T,270.006,M,161.986,N,299.998,K*45
$GPGSV,10,1,10,2,28,51,0,5,59,55,0,9,29,154,0,12,49,66,0,1*5C
$GPGSV,10,2,10,14,24,261,0,21,14,191,0,24,44,156,0,29,66,276,0,1*53
$GPGSV,10,3,10,30,61,356,0,31,22,318,0,2,28,51,0,5,59,55,0,5*5A
$GPGSV,10,4,10,9,29,154,0,12,49,66,0,14,24,261,0,21,14,191,0,5*51
$GPGSV,10,5,10,24,44,156,0,29,66,276,0,30,61,356,0,31,22,318,0,5*55
$GPGSV,10,6,10,2,28,51,0,5,59,55,0,9,29,154,0,12,49,66,0,6*5C
$GPGSV,10,7,10,14,24,261,0,21,14,191,0,24,44,156,0,29,66,276,0,6*51
$GPGSV,10,8,10,30,61,356,0,31,22,318,0,2,28,51,0,5,59,55,0,7*53
$GPGSV,10,9,10,9,29,154,0,12,49,66,0,14,24,261,0,21,14,191,0,7*5E
$GPGSV,10,10,10,24,44,156,0,29,66,276,0,30,61,356,0,31,22,318,0,7*63
$GPGSA,A,3,02,05,09,12,14,21,24,29,30,31,,,1.8,0.9,1.5,1*2C
$GPZDA,080352.00,20,08,2021,-8,00*74
$GPGGA,080353,3113.99997,N,12130.67058,E,3,29,0.88,38.05,M,11.95,M,,*4E
$GPRMC,080353,A,3113.99997,N,12130.67058,E,161.986,270.006,200821,0.000,E,A,V*6D
$GPVTG,270.006,T,270.006,M,161.986,N,299.998,K*45
$GPGSV,10,1,10,2,28,51,0,5,59,55,0,9,29,154,0,12,49,66,0,1*5C
$GPGSV,10,2,10,14,24,261,0,21,14,191,0,24,44,156,0,29,66,276,0,1*53
$GPGSV,10,3,10,30,61,356,0,31,22,318,0,2,28,51,0,5,59,55,0,5*5A
$GPGSV,10,4,10,9,29,154,0,12,49,66,0,14,24,261,0,21,14,191,0,5*51
$GPGSV,10,5,10,24,44,156,0,29,66,276,0,30,61,356,0,31,22,318,0,5*55
$GPGSV,10,6,10,2,28,51,0,5,59,55,0,9,29,154,0,12,49,66,0,6*5C
$GPGSV,10,7,10,14,24,261,0,21,14,191,0,24,44,156,0,29,66,276,0,6*51
$GPGSV,10,8,10,30,61,356,0,31,22,318,0,2,28,51,0,5,59,55,0,7*53
$GPGSV,10,9,10,9,29,154,0,12,49,66,0,14,24,261,0,21,14,191,0,7*5E
$GPGSV,10,10,10,24,44,156,0,29,66,276,0,30,61,356,0,31,22,318,0,7*63
$GPGSA,A,3,02,05,09,12,14,21,24,29,30,31,,,1.8,0.9,1.5,1*2C
$GPZDA,080353.00,20,08,2021,-8,00*75
$GPGGA,080354,3113.99998,N,12130.61810,E,3,29,0.88,38.06,M,11.94,M,,*46
$GPRMC,080354,A,3113.99998,N,12130.61810,E,161.986,270.005,200821,0.000,E,A,V*64
$GPVTG,270.005,T,270.005,M,161.986,N,299.998,K*45
$GPGSV,10,1,10,2,28,51,0,5,59,55,0,9,29,154,0,12,49,66,0,1*5C
$GPGSV,10,2,10,14,24,261,0,21,14,191,0,24,45,156,0,29,66,276,0,1*52
$GPGSV,10,3,10,30,61,357,0,31,22,318,0,2,28,51,0,5,59,55,0,5*5B
$GPGSV,10,4,10,9,29,154,0,12,49,66,0,14,24,261,0,21,14,191,0,5*51
$GPGSV,10,5,10,24,45,156,0,29,66,276,0,30,61,357,0,31,22,318,0,5*55
$GPGSV,10,6,10,2,28,51,0,5,59,55,0,9,29,154,0,12,49,66,0,6*5C
$GPGSV,10,7,10,14,24,261,0,21,14,191,0,24,45,156,0,29,66,276,0,6*50
$GPGSV,10,8,10,30,61,357,0,31,22,318,0,2,28,51,0,5,59,55,0,7*52
$GPGSV,10,9,10,9,29,154,0,12,49,66,0,14,24,261,0,21,14,191,0,7*5E
$GPGSV,10,10,10,24,45,156,0,29,66,276,0,30,61,357,0,31,22,318,0,7*63
$GPGSA,A,3,02,05,09,12,14,21,24,29,30,31,,,1.8,0.9,1.5,1*2C
$GPZDA,080354.00,20,08,2021,-8,00*72
$GPGGA,080355,3113.99998,N,12130.56562,E,3,29,0.88,38.06,M,11.94,M,,*4B
$GPRMC,080355,A,3113.99998,N,12130.56562,E,161.986,270.005,200821,0.000,E,A,V*69
$GPVTG,270.005,T,270.005,M,161.986,N,299.998,K*45
$GPGSV,10,1,10,2,28,51,0,5,59,55,0,9,29,154,0,12,49,66,0,1*5C
$GPGSV,10,2,10,14,24,261,0,21,14,191,0,24,45,156,0,29,66,276,0,1*52
$GPGSV,10,3,10,30,61,357,0,31,22,318,0,2,28,51,0,5,59,55,0,5*5B
$GPGSV,10,4,10,9,29,154,0,12,49,66,0,14,24,261,0,21,14,191,0,5*51
$GPGSV,10,5,10,24,45,156,0,29,66,276,0,30,61,357,0,31,22,318,0,5*55
$GPGSV,10,6,10,2,28,51,0,5,59,55,0,9,29,154,0,12,49,66,0,6*5C
$GPGSV,10,7,10,14,24,261,0,21,14,191,0,24,45,156,0,29,66,276,0,6*50
$GPGSV,10,8,10,30,61,357,0,31,22,318,0,2,28,51,0,5,59,55,0,7*52
$GPGSV,10,9,10,9,29,154,0,12,49,66,0,14,24,261,0,21,14,191,0,7*5E
$GPGSV,10,10,10,24,45,156,0,29,66,276,0,30,61,357,0,31,22,318,0,7*63
$GPGSA,A,3,02,05,09,12,14,21,24,29,30,31,,,1.8,0.9,1.5,1*2C
$GPZDA,080355.00,20,08,2021,-8,00*73
$GPGGA,080356,3113.99998,N,12130.51314,E,3,29,0.88,38.07,M,11.93,M,,*4E
$GPRMC,080356,A,3113.99998,N,12130.51314,E,161.986,270.004,200821,0.000,E,A,V*6B
$GPVTG,270.004,T,270.004,M,161.986,N,299.998,K*45
$GPGSV,10,1,10,2,28,51,0,5,59,55,0,9,29,154,0,12,49,66,0,1*5C
$GPGSV,10,2,10,14,24,261,0,21,14,191,0,24,45,156,0,29,66,276,0,1*52
$GPGSV,10,3,10,30,61,357,0,31,22,318,0,2,28,51,0,5,59,55,0,5*5B
$GPGSV,10,4,10,9,29,154,0,12,49,66,0,14,24,261,0,21,14,191,0,5*51
$GPGSV,10,5,10,24,45,156,0,29,66,276,0,30,61,357,0,31,22,318,0,5*55
$GPGSV,10,6,10,2,28,51,0,5,59,55,0,9,29,154,0,12,49,66,0,6*5C
$GPGSV,10,7,10,14,24,261,0,21,14,191,0,24,45,156,0,29,66,276,0,6*50
$GPGSV,10,8,10,30,61,357,0,31,22,318,0,2,28,51,0,5,59,55,0,7*52
$GPGSV,10,9,10,9,29,154,0,12,49,66,0,14,24,261,0,21,14,191,0,7*5E
$GPGSV,10,10,10,24,45,156,0,29,66,276,0,30,61,357,0,31,22,318,0,7*63
$GPGSA,A,3,02,05,09,12,14,21,24,29,30,31,,,1.8,0.9,1.5,1*2C
$GPZDA,080356.00,20,08,2021,-8,00*70
$GPGGA,080357,3113.99999,N,12130.46066,E,3,29,0.88,38.07,M,11.93,M,,*4E
$GPRMC,080357,A,3113.99999,N,12130.46066,E,161.986,270.004,200821,0.000,E,A,V*6B
$GPVTG,270.004,T,270.004,M,161.986,N,299.998,K*45
$GPGSV,10,1,10,2,28,51,0,5,59,55,0,9,29,154,0,12,49,66,0,1*5C
$GPGSV,10,2,10,14,24,261,0,21,14,191,0,24,45,156,0,29,66,276,0,1*52
$GPGSV,10,3,10,30,61,357,0,31,22,318,0,2,28,51,0,5,59,55,0,5*5B
$GPGSV,10,4,10,9,29,154,0,12,49,66,0,14,24,261,0,21,14,191,0,5*51
$GPGSV,10,5,10,24,45,156,0,29,66,276,0,30,61,357,0,31,22,318,0,5*55
$GPGSV,10,6,10,2,28,51,0,5,59,55,0,9,29,154,0,12,49,66,0,6*5C
$GPGSV,10,7,10,14,24,261,0,21,14,191,0,24,45,156,0,29,66,276,0,6*50
$GPGSV,10,8,10,30,61,357,0,31,22,318,0,2,28,51,0,5,59,55,0,7*52
$GPGSV,10,9,10,9,29,154,0,12,49,66,0,14,24,261,0,21,14,191,0,7*5E
$GPGSV,10,10,10,24,45,156,0,29,66,276,0,30,61,357,0,31,22,318,0,7*63
$GPGSA,A,3,02,05,09,12,14,21,24,29,30,31,,,1.8,0.9,1.5,1*2C
$GPZDA,080357.00,20,08,2021,-8,00*71
$GPGGA,080358,3113.99999,N,12130.40817,E,3,29,0.88,38.08,M,11.92,M,,*47
$GPRMC,080358,A,3113.99999,N,12130.40817,E,161.986,270.004,200821,0.000,E,A,V*6C
$GPVTG,270.004,T,270.004,M,161.986,N,299.998,K*45
$GPGSV,10,1,10,2,28,51,0,5,59,55,0,9,29,154,0,12,49,66,0,1*5C
$GPGSV,10,2,10,14,24,261,0,21,14,191,0,24,45,156,0,29,66,276,0,1*52
$GPGSV,10,3,10,30,61,357,0,31,22,318,0,2,28,51,0,5,59,55,0,5*5B
$GPGSV,10,4,10,9,29,154,0,12,49,66,0,14,24,261,0,21,14,191,0,5*51
$GPGSV,10,5,10,24,45,156,0,29,66,276,0,30,61,357,0,31,22,318,0,5*55
$GPGSV,10,6,10,2,28,51,0,5,59,55,0,9,29,154,0,12,49,66,0,6*5C
$GPGSV,10,7,10,14,24,261,0,21,14,191,0,24,45,156,0,29,66,276,0,6*50
$GPGSV,10,8,10,30,61,357,0,31,22,318,0,2,28,51,0,5,59,55,0,7*52
$GPGSV,10,9,10,9,29,154,0,12,49,66,0,14,24,261,0,21,14,191,0,7*5E
$GPGSV,10,10,10,24,45,156,0,29,66,276,0,30,61,357,0,31,22,318,0,7*63
$GPGSA,A,3,02,05,09,12,14,21,24,29,30,31,,,1.8,0.9,1.5,1*2C
$GPZDA,080358.00,20,08,2021,-8,00*7E
$GPGGA,080359,3113.99999,N,12130.35569,E,3,29,0.88,38.08,M,11.92,M,,*40
$GPRMC,080359,A,3113.99999,N,12130.35569,E,161.986,270.003,200821,0.000,E,A,V*6C
$GPVTG,270.003,T,270.003,M,161.986,N,299.998,K*45
$GPGSV,10,1,10,2,28,51,0,5,59,55,0,9,29,154,0,12,49,66,0,1*5C
$GPGSV,10,2,10,14,24,261,0,21,14,191,0,24,45,156,0,29,66,276,0,1*52
$GPGSV,10,3,10,30,61,357,0,31,22,318,0,2,28,51,0,5,59,55,0,5*5B
$GPGSV,10,4,10,9,29,154,0,12,49,66,0,14,24,261,0,21,14,191,0,5*51
$GPGSV,10,5,10,24,45,156,0,29,66,276,0,30,61,357,0,31,22,318,0,5*55
$GPGSV,10,6,10,2,28,51,0,5,59,55,0,9,29,154,0,12,49,66,0,6*5C
$GPGSV,10,7,10,14,24,261,0,21,14,191,0,24,45,156,0,29,66,276,0,6*50
$GPGSV,10,8,10,30,61,357,0,31,22,318,0,2,28,51,0,5,59,55,0,7*52
$GPGSV,10,9,10,9,29,154,0,12,49,66,0,14,24,261,0,21,14,191,0,7*5E
$GPGSV,10,10,10,24,45,156,0,29,66,276,0,30,61,357,0,31,22,318,0,7*63
$GPGSA,A,3,02,05,09,12,14,21,24,29,30,31,,,1.8,0.9,1.5,1*2C
$GPZDA,080359.00,20,08,2021,-8,00*7F
$GPGGA,080400,3113.99999,N,12130.30321,E,3,29,0.88,38.09,M,11.91,M,,*46
$GPRMC,080400,A,3113.99999,N,12130.30321,E,161.986,270.003,200821,0.000,E,A,V*68
$GPVTG,270.003,T,270.003,M,161.986,N,299.998,K*45
$GPGSV,10,1,10,2,28,51,0,5,59,55,0,9,29,154,0,12,49,66,0,1*5C
$GPGSV,10,2,10,14,24,260,0,21,14,191,0,24,45,156,0,29,66,276,0,1*53
$GPGSV,10,3,10,30,61,357,0,31,23,318,0,2,28,51,0,5,59,55,0,5*5A
$GPGSV,10,4,10,9,29,154,0,12,49,66,0,14,24,260,0,21,14,191,0,5*50
$GPGSV,10,5,10,24,45,156,0,29,66,276,0,30,61,357,0,31,23,318,0,5*54
$GPGSV,10,6,10,2,28,51,0,5,59,55,0,9,29,154,0,12,49,66,0,6*5C
$GPGSV,10,7,10,14,24,260,0,21,14,191,0,24,45,156,0,29,66,276,0,6*51
$GPGSV,10,8,10,30,61,357,0,31,23,318,0,2,28,51,0,5,59,55,0,7*53
$GPGSV,10,9,10,9,29,154,0,12,49,66,0,14,24,260,0,21,14,191,0,7*5F
$GPGSV,10,10,10,24,45,156,0,29,66,276,0,30,61,357,0,31,23,318,0,7*62
$GPGSA,A,3,02,05,09,12,14,21,24,29,30,31,,,1.8,0.9,1.5,1*2C
$GPZDA,080400.00,20,08,2021,-8,00*74
$GPGGA,080401,3114.00000,N,12130.25073,E,3,29,0.88,38.09,M,11.91,M,,*49
$GPRMC,080401,A,3114.00000,N,12130.25073,E,161.986,270.002,200821,0.000,E,A,V*66
$GPVTG,270.002,T,270.002,M,161.986,N,299.998,K*45
$GPGSV,10,1,10,2,28,51,0,5,59,55,0,9,29,154,0,12,49,66,0,1*5C
$GPGSV,10,2,10,14,24,260,0,21,14,191,0,24,45,156,0,29,66,276,0,1*53
$GPGSV,10,3,10,30,61,357,0,31,23,318,0,2,28,51,0,5,59,55,0,5*5A
$GPGSV,10,4,10,9,29,154,0,12,49,66,0,14,24,260,0,21,14,191,0,5*50
$GPGSV,10,5,10,24,45,156,0,29,66,276,0,30,61,357,0,31,23,318,0,5*54
$GPGSV,10,6,10,2,28,51,0,5,59,55,0,9,29,154,0,12,49,66,0,6*5C
$GPGSV,10,7,10,14,24,260,0,21,14,191,0,24,45,156,0,29,66,276,0,6*51
$GPGSV,10,8,10,30,61,357,0,31,23,318,0,2,28,51,0,5,59,55,0,7*53
$GPGSV,10,9,10,9,29,154,0,12,49,66,0,14,24,260,0,21,14,191,0,7*5F
$GPGSV,10,10,10,24,45,156,0,29,66,276,0,30,61,357,0,31,23,318,0,7*62
$GPGSA,A,3,02,05,09,12,14,21,24,29,30,31,,,1.8,0.9,1.5,1*2C
$GPZDA,080401.00,20,08,2021,-8,00*75
$GPGGA,080402,3114.00000,N,12130.19825,E,3,29,0.88,38.10,M,11.90,M,,*47
$GPRMC,080402,A,3114.00000,N,12130.19825,E,161.986,270.002,200821,0.000,E,A,V*61
$GPVTG,270.002,T,270.002,M,161.986,N,299.998,K*45
$GPGSV,10,1,10,2,28,51,0,5,59,55,0,9,29,154,0,12,49,66,0,1*5C
$GPGSV,10,2,10,14,24,260,0,21,14,191,0,24,45,156,0,29,66,276,0,1*53
$GPGSV,10,3,10,30,61,357,0,31,23,318,0,2,28,51,0,5,59,55,0,5*5A
$GPGSV,10,4,10,9,29,154,0,12,49,66,0,14,24,260,0,21,14,191,0,5*50
$GPGSV,10,5,10,24,45,156,0,29,66,276,0,30,61,357,0,31,23,318,0,5*54
$GPGSV,10,6,10,2,28,51,0,5,59,55,0,9,29,154,0,12,49,66,0,6*5C
$GPGSV,10,7,10,14,24,260,0,21,14,191,0,24,45,156,0,29,66,276,0,6*51
$GPGSV,10,8,10,30,61,357,0,31,23,318,0,2,28,51,0,5,59,55,0,7*53
$GPGSV,10,9,10,9,29,154,0,12,49,66,0,14,24,260,0,21,14,191,0,7*5F
$GPGSV,10,10,10,24,45,156,0,29,66,276,0,30,61,357,0,31,23,318,0,7*62
$GPGSA,A,3,02,05,09,12,14,21,24,29,30,31,,,1.8,0.9,1.5,1*2C
$GPZDA,080402.00,20,08,2021,-8,00*76
$GPGGA,080403,3114.00000,N,12130.14668,E,3,29,0.88,38.10,M,11.90,M,,*4C
$GPRMC,080403,A,3114.00000,N,12130.14668,E,149.681,270.001,200821,0.000,E,A,V*6B
$GPVTG,270.001,T,270.001,M,149.681,N,277.209,K*44
$GPGSV,10,1,10,2,28,51,0,5,59,55,0,9,29,154,0,12,49,66,0,1*5C
$GPGSV,10,2,10,14,24,260,0,21,14,191,0,24,45,156,0,29,66,276,0,1*53
$GPGSV,10,3,10,30,61,357,0,31,23,318,0,2,28,51,0,5,59,55,0,5*5A
$GPGSV,10,4,10,9,29,154,0,12,49,66,0,14,24,260,0,21,14,191,0,5*50
$GPGSV,10,5,10,24,45,156,0,29,66,276,0,30,61,357,0,31,23,318,0,5*54
$GPGSV,10,6,10,2,28,51,0,5,59,55,0,9,29,154,0,12,49,66,0,6*5C
$GPGSV,10,7,10,14,24,260,0,21,14,191,0,24,45,156,0,29,66,276,0,6*51
$GPGSV,10,8,10,30,61,357,0,31,23,318,0,2,28,51,0,5,59,55,0,7*53
$GPGSV,10,9,10,9,29,154,0,12,49,66,0,14,24,260,0,21,14,191,0,7*5F
$GPGSV,10,10,10,24,45,156,0,29,66,276,0,30,61,357,0,31,23,318,0,7*62
$GPGSA,A,3,02,05,09,12,14,21,24,29,30,31,,,1.8,0.9,1.5,1*2C
$GPZDA,080403.00,20,08,2021,-8,00*77
$GPGGA,080404,3114.00000,N,12130.10252,E,3,29,0.88,38.11,M,11.89,M,,*4B
$GPRMC,080404,A,3114.00000,N,12130.10252,E,122.931,270.001,200821,0.000,E,A,V*6C
$GPVTG,270.001,T,270.001,M,122.931,N,227.668,K*4B
$GPGSV,10,1,10,2,28,51,0,5,59,55,0,9,29,154,0,12,49,66,0,1*5C
$GPGSV,10,2,10,14,24,260,0,21,14,191,0,24,45,156,0,29,66,276,0,1*53
$GPGSV,10,3,10,30,61,357,0,31,23,318,0,2,28,51,0,5,59,55,0,5*5A
$GPGSV,10,4,10,9,29,154,0,12,49,66,0,14,24,260,0,21,14,191,0,5*50
$GPGSV,10,5,10,24,45,156,0,29,66,276,0,30,61,357,0,31,23,318,0,5*54
$GPGSV,10,6,10,2,28,51,0,5,59,55,0,9,29,154,0,12,49,66,0,6*5C
$GPGSV,10,7,10,14,24,260,0,21,14,191,0,24,45,156,0,29,66,276,0,6*51
$GPGSV,10,8,10,30,61,357,0,31,23,318,0,2,28,51,0,5,59,55,0,7*53
$GPGSV,10,9,10,9,29,154,0,12,49,66,0,14,24,260,0,21,14,191,0,7*5F
$GPGSV,10,10,10,24,45,156,0,29,66,276,0,30,61,357,0,31,23,318,0,7*62
$GPGSA,A,3,02,05,09,12,14,21,24,29,30,31,,,1.8,0.9,1.5,1*2C
$GPZDA,080404.00,20,08,2021,-8,00*70
$GPGGA,080405,3114.00000,N,12130.06703,E,3,29,0.88,38.11,M,11.89,M,,*4C
$GPRMC,080405,A,3114.00000,N,12130.06703,E,96.181,270.001,200821,0.000,E,A,V*56
$GPVTG,270.001,T,270.001,M,96.181,N,178.127,K*73
$GPGSV,10,1,10,2,28,51,0,5,59,55,0,9,29,154,0,12,49,66,0,1*5C
$GPGSV,10,2,10,14,24,260,0,21,14,191,0,24,45,156,0,29,66,276,0,1*53
$GPGSV,10,3,10,30,61,357,0,31,23,318,0,2,28,51,0,5,59,55,0,5*5A
$GPGSV,10,4,10,9,29,154,0,12,49,66,0,14,24,260,0,21,14,191,0,5*50
$GPGSV,10,5,10,24,45,156,0,29,66,276,0,30,61,357,0,31,23,318,0,5*54
$GPGSV,10,6,10,2,28,51,0,5,59,55,0,9,29,154,0,12,49,66,0,6*5C
$GPGSV,10,7,10,14,24,260,0,21,14,191,0,24,45,156,0,29,66,276,0,6*51
$GPGSV,10,8,10,30,61,357,0,31,23,318,0,2,28,51,0,5,59,55,0,7*53
$GPGSV,10,9,10,9,29,154,0,12,49,66,0,14,24,260,0,21,14,191,0,7*5F
$GPGSV,10,10,10,24,45,156,0,29,66,276,0,30,61,357,0,31,23,318,0,7*62
$GPGSA,A,3,02,05,09,12,14,21,24,29,30,31,,,1.8,0.9,1.5,1*2C
$GPZDA,080405.00,20,08,2021,-8,00*71
$GPGGA,080406,3114.00000,N,12130.04020,E,3,29,0.88,38.11,M,11.89,M,,*4B
$GPRMC,080406,A,3114.00000,N,12130.04020,E,69.431,270.000,200821,0.000,E,A,V*5E
$GPVTG,270.000,T,270.000,M,69.431,N,128.586,K*77
$GPGSV,10,1,10,2,28,51,0,5,59,55,0,9,29,154,0,12,49,66,0,1*5C
$GPGSV,10,2,10,14,24,260,0,21,14,191,0,24,45,156,0,29,66,276,0,1*53
$GPGSV,10,3,10,30,61,357,0,31,23,318,0,2,28,51,0,5,59,55,0,5*5A
$GPGSV,10,4,10,9,29,154,0,12,49,66,0,14,24,260,0,21,14,191,0,5*50
$GPGSV,10,5,10,24,45,156,0,29,66,276,0,30,61,357,0,31,23,318,0,5*54
$GPGSV,10,6,10,2,28,51,0,5,59,55,0,9,29,154,0,12,49,66,0,6*5C
$GPGSV,10,7,10,14,24,260,0,21,14,191,0,24,45,156,0,29,66,276,0,6*51
$GPGSV,10,8,10,30,61,357,0,31,23,318,0,2,28,51,0,5,59,55,0,7*53
$GPGSV,10,9,10,9,29,154,0,12,49,66,0,14,24,260,0,21,14,191,0,7*5F
$GPGSV,10,10,10,24,45,156,0,29,66,276,0,30,61,357,0,31,23,318,0,7*62
$GPGSA,A,3,02,05,09,12,14,21,24,29,30,31,,,1.8,0.9,1.5,1*2C
$GPZDA,080406.00,20,08,2021,-8,00*72
$GPGGA,080407,3114.00000,N,12130.02204,E,3,29,0.88,38.12,M,11.88,M,,*4A
$GPRMC,080407,A,3114.00000,N,12130.02204,E,42.681,270.000,200821,0.000,E,A,V*5D
$GPVTG,270.000,T,270.000,M,42.681,N,79.045,K*48
$GPGSV,10,1,10,2,28,51,0,5,59,55,0,9,29,154,0,12,49,66,0,1*5C
$GPGSV,10,2,10,14,24,260,0,21,14,191,0,24,45,156,0,29,66,276,0,1*53
$GPGSV,10,3,10,30,61,357,0,31,23,318,0,2,28,51,0,5,59,55,0,5*5A
$GPGSV,10,4,10,9,29,154,0,12,49,66,0,14,24,260,0,21,14,191,0,5*50
$GPGSV,10,5,10,24,45,156,0,29,66,276,0,30,61,357,0,31,23,318,0,5*54
$GPGSV,10,6,10,2,28,51,0,5,59,55,0,9,29,154,0,12,49,66,0,6*5C
$GPGSV,10,7,10,14,24,260,0,21,14,191,0,24,45,156,0,29,66,276,0,6*51
$GPGSV,10,8,10,30,61,357,0,31,23,318,0,2,28,51,0,5,59,55,0,7*53
$GPGSV,10,9,10,9,29,154,0,12,49,66,0,14,24,260,0,21,14,191,0,7*5F
$GPGSV,10,10,10,24,45,156,0,29,66,276,0,30,61,357,0,31,23,318,0,7*62
$GPGSA,A,3,02,05,09,12,14,21,24,29,30,31,,,1.8,0.9,1.5,1*2C
$GPZDA,080407.00,20,08,2021,-8,00*73
$GPGGA,080408,3114.00000,N,12130.01254,E,3,29,0.88,38.12,M,11.88,M,,*43
$GPRMC,080408,A,3114.00000,N,12130.01254,E,16.199,270.239,200821,0.000,E,A,V*53
$GPVTG,270.239,T,270.239,M,16.199,N,30.000,K*4B
$GPGSV,10,1,10,2,28,51,0,5,59,55,0,9,29,154,0,12,49,66,0,1*5C
$GPGSV,10,2,10,14,24,260,0,21,14,191,0,24,45,156,0,29,66,276,0,1*53
$GPGSV,10,3,10,30,61,357,0,31,23,318,0,2,28,51,0,5,59,55,0,5*5A
$GPGSV,10,4,10,9,29,154,0,12,49,66,0,14,24,260,0,21,14,191,0,5*50
$GPGSV,10,5,10,24,45,156,0,29,66,276,0,30,61,357,0,31,23,318,0,5*54
$GPGSV,10,6,10,2,28,51,0,5,59,55,0,9,29,154,0,12,49,66,0,6*5C
$GPGSV,10,7,10,14,24,260,0,21,14,191,0,24,45,156,0,29,66,276,0,6*51
$GPGSV,10,8,10,30,61,357,0,31,23,318,0,2,28,51,0,5,59,55,0,7*53
$GPGSV,10,9,10,9,29,154,0,12,49,66,0,14,24,260,0,21,14,191,0,7*5F
$GPGSV,10,10,10,24,45,156,0,29,66,276,0,30,61,357,0,31,23,318,0,7*62
$GPGSA,A,3,02,05,09,12,14,21,24,29,30,31,,,1.8,0.9,1.5,1*2C
$GPZDA,080408.00,20,08,2021,-8,00*7C
$GPGGA,080409,3114.00094,N,12130.00745,E,3,29,0.88,38.12,M,11.88,M,,*4B
$GPRMC,080409,A,3114.00094,N,12130.00745,E,16.199,294.112,200821,0.000,E,A,V*5B
$GPVTG,294.112,T,294.112,M,16.199,N,30.000,K*4B
$GPGSV,10,1,10,2,28,51,0,5,59,55,0,9,29,154,0,12,49,66,0,1*5C
$GPGSV,10,2,10,14,24,260,0,21,14,191,0,24,45,156,0,29,66,276,0,1*53
$GPGSV,10,3,10,30,61,357,0,31,23,318,0,2,28,51,0,5,59,55,0,5*5A
$GPGSV,10,4,10,9,29,154,0,12,49,66,0,14,24,260,0,21,14,191,0,5*50
$GPGSV,10,5,10,24,45,156,0,29,66,276,0,30,61,357,0,31,23,318,0,5*54
$GPGSV,10,6,10,2,28,51,0,5,59,55,0,9,29,154,0,12,49,66,0,6*5C
$GPGSV,10,7,10,14,24,260,0,21,14,191,0,24,45,156,0,29,66,276,0,6*51
$GPGSV,10,8,10,30,61,357,0,31,23,318,0,2,28,51,0,5,59,55,0,7*53
$GPGSV,10,9,10,9,29,154,0,12,49,66,0,14,24,260,0,21,14,191,0,7*5F
$GPGSV,10,10,10,24,45,156,0,29,66,276,0,30,61,357,0,31,23,318,0,7*62
$GPGSA,A,3,02,05,09,12,14,21,24,29,30,31,,,1.8,0.9,1.5,1*2C
$GPZDA,080409.00,20,08,2021,-8,00*7D
$GPGGA,080410,3114.00358,N,12130.00324,E,3,29,0.88,38.12,M,11.88,M,,*43
$GPRMC,080410,A,3114.00358,N,12130.00324,E,16.199,317.985,200821,0.000,E,A,V*5F
$GPVTG,317.985,T,317.985,M,16.199,N,30.000,K*4B
$GPGSV,10,1,10,2,28,51,0,5,59,55,0,9,29,154,0,12,49,66,0,1*5C
$GPGSV,10,2,10,14,24,260,0,21,14,191,0,24,45,156,0,29,66,276,0,1*53
$GPGSV,10,3,10,30,61,357,0,31,23,318,0,2,28,51,0,5,59,55,0,5*5A
$GPGSV,10,4,10,9,29,154,0,12,49,66,0,14,24,260,0,21,14,191,0,5*50
$GPGSV,10,5,10,24,45,156,0,29,66,276,0,30,61,357,0,31,23,318,0,5*54
$GPGSV,10,6,10,2,28,51,0,5,59,55,0,9,29,154,0,12,49,66,0,6*5C
$GPGSV,10,7,10,14,24,260,0,21,14,191,0,24,45,156,0,29,66,276,0,6*51
$GPGSV,10,8,10,30,61,357,0,31,23,318,0,2,28,51,0,5,59,55,0,7*53
$GPGSV,10,9,10,9,29,154,0,12,49,66,0,14,24,260,0,21,14,191,0,7*5F
$GPGSV,10,10,10,24,45,156,0,29,66,276,0,30,61,357,0,31,23,318,0,7*62
$GPGSA,A,3,02,05,09,12,14,21,24,29,30,31,,,1.8,0.9,1.5,1*2C
$GPZDA,080410.00,20,08,2021,-8,00*75
$GPGGA,080411,3114.00745,N,12130.00063,E,3,29,0.88,38.12,M,11.88,M,,*4A
$GPRMC,080411,A,3114.00745,N,12130.00063,E,16.199,341.858,200821,0.000,E,A,V*54
$GPVTG,341.858,T,341.858,M,16.199,N,30.000,K*4B
$GPGSV,10,1,10,2,28,51,0,5,59,55,0,9,29,154,0,12,49,66,0,1*5C
$GPGSV,10,2,10,14,24,260,0,21,14,191,0,24,45,156,0,29,66,276,0,1*53
$GPGSV,10,3,10,30,61,357,0,31,23,318,0,2,28,51,0,5,59,55,0,5*5A
$GPGSV,10,4,10,9,29,154,0,12,49,66,0,14,24,260,0,21,14,191,0,5*50
$GPGSV,10,5,10,24,45,156,0,29,66,276,0,30,61,357,0,31,23,318,0,5*54
$GPGSV,10,6,10,2,28,51,0,5,59,55,0,9,29,154,0,12,49,66,0,6*5C
$GPGSV,10,7,10,14,24,260,0,21,14,191,0,24,45,156,0,29,66,276,0,6*51
$GPGSV,10,8,10,30,61,357,0,31,23,318,0,2,28,51,0,5,59,55,0,7*53
$GPGSV,10,9,10,9,29,154,0,12,49,66,0,14,24,260,0,21,14,191,0,7*5F
$GPGSV,10,10,10,24,45,156,0,29,66,276,0,30,61,357,0,31,23,318,0,7*62
$GPGSA,A,3,02,05,09,12,14,21,24,29,30,31,,,1.8,0.9,1.5,1*2C
$GPZDA,080411.00,20,08,2021,-8,00*74
$GPGGA,080412,3114.01212,N,12130.00000,E,3,29,0.88,38.12,M,11.88,M,,*4A
$GPRMC,080412,A,3114.01212,N,12130.00000,E,22.619,0.000,200821,0.000,E,A,V*5F
$GPVTG,0.000,T,0.000,M,22.619,N,41.890,K*44
$GPGSV,10,1,10,2,27,51,0,5,59,55,0,9,29,154,0,12,49,66,0,1*53
$GPGSV,10,2,10,14,24,260,0,21,14,191,0,24,45,156,0,29,66,276,0,1*53
$GPGSV,10,3,10,30,61,357,0,31,23,318,0,2,27,51,0,5,59,55,0,5*55
$GPGSV,10,4,10,9,29,154,0,12,49,66,0,14,24,260,0,21,14,191,0,5*50
$GPGSV,10,5,10,24,45,156,0,29,66,276,0,30,61,357,0,31,23,318,0,5*54
$GPGSV,10,6,10,2,27,51,0,5,59,55,0,9,29,154,0,12,49,66,0,6*53
$GPGSV,10,7,10,14,24,260,0,21,14,191,0,24,45,156,0,29,66,276,0,6*51
$GPGSV,10,8,10,30,61,357,0,31,23,318,0,2,27,51,0,5,59,55,0,7*5C
$GPGSV,10,9,10,9,29,154,0,12,49,66,0,14,24,260,0,21,14,191,0,7*5F
$GPGSV,10,10,10,24,45,156,0,29,66,276,0,30,61,357,0,31,23,318,0,7*62
$GPGSA,A,3,02,05,09,12,14,21,24,29,30,31,,,1.8,0.9,1.5,1*2C
$GPZDA,080412.00,20,08,2021,-8,00*77
$GPGGA,080413,3114.02214,N,12130.00000,E,3,29,0.88,38.12,M,11.88,M,,*4E
$GPRMC,080413,A,3114.02214,N,12130.00000,E,49.369,0.000,200821,0.000,E,A,V*54
$GPVTG,0.000,T,0.000,M,49.369,N,91.430,K*40
$GPGSV,10,1,10,2,27,51,0,5,59,55,0,9,29,154,0,12,49,66,0,1*53
$GPGSV,10,2,10,14,24,260,0,21,14,191,0,24,45,156,0,29,66,276,0,1*53
$GPGSV,10,3,10,30,61,357,0,31,23,318,0,2,27,51,0,5,59,55,0,5*55
$GPGSV,10,4,10,9,29,154,0,12,49,66,0,14,24,260,0,21,14,191,0,5*50
$GPGSV,10,5,10,24,45,156,0,29,66,276,0,30,61,357,0,31,23,318,0,5*54
$GPGSV,10,6,10,2,27,51,0,5,59,55,0,9,29,154,0,12,49,66,0,6*53
$GPGSV,10,7,10,14,24,260,0,21,14,191,0,24,45,156,0,29,66,276,0,6*51
$GPGSV,10,8,10,30,61,357,0,31,23,318,0,2,27,51,0,5,59,55,0,7*5C
$GPGSV,10,9,10,9,29,154,0,12,49,66,0,14,24,260,0,21,14,191,0,7*5F
$GPGSV,10,10,10,24,45,156,0,29,66,276,0,30,61,357,0,31,23,318,0,7*62
$GPGSA,A,3,02,05,09,12,14,21,24,29,30,31,,,1.8,0.9,1.5,1*2C
$GPZDA,080413.00,20,08,2021,-8,00*76
$GPGGA,080414,3114.03961,N,12130.00000,E,3,29,0.88,38.12,M,11.88,M,,*41
$GPRMC,080414,A,3114.03961,N,12130.00000,E,76.118,0.000,200821,0.000,E,A,V*53
$GPVTG,0.000,T,0.000,M,76.118,N,140.971,K*7D
$GPGSV,10,1,10,2,27,51,0,5,59,55,0,9,29,154,0,12,49,66,0,1*53
$GPGSV,10,2,10,14,24,260,0,21,14,191,0,24,45,156,0,29,66,276,0,1*53
$GPGSV,10,3,10,30,61,357,0,31,23,318,0,2,27,51,0,5,59,55,0,5*55
$GPGSV,10,4,10,9,29,154,0,12,49,66,0,14,24,260,0,21,14,191,0,5*50
$GPGSV,10,5,10,24,45,156,0,29,66,276,0,30,61,357,0,31,23,318,0,5*54
$GPGSV,10,6,10,2,27,51,0,5,59,55,0,9,29,154,0,12,49,66,0,6*53
$GPGSV,10,7,10,14,24,260,0,21,14,191,0,24,45,156,0,29,66,276,0,6*51
$GPGSV,10,8,10,30,61,357,0,31,23,318,0,2,27,51,0,5,59,55,0,7*5C
$GPGSV,10,9,10,9,29,154,0,12,49,66,0,14,24,260,0,21,14,191,0,7*5F
$GPGSV,10,10,10,24,45,156,0,29,66,276,0,30,61,357,0,31,23,318,0,7*62
$GPGSA,A,3,02,05,09,12,14,21,24,29,30,31,,,1.8,0.9,1.5,1*2C
$GPZDA,080414.00,20,08,2021,-8,00*71
$GPGGA,080415,3114.06452,N,12130.00000,E,3,29,0.88,38.12,M,11.88,M,,*48
$GPRMC,080415,A,3114.06452,N,12130.00000,E,102.868,0.000,200821,0.000,E,A,V*66
$GPVTG,0.000,T,0.000,M,102.868,N,190.512,K*45
$GPGSV,10,1,10,2,27,51,0,5,59,55,0,9,29,154,0,12,49,66,0,1*53
$GPGSV,10,2,10,14,24,260,0,21,14,191,0,24,45,156,0,29,66,276,0,1*53
$GPGSV,10,3,10,30,61,357,0,31,23,318,0,2,27,51,0,5,59,55,0,5*55
$GPGSV,10,4,10,9,29,154,0,12,49,66,0,14,24,260,0,21,14,191,0,5*50
$GPGSV,10,5,10,24,45,156,0,29,66,276,0,30,61,357,0,31,23,318,0,5*54
$GPGSV,10,6,10,2,27,51,0,5,59,55,0,9,29,154,0,12,49,66,0,6*53
$GPGSV,10,7,10,14,24,260,0,21,14,191,0,24,45,156,0,29,66,276,0,6*51
$GPGSV,10,8,10,30,61,357,0,31,23,318,0,2,27,51,0,5,59,55,0,7*5C
$GPGSV,10,9,10,9,29,154,0,12,49,66,0,14,24,260,0,21,14,191,0,7*5F
$GPGSV,10,10,10,24,45,156,0,29,66,276,0,30,61,357,0,31,23,318,0,7*62
$GPGSA,A,3,02,05,09,12,14,21,24,29,30,31,,,1.8,0.9,1.5,1*2C
$GPZDA,080415.00,20,08,2021,-8,00*70
$GPGGA,080416,3114.09688,N,12130.00000,E,3,29,0.88,38.12,M,11.88,M,,*41
$GPRMC,080416,A,3114.09688,N,12130.00000,E,129.618,0.000,200821,0.000,E,A,V*6F
$GPVTG,0.000,T,0.000,M,129.618,N,240.053,K*4B
$GPGSV,10,1,10,2,27,51,0,5,59,55,0,9,29,154,0,12,49,66,0,1*53
$GPGSV,10,2,10,14,24,260,0,21,14,191,0,24,45,156,0,29,66,276,0,1*53
$GPGSV,10,3,10,30,61,357,0,31,23,318,0,2,27,51,0,5,59,55,0,5*55
$GPGSV,10,4,10,9,29,154,0,12,49,66,0,14,24,260,0,21,14,191,0,5*50
$GPGSV,10,5,10,24,45,156,0,29,66,276,0,30,61,357,0,31,23,318,0,5*54
$GPGSV,10,6,10,2,27,51,0,5,59,55,0,9,29,154,0,12,49,66,0,6*53
$GPGSV,10,7,10,14,24,260,0,21,14,191,0,24,45,156,0,29,66,276,0,6*51
$GPGSV,10,8,10,30,61,357,0,31,23,318,0,2,27,51,0,5,59,55,0,7*5C
$GPGSV,10,9,10,9,29,154,0,12,49,66,0,14,24,260,0,21,14,191,0,7*5F
$GPGSV,10,10,10,24,45,156,0,29,66,276,0,30,61,357,0,31,23,318,0,7*62
$GPGSA,A,3,02,05,09,12,14,21,24,29,30,31,,,1.8,0.9,1.5,1*2C
$GPZDA,080416.00,20,08,2021,-8,00*73
$GPGGA,080417,3114.13669,N,12130.00000,E,3,29,0.88,38.12,M,11.88,M,,*44
$GPRMC,080417,A,3114.13669,N,12130.00000,E,156.368,0.000,200821,0.000,E,A,V*60
$GPVTG,0.000,T,0.000,M,156.368,N,289.594,K*4A
$GPGSV,10,1,10,2,27,51,0,5,59,55,0,9,29,154,0,12,49,66,0,1*53
$GPGSV,10,2,10,14,24,260,0,21,14,191,0,24,45,156,0,29,66,276,0,1*53
$GPGSV,10,3,10,30,61,357,0,31,23,318,0,2,27,51,0,5,59,55,0,5*55
$GPGSV,10,4,10,9,29,154,0,12,49,66,0,14,24,260,0,21,14,191,0,5*50
$GPGSV,10,5,10,24,45,156,0,29,66,276,0,30,61,357,0,31,23,318,0,5*54
$GPGSV,10,6,10,2,27,51,0,5,59,55,0,9,29,154,0,12,49,66,0,6*53
$GPGSV,10,7,10,14,24,260,0,21,14,191,0,24,45,156,0,29,66,276,0,6*51
$GPGSV,10,8,10,30,61,357,0,31,23,318,0,2,27,51,0,5,59,55,0,7*5C
$GPGSV,10,9,10,9,29,154,0,12,49,66,0,14,24,260,0,21,14,191,0,7*5F
$GPGSV,10,10,10,24,45,156,0,29,66,276,0,30,61,357,0,31,23,318,0,7*62
$GPGSA,A,3,02,05,09,12,14,21,24,29,30,31,,,1.8,0.9,1.5,1*2C
$GPZDA,080417.00,20,08,2021,-8,00*72
$GPGGA,080418,3114.18162,N,12130.00000,E,3,29,0.88,38.12,M,11.88,M,,*4C
$GPRMC,080418,A,3114.18162,N,12130.00000,E,161.986,0.000,200821,0.000,E,A,V*66
$GPVTG,0.000,T,0.000,M,161.986,N,299.998,K*45
$GPGSV,10,1,10,2,27,51,0,5,59,55,0,9,29,154,0,12,49,66,0,1*53
$GPGSV,10,2,10,14,24,260,0,21,14,191,0,24,45,156,0,29,66,276,0,1*53
$GPGSV,10,3,10,30,61,357,0,31,23,318,0,2,27,51,0,5,59,55,0,5*55
$GPGSV,10,4,10,9,29,154,0,12,49,66,0,14,24,260,0,21,14,191,0,5*50
$GPGSV,10,5,10,24,45,156,0,29,66,276,0,30,61,357,0,31,23,318,0,5*54
$GPGSV,10,6,10,2,27,51,0,5,59,55,0,9,29,154,0,12,49,66,0,6*53
$GPGSV,10,7,10,14,24,260,0,21,14,191,0,24,45,156,0,29,66,276,0,6*51
$GPGSV,10,8,10,30,61,357,0,31,23,318,0,2,27,51,0,5,59,55,0,7*5C
$GPGSV,10,9,10,9,29,154,0,12,49,66,0,14,24,260,0,21,14,191,0,7*5F
$GPGSV,10,10,10,24,45,156,0,29,66,276,0,30,61,357,0,31,23,318,0,7*62
$GPGSA,A,3,02,05,09,12,14,21,24,29,30,31,,,1.8,0.9,1.5,1*2C
$GPZDA,080418.00,20,08,2021,-8,00*7D
$GPGGA,080419,3114.22672,N,12130.00000,E,3,29,0.88,38.12,M,11.88,M,,*42
$GPRMC,080419,A,3114.22672,N,12130.00000,E,161.986,0.000,200821,0.000,E,A,V*68
$GPVTG,0.000,T,0.000,M,161.986,N,299.998,K*45
$GPGSV,10,1,10,2,27,51,0,5,59,55,0,9,29,154,0,12,49,66,0,1*53
$GPGSV,10,2,10,14,24,260,0,21,14,191,0,24,45,156,0,29,66,276,0,1*53
$GPGSV,10,3,10,30,61,357,0,31,23,318,0,2,27,51,0,5,59,55,0,5*55
$GPGSV,10,4,10,9,29,154,0,12,49,66,0,14,24,260,0,21,14,191,0,5*50
$GPGSV,10,5,10,24,45,156,0,29,66,276,0,30,61,357,0,31,23,318,0,5*54
$GPGSV,10,6,10,2,27,51,0,5,59,55,0,9,29,154,0,12,49,66,0,6*53
$GPGSV,10,7,10,14,24,260,0,21,14,191,0,24,45,156,0,29,66,276,0,6*51
$GPGSV,10,8,10,30,61,357,0,31,23,318,0,2,27,51,0,5,59,55,0,7*5C
$GPGSV,10,9,10,9,29,154,0,12,49,66,0,14,24,260,0,21,14,191,0,7*5F
$GPGSV,10,10,10,24,45,156,0,29,66,276,0,30,61,357,0,31,23,318,0,7*62
$GPGSA,A,3,02,05,09,12,14,21,24,29,30,31,,,1.8,0.9,1.5,1*2C
$GPZDA,080419.00,20,08,2021,-8,00*7C
$GPGGA,080420,3114.27182,N,12130.00000,E,3,29,0.88,38.12,M,11.88,M,,*45
$GPRMC,080420,A,3114.27182,N,12130.00000,E,161.986,0.000,200821,0.000,E,A,V*6F
$GPVTG,0.000,T,0.000,M,161.986,N,299.998,K*45
$GPGSV,10,1,10,2,27,51,0,5,59,55,0,9,29,154,0,12,49,66,0,1*53
$GPGSV,10,2,10,14,24,260,0,21,14,191,0,24,45,156,0,29,66,276,0,1*53
$GPGSV,10,3,10,30,61,357,0,31,23,318,0,2,27,51,0,5,59,55,0,5*55
$GPGSV,10,4,10,9,29,154,0,12,49,66,0,14,24,260,0,21,14,191,0,5*50
$GPGSV,10,5,10,24,45,156,0,29,66,276,0,30,61,357,0,31,23,318,0,5*54
$GPGSV,10,6,10,2,27,51,0,5,59,55,0,9,29,154,0,12,49,66,0,6*53
$GPGSV,10,7,10,14,24,260,0,21,14,191,0,24,45,156,0,29,66,276,0,6*51
$GPGSV,10,8,10,30,61,357,0,31,23,318,0,2,27,51,0,5,59,55,0,7*5C
$GPGSV,10,9,10,9,29,154,0,12,49,66,0,14,24,260,0,21,14,191,0,7*5F
$GPGSV,10,10,10,24,45,156,0,29,66,276,0,30,61,357,0,31,23,318,0,7*62
$GPGSA,A,3,02,05,09,12,14,21,24,29,30,31,,,1.8,0.9,1.5,1*2C
$GPZDA,080420.00,20,08,2021,-8,00*76
$GPGGA,080421,3114.31691,N,12130.00000,E,3,29,0.88,38.12,M,11.88,M,,*46
$GPRMC,080421,A,3114.31691,N,12130.00000,E,161.986,0.000,200821,0.000,E,A,V*6C
$GPVTG,0.000,T,0.000,M,161.986,N,299.998,K*45
$GPGSV,10,1,10,2,27,51,0,5,59,55,0,9,29,154,0,12,49,66,0,1*53
$GPGSV,10,2,10,14,24,260,0,21,14,191,0,24,45,156,0,29,66,276,0,1*53
$GPGSV,10,3,10,30,61,357,0,31,23,318,0,2,27,51,0,5,59,55,0,5*55
$GPGSV,10,4,10,9,29,154,0,12,49,66,0,14,24,260,0,21,14,191,0,5*50
$GPGSV,10,5,10,24,45,156,0,29,66,276,0,30,61,357,0,31,23,318,0,5*54
$GPGSV,10,6,10,2,27,51,0,5,59,55,0,9,29,154,0,12,49,66,0,6*53
$GPGSV,10,7,10,14,24,260,0,21,14,191,0,24,45,156,0,29,66,276,0,6*51
$GPGSV,10,8,10,30,61,357,0,31,23,318,0,2,27,51,0,5,59,55,0,7*5C
$GPGSV,10,9,10,9,29,154,0,12,49,66,0,14,24,260,0,21,14,191,0,7*5F
$GPGSV,10,10,10,24,45,156,0,29,66,276,0,30,61,357,0,31,23,318,0,7*62
$GPGSA,A,3,02,05,09,12,14,21,24,29,30,31,,,1.8,0.9,1.5,1*2C
$GPZDA,080421.00,20,08,2021,-8,00*77
$GPGGA,080422,3114.36201,N,12130.00000,E,3,29,0.88,38.12,M,11.88,M,,*4F
$GPRMC,080422,A,3114.36201,N,12130.00000,E,161.986,0.000,200821,0.000,E,A,V*65
$GPVTG,0.000,T,0.000,M,161.986,N,299.998,K*45
$GPGSV,10,1,10,2,27,51,0,5,59,55,0,9,29,154,0,12,49,66,0,1*53
$GPGSV,10,2,10,14,24,260,0,21,14,191,0,24,45,156,0,29,66,276,0,1*53
$GPGSV,10,3,10,30,61,357,0,31,23,318,0,2,27,51,0,5,59,55,0,5*55
$GPGSV,10,4,10,9,29,154,0,12,49,66,0,14,24,260,0,21,14,191,0,5*50
$GPGSV,10,5,10,24,45,156,0,29,66,276,0,30,61,357,0,31,23,318,0,5*54
$GPGSV,10,6,10,2,27,51,0,5,59,55,0,9,29,154,0,12,49,66,0,6*53
$GPGSV,10,7,10,14,24,260,0,21,14,191,0,24,45,156,0,29,66,276,0,6*51
$GPGSV,10,8,10,30,61,357,0,31,23,318,0,2,27,51,0,5,59,55,0,7*5C
$GPGSV,10,9,10,9,29,154,0,12,49,66,0,14,24,260,0,21,14,191,0,7*5F
$GPGSV,10,10,10,24,45,156,0,29,66,276,0,30,61,357,0,31,23,318,0,7*62
$GPGSA,A,3,02,05,09,12,14,21,24,29,30,31,,,1.8,0.9,1.5,1*2C
$GPZDA,080422.00,20,08,2021,-8,00*74
$GPGGA,080423,3114.40353,N,12130.00000,E,3,29,0.88,38.12,M,11.88,M,,*49
$GPRMC,080423,A,3114.40353,N,12130.00000,E,135.771,0.000,200821,0.000,E,A,V*64
$GPVTG,0.000,T,0.000,M,135.771,N,251.448,K*46
$GPGSV,10,1,10,2,27,51,0,5,59,55,0,9,29,154,0,12,49,66,0,1*53
$GPGSV,10,2,10,14,24,260,0,21,14,191,0,24,45,156,0,29,66,276,0,1*53
$GPGSV,10,3,10,30,61,357,0,31,23,318,0,2,27,51,0,5,59,55,0,5*55
$GPGSV,10,4,10,9,29,154,0,12,49,66,0,14,24,260,0,21,14,191,0,5*50
$GPGSV,10,5,10,24,45,156,0,29,66,276,0,30,61,357,0,31,23,318,0,5*54
$GPGSV,10,6,10,2,27,51,0,5,59,55,0,9,29,154,0,12,49,66,0,6*53
$GPGSV,10,7,10,14,24,260,0,21,14,191,0,24,45,156,0,29,66,276,0,6*51
$GPGSV,10,8,10,30,61,357,0,31,23,318,0,2,27,51,0,5,59,55,0,7*5C
$GPGSV,10,9,10,9,29,154,0,12,49,66,0,14,24,260,0,21,14,191,0,7*5F
$GPGSV,10,10,10,24,45,156,0,29,66,276,0,30,61,357,0,31,23,318,0,7*62
$GPGSA,A,3,02,05,09,12,14,21,24,29,30,31,,,1.8,0.9,1.5,1*2C
$GPZDA,080423.00,20,08,2021,-8,00*75
$GPGGA,080424,3114.43760,N,12130.00000,E,3,29,0.88,38.13,M,11.87,M,,*47
$GPRMC,080424,A,3114.43760,N,12130.00000,E,109.021,0.000,200821,0.000,E,A,V*69
$GPVTG,0.000,T,0.000,M,109.021,N,201.907,K*48
$GPGSV,10,1,10,2,27,51,0,5,59,55,0,9,29,154,0,12,49,66,0,1*53
$GPGSV,10,2,10,14,24,260,0,21,14,191,0,24,45,156,0,29,66,276,0,1*53
$GPGSV,10,3,10,30,61,357,0,31,23,318,0,2,27,51,0,5,59,55,0,5*55
$GPGSV,10,4,10,9,29,154,0,12,49,66,0,14,24,260,0,21,14,191,0,5*50
$GPGSV,10,5,10,24,45,156,0,29,66,276,0,30,61,357,0,31,23,318,0,5*54
$GPGSV,10,6,10,2,27,51,0,5,59,55,0,9,29,154,0,12,49,66,0,6*53
$GPGSV,10,7,10,14,24,260,0,21,14,191,0,24,45,156,0,29,66,276,0,6*51
$GPGSV,10,8,10,30,61,357,0,31,23,318,0,2,27,51,0,5,59,55,0,7*5C
$GPGSV,10,9,10,9,29,154,0,12,49,66,0,14,24,260,0,21,14,191,0,7*5F
$GPGSV,10,10,10,24,45,156,0,29,66,276,0,30,61,357,0,31,23,318,0,7*62
$GPGSA,A,3,02,05,09,12,14,21,24,29,30,31,,,1.8,0.9,1.5,1*2C
$GPZDA,080424.00,20,08,2021,-8,00*72
$GPGGA,080425,3114.46423,N,12130.00000,E,3,29,0.88,38.13,M,11.87,M,,*47
$GPRMC,080425,A,3114.46423,N,12130.00000,E,82.271,0.000,200821,0.000,E,A,V*5C
$GPVTG,0.000,T,0.000,M,82.271,N,152.366,K*75
$GPGSV,10,1,10,2,27,51,0,5,59,55,0,9,29,154,0,12,49,66,0,1*53
$GPGSV,10,2,10,14,24,260,0,21,14,191,0,24,45,156,0,29,66,276,0,1*53
$GPGSV,10,3,10,30,61,357,0,31,23,318,0,2,27,51,0,5,59,55,0,5*55
$GPGSV,10,4,10,9,29,154,0,12,49,66,0,14,24,260,0,21,14,191,0,5*50
$GPGSV,10,5,10,24,45,156,0,29,66,276,0,30,61,357,0,31,23,318,0,5*54
$GPGSV,10,6,10,2,27,51,0,5,59,55,0,9,29,154,0,12,49,66,0,6*53
$GPGSV,10,7,10,14,24,260,0,21,14,191,0,24,45,156,0,29,66,276,0,6*51
$GPGSV,10,8,10,30,61,357,0,31,23,318,0,2,27,51,0,5,59,55,0,7*5C
$GPGSV,10,9,10,9,29,154,0,12,49,66,0,14,24,260,0,21,14,191,0,7*5F
$GPGSV,10,10,10,24,45,156,0,29,66,276,0,30,61,357,0,31,23,318,0,7*62
$GPGSA,A,3,02,05,09,12,14,21,24,29,30,31,,,1.8,0.9,1.5,1*2C
$GPZDA,080425.00,20,08,2021,-8,00*73
$GPGGA,080426,3114.48341,N,12130.00000,E,3,29,0.88,38.13,M,11.87,M,,*49
$GPRMC,080426,A,3114.48341,N,12130.00000,E,55.521,0.000,200821,0.000,E,A,V*5A
$GPVTG,0.000,T,0.000,M,55.521,N,102.825,K*74
$GPGSV,10,1,10,2,27,51,0,5,59,55,0,9,29,154,0,12,49,66,0,1*53
$GPGSV,10,2,10,14,24,260,0,21,14,191,0,24,45,156,0,29,66,276,0,1*53
$GPGSV,10,3,10,30,61,357,0,31,23,318,0,2,27,51,0,5,59,55,0,5*55
$GPGSV,10,4,10,9,29,154,0,12,49,66,0,14,24,260,0,21,14,191,0,5*50
$GPGSV,10,5,10,24,45,156,0,29,66,276,0,30,61,357,0,31,23,318,0,5*54
$GPGSV,10,6,10,2,27,51,0,5,59,55,0,9,29,154,0,12,49,66,0,6*53
$GPGSV,10,7,10,14,24,260,0,21,14,191,0,24,45,156,0,29,66,276,0,6*51
$GPGSV,10,8,10,30,61,357,0,31,23,318,0,2,27,51,0,5,59,55,0,7*5C
$GPGSV,10,9,10,9,29,154,0,12,49,66,0,14,24,260,0,21,14,191,0,7*5F
$GPGSV,10,10,10,24,45,156,0,29,66,276,0,30,61,357,0,31,23,318,0,7*62
$GPGSA,A,3,02,05,09,12,14,21,24,29,30,31,,,1.8,0.9,1.5,1*2C
$GPZDA,080426.00,20,08,2021,-8,00*70
$GPGGA,080427,3114.49514,N,12130.00000,E,3,29,0.88,38.13,M,11.87,M,,*4F
$GPRMC,080427,A,3114.49514,N,12130.00000,E,28.771,0.000,200821,0.000,E,A,V*51
$GPVTG,0.000,T,0.000,M,28.771,N,53.284,K*4D
$GPGSV,10,1,10,2,27,51,0,5,59,55,0,9,29,154,0,12,49,66,0,1*53
$GPGSV,10,2,10,14,24,260,0,21,14,191,0,24,45,156,0,29,66,276,0,1*53
$GPGSV,10,3,10,30,61,357,0,31,23,318,0,2,27,51,0,5,59,55,0,5*55
$GPGSV,10,4,10,9,29,154,0,12,49,66,0,14,24,260,0,21,14,191,0,5*50
$GPGSV,10,5,10,24,45,156,0,29,66,276,0,30,61,357,0,31,23,318,0,5*54
$GPGSV,10,6,10,2,27,51,0,5,59,55,0,9,29,154,0,12,49,66,0,6*53
$GPGSV,10,7,10,14,24,260,0,21,14,191,0,24,45,156,0,29,66,276,0,6*51
$GPGSV,10,8,10,30,61,357,0,31,23,318,0,2,27,51,0,5,59,55,0,7*5C
$GPGSV,10,9,10,9,29,154,0,12,49,66,0,14,24,260,0,21,14,191,0,7*5F
$GPGSV,10,10,10,24,45,156,0,29,66,276,0,30,61,357,0,31,23,318,0,7*62
$GPGSA,A,3,02,05,09,12,14,21,24,29,30,31,,,1.8,0.9,1.5,1*2C
$GPZDA,080427.00,20,08,2021,-8,00*71
$GPGGA,080428,3114.50046,N,12130.00031,E,3,29,0.88,38.13,M,11.87,M,,*48
$GPRMC,080428,A,3114.50046,N,12130.00031,E,16.199,12.653,200821,0.000,E,A,V*68
$GPVTG,12.653,T,12.653,M,16.199,N,30.000,K*4B
$GPGSV,10,1,10,2,27,51,0,5,59,55,0,9,29,154,0,12,49,66,0,1*53
$GPGSV,10,2,10,14,24,260,0,21,14,191,0,24,45,156,0,29,66,276,0,1*53
$GPGSV,10,3,10,30,61,357,0,31,23,318,0,2,27,51,0,5,59,55,0,5*55
$GPGSV,10,4,10,9,29,154,0,12,49,66,0,14,24,260,0,21,14,191,0,5*50
$GPGSV,10,5,10,24,45,156,0,29,66,276,0,30,61,357,0,31,23,318,0,5*54
$GPGSV,10,6,10,2,27,51,0,5,59,55,0,9,29,154,0,12,49,66,0,6*53
$GPGSV,10,7,10,14,24,260,0,21,14,191,0,24,45,156,0,29,66,276,0,6*51
$GPGSV,10,8,10,30,61,357,0,31,23,318,0,2,27,51,0,5,59,55,0,7*5C
$GPGSV,10,9,10,9,29,154,0,12,49,66,0,14,24,260,0,21,14,191,0,7*5F
$GPGSV,10,10,10,24,45,156,0,29,66,276,0,30,61,357,0,31,23,318,0,7*62
$GPGSA,A,3,02,05,09,12,14,21,24,29,30,31,,,1.8,0.9,1.5,1*2C
$GPZDA,080428.00,20,08,2021,-8,00*7E
$GPGGA,080429,3114.50453,N,12130.00247,E,3,29,0.88,38.13,M,11.87,M,,*4A
$GPRMC,080429,A,3114.50453,N,12130.00247,E,16.199,36.526,200821,0.000,E,A,V*6D
$GPVTG,36.526,T,36.526,M,16.199,N,30.000,K*4B
$GPGSV,10,1,10,2,27,51,0,5,59,55,0,9,29,154,0,12,49,66,0,1*53
$GPGSV,10,2,10,14,24,260,0,21,14,191,0,24,45,156,0,29,66,276,0,1*53
$GPGSV,10,3,10,30,61,357,0,31,23,318,0,2,27,51,0,5,59,55,0,5*55
$GPGSV,10,4,10,9,29,154,0,12,49,66,0,14,24,260,0,21,14,191,0,5*50
$GPGSV,10,5,10,24,45,156,0,29,66,276,0,30,61,357,0,31,23,318,0,5*54
$GPGSV,10,6,10,2,27,51,0,5,59,55,0,9,29,154,0,12,49,66,0,6*53
$GPGSV,10,7,10,14,24,260,0,21,14,191,0,24,45,156,0,29,66,276,0,6*51
$GPGSV,10,8,10,30,61,357,0,31,23,318,0,2,27,51,0,5,59,55,0,7*5C
$GPGSV,10,9,10,9,29,154,0,12,49,66,0,14,24,260,0,21,14,191,0,7*5F
$GPGSV,10,10,10,24,45,156,0,29,66,276,0,30,61,357,0,31,23,318,0,7*62
$GPGSA,A,3,02,05,09,12,14,21,24,29,30,31,,,1.8,0.9,1.5,1*2C
$GPZDA,080429.00,20,08,2021,-8,00*7F
$GPGGA,080430,3114.50750,N,12130.00637,E,3,29,0.88,38.13,M,11.87,M,,*41
$GPRMC,080430,A,3114.50750,N,12130.00637,E,16.199,60.399,200821,0.000,E,A,V*67
$GPVTG,60.399,T,60.399,M,16.199,N,30.000,K*4B
$GPGSV,10,1,10,2,27,50,0,5,59,55,0,9,29,154,0,12,49,67,0,1*53
$GPGSV,10,2,10,14,24,260,0,21,14,191,0,24,45,156,0,29,66,276,0,1*53
$GPGSV,10,3,10,30,61,357,0,31,23,318,0,2,27,50,0,5,59,55,0,5*54
$GPGSV,10,4,10,9,29,154,0,12,49,67,0,14,24,260,0,21,14,191,0,5*51
$GPGSV,10,5,10,24,45,156,0,29,66,276,0,30,61,357,0,31,23,318,0,5*54
$GPGSV,10,6,10,2,27,50,0,5,59,55,0,9,29,154,0,12,49,67,0,6*53
$GPGSV,10,7,10,14,24,260,0,21,14,191,0,24,45,156,0,29,66,276,0,6*51
$GPGSV,10,8,10,30,61,357,0,31,23,318,0,2,27,50,0,5,59,55,0,7*5D
$GPGSV,10,9,10,9,29,154,0,12,49,67,0,14,24,260,0,21,14,191,0,7*5E
$GPGSV,10,10,10,24,45,156,0,29,66,276,0,30,61,357,0,31,23,318,0,7*62
$GPGSA,A,3,02,05,09,12,14,21,24,29,30,31,,,1.8,0.9,1.5,1*2C
$GPZDA,080430.00,20,08,2021,-8,00*77
$GPGGA,080431,3114.50886,N,12130.01134,E,3,29,0.88,38.13,M,11.87,M,,*41
$GPRMC,080431,A,3114.50886,N,12130.01134,E,16.199,84.273,200821,0.000,E,A,V*68
$GPVTG,84.273,T,84.273,M,16.199,N,30.000,K*4B
$GPGSV,10,1,10,2,27,50,0,5,59,55,0,9,29,154,0,12,49,67,0,1*53
$GPGSV,10,2,10,14,24,260,0,21,14,191,0,24,45,156,0,29,66,276,0,1*53
$GPGSV,10,3,10,30,61,357,0,31,23,318,0,2,27,50,0,5,59,55,0,5*54
$GPGSV,10,4,10,9,29,154,0,12,49,67,0,14,24,260,0,21,14,191,0,5*51
$GPGSV,10,5,10,24,45,156,0,29,66,276,0,30,61,357,0,31,23,318,0,5*54
$GPGSV,10,6,10,2,27,50,0,5,59,55,0,9,29,154,0,12,49,67,0,6*53
$GPGSV,10,7,10,14,24,260,0,21,14,191,0,24,45,156,0,29,66,276,0,6*51
$GPGSV,10,8,10,30,61,357,0,31,23,318,0,2,27,50,0,5,59,55,0,7*5D
$GPGSV,10,9,10,9,29,154,0,12,49,67,0,14,24,260,0,21,14,191,0,7*5E
$GPGSV,10,10,10,24,45,156,0,29,66,276,0,30,61,357,0,31,23,318,0,7*62
$GPGSA,A,3,02,05,09,12,14,21,24,29,30,31,,,1.8,0.9,1.5,1*2C
$GPZDA,080431.00,20,08,2021,-8,00*76
$GPGGA,080432,3114.50891,N,12130.01909,E,3,29,0.88,38.13,M,11.87,M,,*42
$GPRMC,080432,A,3114.50891,N,12130.01909,E,36.529,90.000,200821,0.000,E,A,V*65
$GPVTG,90.000,T,90.000,M,36.529,N,67.651,K*46
$GPGSV,10,1,10,2,27,50,0,5,59,55,0,9,29,154,0,12,49,67,0,1*53
$GPGSV,10,2,10,14,24,260,0,21,14,191,0,24,45,156,0,29,66,276,0,1*53
$GPGSV,10,3,10,30,61,357,0,31,23,318,0,2,27,50,0,5,59,55,0,5*54
$GPGSV,10,4,10,9,29,154,0,12,49,67,0,14,24,260,0,21,14,191,0,5*51
$GPGSV,10,5,10,24,45,156,0,29,66,276,0,30,61,357,0,31,23,318,0,5*54
$GPGSV,10,6,10,2,27,50,0,5,59,55,0,9,29,154,0,12,49,67,0,6*53
$GPGSV,10,7,10,14,24,260,0,21,14,191,0,24,45,156,0,29,66,276,0,6*51
$GPGSV,10,8,10,30,61,357,0,31,23,318,0,2,27,50,0,5,59,55,0,7*5D
$GPGSV,10,9,10,9,29,154,0,12,49,67,0,14,24,260,0,21,14,191,0,7*5E
$GPGSV,10,10,10,24,45,156,0,29,66,276,0,30,61,357,0,31,23,318,0,7*62
$GPGSA,A,3,02,05,09,12,14,21,24,29,30,31,,,1.8,0.9,1.5,1*2C
$GPZDA,080432.00,20,08,2021,-8,00*75
$GPGGA,080433,3114.50891,N,12130.03526,E,3,29,0.88,38.12,M,11.88,M,,*4E
$GPRMC,080433,A,3114.50891,N,12130.03526,E,63.278,90.000,200821,0.000,E,A,V*64
$GPVTG,90.000,T,90.000,M,63.278,N,117.192,K*7B
$GPGSV,10,1,10,2,27,50,0,5,59,55,0,9,29,154,0,12,49,67,0,1*53
$GPGSV,10,2,10,14,24,260,0,21,14,191,0,24,45,156,0,29,66,276,0,1*53
$GPGSV,10,3,10,30,61,357,0,31,23,318,0,2,27,50,0,5,59,55,0,5*54
$GPGSV,10,4,10,9,29,154,0,12,49,67,0,14,24,260,0,21,14,191,0,5*51
$GPGSV,10,5,10,24,45,156,0,29,66,276,0,30,61,357,0,31,23,318,0,5*54
$GPGSV,10,6,10,2,27,50,0,5,59,55,0,9,29,154,0,12,49,67,0,6*53
$GPGSV,10,7,10,14,24,260,0,21,14,191,0,24,45,156,0,29,66,276,0,6*51
$GPGSV,10,8,10,30,61,357,0,31,23,318,0,2,27,50,0,5,59,55,0,7*5D
