$GBGSV,5,1,17,45,39,215,42,44,49,044,43,41,15,067,42,37,13,149,42,1*7F
$GBGSV,5,2,17,36,72,276,42,32,13,210,42,30,14,277,42,23,28,128,42,1*70
$GBGSV,5,3,17,17,42,040,42,14,54,075,42,13,48,171,42,11,22,091,42,1*75
$GBGSV,5,4,17,08,00,000,43,06,44,206,42,04,39,124,42,02,00,000,42,1*71
$GBGSV,5,5,17,01,00,000,42,1*47
$QL001,1591020137000,31.233332,121.514846,51.182522,8.260,250.800,2.833,2.501,1.661,12.514
$QL002,4,4,0,0,2.003,2.003,-2.724,-7.803,0.004,1.177,1.172,0.687,18
$QL003,0.0000,0.0000,0.0000,0.0000,0.0000,0.0000,0.0000,0.0000,0.0000,0.0000
$QL004,2,00
$GPGSA,A,1,,,,,,,,,,,,,,,,*32
$GPVTG,250.8,T,255.3,M,16.1,N,29.7,K,N*28
$GPDTM,P90,,0000.000023,S,00000.000001,W,0.987,W84*54
$GPRMC,140217.00,A,3113.999915,N,12130.890736,E,16.1,250.8,010620,4.5,W,N,V*68
$GPGNS,140217.00,3113.999915,N,12130.890736,E,NNNNN,00,500.0,41.2,10.0,,,V*46
$GPGGA,140217.00,3113.999915,N,12130.890736,E,1,00,500.0,41.2,M,10.0,M,,*58

$GBGSV,5,1,17,45,39,215,41,44,49,044,41,41,15,067,40,37,13,149,41,1*7F
$GBGSV,5,2,17,36,72,276,42,32,13,210,42,30,14,277,39,23,28,128,41,1*7F
$GBGSV,5,3,17,17,42,040,41,14,54,075,41,13,48,171,42,11,22,091,39,1*79
$GBGSV,5,4,17,08,00,000,41,06,44,206,42,04,39,124,42,02,00,000,42,1*73
$GBGSV,5,5,17,01,00,000,42,1*47
$QL001,1591020138000,31.233354,121.514560,51.157993,28.570,270.400,2.831,2.501,1.310,2.327
$QL002,4,4,1,0,2.002,2.002,0.201,-28.571,0.003,0.926,0.927,0.819,18
$QL003,0.0000,0.0000,0.0000,0.0000,0.0000,0.0000,0.0000,0.0000,0.0000,0.0000
$QL004,2,00
$GBGSA,A,3,06,11,13,14,17,23,30,32,36,37,41,44,1.1,0.8,0.8,4*38
$GBVTG,270.4,T,274.9,M,55.5,N,102.9,K,A*07
$GBDTM,P90,,0000.000023,S,00000.000001,W,0.987,W84*46
$GBRMC,140218.00,A,3114.001262,N,12130.873590,E,55.5,270.4,010620,4.5,W,A,V*70
$GBGNS,140218.00,3114.001262,N,12130.873590,E,NNNAN,13,0.8,41.2,10.0,,,V*5C
$GBGGA,140218.00,3114.001262,N,12130.873590,E,1,12,0.8,41.2,M,10.0,M,,*4C

$GBGSV,5,1,17,45,39,215,41,44,49,044,41,41,15,067,38,37,13,149,41,1*70
$GBGSV,5,2,17,36,72,276,41,32,13,210,41,30,14,277,38,23,28,128,40,1*7F
$GBGSV,5,3,17,17,42,040,41,14,54,075,41,13,48,171,42,11,22,091,39,1*79
$GBGSV,5,4,17,08,00,000,41,06,44,206,42,04,39,124,42,02,00,000,42,1*73
$GBGSV,5,5,17,01,00,000,42,1*47
$QL001,1591020139000,31.233354,121.514163,51.057496,43.020,270.200,2.829,2.500,0.469,0.210
$QL002,4,4,1,0,2.000,2.000,0.136,-43.025,-0.079,0.334,0.329,0.230,18
$QL003,0.0000,0.0000,0.0000,0.0000,0.0000,0.0000,0.0000,0.0000,0.0000,0.0000
$QL004,2,1F,take_turns,line_accelerate
$GBGSA,A,3,06,11,13,14,17,23,30,32,36,37,41,44,1.1,0.8,0.8,4*38
$GBVTG,270.2,T,274.7,M,83.6,N,154.9,K,A*04
$GBDTM,P90,,0000.000023,S,00000.000001,W,0.987,W84*46
$GBRMC,140219.00,A,3114.001219,N,12130.849779,E,83.6,270.2,010620,4.5,W,A,V*7F
$GBGNS,140219.00,3114.001219,N,12130.849779,E,NNNAN,13,0.8,41.1,10.0,,,V*5E
$GBGGA,140219.00,3114.001219,N,12130.849779,E,1,12,0.8,41.1,M,10.0,M,,*4E

$GBGSV,5,1,17,45,39,215,41,44,49,044,41,41,15,067,39,37,13,149,41,1*71
$GBGSV,5,2,17,36,72,276,42,32,13,210,42,30,14,277,38,23,28,128,40,1*7F
$GBGSV,5,3,17,17,42,040,41,14,54,075,41,13,48,171,42,11,22,091,40,1*77
$GBGSV,5,4,17,08,00,000,41,06,44,206,42,04,39,124,42,02,00,000,42,1*73
$GBGSV,5,5,17,01,00,000,42,1*47
$QL001,1591020140000,31.233353,121.513622,50.918690,56.870,270.100,2.829,2.500,0.469,0.161
$QL002,4,4,1,0,2.000,2.000,0.068,-56.874,-0.143,0.334,0.329,0.232,18
$QL003,0.0000,0.0000,0.0000,0.0000,0.0000,0.0000,0.0000,0.0000,0.0000,0.0000
$QL004,2,1F,take_turns,line_accelerate
$GBGSA,A,3,06,11,13,14,17,23,30,32,36,37,41,44,1.1,0.8,0.8,4*38
$GBVTG,270.1,T,274.6,M,110.5,N,204.7,K,A*36
$GBDTM,P90,,0000.000023,S,00000.000001,W,0.987,W84*46
$GBRMC,140220.00,A,3114.001190,N,12130.817327,E,110.5,270.1,010620,4.5,W,A,V*48
$GBGNS,140220.00,3114.001190,N,12130.817327,E,NNNAN,13,0.8,40.9,10.0,,,V*5B
$GBGGA,140220.00,3114.001190,N,12130.817327,E,1,12,0.8,40.9,M,10.0,M,,*4B

$GBGSV,5,1,17,45,39,215,42,44,49,044,41,41,15,067,39,37,13,149,42,1*71
$GBGSV,5,2,17,36,72,276,42,32,13,210,42,30,14,277,38,23,28,128,41,1*7E
$GBGSV,5,3,17,17,42,040,41,14,54,075,41,13,48,171,42,11,22,091,39,1*79
$GBGSV,5,4,17,08,00,000,41,06,44,206,42,04,39,124,42,02,00,000,42,1*73
$GBGSV,5,5,17,01,00,000,42,1*47
$QL001,1591020141000,31.233352,121.512937,51.037748,70.570,270.000,2.829,2.500,0.450,0.047
$QL002,4,4,1,0,2.000,2.000,-0.015,-70.574,0.401,0.319,0.318,0.130,18
$QL003,0.0000,0.0000,0.0000,0.0000,0.0000,0.0000,0.0000,0.0000,0.0000,0.0000
$QL004,2,1F,take_turns,line_accelerate
$GBGSA,A,3,06,13,14,17,23,30,32,37,41,44,45,,1.2,0.8,0.8,4*3F
$GBVTG,270.0,T,274.5,M,137.2,N,254.1,K,A*35
$GBDTM,P90,,0000.000023,S,00000.000001,W,0.987,W84*46
$GBRMC,140221.00,A,3114.001113,N,12130.776215,E,137.2,270.0,010620,4.5,W,A,V*49
$GBGNS,140221.00,3114.001113,N,12130.776215,E,NNNAN,11,0.8,41.0,10.0,,,V*53
$GBGGA,140221.00,3114.001113,N,12130.776215,E,1,11,0.8,41.0,M,10.0,M,,*42

$GBGSV,5,1,17,45,39,215,42,44,49,044,41,41,15,067,38,37,13,149,42,1*70
$GBGSV,5,2,17,36,72,276,42,32,13,210,41,30,14,277,39,23,28,128,40,1*7D
$GBGSV,5,3,17,17,42,040,41,14,54,075,41,13,48,171,42,11,22,091,39,1*79
$GBGSV,5,4,17,08,00,000,41,06,44,206,41,04,39,124,42,02,00,000,42,1*70
$GBGSV,5,5,17,01,00,000,42,1*47
$QL001,1591020142000,31.233351,121.512107,51.122733,84.280,270.000,2.829,2.500,0.467,0.102
$QL002,4,4,1,0,2.000,2.000,-0.061,-84.286,-0.032,0.333,0.327,0.231,18
$QL003,0.0000,0.0000,0.0000,0.0000,0.0000,0.0000,0.0000,0.0000,0.0000,0.0000
$QL004,2,1F,take_turns,line_accelerate
$GBGSA,A,3,06,11,13,14,17,23,30,32,36,37,44,45,1.1,0.8,0.8,4*3C
$GBVTG,270.0,T,274.5,M,163.8,N,303.4,K,A*38
$GBDTM,P90,,0000.000023,S,00000.000001,W,0.987,W84*46
$GBRMC,140222.00,A,3114.001047,N,12130.726439,E,163.8,270.0,010620,4.5,W,A,V*4C
$GBGNS,140222.00,3114.001047,N,12130.726439,E,NNNAN,12,0.8,41.1,10.0,,,V*5F
$GBGGA,140222.00,3114.001047,N,12130.726439,E,1,12,0.8,41.1,M,10.0,M,,*4E

$GBGSV,5,1,17,45,39,215,42,44,49,044,42,41,15,067,42,37,13,149,42,1*7E
$GBGSV,5,2,17,36,72,276,42,32,13,210,42,30,14,277,42,23,28,128,42,1*70
$GBGSV,5,3,17,17,42,040,42,14,54,075,42,13,48,171,42,11,22,091,42,1*75
$GBGSV,5,4,17,08,00,000,42,06,44,206,42,04,39,124,42,02,00,000,42,1*70
$GBGSV,5,5,17,01,00,000,42,1*47
$QL001,1591020143000,31.233350,121.511232,51.215410,84.220,270.000,2.829,2.500,0.483,0.140
$QL002,4,4,1,0,2.000,2.000,-0.022,-84.223,0.044,0.346,0.338,0.263,18
$QL003,0.0000,0.0000,0.0000,0.0000,0.0000,0.0000,0.0000,0.0000,0.0000,0.0000
$QL004,2,1F,take_turns,line_accelerate
$GBGSA,A,3,06,11,13,14,17,23,30,32,36,37,41,44,1.1,0.8,0.8,4*38
$GBVTG,270.0,T,274.5,M,163.7,N,303.2,K,A*31
$GBDTM,P90,,0000.000023,S,00000.000001,W,0.987,W84*46
$GBRMC,140223.00,A,3114.000996,N,12130.673947,E,163.7,270.0,010620,4.5,W,A,V*43
$GBGNS,140223.00,3114.000996,N,12130.673947,E,NNNAN,13,0.8,41.2,10.0,,,V*5D
$GBGGA,140223.00,3114.000996,N,12130.673947,E,1,12,0.8,41.2,M,10.0,M,,*4D

$GBGSV,5,1,17,45,39,215,42,44,49,044,43,41,15,067,42,37,13,149,42,1*7F
$GBGSV,5,2,17,36,72,276,43,32,13,210,42,30,14,277,42,23,28,128,42,1*71
$GBGSV,5,3,17,17,42,040,42,14,54,075,43,13,48,171,42,11,22,091,42,1*74
$GBGSV,5,4,17,08,00,000,42,06,44,206,42,04,39,124,42,02,00,000,42,1*70
$GBGSV,5,5,17,01,00,000,42,1*47
$QL001,1591020144000,31.233350,121.510359,51.177029,83.730,270.000,2.829,2.500,0.471,0.113
$QL002,4,4,1,0,2.000,2.000,0.068,-83.734,0.058,0.335,0.330,0.236,18
$QL003,0.0000,0.0000,0.0000,0.0000,0.0000,0.0000,0.0000,0.0000,0.0000,0.0000
$QL004,2,1F,take_turns,line_accelerate
$GBGSA,A,3,06,11,13,14,17,23,30,32,37,41,44,45,1.1,0.8,0.8,4*3C
$GBVTG,270.0,T,274.5,M,162.8,N,301.4,K,A*3B
$GBDTM,P90,,0000.000023,S,00000.000001,W,0.987,W84*46
$GBRMC,140224.00,A,3114.000989,N,12130.621521,E,162.8,270.0,010620,4.5,W,A,V*4F
$GBGNS,140224.00,3114.000989,N,12130.621521,E,NNNAN,12,0.8,41.2,10.0,,,V*5E
$GBGGA,140224.00,3114.000989,N,12130.621521,E,1,12,0.8,41.2,M,10.0,M,,*4F

$GBGSV,5,1,17,45,39,215,42,44,49,044,42,41,15,067,43,37,13,149,42,1*7F
$GBGSV,5,2,17,36,72,276,42,32,13,210,43,30,14,277,42,23,28,128,42,1*71
$GBGSV,5,3,17,17,42,040,42,14,54,075,42,13,48,171,42,11,22,091,43,1*74
$GBGSV,5,4,17,08,00,000,42,06,44,206,43,04,39,124,42,02,00,000,42,1*71
$GBGSV,5,5,17,01,00,000,42,1*47
$QL001,1591020145000,31.233349,121.509485,51.167616,83.360,270.000,2.829,2.500,0.481,0.136
$QL002,4,4,1,0,2.000,2.000,-0.023,-83.363,-0.111,0.344,0.336,0.246,18
$QL003,0.0000,0.0000,0.0000,0.0000,0.0000,0.0000,0.0000,0.0000,0.0000,0.0000
$QL004,2,1F,take_turns,line_accelerate
$GBGSA,A,3,06,11,13,14,17,23,30,32,36,37,41,44,1.1,0.8,0.8,4*38
$GBVTG,270.0,T,274.5,M,162.0,N,300.1,K,A*37
$GBDTM,P90,,0000.000023,S,00000.000001,W,0.987,W84*46
$GBRMC,140225.00,A,3114.000960,N,12130.569115,E,162.0,270.0,010620,4.5,W,A,V*4D
$GBGNS,140225.00,3114.000960,N,12130.569115,E,NNNAN,13,0.8,41.2,10.0,,,V*55
$GBGGA,140225.00,3114.000960,N,12130.569115,E,1,12,0.8,41.2,M,10.0,M,,*45

$GBGSV,5,1,17,45,39,215,42,44,49,044,42,41,15,067,42,37,13,149,42,1*7E
$GBGSV,5,2,17,36,72,276,42,32,13,210,42,30,14,277,42,23,28,128,42,1*70
$GBGSV,5,3,17,17,42,040,42,14,54,075,42,13,48,171,42,11,22,091,42,1*75
$GBGSV,5,4,17,08,00,000,42,06,44,206,42,04,39,124,42,02,00,000,42,1*70
$GBGSV,5,5,17,01,00,000,42,1*47
$QL001,1591020146000,31.233348,121.508611,51.123240,83.350,270.000,2.829,2.500,0.462,0.088
$QL002,4,4,1,0,2.000,2.000,0.009,-83.356,-0.159,0.328,0.325,0.192,18
$QL003,0.0000,0.0000,0.0000,0.0000,0.0000,0.0000,0.0000,0.0000,0.0000,0.0000
$QL004,2,1F,take_turns,line_accelerate
$GBGSA,A,3,06,11,13,14,17,23,30,32,36,37,41,44,1.1,0.8,0.8,4*38
$GBVTG,270.0,T,274.5,M,162.0,N,300.1,K,A*37
$GBDTM,P90,,0000.000023,S,00000.000001,W,0.987,W84*46
$GBRMC,140226.00,A,3114.000897,N,12130.516642,E,162.0,270.0,010620,4.5,W,A,V*4A
$GBGNS,140226.00,3114.000897,N,12130.516642,E,NNNAN,13,0.8,41.1,10.0,,,V*51
$GBGGA,140226.00,3114.000897,N,12130.516642,E,1,12,0.8,41.1,M,10.0,M,,*41

$GBGSV,5,1,17,45,39,215,43,44,49,044,42,41,15,067,43,37,13,149,42,1*7E
$GBGSV,5,2,17,36,72,276,42,32,13,210,42,30,14,277,42,23,28,128,42,1*70
$GBGSV,5,3,17,17,42,040,42,14,54,075,42,13,48,171,42,11,22,091,43,1*74
$GBGSV,5,4,17,08,00,000,42,06,44,206,42,04,39,124,42,02,00,000,42,1*70
$GBGSV,5,5,17,01,00,000,42,1*47

$GBGSV,5,1,17,45,39,215,42,44,49,044,42,41,15,067,42,37,13,149,43,1*7F
$GBGSV,5,2,17,36,72,276,42,32,13,210,42,30,14,277,42,23,28,128,42,1*70
$GBGSV,5,3,17,17,42,040,42,14,54,075,42,13,48,171,42,11,22,091,42,1*75
$GBGSV,5,4,17,08,00,000,42,06,44,206,42,04,39,124,42,02,00,000,42,1*70
$GBGSV,5,5,17,01,00,000,42,1*47
$QL001,1591020148000,31.233347,121.506862,51.230579,83.380,270.100,2.829,2.500,0.466,0.100
$QL002,4,4,1,0,2.000,2.000,0.182,-83.385,-0.145,0.332,0.326,0.204,18
$QL003,0.0000,0.0000,0.0000,0.0000,0.0000,0.0000,0.0000,0.0000,0.0000,0.0000
$QL004,2,1F,take_turns,line_accelerate
$GBGSA,A,3,06,11,13,14,17,23,30,32,36,41,44,45,1.2,0.9,0.8,4*3F
$GBVTG,270.1,T,274.6,M,162.1,N,300.2,K,A*37
$GBDTM,P90,,0000.000023,S,00000.000001,W,0.987,W84*46
$GBRMC,140228.00,A,3114.000815,N,12130.411746,E,162.1,270.1,010620,4.5,W,A,V*4D
$GBGNS,140228.00,3114.000815,N,12130.411746,E,NNNAN,12,0.9,41.2,10.0,,,V*55
$GBGGA,140228.00,3114.000815,N,12130.411746,E,1,12,0.9,41.2,M,10.0,M,,*44

$GBGSV,5,1,17,45,39,215,42,44,49,044,42,41,15,067,42,37,13,149,42,1*7E
$GBGSV,5,2,17,36,72,276,42,32,13,210,42,30,14,277,43,23,28,128,42,1*71
$GBGSV,5,3,17,17,42,040,42,14,54,075,42,13,48,171,42,11,22,091,42,1*75
$GBGSV,5,4,17,08,00,000,42,06,44,206,42,04,39,124,42,02,00,000,42,1*70
$GBGSV,5,5,17,01,00,000,42,1*47
$QL001,1591020149000,31.233347,121.505988,51.341061,83.260,270.000,2.829,2.500,0.486,0.147
$QL002,4,4,1,0,2.000,2.000,0.029,-83.263,0.088,0.348,0.340,0.246,18
$QL003,0.0000,0.0000,0.0000,0.0000,0.0000,0.0000,0.0000,0.0000,0.0000,0.0000
$QL004,2,1F,take_turns,line_accelerate
$GBGSA,A,3,06,11,13,14,17,23,30,32,36,37,41,44,1.1,0.8,0.8,4*38
$GBVTG,270.0,T,274.5,M,161.8,N,299.7,K,A*3B
$GBDTM,P90,,0000.000023,S,00000.000001,W,0.987,W84*46
$GBRMC,140229.00,A,3114.000790,N,12130.359286,E,161.8,270.0,010620,4.5,W,A,V*47
$GBGNS,140229.00,3114.000790,N,12130.359286,E,NNNAN,13,0.8,41.3,10.0,,,V*55
$GBGGA,140229.00,3114.000790,N,12130.359286,E,1,12,0.8,41.3,M,10.0,M,,*45

$GBGSV,5,1,17,45,39,215,42,44,49,044,43,41,15,067,43,37,13,149,42,1*7E
$GBGSV,5,2,17,36,72,276,42,32,13,210,42,30,14,277,42,23,28,128,42,1*70
$GBGSV,5,3,17,17,42,040,43,14,54,075,42,13,48,171,42,11,22,091,42,1*74
$GBGSV,5,4,17,08,00,000,42,06,44,206,43,04,39,124,42,02,00,000,42,1*71
$GBGSV,5,5,17,01,00,000,42,1*47
$QL001,1591020150000,31.233347,121.505113,51.301723,83.290,270.000,2.829,2.500,0.477,0.128
$QL002,4,4,1,0,2.000,2.000,0.011,-83.297,0.072,0.341,0.334,0.242,18
$QL003,0.0000,0.0000,0.0000,0.0000,0.0000,0.0000,0.0000,0.0000,0.0000,0.0000
$QL004,2,1F,take_turns,line_accelerate
$GBGSA,A,3,06,11,13,14,17,23,30,32,36,37,41,44,1.1,0.8,0.8,4*38
$GBVTG,270.0,T,274.5,M,161.9,N,299.8,K,A*35
$GBDTM,P90,,0000.000023,S,00000.000001,W,0.987,W84*46
$GBRMC,140230.00,A,3114.000799,N,12130.306798,E,161.9,270.0,010620,4.5,W,A,V*47
$GBGNS,140230.00,3114.000799,N,12130.306798,E,NNNAN,13,0.8,41.3,10.0,,,V*54
$GBGGA,140230.00,3114.000799,N,12130.306798,E,1,12,0.8,41.3,M,10.0,M,,*44

$GBGSV,5,1,17,45,39,215,42,44,49,044,42,41,15,067,42,37,13,149,42,1*7E
$GBGSV,5,2,17,36,72,276,42,32,13,210,42,30,14,277,42,23,28,128,42,1*70
$GBGSV,5,3,17,17,42,040,42,14,54,075,42,13,48,171,42,11,22,091,43,1*74
$GBGSV,5,4,17,08,00,000,43,06,44,206,42,04,39,124,42,02,00,000,42,1*71
$GBGSV,5,5,17,01,00,000,42,1*47
$QL001,1591020151000,31.233346,121.504238,51.252624,83.410,270.000,2.829,2.500,0.471,0.115
$QL002,4,4,1,0,2.000,2.000,0.020,-83.420,-0.001,0.336,0.330,0.227,18
$QL003,0.0000,0.0000,0.0000,0.0000,0.0000,0.0000,0.0000,0.0000,0.0000,0.0000
$QL004,2,1F,take_turns,line_accelerate
$GBGSA,A,3,06,11,13,14,17,23,30,32,36,37,41,44,1.1,0.8,0.8,4*38
$GBVTG,270.0,T,274.5,M,162.1,N,300.3,K,A*34
$GBDTM,P90,,0000.000023,S,00000.000001,W,0.987,W84*46
$GBRMC,140231.00,A,3114.000781,N,12130.254302,E,162.1,270.0,010620,4.5,W,A,V*45
$GBGNS,140231.00,3114.000781,N,12130.254302,E,NNNAN,13,0.8,41.3,10.0,,,V*5D
$GBGGA,140231.00,3114.000781,N,12130.254302,E,1,12,0.8,41.3,M,10.0,M,,*4D

$GBGSV,5,1,17,45,39,215,42,44,49,044,42,41,15,067,42,37,13,149,42,1*7E
$GBGSV,5,2,17,36,72,276,42,32,13,210,42,30,14,277,42,23,28,128,43,1*71
$GBGSV,5,3,17,17,42,040,43,14,54,075,43,13,48,171,42,11,22,091,42,1*75
$GBGSV,5,4,17,08,00,000,42,06,44,206,42,04,39,124,42,02,00,000,42,1*70
$GBGSV,5,5,17,01,00,000,42,1*47
$QL001,1591020152000,31.233346,121.503364,51.279965,83.340,270.000,2.829,2.500,0.469,0.108
$QL002,4,4,1,0,2.000,2.000,-0.037,-83.350,0.020,0.334,0.329,0.209,18
$QL003,0.0000,0.0000,0.0000,0.0000,0.0000,0.0000,0.0000,0.0000,0.0000,0.0000
$QL004,2,1F,take_turns,line_accelerate
$GBGSA,A,3,06,11,13,14,17,23,30,32,36,37,41,44,1.1,0.8,0.8,4*38
$GBVTG,270.0,T,274.5,M,162.0,N,300.0,K,A*36
$GBDTM,P90,,0000.000023,S,00000.000001,W,0.987,W84*46
$GBRMC,140232.00,A,3114.000783,N,12130.201813,E,162.0,270.0,010620,4.5,W,A,V*4E
$GBGNS,140232.00,3114.000783,N,12130.201813,E,NNNAN,13,0.8,41.3,10.0,,,V*57
$GBGGA,140232.00,3114.000783,N,12130.201813,E,1,12,0.8,41.3,M,10.0,M,,*47

$GBGSV,5,1,17,45,39,215,43,44,49,044,42,41,15,067,42,37,13,149,42,1*7F
$GBGSV,5,2,17,36,72,276,42,32,13,210,42,30,14,277,42,23,28,128,42,1*70
$GBGSV,5,3,17,17,42,040,42,14,54,075,42,13,48,171,42,11,22,091,42,1*75
$GBGSV,5,4,17,08,00,000,42,06,44,206,42,04,39,124,42,02,00,000,42,1*70
$GBGSV,5,5,17,01,00,000,42,1*47
$QL001,1591020153000,31.233347,121.502497,51.331988,80.570,270.000,2.829,2.500,0.475,0.128
$QL002,4,4,1,0,2.000,2.000,-0.056,-80.570,-0.004,0.340,0.333,0.255,18
$QL003,0.0000,0.0000,0.0000,0.0000,0.0000,0.0000,0.0000,0.0000,0.0000,0.0000
$QL004,2,1F,take_turns,line_accelerate
$GBGSA,A,3,06,11,13,14,17,23,30,32,36,37,41,44,1.1,0.8,0.8,4*38
$GBVTG,270.0,T,274.5,M,156.6,N,290.1,K,A*3E
$GBDTM,P90,,0000.000023,S,00000.000001,W,0.987,W84*46
$GBRMC,140233.00,A,3114.000808,N,12130.149799,E,156.6,270.0,010620,4.5,W,A,V*40
$GBGNS,140233.00,3114.000808,N,12130.149799,E,NNNAN,13,0.8,41.3,10.0,,,V*58
$GBGGA,140233.00,3114.000808,N,12130.149799,E,1,12,0.8,41.3,M,10.0,M,,*48

$GBGSV,5,1,17,45,39,215,41,44,49,044,42,41,15,067,39,37,13,149,41,1*72
$GBGSV,5,2,17,36,72,276,42,32,13,210,41,30,14,277,40,23,28,128,41,1*72
$GBGSV,5,3,17,17,42,040,42,14,54,075,42,13,48,171,42,11,22,091,40,1*77
$GBGSV,5,4,17,08,00,000,42,06,44,206,42,04,39,124,42,02,00,000,42,1*70
$GBGSV,5,5,17,01,00,000,42,1*47
$QL001,1591020154000,31.233346,121.501749,51.299821,66.820,269.900,2.829,2.500,0.487,0.184
$QL002,4,4,1,0,2.000,2.000,-0.100,-66.829,-0.047,0.349,0.339,0.289,18
$QL003,0.0000,0.0000,0.0000,0.0000,0.0000,0.0000,0.0000,0.0000,0.0000,0.0000
$QL004,2,1F,take_turns,line_accelerate
$GBGSA,A,3,06,11,13,14,17,23,30,32,36,37,41,44,1.1,0.8,0.8,4*38
$GBVTG,269.9,T,274.4,M,129.9,N,240.6,K,A*33
$GBDTM,P90,,0000.000023,S,00000.000001,W,0.987,W84*46
$GBRMC,140234.00,A,3114.000772,N,12130.104946,E,129.9,269.9,010620,4.5,W,A,V*46
$GBGNS,140234.00,3114.000772,N,12130.104946,E,NNNAN,13,0.8,41.3,10.0,,,V*58
$GBGGA,140234.00,3114.000772,N,12130.104946,E,1,12,0.8,41.3,M,10.0,M,,*48

$GBGSV,5,1,17,45,39,215,42,44,49,044,41,41,15,067,39,37,13,149,42,1*71
$GBGSV,5,2,17,36,72,276,42,32,13,210,41,30,14,277,39,23,28,128,40,1*7D
$GBGSV,5,3,17,17,42,040,41,14,54,075,41,13,48,171,42,11,22,091,39,1*79
$GBGSV,5,4,17,08,00,000,41,06,44,206,41,04,39,124,42,02,00,000,42,1*70
$GBGSV,5,5,17,01,00,000,42,1*47
$QL001,1591020155000,31.233346,121.501147,51.254464,52.240,270.100,2.829,2.500,0.493,0.256
$QL002,4,4,1,0,2.000,2.000,0.074,-52.249,-0.106,0.354,0.344,0.308,18
$QL003,0.0000,0.0000,0.0000,0.0000,0.0000,0.0000,0.0000,0.0000,0.0000,0.0000
$QL004,2,1F,take_turns,line_accelerate
$GBGSA,A,3,06,11,13,14,17,23,30,32,36,37,41,44,1.1,0.8,0.8,4*38
$GBVTG,270.1,T,274.6,M,101.5,N,188.1,K,A*37
$GBDTM,P90,,0000.000023,S,00000.000001,W,0.987,W84*46
$GBRMC,140235.00,A,3114.000772,N,12130.068847,E,101.5,270.1,010620,4.5,W,A,V*4A
$GBGNS,140235.00,3114.000772,N,12130.068847,E,NNNAN,13,0.8,41.3,10.0,,,V*52
$GBGGA,140235.00,3114.000772,N,12130.068847,E,1,12,0.8,41.3,M,10.0,M,,*42

$GBGSV,5,1,17,45,39,215,42,44,49,044,41,41,15,067,39,37,13,149,41,1*72
$GBGSV,5,2,17,36,72,276,42,32,13,210,41,30,14,277,38,23,28,128,40,1*7C
$GBGSV,5,3,17,17,42,040,41,14,54,075,41,13,48,171,42,11,22,091,38,1*78
$GBGSV,5,4,17,08,00,000,41,06,44,206,42,04,39,124,42,02,00,000,42,1*73
$GBGSV,5,5,17,01,00,000,42,1*47
$QL001,1591020156000,31.233346,121.500689,51.278235,38.360,270.000,2.829,2.500,0.482,0.300
$QL002,4,4,1,0,2.000,2.000,-0.009,-38.369,-0.024,0.344,0.337,0.265,18
$QL003,0.0000,0.0000,0.0000,0.0000,0.0000,0.0000,0.0000,0.0000,0.0000,0.0000
$QL004,2,1F,take_turns,line_accelerate
$GBGSA,A,3,06,11,13,14,17,30,32,36,37,41,44,45,1.1,0.8,0.8,4*38
$GBVTG,270.0,T,274.5,M,74.6,N,138.1,K,A*0E
$GBDTM,P90,,0000.000023,S,00000.000001,W,0.987,W84*46
$GBRMC,140236.00,A,3114.000741,N,12130.041357,E,74.6,270.0,010620,4.5,W,A,V*79
$GBGNS,140236.00,3114.000741,N,12130.041357,E,NNNAN,12,0.8,41.3,10.0,,,V*51
$GBGGA,140236.00,3114.000741,N,12130.041357,E,1,12,0.8,41.3,M,10.0,M,,*40

$GBGSV,5,1,17,45,39,215,41,44,49,044,41,41,15,067,39,37,13,149,42,1*72
$GBGSV,5,2,17,36,72,276,42,32,13,210,41,30,14,277,37,23,28,128,41,1*72
$GBGSV,5,3,17,17,42,040,41,14,54,075,42,13,48,171,42,11,22,091,39,1*7A
$GBGSV,5,4,17,08,00,000,41,06,44,206,42,04,39,124,42,02,00,000,42,1*73
$GBGSV,5,5,17,01,00,000,42,1*47
$QL001,1591020157000,31.233345,121.500376,51.299308,24.600,270.100,2.829,2.500,0.469,0.371
$QL002,4,4,1,0,2.000,2.000,0.047,-24.610,-0.212,0.334,0.329,0.235,18
$QL003,0.0000,0.0000,0.0000,0.0000,0.0000,0.0000,0.0000,0.0000,0.0000,0.0000
$QL004,2,1F,take_turns,line_accelerate
$GBGSA,A,3,06,11,13,14,17,23,30,32,36,37,41,44,1.1,0.8,0.8,4*38
$GBVTG,270.1,T,274.6,M,47.8,N,88.6,K,A*3F
$GBDTM,P90,,0000.000023,S,00000.000001,W,0.987,W84*46
$GBRMC,140237.00,A,3114.000696,N,12130.022541,E,47.8,270.1,010620,4.5,W,A,V*78
$GBGNS,140237.00,3114.000696,N,12130.022541,E,NNNAN,13,0.8,41.3,10.0,,,V*5E
$GBGGA,140237.00,3114.000696,N,12130.022541,E,1,12,0.8,41.3,M,10.0,M,,*4E

$GBGSV,5,1,17,45,39,215,41,44,49,044,41,41,15,067,39,37,13,149,41,1*71
$GBGSV,5,2,17,36,72,276,42,32,13,210,42,30,14,277,38,23,28,128,40,1*7F
$GBGSV,5,3,17,17,42,040,41,14,54,075,41,13,48,171,42,11,22,091,39,1*79
$GBGSV,5,4,17,08,00,000,41,06,44,206,42,04,39,124,42,02,00,000,42,1*73
$GBGSV,5,5,17,01,00,000,42,1*47
$QL001,1591020158000,31.233344,121.500206,51.241972,10.960,269.800,2.829,2.500,0.531,1.683
$QL002,4,4,1,0,2.000,2.000,-0.040,-10.960,-0.003,0.384,0.367,0.385,18
$QL003,0.0000,0.0000,0.0000,0.0000,0.0000,0.0000,0.0000,0.0000,0.0000,0.0000
$QL004,2,1F,take_turns,line_accelerate
$GBGSA,A,3,06,11,13,14,17,23,30,32,36,37,41,44,1.1,0.8,0.8,4*38
$GBVTG,269.8,T,274.3,M,21.3,N,39.5,K,A*39
$GBDTM,P90,,0000.000023,S,00000.000001,W,0.987,W84*46
$GBRMC,140238.00,A,3114.000656,N,12130.012347,E,21.3,269.8,010620,4.5,W,A,V*72
$GBGNS,140238.00,3114.000656,N,12130.012347,E,NNNAN,13,0.8,41.2,10.0,,,V*5F
$GBGGA,140238.00,3114.000656,N,12130.012347,E,1,12,0.8,41.2,M,10.0,M,,*4F

$GBGSV,5,1,17,45,39,215,42,44,49,044,41,41,15,067,41,37,13,149,43,1*7F
$GBGSV,5,2,17,36,72,276,43,32,13,210,41,30,14,277,41,23,28,128,42,1*71
$GBGSV,5,3,17,17,42,040,42,14,54,075,41,13,48,171,42,11,22,091,42,1*76
$GBGSV,5,4,17,08,00,000,42,06,44,206,42,04,39,124,42,02,00,000,42,1*70
$GBGSV,5,5,17,01,00,000,42,1*47
$QL001,1591020159000,31.233356,121.500123,51.261969,7.440,288.700,2.829,2.500,0.450,0.420
$QL002,4,4,1,0,2.000,2.000,2.385,-7.049,0.045,0.319,0.318,0.125,18
$QL003,0.0000,0.0000,0.0000,0.0000,0.0000,0.0000,0.0000,0.0000,0.0000,0.0000
$QL004,2,1F,take_turns,line_accelerate
$GBGSA,A,3,06,11,13,14,17,23,30,32,36,37,45,,1.2,0.9,0.8,4*3E
$GBVTG,288.7,T,293.2,M,14.5,N,26.8,K,A*32
$GBDTM,P90,,0000.000023,S,00000.000001,W,0.987,W84*46
$GBRMC,140239.00,A,3114.001383,N,12130.007399,E,14.5,288.7,010620,4.5,W,A,V*78
$GBGNS,140239.00,3114.001383,N,12130.007399,E,NNNAN,11,0.9,41.3,10.0,,,V*57
$GBGGA,140239.00,3114.001383,N,12130.007399,E,1,11,0.9,41.3,M,10.0,M,,*46

$GBGSV,5,1,17,45,39,215,42,44,49,044,42,41,15,067,42,37,13,149,42,1*7E
$GBGSV,5,2,17,36,72,276,42,32,13,210,42,30,14,277,42,23,28,128,42,1*70
$GBGSV,5,3,17,17,42,040,42,14,54,075,42,13,48,171,42,11,22,091,42,1*75
$GBGSV,5,4,17,08,00,000,42,06,44,206,42,04,39,124,42,02,00,000,42,1*70
$GBGSV,5,5,17,01,00,000,42,1*47
$QL001,1591020160000,31.233399,121.500051,51.158946,8.000,314.900,2.829,2.500,0.450,0.365
$QL002,4,4,1,0,2.000,2.000,5.654,-5.666,-0.230,0.318,0.318,0.124,18
$QL003,0.0000,0.0000,0.0000,0.0000,0.0000,0.0000,0.0000,0.0000,0.0000,0.0000
$QL004,2,1F,take_turns,line_accelerate
$GBGSA,A,3,06,11,13,14,17,23,30,32,37,41,44,45,1.1,0.8,0.8,4*3C
$GBVTG,314.9,T,319.4,M,15.6,N,28.8,K,A*31
$GBDTM,P90,,0000.000023,S,00000.000001,W,0.987,W84*46
$GBRMC,140240.00,A,3114.003914,N,12130.003037,E,15.6,314.9,010620,4.5,W,A,V*7B
$GBGNS,140240.00,3114.003914,N,12130.003037,E,NNNAN,12,0.8,41.2,10.0,,,V*5F
$GBGGA,140240.00,3114.003914,N,12130.003037,E,1,12,0.8,41.2,M,10.0,M,,*4E

$GBGSV,5,1,17,45,39,215,42,44,49,044,42,41,15,067,42,37,13,149,41,1*7D
$GBGSV,5,2,17,36,72,276,42,32,13,210,42,30,14,277,42,23,28,128,42,1*70
$GBGSV,5,3,17,17,42,040,42,14,54,075,42,13,48,171,42,11,22,091,42,1*75
$GBGSV,5,4,17,08,00,000,42,06,44,206,42,04,39,124,42,02,00,000,42,1*70
$GBGSV,5,5,17,01,00,000,42,1*47
$QL001,1591020161000,31.233462,121.500004,51.050742,8.530,337.100,2.829,2.500,0.464,0.921
$QL002,4,4,1,0,2.000,2.000,7.865,-3.325,0.014,0.330,0.326,0.195,18
$QL003,0.0000,0.0000,0.0000,0.0000,0.0000,0.0000,0.0000,0.0000,0.0000,0.0000
$QL004,2,1F,take_turns,line_accelerate
$GBGSA,A,3,06,11,13,14,17,23,30,32,36,37,41,44,1.1,0.8,0.8,4*38
$GBVTG,337.1,T,341.6,M,16.6,N,30.7,K,A*32
$GBDTM,P90,,0000.000023,S,00000.000001,W,0.987,W84*46
$GBRMC,140241.00,A,3114.007743,N,12130.000246,E,16.6,337.1,010620,4.5,W,A,V*7F
$GBGNS,140241.00,3114.007743,N,12130.000246,E,NNNAN,13,0.8,41.1,10.0,,,V*53
$GBGGA,140241.00,3114.007743,N,12130.000246,E,1,12,0.8,41.1,M,10.0,M,,*43

$GBGSV,5,1,17,45,39,215,42,44,49,044,42,41,15,067,42,37,13,149,42,1*7E
$GBGSV,5,2,17,36,72,276,42,32,13,210,42,30,14,277,42,23,28,128,42,1*70
$GBGSV,5,3,17,17,42,040,42,14,54,075,42,13,48,171,42,11,22,091,43,1*74
$GBGSV,5,4,17,08,00,000,42,06,44,206,42,04,39,124,42,02,00,000,42,1*70
$GBGSV,5,5,17,01,00,000,42,1*47
$QL001,1591020162000,31.233536,121.499993,51.213968,8.530,1.000,2.829,2.500,0.481,1.344
$QL002,4,4,1,0,2.000,2.000,8.531,0.152,0.116,0.344,0.337,0.263,18
$QL003,0.0000,0.0000,0.0000,0.0000,0.0000,0.0000,0.0000,0.0000,0.0000,0.0000
$QL004,2,1F,take_turns,line_accelerate
$GBGSA,A,3,06,11,13,14,17,23,30,32,36,37,41,44,1.1,0.8,0.8,4*38
$GBVTG,1.0,T,5.5,M,16.6,N,30.7,K,A*35
$GBDTM,P90,,0000.000023,S,00000.000001,W,0.987,W84*46
$GBRMC,140242.00,A,3114.012174,N,12129.999553,E,16.6,1.0,010620,4.5,W,A,V*7F
$GBGNS,140242.00,3114.012174,N,12129.999553,E,NNNAN,13,0.8,41.2,10.0,,,V*57
$GBGGA,140242.00,3114.012174,N,12129.999553,E,1,12,0.8,41.2,M,10.0,M,,*47

$GBGSV,5,1,17,45,39,215,41,44,49,044,42,41,15,067,41,37,13,149,41,1*7D
$GBGSV,5,2,17,36,72,276,42,32,13,210,40,30,14,277,42,23,28,128,41,1*71
$GBGSV,5,3,17,17,42,040,41,14,54,075,42,13,48,171,42,11,22,091,42,1*76
$GBGSV,5,4,17,08,00,000,41,06,44,206,41,04,39,124,42,02,00,000,42,1*70
$GBGSV,5,5,17,01,00,000,42,1*47
$QL001,1591020163000,31.233691,121.499993,51.196805,21.750,0.400,2.829,2.500,0.450,0.141
$QL002,4,4,1,0,2.000,2.000,21.751,0.161,-0.126,0.318,0.318,0.122,18
$QL003,0.0000,0.0000,0.0000,0.0000,0.0000,0.0000,0.0000,0.0000,0.0000,0.0000
$QL004,2,1F,take_turns,line_accelerate
$GBGSA,A,3,06,11,13,14,17,23,30,32,36,41,44,,1.2,0.9,0.8,4*3E
$GBVTG,0.4,T,4.9,M,42.3,N,78.3,K,A*31
$GBDTM,P90,,0000.000023,S,00000.000001,W,0.987,W84*46
$GBRMC,140243.00,A,3114.021476,N,12129.999564,E,42.3,0.4,010620,4.5,W,A,V*7C
$GBGNS,140243.00,3114.021476,N,12129.999564,E,NNNAN,11,0.9,41.2,10.0,,,V*56
$GBGGA,140243.00,3114.021476,N,12129.999564,E,1,11,0.9,41.2,M,10.0,M,,*47

$GBGSV,5,1,17,45,39,215,41,44,49,044,42,41,15,067,42,37,13,149,39,1*71
$GBGSV,5,2,17,36,72,276,42,32,13,210,39,30,14,277,42,23,28,128,41,1*7F
$GBGSV,5,3,17,17,42,040,41,14,54,075,42,13,48,171,40,11,22,091,42,1*74
$GBGSV,5,4,17,08,00,000,41,06,44,206,41,04,39,124,42,02,00,000,42,1*70
$GBGSV,5,5,17,01,00,000,42,1*47
$QL001,1591020164000,31.233971,121.499993,51.237567,36.130,0.200,2.829,2.500,0.524,0.484
$QL002,4,4,1,0,2.000,2.000,36.134,0.157,-0.082,0.379,0.361,0.373,18
$QL003,0.0000,0.0000,0.0000,0.0000,0.0000,0.0000,0.0000,0.0000,0.0000,0.0000
$QL004,2,1F,take_turns,line_accelerate
$GBGSA,A,3,06,11,13,14,17,23,30,32,36,37,41,44,1.1,0.8,0.8,4*38
$GBVTG,0.2,T,4.7,M,70.2,N,130.1,K,A*06
$GBDTM,P90,,0000.000023,S,00000.000001,W,0.987,W84*46
$GBRMC,140244.00,A,3114.038273,N,12129.999589,E,70.2,0.2,010620,4.5,W,A,V*75
$GBGNS,140244.00,3114.038273,N,12129.999589,E,NNNAN,13,0.8,41.2,10.0,,,V*5A
$GBGGA,140244.00,3114.038273,N,12129.999589,E,1,12,0.8,41.2,M,10.0,M,,*4A

$GBGSV,5,1,17,45,39,215,40,44,49,044,41,41,15,067,42,37,13,149,39,1*73
$GBGSV,5,2,17,36,72,276,42,32,13,210,39,30,14,277,42,23,28,128,41,1*7F
$GBGSV,5,3,17,17,42,040,41,14,54,075,42,13,48,171,40,11,22,091,42,1*74
$GBGSV,5,4,17,08,00,000,41,06,44,206,40,04,39,124,42,02,00,000,43,1*70
$GBGSV,5,5,17,01,00,000,42,1*47
$QL001,1591020165000,31.234378,121.499994,51.161303,50.240,359.999,2.829,2.500,0.463,0.154
$QL002,4,4,1,0,2.000,2.000,50.243,-0.025,-0.078,0.330,0.325,0.207,18
$QL003,0.0000,0.0000,0.0000,0.0000,0.0000,0.0000,0.0000,0.0000,0.0000,0.0000
$QL004,2,1F,take_turns,line_accelerate
$GBGSA,A,3,06,11,13,14,17,23,30,32,36,37,41,44,1.1,0.8,0.8,4*38
$GBVTG,360.0,T,4.5,M,97.7,N,180.9,K,A*0C
$GBDTM,P90,,0000.000023,S,00000.000001,W,0.987,W84*46
$GBRMC,140245.00,A,3114.062695,N,12129.999627,E,97.7,360.0,010620,4.5,W,A,V*7B
$GBGNS,140245.00,3114.062695,N,12129.999627,E,NNNAN,13,0.8,41.2,10.0,,,V*5F
$GBGGA,140245.00,3114.062695,N,12129.999627,E,1,12,0.8,41.2,M,10.0,M,,*4F

$GBGSV,5,1,17,45,39,215,40,44,49,044,41,41,15,067,41,37,13,149,39,1*70
$GBGSV,5,2,17,36,72,276,42,32,13,210,39,30,14,277,42,23,28,128,41,1*7F
$GBGSV,5,3,17,17,42,040,41,14,54,075,42,13,48,171,40,11,22,091,42,1*74
$GBGSV,5,4,17,08,38,317,41,06,44,206,41,04,39,124,42,02,00,000,43,1*7F
$GBGSV,5,5,17,01,00,000,42,1*47
$QL001,1591020166000,31.234907,121.499994,51.052921,63.860,359.999,2.829,2.500,0.478,0.170
$QL002,4,4,1,0,2.000,2.000,63.861,-0.021,0.030,0.342,0.335,0.286,18
$QL003,0.0000,0.0000,0.0000,0.0000,0.0000,0.0000,0.0000,0.0000,0.0000,0.0000
$QL004,2,1F,take_turns,line_accelerate
$GBGSA,A,3,06,08,11,13,14,17,23,30,32,36,37,41,1.0,0.7,0.8,4*3E
$GBVTG,360.0,T,4.5,M,124.1,N,229.9,K,A*33
$GBDTM,P90,,0000.000023,S,00000.000001,W,0.987,W84*46
$GBRMC,140246.00,A,3114.094431,N,12129.999613,E,124.1,360.0,010620,4.5,W,A,V*45
$GBGNS,140246.00,3114.094431,N,12129.999613,E,NNNAN,14,0.7,41.1,10.0,,,V*55
$GBGGA,140246.00,3114.094431,N,12129.999613,E,1,12,0.7,41.1,M,10.0,M,,*42

$GBGSV,5,1,17,45,39,215,41,44,49,044,41,41,15,067,42,37,13,149,39,1*72
$GBGSV,5,2,17,36,72,276,42,32,13,210,40,30,14,277,42,23,28,128,41,1*71
$GBGSV,5,3,17,17,42,040,41,14,54,075,42,13,48,171,40,11,22,091,42,1*74
$GBGSV,5,4,17,08,38,317,41,06,44,206,41,04,39,124,42,02,00,000,43,1*7F
$GBGSV,5,5,17,01,00,000,42,1*47
$QL001,1591020167000,31.235560,121.499994,51.077661,77.710,0.100,2.829,2.500,0.467,0.110
$QL002,4,4,1,0,2.000,2.000,77.714,0.085,-0.037,0.332,0.328,0.241,18
$QL003,0.0000,0.0000,0.0000,0.0000,0.0000,0.0000,0.0000,0.0000,0.0000,0.0000
$QL004,2,1F,take_turns,line_accelerate
$GBGSA,A,3,06,08,11,13,14,17,23,30,32,36,37,41,1.0,0.7,0.8,4*3E
$GBVTG,0.1,T,4.6,M,151.1,N,279.8,K,A*32
$GBDTM,P90,,0000.000023,S,00000.000001,W,0.987,W84*46
$GBRMC,140247.00,A,3114.133606,N,12129.999645,E,151.1,0.1,010620,4.5,W,A,V*4B
$GBGNS,140247.00,3114.133606,N,12129.999645,E,NNNAN,14,0.7,41.1,10.0,,,V*5D
$GBGGA,140247.00,3114.133606,N,12129.999645,E,1,12,0.7,41.1,M,10.0,M,,*4A

$GBGSV,5,1,17,45,39,215,41,44,49,044,41,41,15,067,42,37,13,149,41,1*7D
$GBGSV,5,2,17,36,72,276,42,32,13,210,41,30,14,277,42,23,28,128,42,1*73
$GBGSV,5,3,17,17,42,040,42,14,54,075,42,13,48,171,41,11,22,091,43,1*77
$GBGSV,5,4,17,08,38,317,42,06,44,206,41,04,39,124,42,02,00,000,43,1*7C
$GBGSV,5,5,17,01,00,000,42,1*47
$QL001,1591020168000,31.236308,121.499995,51.130888,84.060,0.100,2.829,2.500,0.467,0.102
$QL002,4,4,1,0,2.000,2.000,84.060,0.094,0.044,0.332,0.328,0.223,18
$QL003,0.0000,0.0000,0.0000,0.0000,0.0000,0.0000,0.0000,0.0000,0.0000,0.0000
$QL004,2,1F,take_turns,line_accelerate
$GBGSA,A,3,06,08,11,13,14,17,23,30,32,36,37,41,1.0,0.7,0.8,4*3E
$GBVTG,0.1,T,4.6,M,163.4,N,302.6,K,A*35
$GBDTM,P90,,0000.000023,S,00000.000001,W,0.987,W84*46
$GBRMC,140248.00,A,3114.178504,N,12129.999673,E,163.4,0.1,010620,4.5,W,A,V*4B
$GBGNS,140248.00,3114.178504,N,12129.999673,E,NNNAN,14,0.7,41.1,10.0,,,V*59
$GBGGA,140248.00,3114.178504,N,12129.999673,E,1,12,0.7,41.1,M,10.0,M,,*4E

$GBGSV,5,1,17,45,39,215,42,44,49,044,42,41,15,067,42,37,13,149,42,1*7E
$GBGSV,5,2,17,36,72,276,42,32,13,210,42,30,14,277,42,23,28,128,43,1*71
$GBGSV,5,3,17,17,42,040,42,14,54,075,42,13,48,171,42,11,22,091,42,1*75
$GBGSV,5,4,17,08,38,317,42,06,44,206,42,04,39,124,42,02,00,000,43,1*7F
$GBGSV,5,5,17,01,00,000,42,1*47
$QL001,1591020169000,31.237059,121.499995,51.245820,84.020,0.000,2.829,2.500,0.461,0.086
$QL002,4,4,1,0,2.000,2.000,84.029,0.039,-0.009,0.327,0.325,0.199,18
$QL003,0.0000,0.0000,0.0000,0.0000,0.0000,0.0000,0.0000,0.0000,0.0000,0.0000
$QL004,2,1F,take_turns,line_accelerate
$GBGSA,A,3,06,08,11,13,14,17,30,32,36,37,41,44,1.1,0.7,0.8,4*3E
$GBVTG,0.0,T,4.5,M,163.3,N,302.5,K,A*33
$GBDTM,P90,,0000.000023,S,00000.000001,W,0.987,W84*46
$GBRMC,140249.00,A,3114.223548,N,12129.999708,E,163.3,0.0,010620,4.5,W,A,V*44
$GBGNS,140249.00,3114.223548,N,12129.999708,E,NNNAN,13,0.7,41.2,10.0,,,V*54
$GBGGA,140249.00,3114.223548,N,12129.999708,E,1,12,0.7,41.2,M,10.0,M,,*44

$GBGSV,5,1,17,45,39,215,42,44,49,044,42,41,15,067,42,37,13,149,42,1*7E
$GBGSV,5,2,17,36,72,276,42,32,13,210,43,30,14,277,42,23,28,128,42,1*71
$GBGSV,5,3,17,17,42,040,42,14,54,075,42,13,48,171,42,11,22,091,42,1*75
$GBGSV,5,4,17,08,38,317,42,06,44,206,42,04,39,124,42,02,00,000,43,1*7F
$GBGSV,5,5,17,01,00,000,42,1*47
$QL001,1591020170000,31.237809,121.499995,51.321885,83.320,0.000,2.829,2.500,0.461,0.086
$QL002,4,4,1,0,2.000,2.000,83.330,0.035,-0.023,0.327,0.324,0.200,18
$QL003,0.0000,0.0000,0.0000,0.0000,0.0000,0.0000,0.0000,0.0000,0.0000,0.0000
$QL004,2,1F,take_turns,line_accelerate
$GBGSA,A,3,06,08,11,13,14,17,23,30,32,36,37,41,1.0,0.7,0.8,4*3E
$GBVTG,0.0,T,4.5,M,162.0,N,300.0,K,A*36
$GBDTM,P90,,0000.000023,S,00000.000001,W,0.987,W84*46
$GBRMC,140250.00,A,3114.268564,N,12129.999711,E,162.0,0.0,010620,4.5,W,A,V*47
$GBGNS,140250.00,3114.268564,N,12129.999711,E,NNNAN,14,0.7,41.3,10.0,,,V*53
$GBGGA,140250.00,3114.268564,N,12129.999711,E,1,12,0.7,41.3,M,10.0,M,,*44

$GBGSV,5,1,17,45,39,215,43,44,49,044,43,41,15,067,42,37,13,149,42,1*7E
$GBGSV,5,2,17,36,72,276,42,32,13,210,42,30,14,277,42,23,28,128,42,1*70
$GBGSV,5,3,17,17,42,040,42,14,54,075,42,13,48,171,42,11,22,091,42,1*75
$GBGSV,5,4,17,08,38,317,42,06,44,206,42,04,39,124,42,02,00,000,43,1*7F
$GBGSV,5,5,17,01,00,000,42,1*47
$QL001,1591020171000,31.238561,121.499996,51.366647,83.340,359.999,2.829,2.500,0.466,0.101
$QL002,4,4,1,0,2.000,2.000,83.348,-0.042,0.151,0.331,0.328,0.220,18
$QL003,0.0000,0.0000,0.0000,0.0000,0.0000,0.0000,0.0000,0.0000,0.0000,0.0000
$QL004,2,1F,take_turns,line_accelerate
$GBGSA,A,3,06,08,11,13,14,17,23,30,32,36,37,41,1.0,0.7,0.8,4*3E
$GBVTG,360.0,T,4.5,M,162.0,N,300.0,K,A*33
$GBDTM,P90,,0000.000023,S,00000.000001,W,0.987,W84*46
$GBRMC,140251.00,A,3114.313634,N,12129.999737,E,162.0,360.0,010620,4.5,W,A,V*4C
$GBGNS,140251.00,3114.313634,N,12129.999737,E,NNNAN,14,0.7,41.4,10.0,,,V*5A
$GBGGA,140251.00,3114.313634,N,12129.999737,E,1,12,0.7,41.4,M,10.0,M,,*4D

$GBGSV,5,1,17,45,39,215,42,44,49,044,42,41,15,067,42,37,13,149,42,1*7E
$GBGSV,5,2,17,36,72,276,42,32,13,210,42,30,14,277,43,23,28,128,42,1*71
$GBGSV,5,3,17,17,42,040,42,14,54,075,42,13,48,171,42,11,22,091,42,1*75
$GBGSV,5,4,17,08,38,317,42,06,44,206,42,04,39,124,42,02,00,000,43,1*7F
$GBGSV,5,5,17,01,00,000,42,1*47
$QL001,1591020172000,31.239312,121.499996,51.612893,83.240,359.999,2.829,2.500,0.449,0.033
$QL002,4,4,1,0,2.000,2.000,83.244,-0.071,0.469,0.318,0.317,0.122,18
$QL003,0.0000,0.0000,0.0000,0.0000,0.0000,0.0000,0.0000,0.0000,0.0000,0.0000
$QL004,2,1F,take_turns,line_accelerate
$GBGSA,A,3,06,08,11,13,14,17,23,30,32,36,41,44,1.1,0.8,0.8,4*34
$GBVTG,360.0,T,4.5,M,161.8,N,299.7,K,A*3E
$GBDTM,P90,,0000.000023,S,00000.000001,W,0.987,W84*46
$GBRMC,140252.00,A,3114.358730,N,12129.999744,E,161.8,360.0,010620,4.5,W,A,V*4A
$GBGNS,140252.00,3114.358730,N,12129.999744,E,NNNAN,12,0.8,41.6,10.0,,,V*5C
$GBGGA,140252.00,3114.358730,N,12129.999744,E,1,12,0.8,41.6,M,10.0,M,,*4D

$GBGSV,5,1,17,45,39,215,42,44,49,044,42,41,15,067,42,37,13,149,41,1*7D
$GBGSV,5,2,17,36,72,276,42,32,13,210,41,30,14,277,42,23,28,128,42,1*73
$GBGSV,5,3,17,17,42,040,42,14,54,075,42,13,48,171,42,11,22,091,42,1*75
$GBGSV,5,4,17,08,38,317,42,06,44,206,42,04,39,124,42,02,00,000,43,1*7F
$GBGSV,5,5,17,01,00,000,42,1*47
$QL001,1591020173000,31.240016,121.499996,51.599984,73.290,359.999,2.829,2.500,0.474,0.137
$QL002,4,4,1,0,2.000,2.000,73.299,-0.010,-0.101,0.338,0.332,0.269,18
$QL003,0.0000,0.0000,0.0000,0.0000,0.0000,0.0000,0.0000,0.0000,0.0000,0.0000
$QL004,2,1F,take_turns,line_accelerate
$GBGSA,A,3,06,08,11,13,14,17,23,30,32,36,37,41,1.1,0.7,0.8,4*3F
$GBVTG,360.0,T,4.5,M,142.5,N,263.8,K,A*38
$GBDTM,P90,,0000.000023,S,00000.000001,W,0.987,W84*46
$GBRMC,140253.00,A,3114.400967,N,12129.999750,E,142.5,360.0,010620,4.5,W,A,V*44
$GBGNS,140253.00,3114.400967,N,12129.999750,E,NNNAN,13,0.7,41.6,10.0,,,V*50
$GBGGA,140253.00,3114.400967,N,12129.999750,E,1,12,0.7,41.6,M,10.0,M,,*40

$GBGSV,5,1,17,45,39,215,40,44,49,044,42,41,15,067,41,37,13,149,39,1*73
$GBGSV,5,2,17,36,72,276,42,32,13,210,39,30,14,277,42,23,28,128,41,1*7F
$GBGSV,5,3,17,17,42,040,40,14,54,075,42,13,48,171,40,11,22,091,42,1*75
$GBGSV,5,4,17,08,38,317,41,06,44,206,40,04,39,124,42,02,00,000,43,1*7E
$GBGSV,5,5,17,01,00,000,42,1*47
$QL001,1591020174000,31.240593,121.499996,51.727612,59.370,359.999,2.829,2.500,0.486,0.207
$QL002,4,4,1,0,2.000,2.000,59.370,-0.023,0.228,0.348,0.339,0.313,18
$QL003,0.0000,0.0000,0.0000,0.0000,0.0000,0.0000,0.0000,0.0000,0.0000,0.0000
$QL004,2,1F,take_turns,line_accelerate
$GBGSA,A,3,06,08,11,13,14,17,23,30,32,36,37,41,1.0,0.7,0.8,4*3E
$GBVTG,360.0,T,4.5,M,115.4,N,213.7,K,A*33
$GBDTM,P90,,0000.000023,S,00000.000001,W,0.987,W84*46
$GBRMC,140254.00,A,3114.435577,N,12129.999774,E,115.4,360.0,010620,4.5,W,A,V*4D
$GBGNS,140254.00,3114.435577,N,12129.999774,E,NNNAN,14,0.7,41.7,10.0,,,V*5C
$GBGGA,140254.00,3114.435577,N,12129.999774,E,1,12,0.7,41.7,M,10.0,M,,*4B

$GBGSV,5,1,17,45,39,215,41,44,49,044,41,41,15,067,42,37,13,149,39,1*72
$GBGSV,5,2,17,36,72,276,42,32,13,210,39,30,14,277,42,23,28,128,41,1*7F
$GBGSV,5,3,17,17,42,040,41,14,54,075,42,13,48,171,40,11,22,091,42,1*74
$GBGSV,5,4,17,08,38,317,40,06,44,206,40,04,39,124,42,02,00,000,43,1*7F
$GBGSV,5,5,17,01,00,000,42,1*47
$QL001,1591020175000,31.241047,121.499996,51.769090,45.900,359.999,2.831,2.501,1.153,1.489
$QL002,4,4,1,0,2.002,2.002,45.902,-0.034,0.121,0.841,0.788,0.755,18
$QL003,0.0000,0.0000,0.0000,0.0000,0.0000,0.0000,0.0000,0.0000,0.0000,0.0000
$QL004,2,1F,take_turns,line_accelerate
$GBGSA,A,3,08,11,13,14,23,30,32,36,37,41,44,45,1.1,0.8,0.8,4*31
$GBVTG,360.0,T,4.5,M,89.2,N,165.2,K,A*06
$GBDTM,P90,,0000.000023,S,00000.000001,W,0.987,W84*46
$GBRMC,140255.00,A,3114.462833,N,12129.999767,E,89.2,360.0,010620,4.5,W,A,V*73
$GBGNS,140255.00,3114.462833,N,12129.999767,E,NNNAN,12,0.8,41.8,10.0,,,V*56
$GBGGA,140255.00,3114.462833,N,12129.999767,E,1,12,0.8,41.8,M,10.0,M,,*47

$GBGSV,5,1,17,45,39,215,40,44,49,044,41,41,15,067,41,37,13,149,40,1*7E
$GBGSV,5,2,17,36,72,276,42,32,13,210,39,30,14,277,42,23,28,128,41,1*7F
$GBGSV,5,3,17,17,42,040,40,14,54,075,41,13,48,171,41,11,22,091,42,1*77
$GBGSV,5,4,17,08,38,317,41,06,44,206,40,04,39,124,42,02,00,000,43,1*7E
$GBGSV,5,5,17,01,00,000,42,1*47
$QL001,1591020176000,31.241373,121.499997,51.894109,31.250,0.100,2.829,2.500,0.474,0.325
$QL002,4,4,1,0,2.000,2.000,31.258,0.067,0.004,0.338,0.332,0.262,18
$QL003,0.0000,0.0000,0.0000,0.0000,0.0000,0.0000,0.0000,0.0000,0.0000,0.0000
$QL004,2,1F,take_turns,line_accelerate
$GBGSA,A,3,06,08,11,13,14,17,30,32,36,37,41,44,1.1,0.7,0.8,4*3E
$GBVTG,0.1,T,4.6,M,60.7,N,112.5,K,A*04
$GBDTM,P90,,0000.000023,S,00000.000001,W,0.987,W84*46
$GBRMC,140256.00,A,3114.482401,N,12129.999790,E,60.7,0.1,010620,4.5,W,A,V*7D
$GBGNS,140256.00,3114.482401,N,12129.999790,E,NNNAN,13,0.7,41.9,10.0,,,V*51
$GBGGA,140256.00,3114.482401,N,12129.999790,E,1,12,0.7,41.9,M,10.0,M,,*41

$GBGSV,5,1,17,45,39,215,41,44,49,044,41,41,15,067,42,37,13,149,39,1*72
$GBGSV,5,2,17,36,72,276,42,32,13,210,39,30,14,277,42,23,28,128,41,1*7F
$GBGSV,5,3,17,17,42,040,41,14,54,075,42,13,48,171,40,11,22,091,42,1*74
$GBGSV,5,4,17,08,38,317,41,06,44,206,41,04,39,124,42,02,00,000,42,1*7E
$GBGSV,5,5,17,01,00,000,42,1*47
$QL001,1591020177000,31.241579,121.499996,51.896843,17.460,359.500,2.829,2.500,0.478,0.625
$QL002,4,4,1,0,2.000,2.000,17.465,-0.161,0.023,0.342,0.335,0.284,18
$QL003,0.0000,0.0000,0.0000,0.0000,0.0000,0.0000,0.0000,0.0000,0.0000,0.0000
$QL004,2,1F,take_turns,line_accelerate
$GBGSA,A,3,02,06,08,11,13,14,17,23,30,32,36,37,1.0,0.7,0.7,4*36
$GBVTG,359.5,T,4.0,M,33.9,N,62.9,K,A*3B
$GBDTM,P90,,0000.000023,S,00000.000001,W,0.987,W84*46
$GBRMC,140257.00,A,3114.494715,N,12129.999733,E,33.9,359.5,010620,4.5,W,A,V*77
$GBGNS,140257.00,3114.494715,N,12129.999733,E,NNNAN,15,0.7,41.9,10.0,,,V*5E
$GBGGA,140257.00,3114.494715,N,12129.999733,E,1,12,0.7,41.9,M,10.0,M,,*48

$GBGSV,5,1,17,45,39,215,42,44,49,044,41,41,15,067,42,37,13,149,41,1*7E
$GBGSV,5,2,17,36,72,276,42,32,13,210,41,30,14,277,42,23,28,128,41,1*70
$GBGSV,5,3,17,17,42,040,42,14,54,075,42,13,48,171,41,11,22,091,42,1*76
$GBGSV,5,4,17,08,38,317,41,06,44,206,41,04,39,124,42,02,00,000,42,1*7E
$GBGSV,5,5,17,01,00,000,42,1*47
$QL001,1591020178000,31.241670,121.499999,51.913384,7.390,7.000,2.829,2.500,0.450,0.410
$QL002,4,4,1,0,2.000,2.000,7.338,0.900,-0.113,0.318,0.318,0.130,18
$QL003,0.0000,0.0000,0.0000,0.0000,0.0000,0.0000,0.0000,0.0000,0.0000,0.0000
$QL004,2,1F,take_turns,line_accelerate
$GBGSA,A,3,02,06,08,11,13,14,17,23,32,36,37,44,1.2,0.8,0.8,4*37
$GBVTG,7.0,T,11.5,M,14.4,N,26.6,K,A*00
$GBDTM,P90,,0000.000023,S,00000.000001,W,0.987,W84*46
$GBRMC,140258.00,A,3114.500208,N,12129.999945,E,14.4,7.0,010620,4.5,W,A,V*77
$GBGNS,140258.00,3114.500208,N,12129.999945,E,NNNAN,13,0.8,41.9,10.0,,,V*52
$GBGGA,140258.00,3114.500208,N,12129.999945,E,1,12,0.8,41.9,M,10.0,M,,*42

$GBGSV,5,1,17,45,39,215,42,44,49,044,42,41,15,067,42,37,13,149,42,1*7E
$GBGSV,5,2,17,36,72,276,42,32,13,210,42,30,14,277,42,23,28,128,42,1*70
$GBGSV,5,3,17,17,42,040,43,14,54,075,42,13,48,171,42,11,22,091,42,1*74
$GBGSV,5,4,17,08,38,317,42,06,44,206,42,04,39,124,42,02,00,000,42,1*7E
$GBGSV,5,5,17,01,00,000,42,1*47
$QL001,1591020179000,31.241739,121.500032,51.973657,7.560,32.900,2.829,2.500,0.465,1.075
$QL002,4,4,1,0,2.000,2.000,6.352,4.113,0.149,0.330,0.327,0.218,18
$QL003,0.0000,0.0000,0.0000,0.0000,0.0000,0.0000,0.0000,0.0000,0.0000,0.0000
$QL004,2,1F,take_turns,line_accelerate
$GBGSA,A,3,02,06,08,11,13,14,17,23,30,32,36,37,1.0,0.7,0.7,4*36
$GBVTG,32.9,T,37.4,M,14.7,N,27.2,K,A*3C
$GBDTM,P90,,0000.000023,S,00000.000001,W,0.987,W84*46
$GBRMC,140259.00,A,3114.504356,N,12130.001943,E,14.7,32.9,010620,4.5,W,A,V*42
$GBGNS,140259.00,3114.504356,N,12130.001943,E,NNNAN,15,0.7,42.0,10.0,,,V*58
$GBGGA,140259.00,3114.504356,N,12130.001943,E,1,12,0.7,42.0,M,10.0,M,,*4E

$GBGSV,5,1,17,45,39,215,42,44,49,044,42,41,15,067,42,37,13,149,42,1*7E
$GBGSV,5,2,17,36,72,276,42,32,13,210,42,30,14,277,41,23,28,128,42,1*73
$GBGSV,5,3,17,17,42,040,42,14,54,075,42,13,48,171,42,11,22,091,42,1*75
$GBGSV,5,4,17,08,38,317,42,06,44,206,43,04,39,124,42,02,00,000,42,1*7F
$GBGSV,5,5,17,01,00,000,42,1*47
$QL001,1591020180000,31.241792,121.500096,51.869319,8.400,55.600,2.829,2.500,0.483,1.390
$QL002,4,4,1,0,2.000,2.000,4.753,6.928,-0.153,0.344,0.338,0.267,18
$QL003,0.0000,0.0000,0.0000,0.0000,0.0000,0.0000,0.0000,0.0000,0.0000,0.0000
$QL004,2,1F,take_turns,line_accelerate
$GBGSA,A,3,02,06,08,11,13,14,17,23,30,32,36,37,1.0,0.7,0.7,4*36
$GBVTG,55.6,T,60.1,M,16.3,N,30.2,K,A*35
$GBDTM,P90,,0000.000023,S,00000.000001,W,0.987,W84*46
$GBRMC,140300.00,A,3114.507508,N,12130.005758,E,16.3,55.6,010620,4.5,W,A,V*49
$GBGNS,140300.00,3114.507508,N,12130.005758,E,NNNAN,15,0.7,41.9,10.0,,,V*51
$GBGGA,140300.00,3114.507508,N,12130.005758,E,1,12,0.7,41.9,M,10.0,M,,*47

$GBGSV,5,1,17,45,39,215,42,44,49,044,42,41,15,067,43,37,13,149,42,1*7F
$GBGSV,5,2,17,36,72,276,42,32,13,210,43,30,14,277,42,23,28,128,42,1*71
$GBGSV,5,3,17,17,42,040,42,14,54,075,42,13,48,171,42,11,22,091,42,1*75
$GBGSV,5,4,17,08,38,317,42,06,44,206,42,04,39,124,42,02,00,000,42,1*7E
$GBGSV,5,5,17,01,00,000,42,1*47
$QL001,1591020181000,31.241817,121.500179,51.933121,8.550,79.100,2.829,2.500,0.449,0.299
$QL002,4,4,1,0,2.000,2.000,1.614,8.398,0.152,0.318,0.317,0.119,18
$QL003,0.0000,0.0000,0.0000,0.0000,0.0000,0.0000,0.0000,0.0000,0.0000,0.0000
$QL004,2,1F,take_turns,line_accelerate

$GBGSV,5,1,17,45,39,215,42,44,49,044,42,41,15,067,42,37,13,149,42,1*7E
$GBGSV,5,2,17,36,72,276,42,32,13,210,42,30,14,277,41,23,28,128,42,1*73
$GBGSV,5,3,17,17,42,040,42,14,54,075,42,13,48,171,42,11,22,091,42,1*75
$GBGSV,5,4,17,08,38,317,42,06,44,206,42,04,39,124,42,02,00,000,42,1*7E
$GBGSV,5,5,17,01,00,000,42,1*47
$QL001,1591020182000,31.241818,121.500297,51.964844,15.360,90.600,2.829,2.500,0.449,0.170
$QL002,4,4,1,0,2.000,2.000,-0.169,15.361,0.001,0.318,0.317,0.120,18
$QL003,0.0000,0.0000,0.0000,0.0000,0.0000,0.0000,0.0000,0.0000,0.0000,0.0000
$QL004,2,1F,take_turns,line_accelerate
$GBGSA,A,3,02,04,06,08,11,13,14,17,23,30,32,36,1.0,0.7,0.7,4*36
$GBVTG,90.6,T,95.1,M,29.9,N,55.3,K,A*32
$GBDTM,P90,,0000.000023,S,00000.000001,W,0.987,W84*46
$GBRMC,140302.00,A,3114.509088,N,12130.017799,E,29.9,90.6,010620,4.5,W,A,V*49
$GBGNS,140302.00,3114.509088,N,12130.017799,E,NNNAN,15,0.7,42.0,10.0,,,V*54
$GBGGA,140302.00,3114.509088,N,12130.017799,E,1,12,0.7,42.0,M,10.0,M,,*42

$GBGSV,5,1,17,45,39,215,42,44,49,044,41,41,15,067,39,37,13,149,41,1*72
$GBGSV,5,2,17,36,72,276,42,32,13,210,41,30,14,277,38,23,28,128,41,1*7D
$GBGSV,5,3,17,17,42,040,41,14,54,075,41,13,48,171,42,11,22,091,39,1*79
$GBGSV,5,4,17,08,38,317,41,06,44,206,42,04,39,124,43,02,00,000,42,1*7C
$GBGSV,5,5,17,01,00,000,42,1*47
$QL001,1591020183000,31.241818,121.500556,51.906507,29.300,90.300,2.829,2.500,0.474,0.343
$QL002,4,4,1,0,2.000,2.000,-0.163,29.308,0.185,0.337,0.333,0.264,18
$QL003,0.0000,0.0000,0.0000,0.0000,0.0000,0.0000,0.0000,0.0000,0.0000,0.0000
$QL004,2,1F,take_turns,line_accelerate
$GBGSA,A,3,01,02,04,06,08,11,13,14,17,23,30,32,1.0,0.7,0.7,4*32
$GBVTG,90.3,T,94.8,M,57.0,N,105.5,K,A*0D
$GBDTM,P90,,0000.000023,S,00000.000001,W,0.987,W84*46
$GBRMC,140303.00,A,3114.509102,N,12130.033332,E,57.0,90.3,010620,4.5,W,A,V*4D
$GBGNS,140303.00,3114.509102,N,12130.033332,E,NNNAN,17,0.7,41.9,10.0,,,V*5D
$GBGGA,140303.00,3114.509102,N,12130.033332,E,1,12,0.7,41.9,M,10.0,M,,*49

$GBGSV,5,1,17,45,39,215,42,44,49,044,41,41,15,067,39,37,13,149,42,1*71
$GBGSV,5,2,17,36,72,276,42,32,13,210,41,30,14,277,38,23,28,128,41,1*7D
$GBGSV,5,3,17,17,42,040,42,14,54,075,41,13,48,171,42,11,22,091,39,1*7A
$GBGSV,5,4,17,08,38,317,41,06,44,206,42,04,39,124,42,02,00,000,42,1*7D
$GBGSV,5,5,17,01,00,000,42,1*47
$QL001,1591020184000,31.241818,121.500959,52.029776,43.610,89.900,2.829,2.500,0.490,0.293
$QL002,4,4,1,0,2.000,2.000,0.039,43.617,0.129,0.349,0.344,0.317,18

$GBGSV,5,1,17,45,39,215,41,44,49,044,41,41,15,067,39,37,13,149,41,1*71
$GBGSV,5,2,17,36,72,276,42,32,13,210,41,30,14,277,39,23,28,128,40,1*7D
$GBGSV,5,3,17,17,42,040,41,14,54,075,41,13,48,171,42,11,22,091,39,1*79
$GBGSV,5,4,17,08,38,317,41,06,44,206,42,04,39,124,42,02,00,000,42,1*7D
$GBGSV,5,5,17,01,00,000,42,1*47
$QL001,1591020185000,31.241817,121.501505,52.042191,57.230,90.000,2.829,2.500,0.484,0.209
$QL002,4,4,1,0,2.000,2.000,-0.022,57.230,-0.346,0.346,0.340,0.302,18
$QL003,0.0000,0.0000,0.0000,0.0000,0.0000,0.0000,0.0000,0.0000,0.0000,0.0000
$QL004,2,1F,take_turns,line_accelerate
$GBGSA,A,3,02,06,08,11,13,14,17,23,30,32,36,37,1.0,0.7,0.7,4*36
$GBVTG,90.0,T,94.5,M,111.2,N,206.0,K,A*37
$GBDTM,P90,,0000.000023,S,00000.000001,W,0.987,W84*46
$GBRMC,140305.00,A,3114.509045,N,12130.090306,E,111.2,90.0,010620,4.5,W,A,V*75
$GBGNS,140305.00,3114.509045,N,12130.090306,E,NNNAN,15,0.7,42.0,10.0,,,V*5F
$GBGGA,140305.00,3114.509045,N,12130.090306,E,1,12,0.7,42.0,M,10.0,M,,*49

$GBGSV,5,1,17,45,39,215,41,44,49,044,41,41,15,067,39,37,13,149,41,1*71
$GBGSV,5,2,17,36,72,276,42,32,13,210,42,30,14,277,38,23,28,128,40,1*7F
$GBGSV,5,3,17,17,42,040,41,14,54,075,41,13,48,171,42,11,22,091,38,1*78
$GBGSV,5,4,17,08,38,317,41,06,44,206,42,04,39,124,42,02,00,000,42,1*7D
$GBGSV,5,5,17,01,00,000,42,1*47
$QL001,1591020186000,31.241817,121.502198,52.014624,71.300,90.000,2.829,2.500,0.467,0.122
$QL002,4,4,1,0,2.000,2.000,0.032,71.307,-0.108,0.333,0.328,0.222,18
$QL003,0.0000,0.0000,0.0000,0.0000,0.0000,0.0000,0.0000,0.0000,0.0000,0.0000
$QL004,2,1F,take_turns,line_accelerate
$GBGSA,A,3,02,06,11,13,14,17,23,30,32,36,37,41,1.1,0.8,0.7,4*35
$GBVTG,90.0,T,94.5,M,138.6,N,256.7,K,A*3A
$GBDTM,P90,,0000.000023,S,00000.000001,W,0.987,W84*46
$GBRMC,140306.00,A,3114.509015,N,12130.131869,E,138.6,90.0,010620,4.5,W,A,V*74
$GBGNS,140306.00,3114.509015,N,12130.131869,E,NNNAN,14,0.8,42.0,10.0,,,V*5F
$GBGGA,140306.00,3114.509015,N,12130.131869,E,1,12,0.8,42.0,M,10.0,M,,*48

$GBGSV,5,1,17,45,39,215,42,44,49,044,41,41,15,067,39,37,13,149,41,1*72
$GBGSV,5,2,17,36,72,276,42,32,13,210,42,30,14,277,39,23,28,128,41,1*7F
$GBGSV,5,3,17,17,42,040,42,14,54,075,41,13,48,171,42,11,22,091,39,1*7A
$GBGSV,5,4,17,08,38,317,42,06,44,206,42,04,39,124,42,02,00,000,42,1*7E
$GBGSV,5,5,17,01,00,000,42,1*47

$GBGSV,5,1,17,45,39,215,42,44,49,044,43,41,15,067,42,37,13,149,42,1*7F
$GBGSV,5,2,17,36,72,276,42,32,13,210,43,30,14,277,42,23,28,128,42,1*71
$GBGSV,5,3,17,17,42,040,43,14,54,075,42,13,48,171,43,11,22,091,42,1*75
$GBGSV,5,4,17,08,38,317,42,06,44,206,42,04,39,124,42,02,00,000,42,1*7E
$GBGSV,5,5,17,01,00,000,42,1*47
$QL001,1591020188000,31.241817,121.503908,51.802777,84.190,90.000,2.829,2.500,0.465,0.097
$QL002,4,4,1,0,2.000,2.000,-0.020,84.196,-0.052,0.330,0.327,0.211,18
$QL003,0.0000,0.0000,0.0000,0.0000,0.0000,0.0000,0.0000,0.0000,0.0000,0.0000
$QL004,2,1F,take_turns,line_accelerate
$GBGSA,A,3,02,06,08,11,13,14,17,23,30,32,36,37,1.0,0.7,0.7,4*36
$GBVTG,90.0,T,94.5,M,163.7,N,303.1,K,A*32
$GBDTM,P90,,0000.000023,S,00000.000001,W,0.987,W84*46
$GBRMC,140308.00,A,3114.509009,N,12130.234490,E,163.7,90.0,010620,4.5,W,A,V*74
$GBGNS,140308.00,3114.509009,N,12130.234490,E,NNNAN,15,0.7,41.8,10.0,,,V*55
$GBGGA,140308.00,3114.509009,N,12130.234490,E,1,12,0.7,41.8,M,10.0,M,,*43

$GBGSV,5,1,17,45,39,215,42,44,49,044,42,41,15,067,43,37,13,149,42,1*7F
$GBGSV,5,2,17,36,72,276,43,32,13,210,42,30,14,277,42,23,28,128,42,1*71
$GBGSV,5,3,17,17,42,040,42,14,54,075,42,13,48,171,42,11,22,091,42,1*75
$GBGSV,5,4,17,08,38,317,42,06,44,206,42,04,39,124,42,02,00,000,42,1*7E
$GBGSV,5,5,17,01,00,000,42,1*47
$QL001,1591020189000,31.241817,121.504783,51.897888,83.740,90.000,2.829,2.500,0.461,0.085
$QL002,4,4,1,0,2.000,2.000,-0.020,83.749,0.189,0.327,0.324,0.190,18
$QL003,0.0000,0.0000,0.0000,0.0000,0.0000,0.0000,0.0000,0.0000,0.0000,0.0000
$QL004,2,1F,take_turns,line_accelerate
$GBGSA,A,3,02,06,08,11,13,14,23,30,32,36,37,41,1.0,0.7,0.7,4*35
$GBVTG,90.0,T,94.5,M,162.8,N,301.5,K,A*3A
$GBDTM,P90,,0000.000023,S,00000.000001,W,0.987,W84*46
$GBRMC,140309.00,A,3114.509011,N,12130.286951,E,162.8,90.0,010620,4.5,W,A,V*7B
$GBGNS,140309.00,3114.509011,N,12130.286951,E,NNNAN,14,0.7,41.9,10.0,,,V*54
$GBGGA,140309.00,3114.509011,N,12130.286951,E,1,12,0.7,41.9,M,10.0,M,,*43

$GBGSV,5,1,17,45,39,215,42,44,49,044,42,41,15,067,42,37,13,149,42,1*7E
$GBGSV,5,2,17,36,72,276,42,32,13,210,42,30,14,277,42,23,28,128,42,1*70
$GBGSV,5,3,17,17,42,040,43,14,54,075,42,13,48,171,42,11,22,091,42,1*74
$GBGSV,5,4,17,08,38,317,42,06,44,206,42,04,39,124,42,02,00,000,42,1*7E
$GBGSV,5,5,17,01,00,000,42,1*47

$GBGSV,5,1,17,45,39,215,42,44,49,044,42,41,15,067,42,37,13,149,43,1*7F
$GBGSV,5,2,17,36,72,276,42,32,13,210,42,30,14,277,42,23,28,128,42,1*70
$GBGSV,5,3,17,17,42,040,42,14,54,075,42,13,48,171,42,11,22,091,43,1*74
$GBGSV,5,4,17,08,38,317,42,06,44,206,41,04,39,124,42,02,00,000,42,1*7D
$GBGSV,5,5,17,01,00,000,42,1*47
$QL001,1591020191000,31.241817,121.506531,51.982546,83.250,90.000,2.829,2.500,0.471,0.114
$QL002,4,4,1,0,2.000,2.000,0.021,83.252,-0.013,0.335,0.331,0.236,18
$QL003,0.0000,0.0000,0.0000,0.0000,0.0000,0.0000,0.0000,0.0000,0.0000,0.0000
$QL004,2,1F,take_turns,line_accelerate
$GBGSA,A,3,02,06,08,11,13,14,17,23,30,32,36,37,1.0,0.7,0.7,4*36
$GBVTG,90.0,T,94.5,M,161.8,N,299.7,K,A*3B
$GBDTM,P90,,0000.000023,S,00000.000001,W,0.987,W84*46
$GBRMC,140311.00,A,3114.509027,N,12130.391854,E,161.8,90.0,010620,4.5,W,A,V*77
$GBGNS,140311.00,3114.509027,N,12130.391854,E,NNNAN,15,0.7,42.0,10.0,,,V*50
$GBGGA,140311.00,3114.509027,N,12130.391854,E,1,12,0.7,42.0,M,10.0,M,,*46

$GBGSV,5,1,17,45,39,215,42,44,49,044,42,41,15,067,42,37,13,149,42,1*7E
$GBGSV,5,2,17,36,72,276,42,32,13,210,42,30,14,277,42,23,28,128,42,1*70
$GBGSV,5,3,17,17,42,040,43,14,54,075,42,13,48,171,42,11,22,091,43,1*75
$GBGSV,5,4,17,08,38,317,42,06,44,206,42,04,39,124,42,02,00,000,42,1*7E
$GBGSV,5,5,17,01,00,000,42,1*47
$QL001,1591020192000,31.241817,121.507406,51.840770,83.370,90.000,2.829,2.500,0.476,0.124
$QL002,4,4,1,0,2.000,2.000,-0.056,83.376,-0.157,0.339,0.334,0.234,18
$QL003,0.0000,0.0000,0.0000,0.0000,0.0000,0.0000,0.0000,0.0000,0.0000,0.0000
$QL004,2,1F,take_turns,line_accelerate
$GBGSA,A,3,02,06,08,11,13,14,17,23,30,32,36,37,1.0,0.7,0.7,4*36
$GBVTG,90.0,T,94.5,M,162.1,N,300.1,K,A*36
$GBDTM,P90,,0000.000023,S,00000.000001,W,0.987,W84*46
$GBRMC,140312.00,A,3114.508994,N,12130.444346,E,162.1,90.0,010620,4.5,W,A,V*79
$GBGNS,140312.00,3114.508994,N,12130.444346,E,NNNAN,15,0.7,41.8,10.0,,,V*5F
$GBGGA,140312.00,3114.508994,N,12130.444346,E,1,12,0.7,41.8,M,10.0,M,,*49

$GBGSV,5,1,17,45,39,215,42,44,49,044,42,41,15,067,42,37,13,149,42,1*7E
$GBGSV,5,2,17,36,72,276,42,32,13,210,42,30,14,277,42,23,28,128,42,1*70
$GBGSV,5,3,17,17,42,040,42,14,54,075,42,13,48,171,43,11,22,091,43,1*75
$GBGSV,5,4,17,08,38,317,43,06,44,206,42,04,39,124,42,02,00,000,43,1*7E
$GBGSV,5,5,17,01,00,000,42,1*47
$QL001,1591020193000,31.241816,121.508281,51.928771,83.380,90.000,2.829,2.500,0.459,0.080
$QL002,4,4,1,0,2.000,2.000,-0.024,83.387,0.172,0.326,0.323,0.189,18
$QL003,0.0000,0.0000,0.0000,0.0000,0.0000,0.0000,0.0000,0.0000,0.0000,0.0000
$QL004,2,1F,take_turns,line_accelerate
$GBGSA,A,3,02,06,08,11,13,14,17,23,30,32,36,37,1.0,0.7,0.7,4*36
$GBVTG,90.0,T,94.5,M,162.1,N,300.2,K,A*35
$GBDTM,P90,,0000.000023,S,00000.000001,W,0.987,W84*46
$GBRMC,140313.00,A,3114.508979,N,12130.496836,E,162.1,90.0,010620,4.5,W,A,V*78
$GBGNS,140313.00,3114.508979,N,12130.496836,E,NNNAN,15,0.7,41.9,10.0,,,V*5F
$GBGGA,140313.00,3114.508979,N,12130.496836,E,1,12,0.7,41.9,M,10.0,M,,*49

$GBGSV,5,1,17,45,39,215,43,44,49,044,42,41,15,067,42,37,13,149,43,1*7E
$GBGSV,5,2,17,36,72,276,42,32,13,210,42,30,14,277,42,23,28,128,42,1*70
$GBGSV,5,3,17,17,42,040,42,14,54,075,42,13,48,171,43,11,22,091,42,1*74
$GBGSV,5,4,17,08,38,317,42,06,44,206,42,04,39,124,42,02,00,000,42,1*7E
$GBGSV,5,5,17,01,00,000,42,1*47
$QL001,1591020194000,31.241816,121.509155,52.049006,83.370,90.100,2.829,2.500,0.463,0.094
$QL002,4,4,1,0,2.000,2.000,-0.092,83.372,0.071,0.330,0.326,0.212,18

$GBGSV,5,1,17,45,39,215,42,44,49,044,42,41,15,067,42,37,13,149,42,1*7E
$GBGSV,5,2,17,36,72,276,42,32,13,210,42,30,14,277,43,23,28,128,42,1*71
$GBGSV,5,3,17,17,42,040,42,14,54,075,42,13,48,171,42,11,22,091,42,1*75
$GBGSV,5,4,17,08,38,317,43,06,44,206,42,04,39,124,42,02,00,000,42,1*7F
$GBGSV,5,5,17,01,00,000,42,1*47
$QL001,1591020195000,31.241816,121.510030,52.130665,83.440,90.100,2.829,2.500,0.476,0.126
$QL002,4,4,1,0,2.000,2.000,-0.084,83.442,0.049,0.339,0.334,0.247,18
$QL003,0.0000,0.0000,0.0000,0.0000,0.0000,0.0000,0.0000,0.0000,0.0000,0.0000
$QL004,2,1F,take_turns,line_accelerate
$GBGSA,A,3,02,06,08,11,13,14,17,23,30,32,36,37,1.0,0.7,0.7,4*36
$GBVTG,90.1,T,94.6,M,162.2,N,300.4,K,A*32
$GBDTM,P90,,0000.000023,S,00000.000001,W,0.987,W84*46
$GBRMC,140315.00,A,3114.508979,N,12130.601785,E,162.2,90.1,010620,4.5,W,A,V*77
$GBGNS,140315.00,3114.508979,N,12130.601785,E,NNNAN,15,0.7,42.1,10.0,,,V*59
$GBGGA,140315.00,3114.508979,N,12130.601785,E,1,12,0.7,42.1,M,10.0,M,,*4F

$GBGSV,5,1,17,45,39,215,42,44,49,044,42,41,15,067,42,37,13,149,42,1*7E
$GBGSV,5,2,17,36,72,276,42,32,13,210,42,30,14,277,42,23,28,128,42,1*70
$GBGSV,5,3,17,17,42,040,42,14,54,075,42,13,48,171,42,11,22,091,43,1*74
$GBGSV,5,4,17,08,38,317,42,06,44,206,43,04,39,124,42,02,00,000,42,1*7F
$GBGSV,5,5,17,01,00,000,42,1*47
$QL001,1591020196000,31.241816,121.510905,52.150739,83.340,90.000,2.829,2.500,0.465,0.099
$QL002,4,4,1,0,2.000,2.000,-0.028,83.343,-0.263,0.331,0.327,0.217,18

$GBGSV,5,1,17,45,39,215,42,44,49,044,42,41,15,067,42,37,13,149,42,1*7E
$GBGSV,5,2,17,36,72,276,42,32,13,210,42,30,14,277,42,23,28,128,43,1*71
$GBGSV,5,3,17,17,42,040,42,14,54,075,42,13,48,171,43,11,22,091,42,1*74
$GBGSV,5,4,17,08,38,317,42,06,44,206,42,04,39,124,42,02,00,000,43,1*7F
$GBGSV,5,5,17,01,00,000,42,1*47
$QL001,1591020197000,31.241816,121.511779,52.131490,83.330,90.000,2.829,2.500,0.466,0.101
$QL002,4,4,1,0,2.000,2.000,0.056,83.331,0.044,0.331,0.328,0.223,18
$QL003,0.0000,0.0000,0.0000,0.0000,0.0000,0.0000,0.0000,0.0000,0.0000,0.0000
$QL004,2,1F,take_turns,line_accelerate
$GBGSA,A,3,02,06,08,11,13,14,17,23,30,32,36,37,1.0,0.7,0.7,4*36
$GBVTG,90.0,T,94.5,M,162.0,N,300.0,K,A*36
$GBDTM,P90,,0000.000023,S,00000.000001,W,0.987,W84*46
$GBRMC,140317.00,A,3114.508968,N,12130.706770,E,162.0,90.0,010620,4.5,W,A,V*7A
$GBGNS,140317.00,3114.508968,N,12130.706770,E,NNNAN,15,0.7,42.1,10.0,,,V*57
$GBGGA,140317.00,3114.508968,N,12130.706770,E,1,12,0.7,42.1,M,10.0,M,,*41

$GBGSV,5,1,17,45,39,215,42,44,49,044,42,41,15,067,42,37,13,149,42,1*7E
$GBGSV,5,2,17,36,72,276,42,32,13,210,42,30,14,277,42,23,28,128,42,1*70
$GBGSV,5,3,17,17,42,040,42,14,54,075,42,13,48,171,42,11,22,091,42,1*75
$GBGSV,5,4,17,08,38,317,42,06,44,206,42,04,39,124,42,02,00,000,42,1*7E
$GBGSV,5,5,17,01,00,000,42,1*47
$QL001,1591020198000,31.241816,121.512644,52.036141,79.950,90.000,8.914,2.500,0.466,0.105
$QL002,4,4,1,0,6.303,6.303,0.010,79.958,-0.343,0.331,0.328,0.233,18
$QL003,0.0000,0.0000,0.0000,0.0000,0.0000,0.0000,0.0000,0.0000,0.0000,0.0000
$QL004,2,1F,take_turns,line_accelerate
$GBGSA,A,3,02,06,08,11,13,14,17,23,30,32,36,37,1.0,0.7,0.7,4*36
$GBVTG,90.0,T,94.5,M,155.4,N,287.8,K,A*30
$GBDTM,P90,,0000.000023,S,00000.000001,W,0.987,W84*46
$GBRMC,140318.00,A,3114.508975,N,12130.758613,E,155.4,90.0,010620,4.5,W,A,V*76
$GBGNS,140318.00,3114.508975,N,12130.758613,E,NNNAN,15,0.7,42.0,10.0,,,V*5A
$GBGGA,140318.00,3114.508975,N,12130.758613,E,1,12,0.7,42.0,M,10.0,M,,*4C

$GBGSV,5,1,17,45,39,215,42,44,49,044,41,41,15,067,40,37,13,149,41,1*7C
$GBGSV,5,2,17,36,72,276,42,32,13,210,42,30,14,277,39,23,28,128,41,1*7F
$GBGSV,5,3,17,17,42,040,42,14,54,075,41,13,48,171,42,11,22,091,39,1*7A
$GBGSV,5,4,17,08,38,317,42,06,44,206,41,04,39,124,42,02,00,000,42,1*7D
$GBGSV,5,5,17,01,00,000,42,1*47
$QL001,1591020199000,31.241816,121.513385,51.960931,66.120,90.100,8.914,2.500,0.470,0.141
$QL002,4,4,1,0,6.303,6.303,-0.073,66.122,-0.047,0.334,0.330,0.258,18
$QL003,0.0000,0.0000,0.0000,0.0000,0.0000,0.0000,0.0000,0.0000,0.0000,0.0000
$QL004,2,1F,take_turns,line_accelerate
$GBGSA,A,3,02,06,08,11,13,14,17,23,30,32,36,37,1.1,0.7,0.8,4*38
$GBVTG,90.1,T,94.6,M,128.5,N,238.0,K,A*35
$GBDTM,P90,,0000.000023,S,00000.000001,W,0.987,W84*46
$GBRMC,140319.00,A,3114.508966,N,12130.803081,E,128.5,90.1,010620,4.5,W,A,V*73
$GBGNS,140319.00,3114.508966,N,12130.803081,E,NNNAN,14,0.7,42.0,10.0,,,V*54
$GBGGA,140319.00,3114.508966,N,12130.803081,E,1,12,0.7,42.0,M,10.0,M,,*43

$GBGSV,5,1,17,45,39,215,41,44,49,044,41,41,15,067,39,37,13,149,41,1*71
$GBGSV,5,2,17,36,72,276,42,32,13,210,41,30,14,277,39,23,28,128,40,1*7D
$GBGSV,5,3,17,17,42,040,41,14,54,075,41,13,48,171,42,11,22,091,39,1*79
$GBGSV,5,4,17,08,38,317,41,06,44,206,42,04,39,124,42,02,00,000,42,1*7D
$GBGSV,5,5,17,01,00,000,42,1*47
$QL001,1591020200000,31.241817,121.513981,51.903785,51.660,89.900,8.914,2.500,0.477,0.205
$QL002,4,4,1,0,6.303,6.303,0.126,51.666,0.306,0.339,0.336,0.266,18
$QL003,0.0000,0.0000,0.0000,0.0000,0.0000,0.0000,0.0000,0.0000,0.0000,0.0000
$QL004,2,1F,take_turns,line_accelerate
$GBGSA,A,3,02,06,08,11,13,14,17,30,32,36,37,41,1.0,0.7,0.7,4*32
$GBVTG,89.9,T,94.4,M,100.4,N,186.0,K,A*3A
$GBDTM,P90,,0000.000023,S,00000.000001,W,0.987,W84*46
$GBRMC,140320.00,A,3114.509000,N,12130.838869,E,100.4,89.9,010620,4.5,W,A,V*7C
$GBGNS,140320.00,3114.509000,N,12130.838869,E,NNNAN,14,0.7,41.9,10.0,,,V*5A
$GBGGA,140320.00,3114.509000,N,12130.838869,E,1,12,0.7,41.9,M,10.0,M,,*4D

$GBGSV,5,1,17,45,39,215,42,44,49,044,41,41,15,067,39,37,13,149,41,1*72
$GBGSV,5,2,17,36,72,276,42,32,13,210,41,30,14,277,38,23,28,128,40,1*7C
$GBGSV,5,3,17,17,42,040,41,14,54,075,41,13,48,171,42,11,22,091,39,1*79
$GBGSV,5,4,17,08,38,317,41,06,44,206,42,04,39,124,42,02,00,000,43,1*7C
$GBGSV,5,5,17,01,00,000,42,1*47
$QL001,1591020201000,31.241817,121.514434,51.861495,37.890,90.200,8.914,2.500,0.450,0.079
$QL002,4,4,1,0,6.303,6.303,-0.116,37.898,0.367,0.318,0.318,0.127,18
$QL003,0.0000,0.0000,0.0000,0.0000,0.0000,0.0000,0.0000,0.0000,0.0000,0.0000
$QL004,2,1F,take_turns,line_accelerate
$GBGSA,A,3,02,06,08,11,13,14,17,23,32,36,37,41,1.1,0.8,0.8,4*31
$GBVTG,90.2,T,94.7,M,73.7,N,136.4,K,A*03
$GBDTM,P90,,0000.000023,S,00000.000001,W,0.987,W84*46
$GBRMC,140321.00,A,3114.508998,N,12130.866066,E,73.7,90.2,010620,4.5,W,A,V*4D
$GBGNS,140321.00,3114.508998,N,12130.866066,E,NNNAN,14,0.8,41.9,10.0,,,V*51
$GBGGA,140321.00,3114.508998,N,12130.866066,E,1,12,0.8,41.9,M,10.0,M,,*46

$GBGSV,5,1,17,45,39,215,41,44,49,044,41,41,15,067,39,37,13,149,41,1*71
$GBGSV,5,2,17,36,72,276,42,32,13,210,41,30,14,277,38,23,28,128,40,1*7C
$GBGSV,5,3,17,17,42,040,41,14,54,075,41,13,48,171,42,11,22,091,39,1*79
