$GBGSV,4,1,16,14,08,164,39,13,47,201,40,12,10,060,39,11,18,130,39,1*79
$GBGSV,4,2,16,09,36,286,40,06,36,215,40,01,37,121,,02,50,170,,1*74
$GBGSV,4,3,16,04,35,125,,20,19,318,,23,51,142,,24,24,077,,1*70
$GBGSV,4,4,16,29,06,277,,32,14,059,,36,50,052,,39,35,203,,1*7C
$QL001,1626998542000,29.999988,120.000005,1.615753,0.000,0.000,47.744,177.674,0.458,0.000
$QL002,2,2,1,0,12.550,46.065,0.000,0.000,0.000,0.321,0.327,0.292,18
$QL003,0.0000,0.0000,0.0000,0.0000,0.0000,0.0000,0.0000,0.0000,0.0000,0.0000
$QL004,2,00
$GBGSA,A,3,06,09,11,12,,,,,,,,,107.7,26.7,104.4,4*07
$GBVTG,,T,,M,0.0,N,0.0,K,A*31
$GBDTM,P90,,0000.000022,S,00000.000001,W,0.988,W84*48
$GBRMC,000222.00,A,2959.999258,N,12000.000303,E,0.0,,230721,4.3,W,A,V*63
$GBGNS,000222.00,2959.999258,N,12000.000303,E,NNNAN,04,26.7,-5.4,7.0,,,V*43
$GBGGA,000222.00,2959.999258,N,12000.000303,E,1,04,26.7,-5.4,M,7.0,M,,*52

$GBGSV,4,1,16,14,08,164,39,13,47,201,40,12,10,060,39,11,18,130,39,1*79
$GBGSV,4,2,16,09,36,286,39,06,36,215,40,01,37,121,,02,50,170,,1*7A
$GBGSV,4,3,16,04,35,125,,20,19,318,,23,51,142,,24,24,077,,1*70
$GBGSV,4,4,16,29,06,277,,32,14,059,,36,50,052,,39,35,203,,1*7C
$QL001,1626998543000,29.999988,120.000005,1.602234,0.000,0.000,47.304,177.079,0.458,0.000
$QL002,2,2,1,0,11.703,45.834,0.000,0.000,0.000,0.321,0.327,0.292,18
$QL003,0.0000,0.0000,0.0000,0.0000,0.0000,0.0000,0.0000,0.0000,0.0000,0.0000
$QL004,2,00
$GBGSA,A,3,06,09,11,12,,,,,,,,,106.9,26.5,103.5,4*0C
$GBVTG,,T,,M,0.0,N,0.0,K,A*31
$GBDTM,P90,,0000.000022,S,00000.000001,W,0.988,W84*48
$GBRMC,000223.00,A,2959.999260,N,12000.000298,E,0.0,,230721,4.3,W,A,V*6A
$GBGNS,000223.00,2959.999260,N,12000.000298,E,NNNAN,04,26.5,-5.4,7.0,,,V*48
$GBGGA,000223.00,2959.999260,N,12000.000298,E,1,04,26.5,-5.4,M,7.0,M,,*59

$GBGSV,4,1,15,14,08,164,39,13,47,201,40,12,10,060,39,11,18,130,39,1*7A
$GBGSV,4,2,15,09,36,286,39,06,36,215,38,01,37,121,,04,35,125,,1*73
$GBGSV,4,3,15,20,19,318,,23,51,142,,24,24,077,,29,06,277,,1*78
$GBGSV,4,4,15,32,14,059,,36,50,052,,39,35,203,,1*40
$QL001,1626998544000,29.999988,120.000005,1.622742,0.000,0.000,46.980,176.605,0.458,0.000
$QL002,2,2,1,0,11.063,45.659,0.000,0.000,0.000,0.321,0.327,0.292,18
$QL003,0.0000,0.0000,0.0000,0.0000,0.0000,0.0000,0.0000,0.0000,0.0000,0.0000
$QL004,2,00
$GBGSA,A,2,06,09,12,,,,,,,,,,500.0,500.0,500.0,4*30
$GBVTG,,T,,M,0.0,N,0.0,K,A*31
$GBDTM,P90,,0000.000022,S,00000.000001,W,0.988,W84*48
$GBRMC,000224.00,A,2959.999257,N,12000.000301,E,0.0,,230721,4.3,W,A,V*68
$GBGNS,000224.00,2959.999257,N,12000.000301,E,NNNAN,03,500.0,-5.4,7.0,,,V*79
$GBGGA,000224.00,2959.999257,N,12000.000301,E,1,03,500.0,-5.4,M,7.0,M,,*68

$GBGSV,4,1,15,14,08,164,39,13,47,201,40,12,10,060,39,11,18,130,39,1*7A
$GBGSV,4,2,15,09,36,286,40,06,36,215,39,01,37,121,,04,35,125,,1*7C
$GBGSV,4,3,15,20,19,318,,23,51,142,,24,24,077,,29,06,277,,1*78
$GBGSV,4,4,15,32,14,059,,36,50,052,,39,35,203,,1*40
$QL001,1626998545000,29.999988,120.000005,1.597473,0.000,0.000,46.730,176.207,0.458,0.000
$QL002,2,2,1,0,10.566,45.520,0.000,0.000,0.000,0.321,0.327,0.292,18
$QL003,0.0000,0.0000,0.0000,0.0000,0.0000,0.0000,0.0000,0.0000,0.0000,0.0000
$QL004,2,00
$GBGSA,A,2,09,11,12,,,,,,,,,,500.0,500.0,500.0,4*36
$GBVTG,,T,,M,0.0,N,0.0,K,A*31
$GBDTM,P90,,0000.000022,S,00000.000001,W,0.988,W84*48
$GBRMC,000225.00,A,2959.999260,N,12000.000293,E,0.0,,230721,4.3,W,A,V*67
$GBGNS,000225.00,2959.999260,N,12000.000293,E,NNNAN,03,500.0,-5.4,7.0,,,V*76
$GBGGA,000225.00,2959.999260,N,12000.000293,E,1,03,500.0,-5.4,M,7.0,M,,*67

$GBGSV,4,1,15,14,08,164,39,13,47,201,40,12,10,060,39,11,18,130,39,1*7A
$GBGSV,4,2,15,09,36,286,39,06,36,215,40,01,37,121,,04,35,125,,1*7C
$GBGSV,4,3,15,20,19,318,,23,51,142,,24,24,077,,29,06,277,,1*78
$GBGSV,4,4,15,32,14,059,,36,50,052,,39,35,203,,1*40
$QL001,1626998546000,29.999988,120.000005,1.590302,0.000,0.000,46.530,175.858,0.458,0.000
$QL002,2,2,1,0,10.174,45.404,0.000,0.000,0.000,0.321,0.327,0.292,18
$QL003,0.0000,0.0000,0.0000,0.0000,0.0000,0.0000,0.0000,0.0000,0.0000,0.0000
$QL004,2,00
$GBGSA,A,2,09,11,12,,,,,,,,,,500.0,500.0,500.0,4*36
$GBVTG,,T,,M,0.0,N,0.0,K,A*31
$GBDTM,P90,,0000.000022,S,00000.000001,W,0.988,W84*48
$GBRMC,000226.00,A,2959.999262,N,12000.000293,E,0.0,,230721,4.3,W,A,V*66
$GBGNS,000226.00,2959.999262,N,12000.000293,E,NNNAN,03,500.0,-5.4,7.0,,,V*77
$GBGGA,000226.00,2959.999262,N,12000.000293,E,1,03,500.0,-5.4,M,7.0,M,,*66

$GBGSV,4,1,15,14,08,164,38,13,47,201,40,12,10,059,39,11,18,130,39,1*71
$GBGSV,4,2,15,09,36,286,39,06,36,215,39,01,37,121,,04,35,125,,1*72
$GBGSV,4,3,15,20,19,318,,23,51,142,,24,24,077,,29,06,277,,1*78
$GBGSV,4,4,15,32,14,059,,36,50,052,,39,35,203,,1*40
$QL001,1626998547000,29.999988,120.000005,1.563019,0.000,0.000,46.364,175.544,0.458,0.000
$QL002,2,2,1,0,9.860,45.303,0.000,0.000,0.000,0.321,0.327,0.292,18
$QL003,0.0000,0.0000,0.0000,0.0000,0.0000,0.0000,0.0000,0.0000,0.0000,0.0000
$QL004,2,00
$GBGSA,A,3,06,09,11,12,,,,,,,,,103.6,25.7,100.3,4*02
$GBVTG,,T,,M,0.0,N,0.0,K,A*31
$GBDTM,P90,,0000.000022,S,00000.000001,W,0.988,W84*48
$GBRMC,000227.00,A,2959.999265,N,12000.000288,E,0.0,,230721,4.3,W,A,V*6A
$GBGNS,000227.00,2959.999265,N,12000.000288,E,NNNAN,04,25.7,-5.4,7.0,,,V*49
$GBGGA,000227.00,2959.999265,N,12000.000288,E,1,04,25.7,-5.4,M,7.0,M,,*58

$GBGSV,4,1,15,14,08,164,38,13,47,201,40,12,10,059,39,11,18,130,40,1*7F
$GBGSV,4,2,15,09,36,286,39,06,36,215,39,01,37,121,,04,35,125,,1*72
$GBGSV,4,3,15,20,19,318,,23,51,142,,24,24,077,,29,06,277,,1*78
$GBGSV,4,4,15,32,14,059,,36,50,052,,39,35,203,,1*40
$QL001,1626998548000,29.999988,120.000005,1.574799,0.000,0.000,46.223,175.255,0.458,0.000
$QL002,2,2,1,0,9.604,45.214,0.000,0.000,0.000,0.321,0.327,0.292,18
$QL003,0.0000,0.0000,0.0000,0.0000,0.0000,0.0000,0.0000,0.0000,0.0000,0.0000
$QL004,2,00
$GBGSA,A,2,09,11,12,,,,,,,,,,500.0,500.0,500.0,4*36
$GBVTG,,T,,M,0.0,N,0.0,K,A*31
$GBDTM,P90,,0000.000022,S,00000.000001,W,0.988,W84*48
$GBRMC,000228.00,A,2959.999266,N,12000.000292,E,0.0,,230721,4.3,W,A,V*6D
$GBGNS,000228.00,2959.999266,N,12000.000292,E,NNNAN,03,500.0,-5.4,7.0,,,V*7C
$GBGGA,000228.00,2959.999266,N,12000.000292,E,1,03,500.0,-5.4,M,7.0,M,,*6D

$GBGSV,4,1,16,14,08,164,39,13,47,201,40,12,10,059,38,11,18,130,39,1*72
$GBGSV,4,2,16,09,36,286,39,06,36,215,38,01,37,121,,02,50,170,,1*75
$GBGSV,4,3,16,04,35,125,,20,19,318,,23,51,142,,24,24,077,,1*70
$GBGSV,4,4,16,29,06,277,,32,14,059,,36,50,052,,39,35,203,,1*7C
$QL001,1626998549000,29.999988,120.000005,1.564941,0.000,0.000,46.100,174.982,0.458,0.000
$QL002,2,2,1,0,9.397,45.132,0.000,0.000,0.000,0.321,0.327,0.291,18
$QL003,0.0000,0.0000,0.0000,0.0000,0.0000,0.0000,0.0000,0.0000,0.0000,0.0000
$QL004,2,00
$GBGSA,A,3,06,09,11,12,,,,,,,,,102.0,25.3,98.8,4*3A
$GBVTG,,T,,M,0.0,N,0.0,K,A*31
$GBDTM,P90,,0000.000022,S,00000.000001,W,0.988,W84*48
$GBRMC,000229.00,A,2959.999269,N,12000.000293,E,0.0,,230721,4.3,W,A,V*62
$GBGNS,000229.00,2959.999269,N,12000.000293,E,NNNAN,04,25.3,-5.4,7.0,,,V*45
$GBGGA,000229.00,2959.999269,N,12000.000293,E,1,04,25.3,-5.4,M,7.0,M,,*54

$GBGSV,4,1,15,14,08,164,39,13,47,201,40,12,10,059,39,11,18,130,39,1*70
$GBGSV,4,2,15,09,36,286,39,06,36,215,40,01,37,121,,04,35,125,,1*7C
$GBGSV,4,3,15,20,19,318,,23,51,142,,24,24,077,,29,06,277,,1*78
$GBGSV,4,4,15,32,14,059,,36,50,052,,39,35,203,,1*40
$QL001,1626998550000,29.999988,120.000005,1.561218,0.000,0.000,45.992,174.721,0.458,0.000
$QL002,2,2,1,0,9.229,45.057,0.000,0.000,0.000,0.321,0.327,0.291,18
$QL003,0.0000,0.0000,0.0000,0.0000,0.0000,0.0000,0.0000,0.0000,0.0000,0.0000
$QL004,2,00
$GBGSA,A,2,06,11,12,,,,,,,,,,500.0,500.0,500.0,4*39
$GBVTG,,T,,M,0.0,N,0.0,K,A*31
$GBDTM,P90,,0000.000022,S,00000.000001,W,0.988,W84*48
$GBRMC,000230.00,A,2959.999269,N,12000.000292,E,0.0,,230721,4.3,W,A,V*6B
$GBGNS,000230.00,2959.999269,N,12000.000292,E,NNNAN,03,500.0,-5.4,7.0,,,V*7A
$GBGGA,000230.00,2959.999269,N,12000.000292,E,1,03,500.0,-5.4,M,7.0,M,,*6B

$GBGSV,4,1,14,14,08,164,38,13,47,201,40,12,10,059,39,11,18,130,38,1*71
$GBGSV,4,2,14,09,36,286,39,06,36,215,39,01,37,121,,20,19,318,,1*77
$GBGSV,4,3,14,23,51,142,,24,24,077,,29,06,277,,32,14,059,,1*71
$GBGSV,4,4,14,36,50,052,,39,35,203,,1*79
$QL001,1626998551000,29.999988,120.000005,1.553986,0.000,0.000,45.895,174.470,0.458,0.000
$QL002,2,2,1,0,9.090,44.986,0.000,0.000,0.000,0.321,0.327,0.291,18
$QL003,0.0000,0.0000,0.0000,0.0000,0.0000,0.0000,0.0000,0.0000,0.0000,0.0000
$QL004,2,00
$GBGSA,A,2,06,09,12,,,,,,,,,,500.0,500.0,500.0,4*30
$GBVTG,,T,,M,0.0,N,0.0,K,A*31
$GBDTM,P90,,0000.000022,S,00000.000001,W,0.988,W84*48
$GBRMC,000231.00,A,2959.999271,N,12000.000289,E,0.0,,230721,4.3,W,A,V*69
$GBGNS,000231.00,2959.999271,N,12000.000289,E,NNNAN,03,500.0,-5.4,7.0,,,V*78
$GBGGA,000231.00,2959.999271,N,12000.000289,E,1,03,500.0,-5.4,M,7.0,M,,*69

$GBGSV,4,1,15,14,08,164,39,13,47,201,40,12,10,059,39,11,18,130,39,1*70
$GBGSV,4,2,15,09,36,286,39,06,36,215,39,04,35,125,,01,37,121,,1*72
$GBGSV,4,3,15,20,19,318,,23,51,142,,24,24,077,,29,06,277,,1*78
$GBGSV,4,4,15,32,14,059,,36,50,052,,39,35,203,,1*40
$QL001,1626998552000,29.999988,120.000005,1.540070,0.000,0.000,45.804,174.224,0.458,0.000

$GBGSV,4,1,15,14,08,164,39,13,47,201,40,12,10,059,39,11,18,130,40,1*7E
$GBGSV,4,2,15,09,36,286,39,06,36,215,39,04,35,125,,01,37,121,,1*72
$GBGSV,4,3,15,20,19,318,,23,51,142,,24,24,077,,29,06,277,,1*78
$GBGSV,4,4,15,32,14,059,,36,50,052,,39,35,203,,1*40
$QL001,1626998553000,29.999988,120.000005,1.535553,0.000,0.000,45.720,173.983,0.458,0.000
$QL002,2,2,1,0,8.877,44.850,0.000,0.000,0.000,0.321,0.327,0.291,18
$QL003,0.0000,0.0000,0.0000,0.0000,0.0000,0.0000,0.0000,0.0000,0.0000,0.0000
$QL004,2,00
$GBGSA,A,3,06,09,11,12,,,,,,,,,99.0,24.5,95.9,4*02
$GBVTG,,T,,M,0.0,N,0.0,K,A*31
$GBDTM,P90,,0000.000022,S,00000.000001,W,0.988,W84*48
$GBRMC,000233.00,A,2959.999273,N,12000.000281,E,0.0,,230721,4.3,W,A,V*61
$GBGNS,000233.00,2959.999273,N,12000.000281,E,NNNAN,04,24.5,-5.5,7.0,,,V*40
$GBGGA,000233.00,2959.999273,N,12000.000281,E,1,04,24.5,-5.5,M,7.0,M,,*51

$GBGSV,4,1,15,14,08,164,40,13,47,201,39,12,10,059,38,11,18,130,39,1*71
$GBGSV,4,2,15,09,36,286,39,06,36,215,39,04,35,125,,01,37,121,,1*72
$GBGSV,4,3,15,20,19,318,,23,51,142,,24,24,077,,29,06,277,,1*78
$GBGSV,4,4,15,32,14,059,,36,50,052,,39,35,203,,1*40
$QL001,1626998554000,29.999988,120.000005,1.507172,0.000,0.000,45.636,173.740,0.458,0.000
$QL002,2,2,1,0,8.794,44.781,0.000,0.000,0.000,0.321,0.327,0.291,18
$QL003,0.0000,0.0000,0.0000,0.0000,0.0000,0.0000,0.0000,0.0000,0.0000,0.0000
$QL004,2,00
$GBGSA,A,2,06,09,11,,,,,,,,,,500.0,500.0,500.0,4*33
$GBVTG,,T,,M,0.0,N,0.0,K,A*31
$GBDTM,P90,,0000.000022,S,00000.000001,W,0.988,W84*48
$GBRMC,000234.00,A,2959.999278,N,12000.000276,E,0.0,,230721,4.3,W,A,V*65
$GBGNS,000234.00,2959.999278,N,12000.000276,E,NNNAN,03,500.0,-5.5,7.0,,,V*75
$GBGGA,000234.00,2959.999278,N,12000.000276,E,1,03,500.0,-5.5,M,7.0,M,,*64

$GBGSV,4,1,15,14,08,164,39,13,47,201,40,12,10,059,39,11,18,130,39,1*70
$GBGSV,4,2,15,09,36,286,39,06,36,215,40,04,35,125,,01,37,121,,1*7C
$GBGSV,4,3,15,20,19,318,,23,51,142,,24,24,077,,29,06,277,,1*78
$GBGSV,4,4,15,32,14,059,,36,50,052,,39,35,203,,1*40
$QL001,1626998555000,29.999988,120.000005,1.515564,0.000,0.000,45.560,173.503,0.458,0.000
$QL002,2,2,1,0,8.729,44.716,0.000,0.000,0.000,0.321,0.327,0.291,18
$QL003,0.0000,0.0000,0.0000,0.0000,0.0000,0.0000,0.0000,0.0000,0.0000,0.0000
$QL004,2,00
$GBGSA,A,2,06,11,12,,,,,,,,,,500.0,500.0,500.0,4*39
$GBVTG,,T,,M,0.0,N,0.0,K,A*31
$GBDTM,P90,,0000.000022,S,00000.000001,W,0.988,W84*48
$GBRMC,000235.00,A,2959.999277,N,12000.000279,E,0.0,,230721,4.3,W,A,V*64
$GBGNS,000235.00,2959.999277,N,12000.000279,E,NNNAN,03,500.0,-5.5,7.0,,,V*74
$GBGGA,000235.00,2959.999277,N,12000.000279,E,1,03,500.0,-5.5,M,7.0,M,,*65

$GBGSV,4,1,15,14,08,164,38,13,47,201,40,12,10,059,39,11,18,130,39,1*71
$GBGSV,4,2,15,09,36,286,39,06,36,215,40,04,35,125,,01,37,121,,1*7C
$GBGSV,4,3,15,20,19,318,,23,51,142,,24,24,077,,29,06,277,,1*78
$GBGSV,4,4,15,32,14,059,,36,50,052,,39,35,203,,1*40
$QL001,1626998556000,29.999988,120.000005,1.501862,0.000,0.000,45.486,173.266,0.458,0.000
$QL002,2,2,1,0,8.674,44.652,0.000,0.000,0.000,0.321,0.327,0.291,18
$QL003,0.0000,0.0000,0.0000,0.0000,0.0000,0.0000,0.0000,0.0000,0.0000,0.0000
$QL004,2,00
$GBGSA,A,2,06,09,11,,,,,,,,,,500.0,500.0,500.0,4*33
$GBVTG,,T,,M,0.0,N,0.0,K,A*31
$GBDTM,P90,,0000.000022,S,00000.000001,W,0.988,W84*48
$GBRMC,000236.00,A,2959.999278,N,12000.000277,E,0.0,,230721,4.3,W,A,V*66
$GBGNS,000236.00,2959.999278,N,12000.000277,E,NNNAN,03,500.0,-5.5,7.0,,,V*76
$GBGGA,000236.00,2959.999278,N,12000.000277,E,1,03,500.0,-5.5,M,7.0,M,,*67

$GBGSV,4,1,15,14,08,164,39,13,47,201,40,12,10,059,39,11,18,130,39,1*70
$GBGSV,4,2,15,09,36,286,39,06,36,215,40,04,35,125,,01,37,121,,1*7C
$GBGSV,4,3,15,20,19,318,,23,51,142,,24,24,077,,29,06,277,,1*78
$GBGSV,4,4,15,32,14,059,,36,50,052,,39,35,203,,1*40
$QL001,1626998557000,29.999988,120.000005,1.507080,0.000,0.000,45.414,173.028,0.458,0.000
$QL002,2,2,1,0,8.626,44.587,0.000,0.000,0.000,0.321,0.327,0.291,18
$QL003,0.0000,0.0000,0.0000,0.0000,0.0000,0.0000,0.0000,0.0000,0.0000,0.0000
$QL004,2,00
$GBGSA,A,3,06,09,11,12,,,,,,,,,96.1,23.8,93.1,4*08
$GBVTG,,T,,M,0.0,N,0.0,K,A*31
$GBDTM,P90,,0000.000022,S,00000.000001,W,0.988,W84*48
$GBRMC,000237.00,A,2959.999278,N,12000.000277,E,0.0,,230721,4.3,W,A,V*67
$GBGNS,000237.00,2959.999278,N,12000.000277,E,NNNAN,04,23.8,-5.5,7.0,,,V*4C
$GBGGA,000237.00,2959.999278,N,12000.000277,E,1,04,23.8,-5.5,M,7.0,M,,*5D

$GBGSV,4,1,15,14,08,164,39,13,47,201,39,12,10,059,39,11,18,130,39,1*7E
$GBGSV,4,2,15,09,36,286,39,06,36,215,40,04,35,125,,01,37,121,,1*7C
$GBGSV,4,3,15,20,19,318,,23,51,142,,24,24,077,,29,06,277,,1*78
$GBGSV,4,4,15,32,14,059,,36,50,052,,39,35,203,,1*40
$QL001,1626998558000,29.999988,120.000005,1.517151,0.000,0.000,45.343,172.791,0.458,0.000
$QL002,2,2,1,0,8.588,44.522,0.000,0.000,0.000,0.321,0.327,0.291,18
$QL003,0.0000,0.0000,0.0000,0.0000,0.0000,0.0000,0.0000,0.0000,0.0000,0.0000
$QL004,2,00
$GBGSA,A,2,09,11,12,,,,,,,,,,500.0,500.0,500.0,4*36
$GBVTG,,T,,M,0.0,N,0.0,K,A*31
$GBDTM,P90,,0000.000022,S,00000.000001,W,0.988,W84*48
$GBRMC,000238.00,A,2959.999277,N,12000.000278,E,0.0,,230721,4.3,W,A,V*68
$GBGNS,000238.00,2959.999277,N,12000.000278,E,NNNAN,03,500.0,-5.5,7.0,,,V*78
$GBGGA,000238.00,2959.999277,N,12000.000278,E,1,03,500.0,-5.5,M,7.0,M,,*69

$GBGSV,4,1,14,14,08,164,39,13,47,201,40,12,10,059,39,11,18,130,39,1*71
$GBGSV,4,2,14,09,36,286,39,06,36,215,39,01,37,121,,20,19,318,,1*77
$GBGSV,4,3,14,23,51,142,,24,24,077,,29,06,277,,32,14,059,,1*71
$GBGSV,4,4,14,36,50,052,,39,35,203,,1*79
$QL001,1626998559000,29.999988,120.000005,1.503723,0.000,0.000,45.273,172.552,0.458,0.000
$QL002,2,2,1,0,8.556,44.457,0.000,0.000,0.000,0.321,0.327,0.291,18
$QL003,0.0000,0.0000,0.0000,0.0000,0.0000,0.0000,0.0000,0.0000,0.0000,0.0000
$QL004,2,00
$GBGSA,A,2,06,11,12,,,,,,,,,,500.0,500.0,500.0,4*39
$GBVTG,,T,,M,0.0,N,0.0,K,A*31
$GBDTM,P90,,0000.000022,S,00000.000001,W,0.988,W84*48
$GBRMC,000239.00,A,2959.999279,N,12000.000273,E,0.0,,230721,4.3,W,A,V*6C
$GBGNS,000239.00,2959.999279,N,12000.000273,E,NNNAN,03,500.0,-5.5,7.0,,,V*7C
$GBGGA,000239.00,2959.999279,N,12000.000273,E,1,03,500.0,-5.5,M,7.0,M,,*6D

$GBGSV,4,1,15,14,08,164,39,13,47,201,40,12,10,059,39,11,18,130,39,1*70
$GBGSV,4,2,15,09,36,286,39,06,36,215,39,04,35,125,,01,37,121,,1*72
$GBGSV,4,3,15,20,19,318,,23,51,142,,24,24,077,,29,06,277,,1*78
$GBGSV,4,4,15,32,14,059,,36,50,052,,39,35,203,,1*40
$QL001,1626998560000,29.999988,120.000005,1.512115,0.000,0.000,45.204,172.312,0.458,0.000
$QL002,2,2,1,0,8.529,44.392,0.000,0.000,0.000,0.321,0.327,0.291,18
$QL003,0.0000,0.0000,0.0000,0.0000,0.0000,0.0000,0.0000,0.0000,0.0000,0.0000
$QL004,2,00
$GBGSA,A,2,06,09,12,,,,,,,,,,500.0,500.0,500.0,4*30
$GBVTG,,T,,M,0.0,N,0.0,K,A*31
$GBDTM,P90,,0000.000022,S,00000.000001,W,0.988,W84*48
$GBRMC,000240.00,A,2959.999278,N,12000.000274,E,0.0,,230721,4.3,W,A,V*64
$GBGNS,000240.00,2959.999278,N,12000.000274,E,NNNAN,03,500.0,-5.5,7.0,,,V*74
$GBGGA,000240.00,2959.999278,N,12000.000274,E,1,03,500.0,-5.5,M,7.0,M,,*65

$GBGSV,4,1,15,14,08,164,39,13,47,201,41,12,10,059,39,11,18,130,39,1*71
$GBGSV,4,2,15,09,36,286,39,06,36,215,39,04,35,125,,01,37,121,,1*72
$GBGSV,4,3,15,20,19,318,,23,51,142,,24,24,077,,29,06,277,,1*78
$GBGSV,4,4,15,32,14,059,,36,50,052,,39,35,203,,1*40
$QL001,1626998561000,29.999988,120.000005,1.502106,0.000,0.000,45.132,172.067,0.458,0.000
$QL002,2,2,1,0,8.503,44.324,0.000,0.000,0.000,0.321,0.327,0.291,18
$QL003,0.0000,0.0000,0.0000,0.0000,0.0000,0.0000,0.0000,0.0000,0.0000,0.0000
$QL004,2,00
$GBGSA,A,3,06,09,11,12,,,,,,,,,93.4,23.1,90.5,4*06
$GBVTG,,T,,M,0.0,N,0.0,K,A*31
$GBDTM,P90,,0000.000022,S,00000.000001,W,0.988,W84*48
$GBRMC,000241.00,A,2959.999278,N,12000.000271,E,0.0,,230721,4.3,W,A,V*60
$GBGNS,000241.00,2959.999278,N,12000.000271,E,NNNAN,04,23.1,-5.5,7.0,,,V*42
$GBGGA,000241.00,2959.999278,N,12000.000271,E,1,04,23.1,-5.5,M,7.0,M,,*53

$GBGSV,4,1,15,14,08,164,39,13,47,201,40,12,10,059,39,11,18,130,39,1*70
$GBGSV,4,2,15,09,36,286,39,06,36,215,39,04,35,125,,01,37,121,,1*72
$GBGSV,4,3,15,20,19,318,,23,51,142,,24,24,077,,29,06,277,,1*78
$GBGSV,4,4,15,32,14,059,,36,50,052,,39,35,203,,1*40
$QL001,1626998562000,29.999988,120.000005,1.510284,0.000,0.000,45.063,171.822,0.458,0.000
$QL002,2,2,1,0,8.484,44.257,0.000,0.000,0.000,0.321,0.327,0.290,18
$QL003,0.0000,0.0000,0.0000,0.0000,0.0000,0.0000,0.0000,0.0000,0.0000,0.0000
$QL004,2,00
$GBGSA,A,2,06,09,11,,,,,,,,,,500.0,500.0,500.0,4*33
$GBVTG,,T,,M,0.0,N,0.0,K,A*31
$GBDTM,P90,,0000.000022,S,00000.000001,W,0.988,W84*48
$GBRMC,000242.00,A,2959.999276,N,12000.000270,E,0.0,,230721,4.3,W,A,V*6C
$GBGNS,000242.00,2959.999276,N,12000.000270,E,NNNAN,03,500.0,-5.5,7.0,,,V*7C
$GBGGA,000242.00,2959.999276,N,12000.000270,E,1,03,500.0,-5.5,M,7.0,M,,*6D

$GBGSV,4,1,16,14,08,164,39,13,47,201,40,12,10,059,38,11,18,130,40,1*7C
$GBGSV,4,2,16,09,36,286,40,06,36,215,39,04,35,125,,02,50,170,,1*79
$GBGSV,4,3,16,01,37,121,,20,19,318,,23,51,142,,24,24,077,,1*73
$GBGSV,4,4,16,29,06,277,,32,14,059,,36,50,052,,39,35,203,,1*7C
$QL001,1626998563000,29.999988,120.000005,1.535614,0.000,0.000,44.994,171.575,0.458,0.000
$QL002,2,2,1,0,8.468,44.190,0.000,0.000,0.000,0.321,0.327,0.290,18
$QL003,0.0000,0.0000,0.0000,0.0000,0.0000,0.0000,0.0000,0.0000,0.0000,0.0000
$QL004,2,00
$GBGSA,A,2,06,09,12,,,,,,,,,,500.0,500.0,500.0,4*30
$GBVTG,,T,,M,0.0,N,0.0,K,A*31
$GBDTM,P90,,0000.000022,S,00000.000001,W,0.988,W84*48
$GBRMC,000243.00,A,2959.999274,N,12000.000275,E,0.0,,230721,4.3,W,A,V*6A
$GBGNS,000243.00,2959.999274,N,12000.000275,E,NNNAN,03,500.0,-5.5,7.0,,,V*7A
$GBGGA,000243.00,2959.999274,N,12000.000275,E,1,03,500.0,-5.5,M,7.0,M,,*6B

$GBGSV,4,1,16,14,08,164,39,13,47,201,40,12,10,059,39,11,18,130,39,1*73
$GBGSV,4,2,16,09,36,286,40,06,36,215,39,04,35,125,,02,50,170,39,1*73
$GBGSV,4,3,16,01,37,121,,20,19,318,,23,51,142,,24,24,077,,1*73
$GBGSV,4,4,16,29,06,277,,32,14,059,,36,50,052,,39,35,203,,1*7C
$QL001,1626998564000,29.999988,120.000005,1.541504,0.000,0.000,44.921,171.320,0.458,0.000
$QL002,2,2,1,0,8.449,44.119,0.000,0.000,0.000,0.321,0.327,0.290,18
$QL003,0.0000,0.0000,0.0000,0.0000,0.0000,0.0000,0.0000,0.0000,0.0000,0.0000
$QL004,2,00
$GBGSA,A,3,06,09,11,12,,,,,,,,,91.5,22.6,88.7,4*08
$GBVTG,,T,,M,0.0,N,0.0,K,A*31
$GBDTM,P90,,0000.000022,S,00000.000001,W,0.988,W84*48
$GBRMC,000244.00,A,2959.999273,N,12000.000275,E,0.0,,230721,4.3,W,A,V*6A
$GBGNS,000244.00,2959.999273,N,12000.000275,E,NNNAN,04,22.6,-5.5,7.0,,,V*4E
$GBGGA,000244.00,2959.999273,N,12000.000275,E,1,04,22.6,-5.5,M,7.0,M,,*5F

$GBGSV,4,1,15,14,08,164,39,13,47,201,40,12,10,059,39,11,18,130,39,1*70
$GBGSV,4,2,15,09,36,286,39,06,36,215,39,02,50,170,40,01,37,121,,1*73
$GBGSV,4,3,15,20,19,318,,23,51,142,,24,24,077,,29,06,277,,1*78
$GBGSV,4,4,15,32,14,059,,36,50,052,,39,35,203,,1*40
$QL001,1626998565000,29.999988,120.000004,1.520721,0.000,0.000,44.851,171.068,0.458,0.000
$QL002,2,2,1,0,8.439,44.050,0.000,0.000,0.000,0.321,0.327,0.290,18
$QL003,0.0000,0.0000,0.0000,0.0000,0.0000,0.0000,0.0000,0.0000,0.0000,0.0000
$QL004,2,00
$GBGSA,A,3,06,09,11,12,,,,,,,,,90.9,22.5,88.1,4*00
$GBVTG,,T,,M,0.0,N,0.0,K,A*31
$GBDTM,P90,,0000.000022,S,00000.000001,W,0.988,W84*48
$GBRMC,000245.00,A,2959.999275,N,12000.000269,E,0.0,,230721,4.3,W,A,V*60
$GBGNS,000245.00,2959.999275,N,12000.000269,E,NNNAN,04,22.5,-5.5,7.0,,,V*47
$GBGGA,000245.00,2959.999275,N,12000.000269,E,1,04,22.5,-5.5,M,7.0,M,,*56

$GBGSV,4,1,16,14,08,164,39,13,47,201,40,12,10,059,38,11,18,130,39,1*72
$GBGSV,4,2,16,09,36,286,40,06,36,215,40,04,35,125,,02,50,170,40,1*73
$GBGSV,4,3,16,01,37,121,,20,19,318,,23,51,142,,24,24,077,,1*73
$GBGSV,4,4,16,29,06,277,,32,14,059,,36,50,052,,39,35,203,,1*7C
$QL001,1626998566000,29.999988,120.000004,1.440857,0.000,0.000,25.956,94.308,0.454,0.000
$QL002,3,3,1,0,6.631,25.095,0.000,0.000,0.000,0.321,0.321,0.136,18
$QL003,0.0000,0.0000,0.0000,0.0000,0.0000,0.0000,0.0000,0.0000,0.0000,0.0000
$QL004,2,1F,take_turns,line_accelerate
$GBGSA,A,3,06,09,11,12,13,,,,,,,,1.5,1.2,1.0,4*30
$GBVTG,,T,,M,0.0,N,0.0,K,A*31
$GBDTM,P90,,0000.000022,S,00000.000001,W,0.988,W84*48
$GBRMC,000246.00,A,2959.999271,N,12000.000255,E,0.0,,230721,4.3,W,A,V*68
$GBGNS,000246.00,2959.999271,N,12000.000255,E,NNNAN,05,1.2,-5.6,7.0,,,V*7B
$GBGGA,000246.00,2959.999271,N,12000.000255,E,1,05,1.2,-5.6,M,7.0,M,,*6A

$GBGSV,4,1,16,14,08,164,38,13,47,201,40,12,10,059,38,11,18,130,39,1*73
$GBGSV,4,2,16,09,36,286,40,06,36,215,39,04,35,125,,02,50,170,40,1*7D
$GBGSV,4,3,16,01,37,121,,20,19,318,,23,51,142,,24,24,077,,1*73
$GBGSV,4,4,16,29,06,277,,32,14,059,,36,50,052,,39,35,203,,1*7C
$QL001,1626998567000,29.999987,119.999999,-0.477203,0.000,0.000,18.687,65.419,0.453,0.000
$QL002,3,3,1,0,11.223,14.942,0.000,0.000,0.000,0.321,0.321,0.134,18

$GBGSV,4,1,16,14,08,164,39,13,47,201,40,12,10,059,39,11,18,130,39,1*73
$GBGSV,4,2,16,09,36,286,39,06,36,215,39,04,35,125,,02,50,170,40,1*73
$GBGSV,4,3,16,01,37,121,,20,19,318,,23,51,142,,24,24,077,,1*73
$GBGSV,4,4,16,29,06,277,,32,14,059,,36,50,052,,39,35,203,,1*7C
$QL001,1626998568000,29.999987,120.000000,-0.377655,0.000,0.000,14.626,49.601,0.453,0.000
$QL002,3,3,1,0,8.858,11.638,0.000,0.000,0.000,0.320,0.320,0.122,18
$QL003,0.0000,0.0000,0.0000,0.0000,0.0000,0.0000,0.0000,0.0000,0.0000,0.0000
$QL004,2,1F,take_turns,line_accelerate
$GBGSA,A,3,06,11,12,13,,,,,,,,,2.1,1.8,1.0,4*34
$GBVTG,,T,,M,0.0,N,0.0,K,A*31
$GBDTM,P90,,0000.000022,S,00000.000001,W,0.988,W84*48
$GBRMC,000248.00,A,2959.999227,N,11959.999985,E,0.0,,230721,4.3,W,A,V*6C
$GBGNS,000248.00,2959.999227,N,11959.999985,E,NNNAN,04,1.8,-7.4,7.0,,,V*74
$GBGGA,000248.00,2959.999227,N,11959.999985,E,1,04,1.8,-7.4,M,7.0,M,,*65

$GBGSV,4,1,16,14,08,164,39,13,47,201,40,12,10,059,38,11,18,130,39,1*72
$GBGSV,4,2,16,09,36,286,39,06,36,215,39,04,35,125,,02,50,170,40,1*73
$GBGSV,4,3,16,01,37,121,,20,19,318,,23,51,142,,24,24,077,,1*73
$GBGSV,4,4,16,29,06,277,,32,14,059,,36,50,052,,39,35,203,,1*7C
$QL001,1626998569000,29.999987,119.999999,-0.586700,0.000,0.000,11.961,39.454,0.453,0.000
$QL002,3,3,1,0,7.296,9.478,0.000,0.000,0.000,0.320,0.320,0.122,18
$QL003,0.0000,0.0000,0.0000,0.0000,0.0000,0.0000,0.0000,0.0000,0.0000,0.0000
$QL004,2,1F,take_turns,line_accelerate
$GBGSA,A,3,06,09,11,13,,,,,,,,,2.2,2.0,1.0,4*36
$GBVTG,,T,,M,0.0,N,0.0,K,A*31
$GBDTM,P90,,0000.000022,S,00000.000001,W,0.988,W84*48
$GBRMC,000249.00,A,2959.999225,N,11959.999951,E,0.0,,230721,4.3,W,A,V*66
$GBGNS,000249.00,2959.999225,N,11959.999951,E,NNNAN,04,2.0,-7.6,7.0,,,V*77
$GBGGA,000249.00,2959.999225,N,11959.999951,E,1,04,2.0,-7.6,M,7.0,M,,*66

$GBGSV,4,1,16,14,08,164,39,13,47,201,40,12,10,059,38,11,18,130,39,1*72
$GBGSV,4,2,16,09,36,286,40,06,36,215,39,04,35,125,,02,50,170,39,1*73
$GBGSV,4,3,16,01,37,121,,20,19,318,,23,51,142,,24,24,077,,1*73
$GBGSV,4,4,16,29,06,277,,32,14,059,,36,50,052,,39,35,203,,1*7C
$QL001,1626998570000,29.999987,119.999999,-0.720795,0.000,0.000,10.041,32.310,0.453,0.000
$QL002,3,3,1,0,6.163,7.927,0.000,0.000,0.000,0.320,0.320,0.121,18
$QL003,0.0000,0.0000,0.0000,0.0000,0.0000,0.0000,0.0000,0.0000,0.0000,0.0000
$QL004,2,1F,take_turns,line_accelerate
$GBGSA,A,2,06,09,13,,,,,,,,,,7.1,7.0,1.0,4*34
$GBVTG,,T,,M,0.0,N,0.0,K,A*31
$GBDTM,P90,,0000.000022,S,00000.000001,W,0.988,W84*48
$GBRMC,000250.00,A,2959.999224,N,11959.999931,E,0.0,,230721,4.3,W,A,V*69
$GBGNS,000250.00,2959.999224,N,11959.999931,E,NNNAN,03,7.0,-7.7,7.0,,,V*7B
$GBGGA,000250.00,2959.999224,N,11959.999931,E,1,03,7.0,-7.7,M,7.0,M,,*6A

$GBGSV,4,1,14,14,08,164,39,13,47,201,40,12,10,059,38,11,18,130,39,1*70
$GBGSV,4,2,14,09,36,286,40,06,36,215,39,01,37,121,,20,19,318,,1*79
$GBGSV,4,3,14,23,51,142,,24,24,077,,29,06,277,,32,14,059,,1*71
$GBGSV,4,4,14,36,50,052,,39,35,203,,1*79
$QL001,1626998571000,29.999987,119.999999,-0.818146,0.000,0.000,8.598,27.056,0.453,0.000
$QL002,3,3,1,0,5.307,6.765,0.000,0.000,0.000,0.320,0.320,0.120,18
$QL003,0.0000,0.0000,0.0000,0.0000,0.0000,0.0000,0.0000,0.0000,0.0000,0.0000
$QL004,2,1F,take_turns,line_accelerate
$GBGSA,A,3,06,09,11,12,13,,,,,,,,1.5,1.2,1.0,4*30
$GBVTG,,T,,M,0.0,N,0.0,K,A*31
$GBDTM,P90,,0000.000022,S,00000.000001,W,0.988,W84*48
$GBRMC,000251.00,A,2959.999222,N,11959.999915,E,0.0,,230721,4.3,W,A,V*68
$GBGNS,000251.00,2959.999222,N,11959.999915,E,NNNAN,05,1.2,-7.8,7.0,,,V*77
$GBGGA,000251.00,2959.999222,N,11959.999915,E,1,05,1.2,-7.8,M,7.0,M,,*66

$GBGSV,4,1,16,14,08,164,38,13,47,201,40,12,10,059,39,11,18,130,39,1*72
$GBGSV,4,2,16,09,36,286,39,06,36,215,39,04,35,125,,02,50,170,39,1*7D
$GBGSV,4,3,16,01,37,121,,20,19,318,,23,51,142,,24,24,077,,1*73
$GBGSV,4,4,16,29,06,277,,32,14,059,,36,50,052,,39,35,203,,1*7C
$QL001,1626998572000,29.999987,119.999998,-0.915955,0.000,0.000,7.686,23.697,0.453,0.000
$QL002,3,3,1,0,4.768,6.028,0.000,0.000,0.000,0.320,0.320,0.120,18

$GBGSV,4,1,16,14,08,164,39,13,47,201,40,12,10,059,39,11,18,130,39,1*73
$GBGSV,4,2,16,09,36,286,40,06,36,215,39,04,35,125,,02,50,170,40,1*7D
$GBGSV,4,3,16,01,37,121,,20,19,318,,23,51,142,,24,24,077,,1*73
$GBGSV,4,4,16,29,06,277,,32,14,059,,36,50,052,,39,35,203,,1*7C
$QL001,1626998573000,29.999987,119.999998,-1.006256,0.000,0.000,6.868,20.778,0.453,0.000
$QL002,3,3,1,0,4.280,5.371,0.000,0.000,0.000,0.320,0.320,0.119,18
$QL003,0.0000,0.0000,0.0000,0.0000,0.0000,0.0000,0.0000,0.0000,0.0000,0.0000
$QL004,2,1F,take_turns,line_accelerate
$GBGSA,A,3,06,09,11,12,13,,,,,,,,1.5,1.2,1.0,4*30
$GBVTG,,T,,M,0.0,N,0.0,K,A*31
$GBDTM,P90,,0000.000022,S,00000.000001,W,0.988,W84*48
$GBRMC,000253.00,A,2959.999218,N,11959.999890,E,0.0,,230721,4.3,W,A,V*6F
$GBGNS,000253.00,2959.999218,N,11959.999890,E,NNNAN,05,1.2,-8.0,7.0,,,V*77
$GBGGA,000253.00,2959.999218,N,11959.999890,E,1,05,1.2,-8.0,M,7.0,M,,*66

$GBGSV,4,1,15,14,08,164,39,13,47,201,40,12,10,059,39,11,18,130,39,1*70
$GBGSV,4,2,15,09,36,286,39,06,36,215,39,04,35,125,,01,37,121,,1*72
$GBGSV,4,3,15,20,19,318,,23,51,142,,24,24,077,,29,06,277,,1*78
$GBGSV,4,4,15,32,14,059,,36,50,052,,39,35,203,,1*40
$QL001,1626998574000,29.999987,119.999998,-0.977081,0.000,0.000,6.251,18.590,0.453,0.000
$QL002,3,3,1,0,3.913,4.876,0.000,0.000,0.000,0.320,0.320,0.119,18
$QL003,0.0000,0.0000,0.0000,0.0000,0.0000,0.0000,0.0000,0.0000,0.0000,0.0000
$QL004,2,1F,take_turns,line_accelerate
$GBGSA,A,3,06,09,11,12,13,,,,,,,,1.5,1.2,1.0,4*30
$GBVTG,,T,,M,0.0,N,0.0,K,A*31
$GBDTM,P90,,0000.000022,S,00000.000001,W,0.988,W84*48
$GBRMC,000254.00,A,2959.999217,N,11959.999893,E,0.0,,230721,4.3,W,A,V*64
$GBGNS,000254.00,2959.999217,N,11959.999893,E,NNNAN,05,1.2,-8.0,7.0,,,V*7C
$GBGGA,000254.00,2959.999217,N,11959.999893,E,1,05,1.2,-8.0,M,7.0,M,,*6D

$GBGSV,4,1,15,14,08,164,39,13,47,201,40,12,10,059,39,11,18,130,40,1*7E
$GBGSV,4,2,15,09,36,286,40,06,36,215,39,02,50,170,40,01,37,121,,1*7D
$GBGSV,4,3,15,20,19,318,,23,51,142,,24,24,077,,29,06,277,,1*78
$GBGSV,4,4,15,32,14,059,,36,50,052,,39,35,203,,1*40
$QL001,1626998575000,29.999987,119.999998,-0.976593,0.000,0.000,5.751,16.824,0.453,0.000
$QL002,3,3,1,0,3.614,4.473,0.000,0.000,0.000,0.320,0.320,0.118,18
$QL003,0.0000,0.0000,0.0000,0.0000,0.0000,0.0000,0.0000,0.0000,0.0000,0.0000
$QL004,2,1F,take_turns,line_accelerate
$GBGSA,A,3,09,11,12,13,,,,,,,,,1.6,1.3,1.0,4*34
$GBVTG,,T,,M,0.0,N,0.0,K,A*31
$GBDTM,P90,,0000.000022,S,00000.000001,W,0.988,W84*48
$GBRMC,000255.00,A,2959.999215,N,11959.999892,E,0.0,,230721,4.3,W,A,V*66
$GBGNS,000255.00,2959.999215,N,11959.999892,E,NNNAN,04,1.3,-8.0,7.0,,,V*7E
$GBGGA,000255.00,2959.999215,N,11959.999892,E,1,04,1.3,-8.0,M,7.0,M,,*6F

$GBGSV,4,1,16,14,08,164,39,13,47,201,40,12,10,059,39,11,18,130,39,1*73
$GBGSV,4,2,16,09,36,286,40,06,36,215,39,04,35,125,,02,50,170,40,1*7D
$GBGSV,4,3,16,01,37,121,,20,19,318,,23,51,142,,24,24,077,,1*73
$GBGSV,4,4,16,29,06,277,,32,14,059,,36,50,052,,39,35,203,,1*7C
$QL001,1626998576000,29.999987,119.999998,-0.969757,0.000,0.000,5.447,15.696,0.453,0.000
$QL002,3,3,1,0,4.721,2.716,0.000,0.000,0.000,0.320,0.320,0.118,18
$QL003,0.0000,0.0000,0.0000,0.0000,0.0000,0.0000,0.0000,0.0000,0.0000,0.0000
$QL004,2,1F,take_turns,line_accelerate
$GBGSA,A,3,09,11,12,13,,,,,,,,,1.6,1.3,1.0,4*34
$GBVTG,,T,,M,0.0,N,0.0,K,A*31
$GBDTM,P90,,0000.000022,S,00000.000001,W,0.988,W84*48
$GBRMC,000256.00,A,2959.999220,N,11959.999894,E,0.0,,230721,4.3,W,A,V*65
$GBGNS,000256.00,2959.999220,N,11959.999894,E,NNNAN,04,1.3,-8.0,7.0,,,V*7D
$GBGGA,000256.00,2959.999220,N,11959.999894,E,1,04,1.3,-8.0,M,7.0,M,,*6C

$GBGSV,4,1,16,14,08,164,39,13,47,201,41,12,10,059,39,11,18,130,39,1*72
$GBGSV,4,2,16,09,36,286,40,06,36,215,39,04,35,125,,02,50,170,40,1*7D
$GBGSV,4,3,16,01,37,121,,20,19,318,,23,51,142,,24,24,077,,1*73
$GBGSV,4,4,16,29,06,277,,32,14,059,,36,50,052,,39,35,203,,1*7C
$QL001,1626998577000,29.999987,119.999998,-1.042175,0.000,0.000,5.098,14.486,0.453,0.000
$QL002,3,3,1,0,4.399,2.576,0.000,0.000,0.000,0.320,0.320,0.118,18
$QL003,0.0000,0.0000,0.0000,0.0000,0.0000,0.0000,0.0000,0.0000,0.0000,0.0000
$QL004,2,1F,take_turns,line_accelerate
$GBGSA,A,3,06,09,11,12,13,,,,,,,,1.5,1.2,1.0,4*30
$GBVTG,,T,,M,0.0,N,0.0,K,A*31
$GBDTM,P90,,0000.000022,S,00000.000001,W,0.988,W84*48
$GBRMC,000257.00,A,2959.999216,N,11959.999883,E,0.0,,230721,4.3,W,A,V*67
$GBGNS,000257.00,2959.999216,N,11959.999883,E,NNNAN,05,1.2,-8.0,7.0,,,V*7F
$GBGGA,000257.00,2959.999216,N,11959.999883,E,1,05,1.2,-8.0,M,7.0,M,,*6E

$GBGSV,4,1,16,14,08,164,39,13,47,201,40,12,10,059,39,11,18,130,39,1*73
$GBGSV,4,2,16,09,36,286,39,06,36,215,40,04,35,125,,02,50,170,40,1*7D
$GBGSV,4,3,16,01,37,121,,20,19,318,,23,51,142,,24,24,077,,1*73
$GBGSV,4,4,16,29,06,277,,32,14,059,,36,50,052,,39,35,203,,1*7C
$QL001,1626998578000,29.999987,119.999998,-1.083282,0.000,0.000,4.862,13.631,0.453,0.000
$QL002,3,3,1,0,4.177,2.488,0.000,0.000,0.000,0.320,0.320,0.117,18
$QL003,0.0000,0.0000,0.0000,0.0000,0.0000,0.0000,0.0000,0.0000,0.0000,0.0000
$QL004,2,1F,take_turns,line_accelerate
$GBGSA,A,3,09,11,12,13,,,,,,,,,1.6,1.3,1.0,4*34
$GBVTG,,T,,M,0.0,N,0.0,K,A*31
$GBDTM,P90,,0000.000022,S,00000.000001,W,0.988,W84*48
$GBRMC,000258.00,A,2959.999212,N,11959.999879,E,0.0,,230721,4.3,W,A,V*69
$GBGNS,000258.00,2959.999212,N,11959.999879,E,NNNAN,04,1.3,-8.1,7.0,,,V*70
$GBGGA,000258.00,2959.999212,N,11959.999879,E,1,04,1.3,-8.1,M,7.0,M,,*61

$GBGSV,4,1,16,14,08,164,39,13,47,201,40,12,10,059,39,11,18,130,39,1*73
$GBGSV,4,2,16,09,36,286,39,06,36,215,39,04,35,125,,02,50,170,39,1*7D
$GBGSV,4,3,16,01,37,121,,20,19,318,,23,51,142,,24,24,077,,1*73
$GBGSV,4,4,16,29,06,277,,32,14,059,,36,50,052,,39,35,203,,1*7C
$QL001,1626998579000,29.999987,119.999998,-1.061371,0.000,0.000,4.652,12.878,0.453,0.000
$QL002,3,3,1,0,3.980,2.409,0.000,0.000,0.000,0.320,0.320,0.117,18
$QL003,0.0000,0.0000,0.0000,0.0000,0.0000,0.0000,0.0000,0.0000,0.0000,0.0000
$QL004,2,1F,take_turns,line_accelerate
$GBGSA,A,3,06,09,11,12,,,,,,,,,1.6,1.2,1.0,4*31
$GBVTG,,T,,M,0.0,N,0.0,K,A*31
$GBDTM,P90,,0000.000022,S,00000.000001,W,0.988,W84*48
$GBRMC,000259.00,A,2959.999214,N,11959.999879,E,0.0,,230721,4.3,W,A,V*6E
$GBGNS,000259.00,2959.999214,N,11959.999879,E,NNNAN,04,1.2,-8.1,7.0,,,V*76
$GBGGA,000259.00,2959.999214,N,11959.999879,E,1,04,1.2,-8.1,M,7.0,M,,*67

$GBGSV,4,1,16,14,08,164,38,13,47,201,40,12,10,059,38,11,18,130,40,1*7D
$GBGSV,4,2,16,09,36,286,39,06,36,215,39,04,35,125,,02,50,170,40,1*73
$GBGSV,4,3,16,01,37,121,,20,19,318,,23,51,142,,24,24,077,,1*73
$GBGSV,4,4,16,29,06,277,,32,14,059,,36,50,052,,39,35,203,,1*7C
$QL001,1626998580000,29.999987,119.999998,-1.131287,0.000,0.000,4.433,12.122,0.453,0.000
$QL002,3,3,1,0,3.777,2.320,0.000,0.000,0.000,0.320,0.320,0.117,18

$GBGSV,4,1,16,14,08,164,39,13,47,201,40,12,10,059,39,11,18,130,39,1*73
$GBGSV,4,2,16,09,36,286,39,06,36,215,39,04,35,125,,02,50,170,40,1*73
$GBGSV,4,3,16,01,37,121,,20,19,318,,23,51,142,,24,24,077,,1*73
$GBGSV,4,4,16,29,06,277,,32,14,059,,36,50,052,,39,35,203,,1*7C
$QL001,1626998581000,29.999987,119.999998,-1.181213,0.000,0.000,4.237,11.453,0.453,0.000

$GBGSV,4,1,15,14,08,164,40,13,47,201,40,12,10,059,39,11,18,130,39,1*7E
$GBGSV,4,2,15,09,36,286,39,06,36,215,40,02,50,170,40,01,37,121,,1*7D
$GBGSV,4,3,15,20,19,318,,23,51,142,,24,24,077,,29,06,277,,1*78
$GBGSV,4,4,15,32,14,059,,36,50,052,,39,35,203,,1*40
$QL001,1626998582000,29.999987,119.999998,-1.160004,0.000,0.000,4.083,10.916,0.453,0.000
$QL002,3,3,1,0,3.452,2.180,0.000,0.000,0.000,0.320,0.320,0.116,18
$QL003,0.0000,0.0000,0.0000,0.0000,0.0000,0.0000,0.0000,0.0000,0.0000,0.0000
$QL004,2,1F,take_turns,line_accelerate
$GBGSA,A,3,06,11,12,13,,,,,,,,,2.1,1.8,1.0,4*34
$GBVTG,,T,,M,0.0,N,0.0,K,A*31
$GBDTM,P90,,0000.000022,S,00000.000001,W,0.988,W84*48
$GBRMC,000302.00,A,2959.999212,N,11959.999861,E,0.0,,230721,4.3,W,A,V*6E
$GBGNS,000302.00,2959.999212,N,11959.999861,E,NNNAN,04,1.8,-8.2,7.0,,,V*7F
$GBGGA,000302.00,2959.999212,N,11959.999861,E,1,04,1.8,-8.2,M,7.0,M,,*6E

$GBGSV,4,1,16,14,08,164,39,13,47,201,40,12,10,059,39,11,18,130,39,1*73
$GBGSV,4,2,16,09,36,286,39,06,36,215,39,04,35,125,,02,50,170,40,1*73
$GBGSV,4,3,16,01,37,121,,20,19,318,,23,51,142,,24,24,077,,1*73
$GBGSV,4,4,16,29,06,277,,32,14,059,,36,50,052,,39,35,203,,1*7C
$QL001,1626998583000,29.999987,119.999998,-1.170197,0.000,0.000,4.003,10.654,0.453,0.000
$QL002,3,3,1,0,3.366,2.167,0.000,0.000,0.000,0.320,0.320,0.116,18
$QL003,0.0000,0.0000,0.0000,0.0000,0.0000,0.0000,0.0000,0.0000,0.0000,0.0000
$QL004,2,1F,take_turns,line_accelerate
$GBGSA,A,3,06,09,11,13,,,,,,,,,2.2,2.0,1.0,4*36
$GBVTG,,T,,M,0.0,N,0.0,K,A*31
$GBDTM,P90,,0000.000022,S,00000.000001,W,0.988,W84*48
$GBRMC,000303.00,A,2959.999212,N,11959.999859,E,0.0,,230721,4.3,W,A,V*64
$GBGNS,000303.00,2959.999212,N,11959.999859,E,NNNAN,04,2.0,-8.2,7.0,,,V*7E
$GBGGA,000303.00,2959.999212,N,11959.999859,E,1,04,2.0,-8.2,M,7.0,M,,*6F

$GBGSV,4,1,16,14,08,164,38,13,47,201,40,12,10,059,39,11,18,130,39,1*72
$GBGSV,4,2,16,09,36,286,39,06,36,215,39,04,35,125,,02,50,170,40,1*73
$GBGSV,4,3,16,01,37,121,,20,19,318,,23,51,142,,24,24,077,,1*73
$GBGSV,4,4,16,29,06,277,,32,14,059,,36,50,052,,39,35,203,,1*7C
$QL001,1626998584000,29.999987,119.999997,-1.247894,0.000,0.000,3.892,10.266,0.453,0.000
$QL002,3,3,1,0,3.244,2.149,0.000,0.000,0.000,0.320,0.320,0.116,18
$QL003,0.0000,0.0000,0.0000,0.0000,0.0000,0.0000,0.0000,0.0000,0.0000,0.0000
$QL004,2,1F,take_turns,line_accelerate
$GBGSA,A,3,06,09,11,12,,,,,,,,,1.6,1.2,1.0,4*31
$GBVTG,,T,,M,0.0,N,0.0,K,A*31
$GBDTM,P90,,0000.000022,S,00000.000001,W,0.988,W84*48
$GBRMC,000304.00,A,2959.999209,N,11959.999844,E,0.0,,230721,4.3,W,A,V*65
$GBGNS,000304.00,2959.999209,N,11959.999844,E,NNNAN,04,1.2,-8.2,7.0,,,V*7E
$GBGGA,000304.00,2959.999209,N,11959.999844,E,1,04,1.2,-8.2,M,7.0,M,,*6F

$GBGSV,4,1,15,14,08,164,40,13,47,201,40,12,10,059,39,11,18,130,39,1*7E
$GBGSV,4,2,15,09,36,286,39,06,36,215,39,04,35,125,,01,37,121,,1*72
$GBGSV,4,3,15,20,19,318,,23,51,142,,24,24,077,,29,06,277,,1*78
$GBGSV,4,4,15,32,14,059,,36,50,052,,39,35,203,,1*40
$QL001,1626998585000,29.999987,119.999997,-1.264008,0.000,0.000,3.766,9.817,0.453,0.000
$QL002,3,3,1,0,3.106,2.130,0.000,0.000,0.000,0.320,0.320,0.116,18
$QL003,0.0000,0.0000,0.0000,0.0000,0.0000,0.0000,0.0000,0.0000,0.0000,0.0000
$QL004,2,1F,take_turns,line_accelerate
$GBGSA,A,3,06,09,11,12,13,,,,,,,,1.5,1.2,1.0,4*30
$GBVTG,,T,,M,0.0,N,0.0,K,A*31
$GBDTM,P90,,0000.000022,S,00000.000001,W,0.988,W84*48
$GBRMC,000305.00,A,2959.999210,N,11959.999840,E,0.0,,230721,4.3,W,A,V*68
$GBGNS,000305.00,2959.999210,N,11959.999840,E,NNNAN,05,1.2,-8.3,7.0,,,V*73
$GBGGA,000305.00,2959.999210,N,11959.999840,E,1,05,1.2,-8.3,M,7.0,M,,*62

$GBGSV,4,1,16,14,08,164,39,13,47,201,39,12,10,059,39,11,18,130,39,1*7D
$GBGSV,4,2,16,09,36,286,39,06,36,215,39,04,35,125,,02,50,170,40,1*73
$GBGSV,4,3,16,01,37,121,,20,19,318,,23,51,142,,24,24,077,,1*73
$GBGSV,4,4,16,29,06,277,,32,14,059,,36,50,052,,39,35,203,,1*7C
$QL001,1626998586000,29.999987,119.999997,-1.296906,0.000,0.000,3.678,9.495,0.453,0.000
$QL002,3,3,1,0,3.008,2.117,0.000,0.000,0.000,0.320,0.320,0.116,18
$QL003,0.0000,0.0000,0.0000,0.0000,0.0000,0.0000,0.0000,0.0000,0.0000,0.0000
$QL004,2,1F,take_turns,line_accelerate

$GBGSV,4,1,16,14,08,164,39,13,47,201,40,12,10,059,39,11,18,130,39,1*73
$GBGSV,4,2,16,09,36,286,39,06,36,215,39,04,35,125,,02,50,170,40,1*73
$GBGSV,4,3,16,01,37,121,,20,19,318,,23,51,142,,24,24,077,,1*73
$GBGSV,4,4,16,29,06,277,,32,14,059,,36,50,052,,39,35,203,,1*7C
$QL001,1626998587000,29.999987,119.999997,-1.248260,0.000,0.000,3.614,9.256,0.453,0.000
$QL002,3,3,1,0,2.937,2.107,0.000,0.000,0.000,0.320,0.320,0.115,18
$QL003,0.0000,0.0000,0.0000,0.0000,0.0000,0.0000,0.0000,0.0000,0.0000,0.0000
$QL004,2,1F,take_turns,line_accelerate
$GBGSA,A,3,06,09,11,12,13,,,,,,,,1.5,1.2,1.0,4*30
$GBVTG,,T,,M,0.0,N,0.0,K,A*31
$GBDTM,P90,,0000.000022,S,00000.000001,W,0.988,W84*48
$GBRMC,000307.00,A,2959.999207,N,11959.999840,E,0.0,,230721,4.3,W,A,V*6C
$GBGNS,000307.00,2959.999207,N,11959.999840,E,NNNAN,05,1.2,-8.2,7.0,,,V*76
$GBGGA,000307.00,2959.999207,N,11959.999840,E,1,05,1.2,-8.2,M,7.0,M,,*67

$GBGSV,4,1,16,14,08,164,38,13,47,201,40,12,10,059,39,11,18,130,40,1*7C
$GBGSV,4,2,16,09,36,286,39,06,36,215,39,04,35,125,,02,50,170,40,1*73
$GBGSV,4,3,16,01,37,121,,20,19,318,,23,51,142,,24,24,077,,1*73
$GBGSV,4,4,16,29,06,277,,32,14,059,,36,50,052,,39,35,203,,1*7C
$QL001,1626998588000,29.999987,119.999997,-1.273987,0.000,0.000,3.542,8.981,0.453,0.000
$QL002,3,3,1,0,2.855,2.096,0.000,0.000,0.000,0.320,0.320,0.115,18
$QL003,0.0000,0.0000,0.0000,0.0000,0.0000,0.0000,0.0000,0.0000,0.0000,0.0000
$QL004,2,1F,take_turns,line_accelerate
$GBGSA,A,3,06,09,11,12,13,,,,,,,,1.5,1.2,1.0,4*30
$GBVTG,,T,,M,0.0,N,0.0,K,A*31
$GBDTM,P90,,0000.000022,S,00000.000001,W,0.988,W84*48
$GBRMC,000308.00,A,2959.999207,N,11959.999837,E,0.0,,230721,4.3,W,A,V*63
$GBGNS,000308.00,2959.999207,N,11959.999837,E,NNNAN,05,1.2,-8.3,7.0,,,V*78
$GBGGA,000308.00,2959.999207,N,11959.999837,E,1,05,1.2,-8.3,M,7.0,M,,*69

$GBGSV,4,1,15,14,08,164,38,13,47,201,40,12,10,059,39,11,18,130,39,1*71
$GBGSV,4,2,15,09,36,286,39,06,36,215,39,04,35,125,,01,37,121,,1*72
$GBGSV,4,3,15,20,19,318,,23,51,142,,24,24,077,,29,06,277,,1*78
$GBGSV,4,4,15,32,14,059,,36,50,052,,39,35,203,,1*40
$QL001,1626998589000,29.999987,119.999997,-1.258850,0.000,0.000,3.561,9.044,0.453,0.000
$QL002,3,3,1,0,2.876,2.099,0.000,0.000,0.000,0.320,0.320,0.115,18
$QL003,0.0000,0.0000,0.0000,0.0000,0.0000,0.0000,0.0000,0.0000,0.0000,0.0000
$QL004,2,1F,take_turns,line_accelerate
$GBGSA,A,3,06,09,11,12,13,,,,,,,,1.5,1.2,1.0,4*30
$GBVTG,,T,,M,0.0,N,0.0,K,A*31
$GBDTM,P90,,0000.000022,S,00000.000001,W,0.988,W84*48
$GBRMC,000309.00,A,2959.999212,N,11959.999840,E,0.0,,230721,4.3,W,A,V*66
$GBGNS,000309.00,2959.999212,N,11959.999840,E,NNNAN,05,1.2,-8.3,7.0,,,V*7D
$GBGGA,000309.00,2959.999212,N,11959.999840,E,1,05,1.2,-8.3,M,7.0,M,,*6C

$GBGSV,4,1,16,14,08,164,39,13,47,201,40,12,10,059,39,11,18,130,39,1*73
$GBGSV,4,2,16,09,36,286,39,06,36,215,39,04,35,125,,02,50,170,40,1*73
$GBGSV,4,3,16,01,37,121,,20,19,318,,23,51,142,,24,24,077,,1*73
$GBGSV,4,4,16,29,06,277,,32,14,059,,36,50,052,,39,35,203,,1*7C
$QL001,1626998590000,29.999987,119.999997,-1.242004,0.000,0.000,3.498,8.799,0.453,0.000
$QL002,3,3,1,0,2.805,2.090,0.000,0.000,0.000,0.320,0.320,0.115,18
$QL003,0.0000,0.0000,0.0000,0.0000,0.0000,0.0000,0.0000,0.0000,0.0000,0.0000
$QL004,2,1F,take_turns,line_accelerate
$GBGSA,A,2,09,12,13,,,,,,,,,,1.9,1.7,1.0,4*3E
$GBVTG,,T,,M,0.0,N,0.0,K,A*31
$GBDTM,P90,,0000.000022,S,00000.000001,W,0.988,W84*48
$GBRMC,000310.00,A,2959.999213,N,11959.999844,E,0.0,,230721,4.3,W,A,V*6B
$GBGNS,000310.00,2959.999213,N,11959.999844,E,NNNAN,03,1.7,-8.2,7.0,,,V*72
$GBGGA,000310.00,2959.999213,N,11959.999844,E,1,03,1.7,-8.2,M,7.0,M,,*63

$GBGSV,4,1,16,14,08,164,39,13,47,201,40,12,10,059,39,11,18,130,40,1*7D
$GBGSV,4,2,16,09,36,286,39,06,36,215,39,04,35,125,,02,50,170,40,1*73
$GBGSV,4,3,16,01,37,121,,20,19,318,,23,51,142,,24,24,077,,1*73
$GBGSV,4,4,16,29,06,277,,32,14,059,,36,50,052,,39,35,203,,1*7C
$QL001,1626998591000,29.999987,119.999997,-1.219208,0.000,0.000,3.433,8.545,0.453,0.000
$QL002,3,3,1,0,2.731,2.081,0.000,0.000,0.000,0.320,0.320,0.115,18
$QL003,0.0000,0.0000,0.0000,0.0000,0.0000,0.0000,0.0000,0.0000,0.0000,0.0000
$QL004,2,1F,take_turns,line_accelerate
$GBGSA,A,3,06,11,12,13,,,,,,,,,2.1,1.8,1.0,4*34
$GBVTG,,T,,M,0.0,N,0.0,K,A*31
$GBDTM,P90,,0000.000022,S,00000.000001,W,0.988,W84*48
$GBRMC,000311.00,A,2959.999215,N,11959.999848,E,0.0,,230721,4.3,W,A,V*60
$GBGNS,000311.00,2959.999215,N,11959.999848,E,NNNAN,04,1.8,-8.2,7.0,,,V*71
$GBGGA,000311.00,2959.999215,N,11959.999848,E,1,04,1.8,-8.2,M,7.0,M,,*60

$GBGSV,4,1,16,14,08,164,39,13,47,201,40,12,10,059,38,11,18,130,39,1*72
$GBGSV,4,2,16,09,36,286,39,06,36,215,39,04,35,125,,02,50,170,40,1*73
$GBGSV,4,3,16,01,37,121,,20,19,318,,23,51,142,,24,24,077,,1*73
$GBGSV,4,4,16,29,06,277,,32,14,059,,36,50,052,,39,35,203,,1*7C
$QL001,1626998592000,29.999987,119.999998,-1.175690,0.000,0.000,3.392,8.380,0.453,0.000
$QL002,3,3,1,0,2.684,2.075,0.000,0.000,0.000,0.320,0.320,0.115,18
$QL003,0.0000,0.0000,0.0000,0.0000,0.0000,0.0000,0.0000,0.0000,0.0000,0.0000
$QL004,2,1F,take_turns,line_accelerate
$GBGSA,A,3,06,09,11,12,,,,,,,,,1.6,1.2,1.0,4*31
$GBVTG,,T,,M,0.0,N,0.0,K,A*31
$GBDTM,P90,,0000.000022,S,00000.000001,W,0.988,W84*48
$GBRMC,000312.00,A,2959.999215,N,11959.999856,E,0.0,,230721,4.3,W,A,V*6C
$GBGNS,000312.00,2959.999215,N,11959.999856,E,NNNAN,04,1.2,-8.2,7.0,,,V*77
$GBGGA,000312.00,2959.999215,N,11959.999856,E,1,04,1.2,-8.2,M,7.0,M,,*66

$GBGSV,4,1,16,14,08,164,39,13,47,201,40,12,10,059,39,11,18,130,39,1*73
$GBGSV,4,2,16,09,36,286,39,06,36,215,39,04,35,125,,02,50,170,40,1*73
$GBGSV,4,3,16,01,37,121,,20,19,318,,23,51,142,,24,24,077,,1*73
$GBGSV,4,4,16,29,06,277,,32,14,059,,36,50,052,,39,35,203,,1*7C
$QL001,1626998593000,29.999987,119.999997,-1.221771,0.000,0.000,3.359,8.244,0.453,0.000
$QL002,3,3,1,0,2.646,2.070,0.000,0.000,0.000,0.320,0.320,0.115,18
$QL003,0.0000,0.0000,0.0000,0.0000,0.0000,0.0000,0.0000,0.0000,0.0000,0.0000
$QL004,2,1F,take_turns,line_accelerate
$GBGSA,A,3,06,09,11,12,13,,,,,,,,1.5,1.2,1.0,4*30
$GBVTG,,T,,M,0.0,N,0.0,K,A*31
$GBDTM,P90,,0000.000022,S,00000.000001,W,0.988,W84*48
$GBRMC,000313.00,A,2959.999217,N,11959.999849,E,0.0,,230721,4.3,W,A,V*61
$GBGNS,000313.00,2959.999217,N,11959.999849,E,NNNAN,05,1.2,-8.2,7.0,,,V*7B
$GBGGA,000313.00,2959.999217,N,11959.999849,E,1,05,1.2,-8.2,M,7.0,M,,*6A

$GBGSV,4,1,16,14,08,164,39,13,47,201,40,12,10,059,38,11,18,130,38,1*73
$GBGSV,4,2,16,09,36,286,38,06,36,215,39,04,35,125,,02,50,170,40,1*72
$GBGSV,4,3,16,01,37,121,,20,19,318,,23,51,142,,24,24,077,,1*73
$GBGSV,4,4,16,29,06,277,,32,14,059,,36,50,052,,39,35,203,,1*7C
$QL001,1626998594000,29.999987,119.999997,-1.240631,0.000,0.000,3.295,7.984,0.453,0.000
$QL002,3,3,1,0,2.571,2.061,0.000,0.000,0.000,0.320,0.320,0.115,18
$QL003,0.0000,0.0000,0.0000,0.0000,0.0000,0.0000,0.0000,0.0000,0.0000,0.0000
$QL004,2,1F,take_turns,line_accelerate
$GBGSA,A,3,06,09,11,12,13,,,,,,,,1.5,1.2,1.0,4*30
$GBVTG,,T,,M,0.0,N,0.0,K,A*31
$GBDTM,P90,,0000.000022,S,00000.000001,W,0.988,W84*48
$GBRMC,000314.00,A,2959.999217,N,11959.999845,E,0.0,,230721,4.3,W,A,V*6A
$GBGNS,000314.00,2959.999217,N,11959.999845,E,NNNAN,05,1.2,-8.2,7.0,,,V*70
$GBGGA,000314.00,2959.999217,N,11959.999845,E,1,05,1.2,-8.2,M,7.0,M,,*61

$GBGSV,4,1,16,14,08,164,38,13,47,201,40,12,10,059,39,11,18,130,39,1*72
$GBGSV,4,2,16,09,36,286,39,06,36,215,40,04,35,125,,02,50,170,39,1*73
$GBGSV,4,3,16,01,37,121,,20,19,318,,23,51,142,,24,24,077,,1*73
$GBGSV,4,4,16,29,06,277,,32,14,059,,36,50,052,,39,35,203,,1*7C
$QL001,1626998595000,29.999987,119.999997,-1.219543,0.000,0.000,3.243,7.771,0.453,0.000
$QL002,3,3,1,0,2.510,2.054,0.000,0.000,0.000,0.320,0.320,0.115,18
$QL003,0.0000,0.0000,0.0000,0.0000,0.0000,0.0000,0.0000,0.0000,0.0000,0.0000
$QL004,2,1F,take_turns,line_accelerate
$GBGSA,A,3,06,09,11,12,13,,,,,,,,1.5,1.2,1.0,4*30
$GBVTG,,T,,M,0.0,N,0.0,K,A*31
$GBDTM,P90,,0000.000022,S,00000.000001,W,0.988,W84*48
$GBRMC,000315.00,A,2959.999219,N,11959.999849,E,0.0,,230721,4.3,W,A,V*69
$GBGNS,000315.00,2959.999219,N,11959.999849,E,NNNAN,05,1.2,-8.2,7.0,,,V*73
$GBGGA,000315.00,2959.999219,N,11959.999849,E,1,05,1.2,-8.2,M,7.0,M,,*62

$GBGSV,4,1,16,14,08,164,39,13,47,201,40,12,10,059,38,11,18,130,39,1*72
$GBGSV,4,2,16,09,36,286,39,06,36,215,40,04,35,125,,02,50,170,39,1*73
$GBGSV,4,3,16,01,37,121,,20,19,318,,23,51,142,,24,24,077,,1*73
$GBGSV,4,4,16,29,06,277,,32,14,059,,36,50,052,,39,35,203,,1*7C
$QL001,1626998596000,29.999987,119.999997,-1.227081,0.000,0.000,3.216,7.652,0.453,0.000
$QL002,3,3,1,0,2.477,2.050,0.000,0.000,0.000,0.320,0.320,0.115,18
$QL003,0.0000,0.0000,0.0000,0.0000,0.0000,0.0000,0.0000,0.0000,0.0000,0.0000
$QL004,2,1F,take_turns,line_accelerate
$GBGSA,A,3,06,09,11,12,13,,,,,,,,1.5,1.2,1.0,4*30
$GBVTG,,T,,M,0.0,N,0.0,K,A*31
$GBDTM,P90,,0000.000022,S,00000.000001,W,0.988,W84*48
$GBRMC,000316.00,A,2959.999219,N,11959.999848,E,0.0,,230721,4.3,W,A,V*6B
$GBGNS,000316.00,2959.999219,N,11959.999848,E,NNNAN,05,1.2,-8.2,7.0,,,V*71
$GBGGA,000316.00,2959.999219,N,11959.999848,E,1,05,1.2,-8.2,M,7.0,M,,*60

$GBGSV,4,1,16,14,08,164,40,13,47,201,40,12,10,059,39,11,18,130,39,1*7D
$GBGSV,4,2,16,09,36,286,39,06,36,215,40,04,35,125,,02,50,170,39,1*73
$GBGSV,4,3,16,01,37,121,,20,19,318,,23,51,142,,24,24,077,,1*73
$GBGSV,4,4,16,29,06,277,,32,14,059,,36,50,052,,39,35,203,,1*7C
$QL001,1626998597000,29.999987,119.999997,-1.217621,0.000,0.000,3.222,7.664,0.453,0.000
$QL002,3,3,1,0,2.485,2.051,0.000,0.000,0.000,0.320,0.320,0.114,18
$QL003,0.0000,0.0000,0.0000,0.0000,0.0000,0.0000,0.0000,0.0000,0.0000,0.0000
$QL004,2,1F,take_turns,line_accelerate
$GBGSA,A,3,06,09,11,13,,,,,,,,,2.2,2.0,1.0,4*36
$GBVTG,,T,,M,0.0,N,0.0,K,A*31
$GBDTM,P90,,0000.000022,S,00000.000001,W,0.988,W84*48
$GBRMC,000317.00,A,2959.999221,N,11959.999847,E,0.0,,230721,4.3,W,A,V*6E
$GBGNS,000317.00,2959.999221,N,11959.999847,E,NNNAN,04,2.0,-8.2,7.0,,,V*74
$GBGGA,000317.00,2959.999221,N,11959.999847,E,1,04,2.0,-8.2,M,7.0,M,,*65

$GBGSV,4,1,16,14,08,164,39,13,47,201,40,12,10,059,39,11,18,130,39,1*73
$GBGSV,4,2,16,09,36,286,39,06,36,215,39,04,35,125,,02,50,170,39,1*7D
$GBGSV,4,3,16,01,37,121,,20,19,318,,23,51,142,,24,24,077,,1*73
$GBGSV,4,4,16,29,06,277,,32,14,059,,36,50,052,,39,35,203,,1*7C
$QL001,1626998598000,29.999987,119.999997,-1.203552,0.000,0.000,3.160,7.410,0.453,0.000
$QL002,3,3,1,0,2.412,2.043,0.000,0.000,0.000,0.320,0.320,0.114,18
$QL003,0.0000,0.0000,0.0000,0.0000,0.0000,0.0000,0.0000,0.0000,0.0000,0.0000
$QL004,2,1F,take_turns,line_accelerate
$GBGSA,A,3,06,09,11,12,13,,,,,,,,1.5,1.2,1.0,4*30
$GBVTG,,T,,M,0.0,N,0.0,K,A*31
$GBDTM,P90,,0000.000022,S,00000.000001,W,0.988,W84*48
$GBRMC,000318.00,A,2959.999221,N,11959.999849,E,0.0,,230721,4.3,W,A,V*6F
$GBGNS,000318.00,2959.999221,N,11959.999849,E,NNNAN,05,1.2,-8.2,7.0,,,V*75
$GBGGA,000318.00,2959.999221,N,11959.999849,E,1,05,1.2,-8.2,M,7.0,M,,*64

$GBGSV,4,1,16,14,08,164,39,13,47,201,40,12,10,059,39,11,18,130,38,1*72
$GBGSV,4,2,16,09,36,286,39,06,36,215,40,04,35,125,,02,50,170,39,1*73
$GBGSV,4,3,16,01,37,121,,20,19,318,,23,51,142,,24,24,077,,1*73
$GBGSV,4,4,16,29,06,277,,32,14,059,,36,50,052,,39,35,203,,1*7C
$QL001,1626998599000,29.999987,119.999997,-1.214203,0.000,0.000,9.553,7.465,0.453,0.000
$QL002,3,3,1,0,7.312,6.148,0.000,0.000,0.000,0.320,0.320,0.114,18
$QL003,0.0000,0.0000,0.0000,0.0000,0.0000,0.0000,0.0000,0.0000,0.0000,0.0000
$QL004,2,1F,take_turns,line_accelerate
$GBGSA,A,2,06,09,13,,,,,,,,,,7.1,7.0,1.0,4*34
$GBVTG,,T,,M,0.0,N,0.0,K,A*31
$GBDTM,P90,,0000.000022,S,00000.000001,W,0.988,W84*48
$GBRMC,000319.00,A,2959.999224,N,11959.999849,E,0.0,,230721,4.3,W,A,V*6B
$GBGNS,000319.00,2959.999224,N,11959.999849,E,NNNAN,03,7.0,-8.2,7.0,,,V*73
$GBGGA,000319.00,2959.999224,N,11959.999849,E,1,03,7.0,-8.2,M,7.0,M,,*62

$GBGSV,4,1,16,14,08,164,38,13,47,201,40,12,10,059,38,11,18,130,40,1*7D
$GBGSV,4,2,16,09,36,286,39,06,36,215,39,04,35,125,,02,50,170,39,1*7D
$GBGSV,4,3,16,01,37,121,,20,19,318,,23,51,142,,24,24,077,,1*73
$GBGSV,4,4,16,29,06,277,,32,14,059,,36,50,052,,39,35,203,,1*7C
$QL001,1626998600000,29.999987,119.999997,-1.223877,0.000,0.000,9.541,7.388,0.453,0.000
$QL002,3,3,1,0,7.281,6.165,0.000,0.000,0.000,0.320,0.320,0.114,18
$QL003,0.0000,0.0000,0.0000,0.0000,0.0000,0.0000,0.0000,0.0000,0.0000,0.0000
$QL004,2,1F,take_turns,line_accelerate
$GBGSA,A,3,06,09,11,13,,,,,,,,,2.2,2.0,1.0,4*36
$GBVTG,,T,,M,0.0,N,0.0,K,A*31
$GBDTM,P90,,0000.000022,S,00000.000001,W,0.988,W84*48
$GBRMC,000320.00,A,2959.999227,N,11959.999849,E,0.0,,230721,4.3,W,A,V*62
$GBGNS,000320.00,2959.999227,N,11959.999849,E,NNNAN,04,2.0,-8.2,7.0,,,V*78
$GBGGA,000320.00,2959.999227,N,11959.999849,E,1,04,2.0,-8.2,M,7.0,M,,*69

$GBGSV,4,1,15,14,08,164,39,13,47,201,40,12,10,059,39,11,18,130,39,1*70
$GBGSV,4,2,15,09,36,286,40,06,36,215,39,04,35,125,,01,37,121,,1*7C
$GBGSV,4,3,15,20,19,318,,23,51,142,,24,24,077,,29,06,277,,1*78
$GBGSV,4,4,15,32,14,059,,36,50,052,,39,35,203,,1*40
$QL001,1626998601000,29.999987,119.999997,-1.238983,0.000,0.000,9.525,7.292,0.453,0.000
$QL002,3,3,1,0,7.241,6.187,0.000,0.000,0.000,0.320,0.320,0.114,18
$QL003,0.0000,0.0000,0.0000,0.0000,0.0000,0.0000,0.0000,0.0000,0.0000,0.0000
$QL004,2,1F,take_turns,line_accelerate
$GBGSA,A,3,06,09,11,12,,,,,,,,,1.6,1.2,1.0,4*31
$GBVTG,,T,,M,0.0,N,0.0,K,A*31
$GBDTM,P90,,0000.000022,S,00000.000001,W,0.988,W84*48
$GBRMC,000321.00,A,2959.999230,N,11959.999848,E,0.0,,230721,4.3,W,A,V*64
$GBGNS,000321.00,2959.999230,N,11959.999848,E,NNNAN,04,1.2,-8.2,7.0,,,V*7F
$GBGGA,000321.00,2959.999230,N,11959.999848,E,1,04,1.2,-8.2,M,7.0,M,,*6E

$GBGSV,4,1,16,14,08,164,39,13,47,201,40,12,10,059,39,11,18,130,39,1*73
$GBGSV,4,2,16,09,36,286,39,06,36,215,40,04,35,125,,02,50,170,39,1*73
$GBGSV,4,3,16,01,37,121,,20,19,318,,23,51,142,,24,24,077,,1*73
$GBGSV,4,4,16,29,06,277,,32,14,059,,36,50,052,,39,35,203,,1*7C
$QL001,1626998602000,29.999987,119.999997,-1.277832,0.000,0.000,9.514,7.225,0.453,0.000
$QL002,3,3,1,0,7.215,6.202,0.000,0.000,0.000,0.320,0.320,0.114,18

$GBGSV,4,1,13,14,08,164,39,13,47,201,39,12,10,059,39,11,18,130,39,1*78
$GBGSV,4,2,13,09,36,286,40,06,36,215,39,20,19,318,,23,51,142,,1*7B
$GBGSV,4,3,13,24,24,077,,29,06,277,,32,14,059,,36,50,052,,1*73
$GBGSV,4,4,13,39,35,203,,1*49
$QL001,1626998603000,29.999987,119.999997,-1.342255,0.000,0.000,9.513,7.212,0.453,0.000
$QL002,3,3,1,0,7.214,6.201,0.000,0.000,0.000,0.320,0.320,0.114,18
$QL003,0.0000,0.0000,0.0000,0.0000,0.0000,0.0000,0.0000,0.0000,0.0000,0.0000
$QL004,2,1F,take_turns,line_accelerate
$GBGSA,A,2,09,11,12,,,,,,,,,,1.8,1.5,1.0,4*3F
$GBVTG,,T,,M,0.0,N,0.0,K,A*31
$GBDTM,P90,,0000.000022,S,00000.000001,W,0.988,W84*48
$GBRMC,000323.00,A,2959.999230,N,11959.999834,E,0.0,,230721,4.3,W,A,V*6D
$GBGNS,000323.00,2959.999230,N,11959.999834,E,NNNAN,03,1.5,-8.3,7.0,,,V*77
$GBGGA,000323.00,2959.999230,N,11959.999834,E,1,03,1.5,-8.3,M,7.0,M,,*66

$GBGSV,4,1,16,14,08,164,39,13,47,201,40,12,10,059,38,11,18,130,39,1*72
$GBGSV,4,2,16,09,36,286,39,06,36,215,39,04,35,125,,02,50,170,39,1*7D
$GBGSV,4,3,16,01,37,121,,20,19,318,,23,51,142,,24,24,077,,1*73
$GBGSV,4,4,16,29,06,277,,32,14,059,,36,50,052,,39,35,203,,1*7C
$QL001,1626998604000,29.999987,119.999997,-1.312714,0.000,0.000,9.488,7.069,0.453,0.000
$QL002,3,3,1,0,7.149,6.237,0.000,0.000,0.000,0.320,0.320,0.114,18
$QL003,0.0000,0.0000,0.0000,0.0000,0.0000,0.0000,0.0000,0.0000,0.0000,0.0000
$QL004,2,1F,take_turns,line_accelerate
$GBGSA,A,3,06,09,11,12,13,,,,,,,,1.5,1.2,1.0,4*30
$GBVTG,,T,,M,0.0,N,0.0,K,A*31
$GBDTM,P90,,0000.000022,S,00000.000001,W,0.988,W84*48
$GBRMC,000324.00,A,2959.999231,N,11959.999839,E,0.0,,230721,4.3,W,A,V*66
$GBGNS,000324.00,2959.999231,N,11959.999839,E,NNNAN,05,1.2,-8.3,7.0,,,V*7D
$GBGGA,000324.00,2959.999231,N,11959.999839,E,1,05,1.2,-8.3,M,7.0,M,,*6C

$GBGSV,4,1,16,14,08,164,39,13,47,201,39,12,10,059,40,11,18,130,39,1*73
$GBGSV,4,2,16,09,36,286,39,06,36,215,39,04,35,125,,02,50,170,39,1*7D
$GBGSV,4,3,16,01,37,121,,20,19,318,,23,51,142,,24,24,077,,1*73
$GBGSV,4,4,16,29,06,277,,32,14,059,,36,50,052,,39,35,203,,1*7C
$QL001,1626998605000,29.999987,119.999997,-1.338684,0.000,0.000,9.472,6.976,0.453,0.000
$QL002,3,3,1,0,7.109,6.260,0.000,0.000,0.000,0.320,0.320,0.114,18
$QL003,0.0000,0.0000,0.0000,0.0000,0.0000,0.0000,0.0000,0.0000,0.0000,0.0000
$QL004,2,1F,take_turns,line_accelerate
$GBGSA,A,3,09,11,12,13,,,,,,,,,1.6,1.3,1.0,4*34
$GBVTG,,T,,M,0.0,N,0.0,K,A*31
$GBDTM,P90,,0000.000022,S,00000.000001,W,0.988,W84*48
$GBRMC,000325.00,A,2959.999230,N,11959.999836,E,0.0,,230721,4.3,W,A,V*69
$GBGNS,000325.00,2959.999230,N,11959.999836,E,NNNAN,04,1.3,-8.3,7.0,,,V*72
$GBGGA,000325.00,2959.999230,N,11959.999836,E,1,04,1.3,-8.3,M,7.0,M,,*63

$GBGSV,4,1,16,14,08,164,39,13,47,201,40,12,10,059,39,11,18,130,39,1*73
$GBGSV,4,2,16,09,36,286,39,06,36,215,39,04,35,125,,02,50,170,39,1*7D
$GBGSV,4,3,16,01,37,121,,20,19,318,,23,51,142,,24,24,077,,1*73
$GBGSV,4,4,16,29,06,277,,32,14,059,,36,50,052,,39,35,203,,1*7C
$QL001,1626998606000,29.999987,119.999997,-1.354889,0.000,0.000,9.442,6.808,0.453,0.000
$QL002,3,3,1,0,7.029,6.305,0.000,0.000,0.000,0.320,0.320,0.114,18
$QL003,0.0000,0.0000,0.0000,0.0000,0.0000,0.0000,0.0000,0.0000,0.0000,0.0000
$QL004,2,1F,take_turns,line_accelerate
$GBGSA,A,2,06,11,12,,,,,,,,,,2.1,1.8,1.0,4*37
$GBVTG,,T,,M,0.0,N,0.0,K,A*31
$GBDTM,P90,,0000.000022,S,00000.000001,W,0.988,W84*48
$GBRMC,000326.00,A,2959.999228,N,11959.999831,E,0.0,,230721,4.3,W,A,V*64
$GBGNS,000326.00,2959.999228,N,11959.999831,E,NNNAN,03,1.8,-8.4,7.0,,,V*74
$GBGGA,000326.00,2959.999228,N,11959.999831,E,1,03,1.8,-8.4,M,7.0,M,,*65

$GBGSV,4,1,16,14,08,164,38,13,47,201,40,12,10,059,39,11,18,130,39,1*72
$GBGSV,4,2,16,09,36,286,40,06,36,215,39,04,35,125,,02,50,170,40,1*7D
$GBGSV,4,3,16,01,37,121,,20,19,318,,23,51,142,,24,24,077,,1*73
$GBGSV,4,4,16,29,06,277,,32,14,059,,36,50,052,,39,35,203,,1*7C
$QL001,1626998607000,29.999987,119.999997,-1.399048,0.000,0.000,9.421,6.689,0.453,0.000
$QL002,3,3,1,0,6.973,6.336,0.000,0.000,0.000,0.320,0.320,0.114,18
$QL003,0.0000,0.0000,0.0000,0.0000,0.0000,0.0000,0.0000,0.0000,0.0000,0.0000
$QL004,2,1F,take_turns,line_accelerate
$GBGSA,A,3,06,09,12,13,,,,,,,,,1.8,1.5,1.0,4*3A
$GBVTG,,T,,M,0.0,N,0.0,K,A*31
$GBDTM,P90,,0000.000022,S,00000.000001,W,0.988,W84*48
$GBRMC,000327.00,A,2959.999230,N,11959.999825,E,0.0,,230721,4.3,W,A,V*69
$GBGNS,000327.00,2959.999230,N,11959.999825,E,NNNAN,04,1.5,-8.4,7.0,,,V*73
$GBGGA,000327.00,2959.999230,N,11959.999825,E,1,04,1.5,-8.4,M,7.0,M,,*62

$GBGSV,4,1,16,14,08,164,38,13,47,201,40,12,10,059,38,11,18,130,39,1*73
$GBGSV,4,2,16,09,36,286,39,06,36,215,39,04,35,125,,02,50,170,38,1*7C
$GBGSV,4,3,16,01,37,121,,20,19,318,,23,51,142,,24,24,077,,1*73
$GBGSV,4,4,16,29,06,277,,32,14,059,,36,50,052,,39,35,203,,1*7C
$QL001,1626998608000,29.999987,119.999997,-1.423431,0.000,0.000,9.439,6.776,0.453,0.000
$QL002,3,3,1,0,7.024,6.305,0.000,0.000,0.000,0.320,0.320,0.114,18
$QL003,0.0000,0.0000,0.0000,0.0000,0.0000,0.0000,0.0000,0.0000,0.0000,0.0000
$QL004,2,1F,take_turns,line_accelerate
$GBGSA,A,3,06,09,12,13,,,,,,,,,1.8,1.5,1.0,4*3A
$GBVTG,,T,,M,0.0,N,0.0,K,A*31
$GBDTM,P90,,0000.000022,S,00000.000001,W,0.988,W84*48
$GBRMC,000328.00,A,2959.999234,N,11959.999824,E,0.0,,230721,4.3,W,A,V*63
$GBGNS,000328.00,2959.999234,N,11959.999824,E,NNNAN,04,1.5,-8.4,7.0,,,V*79
$GBGGA,000328.00,2959.999234,N,11959.999824,E,1,04,1.5,-8.4,M,7.0,M,,*68

$GBGSV,4,1,16,14,08,164,39,13,47,201,40,12,10,059,39,11,18,130,39,1*73
$GBGSV,4,2,16,09,36,286,40,06,36,215,40,04,35,125,,02,50,170,40,1*73
$GBGSV,4,3,16,01,37,121,,20,19,318,,23,51,142,,24,24,077,,1*73
$GBGSV,4,4,16,29,06,277,,32,14,059,,36,50,052,,39,35,203,,1*7C
$QL001,1626998609000,29.999987,119.999997,-1.444183,0.000,0.000,9.383,6.545,0.453,0.000
$QL002,3,3,1,0,6.897,6.362,0.000,0.000,0.000,0.320,0.320,0.114,18
$QL003,0.0000,0.0000,0.0000,0.0000,0.0000,0.0000,0.0000,0.0000,0.0000,0.0000
$QL004,2,1F,take_turns,line_accelerate
$GBGSA,A,3,06,09,11,12,13,,,,,,,,1.5,1.2,1.0,4*30
$GBVTG,,T,,M,0.0,N,0.0,K,A*31
$GBDTM,P90,,0000.000022,S,00000.000001,W,0.988,W84*48
$GBRMC,000329.00,A,2959.999235,N,11959.999821,E,0.0,,230721,4.3,W,A,V*66
$GBGNS,000329.00,2959.999235,N,11959.999821,E,NNNAN,05,1.2,-8.4,7.0,,,V*7A
$GBGGA,000329.00,2959.999235,N,11959.999821,E,1,05,1.2,-8.4,M,7.0,M,,*6B

$GBGSV,4,1,16,14,08,164,39,13,47,201,39,12,10,059,39,11,18,130,39,1*7D
$GBGSV,4,2,16,09,36,286,39,06,36,215,39,04,35,125,,02,50,170,40,1*73
$GBGSV,4,3,16,01,37,121,,20,19,318,,23,51,142,,24,24,077,,1*73
$GBGSV,4,4,16,29,06,277,,32,14,059,,36,50,052,,39,35,203,,1*7C
$QL001,1626998610000,29.999987,119.999997,-1.478638,0.000,0.000,9.340,6.477,0.453,0.000
$QL002,3,3,1,0,6.843,6.356,0.000,0.000,0.000,0.320,0.320,0.113,18
$QL003,0.0000,0.0000,0.0000,0.0000,0.0000,0.0000,0.0000,0.0000,0.0000,0.0000
$QL004,2,1F,take_turns,line_accelerate
$GBGSA,A,3,06,09,11,12,13,,,,,,,,1.5,1.2,1.0,4*30
$GBVTG,,T,,M,0.0,N,0.0,K,A*31
$GBDTM,P90,,0000.000022,S,00000.000001,W,0.988,W84*48
$GBRMC,000330.00,A,2959.999236,N,11959.999818,E,0.0,,230721,4.3,W,A,V*67
$GBGNS,000330.00,2959.999236,N,11959.999818,E,NNNAN,05,1.2,-8.5,7.0,,,V*7A
$GBGGA,000330.00,2959.999236,N,11959.999818,E,1,05,1.2,-8.5,M,7.0,M,,*6B

$GBGSV,4,1,16,14,08,164,39,13,47,201,40,12,10,059,38,11,18,130,39,1*72
$GBGSV,4,2,16,09,36,286,40,06,36,215,40,04,35,125,,02,50,170,39,1*7D
$GBGSV,4,3,16,01,37,121,,20,19,318,,23,51,142,,24,24,077,,1*73
$GBGSV,4,4,16,29,06,277,,32,14,059,,36,50,052,,39,35,203,,1*7C
$QL001,1626998611000,29.999987,119.999997,-1.502472,0.000,0.000,9.269,6.375,0.453,0.000
$QL002,3,3,1,0,6.755,6.348,0.000,0.000,0.000,0.320,0.320,0.113,18
$QL003,0.0000,0.0000,0.0000,0.0000,0.0000,0.0000,0.0000,0.0000,0.0000,0.0000
$QL004,2,1F,take_turns,line_accelerate
$GBGSA,A,3,06,09,11,12,13,,,,,,,,1.5,1.2,1.0,4*30
$GBVTG,,T,,M,0.0,N,0.0,K,A*31
$GBDTM,P90,,0000.000022,S,00000.000001,W,0.988,W84*48
$GBRMC,000331.00,A,2959.999238,N,11959.999815,E,0.0,,230721,4.3,W,A,V*65
$GBGNS,000331.00,2959.999238,N,11959.999815,E,NNNAN,05,1.2,-8.5,7.0,,,V*78
$GBGGA,000331.00,2959.999238,N,11959.999815,E,1,05,1.2,-8.5,M,7.0,M,,*69

$GBGSV,4,1,16,14,08,164,39,13,47,201,40,12,10,059,39,11,18,130,38,1*72
$GBGSV,4,2,16,09,36,286,39,06,36,215,39,04,35,125,,02,50,170,39,1*7D
$GBGSV,4,3,16,01,37,121,,20,19,318,,23,51,142,,24,24,077,,1*73
$GBGSV,4,4,16,29,06,277,,32,14,059,,36,50,052,,39,35,203,,1*7C
$QL001,1626998612000,29.999987,119.999997,-1.527130,0.000,0.000,9.306,6.412,0.453,0.000
$QL002,3,3,1,0,6.801,6.352,0.000,0.000,0.000,0.320,0.320,0.113,18
$QL003,0.0000,0.0000,0.0000,0.0000,0.0000,0.0000,0.0000,0.0000,0.0000,0.0000
$QL004,2,1F,take_turns,line_accelerate
$GBGSA,A,3,09,11,12,13,,,,,,,,,1.6,1.3,1.0,4*34
$GBVTG,,T,,M,0.0,N,0.0,K,A*31
$GBDTM,P90,,0000.000022,S,00000.000001,W,0.988,W84*48
$GBRMC,000332.00,A,2959.999238,N,11959.999815,E,0.0,,230721,4.3,W,A,V*66
$GBGNS,000332.00,2959.999238,N,11959.999815,E,NNNAN,04,1.3,-8.5,7.0,,,V*7B
$GBGGA,000332.00,2959.999238,N,11959.999815,E,1,04,1.3,-8.5,M,7.0,M,,*6A

$GBGSV,4,1,16,14,08,164,38,13,47,201,40,12,10,059,38,11,18,130,39,1*73
$GBGSV,4,2,16,09,36,286,39,06,36,215,40,04,35,125,,02,50,170,39,1*73
$GBGSV,4,3,16,01,37,121,,20,19,318,,23,51,142,,24,24,077,,1*73
$GBGSV,4,4,16,29,06,277,,32,14,059,,36,50,052,,39,35,203,,1*7C
$QL001,1626998613000,29.999987,119.999997,-1.552155,0.000,0.000,9.291,6.381,0.453,0.000
$QL002,3,3,1,0,6.782,6.350,0.000,0.000,0.000,0.320,0.320,0.113,18
$QL003,0.0000,0.0000,0.0000,0.0000,0.0000,0.0000,0.0000,0.0000,0.0000,0.0000
$QL004,2,1F,take_turns,line_accelerate
$GBGSA,A,3,06,09,11,12,,,,,,,,,1.6,1.2,1.0,4*31
$GBVTG,,T,,M,0.0,N,0.0,K,A*31
$GBDTM,P90,,0000.000022,S,00000.000001,W,0.988,W84*48
$GBRMC,000333.00,A,2959.999241,N,11959.999812,E,0.0,,230721,4.3,W,A,V*6E
$GBGNS,000333.00,2959.999241,N,11959.999812,E,NNNAN,04,1.2,-8.6,7.0,,,V*71
