$GNRMC,140247.00,A,3114.13350,N,12129.99996,E,154.050,0.01,010620,6.14,W,A,V*49
$GNVTG,0.01,T,6.15,M,154.050,N,285.301,K,A*36
$GNGGA,140247.00,3114.13350,N,12129.99996,E,1,09,1.04,40.1,M,9.9,M,,*43
$GNGSA,A,3,29,30,31,05,12,02,14,24,21,,,,1.84,1.04,1.52,1*01
$GNGSA,A,3,,,,,,,,,,,,,1.84,1.04,1.52,3*0D
$GNGSA,A,3,,,,,,,,,,,,,1.84,1.04,1.52,4*0A
$GPGSV,3,1,10,02,34,049,39,05,67,051,39,10,10,110,39,12,58,068,39,0*6E
$GPGSV,3,2,10,14,14,265,39,21,13,200,39,24,49,173,39,29,56,282,39,0*69
$GPGSV,3,3,10,30,60,344,39,31,18,318,39,0*63
$GAGSV,1,1,00,0*74
$GBGSV,1,1,00,0*77
$GNGLL,3114.13350,N,12129.99996,E,140247.00,A,A*7F

$GNRMC,140248.00,A,3114.17766,N,12129.99994,E,161.937,0.00,010620,6.14,W,A,V*4E
$GNVTG,0.00,T,6.15,M,161.937,N,299.908,K,A*37
$GNGGA,140248.00,3114.17766,N,12129.99994,E,1,09,1.04,40.1,M,9.9,M,,*4B
$GNGSA,A,3,29,30,31,05,12,02,14,24,21,,,,1.84,1.04,1.52,1*01
$GNGSA,A,3,,,,,,,,,,,,,1.84,1.04,1.52,3*0D
$GNGSA,A,3,,,,,,,,,,,,,1.84,1.04,1.52,4*0A
$GPGSV,3,1,10,02,34,049,39,05,67,051,39,10,10,110,39,12,58,068,39,0*6E
$GPGSV,3,2,10,14,14,265,39,21,13,200,39,24,49,173,39,29,56,282,39,0*69
$GPGSV,3,3,10,30,60,344,39,31,18,318,39,0*63
$GAGSV,1,1,00,0*74
$GBGSV,1,1,00,0*77
$GNGLL,3114.17766,N,12129.99994,E,140248.00,A,A*77

$GNRMC,140249.00,A,3114.22283,N,12129.99993,E,161.989,0.00,010620,6.14,W,A,V*45
$GNVTG,0.00,T,6.15,M,161.989,N,300.004,K,A*36
$GNGGA,140249.00,3114.22283,N,12129.99993,E,1,09,1.04,40.1,M,9.9,M,,*45
$GNGSA,A,3,29,30,31,05,12,02,14,24,21,,,,1.84,1.04,1.52,1*01
$GNGSA,A,3,,,,,,,,,,,,,1.84,1.04,1.52,3*0D
$GNGSA,A,3,,,,,,,,,,,,,1.84,1.04,1.52,4*0A
$GPGSV,3,1,11,02,34,049,39,05,67,051,39,09,,,39,10,10,110,39,0*56
$GPGSV,3,2,11,12,58,068,39,14,14,265,39,21,13,200,39,24,49,173,39,0*68
$GPGSV,3,3,11,29,56,282,39,30,60,344,39,31,18,318,39,0*58
$GAGSV,1,1,00,0*74
$GBGSV,1,1,00,0*77
$GNGLL,3114.22283,N,12129.99993,E,140249.00,A,A*79

$GNRMC,140250.00,A,3114.26799,N,12129.99993,E,161.991,0.00,010620,6.14,W,A,V*4E
$GNVTG,0.00,T,6.14,M,161.991,N,300.007,K,A*3D
$GNGGA,140250.00,3114.26799,N,12129.99993,E,1,09,1.04,40.1,M,9.9,M,,*47
$GNGSA,A,3,29,30,31,05,12,02,14,24,21,,,,1.84,1.04,1.52,1*01
$GNGSA,A,3,,,,,,,,,,,,,1.84,1.04,1.52,3*0D
$GNGSA,A,3,,,,,,,,,,,,,1.84,1.04,1.52,4*0A
$GPGSV,3,1,11,02,34,049,39,05,67,051,39,09,,,39,10,10,110,39,0*56
$GPGSV,3,2,11,12,58,068,39,14,14,265,39,21,13,200,39,24,49,173,39,0*68
$GPGSV,3,3,11,29,56,282,39,30,60,344,39,31,18,318,39,0*58
$GAGSV,1,1,00,0*74
$GBGSV,1,1,00,0*77
$GNGLL,3114.26799,N,12129.99993,E,140250.00,A,A*7B

$GNRMC,140251.00,A,3114.31313,N,12129.99994,E,161.982,0.00,010620,6.14,W,A,V*4A
$GNVTG,0.00,T,6.15,M,161.982,N,299.991,K,A*39
$GNGGA,140251.00,3114.31313,N,12129.99994,E,1,09,1.04,40.0,M,9.9,M,,*40
$GNGSA,A,3,29,30,31,05,12,02,14,24,21,,,,1.84,1.04,1.52,1*01
$GNGSA,A,3,,,,,,,,,,,,,1.84,1.04,1.52,3*0D
$GNGSA,A,3,,,,,,,,,,,,,1.84,1.04,1.52,4*0A
$GPGSV,3,1,11,02,34,049,39,05,67,051,39,09,,,39,10,10,110,39,0*56
$GPGSV,3,2,11,12,58,068,39,14,14,265,39,21,13,200,39,24,49,173,39,0*68
$GPGSV,3,3,11,29,56,282,39,30,60,344,39,31,18,318,39,0*58
$GAGSV,1,1,00,0*74
$GBGSV,1,1,00,0*77
$GNGLL,3114.31313,N,12129.99994,E,140251.00,A,A*7D

$GNRMC,140252.00,A,3114.35823,N,12129.99994,E,161.772,0.00,010620,6.14,W,A,V*44
$GNVTG,0.00,T,6.14,M,161.772,N,299.602,K,A*3C
$GNGGA,140252.00,3114.35823,N,12129.99994,E,1,09,1.04,40.0,M,9.9,M,,*4F
$GNGSA,A,3,29,30,31,05,12,02,14,24,21,,,,1.84,1.04,1.52,1*01
$GNGSA,A,3,,,,,,,,,,,,,1.84,1.04,1.52,3*0D
$GNGSA,A,3,,,,,,,,,,,,,1.84,1.04,1.52,4*0A
$GPGSV,3,1,11,02,34,049,39,05,67,051,39,09,,,39,10,10,110,39,0*56
$GPGSV,3,2,11,12,58,068,39,14,14,265,39,21,13,200,39,24,49,173,39,0*68
$GPGSV,3,3,11,29,56,282,39,30,60,344,39,31,18,318,39,0*58
$GAGSV,1,1,00,0*74
$GBGSV,1,1,00,0*77
$GNGLL,3114.35823,N,12129.99994,E,140252.00,A,A*72

$GNRMC,140253.00,A,3114.39999,N,12129.99995,E,138.086,359.99,010620,6.14,W,A,V*47
$GNVTG,359.99,T,6.13,M,138.086,N,255.734,K,A*30
$GNGGA,140253.00,3114.39999,N,12129.99995,E,1,09,1.04,39.9,M,9.9,M,,*44
$GNGSA,A,3,29,30,31,05,12,02,14,24,21,,,,1.84,1.04,1.52,1*01
$GNGSA,A,3,,,,,,,,,,,,,1.84,1.04,1.52,3*0D
$GNGSA,A,3,,,,,,,,,,,,,1.84,1.04,1.52,4*0A
$GPGSV,3,1,11,02,34,049,39,05,67,051,39,09,,,39,10,10,110,39,0*56
$GPGSV,3,2,11,12,58,068,39,14,14,265,39,21,13,200,39,24,49,173,39,0*68
$GPGSV,3,3,11,29,56,282,39,30,60,344,39,31,18,318,39,0*58
$GAGSV,1,1,00,0*74
$GBGSV,1,1,00,0*77
$GNGLL,3114.39999,N,12129.99995,E,140253.00,A,A*7E

$GNRMC,140254.00,A,3114.43470,N,12129.99995,E,111.351,359.98,010620,6.14,W,A,V*44
$GNVTG,359.98,T,6.12,M,111.351,N,206.222,K,A*36
$GNGGA,140254.00,3114.43470,N,12129.99995,E,1,09,1.04,39.9,M,9.9,M,,*44
$GNGSA,A,3,29,30,31,05,12,02,14,24,21,,,,1.84,1.04,1.52,1*01
$GNGSA,A,3,,,,,,,,,,,,,1.84,1.04,1.52,3*0D
$GNGSA,A,3,,,,,,,,,,,,,1.84,1.04,1.52,4*0A
$GPGSV,3,1,11,02,34,049,39,05,67,051,39,09,,,39,10,10,110,39,0*56
$GPGSV,3,2,11,12,58,069,39,14,14,265,40,21,13,200,39,24,49,173,39,0*67
$GPGSV,3,3,11,29,56,282,39,30,60,344,39,31,18,318,39,0*58
$GAGSV,1,1,00,0*74
$GBGSV,1,1,00,0*77
$GNGLL,3114.43470,N,12129.99995,E,140254.00,A,A*7E

$GNRMC,140255.00,A,3114.46195,N,12129.99995,E,84.599,359.97,010620,6.14,W,A,V*7E
$GNVTG,359.97,T,6.11,M,84.599,N,156.676,K,A*06
$GNGGA,140255.00,3114.46195,N,12129.99995,E,1,09,1.04,39.9,M,9.9,M,,*4E
$GNGSA,A,3,29,30,31,05,12,02,14,24,21,,,,1.84,1.04,1.52,1*01
$GNGSA,A,3,,,,,,,,,,,,,1.84,1.04,1.52,3*0D
$GNGSA,A,3,,,,,,,,,,,,,1.84,1.04,1.52,4*0A
$GPGSV,3,1,11,02,34,049,39,05,67,051,39,09,,,40,10,10,110,39,0*58
$GPGSV,3,2,11,12,58,069,39,14,14,265,39,21,13,200,39,24,49,173,39,0*69
$GPGSV,3,3,11,29,56,282,39,30,60,344,39,31,18,318,39,0*58
$GAGSV,1,1,00,0*74
$GBGSV,1,1,00,0*77
$GNGLL,3114.46195,N,12129.99995,E,140255.00,A,A*74

$GNRMC,140256.00,A,3114.48174,N,12129.99995,E,57.833,359.96,010620,6.14,W,A,V*7E
$GNVTG,359.96,T,6.11,M,57.833,N,107.107,K,A*01
$GNGGA,140256.00,3114.48174,N,12129.99995,E,1,09,1.04,39.9,M,9.9,M,,*4C
$GNGSA,A,3,29,30,31,05,12,02,14,24,21,,,,1.84,1.04,1.52,1*01
$GNGSA,A,3,,,,,,,,,,,,,1.84,1.04,1.52,3*0D
$GNGSA,A,3,,,,,,,,,,,,,1.84,1.04,1.52,4*0A
$GPGSV,3,1,11,02,34,049,39,05,67,051,39,09,,,39,10,10,110,39,0*56
$GPGSV,3,2,11,12,58,069,39,14,14,265,39,21,13,200,39,24,49,173,39,0*69
$GPGSV,3,3,11,29,56,282,39,30,60,344,39,31,18,318,39,0*58
$GAGSV,1,1,00,0*74
$GBGSV,1,1,00,0*77
$GNGLL,3114.48174,N,12129.99995,E,140256.00,A,A*76

$GNRMC,140257.00,A,3114.49408,N,12129.99995,E,31.087,359.95,010620,6.14,W,A,V*74
$GNVTG,359.95,T,6.09,M,31.087,N,57.572,K,A*3E
$GNGGA,140257.00,3114.49408,N,12129.99995,E,1,09,1.04,39.9,M,9.9,M,,*42
$GNGSA,A,3,29,30,31,05,12,02,14,24,21,,,,1.84,1.04,1.52,1*01
$GNGSA,A,3,,,,,,,,,,,,,1.84,1.04,1.52,3*0D
$GNGSA,A,3,,,,,,,,,,,,,1.84,1.04,1.52,4*0A
$GPGSV,3,1,11,02,34,049,39,05,67,051,39,09,,,39,10,10,110,39,0*56
$GPGSV,3,2,11,12,58,069,39,14,14,265,39,21,13,200,39,24,50,173,39,0*61
$GPGSV,3,3,11,29,56,282,39,30,60,344,39,31,18,318,39,0*58
$GAGSV,1,1,00,0*74
$GBGSV,1,1,00,0*77
$GNGLL,3114.49408,N,12129.99995,E,140257.00,A,A*78

$GNRMC,140258.00,A,3114.50054,N,12130.00040,E,16.253,10.54,010620,6.14,W,A,V*4A
$GNVTG,10.54,T,16.69,M,16.253,N,30.101,K,A*35
$GNGGA,140258.00,3114.50054,N,12130.00040,E,1,09,1.04,39.9,M,9.9,M,,*41
$GNGSA,A,3,29,30,31,05,12,02,14,24,21,,,,1.84,1.04,1.52,1*01
$GNGSA,A,3,,,,,,,,,,,,,1.84,1.04,1.52,3*0D
$GNGSA,A,3,,,,,,,,,,,,,1.84,1.04,1.52,4*0A
$GPGSV,3,1,11,02,34,049,39,05,67,051,39,09,,,39,10,10,110,39,0*56
$GPGSV,3,2,11,12,58,069,39,14,14,265,39,21,13,200,39,24,50,173,39,0*61
$GPGSV,3,3,11,29,56,282,39,30,60,344,39,31,18,318,39,0*58
$GAGSV,1,1,00,0*74
$GBGSV,1,1,00,0*77
$GNGLL,3114.50054,N,12130.00040,E,140258.00,A,A*7B

$GNRMC,140259.00,A,3114.50456,N,12130.00235,E,16.167,34.43,010620,6.14,W,A,V*49
$GNVTG,34.43,T,40.58,M,16.167,N,29.941,K,A*34
$GNGGA,140259.00,3114.50456,N,12130.00235,E,1,09,1.04,40.0,M,9.9,M,,*41
$GNGSA,A,3,29,30,31,05,12,02,14,24,21,,,,1.84,1.04,1.52,1*01
$GNGSA,A,3,,,,,,,,,,,,,1.84,1.04,1.52,3*0D
$GNGSA,A,3,,,,,,,,,,,,,1.84,1.04,1.52,4*0A
$GPGSV,3,1,11,02,34,049,39,05,67,051,39,09,,,39,10,10,110,39,0*56
$GPGSV,3,2,11,12,58,069,39,14,14,265,39,21,13,200,39,24,50,173,39,0*61
$GPGSV,3,3,11,29,56,282,39,30,60,345,39,31,18,318,39,0*59
$GAGSV,1,1,00,0*74
$GBGSV,1,1,00,0*77
$GNGLL,3114.50456,N,12130.00235,E,140259.00,A,A*7C

$GNRMC,140300.00,A,3114.50756,N,12130.00606,E,16.173,58.41,010620,6.14,W,A,V*4E
$GNVTG,58.41,T,64.56,M,16.173,N,29.952,K,A*33
$GNGGA,140300.00,3114.50756,N,12130.00606,E,1,09,1.04,40.0,M,9.9,M,,*4B
$GNGSA,A,3,29,30,31,05,12,02,14,24,21,,,,1.84,1.04,1.52,1*01
$GNGSA,A,3,,,,,,,,,,,,,1.84,1.04,1.52,3*0D
$GNGSA,A,3,,,,,,,,,,,,,1.84,1.04,1.52,4*0A
$GPGSV,3,1,11,02,34,049,39,05,67,051,39,09,,,39,10,10,110,39,0*56
$GPGSV,3,2,11,12,58,069,39,14,14,265,39,21,13,200,39,24,50,173,39,0*61
$GPGSV,3,3,11,29,56,282,39,30,60,345,39,31,18,318,40,0*57
$GAGSV,1,1,00,0*74
$GBGSV,1,1,00,0*77
$GNGLL,3114.50756,N,12130.00606,E,140300.00,A,A*76

$GNRMC,140301.00,A,3114.50900,N,12130.01088,E,16.191,82.23,010620,6.14,W,A,V*4C
$GNVTG,82.23,T,88.38,M,16.191,N,29.985,K,A*3C
$GNGGA,140301.00,3114.50900,N,12130.01088,E,1,09,1.04,40.1,M,9.9,M,,*47
$GNGSA,A,3,29,30,31,05,12,02,14,24,21,,,,1.84,1.04,1.52,1*01
$GNGSA,A,3,,,,,,,,,,,,,1.84,1.04,1.52,3*0D
$GNGSA,A,3,,,,,,,,,,,,,1.84,1.04,1.52,4*0A
$GPGSV,3,1,11,02,34,049,39,05,67,051,40,09,,,39,10,10,110,39,0*58
$GPGSV,3,2,11,12,58,069,39,14,14,265,39,21,13,200,40,24,50,173,40,0*61
$GPGSV,3,3,11,29,56,282,39,30,60,345,39,31,18,318,39,0*59
$GAGSV,1,1,00,0*74
$GBGSV,1,1,00,0*77
$GNGLL,3114.50900,N,12130.01088,E,140301.00,A,A*7B

$GNRMC,140302.00,A,3114.50926,N,12130.01899,E,34.270,89.94,010620,6.14,W,A,V*48
$GNVTG,89.94,T,96.09,M,34.270,N,63.469,K,A*3B
$GNGGA,140302.00,3114.50926,N,12130.01899,E,1,09,1.04,40.1,M,9.9,M,,*48
$GNGSA,A,3,29,30,31,05,12,02,14,24,21,,,,1.84,1.04,1.52,1*01
$GNGSA,A,3,,,,,,,,,,,,,1.84,1.04,1.52,3*0D
$GNGSA,A,3,,,,,,,,,,,,,1.84,1.04,1.52,4*0A
$GPGSV,3,1,11,02,34,049,39,05,67,051,39,09,,,39,10,10,110,39,0*56
$GPGSV,3,2,11,12,58,069,39,14,14,265,39,21,13,200,40,24,50,173,39,0*6F
$GPGSV,3,3,11,29,56,282,39,30,60,345,39,31,18,318,39,0*59
$GAGSV,1,1,00,0*74
$GBGSV,1,1,00,0*77
$GNGLL,3114.50926,N,12130.01899,E,140302.00,A,A*74

$GNRMC,140303.00,A,3114.50923,N,12130.03442,E,60.948,89.98,010620,6.14,W,A,V*49
$GNVTG,89.98,T,96.12,M,60.948,N,112.875,K,A*0A
$GNGGA,140303.00,3114.50923,N,12130.03442,E,1,09,1.04,40.1,M,9.9,M,,*44
$GNGSA,A,3,29,30,31,05,12,02,14,24,21,,,,1.84,1.04,1.52,1*01
$GNGSA,A,3,,,,,,,,,,,,,1.84,1.04,1.52,3*0D
$GNGSA,A,3,,,,,,,,,,,,,1.84,1.04,1.52,4*0A
$GPGSV,3,1,11,02,34,049,39,05,67,051,39,09,,,39,10,10,110,39,0*56
$GPGSV,3,2,11,12,58,069,39,14,14,265,39,21,13,200,39,24,50,173,39,0*61
$GPGSV,3,3,11,29,56,282,39,30,60,345,39,31,18,318,39,0*59
$GAGSV,1,1,00,0*74
$GBGSV,1,1,00,0*77
$GNGLL,3114.50923,N,12130.03442,E,140303.00,A,A*78

$GNRMC,140304.00,A,3114.50920,N,12130.05851,E,87.685,89.99,010620,6.14,W,A,V*43
$GNVTG,89.99,T,96.13,M,87.685,N,162.393,K,A*09
$GNGGA,140304.00,3114.50920,N,12130.05851,E,1,09,1.04,40.2,M,9.9,M,,*4B
$GNGSA,A,3,29,30,31,05,12,02,14,24,21,,,,1.84,1.04,1.52,1*01
$GNGSA,A,3,,,,,,,,,,,,,1.84,1.04,1.52,3*0D
$GNGSA,A,3,,,,,,,,,,,,,1.84,1.04,1.52,4*0A
$GPGSV,3,1,11,02,34,049,39,05,67,051,39,09,,,39,10,10,110,39,0*56
$GPGSV,3,2,11,12,58,069,39,14,14,265,39,21,13,200,39,24,50,173,39,0*61
$GPGSV,3,3,11,29,56,282,39,30,60,345,39,31,18,318,39,0*59
$GAGSV,1,1,00,0*74
$GBGSV,1,1,00,0*77
$GNGLL,3114.50920,N,12130.05851,E,140304.00,A,A*74

$GNRMC,140305.00,A,3114.50917,N,12130.09128,E,114.440,89.99,010620,6.14,W,A,V*7D
$GNVTG,89.99,T,96.14,M,114.440,N,211.942,K,A*3F
$GNGGA,140305.00,3114.50917,N,12130.09128,E,1,09,1.04,40.2,M,9.9,M,,*45
$GNGSA,A,3,29,30,31,05,12,02,14,24,21,,,,1.84,1.04,1.52,1*01
$GNGSA,A,3,,,,,,,,,,,,,1.84,1.04,1.52,3*0D
$GNGSA,A,3,,,,,,,,,,,,,1.84,1.04,1.52,4*0A
$GPGSV,3,1,11,02,34,049,39,05,67,051,39,09,,,39,10,10,110,39,0*56
$GPGSV,3,2,11,12,58,069,39,14,14,265,39,21,13,200,39,24,50,173,39,0*61
$GPGSV,3,3,11,29,56,282,39,30,60,345,39,31,18,318,39,0*59
$GAGSV,1,1,00,0*74
$GBGSV,1,1,00,0*77
$GNGLL,3114.50917,N,12130.09128,E,140305.00,A,A*7A

$GNRMC,140306.00,A,3114.50915,N,12130.13273,E,141.182,90.00,010620,6.14,W,A,V*79
$GNVTG,90.00,T,96.14,M,141.182,N,261.468,K,A*3E
$GNGGA,140306.00,3114.50915,N,12130.13273,E,1,09,1.04,40.3,M,9.9,M,,*43
$GNGSA,A,3,29,30,31,05,12,02,14,24,21,,,,1.84,1.04,1.52,1*01
$GNGSA,A,3,,,,,,,,,,,,,1.84,1.04,1.52,3*0D
$GNGSA,A,3,,,,,,,,,,,,,1.84,1.04,1.52,4*0A
$GPGSV,3,1,11,02,34,049,39,05,67,051,39,09,,,39,10,10,110,39,0*56
$GPGSV,3,2,11,12,58,069,39,14,14,265,39,21,13,200,39,24,50,173,39,0*61
$GPGSV,3,3,11,29,56,282,39,30,60,345,39,31,18,318,39,0*59
$GAGSV,1,1,00,0*74
$GBGSV,1,1,00,0*77
$GNGLL,3114.50915,N,12130.13273,E,140306.00,A,A*7D

$GNRMC,140307.00,A,3114.50913,N,12130.18189,E,161.802,90.00,010620,6.14,W,A,V*70
$GNVTG,90.00,T,96.14,M,161.802,N,299.657,K,A*34
$GNGGA,140307.00,3114.50913,N,12130.18189,E,1,09,1.04,40.3,M,9.9,M,,*49
$GNGSA,A,3,29,30,31,05,12,02,14,24,21,,,,1.84,1.04,1.52,1*01
$GNGSA,A,3,,,,,,,,,,,,,1.84,1.04,1.52,3*0D
$GNGSA,A,3,,,,,,,,,,,,,1.84,1.04,1.52,4*0A
$GPGSV,3,1,11,02,34,049,39,05,67,051,39,09,,,39,10,10,110,39,0*56
$GPGSV,3,2,11,12,58,069,39,14,14,265,39,21,13,200,39,24,50,173,39,0*61
$GPGSV,3,3,11,29,56,282,39,30,60,345,39,31,18,318,39,0*59
$GAGSV,1,1,00,0*74
$GBGSV,1,1,00,0*77
$GNGLL,3114.50913,N,12130.18189,E,140307.00,A,A*77

$GNRMC,140308.00,A,3114.50911,N,12130.23437,E,161.985,90.00,010620,6.14,W,A,V*7B
$GNVTG,90.00,T,96.15,M,161.985,N,299.997,K,A*38
$GNGGA,140308.00,3114.50911,N,12130.23437,E,1,09,1.04,40.3,M,9.9,M,,*4C
$GNGSA,A,3,29,30,31,05,12,02,14,24,21,,,,1.84,1.04,1.52,1*01
$GNGSA,A,3,,,,,,,,,,,,,1.84,1.04,1.52,3*0D
$GNGSA,A,3,,,,,,,,,,,,,1.84,1.04,1.52,4*0A
$GPGSV,3,1,11,02,34,049,39,05,67,051,39,09,,,39,10,10,110,39,0*56
$GPGSV,3,2,11,12,58,069,39,14,14,265,39,21,13,200,39,24,50,173,40,0*6F
$GPGSV,3,3,11,29,56,282,39,30,60,345,39,31,18,318,39,0*59
$GAGSV,1,1,00,0*74
$GBGSV,1,1,00,0*77
$GNGLL,3114.50911,N,12130.23437,E,140308.00,A,A*72

$GNRMC,140309.00,A,3114.50909,N,12130.28686,E,161.948,90.00,010620,6.15,W,A,V*70
$GNVTG,90.00,T,96.14,M,161.948,N,299.927,K,A*33
$GNGGA,140309.00,3114.50909,N,12130.28686,E,1,09,1.04,40.3,M,9.9,M,,*47
$GNGSA,A,3,29,30,31,05,12,02,14,24,21,,,,1.84,1.04,1.52,1*01
$GNGSA,A,3,,,,,,,,,,,,,1.84,1.04,1.52,3*0D
$GNGSA,A,3,,,,,,,,,,,,,1.84,1.04,1.52,4*0A
$GPGSV,3,1,11,02,34,049,39,05,67,051,39,09,,,39,10,10,110,39,0*56
$GPGSV,3,2,11,12,58,069,39,14,14,265,39,21,13,200,39,24,50,173,39,0*61
$GPGSV,3,3,11,29,56,282,39,30,60,345,39,31,18,318,39,0*59
$GAGSV,1,1,00,0*74
$GBGSV,1,1,00,0*77
$GNGLL,3114.50909,N,12130.28686,E,140309.00,A,A*79

$GNRMC,140310.00,A,3114.50908,N,12130.33935,E,161.988,90.01,010620,6.15,W,A,V*79
$GNVTG,90.01,T,96.15,M,161.988,N,300.001,K,A*33
$GNGGA,140310.00,3114.50908,N,12130.33935,E,1,09,1.04,40.3,M,9.9,M,,*43
$GNGSA,A,3,29,30,31,05,12,02,14,24,21,,,,1.84,1.04,1.52,1*01
$GNGSA,A,3,,,,,,,,,,,,,1.84,1.04,1.52,3*0D
$GNGSA,A,3,,,,,,,,,,,,,1.84,1.04,1.52,4*0A
$GPGSV,3,1,11,02,34,049,39,05,67,051,39,09,,,39,10,10,110,39,0*56
$GPGSV,3,2,11,12,58,069,39,14,14,265,39,21,13,200,39,24,50,173,40,0*6F
$GPGSV,3,3,11,29,56,282,39,30,60,345,39,31,18,318,39,0*59
$GAGSV,1,1,00,0*74
$GBGSV,1,1,00,0*77
$GNGLL,3114.50908,N,12130.33935,E,140310.00,A,A*7D

$GNRMC,140311.00,A,3114.50907,N,12130.39184,E,161.990,90.01,010620,6.15,W,A,V*76
$GNVTG,90.01,T,96.15,M,161.990,N,300.006,K,A*3D
$GNGGA,140311.00,3114.50907,N,12130.39184,E,1,09,1.04,40.3,M,9.9,M,,*45
$GNGSA,A,3,29,30,31,05,12,02,14,24,21,,,,1.84,1.04,1.52,1*01
$GNGSA,A,3,,,,,,,,,,,,,1.84,1.04,1.52,3*0D
$GNGSA,A,3,,,,,,,,,,,,,1.84,1.04,1.52,4*0A
$GPGSV,3,1,11,02,34,049,39,05,67,051,39,09,,,39,10,10,110,39,0*56
$GPGSV,3,2,11,12,58,069,39,14,14,265,39,21,13,200,39,24,50,173,39,0*61
$GPGSV,3,3,11,29,56,282,39,30,60,345,39,31,18,318,39,0*59
$GAGSV,1,1,00,0*74
$GBGSV,1,1,00,0*77
$GNGLL,3114.50907,N,12130.39184,E,140311.00,A,A*7B

$GNRMC,140312.00,A,3114.50905,N,12130.44432,E,161.988,90.00,010620,6.15,W,A,V*7D
$GNVTG,90.00,T,96.15,M,161.988,N,300.002,K,A*31
$GNGGA,140312.00,3114.50905,N,12130.44432,E,1,09,1.04,40.3,M,9.9,M,,*46
$GNGSA,A,3,29,30,31,05,12,02,14,24,21,,,,1.84,1.04,1.52,1*01
$GNGSA,A,3,,,,,,,,,,,,,1.84,1.04,1.52,3*0D
$GNGSA,A,3,,,,,,,,,,,,,1.84,1.04,1.52,4*0A
$GPGSV,3,1,11,02,34,049,40,05,67,051,39,09,,,39,10,10,110,39,0*58
$GPGSV,3,2,11,12,58,069,39,14,14,265,39,21,13,200,39,24,50,173,39,0*61
$GPGSV,3,3,11,29,56,282,39,30,60,345,39,31,18,318,39,0*59
$GAGSV,1,1,00,0*74
$GBGSV,1,1,00,0*77
$GNGLL,3114.50905,N,12130.44432,E,140312.00,A,A*78

$GNRMC,140313.00,A,3114.50902,N,12130.49681,E,161.995,90.00,010620,6.15,W,A,V*70
$GNVTG,90.00,T,96.15,M,161.995,N,300.015,K,A*3B
$GNGGA,140313.00,3114.50902,N,12130.49681,E,1,09,1.04,40.2,M,9.9,M,,*46
$GNGSA,A,3,29,30,31,05,12,02,14,24,21,,,,1.84,1.04,1.52,1*01
$GNGSA,A,3,,,,,,,,,,,,,1.84,1.04,1.52,3*0D
$GNGSA,A,3,,,,,,,,,,,,,1.84,1.04,1.52,4*0A
$GPGSV,3,1,11,02,34,049,39,05,67,051,39,09,,,39,10,10,110,39,0*56
$GPGSV,3,2,11,12,58,069,39,14,14,265,39,21,13,200,40,24,50,173,39,0*6F
$GPGSV,3,3,11,29,56,282,39,30,60,345,39,31,18,318,39,0*59
$GAGSV,1,1,00,0*74
$GBGSV,1,1,00,0*77
$GNGLL,3114.50902,N,12130.49681,E,140313.00,A,A*79

$GNRMC,140314.00,A,3114.50901,N,12130.54930,E,162.006,90.00,010620,6.15,W,A,V*7D
$GNVTG,90.00,T,96.15,M,162.006,N,300.035,K,A*39
$GNGGA,140314.00,3114.50901,N,12130.54930,E,1,09,1.04,40.2,M,9.9,M,,*4B
$GNGSA,A,3,29,30,31,05,12,02,14,24,21,,,,1.84,1.04,1.52,1*01
$GNGSA,A,3,,,,,,,,,,,,,1.84,1.04,1.52,3*0D
$GNGSA,A,3,,,,,,,,,,,,,1.84,1.04,1.52,4*0A
$GPGSV,3,1,11,02,34,049,39,05,67,051,39,09,,,39,10,10,110,39,0*56
$GPGSV,3,2,11,12,58,069,39,14,14,265,39,21,13,200,40,24,50,173,39,0*6F
$GPGSV,3,3,11,29,56,282,39,30,60,345,39,31,18,318,39,0*59
$GAGSV,1,1,00,0*74
$GBGSV,1,1,00,0*77
$GNGLL,3114.50901,N,12130.54930,E,140314.00,A,A*74

$GNRMC,140315.00,A,3114.50899,N,12130.60179,E,161.990,90.01,010620,6.15,W,A,V*7A
$GNVTG,90.01,T,96.16,M,161.990,N,300.006,K,A*3E
$GNGGA,140315.00,3114.50899,N,12130.60179,E,1,09,1.04,40.2,M,9.9,M,,*48
$GNGSA,A,3,29,30,31,05,12,02,14,24,21,,,,1.84,1.04,1.52,1*01
$GNGSA,A,3,,,,,,,,,,,,,1.84,1.04,1.52,3*0D
$GNGSA,A,3,,,,,,,,,,,,,1.84,1.04,1.52,4*0A
$GPGSV,3,1,11,02,34,049,39,05,67,051,39,09,,,39,10,10,110,39,0*56
$GPGSV,3,2,11,12,58,069,39,14,14,265,39,21,13,200,39,24,50,173,39,0*61
$GPGSV,3,3,11,29,56,282,39,30,60,345,39,31,18,318,39,0*59
$GAGSV,1,1,00,0*74
$GBGSV,1,1,00,0*77
$GNGLL,3114.50899,N,12130.60179,E,140315.00,A,A*77

$GNRMC,140316.00,A,3114.50896,N,12130.65427,E,161.992,90.01,010620,6.15,W,A,V*7F
$GNVTG,90.01,T,96.15,M,161.992,N,300.008,K,A*31
$GNGGA,140316.00,3114.50896,N,12130.65427,E,1,09,1.04,40.2,M,9.9,M,,*4F
$GNGSA,A,3,29,30,31,05,12,02,14,24,21,,,,1.84,1.04,1.52,1*01
$GNGSA,A,3,,,,,,,,,,,,,1.84,1.04,1.52,3*0D
$GNGSA,A,3,,,,,,,,,,,,,1.84,1.04,1.52,4*0A
$GPGSV,3,1,11,02,34,049,39,05,67,051,39,09,,,39,10,10,110,39,0*56
$GPGSV,3,2,11,12,58,069,39,14,14,265,39,21,13,200,39,24,50,173,39,0*61
$GPGSV,3,3,11,29,56,282,39,30,60,345,39,31,18,318,39,0*59
$GAGSV,1,1,00,0*74
$GBGSV,1,1,00,0*77
$GNGLL,3114.50896,N,12130.65427,E,140316.00,A,A*70

$GNRMC,140317.00,A,3114.50894,N,12130.70676,E,162.002,90.01,010620,6.15,W,A,V*7D
$GNVTG,90.01,T,96.16,M,162.002,N,300.028,K,A*33
$GNGGA,140317.00,3114.50894,N,12130.70676,E,1,09,1.04,40.2,M,9.9,M,,*4E
$GNGSA,A,3,29,30,31,05,12,02,14,24,21,,,,1.84,1.04,1.52,1*01
$GNGSA,A,3,,,,,,,,,,,,,1.84,1.04,1.52,3*0D
$GNGSA,A,3,,,,,,,,,,,,,1.84,1.04,1.52,4*0A
$GPGSV,3,1,11,02,34,049,39,05,67,051,39,09,,,39,10,10,110,39,0*56
$GPGSV,3,2,11,12,58,069,39,14,14,265,39,21,13,200,39,24,50,173,40,0*6F
$GPGSV,3,3,11,29,56,282,39,30,60,345,39,31,18,318,39,0*59
$GAGSV,1,1,00,0*74
$GBGSV,1,1,00,0*77
$GNGLL,3114.50894,N,12130.70676,E,140317.00,A,A*71

$GNRMC,140318.00,A,3114.50892,N,12130.75749,E,150.854,90.00,010620,6.15,W,A,V*77
$GNVTG,90.00,T,96.15,M,150.854,N,279.382,K,A*37
$GNGGA,140318.00,3114.50892,N,12130.75749,E,1,10,0.97,40.2,M,9.9,M,,*4C
$GNGSA,A,3,29,30,31,05,12,02,14,09,24,21,,,1.79,0.97,1.50,1*03
$GNGSA,A,3,,,,,,,,,,,,,1.79,0.97,1.50,3*06
$GNGSA,A,3,,,,,,,,,,,,,1.79,0.97,1.50,4*01
$GPGSV,3,1,11,02,34,049,39,05,67,051,39,09,30,167,39,10,10,110,39,0*65
$GPGSV,3,2,11,12,58,069,39,14,14,265,39,21,13,200,39,24,50,173,39,0*61
$GPGSV,3,3,11,29,56,282,39,30,60,345,39,31,18,318,39,0*59
$GAGSV,1,1,00,0*74
$GBGSV,1,1,00,0*77
$GNGLL,3114.50892,N,12130.75749,E,140318.00,A,A*70

$GNRMC,140319.00,A,3114.50891,N,12130.80205,E,124.165,90.01,010620,6.15,W,A,V*7B
$GNVTG,90.01,T,96.16,M,124.165,N,229.953,K,A*3E
$GNGGA,140319.00,3114.50891,N,12130.80205,E,1,10,0.97,40.2,M,9.9,M,,*49
$GNGSA,A,3,29,30,31,05,12,02,14,09,24,21,,,1.79,0.97,1.50,1*03
$GNGSA,A,3,,,,,,,,,,,,,1.79,0.97,1.50,3*06
$GNGSA,A,3,,,,,,,,,,,,,1.79,0.97,1.50,4*01
$GPGSV,3,1,11,02,34,049,39,05,67,051,39,09,30,167,39,10,10,110,39,0*65
$GPGSV,3,2,11,12,58,069,39,14,14,265,39,21,13,200,39,24,50,173,39,0*61
$GPGSV,3,3,11,29,56,282,39,30,60,345,40,31,18,318,39,0*57
$GAGSV,1,1,00,0*74
$GBGSV,1,1,00,0*77
$GNGLL,3114.50891,N,12130.80205,E,140319.00,A,A*75

$GNRMC,140320.00,A,3114.50889,N,12130.83794,E,97.453,90.01,010620,6.15,W,A,V*4F
$GNVTG,90.01,T,96.16,M,97.453,N,180.483,K,A*07
$GNGGA,140320.00,3114.50889,N,12130.83794,E,1,10,0.97,40.2,M,9.9,M,,*44
$GNGSA,A,3,29,30,31,05,12,02,14,09,24,21,,,1.79,0.97,1.50,1*03
$GNGSA,A,3,,,,,,,,,,,,,1.79,0.97,1.50,3*06
$GNGSA,A,3,,,,,,,,,,,,,1.79,0.97,1.50,4*01
$GPGSV,3,1,11,02,34,049,39,05,67,051,39,09,30,167,39,10,10,110,39,0*65
$GPGSV,3,2,11,12,58,069,39,14,14,265,39,21,13,200,39,24,50,173,39,0*61
$GPGSV,3,3,11,29,56,282,39,30,60,345,39,31,18,318,39,0*59
$GAGSV,1,1,00,0*74
$GBGSV,1,1,00,0*77
$GNGLL,3114.50889,N,12130.83794,E,140320.00,A,A*78

$GNRMC,140321.00,A,3114.50887,N,12130.86515,E,70.708,90.01,010620,6.15,W,A,V*4A
$GNVTG,90.01,T,96.15,M,70.708,N,130.951,K,A*09
$GNGGA,140321.00,3114.50887,N,12130.86515,E,1,10,0.97,40.2,M,9.9,M,,*45
$GNGSA,A,3,29,30,31,05,12,02,14,09,24,21,,,1.79,0.97,1.50,1*03
$GNGSA,A,3,,,,,,,,,,,,,1.79,0.97,1.50,3*06
$GNGSA,A,3,,,,,,,,,,,,,1.79,0.97,1.50,4*01
$GPGSV,3,1,11,02,34,049,39,05,67,051,39,09,30,167,39,10,10,110,39,0*65
$GPGSV,3,2,11,12,58,069,39,14,14,265,39,21,13,200,39,24,50,173,39,0*61
$GPGSV,3,3,11,29,56,282,39,30,60,345,39,31,18,318,39,0*59
$GAGSV,1,1,00,0*74
$GBGSV,1,1,00,0*77
$GNGLL,3114.50887,N,12130.86515,E,140321.00,A,A*79

$GNRMC,140322.00,A,3114.50886,N,12130.88370,E,43.953,89.99,010620,6.15,W,A,V*4A
$GNVTG,89.99,T,96.13,M,43.953,N,81.402,K,A*36
$GNGGA,140322.00,3114.50886,N,12130.88370,E,1,10,0.97,40.2,M,9.9,M,,*4C
$GNGSA,A,3,29,30,31,05,12,02,14,09,24,21,,,1.79,0.97,1.50,1*03
$GNGSA,A,3,,,,,,,,,,,,,1.79,0.97,1.50,3*06
$GNGSA,A,3,,,,,,,,,,,,,1.79,0.97,1.50,4*01
$GPGSV,3,1,11,02,34,049,39,05,67,051,39,09,30,167,39,10,10,110,39,0*65
$GPGSV,3,2,11,12,58,069,39,14,14,265,39,21,13,200,39,24,50,173,39,0*61
$GPGSV,3,3,11,29,56,282,39,30,60,345,39,31,18,318,39,0*59
$GAGSV,1,1,00,0*74
$GBGSV,1,1,00,0*77
$GNGLL,3114.50886,N,12130.88370,E,140322.00,A,A*70

$GNRMC,140323.00,A,3114.50883,N,12130.89372,E,18.118,90.74,010620,6.15,W,A,V*4F
$GNVTG,90.74,T,96.88,M,18.118,N,33.555,K,A*3C
$GNGGA,140323.00,3114.50883,N,12130.89372,E,1,10,0.97,40.2,M,9.9,M,,*4B
$GNGSA,A,3,29,30,31,05,12,02,14,09,24,21,,,1.79,0.97,1.50,1*03
$GNGSA,A,3,,,,,,,,,,,,,1.79,0.97,1.50,3*06
$GNGSA,A,3,,,,,,,,,,,,,1.79,0.97,1.50,4*01
$GPGSV,3,1,11,02,34,049,39,05,67,051,39,09,30,167,39,10,10,110,39,0*65
$GPGSV,3,2,11,12,58,069,40,14,14,265,39,21,13,200,39,24,50,173,39,0*6F
$GPGSV,3,3,11,29,56,282,39,30,60,345,39,31,18,318,39,0*59
$GAGSV,1,1,00,0*74
$GBGSV,1,1,00,0*77
$GNGLL,3114.50883,N,12130.89372,E,140323.00,A,A*77

$GNRMC,140324.00,A,3114.50791,N,12130.89908,E,16.176,113.04,010620,6.15,W,A,V*78
$GNVTG,113.04,T,119.18,M,16.176,N,29.958,K,A*32
$GNGGA,140324.00,3114.50791,N,12130.89908,E,1,10,0.97,40.2,M,9.9,M,,*47
$GNGSA,A,3,29,30,31,05,12,02,14,09,24,21,,,1.79,0.97,1.50,1*03
$GNGSA,A,3,,,,,,,,,,,,,1.79,0.97,1.50,3*06
$GNGSA,A,3,,,,,,,,,,,,,1.79,0.97,1.50,4*01
$GPGSV,3,1,11,02,34,049,39,05,67,051,39,09,30,167,39,10,10,110,39,0*65
$GPGSV,3,2,11,12,58,069,39,14,14,265,39,21,13,200,39,24,50,173,39,0*61
$GPGSV,3,3,11,29,56,282,40,30,60,345,39,31,18,318,39,0*57
$GAGSV,1,1,00,0*74
$GBGSV,1,1,00,0*77
$GNGLL,3114.50791,N,12130.89908,E,140324.00,A,A*7B

$GNRMC,140325.00,A,3114.50537,N,12130.90330,E,16.178,136.87,010620,6.15,W,A,V*7C
$GNVTG,136.87,T,143.01,M,16.178,N,29.962,K,A*3E
$GNGGA,140325.00,3114.50537,N,12130.90330,E,1,10,0.97,40.1,M,9.9,M,,*42
$GNGSA,A,3,29,30,31,05,12,02,14,09,24,21,,,1.79,0.97,1.50,1*03
$GNGSA,A,3,,,,,,,,,,,,,1.79,0.97,1.50,3*06
$GNGSA,A,3,,,,,,,,,,,,,1.79,0.97,1.50,4*01
$GPGSV,3,1,11,02,34,049,39,05,67,051,39,09,30,167,39,10,10,110,39,0*65
$GPGSV,3,2,11,12,58,069,39,14,14,264,39,21,13,200,39,24,50,173,39,0*60
$GPGSV,3,3,11,29,56,282,39,30,60,345,39,31,18,318,39,0*59
$GAGSV,1,1,00,0*74
$GBGSV,1,1,00,0*77
$GNGLL,3114.50537,N,12130.90330,E,140325.00,A,A*7D

$GNRMC,140326.00,A,3114.50159,N,12130.90596,E,16.182,160.77,010620,6.15,W,A,V*70
$GNVTG,160.77,T,166.92,M,16.182,N,29.969,K,A*31
$GNGGA,140326.00,3114.50159,N,12130.90596,E,1,10,0.97,40.1,M,9.9,M,,*47
$GNGSA,A,3,29,30,31,05,12,02,14,09,24,21,,,1.79,0.97,1.50,1*03
$GNGSA,A,3,,,,,,,,,,,,,1.79,0.97,1.50,3*06
$GNGSA,A,3,,,,,,,,,,,,,1.79,0.97,1.50,4*01
$GPGSV,3,1,11,02,34,049,39,05,67,051,40,09,30,167,39,10,10,110,39,0*6B
$GPGSV,3,2,11,12,58,069,39,14,14,264,39,21,13,200,39,24,50,173,39,0*60
$GPGSV,3,3,11,29,56,282,39,30,60,345,39,31,18,318,39,0*59
$GAGSV,1,1,00,0*74
$GBGSV,1,1,00,0*77
$GNGLL,3114.50159,N,12130.90596,E,140326.00,A,A*78

$GNRMC,140327.00,A,3114.49649,N,12130.90683,E,21.519,179.91,010620,6.15,W,A,V*7A
$GNVTG,179.91,T,186.05,M,21.519,N,39.853,K,A*3A
$GNGGA,140327.00,3114.49649,N,12130.90683,E,1,10,0.97,40.1,M,9.9,M,,*4F
$GNGSA,A,3,29,30,31,05,12,02,14,09,24,21,,,1.79,0.97,1.50,1*03
$GNGSA,A,3,,,,,,,,,,,,,1.79,0.97,1.50,3*06
$GNGSA,A,3,,,,,,,,,,,,,1.79,0.97,1.50,4*01
$GPGSV,3,1,11,02,34,049,39,05,67,051,39,09,30,167,39,10,10,110,39,0*65
$GPGSV,3,2,11,12,58,069,39,14,14,264,39,21,13,200,39,24,50,173,39,0*60
$GPGSV,3,3,11,29,56,282,39,30,60,345,39,31,18,318,39,0*59
$GAGSV,1,1,00,0*74
$GBGSV,1,1,00,0*77
$GNGLL,3114.49649,N,12130.90683,E,140327.00,A,A*70

$GNRMC,140328.00,A,3114.48677,N,12130.90685,E,48.166,180.01,010620,6.15,W,A,V*73
$GNVTG,180.01,T,186.16,M,48.166,N,89.204,K,A*37
$GNGGA,140328.00,3114.48677,N,12130.90685,E,1,10,0.97,40.1,M,9.9,M,,*4A
$GNGSA,A,3,29,30,31,05,12,02,14,09,24,21,,,1.79,0.97,1.50,1*03
$GNGSA,A,3,,,,,,,,,,,,,1.79,0.97,1.50,3*06
$GNGSA,A,3,,,,,,,,,,,,,1.79,0.97,1.50,4*01
$GPGSV,3,1,11,02,34,049,40,05,67,051,39,09,30,167,39,10,10,110,39,0*6B
$GPGSV,3,2,11,12,58,069,40,14,14,264,39,21,13,200,40,24,50,173,39,0*60
$GPGSV,3,3,11,29,56,282,39,30,60,345,39,31,18,318,39,0*59
$GAGSV,1,1,00,0*74
$GBGSV,1,1,00,0*77
$GNGLL,3114.48677,N,12130.90685,E,140328.00,A,A*75

$GNRMC,140329.00,A,3114.46962,N,12130.90687,E,74.903,180.01,010620,6.15,W,A,V*71
$GNVTG,180.01,T,186.16,M,74.903,N,138.720,K,A*0B
$GNGGA,140329.00,3114.46962,N,12130.90687,E,1,10,0.97,40.1,M,9.9,M,,*4C
$GNGSA,A,3,29,30,31,05,12,02,14,09,24,21,,,1.79,0.97,1.50,1*03
$GNGSA,A,3,,,,,,,,,,,,,1.79,0.97,1.50,3*06
$GNGSA,A,3,,,,,,,,,,,,,1.79,0.97,1.50,4*01
$GPGSV,3,1,11,02,34,049,39,05,67,051,39,09,30,167,39,10,10,110,39,0*65
$GPGSV,3,2,11,12,58,069,39,14,14,264,39,21,13,200,39,24,50,173,39,0*60
$GPGSV,3,3,11,29,56,282,39,30,60,345,39,31,18,318,39,0*59
$GAGSV,1,1,00,0*74
$GBGSV,1,1,00,0*77
$GNGLL,3114.46962,N,12130.90687,E,140329.00,A,A*73

$GNRMC,140330.00,A,3114.44502,N,12130.90690,E,101.648,180.00,010620,6.15,W,A,V*45
$GNVTG,180.00,T,186.14,M,101.648,N,188.251,K,A*33
$GNGGA,140330.00,3114.44502,N,12130.90690,E,1,10,0.97,40.0,M,9.9,M,,*4B
$GNGSA,A,3,29,30,31,05,12,02,14,09,24,21,,,1.79,0.97,1.50,1*03
$GNGSA,A,3,,,,,,,,,,,,,1.79,0.97,1.50,3*06
$GNGSA,A,3,,,,,,,,,,,,,1.79,0.97,1.50,4*01
$GPGSV,3,1,11,02,34,049,39,05,67,051,39,09,30,167,39,10,10,110,39,0*65
$GPGSV,3,2,11,12,58,069,39,14,14,264,39,21,13,200,39,24,50,173,39,0*60
$GPGSV,3,3,11,29,56,282,39,30,60,345,39,31,18,318,39,0*59
$GAGSV,1,1,00,0*74
$GBGSV,1,1,00,0*77
$GNGLL,3114.44502,N,12130.90690,E,140330.00,A,A*75

$GNRMC,140331.00,A,3114.41297,N,12130.90692,E,128.396,179.99,010620,6.15,W,A,V*43
$GNVTG,179.99,T,186.14,M,128.396,N,237.790,K,A*37
$GNGGA,140331.00,3114.41297,N,12130.90692,E,1,10,0.97,39.9,M,9.9,M,,*41
$GNGSA,A,3,29,30,31,05,12,02,14,09,24,21,,,1.79,0.97,1.50,1*03
$GNGSA,A,3,,,,,,,,,,,,,1.79,0.97,1.50,3*06
$GNGSA,A,3,,,,,,,,,,,,,1.79,0.97,1.50,4*01
$GPGSV,3,1,11,02,34,049,39,05,67,051,39,09,30,167,39,10,10,110,39,0*65
$GPGSV,3,2,11,12,58,069,39,14,14,264,39,21,13,200,39,24,50,173,39,0*60
$GPGSV,3,3,11,29,56,282,39,30,60,345,40,31,18,318,39,0*57
$GAGSV,1,1,00,0*74
$GBGSV,1,1,00,0*77
$GNGLL,3114.41297,N,12130.90692,E,140331.00,A,A*78

$GNRMC,140332.00,A,3114.37347,N,12130.90694,E,155.148,179.99,010620,6.15,W,A,V*40
$GNVTG,179.99,T,186.14,M,155.148,N,287.333,K,A*3A
$GNGGA,140332.00,3114.37347,N,12130.90694,E,1,10,0.97,39.9,M,9.9,M,,*49
$GNGSA,A,3,29,30,31,05,12,02,14,09,24,21,,,1.79,0.97,1.50,1*03
$GNGSA,A,3,,,,,,,,,,,,,1.79,0.97,1.50,3*06
$GNGSA,A,3,,,,,,,,,,,,,1.79,0.97,1.50,4*01
$GPGSV,3,1,11,02,34,049,39,05,67,051,39,09,30,167,39,10,10,110,39,0*65
$GPGSV,3,2,11,12,58,069,39,14,14,264,39,21,13,200,39,24,50,173,40,0*6E
$GPGSV,3,3,11,29,56,282,39,30,60,345,39,31,18,318,39,0*59
$GAGSV,1,1,00,0*74
$GBGSV,1,1,00,0*77
$GNGLL,3114.37347,N,12130.90694,E,140332.00,A,A*70

$GNRMC,140333.00,A,3114.32929,N,12130.90697,E,161.957,179.99,010620,6.15,W,A,V*44
$GNVTG,179.99,T,186.14,M,161.957,N,299.944,K,A*3E
$GNGGA,140333.00,3114.32929,N,12130.90697,E,1,10,0.97,39.9,M,9.9,M,,*4C
$GNGSA,A,3,29,30,31,05,12,02,14,09,24,21,,,1.79,0.97,1.50,1*03
$GNGSA,A,3,,,,,,,,,,,,,1.79,0.97,1.50,3*06
$GNGSA,A,3,,,,,,,,,,,,,1.79,0.97,1.50,4*01
$GPGSV,3,1,11,02,34,049,39,05,67,051,39,09,30,167,39,10,10,110,39,0*65
$GPGSV,3,2,11,12,58,069,39,14,14,264,39,21,13,200,39,24,50,173,40,0*6E
$GPGSV,3,3,11,29,56,282,39,30,60,345,39,31,18,318,39,0*59
$GAGSV,1,1,00,0*74
$GBGSV,1,1,00,0*77
$GNGLL,3114.32929,N,12130.90697,E,140333.00,A,A*75

$GNRMC,140334.00,A,3114.28416,N,12130.90699,E,161.992,180.00,010620,6.15,W,A,V*48
$GNVTG,180.00,T,186.14,M,161.992,N,300.010,K,A*38
$GNGGA,140334.00,3114.28416,N,12130.90699,E,1,10,0.97,39.8,M,9.9,M,,*4E
$GNGSA,A,3,29,30,31,05,12,02,14,09,24,21,,,1.79,0.97,1.50,1*03
$GNGSA,A,3,,,,,,,,,,,,,1.79,0.97,1.50,3*06
$GNGSA,A,3,,,,,,,,,,,,,1.79,0.97,1.50,4*01
$GPGSV,3,1,11,02,34,049,39,05,67,051,39,09,30,167,39,10,10,110,39,0*65
$GPGSV,3,2,11,12,58,069,39,14,14,264,39,21,13,200,39,24,50,173,39,0*60
$GPGSV,3,3,11,29,56,282,39,30,60,345,39,31,18,318,39,0*59
$GAGSV,1,1,00,0*74
$GBGSV,1,1,00,0*77
$GNGLL,3114.28416,N,12130.90699,E,140334.00,A,A*76

$GNRMC,140335.00,A,3114.23903,N,12130.90701,E,161.991,180.00,010620,6.14,W,A,V*49
$GNVTG,180.00,T,186.15,M,161.991,N,300.008,K,A*33
$GNGGA,140335.00,3114.23903,N,12130.90701,E,1,10,0.97,39.8,M,9.9,M,,*4D
$GNGSA,A,3,29,30,31,05,12,02,14,09,24,21,,,1.79,0.97,1.50,1*03
$GNGSA,A,3,,,,,,,,,,,,,1.79,0.97,1.50,3*06
$GNGSA,A,3,,,,,,,,,,,,,1.79,0.97,1.50,4*01
$GPGSV,3,1,11,02,34,049,39,05,67,051,39,09,30,167,39,10,10,110,39,0*65
$GPGSV,3,2,11,12,58,069,39,14,14,264,39,21,13,200,39,24,50,173,39,0*60
$GPGSV,3,3,11,29,56,282,39,30,60,345,39,31,18,318,39,0*59
$GAGSV,1,1,00,0*74
$GBGSV,1,1,00,0*77
$GNGLL,3114.23903,N,12130.90701,E,140335.00,A,A*75

$GNRMC,140336.00,A,3114.19392,N,12130.90700,E,161.968,180.00,010620,6.14,W,A,V*46
$GNVTG,180.00,T,186.15,M,161.968,N,299.965,K,A*36
$GNGGA,140336.00,3114.19392,N,12130.90700,E,1,10,0.97,39.8,M,9.9,M,,*44
$GNGSA,A,3,29,30,31,05,12,02,14,09,24,21,,,1.79,0.97,1.50,1*03
$GNGSA,A,3,,,,,,,,,,,,,1.79,0.97,1.50,3*06
$GNGSA,A,3,,,,,,,,,,,,,1.79,0.97,1.50,4*01
$GPGSV,3,1,11,02,34,049,39,05,67,051,39,09,30,167,39,10,10,110,40,0*6B
$GPGSV,3,2,11,12,58,069,40,14,14,264,39,21,13,200,39,24,50,173,39,0*6E
$GPGSV,3,3,11,29,56,282,40,30,60,345,39,31,18,318,39,0*57
$GAGSV,1,1,00,0*74
$GBGSV,1,1,00,0*77
$GNGLL,3114.19392,N,12130.90700,E,140336.00,A,A*7C

$GNRMC,140337.00,A,3114.14888,N,12130.90701,E,161.407,179.99,010620,6.14,W,A,V*49
$GNVTG,179.99,T,186.14,M,161.407,N,298.927,K,A*32
$GNGGA,140337.00,3114.14888,N,12130.90701,E,1,10,0.97,39.8,M,9.9,M,,*49
$GNGSA,A,3,29,30,31,05,12,02,14,09,24,21,,,1.79,0.97,1.50,1*03
$GNGSA,A,3,,,,,,,,,,,,,1.79,0.97,1.50,3*06
$GNGSA,A,3,,,,,,,,,,,,,1.79,0.97,1.50,4*01
$GPGSV,3,1,11,02,34,049,39,05,67,051,39,09,30,167,39,10,10,110,39,0*65
$GPGSV,3,2,11,12,58,069,39,14,14,264,39,21,13,200,39,24,50,173,39,0*60
$GPGSV,3,3,11,29,56,282,39,30,60,345,39,31,18,318,39,0*59
$GAGSV,1,1,00,0*74
$GBGSV,1,1,00,0*77
$GNGLL,3114.14888,N,12130.90701,E,140337.00,A,A*71

$GNRMC,140338.00,A,3114.10734,N,12130.90701,E,136.978,180.00,010620,6.14,W,A,V*4B
$GNVTG,180.00,T,186.15,M,136.978,N,253.683,K,A*34
$GNGGA,140338.00,3114.10734,N,12130.90701,E,1,10,0.97,39.8,M,9.9,M,,*4A
$GNGSA,A,3,29,30,31,05,12,02,14,09,24,21,,,1.79,0.97,1.50,1*03
$GNGSA,A,3,,,,,,,,,,,,,1.79,0.97,1.50,3*06
$GNGSA,A,3,,,,,,,,,,,,,1.79,0.97,1.50,4*01
$GPGSV,3,1,11,02,34,049,39,05,67,051,39,09,30,167,39,10,10,110,39,0*65
$GPGSV,3,2,11,12,58,069,40,14,14,264,39,21,13,200,39,24,50,173,39,0*6E
$GPGSV,3,3,11,29,56,282,39,30,60,345,39,31,18,318,39,0*59
$GAGSV,1,1,00,0*74
$GBGSV,1,1,00,0*77
$GNGLL,3114.10734,N,12130.90701,E,140338.00,A,A*72

$GNRMC,140339.00,A,3114.07294,N,12130.90702,E,110.235,180.02,010620,6.14,W,A,V*44
$GNVTG,180.02,T,186.16,M,110.235,N,204.155,K,A*3D
$GNGGA,140339.00,3114.07294,N,12130.90702,E,1,10,0.97,39.8,M,9.9,M,,*41
$GNGSA,A,3,29,30,31,05,12,02,14,09,24,21,,,1.79,0.97,1.50,1*03
$GNGSA,A,3,,,,,,,,,,,,,1.79,0.97,1.50,3*06
$GNGSA,A,3,,,,,,,,,,,,,1.79,0.97,1.50,4*01
$GPGSV,3,1,11,02,34,049,39,05,67,051,39,09,30,167,39,10,10,110,39,0*65
$GPGSV,3,2,11,12,58,069,39,14,14,264,39,21,13,200,39,24,50,173,39,0*60
$GPGSV,3,3,11,29,56,282,39,30,60,345,39,31,18,318,39,0*59
$GAGSV,1,1,00,0*74
$GBGSV,1,1,00,0*77
$GNGLL,3114.07294,N,12130.90702,E,140339.00,A,A*79

$GNRMC,140340.00,A,3114.04599,N,12130.90701,E,83.485,180.00,010620,6.14,W,A,V*74
$GNVTG,180.00,T,186.14,M,83.485,N,154.615,K,A*0E
$GNGGA,140340.00,3114.04599,N,12130.90701,E,1,10,0.97,39.8,M,9.9,M,,*45
$GNGSA,A,3,29,30,31,05,12,02,14,09,24,21,,,1.79,0.97,1.50,1*03
$GNGSA,A,3,,,,,,,,,,,,,1.79,0.97,1.50,3*06
$GNGSA,A,3,,,,,,,,,,,,,1.79,0.97,1.50,4*01
$GPGSV,3,1,11,02,34,049,39,05,67,051,39,09,30,167,39,10,10,110,39,0*65
$GPGSV,3,2,11,12,58,069,39,14,14,264,39,21,13,200,39,24,50,173,39,0*60
$GPGSV,3,3,11,29,56,282,39,30,60,345,39,31,18,318,39,0*59
$GAGSV,1,1,00,0*74
$GBGSV,1,1,00,0*77
$GNGLL,3114.04599,N,12130.90701,E,140340.00,A,A*7D

$GNRMC,140341.00,A,3114.02649,N,12130.90701,E,56.739,180.01,010620,6.14,W,A,V*70
$GNVTG,180.01,T,186.16,M,56.739,N,105.081,K,A*0E
$GNGGA,140341.00,3114.02649,N,12130.90701,E,1,10,0.97,39.8,M,9.9,M,,*4C
$GNGSA,A,3,29,30,31,05,12,02,14,09,24,21,,,1.79,0.97,1.50,1*03
$GNGSA,A,3,,,,,,,,,,,,,1.79,0.97,1.50,3*06
$GNGSA,A,3,,,,,,,,,,,,,1.79,0.97,1.50,4*01
$GPGSV,3,1,11,02,34,049,39,05,67,051,39,09,30,167,39,10,10,110,39,0*65
$GPGSV,3,2,11,12,58,069,39,14,14,264,40,21,13,200,39,24,50,173,39,0*6E
$GPGSV,3,3,11,29,56,282,39,30,60,345,39,31,18,318,39,0*59
$GAGSV,1,1,00,0*74
$GBGSV,1,1,00,0*77
$GNGLL,3114.02649,N,12130.90701,E,140341.00,A,A*74

$GNRMC,140342.00,A,3114.01444,N,12130.90699,E,29.966,179.98,010620,6.14,W,A,V*75
$GNVTG,179.98,T,186.13,M,29.966,N,55.496,K,A*37
$GNGGA,140342.00,3114.01444,N,12130.90699,E,1,10,0.97,39.8,M,9.9,M,,*43
$GNGSA,A,3,29,30,31,05,12,02,14,09,24,21,,,1.79,0.97,1.50,1*03
$GNGSA,A,3,,,,,,,,,,,,,1.79,0.97,1.50,3*06
$GNGSA,A,3,,,,,,,,,,,,,1.79,0.97,1.50,4*01
$GPGSV,3,1,11,02,34,049,39,05,67,051,39,09,30,167,39,10,10,110,39,0*65
$GPGSV,3,2,11,12,58,069,39,14,14,264,39,21,13,200,39,24,50,173,39,0*60
$GPGSV,3,3,11,29,56,282,39,30,60,345,39,31,18,318,39,0*59
$GAGSV,1,1,00,0*74
$GBGSV,1,1,00,0*77
$GNGLL,3114.01444,N,12130.90699,E,140342.00,A,A*7B

$GNRMC,140343.00,A,3114.00812,N,12130.90647,E,16.219,191.57,010620,6.14,W,A,V*73
$GNVTG,191.57,T,197.71,M,16.219,N,30.038,K,A*3A
$GNGGA,140343.00,3114.00812,N,12130.90647,E,1,10,0.97,39.9,M,9.9,M,,*4E
$GNGSA,A,3,29,30,31,05,12,02,14,09,24,21,,,1.79,0.97,1.50,1*03
$GNGSA,A,3,,,,,,,,,,,,,1.79,0.97,1.50,3*06
$GNGSA,A,3,,,,,,,,,,,,,1.79,0.97,1.50,4*01
$GPGSV,3,1,11,02,34,049,39,05,67,051,39,09,30,167,39,10,10,110,39,0*65
$GPGSV,3,2,11,12,58,069,39,14,14,264,40,21,13,200,39,24,50,173,39,0*6E
$GPGSV,3,3,11,29,56,282,39,30,60,345,39,31,18,318,39,0*59
$GAGSV,1,1,00,0*74
$GBGSV,1,1,00,0*77
$GNGLL,3114.00812,N,12130.90647,E,140343.00,A,A*77

$GNRMC,140344.00,A,3114.00412,N,12130.90443,E,16.163,215.44,010620,6.14,W,A,V*7D
$GNVTG,215.44,T,221.58,M,16.163,N,29.934,K,A*31
$GNGGA,140344.00,3114.00412,N,12130.90443,E,1,10,0.97,39.8,M,9.9,M,,*42
$GNGSA,A,3,29,30,31,05,12,02,14,09,24,21,,,1.79,0.97,1.50,1*03
$GNGSA,A,3,,,,,,,,,,,,,1.79,0.97,1.50,3*06
$GNGSA,A,3,,,,,,,,,,,,,1.79,0.97,1.50,4*01
$GPGSV,3,1,11,02,34,049,39,05,67,051,39,09,30,167,39,10,10,110,39,0*65
$GPGSV,3,2,11,12,58,069,39,14,14,264,39,21,13,200,39,24,50,173,39,0*60
$GPGSV,3,3,11,29,56,282,39,30,60,345,39,31,18,318,39,0*59
$GAGSV,1,1,00,0*74
$GBGSV,1,1,00,0*77
$GNGLL,3114.00412,N,12130.90443,E,140344.00,A,A*7A

$GNRMC,140345.00,A,3114.00118,N,12130.90066,E,16.150,239.36,010620,6.14,W,A,V*7B
$GNVTG,239.36,T,245.50,M,16.150,N,29.909,K,A*3E
$GNGGA,140345.00,3114.00118,N,12130.90066,E,1,10,0.97,39.8,M,9.9,M,,*4F
$GNGSA,A,3,29,30,31,05,12,02,14,09,24,21,,,1.79,0.97,1.50,1*03
$GNGSA,A,3,,,,,,,,,,,,,1.79,0.97,1.50,3*06
$GNGSA,A,3,,,,,,,,,,,,,1.79,0.97,1.50,4*01
$GPGSV,3,1,11,02,34,049,39,05,67,051,39,09,30,167,39,10,10,110,39,0*65
$GPGSV,3,2,11,12,58,069,39,14,14,264,39,21,13,200,39,24,50,173,39,0*60
$GPGSV,3,3,11,29,56,282,39,30,60,345,39,31,18,318,39,0*59
$GAGSV,1,1,00,0*74
$GBGSV,1,1,00,0*77
$GNGLL,3114.00118,N,12130.90066,E,140345.00,A,A*77

$GNRMC,140346.00,A,3113.99981,N,12130.89581,E,16.169,263.25,010620,6.14,W,A,V*74
$GNVTG,263.25,T,269.39,M,16.169,N,29.946,K,A*33
$GNGGA,140346.00,3113.99981,N,12130.89581,E,1,11,0.81,39.8,M,9.9,M,,*41
$GNGSA,A,3,29,30,31,05,12,10,02,14,09,24,21,,1.42,0.81,1.16,1*0F
$GNGSA,A,3,,,,,,,,,,,,,1.42,0.81,1.16,3*0B
$GNGSA,A,3,,,,,,,,,,,,,1.42,0.81,1.16,4*0C
$GPGSV,3,1,11,02,34,049,39,05,67,051,39,09,30,167,39,10,10,110,39,0*65
$GPGSV,3,2,11,12,58,069,39,14,14,264,39,21,13,200,39,24,50,173,39,0*60
$GPGSV,3,3,11,29,56,282,39,30,60,345,39,31,18,318,39,0*59
$GAGSV,1,1,00,0*74
$GBGSV,1,1,00,0*77
$GNGLL,3113.99981,N,12130.89581,E,140346.00,A,A*7F

$GNRMC,140347.00,A,3113.99958,N,12130.88753,E,35.352,270.00,010620,6.14,W,A,V*73
$GNVTG,270.00,T,276.14,M,35.352,N,65.473,K,A*3F
$GNGGA,140347.00,3113.99958,N,12130.88753,E,1,11,0.81,39.7,M,9.9,M,,*47
$GNGSA,A,3,29,30,31,05,12,10,02,14,09,24,21,,1.42,0.81,1.16,1*0F
$GNGSA,A,3,,,,,,,,,,,,,1.42,0.81,1.16,3*0B
$GNGSA,A,3,,,,,,,,,,,,,1.42,0.81,1.16,4*0C
$GPGSV,3,1,11,02,34,049,39,05,67,051,39,09,30,167,39,10,10,110,39,0*65
$GPGSV,3,2,11,12,58,069,39,14,14,264,39,21,13,200,39,24,50,173,39,0*60
$GPGSV,3,3,11,29,56,282,39,30,60,345,39,31,18,318,39,0*59
$GAGSV,1,1,00,0*74
$GBGSV,1,1,00,0*77
$GNGLL,3113.99958,N,12130.88753,E,140347.00,A,A*76

$GNRMC,140348.00,A,3113.99962,N,12130.87177,E,62.075,270.02,010620,6.14,W,A,V*7C
$GNVTG,270.02,T,276.16,M,62.075,N,114.964,K,A*07
$GNGGA,140348.00,3113.99962,N,12130.87177,E,1,11,0.81,39.7,M,9.9,M,,*4E
$GNGSA,A,3,29,30,31,05,12,10,02,14,09,24,21,,1.42,0.81,1.16,1*0F
$GNGSA,A,3,,,,,,,,,,,,,1.42,0.81,1.16,3*0B
$GNGSA,A,3,,,,,,,,,,,,,1.42,0.81,1.16,4*0C
$GPGSV,3,1,11,02,34,049,39,05,67,051,39,09,30,167,40,10,10,110,39,0*6B
$GPGSV,3,2,11,12,58,069,39,14,14,264,39,21,13,200,39,24,50,173,39,0*60
$GPGSV,3,3,11,29,56,282,39,30,60,345,39,31,18,318,39,0*59
$GAGSV,1,1,00,0*74
$GBGSV,1,1,00,0*77
$GNGLL,3113.99962,N,12130.87177,E,140348.00,A,A*7F

$GNRMC,140349.00,A,3113.99966,N,12130.84735,E,88.836,270.01,010620,6.14,W,A,V*72
$GNVTG,270.01,T,276.16,M,88.836,N,164.525,K,A*01
$GNGGA,140349.00,3113.99966,N,12130.84735,E,1,11,0.81,39.6,M,9.9,M,,*49
$GNGSA,A,3,29,30,31,05,12,10,02,14,09,24,21,,1.42,0.81,1.16,1*0F
$GNGSA,A,3,,,,,,,,,,,,,1.42,0.81,1.16,3*0B
$GNGSA,A,3,,,,,,,,,,,,,1.42,0.81,1.16,4*0C
$GPGSV,3,1,11,02,34,049,40,05,67,051,39,09,30,167,39,10,10,110,39,0*6B
$GPGSV,3,2,11,12,58,069,40,14,14,264,39,21,13,200,39,24,50,173,39,0*6E
$GPGSV,3,3,11,29,56,282,39,30,60,345,39,31,18,318,39,0*59
$GAGSV,1,1,00,0*74
$GBGSV,1,1,00,0*77
$GNGLL,3113.99966,N,12130.84735,E,140349.00,A,A*79

$GNRMC,140350.00,A,3114.00005,N,12130.81477,E,115.586,270.02,010620,6.14,W,A,V*41
$GNVTG,270.02,T,276.16,M,115.586,N,214.066,K,A*37
$GNGGA,140350.00,3114.00005,N,12130.81477,E,1,11,0.81,39.9,M,9.9,M,,*45
$GNGSA,A,3,29,30,31,05,12,10,02,14,09,24,21,,1.42,0.81,1.16,1*0F
$GNGSA,A,3,,,,,,,,,,,,,1.42,0.81,1.16,3*0B
$GNGSA,A,3,,,,,,,,,,,,,1.42,0.81,1.16,4*0C
$GPGSV,3,1,11,02,34,049,39,05,67,051,39,09,30,167,39,10,10,110,39,0*65
$GPGSV,3,2,11,12,58,069,39,14,14,264,39,21,13,200,39,24,50,173,39,0*60
$GPGSV,3,3,11,29,56,282,40,30,60,345,40,31,18,318,39,0*59
$GAGSV,1,1,00,0*74
$GBGSV,1,1,00,0*77
$GNGLL,3114.00005,N,12130.81477,E,140350.00,A,A*7A

$GNRMC,140351.00,A,3114.00007,N,12130.77300,E,142.321,270.01,010620,6.14,W,A,V*46
$GNVTG,270.01,T,276.15,M,142.321,N,263.579,K,A*35
$GNGGA,140351.00,3114.00007,N,12130.77300,E,1,11,0.81,39.8,M,9.9,M,,*49
$GNGSA,A,3,29,30,31,05,12,10,02,14,09,24,21,,1.42,0.81,1.16,1*0F
$GNGSA,A,3,,,,,,,,,,,,,1.42,0.81,1.16,3*0B
$GNGSA,A,3,,,,,,,,,,,,,1.42,0.81,1.16,4*0C
$GPGSV,3,1,11,02,34,049,40,05,67,052,39,09,30,167,39,10,10,110,39,0*68
$GPGSV,3,2,11,12,58,069,39,14,14,264,39,21,13,200,39,24,50,173,39,0*60
$GPGSV,3,3,11,29,56,282,39,30,60,345,40,31,18,318,39,0*57
$GAGSV,1,1,00,0*74
$GBGSV,1,1,00,0*77
$GNGLL,3114.00007,N,12130.77300,E,140351.00,A,A*77

$GNRMC,140352.00,A,3114.00006,N,12130.72346,E,161.793,270.01,010620,6.14,W,A,V*4F
$GNVTG,270.01,T,276.16,M,161.793,N,299.641,K,A*37
$GNGGA,140352.00,3114.00006,N,12130.72346,E,1,11,0.81,39.8,M,9.9,M,,*4C
$GNGSA,A,3,29,30,31,05,12,10,02,14,09,24,21,,1.42,0.81,1.16,1*0F
$GNGSA,A,3,,,,,,,,,,,,,1.42,0.81,1.16,3*0B
$GNGSA,A,3,,,,,,,,,,,,,1.42,0.81,1.16,4*0C
$GPGSV,3,1,11,02,34,049,39,05,67,052,39,09,30,167,40,10,10,110,39,0*68
$GPGSV,3,2,11,12,58,069,39,14,14,264,39,21,13,200,39,24,50,173,39,0*60
$GPGSV,3,3,11,29,56,282,39,30,60,345,39,31,18,318,39,0*59
$GAGSV,1,1,00,0*74
$GBGSV,1,1,00,0*77
$GNGLL,3114.00006,N,12130.72346,E,140352.00,A,A*72

$GNRMC,140353.00,A,3114.00005,N,12130.67086,E,161.996,270.00,010620,6.14,W,A,V*4C
$GNVTG,270.00,T,276.14,M,161.996,N,300.017,K,A*3B
$GNGGA,140353.00,3114.00005,N,12130.67086,E,1,11,0.81,39.8,M,9.9,M,,*45
$GNGSA,A,3,29,30,31,05,12,10,02,14,09,24,21,,1.42,0.81,1.16,1*0F
$GNGSA,A,3,,,,,,,,,,,,,1.42,0.81,1.16,3*0B
$GNGSA,A,3,,,,,,,,,,,,,1.42,0.81,1.16,4*0C
$GPGSV,3,1,11,02,34,049,39,05,67,052,39,09,30,167,39,10,10,109,39,0*6E
$GPGSV,3,2,11,12,58,069,39,14,14,264,39,21,13,200,39,24,50,173,39,0*60
$GPGSV,3,3,11,29,56,282,39,30,60,345,39,31,18,318,39,0*59
$GAGSV,1,1,00,0*74
$GBGSV,1,1,00,0*77
$GNGLL,3114.00005,N,12130.67086,E,140353.00,A,A*7B

$GNRMC,140354.00,A,3114.00002,N,12130.61828,E,161.979,270.00,010620,6.14,W,A,V*47
$GNVTG,270.00,T,276.14,M,161.979,N,299.985,K,A*39
$GNGGA,140354.00,3114.00002,N,12130.61828,E,1,11,0.81,39.8,M,9.9,M,,*4F
$GNGSA,A,3,29,30,31,05,12,10,02,14,09,24,21,,1.42,0.81,1.16,1*0F
$GNGSA,A,3,,,,,,,,,,,,,1.42,0.81,1.16,3*0B
$GNGSA,A,3,,,,,,,,,,,,,1.42,0.81,1.16,4*0C
$GPGSV,3,1,11,02,34,049,39,05,67,052,39,09,30,167,39,10,10,109,39,0*6E
$GPGSV,3,2,11,12,58,069,39,14,14,264,39,21,13,200,39,24,50,173,39,0*60
$GPGSV,3,3,11,29,56,282,39,30,60,345,39,31,18,318,39,0*59
$GAGSV,1,1,00,0*74
$GBGSV,1,1,00,0*77
$GNGLL,3114.00002,N,12130.61828,E,140354.00,A,A*71

$GNRMC,140355.00,A,3113.99998,N,12130.56573,E,162.000,270.00,010620,6.14,W,A,V*48
$GNVTG,270.00,T,276.14,M,162.000,N,300.024,K,A*3E
$GNGGA,140355.00,3113.99998,N,12130.56573,E,1,11,0.81,39.8,M,9.9,M,,*44
$GNGSA,A,3,29,30,31,05,12,10,02,14,09,24,21,,1.42,0.81,1.16,1*0F
$GNGSA,A,3,,,,,,,,,,,,,1.42,0.81,1.16,3*0B
$GNGSA,A,3,,,,,,,,,,,,,1.42,0.81,1.16,4*0C
$GPGSV,3,1,11,02,34,049,40,05,67,052,39,09,30,167,39,10,10,109,39,0*60
$GPGSV,3,2,11,12,58,069,39,14,13,264,40,21,13,200,39,24,50,173,39,0*69
$GPGSV,3,3,11,29,56,282,39,30,60,345,39,31,18,318,39,0*59
$GAGSV,1,1,00,0*74
$GBGSV,1,1,00,0*77
$GNGLL,3113.99998,N,12130.56573,E,140355.00,A,A*7A

$GNRMC,140356.00,A,3113.99996,N,12130.51321,E,161.981,270.01,010620,6.14,W,A,V*41
$GNVTG,270.01,T,276.15,M,161.981,N,299.989,K,A*32
$GNGGA,140356.00,3113.99996,N,12130.51321,E,1,11,0.81,39.9,M,9.9,M,,*4E
$GNGSA,A,3,29,30,31,05,12,10,02,14,09,24,21,,1.42,0.81,1.16,1*0F
$GNGSA,A,3,,,,,,,,,,,,,1.42,0.81,1.16,3*0B
$GNGSA,A,3,,,,,,,,,,,,,1.42,0.81,1.16,4*0C
$GPGSV,3,1,11,02,34,049,39,05,67,052,39,09,30,167,40,10,10,109,40,0*6E
$GPGSV,3,2,11,12,58,069,39,14,13,264,39,21,13,200,39,24,50,173,39,0*67
$GPGSV,3,3,11,29,56,282,39,30,60,345,39,31,18,318,39,0*59
$GAGSV,1,1,00,0*74
$GBGSV,1,1,00,0*77
$GNGLL,3113.99996,N,12130.51321,E,140356.00,A,A*71

$GNRMC,140357.00,A,3113.99995,N,12130.46069,E,161.991,270.00,010620,6.14,W,A,V*4A
$GNVTG,270.00,T,276.14,M,161.991,N,300.008,K,A*32
$GNGGA,140357.00,3113.99995,N,12130.46069,E,1,11,0.81,39.9,M,9.9,M,,*45
$GNGSA,A,3,29,30,31,05,12,10,02,14,09,24,21,,1.42,0.81,1.16,1*0F
$GNGSA,A,3,,,,,,,,,,,,,1.42,0.81,1.16,3*0B
$GNGSA,A,3,,,,,,,,,,,,,1.42,0.81,1.16,4*0C
$GPGSV,3,1,11,02,34,049,39,05,67,052,39,09,30,167,40,10,10,109,39,0*60
$GPGSV,3,2,11,12,58,069,39,14,13,264,39,21,13,200,39,24,50,173,39,0*67
$GPGSV,3,3,11,29,56,282,39,30,60,345,39,31,18,318,39,0*59
$GAGSV,1,1,00,0*74
$GBGSV,1,1,00,0*77
$GNGLL,3113.99995,N,12130.46069,E,140357.00,A,A*7A

$GNRMC,140358.00,A,3113.99994,N,12130.40819,E,161.995,270.00,010620,6.14,W,A,V*49
$GNVTG,270.00,T,276.14,M,161.995,N,300.014,K,A*3B
$GNGGA,140358.00,3113.99994,N,12130.40819,E,1,11,0.81,39.9,M,9.9,M,,*42
$GNGSA,A,3,29,30,31,05,12,10,02,14,09,24,21,,1.42,0.81,1.16,1*0F
$GNGSA,A,3,,,,,,,,,,,,,1.42,0.81,1.16,3*0B
$GNGSA,A,3,,,,,,,,,,,,,1.42,0.81,1.16,4*0C
$GPGSV,3,1,11,02,34,049,39,05,67,052,39,09,30,167,39,10,10,109,39,0*6E
$GPGSV,3,2,11,12,58,069,39,14,13,264,39,21,13,200,39,24,50,173,39,0*67
$GPGSV,3,3,11,29,56,283,39,30,60,345,39,31,18,318,39,0*58
$GAGSV,1,1,00,0*74
$GBGSV,1,1,00,0*77
$GNGLL,3113.99994,N,12130.40819,E,140358.00,A,A*7D

$GNRMC,140359.00,A,3113.99993,N,12130.35569,E,161.995,270.00,010620,6.14,W,A,V*47
$GNVTG,270.00,T,276.15,M,161.995,N,300.015,K,A*3B
$GNGGA,140359.00,3113.99993,N,12130.35569,E,1,11,0.81,39.9,M,9.9,M,,*4C
$GNGSA,A,3,29,30,31,05,12,10,02,14,09,24,21,,1.42,0.81,1.16,1*0F
$GNGSA,A,3,,,,,,,,,,,,,1.42,0.81,1.16,3*0B
$GNGSA,A,3,,,,,,,,,,,,,1.42,0.81,1.16,4*0C
$GPGSV,3,1,11,02,34,049,39,05,67,052,39,09,30,167,40,10,10,109,39,0*60
$GPGSV,3,2,11,12,58,069,39,14,13,264,39,21,13,200,39,24,50,173,39,0*67
$GPGSV,3,3,11,29,56,283,39,30,61,345,39,31,18,318,39,0*59
$GAGSV,1,1,00,0*74
$GBGSV,1,1,00,0*77
$GNGLL,3113.99993,N,12130.35569,E,140359.00,A,A*73

$GNRMC,140400.00,A,3113.99992,N,12130.30320,E,161.993,270.00,010620,6.14,W,A,V*45
$GNVTG,270.00,T,276.14,M,161.993,N,300.011,K,A*38
$GNGGA,140400.00,3113.99992,N,12130.30320,E,1,11,0.81,39.9,M,9.9,M,,*48
$GNGSA,A,3,29,30,31,05,12,10,02,14,09,24,21,,1.42,0.81,1.16,1*0F
$GNGSA,A,3,,,,,,,,,,,,,1.42,0.81,1.16,3*0B
$GNGSA,A,3,,,,,,,,,,,,,1.42,0.81,1.16,4*0C
$GPGSV,3,1,11,02,34,049,40,05,67,052,39,09,30,167,39,10,10,109,39,0*60
$GPGSV,3,2,11,12,58,069,39,14,13,264,40,21,13,200,40,24,50,173,39,0*67
$GPGSV,3,3,11,29,56,283,39,30,61,345,39,31,18,318,39,0*59
$GAGSV,1,1,00,0*74
$GBGSV,1,1,00,0*77
$GNGLL,3113.99992,N,12130.30320,E,140400.00,A,A*77

$GNRMC,140401.00,A,3113.99991,N,12130.25071,E,161.984,270.01,010620,6.14,W,A,V*43
$GNVTG,270.01,T,276.15,M,161.984,N,299.995,K,A*3A
$GNGGA,140401.00,3113.99991,N,12130.25071,E,1,11,0.81,39.9,M,9.9,M,,*49
$GNGSA,A,3,29,30,31,05,12,10,02,14,09,24,21,,1.42,0.81,1.16,1*0F
$GNGSA,A,3,,,,,,,,,,,,,1.42,0.81,1.16,3*0B
$GNGSA,A,3,,,,,,,,,,,,,1.42,0.81,1.16,4*0C
$GPGSV,3,1,11,02,34,049,39,05,67,052,39,09,30,167,39,10,10,109,39,0*6E
$GPGSV,3,2,11,12,58,069,39,14,13,264,39,21,13,200,39,24,50,173,39,0*67
$GPGSV,3,3,11,29,56,283,39,30,61,345,39,31,18,318,39,0*59
$GAGSV,1,1,00,0*74
$GBGSV,1,1,00,0*77
$GNGLL,3113.99991,N,12130.25071,E,140401.00,A,A*76

$GNRMC,140402.00,A,3113.99991,N,12130.19823,E,161.981,270.00,010620,6.14,W,A,V*44
$GNVTG,270.00,T,276.14,M,161.981,N,299.989,K,A*32
$GNGGA,140402.00,3113.99991,N,12130.19823,E,1,11,0.81,39.9,M,9.9,M,,*4A
$GNGSA,A,3,29,30,31,05,12,10,02,14,09,24,21,,1.42,0.81,1.16,1*0F
$GNGSA,A,3,,,,,,,,,,,,,1.42,0.81,1.16,3*0B
$GNGSA,A,3,,,,,,,,,,,,,1.42,0.81,1.16,4*0C
$GPGSV,3,1,11,02,34,049,39,05,67,052,39,09,30,167,39,10,10,109,39,0*6E
$GPGSV,3,2,11,12,58,069,39,14,13,264,39,21,13,200,39,24,50,173,39,0*67
$GPGSV,3,3,11,29,56,283,39,30,61,345,39,31,18,318,40,0*57
$GAGSV,1,1,00,0*74
$GBGSV,1,1,00,0*77
$GNGLL,3113.99991,N,12130.19823,E,140402.00,A,A*75

$GNRMC,140403.00,A,3113.99991,N,12130.14765,E,149.768,270.00,010620,6.14,W,A,V*46
$GNVTG,270.00,T,276.14,M,149.768,N,277.371,K,A*3C
$GNGGA,140403.00,3113.99991,N,12130.14765,E,1,11,0.81,39.9,M,9.9,M,,*4B
$GNGSA,A,3,29,30,31,05,12,10,02,14,09,24,21,,1.42,0.81,1.16,1*0F
$GNGSA,A,3,,,,,,,,,,,,,1.42,0.81,1.16,3*0B
$GNGSA,A,3,,,,,,,,,,,,,1.42,0.81,1.16,4*0C
$GPGSV,3,1,11,02,34,049,39,05,67,052,39,09,30,167,39,10,10,109,39,0*6E
$GPGSV,3,2,11,12,58,069,39,14,13,264,40,21,13,200,39,24,50,173,39,0*69
$GPGSV,3,3,11,29,56,283,39,30,61,345,39,31,18,318,39,0*59
$GAGSV,1,1,00,0*74
$GBGSV,1,1,00,0*77
$GNGLL,3113.99991,N,12130.14765,E,140403.00,A,A*74

$GNRMC,140404.00,A,3113.99991,N,12130.10342,E,123.061,270.00,010620,6.14,W,A,V*46
$GNVTG,270.00,T,276.14,M,123.061,N,227.909,K,A*3E
$GNGGA,140404.00,3113.99991,N,12130.10342,E,1,11,0.81,39.8,M,9.9,M,,*48
$GNGSA,A,3,29,30,31,05,12,10,02,14,09,24,21,,1.42,0.81,1.16,1*0F
$GNGSA,A,3,,,,,,,,,,,,,1.42,0.81,1.16,3*0B
$GNGSA,A,3,,,,,,,,,,,,,1.42,0.81,1.16,4*0C
$GPGSV,3,1,11,02,34,049,39,05,67,052,39,09,30,167,39,10,10,109,39,0*6E
$GPGSV,3,2,11,12,58,069,39,14,13,264,39,21,13,200,39,24,50,173,39,0*67
$GPGSV,3,3,11,29,56,283,39,30,61,345,39,31,18,318,39,0*59
$GAGSV,1,1,00,0*74
$GBGSV,1,1,00,0*77
$GNGLL,3113.99991,N,12130.10342,E,140404.00,A,A*76

$GNRMC,140405.00,A,3113.99991,N,12130.06787,E,96.315,269.99,010620,6.14,W,A,V*7A
$GNVTG,269.99,T,276.14,M,96.315,N,178.376,K,A*02
$GNGGA,140405.00,3113.99991,N,12130.06787,E,1,11,0.81,39.8,M,9.9,M,,*43
$GNGSA,A,3,29,30,31,05,12,10,02,14,09,24,21,,1.42,0.81,1.16,1*0F
$GNGSA,A,3,,,,,,,,,,,,,1.42,0.81,1.16,3*0B
$GNGSA,A,3,,,,,,,,,,,,,1.42,0.81,1.16,4*0C
$GPGSV,3,1,11,02,34,049,39,05,67,052,39,09,30,167,39,10,10,109,39,0*6E
$GPGSV,3,2,11,12,58,069,39,14,13,264,39,21,13,200,39,24,50,173,39,0*67
$GPGSV,3,3,11,29,56,283,39,30,61,345,39,31,18,318,39,0*59
$GAGSV,1,1,00,0*74
$GBGSV,1,1,00,0*77
$GNGLL,3113.99991,N,12130.06787,E,140405.00,A,A*7D

$GNRMC,140406.00,A,3113.99992,N,12130.04100,E,69.552,270.00,010620,6.14,W,A,V*7C
$GNVTG,270.00,T,276.14,M,69.552,N,128.810,K,A*01
$GNGGA,140406.00,3113.99992,N,12130.04100,E,1,11,0.81,39.8,M,9.9,M,,*48
$GNGSA,A,3,29,30,31,05,12,10,02,14,09,24,21,,1.42,0.81,1.16,1*0F
$GNGSA,A,3,,,,,,,,,,,,,1.42,0.81,1.16,3*0B
$GNGSA,A,3,,,,,,,,,,,,,1.42,0.81,1.16,4*0C
$GPGSV,3,1,11,02,34,049,39,05,67,052,39,09,30,167,39,10,10,109,39,0*6E
$GPGSV,3,2,11,12,58,069,39,14,13,264,39,21,13,200,39,24,50,173,39,0*67
$GPGSV,3,3,11,29,56,283,39,30,61,345,39,31,18,318,39,0*59
$GAGSV,1,1,00,0*74
$GBGSV,1,1,00,0*77
$GNGLL,3113.99992,N,12130.04100,E,140406.00,A,A*76

$GNRMC,140407.00,A,3113.99993,N,12130.02280,E,42.800,269.99,010620,6.14,W,A,V*7A
$GNVTG,269.99,T,276.13,M,42.800,N,79.266,K,A*33
$GNGGA,140407.00,3113.99993,N,12130.02280,E,1,11,0.81,39.8,M,9.9,M,,*45
$GNGSA,A,3,29,30,31,05,12,10,02,14,09,24,21,,1.42,0.81,1.16,1*0F
$GNGSA,A,3,,,,,,,,,,,,,1.42,0.81,1.16,3*0B
$GNGSA,A,3,,,,,,,,,,,,,1.42,0.81,1.16,4*0C
$GPGSV,3,1,11,02,34,049,40,05,67,052,39,09,30,167,39,10,10,109,39,0*60
$GPGSV,3,2,11,12,58,069,39,14,13,264,39,21,13,200,39,24,50,173,39,0*67
$GPGSV,3,3,11,29,56,283,39,30,61,345,39,31,18,318,39,0*59
$GAGSV,1,1,00,0*74
$GBGSV,1,1,00,0*77
$GNGLL,3113.99993,N,12130.02280,E,140407.00,A,A*7B

$GNRMC,140408.00,A,3113.99998,N,12130.01305,E,17.508,271.25,010620,6.14,W,A,V*7A
$GNVTG,271.25,T,277.39,M,17.508,N,32.425,K,A*3F
$GNGGA,140408.00,3113.99998,N,12130.01305,E,1,11,0.81,39.8,M,9.9,M,,*4E
$GNGSA,A,3,29,30,31,05,12,10,02,14,09,24,21,,1.42,0.81,1.16,1*0F
$GNGSA,A,3,,,,,,,,,,,,,1.42,0.81,1.16,3*0B
$GNGSA,A,3,,,,,,,,,,,,,1.42,0.81,1.16,4*0C
$GPGSV,3,1,11,02,34,049,39,05,67,052,40,09,30,167,39,10,10,109,39,0*60
$GPGSV,3,2,11,12,58,069,40,14,13,264,39,21,13,200,39,24,50,173,39,0*69
$GPGSV,3,3,11,29,56,283,39,30,61,345,39,31,18,318,39,0*59
$GAGSV,1,1,00,0*74
$GBGSV,1,1,00,0*77
$GNGLL,3113.99998,N,12130.01305,E,140408.00,A,A*70

$GNRMC,140409.00,A,3114.00096,N,12130.00783,E,16.184,293.92,010620,6.14,W,A,V*71
$GNVTG,293.92,T,300.06,M,16.184,N,29.973,K,A*37
$GNGGA,140409.00,3114.00096,N,12130.00783,E,1,11,0.81,39.7,M,9.9,M,,*4B
$GNGSA,A,3,29,30,31,05,12,10,02,14,09,24,21,,1.42,0.81,1.16,1*0F
$GNGSA,A,3,,,,,,,,,,,,,1.42,0.81,1.16,3*0B
$GNGSA,A,3,,,,,,,,,,,,,1.42,0.81,1.16,4*0C
$GPGSV,3,1,11,02,34,049,39,05,67,052,39,09,30,167,39,10,10,109,39,0*6E
$GPGSV,3,2,11,12,58,069,39,14,13,264,39,21,13,200,39,24,50,173,39,0*67
$GPGSV,3,3,11,29,56,283,39,30,61,345,39,31,18,318,39,0*59
$GAGSV,1,1,00,0*74
$GBGSV,1,1,00,0*77
$GNGLL,3114.00096,N,12130.00783,E,140409.00,A,A*7A

$GNRMC,140410.00,A,3114.00355,N,12130.00367,E,16.167,317.84,010620,6.14,W,A,V*7C
$GNVTG,317.84,T,323.98,M,16.167,N,29.942,K,A*34
$GNGGA,140410.00,3114.00355,N,12130.00367,E,1,11,0.81,39.7,M,9.9,M,,*41
$GNGSA,A,3,29,30,31,05,12,10,02,14,09,24,21,,1.42,0.81,1.16,1*0F
$GNGSA,A,3,,,,,,,,,,,,,1.42,0.81,1.16,3*0B
$GNGSA,A,3,,,,,,,,,,,,,1.42,0.81,1.16,4*0C
$GPGSV,3,1,11,02,34,049,39,05,67,052,40,09,30,167,39,10,10,109,39,0*60
$GPGSV,3,2,11,12,58,069,39,14,13,264,39,21,13,200,39,24,50,173,39,0*67
$GPGSV,3,3,11,29,56,283,39,30,61,345,39,31,18,318,39,0*59
$GAGSV,1,1,00,0*74
$GBGSV,1,1,00,0*77
$GNGLL,3114.00355,N,12130.00367,E,140410.00,A,A*70

$GNRMC,140411.00,A,3114.00737,N,12130.00109,E,16.173,341.79,010620,6.14,W,A,V*73
$GNVTG,341.79,T,347.93,M,16.173,N,29.952,K,A*38
$GNGGA,140411.00,3114.00737,N,12130.00109,E,1,11,0.81,39.7,M,9.9,M,,*4A
$GNGSA,A,3,29,30,31,05,12,10,02,14,09,24,21,,1.42,0.81,1.16,1*0F
$GNGSA,A,3,,,,,,,,,,,,,1.42,0.81,1.16,3*0B
$GNGSA,A,3,,,,,,,,,,,,,1.42,0.81,1.16,4*0C
$GPGSV,3,1,11,02,34,049,39,05,67,052,40,09,30,167,39,10,10,109,39,0*60
$GPGSV,3,2,11,12,58,069,40,14,13,264,39,21,13,200,39,24,50,173,39,0*69
$GPGSV,3,3,11,29,56,283,39,30,61,345,39,31,18,318,39,0*59
$GAGSV,1,1,00,0*74
$GBGSV,1,1,00,0*77
$GNGLL,3114.00737,N,12130.00109,E,140411.00,A,A*7B

$GNRMC,140412.00,A,3114.01263,N,12130.00028,E,22.614,359.94,010620,6.14,W,A,V*7C
$GNVTG,359.94,T,6.08,M,22.614,N,41.881,K,A*36
$GNGGA,140412.00,3114.01263,N,12130.00028,E,1,11,0.81,39.7,M,9.9,M,,*4E
$GNGSA,A,3,29,30,31,05,12,10,02,14,09,24,21,,1.42,0.81,1.16,1*0F
$GNGSA,A,3,,,,,,,,,,,,,1.42,0.81,1.16,3*0B
$GNGSA,A,3,,,,,,,,,,,,,1.42,0.81,1.16,4*0C
$GPGSV,3,1,11,02,34,049,39,05,67,052,40,09,30,167,39,10,10,109,39,0*60
$GPGSV,3,2,11,12,58,069,39,14,13,264,39,21,13,200,39,24,50,173,39,0*67
$GPGSV,3,3,11,29,56,283,39,30,61,345,39,31,18,318,39,0*59
$GAGSV,1,1,00,0*74
$GBGSV,1,1,00,0*77
$GNGLL,3114.01263,N,12130.00028,E,140412.00,A,A*7F

$GNRMC,140413.00,A,3114.02264,N,12130.00027,E,49.229,359.99,010620,6.14,W,A,V*7C
$GNVTG,359.99,T,6.14,M,49.229,N,91.172,K,A*39
$GNGGA,140413.00,3114.02264,N,12130.00027,E,1,11,0.81,39.7,M,9.9,M,,*44
$GNGSA,A,3,29,30,31,05,12,10,02,14,09,24,21,,1.42,0.81,1.16,1*0F
$GNGSA,A,3,,,,,,,,,,,,,1.42,0.81,1.16,3*0B
$GNGSA,A,3,,,,,,,,,,,,,1.42,0.81,1.16,4*0C
$GPGSV,3,1,11,02,34,049,40,05,67,052,39,09,30,167,40,10,10,109,40,0*60
$GPGSV,3,2,11,12,58,069,39,14,13,264,39,21,13,200,39,24,50,173,39,0*67
$GPGSV,3,3,11,29,56,283,39,30,61,345,39,31,18,318,39,0*59
$GAGSV,1,1,00,0*74
$GBGSV,1,1,00,0*77
$GNGLL,3114.02264,N,12130.00027,E,140413.00,A,A*75

$GNRMC,140414.00,A,3114.04008,N,12130.00026,E,75.975,0.00,010620,6.14,W,A,V*76
$GNVTG,0.00,T,6.14,M,75.975,N,140.706,K,A*03
$GNGGA,140414.00,3114.04008,N,12130.00026,E,1,11,0.81,39.7,M,9.9,M,,*4C
$GNGSA,A,3,29,30,31,05,12,10,02,14,09,24,21,,1.42,0.81,1.16,1*0F
$GNGSA,A,3,,,,,,,,,,,,,1.42,0.81,1.16,3*0B
$GNGSA,A,3,,,,,,,,,,,,,1.42,0.81,1.16,4*0C
$GPGSV,3,1,11,02,34,049,39,05,67,052,39,09,30,167,39,10,10,109,39,0*6E
$GPGSV,3,2,11,12,58,069,39,14,13,264,39,21,13,200,39,24,50,173,39,0*67
$GPGSV,3,3,11,29,56,283,39,30,61,345,39,31,18,318,40,0*57
$GAGSV,1,1,00,0*74
$GBGSV,1,1,00,0*77
$GNGLL,3114.04008,N,12130.00026,E,140414.00,A,A*7D

$GNRMC,140415.00,A,3114.06497,N,12130.00025,E,102.714,0.00,010620,6.14,W,A,V*4C
$GNVTG,0.00,T,6.14,M,102.714,N,190.227,K,A*30
$GNGGA,140415.00,3114.06497,N,12130.00025,E,1,11,0.81,39.7,M,9.9,M,,*4E
$GNGSA,A,3,29,30,31,05,12,10,02,14,09,24,21,,1.42,0.81,1.16,1*0F
$GNGSA,A,3,,,,,,,,,,,,,1.42,0.81,1.16,3*0B
$GNGSA,A,3,,,,,,,,,,,,,1.42,0.81,1.16,4*0C
$GPGSV,3,1,11,02,34,049,39,05,67,052,39,09,30,167,39,10,10,109,39,0*6E
$GPGSV,3,2,11,12,58,069,39,14,13,264,39,21,13,200,39,24,50,173,39,0*67
$GPGSV,3,3,11,29,56,283,40,30,61,345,39,31,18,318,39,0*57
$GAGSV,1,1,00,0*74
$GBGSV,1,1,00,0*77
$GNGLL,3114.06497,N,12130.00025,E,140415.00,A,A*7F

$GNRMC,140416.00,A,3114.09731,N,12130.00025,E,129.487,0.00,010620,6.14,W,A,V*4F
$GNVTG,0.00,T,6.14,M,129.487,N,239.810,K,A*3E
$GNGGA,140416.00,3114.09731,N,12130.00025,E,1,11,0.81,39.7,M,9.9,M,,*4D
$GNGSA,A,3,29,30,31,05,12,10,02,14,09,24,21,,1.42,0.81,1.16,1*0F
$GNGSA,A,3,,,,,,,,,,,,,1.42,0.81,1.16,3*0B
$GNGSA,A,3,,,,,,,,,,,,,1.42,0.81,1.16,4*0C
$GPGSV,3,1,11,02,34,049,39,05,67,052,39,09,30,167,39,10,10,109,39,0*6E
$GPGSV,3,2,11,12,58,069,39,14,13,264,39,21,13,200,40,24,50,173,40,0*67
$GPGSV,3,3,11,29,56,283,39,30,61,345,39,31,18,318,39,0*59
$GAGSV,1,1,00,0*74
$GBGSV,1,1,00,0*77
$GNGLL,3114.09731,N,12130.00025,E,140416.00,A,A*7C

$GNRMC,140417.00,A,3114.13689,N,12130.00008,E,156.247,0.00,010620,6.14,W,A,V*4A
$GNVTG,0.00,T,6.14,M,156.247,N,289.369,K,A*32
$GNGGA,140417.00,3114.13689,N,12130.00008,E,1,11,0.81,39.4,M,9.9,M,,*49
$GNGSA,A,3,29,30,31,05,12,10,02,14,09,24,21,,1.42,0.81,1.16,1*0F
$GNGSA,A,3,,,,,,,,,,,,,1.42,0.81,1.16,3*0B
$GNGSA,A,3,,,,,,,,,,,,,1.42,0.81,1.16,4*0C
$GPGSV,3,1,11,02,34,049,39,05,67,052,39,09,30,167,39,10,10,109,40,0*60
$GPGSV,3,2,11,12,58,069,39,14,13,264,39,21,13,200,39,24,50,173,39,0*67
$GPGSV,3,3,11,29,56,283,39,30,61,345,39,31,18,318,39,0*59
$GAGSV,1,1,00,0*74
$GBGSV,1,1,00,0*77
$GNGLL,3114.13689,N,12130.00008,E,140417.00,A,A*7B

$GNRMC,140418.00,A,3114.18149,N,12130.00007,E,161.972,0.00,010620,6.14,W,A,V*43
$GNVTG,0.00,T,6.14,M,161.972,N,299.973,K,A*3B
$GNGGA,140418.00,3114.18149,N,12130.00007,E,1,11,0.81,39.4,M,9.9,M,,*49
$GNGSA,A,3,29,30,31,05,12,10,02,14,09,24,21,,1.42,0.81,1.16,1*0F
$GNGSA,A,3,,,,,,,,,,,,,1.42,0.81,1.16,3*0B
$GNGSA,A,3,,,,,,,,,,,,,1.42,0.81,1.16,4*0C
$GPGSV,3,1,11,02,34,049,39,05,67,052,39,09,30,167,39,10,10,109,39,0*6E
$GPGSV,3,2,11,12,58,069,40,14,13,264,39,21,13,200,39,24,50,173,40,0*67
$GPGSV,3,3,11,29,56,283,39,30,61,345,39,31,18,318,39,0*59
$GAGSV,1,1,00,0*74
$GBGSV,1,1,00,0*77
$GNGLL,3114.18149,N,12130.00007,E,140418.00,A,A*7B

$GNRMC,140419.00,A,3114.22668,N,12130.00006,E,161.968,0.00,010620,6.14,W,A,V*45
$GNVTG,0.00,T,6.14,M,161.968,N,299.964,K,A*36
$GNGGA,140419.00,3114.22668,N,12130.00006,E,1,11,0.81,39.4,M,9.9,M,,*44
$GNGSA,A,3,29,30,31,05,12,10,02,14,09,24,21,,1.42,0.81,1.16,1*0F
$GNGSA,A,3,,,,,,,,,,,,,1.42,0.81,1.16,3*0B
$GNGSA,A,3,,,,,,,,,,,,,1.42,0.81,1.16,4*0C
$GPGSV,3,1,11,02,34,049,39,05,67,052,39,09,30,167,39,10,10,109,39,0*6E
$GPGSV,3,2,11,12,58,069,40,14,13,264,39,21,13,200,39,24,50,173,39,0*69
$GPGSV,3,3,11,29,56,283,39,30,61,345,39,31,18,318,39,0*59
$GAGSV,1,1,00,0*74
$GBGSV,1,1,00,0*77
$GNGLL,3114.22668,N,12130.00006,E,140419.00,A,A*76

$GNRMC,140420.00,A,3114.27180,N,12130.00006,E,161.992,0.00,010620,6.14,W,A,V*4E
$GNVTG,0.00,T,6.14,M,161.992,N,300.009,K,A*30
$GNGGA,140420.00,3114.27180,N,12130.00006,E,1,11,0.81,39.3,M,9.9,M,,*4D
$GNGSA,A,3,29,30,31,05,12,10,02,14,09,24,21,,1.42,0.81,1.16,1*0F
$GNGSA,A,3,,,,,,,,,,,,,1.42,0.81,1.16,3*0B
$GNGSA,A,3,,,,,,,,,,,,,1.42,0.81,1.16,4*0C
$GPGSV,3,1,11,02,33,049,39,05,67,052,39,09,30,167,39,10,10,109,39,0*69
$GPGSV,3,2,11,12,58,069,39,14,13,264,39,21,13,200,39,24,50,173,40,0*69
$GPGSV,3,3,11,29,56,283,39,30,61,345,39,31,18,318,40,0*57
$GAGSV,1,1,00,0*74
$GBGSV,1,1,00,0*77
