$GNRMC,000007.00,A,3000.25289,N,12000.42398,E,75.619,111.29,230721,5.69,W,A,V*7D
$GNVTG,111.29,T,116.98,M,75.619,N,140.047,K,A*0A
$GNGGA,000007.00,3000.25289,N,12000.42398,E,1,12,0.68,-10.6,M,7.0,M,,*65
$GNGSA,A,3,07,25,13,04,08,02,20,,,,,,1.27,0.68,1.08,1*0C
$GNGSA,A,3,23,09,27,24,11,10,17,,,,,,1.27,0.68,1.08,3*0C
$GNGSA,A,3,09,11,13,06,,,,,,,,,1.27,0.68,1.08,4*0A
$GPGSV,4,1,13,01,00,121,,02,33,300,36,04,52,247,37,07,84,121,37,0*6E
$GPGSV,4,2,13,08,47,207,36,10,01,310,,13,50,031,37,16,01,039,,0*65
$GPGSV,4,3,13,20,23,121,36,23,28,057,,25,67,043,37,27,18,219,,0*6E
$GPGSV,4,4,13,28,00,182,,0*56
$GAGSV,2,1,08,09,13,317,36,10,64,334,38,11,56,117,37,12,07,130,,0*7E
$GAGSV,2,2,08,17,31,040,37,23,38,222,37,24,86,021,38,27,31,126,37,0*72
$GBGSV,3,1,09,01,38,122,30,02,50,173,30,04,36,126,30,06,37,216,29,0*7E
$GBGSV,3,2,09,09,37,287,29,11,18,131,29,12,10,061,,13,49,203,30,0*7D
$GBGSV,3,3,09,14,09,165,,0*40
$GNGLL,3000.25289,N,12000.42398,E,000007.00,A,A*70

$GNRMC,000008.00,A,3000.24497,N,12000.44587,E,75.599,115.75,230721,5.69,W,A,V*72
$GNVTG,115.75,T,121.44,M,75.599,N,140.008,K,A*02
$GNGGA,000008.00,3000.24497,N,12000.44587,E,1,12,0.68,-9.9,M,7.0,M,,*5B
$GNGSA,A,3,07,25,13,04,08,02,20,,,,,,1.27,0.68,1.08,1*0C
$GNGSA,A,3,23,09,27,24,11,10,17,,,,,,1.27,0.68,1.08,3*0C
$GNGSA,A,3,09,11,13,06,,,,,,,,,1.27,0.68,1.08,4*0A
$GPGSV,4,1,13,01,00,121,,02,33,300,36,04,52,247,36,07,84,121,37,0*6F
$GPGSV,4,2,13,08,47,207,36,10,01,310,,13,50,031,37,16,01,039,,0*65
$GPGSV,4,3,13,20,23,121,36,23,28,057,,25,67,043,37,27,18,219,,0*6E
$GPGSV,4,4,13,28,00,182,,0*56
$GAGSV,2,1,08,09,13,317,36,10,64,334,38,11,56,117,37,12,07,130,,0*7E
$GAGSV,2,2,08,17,31,040,37,23,38,222,37,24,86,021,38,27,31,126,37,0*72
$GBGSV,3,1,09,01,38,122,30,02,50,173,30,04,36,126,30,06,37,216,29,0*7E
$GBGSV,3,2,09,09,37,287,29,11,18,131,29,12,10,061,,13,49,203,30,0*7D
$GBGSV,3,3,09,14,09,165,,0*40
$GNGLL,3000.24497,N,12000.44587,E,000008.00,A,A*79

$GNRMC,000009.00,A,3000.23490,N,12000.46729,E,75.573,120.20,230721,5.69,W,A,V*75
$GNVTG,120.20,T,125.89,M,75.573,N,139.961,K,A*0D
$GNGGA,000009.00,3000.23490,N,12000.46729,E,1,12,0.68,-7.8,M,7.0,M,,*51
$GNGSA,A,3,07,25,13,04,08,02,20,,,,,,1.27,0.68,1.08,1*0C
$GNGSA,A,3,23,09,27,24,11,10,17,,,,,,1.27,0.68,1.08,3*0C
$GNGSA,A,3,09,11,13,06,,,,,,,,,1.27,0.68,1.08,4*0A
$GPGSV,4,1,13,01,00,121,,02,33,300,36,04,52,247,36,07,84,121,37,0*6F
$GPGSV,4,2,13,08,47,207,37,10,01,310,,13,50,031,36,16,01,039,,0*65
$GPGSV,4,3,13,20,23,121,36,23,28,057,,25,67,043,37,27,18,219,,0*6E
$GPGSV,4,4,13,28,00,182,,0*56
$GAGSV,2,1,08,09,13,317,36,10,64,334,38,11,56,117,37,12,07,130,,0*7E
$GAGSV,2,2,08,17,31,040,37,23,38,222,37,24,86,021,38,27,31,126,37,0*72
$GBGSV,3,1,09,01,38,122,29,02,50,173,30,04,36,126,30,06,37,216,29,0*76
$GBGSV,3,2,09,09,37,287,29,11,18,131,29,12,10,061,,13,49,203,30,0*7D
$GBGSV,3,3,09,14,09,165,,0*40
$GNGLL,3000.23490,N,12000.46729,E,000009.00,A,A*7C

$GNRMC,000010.00,A,3000.22338,N,12000.48758,E,75.581,124.65,230721,5.69,W,A,V*79
$GNVTG,124.65,T,130.34,M,75.581,N,139.976,K,A*01
$GNGGA,000010.00,3000.22338,N,12000.48758,E,1,12,0.68,-7.4,M,7.0,M,,*59
$GNGSA,A,3,07,25,13,04,08,02,20,,,,,,1.27,0.68,1.08,1*0C
$GNGSA,A,3,23,09,27,24,11,10,17,,,,,,1.27,0.68,1.08,3*0C
$GNGSA,A,3,09,11,13,06,,,,,,,,,1.27,0.68,1.08,4*0A
$GPGSV,4,1,13,01,00,121,,02,33,300,36,04,52,247,36,07,84,121,37,0*6F
$GPGSV,4,2,13,08,47,207,36,10,01,310,,13,50,031,37,16,01,039,,0*65
$GPGSV,4,3,13,20,23,121,36,23,28,057,,25,67,043,37,27,18,219,,0*6E
$GPGSV,4,4,13,28,00,182,,0*56
$GAGSV,2,1,08,09,13,317,36,10,64,334,38,11,56,117,37,12,07,130,,0*7E
$GAGSV,2,2,08,17,31,040,37,23,38,222,37,24,86,021,38,27,31,126,37,0*72
$GBGSV,3,1,09,01,38,122,30,02,50,173,30,04,36,126,29,06,37,216,29,0*76
$GBGSV,3,2,09,09,37,287,29,11,18,131,29,12,10,061,,13,49,203,30,0*7D
$GBGSV,3,3,09,14,09,165,,0*40
$GNGLL,3000.22338,N,12000.48758,E,000010.00,A,A*78

$GNRMC,000011.00,A,3000.21062,N,12000.50686,E,75.585,129.11,230721,5.69,W,A,V*76
$GNVTG,129.11,T,134.79,M,75.585,N,139.983,K,A*0C
$GNGGA,000011.00,3000.21062,N,12000.50686,E,1,12,0.68,-7.0,M,7.0,M,,*58
$GNGSA,A,3,07,25,13,04,08,02,20,,,,,,1.27,0.68,1.08,1*0C
$GNGSA,A,3,23,09,27,24,11,10,17,,,,,,1.27,0.68,1.08,3*0C
$GNGSA,A,3,09,11,13,06,,,,,,,,,1.27,0.68,1.08,4*0A
$GPGSV,4,1,13,01,00,121,,02,33,300,36,04,52,247,36,07,84,121,37,0*6F
$GPGSV,4,2,13,08,47,207,36,10,01,310,,13,50,031,36,16,01,039,,0*64
$GPGSV,4,3,13,20,23,121,36,23,28,057,,25,67,043,37,27,18,219,,0*6E
$GPGSV,4,4,13,28,00,182,,0*56
$GAGSV,2,1,08,09,13,317,36,10,64,334,38,11,56,117,37,12,07,130,,0*7E
$GAGSV,2,2,08,17,31,040,37,23,38,222,37,24,86,021,38,27,31,126,37,0*72
$GBGSV,3,1,09,01,38,122,30,02,50,173,30,04,36,126,30,06,37,216,29,0*7E
$GBGSV,3,2,09,09,37,287,29,11,18,131,29,12,10,061,,13,49,203,30,0*7D
$GBGSV,3,3,09,14,09,165,,0*40
$GNGLL,3000.21062,N,12000.50686,E,000011.00,A,A*7D

$GNRMC,000012.00,A,3000.19663,N,12000.52511,E,75.589,133.58,230721,5.69,W,A,V*7C
$GNVTG,133.58,T,139.27,M,75.589,N,139.992,K,A*00
$GNGGA,000012.00,3000.19663,N,12000.52511,E,1,12,0.68,-6.9,M,7.0,M,,*50
$GNGSA,A,3,07,25,13,04,08,02,20,,,,,,1.27,0.68,1.08,1*0C
$GNGSA,A,3,23,09,27,24,11,10,17,,,,,,1.27,0.68,1.08,3*0C
$GNGSA,A,3,09,11,13,06,,,,,,,,,1.27,0.68,1.08,4*0A
$GPGSV,4,1,13,01,00,121,,02,33,300,36,04,52,247,37,07,84,121,37,0*6E
$GPGSV,4,2,13,08,47,207,36,10,01,310,,13,50,031,37,16,01,039,,0*65
$GPGSV,4,3,13,20,23,121,36,23,28,057,,25,67,043,37,27,18,219,,0*6E
$GPGSV,4,4,13,28,00,182,,0*56
$GAGSV,2,1,08,09,13,317,36,10,64,334,38,11,56,117,37,12,07,130,,0*7E
$GAGSV,2,2,08,17,31,040,37,23,38,222,37,24,86,021,38,27,31,126,37,0*72
$GBGSV,3,1,09,01,38,122,30,02,50,173,30,04,36,126,30,06,37,216,29,0*7E
$GBGSV,3,2,09,09,37,287,29,11,18,131,29,12,10,061,,13,49,203,30,0*7D
$GBGSV,3,3,09,14,09,165,,0*40
$GNGLL,3000.19663,N,12000.52511,E,000012.00,A,A*7D

$GNRMC,000013.00,A,3000.18154,N,12000.54197,E,75.575,138.02,230721,5.69,W,A,V*74
$GNVTG,138.02,T,143.71,M,75.575,N,139.965,K,A*01
$GNGGA,000013.00,3000.18154,N,12000.54197,E,1,12,0.68,-7.0,M,7.0,M,,*57
$GNGSA,A,3,07,25,13,04,08,02,20,,,,,,1.27,0.68,1.08,1*0C
$GNGSA,A,3,23,09,27,24,11,10,17,,,,,,1.27,0.68,1.08,3*0C
$GNGSA,A,3,09,11,13,06,,,,,,,,,1.27,0.68,1.08,4*0A
$GPGSV,4,1,13,01,00,121,,02,33,300,36,04,52,247,37,07,84,121,37,0*6E
$GPGSV,4,2,13,08,47,207,37,10,01,310,,13,50,031,36,16,01,039,,0*65
$GPGSV,4,3,13,20,23,121,36,23,28,057,,25,67,043,37,27,18,219,,0*6E
$GPGSV,4,4,13,28,00,182,,0*56
$GAGSV,2,1,08,09,13,317,36,10,64,334,38,11,56,117,37,12,07,130,,0*7E
$GAGSV,2,2,08,17,31,040,37,23,38,222,37,24,86,021,38,27,31,126,37,0*72
$GBGSV,3,1,09,01,38,122,30,02,50,173,30,04,36,126,30,06,37,216,29,0*7E
$GBGSV,3,2,09,09,37,287,29,11,18,131,29,12,10,061,,13,49,203,30,0*7D
$GBGSV,3,3,09,14,09,165,30,0*43
$GNGLL,3000.18154,N,12000.54197,E,000013.00,A,A*72

$GNRMC,000014.00,A,3000.16534,N,12000.55744,E,75.575,142.49,230721,5.69,W,A,V*74
$GNVTG,142.49,T,148.18,M,75.575,N,139.965,K,A*07
$GNGGA,000014.00,3000.16534,N,12000.55744,E,1,12,0.68,-7.1,M,7.0,M,,*54
$GNGSA,A,3,07,25,13,04,08,02,20,,,,,,1.27,0.68,1.08,1*0C
$GNGSA,A,3,23,09,27,24,11,10,17,,,,,,1.27,0.68,1.08,3*0C
$GNGSA,A,3,09,11,13,06,,,,,,,,,1.27,0.68,1.08,4*0A
$GPGSV,4,1,13,01,00,121,,02,33,300,36,04,52,247,37,07,84,121,37,0*6E
$GPGSV,4,2,13,08,47,207,36,10,01,310,,13,50,031,36,16,01,039,,0*64
$GPGSV,4,3,13,20,23,121,36,23,28,057,,25,67,043,37,27,18,219,,0*6E
$GPGSV,4,4,13,28,00,182,,0*56
$GAGSV,2,1,08,09,13,317,36,10,64,334,37,11,56,117,38,12,07,130,,0*7E
$GAGSV,2,2,08,17,31,040,37,23,38,222,37,24,86,021,38,27,31,126,37,0*72
$GBGSV,3,1,09,01,38,122,29,02,50,173,30,04,36,126,30,06,37,216,29,0*76
$GBGSV,3,2,09,09,37,287,29,11,18,131,29,12,10,061,,13,49,203,30,0*7D
$GBGSV,3,3,09,14,09,165,29,0*4B
$GNGLL,3000.16534,N,12000.55744,E,000014.00,A,A*70

$GNRMC,000015.00,A,3000.14813,N,12000.57141,E,75.606,146.92,230721,5.69,W,A,V*7B
$GNVTG,146.92,T,152.61,M,75.606,N,140.023,K,A*02
$GNGGA,000015.00,3000.14813,N,12000.57141,E,1,12,0.68,-7.1,M,7.0,M,,*5E
$GNGSA,A,3,07,25,13,04,08,02,20,,,,,,1.27,0.68,1.08,1*0C
$GNGSA,A,3,23,09,27,24,11,10,17,,,,,,1.27,0.68,1.08,3*0C
$GNGSA,A,3,09,11,13,06,,,,,,,,,1.27,0.68,1.08,4*0A
$GPGSV,4,1,13,01,00,121,,02,33,300,36,04,52,247,37,07,84,121,37,0*6E
$GPGSV,4,2,13,08,47,207,36,10,01,310,,13,50,031,37,16,01,039,,0*65
$GPGSV,4,3,13,20,23,121,36,23,28,057,,25,67,043,37,27,18,219,,0*6E
$GPGSV,4,4,13,28,00,182,,0*56
$GAGSV,2,1,08,09,13,317,36,10,64,334,38,11,56,117,37,12,07,130,,0*7E
$GAGSV,2,2,08,17,31,040,37,23,38,222,37,24,86,021,38,27,31,126,37,0*72
$GBGSV,3,1,09,01,38,122,29,02,50,173,30,04,36,126,29,06,37,216,29,0*7E
$GBGSV,3,2,09,09,37,287,29,11,18,131,29,12,10,061,,13,49,203,30,0*7D
$GBGSV,3,3,09,14,09,165,29,0*4B
$GNGLL,3000.14813,N,12000.57141,E,000015.00,A,A*7A

$GNRMC,000016.00,A,3000.13004,N,12000.58381,E,75.563,151.38,230721,5.69,W,A,V*76
$GNVTG,151.38,T,157.06,M,75.563,N,139.943,K,A*01
$GNGGA,000016.00,3000.13004,N,12000.58381,E,1,12,0.68,-7.1,M,7.0,M,,*55
$GNGSA,A,3,07,25,13,04,08,02,20,,,,,,1.27,0.68,1.08,1*0C
$GNGSA,A,3,23,09,27,24,11,10,17,,,,,,1.27,0.68,1.08,3*0C
$GNGSA,A,3,09,11,13,06,,,,,,,,,1.27,0.68,1.08,4*0A
$GPGSV,4,1,13,01,00,121,,02,33,300,36,04,52,247,37,07,84,121,37,0*6E
$GPGSV,4,2,13,08,47,207,36,10,01,310,,13,50,031,37,16,01,039,,0*65
$GPGSV,4,3,13,20,23,121,27,23,28,057,,25,67,043,37,27,18,219,,0*6E
$GPGSV,4,4,13,28,00,182,,0*56
$GAGSV,2,1,08,09,13,317,36,10,64,334,37,11,56,117,37,12,07,130,,0*71
$GAGSV,2,2,08,17,31,040,37,23,38,222,37,24,86,021,38,27,31,126,37,0*72
$GBGSV,3,1,09,01,38,122,30,02,50,173,30,04,36,126,29,06,37,216,29,0*76
$GBGSV,3,2,09,09,37,287,29,11,18,131,29,12,10,061,,13,49,203,30,0*7D
$GBGSV,3,3,09,14,09,165,29,0*4B
$GNGLL,3000.13004,N,12000.58381,E,000016.00,A,A*71

$GNRMC,000017.00,A,3000.11118,N,12000.59455,E,75.578,155.86,230721,5.69,W,A,V*7D
$GNVTG,155.86,T,161.55,M,75.578,N,139.970,K,A*09
$GNGGA,000017.00,3000.11118,N,12000.59455,E,1,12,0.70,-7.0,M,7.0,M,,*5D
$GNGSA,A,3,07,25,13,04,08,02,,,,,,,1.34,0.70,1.13,1*0F
$GNGSA,A,3,23,09,27,24,11,10,17,,,,,,1.34,0.70,1.13,3*0D
$GNGSA,A,3,09,11,13,06,,,,,,,,,1.34,0.70,1.13,4*0B
$GPGSV,4,1,13,01,00,121,,02,33,300,36,04,52,247,37,07,84,121,37,0*6E
$GPGSV,4,2,13,08,47,207,37,10,01,310,,13,50,031,36,16,01,039,,0*65
$GPGSV,4,3,13,20,23,121,12,23,28,057,,25,67,043,37,27,18,219,,0*68
$GPGSV,4,4,13,28,00,182,,0*56
$GAGSV,2,1,08,09,13,317,36,10,64,334,37,11,56,117,37,12,07,130,,0*71
$GAGSV,2,2,08,17,31,040,37,23,38,222,37,24,86,021,38,27,31,126,37,0*72
$GBGSV,3,1,09,01,38,122,30,02,50,173,29,04,36,126,30,06,37,216,29,0*76
$GBGSV,3,2,09,09,37,287,29,11,18,131,29,12,10,061,,13,49,203,30,0*7D
$GBGSV,3,3,09,14,09,165,29,0*4B
$GNGLL,3000.11118,N,12000.59455,E,000017.00,A,A*71

$GNRMC,000018.00,A,3000.09165,N,12000.60357,E,75.599,160.30,230721,5.69,W,A,V*7A
$GNVTG,160.30,T,165.99,M,75.599,N,140.010,K,A*08
$GNGGA,000018.00,3000.09165,N,12000.60357,E,1,12,0.70,-7.0,M,7.0,M,,*5E
$GNGSA,A,3,07,25,13,04,08,02,,,,,,,1.34,0.70,1.13,1*0F
$GNGSA,A,3,23,09,27,24,11,10,17,,,,,,1.34,0.70,1.13,3*0D
$GNGSA,A,3,09,11,13,06,,,,,,,,,1.34,0.70,1.13,4*0B
$GPGSV,4,1,13,01,00,121,,02,33,300,36,04,52,247,36,07,84,121,37,0*6F
$GPGSV,4,2,13,08,47,207,36,10,01,310,,13,50,031,37,16,01,039,,0*65
$GPGSV,4,3,13,20,23,121,08,23,28,057,,25,67,043,37,27,18,219,,0*63
$GPGSV,4,4,13,28,00,182,,0*56
$GAGSV,2,1,08,09,13,317,36,10,64,334,38,11,56,117,37,12,07,130,,0*7E
$GAGSV,2,2,08,17,31,040,37,23,38,222,37,24,86,021,38,27,31,126,37,0*72
$GBGSV,3,1,09,01,38,122,30,02,50,173,30,04,36,126,30,06,37,216,29,0*7E
$GBGSV,3,2,09,09,37,287,29,11,18,131,29,12,10,061,,13,49,203,30,0*7D
$GBGSV,3,3,09,14,09,165,29,0*4B
$GNGLL,3000.09165,N,12000.60357,E,000018.00,A,A*72

$GNRMC,000019.00,A,3000.07157,N,12000.61083,E,75.564,164.76,230721,5.69,W,A,V*7B
$GNVTG,164.76,T,170.44,M,75.564,N,139.945,K,A*0F
$GNGGA,000019.00,3000.07157,N,12000.61083,E,1,12,0.78,-6.9,M,7.0,M,,*5B
$GNGSA,A,3,07,25,13,04,08,02,,,,,,,1.55,0.78,1.34,1*05
$GNGSA,A,3,23,09,27,24,11,10,17,,,,,,1.55,0.78,1.34,3*07
$GNGSA,A,3,09,13,06,,,,,,,,,,1.55,0.78,1.34,4*01
$GPGSV,4,1,13,01,00,121,,02,33,300,36,04,52,247,36,07,84,121,37,0*6F
$GPGSV,4,2,13,08,47,207,37,10,01,310,,13,50,031,36,16,01,039,,0*65
$GPGSV,4,3,13,20,23,121,,23,28,057,,25,67,043,37,27,18,219,,0*6B
$GPGSV,4,4,13,28,00,182,,0*56
$GAGSV,2,1,08,09,13,317,36,10,64,334,37,11,56,117,37,12,07,130,,0*71
$GAGSV,2,2,08,17,31,040,37,23,38,222,37,24,86,021,38,27,31,126,37,0*72
$GBGSV,3,1,09,01,38,122,30,02,50,173,30,04,36,126,30,06,37,216,29,0*7E
$GBGSV,3,2,09,09,37,287,29,11,18,131,19,12,10,061,,13,49,203,30,0*7E
$GBGSV,3,3,09,14,09,165,29,0*4B
$GNGLL,3000.07157,N,12000.61083,E,000019.00,A,A*77

$GNRMC,000020.00,A,3000.05108,N,12000.61625,E,75.597,169.22,230721,5.69,W,A,V*73
$GNVTG,169.22,T,174.91,M,75.597,N,140.005,K,A*00
$GNGGA,000020.00,3000.05108,N,12000.61625,E,1,12,0.82,-6.9,M,7.0,M,,*56
$GNGSA,A,3,07,25,13,04,08,02,,,,,,,1.81,0.82,1.62,1*0A
$GNGSA,A,3,23,27,24,11,10,17,,,,,,,1.81,0.82,1.62,3*01
$GNGSA,A,3,09,13,06,,,,,,,,,,1.81,0.82,1.62,4*0E
$GPGSV,4,1,13,01,00,121,,02,33,300,36,04,52,247,37,07,84,121,37,0*6E
$GPGSV,4,2,13,08,47,207,36,10,01,310,,13,50,031,37,16,01,039,,0*65
$GPGSV,4,3,13,20,23,121,,23,28,057,,25,67,043,37,27,18,219,,0*6B
$GPGSV,4,4,13,28,00,182,,0*56
$GAGSV,2,1,08,09,13,317,17,10,64,334,37,11,56,117,37,12,07,130,,0*72
$GAGSV,2,2,08,17,31,040,37,23,38,222,37,24,86,021,38,27,31,126,37,0*72
$GBGSV,3,1,09,01,38,122,29,02,50,173,30,04,36,126,30,06,37,216,29,0*76
$GBGSV,3,2,09,09,37,287,29,11,18,131,16,12,10,061,,13,49,203,30,0*71
$GBGSV,3,3,09,14,09,165,29,0*4B
$GNGLL,3000.05108,N,12000.61625,E,000020.00,A,A*7F

$GNRMC,000021.00,A,3000.03028,N,12000.61982,E,75.595,173.68,230721,5.69,W,A,V*72
$GNVTG,173.68,T,179.37,M,75.595,N,140.002,K,A*01
$GNGGA,000021.00,3000.03028,N,12000.61982,E,1,12,0.82,-6.8,M,7.0,M,,*51
$GNGSA,A,3,07,25,13,04,08,02,,,,,,,1.81,0.82,1.62,1*0A
$GNGSA,A,3,23,27,24,11,10,17,,,,,,,1.81,0.82,1.62,3*01
$GNGSA,A,3,09,13,06,,,,,,,,,,1.81,0.82,1.62,4*0E
$GPGSV,4,1,13,01,00,121,,02,33,300,36,04,52,247,37,07,84,121,37,0*6E
$GPGSV,4,2,13,08,47,207,36,10,01,310,,13,50,031,37,16,01,039,,0*65
$GPGSV,4,3,13,20,23,121,,23,28,057,,25,67,043,37,27,18,219,,0*6B
$GPGSV,4,4,13,28,00,182,,0*56
$GAGSV,2,1,08,09,13,317,13,10,64,334,38,11,56,117,37,12,07,130,,0*79
$GAGSV,2,2,08,17,31,040,37,23,38,222,37,24,86,021,38,27,31,126,37,0*72
$GBGSV,3,1,09,01,38,122,30,02,50,173,30,04,36,126,30,06,37,216,29,0*7E
$GBGSV,3,2,09,09,37,287,29,11,18,131,,12,10,061,,13,49,203,30,0*76
$GBGSV,3,3,09,14,09,165,29,0*4B
$GNGLL,3000.03028,N,12000.61982,E,000021.00,A,A*79

$GNRMC,000022.00,A,3000.00930,N,12000.62152,E,75.621,178.13,230721,5.69,W,A,V*7F
$GNVTG,178.13,T,183.82,M,75.621,N,140.051,K,A*07
$GNGGA,000022.00,3000.00930,N,12000.62152,E,1,12,0.82,-6.8,M,7.0,M,,*57
$GNGSA,A,3,07,25,13,04,08,02,,,,,,,1.81,0.82,1.62,1*0A
$GNGSA,A,3,23,27,24,11,10,17,,,,,,,1.81,0.82,1.62,3*01
$GNGSA,A,3,09,13,06,,,,,,,,,,1.81,0.82,1.62,4*0E
$GPGSV,4,1,13,01,00,121,,02,33,300,36,04,52,247,36,07,84,121,37,0*6F
$GPGSV,4,2,13,08,47,207,36,10,01,310,,13,50,031,37,16,01,039,,0*65
$GPGSV,4,3,13,20,23,121,,23,28,057,,25,67,043,37,27,18,219,,0*6B
$GPGSV,4,4,13,28,00,182,,0*56
$GAGSV,2,1,08,09,13,317,09,10,64,334,37,11,56,117,37,12,07,130,,0*7D
$GAGSV,2,2,08,17,31,040,37,23,38,222,37,24,86,021,38,27,31,126,37,0*72
$GBGSV,3,1,09,01,38,122,30,02,50,173,30,04,36,126,30,06,37,216,29,0*7E
$GBGSV,3,2,09,09,37,287,29,11,18,131,,12,10,061,,13,49,203,30,0*76
$GBGSV,3,3,09,14,09,165,29,0*4B
$GNGLL,3000.00930,N,12000.62152,E,000022.00,A,A*7F

$GNRMC,000023.00,A,2959.98825,N,12000.62135,E,75.611,182.58,230721,5.69,W,A,V*76
$GNVTG,182.58,T,188.27,M,75.611,N,140.032,K,A*0F
$GNGGA,000023.00,2959.98825,N,12000.62135,E,1,12,0.82,-6.7,M,7.0,M,,*58
$GNGSA,A,3,07,25,13,04,08,02,,,,,,,1.81,0.82,1.62,1*0A
$GNGSA,A,3,23,27,24,11,10,17,,,,,,,1.81,0.82,1.62,3*01
$GNGSA,A,3,09,13,06,,,,,,,,,,1.81,0.82,1.62,4*0E
$GPGSV,4,1,13,01,00,121,,02,33,300,36,04,52,247,37,07,84,121,37,0*6E
$GPGSV,4,2,13,08,47,207,36,10,01,310,,13,50,031,37,16,01,039,,0*65
$GPGSV,4,3,13,20,23,121,,23,28,057,,25,67,043,37,27,18,219,,0*6B
$GPGSV,4,4,13,28,00,182,,0*56
$GAGSV,2,1,08,09,13,317,,10,64,334,38,11,56,117,37,12,07,130,,0*7B
$GAGSV,2,2,08,17,31,040,37,23,38,222,37,24,86,021,38,27,31,126,37,0*72
$GBGSV,3,1,09,01,38,122,30,02,50,173,30,04,36,126,30,06,37,216,29,0*7E
$GBGSV,3,2,09,09,37,287,29,11,18,131,,12,10,061,,13,49,203,30,0*76
$GBGSV,3,3,09,14,09,165,29,0*4B
$GNGLL,2959.98825,N,12000.62135,E,000023.00,A,A*7F

$GNRMC,000024.00,A,2959.96729,N,12000.61931,E,75.603,187.04,230721,5.69,W,A,V*7C
$GNVTG,187.04,T,192.73,M,75.603,N,140.016,K,A*0C
$GNGGA,000024.00,2959.96729,N,12000.61931,E,1,12,0.82,-6.7,M,7.0,M,,*5D
$GNGSA,A,3,07,25,13,04,08,02,,,,,,,1.81,0.82,1.62,1*0A
$GNGSA,A,3,23,27,24,11,10,17,,,,,,,1.81,0.82,1.62,3*01
$GNGSA,A,3,09,13,06,,,,,,,,,,1.81,0.82,1.62,4*0E
$GPGSV,4,1,13,01,00,121,,02,33,300,36,04,52,247,36,07,84,121,37,0*6F
$GPGSV,4,2,13,08,47,207,36,10,01,310,,13,50,031,37,16,01,039,,0*65
$GPGSV,4,3,13,20,23,121,,23,28,057,,25,67,043,37,27,18,219,,0*6B
$GPGSV,4,4,13,28,00,182,,0*56
$GAGSV,2,1,08,09,13,317,,10,64,334,38,11,56,117,37,12,07,130,,0*7B
$GAGSV,2,2,08,17,31,040,37,23,38,222,37,24,86,021,38,27,31,126,37,0*72
$GBGSV,3,1,09,01,38,122,30,02,50,173,29,04,36,126,30,06,37,216,29,0*76
$GBGSV,3,2,09,09,37,287,29,11,18,131,,12,10,061,,13,49,203,30,0*76
$GBGSV,3,3,09,14,09,165,29,0*4B
$GNGLL,2959.96729,N,12000.61931,E,000024.00,A,A*7A

$GNRMC,000025.00,A,2959.94653,N,12000.61540,E,75.634,191.51,230721,5.69,W,A,V*7A
$GNVTG,191.51,T,197.20,M,75.634,N,140.074,K,A*08
$GNGGA,000025.00,2959.94653,N,12000.61540,E,1,12,0.81,-6.7,M,7.0,M,,*5B
$GNGSA,A,3,07,25,13,04,08,02,27,,,,,,1.63,0.81,1.42,1*02
$GNGSA,A,3,23,27,24,11,10,17,,,,,,,1.63,0.81,1.42,3*0C
$GNGSA,A,3,09,13,06,,,,,,,,,,1.63,0.81,1.42,4*03
$GPGSV,4,1,13,01,00,121,,02,33,300,36,04,52,247,37,07,84,121,37,0*6E
$GPGSV,4,2,13,08,47,207,36,10,01,310,,13,50,031,37,16,01,039,,0*65
$GPGSV,4,3,13,20,23,121,,23,28,057,,25,67,043,37,27,18,219,35,0*6D
$GPGSV,4,4,13,28,00,182,,0*56
$GAGSV,2,1,08,09,13,317,,10,64,334,38,11,56,117,37,12,07,130,,0*7B
$GAGSV,2,2,08,17,31,040,37,23,38,222,37,24,86,021,38,27,31,126,37,0*72
$GBGSV,3,1,09,01,38,122,29,02,50,173,30,04,36,126,30,06,37,216,29,0*76
$GBGSV,3,2,09,09,37,287,29,11,18,131,,12,10,061,,13,49,203,30,0*76
$GBGSV,3,3,09,14,09,165,29,0*4B
$GNGLL,2959.94653,N,12000.61540,E,000025.00,A,A*7F

$GNRMC,000026.00,A,2959.92609,N,12000.60965,E,75.586,195.94,230721,5.69,W,A,V*7D
$GNVTG,195.94,T,201.62,M,75.586,N,139.985,K,A*0C
$GNGGA,000026.00,2959.92609,N,12000.60965,E,1,12,0.81,-6.7,M,7.0,M,,*5B
$GNGSA,A,3,07,25,13,04,08,02,27,,,,,,1.63,0.81,1.42,1*02
$GNGSA,A,3,23,27,24,11,10,17,,,,,,,1.63,0.81,1.42,3*0C
$GNGSA,A,3,09,13,06,,,,,,,,,,1.63,0.81,1.42,4*03
$GPGSV,4,1,13,01,00,121,,02,33,300,36,04,52,247,37,07,84,121,37,0*6E
$GPGSV,4,2,13,08,47,207,36,10,01,310,,13,50,031,37,16,01,039,,0*65
$GPGSV,4,3,13,20,23,121,,23,28,057,,25,67,043,37,27,18,219,35,0*6D
$GPGSV,4,4,13,28,00,182,,0*56
$GAGSV,2,1,08,09,13,317,,10,64,334,38,11,56,117,37,12,07,130,,0*7B
$GAGSV,2,2,08,17,31,040,37,23,38,222,37,24,86,021,38,27,31,126,37,0*72
$GBGSV,3,1,09,01,38,122,30,02,50,173,30,04,36,126,29,06,37,216,29,0*76
$GBGSV,3,2,09,09,37,287,29,11,18,131,,12,10,061,,13,49,203,30,0*76
$GBGSV,3,3,09,14,09,165,19,0*48
$GNGLL,2959.92609,N,12000.60965,E,000026.00,A,A*7F

$GNRMC,000027.00,A,2959.90610,N,12000.60210,E,75.600,200.39,230721,5.69,W,A,V*7A
$GNVTG,200.39,T,206.08,M,75.600,N,140.011,K,A*08
$GNGGA,000027.00,2959.90610,N,12000.60210,E,1,12,0.81,-6.8,M,7.0,M,,*56
$GNGSA,A,3,07,25,13,04,08,02,27,,,,,,1.63,0.81,1.42,1*02
$GNGSA,A,3,23,27,24,11,10,17,,,,,,,1.63,0.81,1.42,3*0C
$GNGSA,A,3,09,13,06,,,,,,,,,,1.63,0.81,1.42,4*03
$GPGSV,4,1,13,01,00,121,,02,33,300,36,04,52,247,36,07,84,121,37,0*6F
$GPGSV,4,2,13,08,47,207,36,10,01,310,,13,50,031,37,16,01,039,,0*65
$GPGSV,4,3,13,20,23,121,,23,28,057,,25,67,043,37,27,18,219,36,0*6E
$GPGSV,4,4,13,28,00,182,,0*56
$GAGSV,2,1,08,09,13,317,,10,64,334,38,11,56,117,37,12,07,130,,0*7B
$GAGSV,2,2,08,17,31,040,37,23,38,222,37,24,86,021,38,27,31,126,37,0*72
$GBGSV,3,1,09,01,38,122,30,02,50,173,30,04,36,126,30,06,37,216,29,0*7E
$GBGSV,3,2,09,09,37,287,29,11,18,131,,12,10,061,,13,49,203,30,0*76
$GBGSV,3,3,09,14,09,165,14,0*45
$GNGLL,2959.90610,N,12000.60210,E,000027.00,A,A*7D

$GNRMC,000028.00,A,2959.88668,N,12000.59278,E,75.579,204.84,230721,5.69,W,A,V*78
$GNVTG,204.84,T,210.53,M,75.579,N,139.973,K,A*0D
$GNGGA,000028.00,2959.88668,N,12000.59278,E,1,12,0.81,-6.8,M,7.0,M,,*5B
$GNGSA,A,3,07,25,13,04,08,02,27,,,,,,1.63,0.81,1.42,1*02
$GNGSA,A,3,23,27,24,11,10,17,,,,,,,1.63,0.81,1.42,3*0C
$GNGSA,A,3,09,13,06,,,,,,,,,,1.63,0.81,1.42,4*03
$GPGSV,4,1,13,01,00,121,,02,33,300,36,04,52,247,37,07,84,121,37,0*6E
$GPGSV,4,2,13,08,47,207,36,10,01,310,,13,50,031,37,16,01,039,,0*65
$GPGSV,4,3,13,20,23,121,,23,28,057,,25,67,043,37,27,18,219,36,0*6E
$GPGSV,4,4,13,28,00,182,,0*56
$GAGSV,2,1,08,09,13,317,,10,64,334,37,11,56,117,37,12,07,130,,0*74
$GAGSV,2,2,08,17,31,040,37,23,38,222,37,24,86,021,38,27,31,126,37,0*72
$GBGSV,3,1,09,01,38,122,30,02,50,173,30,04,36,126,30,06,37,216,29,0*7E
$GBGSV,3,2,09,09,37,287,30,11,18,131,,12,10,061,,13,49,203,30,0*7E
$GBGSV,3,3,09,14,09,165,10,0*41
$GNGLL,2959.88668,N,12000.59278,E,000028.00,A,A*70

$GNRMC,000029.00,A,2959.86796,N,12000.58178,E,75.585,209.33,230721,5.69,W,A,V*77
$GNVTG,209.33,T,215.02,M,75.585,N,139.983,K,A*01
$GNGGA,000029.00,2959.86796,N,12000.58178,E,1,12,0.76,-6.7,M,7.0,M,,*51
$GNGSA,A,3,07,25,23,13,04,08,02,27,,,,,1.50,0.76,1.29,1*06
$GNGSA,A,3,23,27,24,11,10,17,,,,,,,1.50,0.76,1.29,3*09
$GNGSA,A,3,09,13,06,,,,,,,,,,1.50,0.76,1.29,4*06
$GPGSV,4,1,13,01,00,121,,02,33,300,36,04,52,247,37,07,84,121,37,0*6E
$GPGSV,4,2,13,08,47,207,36,10,01,310,,13,50,031,37,16,01,039,,0*65
$GPGSV,4,3,13,20,23,121,,23,28,057,36,25,67,043,37,27,18,219,35,0*68
$GPGSV,4,4,13,28,00,182,,0*56
$GAGSV,2,1,08,09,13,317,,10,64,334,37,11,56,117,37,12,07,130,,0*74
$GAGSV,2,2,08,17,31,040,37,23,38,222,37,24,86,021,38,27,31,126,37,0*72
$GBGSV,3,1,09,01,38,122,30,02,50,173,30,04,36,126,29,06,37,216,29,0*76
$GBGSV,3,2,09,09,37,287,30,11,18,131,,12,10,061,,13,49,203,30,0*7E
$GBGSV,3,3,09,14,09,165,09,0*49
$GNGLL,2959.86796,N,12000.58178,E,000029.00,A,A*7D

$GNRMC,000030.00,A,2959.85003,N,12000.56912,E,75.594,213.77,230721,5.69,W,A,V*76
$GNVTG,213.77,T,219.46,M,75.594,N,140.000,K,A*0A
$GNGGA,000030.00,2959.85003,N,12000.56912,E,1,12,0.76,-6.8,M,7.0,M,,*54
$GNGSA,A,3,07,25,23,13,04,08,02,27,,,,,1.50,0.76,1.29,1*06
$GNGSA,A,3,23,27,24,11,10,17,,,,,,,1.50,0.76,1.29,3*09
$GNGSA,A,3,09,13,06,,,,,,,,,,1.50,0.76,1.29,4*06
$GPGSV,4,1,13,01,00,121,,02,33,300,36,04,52,247,37,07,84,121,37,0*6E
$GPGSV,4,2,13,08,47,207,36,10,01,310,,13,50,031,37,16,01,039,,0*65
$GPGSV,4,3,13,20,23,121,,23,28,057,36,25,67,043,37,27,18,219,36,0*6B
$GPGSV,4,4,13,28,00,182,,0*56
$GAGSV,2,1,08,09,13,317,,10,64,334,38,11,56,117,37,12,07,130,,0*7B
$GAGSV,2,2,08,17,31,040,37,23,38,222,37,24,86,021,38,27,31,126,37,0*72
$GBGSV,3,1,09,01,38,122,30,02,50,173,30,04,36,126,30,06,37,216,29,0*7E
$GBGSV,3,2,09,09,37,287,30,11,18,131,,12,10,061,26,13,49,203,30,0*7A
$GBGSV,3,3,09,14,09,165,09,0*49
$GNGLL,2959.85003,N,12000.56912,E,000030.00,A,A*77

$GNRMC,000031.00,A,2959.83303,N,12000.55492,E,75.574,218.25,230721,5.69,W,A,V*76
$GNVTG,218.25,T,223.93,M,75.574,N,139.963,K,A*0B
$GNGGA,000031.00,2959.83303,N,12000.55492,E,1,12,0.74,-6.9,M,7.0,M,,*55
$GNGSA,A,3,07,25,23,13,04,08,02,27,,,,,1.31,0.74,1.08,1*00
$GNGSA,A,3,23,27,24,11,10,17,,,,,,,1.31,0.74,1.08,3*0F
$GNGSA,A,3,09,12,13,06,,,,,,,,,1.31,0.74,1.08,4*03
$GPGSV,4,1,13,01,00,121,,02,33,300,36,04,52,247,37,07,84,121,37,0*6E
$GPGSV,4,2,13,08,47,207,36,10,01,310,,13,50,031,36,16,01,039,,0*64
$GPGSV,4,3,13,20,23,121,,23,28,057,36,25,67,043,37,27,18,219,36,0*6B
$GPGSV,4,4,13,28,00,182,,0*56
$GAGSV,2,1,08,09,13,317,,10,64,334,37,11,56,117,37,12,07,130,,0*74
$GAGSV,2,2,08,17,31,040,37,23,38,222,37,24,86,021,38,27,31,126,37,0*72
$GBGSV,3,1,09,01,38,122,29,02,50,173,30,04,36,126,29,06,37,216,29,0*7E
$GBGSV,3,2,09,09,37,287,29,11,18,131,,12,10,061,29,13,49,203,30,0*7D
$GBGSV,3,3,09,14,09,165,09,0*49
$GNGLL,2959.83303,N,12000.55492,E,000031.00,A,A*75

$GNRMC,000032.00,A,2959.81703,N,12000.53924,E,75.616,222.69,230721,5.69,W,A,V*73
$GNVTG,222.69,T,228.38,M,75.616,N,140.041,K,A*00
$GNGGA,000032.00,2959.81703,N,12000.53924,E,1,12,0.74,-6.9,M,7.0,M,,*56
$GNGSA,A,3,07,25,23,13,04,08,02,27,,,,,1.31,0.74,1.08,1*00
$GNGSA,A,3,23,27,24,11,10,17,,,,,,,1.31,0.74,1.08,3*0F
$GNGSA,A,3,09,12,13,06,,,,,,,,,1.31,0.74,1.08,4*03
$GPGSV,4,1,13,01,00,121,,02,33,300,36,04,52,247,37,07,84,121,37,0*6E
$GPGSV,4,2,13,08,47,207,36,10,01,310,,13,50,031,36,16,01,039,,0*64
$GPGSV,4,3,13,20,23,121,,23,28,057,36,25,67,043,37,27,18,219,35,0*68
$GPGSV,4,4,13,28,00,182,,0*56
$GAGSV,2,1,08,09,13,317,,10,64,334,37,11,56,117,38,12,07,130,,0*7B
$GAGSV,2,2,08,17,31,040,37,23,38,222,37,24,86,021,38,27,31,126,37,0*72
$GBGSV,3,1,09,01,38,122,29,02,50,173,30,04,36,126,30,06,37,216,29,0*76
$GBGSV,3,2,09,09,37,287,29,11,18,131,,12,10,061,29,13,49,203,30,0*7D
$GBGSV,3,3,09,14,09,165,08,0*48
$GNGLL,2959.81703,N,12000.53924,E,000032.00,A,A*76

$GNRMC,000033.00,A,2959.80214,N,12000.52219,E,75.575,227.15,230721,5.69,W,A,V*7C
$GNVTG,227.15,T,232.83,M,75.575,N,139.965,K,A*02
$GNGGA,000033.00,2959.80214,N,12000.52219,E,1,12,0.74,-6.9,M,7.0,M,,*51
$GNGSA,A,3,07,25,23,13,04,08,02,27,,,,,1.31,0.74,1.08,1*00
$GNGSA,A,3,23,27,24,11,10,17,,,,,,,1.31,0.74,1.08,3*0F
$GNGSA,A,3,09,12,13,06,,,,,,,,,1.31,0.74,1.08,4*03
$GPGSV,4,1,13,01,00,121,,02,33,300,36,04,52,247,36,07,84,121,37,0*6F
$GPGSV,4,2,13,08,47,207,36,10,01,310,,13,50,031,36,16,01,039,,0*64
$GPGSV,4,3,13,20,23,121,,23,28,057,36,25,67,043,37,27,18,219,36,0*6B
$GPGSV,4,4,13,28,00,182,,0*56
$GAGSV,2,1,08,09,13,317,,10,64,334,38,11,56,117,38,12,07,130,,0*74
$GAGSV,2,2,08,17,31,040,37,23,38,222,37,24,86,021,38,27,31,126,37,0*72
$GBGSV,3,1,09,01,38,122,30,02,50,173,30,04,36,126,30,06,37,216,29,0*7E
$GBGSV,3,2,09,09,37,287,30,11,18,131,,12,10,061,29,13,49,203,30,0*75
$GBGSV,3,3,09,14,09,165,,0*40
$GNGLL,2959.80214,N,12000.52219,E,000033.00,A,A*71

$GNRMC,000034.00,A,2959.78846,N,12000.50386,E,75.589,231.60,230721,5.69,W,A,V*72
$GNVTG,231.60,T,237.29,M,75.589,N,139.991,K,A*0A
$GNGGA,000034.00,2959.78846,N,12000.50386,E,1,12,0.74,-6.9,M,7.0,M,,*59
$GNGSA,A,3,07,25,23,13,04,08,02,27,,,,,1.31,0.74,1.08,1*00
$GNGSA,A,3,23,27,24,11,10,17,,,,,,,1.31,0.74,1.08,3*0F
$GNGSA,A,3,09,12,13,06,,,,,,,,,1.31,0.74,1.08,4*03
$GPGSV,4,1,13,01,00,121,,02,33,300,36,04,52,247,37,07,84,121,37,0*6E
$GPGSV,4,2,13,08,47,207,36,10,01,310,,13,50,031,36,16,01,039,,0*64
$GPGSV,4,3,13,20,23,121,,23,28,057,36,25,67,043,37,27,18,219,36,0*6B
$GPGSV,4,4,13,28,00,182,,0*56
$GAGSV,2,1,08,09,13,317,,10,64,334,38,11,56,117,37,12,07,130,,0*7B
$GAGSV,2,2,08,17,31,040,37,23,38,222,37,24,86,021,38,27,31,126,37,0*72
$GBGSV,3,1,09,01,38,122,30,02,50,173,30,04,36,126,30,06,37,216,29,0*7E
$GBGSV,3,2,09,09,37,287,29,11,18,131,,12,10,061,29,13,49,203,30,0*7D
$GBGSV,3,3,09,14,09,165,,0*40
$GNGLL,2959.78846,N,12000.50386,E,000034.00,A,A*79

$GNRMC,000035.00,A,2959.77607,N,12000.48435,E,75.586,236.04,230721,5.69,W,A,V*7B
$GNVTG,236.04,T,241.73,M,75.586,N,139.985,K,A*0B
$GNGGA,000035.00,2959.77607,N,12000.48435,E,1,12,0.74,-6.9,M,7.0,M,,*5A
$GNGSA,A,3,07,25,23,13,04,08,02,27,,,,,1.31,0.74,1.08,1*00
$GNGSA,A,3,23,27,24,11,10,17,,,,,,,1.31,0.74,1.08,3*0F
$GNGSA,A,3,09,12,13,06,,,,,,,,,1.31,0.74,1.08,4*03
$GPGSV,4,1,13,01,00,121,,02,33,300,36,04,52,247,37,07,84,121,37,0*6E
$GPGSV,4,2,13,08,47,207,37,10,01,310,,13,50,031,37,16,01,039,,0*64
$GPGSV,4,3,13,20,23,121,,23,28,057,36,25,67,043,37,27,18,219,36,0*6B
$GPGSV,4,4,13,28,00,182,,0*56
$GAGSV,2,1,08,09,13,317,,10,64,334,37,11,56,117,37,12,07,130,,0*74
$GAGSV,2,2,08,17,31,040,37,23,38,222,37,24,86,021,38,27,31,126,37,0*72
$GBGSV,3,1,09,01,38,122,30,02,50,173,30,04,36,126,30,06,37,216,29,0*7E
$GBGSV,3,2,09,09,37,287,29,11,18,131,,12,10,061,29,13,49,203,30,0*7D
$GBGSV,3,3,09,14,09,165,,0*40
$GNGLL,2959.77607,N,12000.48435,E,000035.00,A,A*7A

$GNRMC,000036.00,A,2959.76502,N,12000.46380,E,75.595,240.49,230721,5.69,W,A,V*72
$GNVTG,240.49,T,246.18,M,75.595,N,140.002,K,A*03
$GNGGA,000036.00,2959.76502,N,12000.46380,E,1,12,0.74,-6.9,M,7.0,M,,*59
$GNGSA,A,3,07,25,23,13,04,08,02,27,,,,,1.31,0.74,1.08,1*00
$GNGSA,A,3,23,27,24,11,10,17,,,,,,,1.31,0.74,1.08,3*0F
$GNGSA,A,3,09,12,13,06,,,,,,,,,1.31,0.74,1.08,4*03
$GPGSV,4,1,13,01,00,121,,02,33,300,36,04,52,247,37,07,84,121,37,0*6E
$GPGSV,4,2,13,08,47,207,36,10,01,310,,13,50,031,36,16,01,039,,0*64
$GPGSV,4,3,13,20,23,121,,23,28,057,36,25,67,043,37,27,18,219,36,0*6B
$GPGSV,4,4,13,28,00,182,,0*56
$GAGSV,2,1,08,09,13,317,,10,64,334,37,11,56,117,37,12,07,130,,0*74
$GAGSV,2,2,08,17,31,040,37,23,38,222,37,24,86,021,38,27,31,126,37,0*72
$GBGSV,3,1,09,01,38,122,30,02,50,173,30,04,36,126,30,06,37,216,29,0*7E
$GBGSV,3,2,09,09,37,287,29,11,18,131,,12,10,061,29,13,49,203,30,0*7D
$GBGSV,3,3,09,14,09,165,,0*40
$GNGLL,2959.76502,N,12000.46380,E,000036.00,A,A*79

$GNRMC,000037.00,A,2959.75539,N,12000.44231,E,75.594,244.97,230721,5.69,W,A,V*77
$GNVTG,244.97,T,250.65,M,75.594,N,140.000,K,A*0A
$GNGGA,000037.00,2959.75539,N,12000.44231,E,1,12,0.74,-6.9,M,7.0,M,,*5A
$GNGSA,A,3,07,25,23,13,04,08,02,27,,,,,1.31,0.74,1.08,1*00
$GNGSA,A,3,23,27,24,11,10,17,,,,,,,1.31,0.74,1.08,3*0F
$GNGSA,A,3,09,12,13,06,,,,,,,,,1.31,0.74,1.08,4*03
$GPGSV,4,1,13,01,00,121,,02,33,300,36,04,52,247,37,07,84,121,37,0*6E
$GPGSV,4,2,13,08,47,207,36,10,01,310,,13,50,031,36,16,01,039,,0*64
$GPGSV,4,3,13,20,23,121,,23,28,057,36,25,67,043,37,27,18,219,36,0*6B
$GPGSV,4,4,13,28,00,182,,0*56
$GAGSV,2,1,08,09,13,317,,10,64,334,38,11,56,117,37,12,07,130,,0*7B
$GAGSV,2,2,08,17,31,040,37,23,38,222,37,24,86,021,38,27,31,126,37,0*72
$GBGSV,3,1,09,01,38,122,30,02,50,173,30,04,36,126,30,06,37,216,29,0*7E
$GBGSV,3,2,09,09,37,287,29,11,18,131,,12,10,061,29,13,49,203,30,0*7D
$GBGSV,3,3,09,14,09,165,,0*40
$GNGLL,2959.75539,N,12000.44231,E,000037.00,A,A*7A

$GNRMC,000038.00,A,2959.74724,N,12000.42003,E,75.588,249.42,230721,5.69,W,A,V*7A
$GNVTG,249.42,T,255.10,M,75.588,N,139.989,K,A*03
$GNGGA,000038.00,2959.74724,N,12000.42003,E,1,12,0.74,-6.9,M,7.0,M,,*5F
$GNGSA,A,3,07,25,23,13,04,08,02,27,,,,,1.31,0.74,1.08,1*00
$GNGSA,A,3,23,27,24,11,10,17,,,,,,,1.31,0.74,1.08,3*0F
$GNGSA,A,3,09,12,13,06,,,,,,,,,1.31,0.74,1.08,4*03
$GPGSV,4,1,13,01,00,121,,02,33,300,36,04,52,247,37,07,84,121,37,0*6E
$GPGSV,4,2,13,08,47,207,36,10,01,310,,13,50,031,36,16,01,039,,0*64
$GPGSV,4,3,13,20,23,121,,23,28,057,36,25,67,043,37,27,18,219,27,0*6B
$GPGSV,4,4,13,28,00,182,,0*56
$GAGSV,2,1,08,09,13,317,,10,64,334,38,11,56,117,37,12,07,130,,0*7B
$GAGSV,2,2,08,17,31,040,37,23,38,222,37,24,86,021,38,27,31,126,37,0*72
$GBGSV,3,1,09,01,38,122,30,02,50,173,30,04,36,126,30,06,37,216,29,0*7E
$GBGSV,3,2,09,09,37,287,29,11,18,131,,12,10,061,29,13,49,203,30,0*7D
$GBGSV,3,3,09,14,09,165,,0*40
$GNGLL,2959.74724,N,12000.42003,E,000038.00,A,A*7F

$GNRMC,000039.00,A,2959.74064,N,12000.39709,E,75.584,253.88,230721,5.69,W,A,V*78
$GNVTG,253.88,T,259.56,M,75.584,N,139.981,K,A*04
$GNGGA,000039.00,2959.74064,N,12000.39709,E,1,12,0.76,-6.9,M,7.0,M,,*5E
$GNGSA,A,3,07,25,23,13,04,08,02,,,,,,1.44,0.76,1.21,1*0E
$GNGSA,A,3,23,27,24,11,10,17,,,,,,,1.44,0.76,1.21,3*04
$GNGSA,A,3,09,12,13,06,,,,,,,,,1.44,0.76,1.21,4*08
$GPGSV,4,1,13,01,00,121,,02,33,300,36,04,52,247,37,07,84,121,37,0*6E
$GPGSV,4,2,13,08,47,207,36,10,01,310,,13,50,031,37,16,01,039,,0*65
$GPGSV,4,3,13,20,23,121,,23,28,057,36,25,67,043,37,27,18,219,,0*6E
$GPGSV,4,4,13,28,00,182,,0*56
$GAGSV,2,1,08,09,13,317,,10,64,334,38,11,56,117,37,12,07,130,,0*7B
$GAGSV,2,2,08,17,31,040,37,23,38,222,37,24,86,021,38,27,31,126,37,0*72
$GBGSV,3,1,09,01,38,122,30,02,50,173,30,04,36,126,30,06,37,216,29,0*7E
$GBGSV,3,2,09,09,37,287,29,11,18,131,,12,10,061,29,13,49,203,30,0*7D
$GBGSV,3,3,09,14,09,165,,0*40
$GNGLL,2959.74064,N,12000.39709,E,000039.00,A,A*7C

$GNRMC,000040.00,A,2959.73560,N,12000.37363,E,75.579,258.33,230721,5.69,W,A,V*7F
$GNVTG,258.33,T,264.01,M,75.579,N,139.972,K,A*0D
$GNGGA,000040.00,2959.73560,N,12000.37363,E,1,12,0.76,-6.9,M,7.0,M,,*50
$GNGSA,A,3,07,25,23,13,04,08,02,,,,,,1.44,0.76,1.21,1*0E
$GNGSA,A,3,23,27,24,11,10,17,,,,,,,1.44,0.76,1.21,3*04
$GNGSA,A,3,09,12,13,06,,,,,,,,,1.44,0.76,1.21,4*08
$GPGSV,4,1,13,01,00,121,,02,33,300,36,04,52,247,37,07,84,121,37,0*6E
$GPGSV,4,2,13,08,47,207,36,10,01,310,,13,50,031,36,16,01,039,,0*64
$GPGSV,4,3,13,20,23,121,,23,28,057,36,25,67,043,37,27,18,219,,0*6E
$GPGSV,4,4,13,28,00,182,,0*56
$GAGSV,2,1,08,09,13,317,,10,64,334,38,11,56,117,37,12,07,130,,0*7B
$GAGSV,2,2,08,17,31,040,37,23,38,222,37,24,86,021,38,27,31,126,37,0*72
$GBGSV,3,1,09,01,38,122,30,02,50,173,30,04,36,126,30,06,37,216,29,0*7E
$GBGSV,3,2,09,09,37,287,30,11,18,131,,12,10,061,29,13,49,203,30,0*75
$GBGSV,3,3,09,14,09,165,,0*40
$GNGLL,2959.73560,N,12000.37363,E,000040.00,A,A*72

$GNRMC,000041.00,A,2959.73216,N,12000.34979,E,75.588,262.78,230721,5.69,W,A,V*72
$GNVTG,262.78,T,268.47,M,75.588,N,139.989,K,A*0F
$GNGGA,000041.00,2959.73216,N,12000.34979,E,1,12,0.76,-6.9,M,7.0,M,,*55
$GNGSA,A,3,07,25,23,13,04,08,02,,,,,,1.44,0.76,1.21,1*0E
$GNGSA,A,3,23,27,24,11,10,17,,,,,,,1.44,0.76,1.21,3*04
$GNGSA,A,3,09,12,13,06,,,,,,,,,1.44,0.76,1.21,4*08
$GPGSV,4,1,13,01,00,121,,02,33,300,36,04,52,247,37,07,84,121,37,0*6E
$GPGSV,4,2,13,08,47,207,36,10,01,310,,13,50,031,36,16,01,039,,0*64
$GPGSV,4,3,13,20,23,121,,23,28,057,36,25,67,043,37,27,18,219,,0*6E
$GPGSV,4,4,13,28,00,182,,0*56
$GAGSV,2,1,08,09,13,317,,10,64,334,38,11,56,117,37,12,07,130,,0*7B
$GAGSV,2,2,08,17,31,040,37,23,38,222,37,24,86,021,38,27,31,126,37,0*72
$GBGSV,3,1,09,01,38,122,30,02,50,173,30,04,36,126,30,06,37,216,30,0*76
$GBGSV,3,2,09,09,37,287,29,11,18,131,,12,10,061,29,13,49,203,30,0*7D
$GBGSV,3,3,09,14,09,165,,0*40
$GNGLL,2959.73216,N,12000.34979,E,000041.00,A,A*77

$GNRMC,000042.00,A,2959.73035,N,12000.32573,E,75.513,267.29,230721,5.69,W,A,V*71
$GNVTG,267.29,T,272.98,M,75.513,N,139.850,K,A*00
$GNGGA,000042.00,2959.73035,N,12000.32573,E,1,12,0.76,-6.9,M,7.0,M,,*55
$GNGSA,A,3,07,25,23,13,04,08,02,,,,,,1.44,0.76,1.21,1*0E
$GNGSA,A,3,23,27,24,11,10,17,,,,,,,1.44,0.76,1.21,3*04
$GNGSA,A,3,09,12,13,06,,,,,,,,,1.44,0.76,1.21,4*08
$GPGSV,4,1,13,01,00,121,,02,33,300,36,04,52,247,37,07,84,121,37,0*6E
$GPGSV,4,2,13,08,47,207,36,10,01,310,,13,50,031,37,16,01,039,,0*65
$GPGSV,4,3,13,20,23,121,,23,28,057,33,25,67,043,37,27,18,219,,0*6B
$GPGSV,4,4,13,28,00,182,,0*56
$GAGSV,2,1,08,09,13,317,,10,64,334,38,11,56,117,37,12,07,130,,0*7B
$GAGSV,2,2,08,17,31,040,37,23,38,222,37,24,86,021,38,27,31,126,37,0*72
$GBGSV,3,1,09,01,38,122,30,02,50,173,30,04,36,126,30,06,37,216,30,0*76
$GBGSV,3,2,09,09,37,287,29,11,18,131,,12,10,061,29,13,49,203,30,0*7D
$GBGSV,3,3,09,14,09,165,,0*40
$GNGLL,2959.73035,N,12000.32573,E,000042.00,A,A*77

$GNRMC,000043.00,A,2959.73018,N,12000.30157,E,75.570,271.71,230721,5.69,W,A,V*70
$GNVTG,271.71,T,277.39,M,75.570,N,139.955,K,A*05
$GNGGA,000043.00,2959.73018,N,12000.30157,E,1,12,0.78,-6.9,M,7.0,M,,*55
$GNGSA,A,3,07,25,13,04,08,02,,,,,,,1.46,0.78,1.24,1*06
$GNGSA,A,3,23,27,24,11,10,17,,,,,,,1.46,0.78,1.24,3*0D
$GNGSA,A,3,09,12,13,06,,,,,,,,,1.46,0.78,1.24,4*01
$GPGSV,4,1,13,01,00,121,,02,33,300,36,04,52,247,37,07,84,121,37,0*6E
$GPGSV,4,2,13,08,47,207,37,10,01,310,,13,50,031,37,16,01,039,,0*64
$GPGSV,4,3,13,20,23,121,34,23,28,057,07,25,67,043,37,27,18,219,,0*6B
$GPGSV,4,4,13,28,00,182,,0*56
$GAGSV,2,1,08,09,13,317,,10,64,334,38,11,56,117,37,12,07,130,,0*7B
$GAGSV,2,2,08,17,31,040,37,23,38,222,37,24,86,021,38,27,31,126,37,0*72
$GBGSV,3,1,09,01,38,122,30,02,50,173,30,04,36,126,29,06,37,216,30,0*7E
$GBGSV,3,2,09,09,37,287,29,11,18,131,,12,10,061,21,13,49,203,30,0*75
$GBGSV,3,3,09,14,09,165,,0*40
$GNGLL,2959.73018,N,12000.30157,E,000043.00,A,A*79

$GNRMC,000044.00,A,2959.73162,N,12000.27747,E,75.584,276.18,230721,5.69,W,A,V*79
$GNVTG,276.18,T,281.87,M,75.584,N,139.981,K,A*03
$GNGGA,000044.00,2959.73162,N,12000.27747,E,1,12,0.76,-6.9,M,7.0,M,,*51
$GNGSA,A,3,07,25,20,13,04,08,02,,,,,,1.63,0.76,1.44,1*0B
$GNGSA,A,3,23,27,24,11,10,17,,,,,,,1.63,0.76,1.44,3*02
$GNGSA,A,3,09,13,06,,,,,,,,,,1.63,0.76,1.44,4*0D
$GPGSV,4,1,13,01,00,121,,02,33,300,36,04,52,247,37,07,84,121,37,0*6E
$GPGSV,4,2,13,08,47,207,36,10,01,310,,13,50,031,36,16,01,039,,0*64
$GPGSV,4,3,13,20,23,121,35,23,28,057,07,25,67,043,37,27,18,219,,0*6A
$GPGSV,4,4,13,28,00,182,,0*56
$GAGSV,2,1,08,09,13,317,,10,64,334,38,11,56,117,37,12,07,130,,0*7B
$GAGSV,2,2,08,17,31,040,37,23,38,222,37,24,86,021,38,27,31,126,37,0*72
$GBGSV,3,1,09,01,38,122,30,02,50,173,30,04,36,126,30,06,37,216,30,0*76
$GBGSV,3,2,09,09,37,287,29,11,18,131,,12,10,061,16,13,49,203,30,0*71
$GBGSV,3,3,09,14,09,165,,0*40
$GNGLL,2959.73162,N,12000.27747,E,000044.00,A,A*73

$GNRMC,000045.00,A,2959.73471,N,12000.25356,E,75.592,280.63,230721,5.69,W,A,V*7B
$GNVTG,280.63,T,286.31,M,75.592,N,139.996,K,A*0D
$GNGGA,000045.00,2959.73471,N,12000.25356,E,1,12,0.76,-6.9,M,7.0,M,,*51
$GNGSA,A,3,07,25,20,13,04,08,02,,,,,,1.63,0.76,1.44,1*0B
$GNGSA,A,3,23,27,24,11,10,17,,,,,,,1.63,0.76,1.44,3*02
$GNGSA,A,3,09,13,06,,,,,,,,,,1.63,0.76,1.44,4*0D
$GPGSV,4,1,13,01,00,121,,02,33,300,36,04,52,247,37,07,84,121,37,0*6E
$GPGSV,4,2,13,08,47,207,36,10,01,310,,13,50,031,36,16,01,039,,0*64
$GPGSV,4,3,13,20,23,121,36,23,28,057,,25,67,043,37,27,18,219,,0*6E
$GPGSV,4,4,13,28,00,182,,0*56
$GAGSV,2,1,08,09,13,317,,10,64,334,38,11,56,117,37,12,07,130,,0*7B
$GAGSV,2,2,08,17,31,040,37,23,38,222,37,24,86,021,38,27,31,126,37,0*72
$GBGSV,3,1,09,01,38,122,30,02,50,173,30,04,36,126,30,06,37,216,30,0*76
$GBGSV,3,2,09,09,37,287,29,11,18,131,,12,10,061,11,13,49,203,30,0*76
$GBGSV,3,3,09,14,09,165,,0*40
$GNGLL,2959.73471,N,12000.25356,E,000045.00,A,A*73

$GNRMC,000046.00,A,2959.73939,N,12000.23000,E,75.581,285.06,230721,5.69,W,A,V*7B
$GNVTG,285.06,T,290.75,M,75.581,N,139.976,K,A*00
$GNGGA,000046.00,2959.73939,N,12000.23000,E,1,12,0.74,-7.0,M,7.0,M,,*5F
$GNGSA,A,3,07,25,20,13,04,08,02,,,,,,1.52,0.74,1.33,1*0B
$GNGSA,A,3,23,27,24,11,10,17,,,,,,,1.52,0.74,1.33,3*02
$GNGSA,A,3,09,11,13,06,,,,,,,,,1.52,0.74,1.33,4*0D
$GPGSV,4,1,13,01,00,121,,02,33,300,36,04,52,247,37,07,84,121,37,0*6E
$GPGSV,4,2,13,08,47,207,37,10,01,310,,13,50,031,37,16,01,039,,0*64
$GPGSV,4,3,13,20,23,121,36,23,28,057,,25,67,043,37,27,18,219,,0*6E
$GPGSV,4,4,13,28,00,182,,0*56
$GAGSV,2,1,08,09,13,317,,10,64,334,38,11,56,117,37,12,07,130,,0*7B
$GAGSV,2,2,08,17,31,040,37,23,38,222,37,24,86,021,38,27,31,126,37,0*72
$GBGSV,3,1,09,01,38,122,30,02,50,173,30,04,36,126,30,06,37,216,29,0*7E
$GBGSV,3,2,09,09,37,287,29,11,18,131,31,12,10,061,09,13,49,203,30,0*7D
$GBGSV,3,3,09,14,09,165,,0*40
$GNGLL,2959.73939,N,12000.23000,E,000046.00,A,A*77

$GNRMC,000047.00,A,2959.74565,N,12000.20694,E,75.542,289.52,230721,5.69,W,A,V*72
$GNVTG,289.52,T,295.20,M,75.542,N,139.903,K,A*05
$GNGGA,000047.00,2959.74565,N,12000.20694,E,1,12,0.68,-7.0,M,7.0,M,,*59
$GNGSA,A,3,07,25,20,13,04,08,02,,,,,,1.28,0.68,1.08,1*03
$GNGSA,A,3,23,27,24,11,10,17,09,,,,,,1.28,0.68,1.08,3*03
$GNGSA,A,3,09,11,13,06,,,,,,,,,1.28,0.68,1.08,4*05
$GPGSV,4,1,13,01,00,121,,02,33,300,36,04,52,247,37,07,84,121,37,0*6E
$GPGSV,4,2,13,08,47,207,37,10,01,310,,13,50,031,37,16,01,039,,0*64
$GPGSV,4,3,13,20,23,121,36,23,28,057,,25,67,043,37,27,18,219,,0*6E
$GPGSV,4,4,13,28,00,182,,0*56
$GAGSV,2,1,08,09,13,317,36,10,64,334,37,11,56,117,37,12,07,130,,0*71
$GAGSV,2,2,08,17,31,040,37,23,38,222,37,24,86,021,38,27,31,126,37,0*72
$GBGSV,3,1,09,01,38,122,30,02,50,173,30,04,36,126,30,06,37,216,29,0*7E
$GBGSV,3,2,09,09,37,287,29,11,18,131,30,12,10,061,08,13,49,203,30,0*7D
$GBGSV,3,3,09,14,09,165,,0*40
$GNGLL,2959.74565,N,12000.20694,E,000047.00,A,A*7C

$GNRMC,000048.00,A,2959.75346,N,12000.18450,E,75.582,294.01,230721,5.69,W,A,V*7C
$GNVTG,294.01,T,299.69,M,75.582,N,139.978,K,A*0E
$GNGGA,000048.00,2959.75346,N,12000.18450,E,1,12,0.68,-7.1,M,7.0,M,,*50
$GNGSA,A,3,07,25,20,13,04,08,02,,,,,,1.28,0.68,1.08,1*03
$GNGSA,A,3,23,27,24,11,10,17,09,,,,,,1.28,0.68,1.08,3*03
$GNGSA,A,3,09,11,13,06,,,,,,,,,1.28,0.68,1.08,4*05
$GPGSV,4,1,13,01,00,121,,02,33,300,36,04,52,247,37,07,84,121,37,0*6E
$GPGSV,4,2,13,08,47,207,36,10,01,310,,13,50,031,37,16,01,039,,0*65
$GPGSV,4,3,13,20,23,121,36,23,28,057,,25,67,043,37,27,18,219,,0*6E
$GPGSV,4,4,13,28,00,182,,0*56
$GAGSV,2,1,08,09,13,317,36,10,64,334,38,11,56,117,37,12,07,130,,0*7E
$GAGSV,2,2,08,17,31,040,37,23,38,222,37,24,86,021,38,27,31,126,37,0*72
$GBGSV,3,1,09,01,38,122,29,02,50,173,30,04,36,126,30,06,37,216,29,0*76
$GBGSV,3,2,09,09,37,287,29,11,18,131,29,12,10,061,,13,49,203,30,0*7D
$GBGSV,3,3,09,14,09,165,,0*40
$GNGLL,2959.75346,N,12000.18450,E,000048.00,A,A*74

$GNRMC,000049.00,A,2959.76277,N,12000.16282,E,75.577,298.46,230721,5.69,W,A,V*7F
$GNVTG,298.46,T,304.14,M,75.577,N,139.969,K,A*04
$GNGGA,000049.00,2959.76277,N,12000.16282,E,1,12,0.68,-7.2,M,7.0,M,,*55
$GNGSA,A,3,07,25,20,13,04,08,02,,,,,,1.28,0.68,1.08,1*03
$GNGSA,A,3,23,27,24,11,10,17,09,,,,,,1.28,0.68,1.08,3*03
$GNGSA,A,3,09,11,13,06,,,,,,,,,1.28,0.68,1.08,4*05
$GPGSV,4,1,13,01,00,121,,02,33,300,36,04,52,247,37,07,84,121,37,0*6E
$GPGSV,4,2,13,08,47,207,36,10,01,310,,13,50,031,36,16,01,039,,0*64
$GPGSV,4,3,13,20,23,121,36,23,28,057,,25,67,043,37,27,18,219,,0*6E
$GPGSV,4,4,13,28,00,182,,0*56
$GAGSV,2,1,08,09,13,317,36,10,64,334,38,11,56,117,37,12,07,130,,0*7E
$GAGSV,2,2,08,17,31,040,37,23,38,222,37,24,86,021,38,27,31,126,37,0*72
$GBGSV,3,1,09,01,38,122,30,02,50,173,29,04,36,126,29,06,37,216,29,0*7E
$GBGSV,3,2,09,09,37,287,30,11,18,131,29,12,10,061,,13,49,203,30,0*75
$GBGSV,3,3,09,14,09,165,,0*40
$GNGLL,2959.76277,N,12000.16282,E,000049.00,A,A*72

$GNRMC,000050.00,A,2959.77351,N,12000.14204,E,75.599,302.92,230721,5.69,W,A,V*74
$GNVTG,302.92,T,308.61,M,75.599,N,140.009,K,A*00
$GNGGA,000050.00,2959.77351,N,12000.14204,E,1,12,0.68,-7.2,M,7.0,M,,*55
$GNGSA,A,3,07,25,20,13,04,08,02,,,,,,1.28,0.68,1.08,1*03
$GNGSA,A,3,23,27,24,11,10,17,09,,,,,,1.28,0.68,1.08,3*03
$GNGSA,A,3,09,11,13,06,,,,,,,,,1.28,0.68,1.08,4*05
$GPGSV,4,1,13,01,00,121,,02,33,300,36,04,52,247,37,07,84,121,37,0*6E
$GPGSV,4,2,13,08,47,207,36,10,01,310,,13,50,031,36,16,01,039,,0*64
$GPGSV,4,3,13,20,23,121,36,23,28,057,,25,67,043,37,27,18,219,,0*6E
$GPGSV,4,4,13,28,00,182,,0*56
$GAGSV,2,1,08,09,13,317,36,10,64,334,38,11,56,117,37,12,07,130,,0*7E
$GAGSV,2,2,08,17,31,040,37,23,39,223,37,24,86,021,38,27,31,126,37,0*72
$GBGSV,3,1,09,01,38,122,30,02,50,173,30,04,36,126,30,06,37,216,29,0*7E
$GBGSV,3,2,09,09,37,287,29,11,18,131,29,12,10,061,,13,49,203,30,0*7D
$GBGSV,3,3,09,14,09,165,,0*40
$GNGLL,2959.77351,N,12000.14204,E,000050.00,A,A*72

$GNRMC,000051.00,A,2959.78562,N,12000.12229,E,75.594,307.38,230721,5.69,W,A,V*7D
$GNVTG,307.38,T,313.06,M,75.594,N,140.000,K,A*0A
$GNGGA,000051.00,2959.78562,N,12000.12229,E,1,12,0.68,-7.2,M,7.0,M,,*54
$GNGSA,A,3,07,25,20,13,04,08,02,,,,,,1.28,0.68,1.08,1*03
$GNGSA,A,3,23,27,24,11,10,17,09,,,,,,1.28,0.68,1.08,3*03
$GNGSA,A,3,09,11,13,06,,,,,,,,,1.28,0.68,1.08,4*05
$GPGSV,4,1,13,01,00,121,,02,33,300,36,04,52,247,37,07,84,121,37,0*6E
$GPGSV,4,2,13,08,47,207,36,10,01,310,,13,50,031,37,16,01,039,,0*65
$GPGSV,4,3,13,20,23,121,36,23,28,057,,25,67,043,37,27,18,219,,0*6E
$GPGSV,4,4,13,28,00,182,,0*56
$GAGSV,2,1,08,09,13,317,36,10,64,334,38,11,56,117,37,12,07,130,,0*7E
$GAGSV,2,2,08,17,31,040,37,23,39,223,37,24,86,021,38,27,31,126,37,0*72
$GBGSV,3,1,09,01,38,122,30,02,50,173,30,04,36,126,30,06,37,216,29,0*7E
$GBGSV,3,2,09,09,37,287,29,11,18,131,29,12,10,061,,13,49,203,30,0*7D
$GBGSV,3,3,09,14,09,165,,0*40
$GNGLL,2959.78562,N,12000.12229,E,000051.00,A,A*73

$GNRMC,000052.00,A,2959.79902,N,12000.10368,E,75.599,311.83,230721,5.69,W,A,V*79
$GNVTG,311.83,T,317.52,M,75.599,N,140.009,K,A*0C
$GNGGA,000052.00,2959.79902,N,12000.10368,E,1,12,0.68,-7.1,M,7.0,M,,*59
$GNGSA,A,3,07,25,20,13,04,08,02,,,,,,1.28,0.68,1.08,1*03
$GNGSA,A,3,23,27,24,11,10,17,09,,,,,,1.28,0.68,1.08,3*03
$GNGSA,A,3,09,11,13,06,,,,,,,,,1.28,0.68,1.08,4*05
$GPGSV,4,1,13,01,00,121,,02,33,300,36,04,52,247,37,07,84,121,37,0*6E
$GPGSV,4,2,13,08,47,207,36,10,01,310,,13,50,031,37,16,01,039,,0*65
$GPGSV,4,3,13,20,23,121,36,23,28,057,,25,67,043,37,27,18,219,,0*6E
$GPGSV,4,4,13,28,00,182,,0*56
$GAGSV,2,1,08,09,13,317,36,10,64,334,37,11,56,117,37,12,07,130,,0*71
$GAGSV,2,2,08,17,31,040,37,23,39,223,37,24,86,021,38,27,31,126,37,0*72
$GBGSV,3,1,09,01,38,122,29,02,50,173,30,04,36,126,30,06,37,216,29,0*76
$GBGSV,3,2,09,09,37,287,29,11,18,131,29,12,10,061,,13,49,203,30,0*7D
$GBGSV,3,3,09,14,09,165,,0*40
$GNGLL,2959.79902,N,12000.10368,E,000052.00,A,A*7D

$GNRMC,000053.00,A,2959.81366,N,12000.08631,E,75.582,316.27,230721,5.69,W,A,V*74
$GNVTG,316.27,T,321.96,M,75.582,N,139.978,K,A*03
$GNGGA,000053.00,2959.81366,N,12000.08631,E,1,12,0.68,-7.1,M,7.0,M,,*57
$GNGSA,A,3,07,25,20,13,04,08,02,,,,,,1.28,0.68,1.08,1*03
$GNGSA,A,3,23,27,24,11,10,17,09,,,,,,1.28,0.68,1.08,3*03
$GNGSA,A,3,09,11,13,06,,,,,,,,,1.28,0.68,1.08,4*05
$GPGSV,4,1,13,01,00,121,,02,33,300,36,04,52,247,36,07,84,121,37,0*6F
$GPGSV,4,2,13,08,47,207,36,10,01,310,,13,50,031,37,16,01,039,,0*65
$GPGSV,4,3,13,20,23,121,36,23,28,057,,25,67,043,37,27,18,219,,0*6E
$GPGSV,4,4,13,28,00,182,,0*56
$GAGSV,2,1,08,09,13,317,36,10,64,334,38,11,56,117,37,12,07,130,,0*7E
$GAGSV,2,2,08,17,31,040,37,23,39,223,37,24,86,021,38,27,31,126,37,0*72
$GBGSV,3,1,09,01,38,122,30,02,50,173,30,04,36,126,30,06,37,216,29,0*7E
$GBGSV,3,2,09,09,37,287,29,11,18,131,29,12,10,061,,13,49,203,30,0*7D
$GBGSV,3,3,09,14,09,165,30,0*43
$GNGLL,2959.81366,N,12000.08631,E,000053.00,A,A*73

$GNRMC,000054.00,A,2959.82940,N,12000.07031,E,75.577,320.72,230721,5.69,W,A,V*78
$GNVTG,320.72,T,326.41,M,75.577,N,139.968,K,A*00
$GNGGA,000054.00,2959.82940,N,12000.07031,E,1,12,0.68,-7.1,M,7.0,M,,*54
$GNGSA,A,3,07,25,20,13,04,08,02,,,,,,1.28,0.68,1.08,1*03
$GNGSA,A,3,23,27,24,11,10,17,09,,,,,,1.28,0.68,1.08,3*03
$GNGSA,A,3,09,11,13,06,,,,,,,,,1.28,0.68,1.08,4*05
$GPGSV,4,1,13,01,00,121,,02,33,300,36,04,52,247,37,07,84,121,37,0*6E
$GPGSV,4,2,13,08,47,207,36,10,01,310,,13,50,031,36,16,01,039,,0*64
$GPGSV,4,3,13,20,23,121,36,23,28,057,,25,67,043,37,27,18,219,,0*6E
$GPGSV,4,4,13,28,00,182,,0*56
$GAGSV,2,1,08,09,13,317,36,10,64,334,37,11,56,117,37,12,07,130,,0*71
$GAGSV,2,2,08,17,31,040,37,23,39,223,37,24,86,021,38,27,30,126,37,0*73
$GBGSV,3,1,09,01,38,122,30,02,50,173,30,04,36,126,30,06,37,216,29,0*7E
$GBGSV,3,2,09,09,37,287,29,11,18,131,29,12,10,061,,13,49,203,30,0*7D
$GBGSV,3,3,09,14,09,165,29,0*4B
$GNGLL,2959.82940,N,12000.07031,E,000054.00,A,A*70

$GNRMC,000055.00,A,2959.84619,N,12000.05576,E,75.577,325.19,230721,5.69,W,A,V*70
$GNVTG,325.19,T,330.87,M,75.577,N,139.968,K,A*05
$GNGGA,000055.00,2959.84619,N,12000.05576,E,1,12,0.68,-7.1,M,7.0,M,,*54
$GNGSA,A,3,07,25,20,13,04,08,02,,,,,,1.28,0.68,1.08,1*03
$GNGSA,A,3,23,27,24,11,10,17,09,,,,,,1.28,0.68,1.08,3*03
$GNGSA,A,3,09,11,13,06,,,,,,,,,1.28,0.68,1.08,4*05
$GPGSV,4,1,13,01,00,121,,02,33,300,36,04,52,247,37,07,84,121,37,0*6E
$GPGSV,4,2,13,08,47,207,37,10,01,310,,13,50,031,37,16,01,039,,0*64
$GPGSV,4,3,13,20,23,121,36,23,28,057,,25,67,043,37,27,18,219,,0*6E
$GPGSV,4,4,13,28,00,182,,0*56
$GAGSV,2,1,08,09,13,317,36,10,64,334,38,11,56,117,37,12,07,130,,0*7E
$GAGSV,2,2,08,17,31,040,37,23,39,223,37,24,86,021,38,27,30,126,37,0*73
$GBGSV,3,1,09,01,38,122,30,02,50,173,30,04,36,126,30,06,37,216,29,0*7E
$GBGSV,3,2,09,09,37,287,29,11,18,131,29,12,10,061,,13,49,203,30,0*7D
$GBGSV,3,3,09,14,09,165,29,0*4B
$GNGLL,2959.84619,N,12000.05576,E,000055.00,A,A*70

$GNRMC,000056.00,A,2959.86391,N,12000.04276,E,75.583,329.64,230721,5.69,W,A,V*7F
$GNVTG,329.64,T,335.33,M,75.583,N,139.980,K,A*04
$GNGGA,000056.00,2959.86391,N,12000.04276,E,1,12,0.68,-7.0,M,7.0,M,,*57
$GNGSA,A,3,07,25,20,13,04,08,02,,,,,,1.28,0.68,1.08,1*03
$GNGSA,A,3,23,27,24,11,10,17,09,,,,,,1.28,0.68,1.08,3*03
$GNGSA,A,3,09,11,13,06,,,,,,,,,1.28,0.68,1.08,4*05
$GPGSV,4,1,13,01,00,121,,02,33,300,36,04,52,247,37,07,84,121,37,0*6E
$GPGSV,4,2,13,08,47,207,36,10,01,310,,13,50,031,36,16,01,039,,0*64
$GPGSV,4,3,13,20,23,121,36,23,28,057,,25,67,043,37,27,18,219,,0*6E
$GPGSV,4,4,13,28,00,182,,0*56
$GAGSV,2,1,08,09,13,317,36,10,64,334,38,11,56,117,37,12,07,130,,0*7E
$GAGSV,2,2,08,17,31,040,37,23,39,223,37,24,86,021,38,27,30,126,37,0*73
$GBGSV,3,1,09,01,38,122,30,02,50,173,30,04,36,126,30,06,37,216,29,0*7E
$GBGSV,3,2,09,09,37,287,29,11,18,131,29,12,10,061,,13,49,203,30,0*7D
$GBGSV,3,3,09,14,09,165,29,0*4B
$GNGLL,2959.86391,N,12000.04276,E,000056.00,A,A*72

$GNRMC,000057.00,A,2959.88245,N,12000.03137,E,75.594,334.11,230721,5.69,W,A,V*71
$GNVTG,334.11,T,339.80,M,75.594,N,140.001,K,A*06
$GNGGA,000057.00,2959.88245,N,12000.03137,E,1,12,0.70,-7.0,M,7.0,M,,*58
$GNGSA,A,3,07,25,13,04,08,02,,,,,,,1.34,0.70,1.14,1*08
$GNGSA,A,3,23,27,24,11,10,17,09,,,,,,1.34,0.70,1.14,3*0A
$GNGSA,A,3,09,11,13,06,,,,,,,,,1.34,0.70,1.14,4*0C
$GPGSV,4,1,13,01,00,121,,02,33,300,36,04,52,247,37,07,84,121,37,0*6E
$GPGSV,4,2,13,08,47,207,37,10,01,310,,13,50,031,36,16,01,039,,0*65
$GPGSV,4,3,13,20,23,121,12,23,28,057,,25,67,043,37,27,18,219,,0*68
$GPGSV,4,4,13,28,00,182,,0*56
$GAGSV,2,1,08,09,13,317,36,10,64,334,38,11,56,117,37,12,07,130,,0*7E
$GAGSV,2,2,08,17,31,040,37,23,39,223,37,24,86,021,38,27,30,126,37,0*73
$GBGSV,3,1,09,01,38,122,30,02,50,173,30,04,36,126,30,06,37,216,29,0*7E
$GBGSV,3,2,09,09,37,287,29,11,18,131,29,12,10,061,,13,49,203,30,0*7D
$GBGSV,3,3,09,14,09,165,29,0*4B
$GNGLL,2959.88245,N,12000.03137,E,000057.00,A,A*74

$GNRMC,000058.00,A,2959.90172,N,12000.02167,E,75.610,338.55,230721,5.69,W,A,V*77
$GNVTG,338.55,T,344.23,M,75.610,N,140.030,K,A*04
$GNGGA,000058.00,2959.90172,N,12000.02167,E,1,12,0.70,-7.0,M,7.0,M,,*5D
$GNGSA,A,3,07,25,13,04,08,02,,,,,,,1.34,0.70,1.14,1*08
$GNGSA,A,3,23,27,24,11,10,17,09,,,,,,1.34,0.70,1.14,3*0A
$GNGSA,A,3,09,11,13,06,,,,,,,,,1.34,0.70,1.14,4*0C
$GPGSV,4,1,13,01,00,121,,02,33,300,36,04,52,247,37,07,84,121,37,0*6E
$GPGSV,4,2,13,08,47,207,37,10,01,310,,13,50,031,36,16,01,039,,0*65
$GPGSV,4,3,13,20,23,121,,23,28,057,,25,67,043,37,27,18,219,,0*6B
$GPGSV,4,4,13,28,00,182,,0*56
$GAGSV,2,1,08,09,13,317,36,10,64,334,37,11,56,117,37,12,07,130,,0*71
$GAGSV,2,2,08,17,31,040,37,23,39,223,37,24,86,021,38,27,30,126,37,0*73
$GBGSV,3,1,09,01,38,122,29,02,50,173,30,04,36,126,30,06,37,216,29,0*76
$GBGSV,3,2,09,09,37,287,29,11,18,131,29,12,10,061,,13,49,203,30,0*7D
$GBGSV,3,3,09,14,09,165,29,0*4B
$GNGLL,2959.90172,N,12000.02167,E,000058.00,A,A*71

$GNRMC,000059.00,A,2959.92158,N,12000.01373,E,75.593,343.01,230721,5.69,W,A,V*7D
$GNVTG,343.01,T,348.70,M,75.593,N,139.998,K,A*0E
$GNGGA,000059.00,2959.92158,N,12000.01373,E,1,12,0.77,-6.9,M,7.0,M,,*5D
$GNGSA,A,3,07,25,13,04,08,02,,,,,,,1.55,0.77,1.34,1*0A
$GNGSA,A,3,23,27,24,11,10,17,09,,,,,,1.55,0.77,1.34,3*08
$GNGSA,A,3,09,13,06,,,,,,,,,,1.55,0.77,1.34,4*0E
$GPGSV,4,1,13,01,00,121,,02,33,300,36,04,52,247,37,07,84,121,37,0*6E
$GPGSV,4,2,13,08,47,207,37,10,01,310,,13,50,031,37,16,01,039,,0*64
$GPGSV,4,3,13,20,23,121,,23,28,057,,25,67,043,37,27,18,219,,0*6B
$GPGSV,4,4,13,28,00,182,,0*56
$GAGSV,2,1,08,09,13,317,36,10,64,334,38,11,56,117,37,12,07,130,,0*7E
$GAGSV,2,2,08,17,31,040,37,23,39,223,37,24,86,021,38,27,30,126,37,0*73
$GBGSV,3,1,09,01,38,122,30,02,50,173,30,04,36,126,30,06,37,216,29,0*7E
$GBGSV,3,2,09,09,37,287,29,11,18,131,19,12,10,061,,13,49,203,30,0*7E
$GBGSV,3,3,09,14,09,165,29,0*4B
$GNGLL,2959.92158,N,12000.01373,E,000059.00,A,A*7E

$GNRMC,000100.00,A,2959.94191,N,12000.00757,E,75.622,347.45,230721,5.69,W,A,V*7D
$GNVTG,347.45,T,353.13,M,75.622,N,140.053,K,A*0C
$GNGGA,000100.00,2959.94191,N,12000.00757,E,1,12,0.77,-6.9,M,7.0,M,,*50
$GNGSA,A,3,07,25,13,04,08,02,,,,,,,1.55,0.77,1.34,1*0A
$GNGSA,A,3,23,27,24,11,10,17,09,,,,,,1.55,0.77,1.34,3*08
$GNGSA,A,3,09,13,06,,,,,,,,,,1.55,0.77,1.34,4*0E
$GPGSV,4,1,13,01,00,121,,02,33,300,36,04,52,247,37,07,84,121,37,0*6E
$GPGSV,4,2,13,08,47,207,37,10,01,310,,13,50,031,36,16,01,039,,0*65
$GPGSV,4,3,13,20,23,121,,23,28,057,,25,67,043,37,27,18,219,,0*6B
$GPGSV,4,4,13,28,00,182,,0*56
$GAGSV,2,1,08,09,13,317,20,10,64,334,38,11,56,117,37,12,07,130,,0*79
$GAGSV,2,2,08,17,31,040,37,23,39,223,37,24,86,021,38,27,30,126,37,0*73
$GBGSV,3,1,09,01,38,122,30,02,50,173,30,04,36,126,29,06,37,216,29,0*76
$GBGSV,3,2,09,09,37,287,29,11,18,131,15,12,10,061,,13,49,203,30,0*72
$GBGSV,3,3,09,14,09,165,29,0*4B
$GNGLL,2959.94191,N,12000.00757,E,000100.00,A,A*73

$GNRMC,000101.00,A,2959.96261,N,12000.00325,E,75.613,351.93,230721,5.69,W,A,V*7D
$GNVTG,351.93,T,357.62,M,75.613,N,140.036,K,A*03
$GNGGA,000101.00,2959.96261,N,12000.00325,E,1,12,0.82,-6.9,M,7.0,M,,*54
$GNGSA,A,3,07,25,13,04,08,02,,,,,,,1.81,0.82,1.61,1*09
$GNGSA,A,3,23,27,24,11,10,17,,,,,,,1.81,0.82,1.61,3*02
$GNGSA,A,3,09,13,06,,,,,,,,,,1.81,0.82,1.61,4*0D
$GPGSV,4,1,13,01,00,121,,02,33,300,36,04,52,247,37,07,84,121,37,0*6E
$GPGSV,4,2,13,08,47,207,36,10,01,310,,13,50,031,36,16,01,039,,0*64
$GPGSV,4,3,13,20,23,121,,23,28,057,,25,67,043,37,27,18,219,,0*6B
$GPGSV,4,4,13,28,00,182,,0*56
$GAGSV,2,1,08,09,13,317,16,10,64,334,37,11,56,117,37,12,07,130,,0*73
$GAGSV,2,2,08,17,31,040,37,23,39,223,37,24,86,021,38,27,30,126,37,0*73
$GBGSV,3,1,09,01,38,122,30,02,50,173,30,04,36,126,30,06,37,216,30,0*76
$GBGSV,3,2,09,09,37,287,29,11,18,131,10,12,10,061,,13,49,203,30,0*77
$GBGSV,3,3,09,14,09,165,29,0*4B
$GNGLL,2959.96261,N,12000.00325,E,000101.00,A,A*7D

$GNRMC,000102.00,A,2959.98354,N,12000.00080,E,75.612,356.38,230721,5.69,W,A,V*7C
$GNVTG,356.38,T,2.07,M,75.612,N,140.033,K,A*01
$GNGGA,000102.00,2959.98354,N,12000.00080,E,1,12,0.82,-6.8,M,7.0,M,,*53
$GNGSA,A,3,07,25,13,04,08,02,,,,,,,1.81,0.82,1.61,1*09
$GNGSA,A,3,23,27,24,11,10,17,,,,,,,1.81,0.82,1.61,3*02
$GNGSA,A,3,09,13,06,,,,,,,,,,1.81,0.82,1.61,4*0D
$GPGSV,4,1,13,01,00,121,,02,33,300,36,04,52,247,37,07,84,121,37,0*6E
$GPGSV,4,2,13,08,47,207,36,10,01,310,,13,50,031,36,16,01,039,,0*64
$GPGSV,4,3,13,20,23,121,,23,28,057,,25,67,043,37,27,18,219,,0*6B
$GPGSV,4,4,13,28,00,182,,0*56
$GAGSV,2,1,08,09,13,317,10,10,64,334,37,11,56,117,37,12,07,130,,0*75
$GAGSV,2,2,08,17,31,040,37,23,39,223,37,24,86,021,38,27,30,126,37,0*73
$GBGSV,3,1,09,01,38,122,30,02,50,173,30,04,36,126,30,06,37,216,30,0*76
$GBGSV,3,2,09,09,37,287,30,11,18,131,,12,10,061,,13,49,203,30,0*7E
$GBGSV,3,3,09,14,09,165,29,0*4B
$GNGLL,2959.98354,N,12000.00080,E,000102.00,A,A*7B

$GNRMC,000103.00,A,3000.00457,N,12000.00022,E,75.615,0.84,230721,5.69,W,A,V*74
$GNVTG,0.84,T,6.52,M,75.615,N,140.039,K,A*0F
$GNGGA,000103.00,3000.00457,N,12000.00022,E,1,12,0.82,-6.8,M,7.0,M,,*5B
$GNGSA,A,3,07,25,13,04,08,02,,,,,,,1.81,0.82,1.61,1*09
$GNGSA,A,3,23,27,24,11,10,17,,,,,,,1.81,0.82,1.61,3*02
$GNGSA,A,3,09,13,06,,,,,,,,,,1.81,0.82,1.61,4*0D
$GPGSV,4,1,13,01,00,121,,02,33,300,36,04,52,247,37,07,84,121,37,0*6E
$GPGSV,4,2,13,08,47,207,36,10,01,310,,13,50,031,37,16,01,039,,0*65
$GPGSV,4,3,13,20,23,121,,23,28,057,,25,67,043,37,27,18,219,,0*6B
$GPGSV,4,4,13,28,00,182,,0*56
$GAGSV,2,1,08,09,13,317,,10,64,334,37,11,56,117,37,12,07,130,,0*74
$GAGSV,2,2,08,17,31,040,37,23,39,223,37,24,86,021,38,27,30,126,37,0*73
$GBGSV,3,1,09,01,38,122,30,02,50,173,30,04,36,126,29,06,37,216,29,0*76
$GBGSV,3,2,09,09,37,287,30,11,18,131,,12,10,061,,13,49,203,30,0*7E
$GBGSV,3,3,09,14,09,165,29,0*4B
$GNGLL,3000.00457,N,12000.00022,E,000103.00,A,A*73

$GNRMC,000104.00,A,3000.02558,N,12000.00152,E,75.618,5.30,230721,5.69,W,A,V*7E
$GNVTG,5.30,T,10.99,M,75.618,N,140.044,K,A*32
$GNGGA,000104.00,3000.02558,N,12000.00152,E,1,12,0.82,-6.8,M,7.0,M,,*56
$GNGSA,A,3,07,25,13,04,08,02,,,,,,,1.81,0.82,1.61,1*09
$GNGSA,A,3,23,27,24,11,10,17,,,,,,,1.81,0.82,1.61,3*02
$GNGSA,A,3,09,13,06,,,,,,,,,,1.81,0.82,1.61,4*0D
$GPGSV,4,1,13,01,00,121,,02,33,300,36,04,52,247,36,07,84,121,37,0*6F
$GPGSV,4,2,13,08,47,207,36,10,01,310,,13,50,031,37,16,01,039,,0*65
$GPGSV,4,3,13,20,23,121,,23,28,057,,25,67,043,37,27,18,219,,0*6B
$GPGSV,4,4,13,28,00,182,,0*56
$GAGSV,2,1,08,09,13,317,,10,64,334,37,11,56,117,37,12,07,130,,0*74
$GAGSV,2,2,08,17,31,040,37,23,39,223,37,24,86,021,38,27,30,126,37,0*73
$GBGSV,3,1,09,01,38,122,30,02,50,173,30,04,36,126,30,06,37,216,29,0*7E
$GBGSV,3,2,09,09,37,287,30,11,18,131,,12,10,061,,13,49,203,30,0*7E
$GBGSV,3,3,09,14,09,165,29,0*4B
$GNGLL,3000.02558,N,12000.00152,E,000104.00,A,A*7E

$GNRMC,000105.00,A,3000.04644,N,12000.00469,E,75.602,9.77,230721,5.69,W,A,V*7E
$GNVTG,9.77,T,15.45,M,75.602,N,140.014,K,A*37
$GNGGA,000105.00,3000.04644,N,12000.00469,E,1,12,0.82,-6.8,M,7.0,M,,*52
$GNGSA,A,3,07,25,13,04,08,02,,,,,,,1.81,0.82,1.61,1*09
$GNGSA,A,3,23,27,24,11,10,17,,,,,,,1.81,0.82,1.61,3*02
$GNGSA,A,3,09,13,06,,,,,,,,,,1.81,0.82,1.61,4*0D
$GPGSV,4,1,13,01,00,121,,02,33,300,36,04,52,247,37,07,84,121,37,0*6E
$GPGSV,4,2,13,08,47,207,36,10,01,310,,13,50,031,37,16,01,039,,0*65
$GPGSV,4,3,13,20,23,121,,23,28,057,,25,67,043,37,27,18,219,35,0*6D
$GPGSV,4,4,13,28,00,182,,0*56
$GAGSV,2,1,08,09,13,317,,10,64,334,38,11,56,117,37,12,07,130,,0*7B
$GAGSV,2,2,08,17,31,040,37,23,39,223,37,24,86,021,38,27,30,126,37,0*73
$GBGSV,3,1,09,01,38,122,29,02,50,173,30,04,36,126,30,06,37,216,30,0*7E
$GBGSV,3,2,09,09,37,287,29,11,18,131,,12,10,061,,13,49,203,30,0*76
$GBGSV,3,3,09,14,09,165,29,0*4B
$GNGLL,3000.04644,N,12000.00469,E,000105.00,A,A*7A

$GNRMC,000106.00,A,3000.06701,N,12000.00971,E,75.586,14.19,230721,5.69,W,A,V*40
$GNVTG,14.19,T,19.88,M,75.586,N,139.986,K,A*0D
$GNGGA,000106.00,3000.06701,N,12000.00971,E,1,12,0.80,-6.8,M,7.0,M,,*55
$GNGSA,A,3,07,25,13,04,08,02,27,,,,,,1.63,0.80,1.42,1*03
$GNGSA,A,3,23,27,24,11,10,17,,,,,,,1.63,0.80,1.42,3*0D
$GNGSA,A,3,09,13,06,,,,,,,,,,1.63,0.80,1.42,4*02
$GPGSV,4,1,13,01,00,121,,02,33,300,36,04,52,247,37,07,84,121,37,0*6E
$GPGSV,4,2,13,08,47,207,36,10,01,310,,13,50,031,36,16,01,039,,0*64
$GPGSV,4,3,13,20,23,121,,23,28,057,,25,67,043,37,27,18,219,36,0*6E
$GPGSV,4,4,13,28,00,182,,0*56
$GAGSV,2,1,08,09,13,317,,10,64,334,38,11,56,117,38,12,07,130,,0*74
$GAGSV,2,2,08,17,31,040,37,23,39,223,37,24,86,021,38,27,30,126,37,0*73
$GBGSV,3,1,09,01,38,122,29,02,50,173,30,04,36,126,29,06,37,216,30,0*76
$GBGSV,3,2,09,09,37,287,30,11,18,131,,12,10,061,,13,49,203,30,0*7E
$GBGSV,3,3,09,14,09,165,29,0*4B
$GNGLL,3000.06701,N,12000.00971,E,000106.00,A,A*7F

$GNRMC,000107.00,A,3000.08719,N,12000.01655,E,75.595,18.66,230721,5.69,W,A,V*48
$GNVTG,18.66,T,24.35,M,75.595,N,140.002,K,A*08
$GNGGA,000107.00,3000.08719,N,12000.01655,E,1,12,0.80,-6.9,M,7.0,M,,*5A
$GNGSA,A,3,07,25,13,04,08,02,27,,,,,,1.63,0.80,1.42,1*03
$GNGSA,A,3,23,27,24,11,10,17,,,,,,,1.63,0.80,1.42,3*0D
$GNGSA,A,3,09,13,06,,,,,,,,,,1.63,0.80,1.42,4*02
$GPGSV,4,1,13,01,00,121,,02,33,300,36,04,52,247,37,07,84,121,37,0*6E
$GPGSV,4,2,13,08,47,207,36,10,01,310,,13,50,031,36,16,01,039,,0*64
$GPGSV,4,3,13,20,23,121,,23,28,057,,25,67,043,37,27,18,219,36,0*6E
$GPGSV,4,4,13,28,00,182,,0*56
$GAGSV,2,1,08,09,13,317,,10,64,334,38,11,56,117,37,12,07,130,,0*7B
$GAGSV,2,2,08,17,31,040,37,23,39,223,37,24,86,021,38,27,30,126,37,0*73
$GBGSV,3,1,09,01,38,122,30,02,50,173,30,04,36,126,30,06,37,216,29,0*7E
$GBGSV,3,2,09,09,37,287,30,11,18,131,,12,10,061,,13,48,202,30,0*7E
$GBGSV,3,3,09,14,09,165,16,0*47
$GNGLL,3000.08719,N,12000.01655,E,000107.00,A,A*71

$GNRMC,000108.00,A,3000.10684,N,12000.02517,E,75.605,23.10,230721,5.69,W,A,V*4E
$GNVTG,23.10,T,28.79,M,75.605,N,140.021,K,A*0E
$GNGGA,000108.00,3000.10684,N,12000.02517,E,1,12,0.80,-6.9,M,7.0,M,,*5F
$GNGSA,A,3,07,25,13,04,08,02,27,,,,,,1.63,0.80,1.42,1*03
$GNGSA,A,3,23,27,24,11,10,17,,,,,,,1.63,0.80,1.42,3*0D
$GNGSA,A,3,09,13,06,,,,,,,,,,1.63,0.80,1.42,4*02
$GPGSV,4,1,13,01,00,121,,02,33,300,36,04,52,247,37,07,84,121,37,0*6E
$GPGSV,4,2,13,08,47,207,36,10,01,310,,13,50,031,37,16,01,039,,0*65
$GPGSV,4,3,13,20,23,121,,23,28,057,,25,67,043,37,27,18,219,36,0*6E
$GPGSV,4,4,13,28,00,182,,0*56
$GAGSV,2,1,08,09,13,317,,10,64,334,37,11,56,117,37,12,07,130,,0*74
$GAGSV,2,2,08,17,31,040,37,23,39,223,37,24,86,021,38,27,30,126,37,0*73
$GBGSV,3,1,09,01,38,122,29,02,50,173,30,04,36,126,30,06,37,216,30,0*7E
$GBGSV,3,2,09,09,37,287,30,11,18,131,,12,10,061,,13,48,202,30,0*7E
$GBGSV,3,3,09,14,09,165,13,0*42
$GNGLL,3000.10684,N,12000.02517,E,000108.00,A,A*74

$GNRMC,000109.00,A,3000.12585,N,12000.03552,E,75.595,27.57,230721,5.69,W,A,V*42
$GNVTG,27.57,T,33.25,M,75.595,N,140.003,K,A*00
$GNGGA,000109.00,3000.12585,N,12000.03552,E,1,12,0.80,-6.9,M,7.0,M,,*5E
$GNGSA,A,3,07,25,13,04,08,02,27,,,,,,1.63,0.80,1.42,1*03
$GNGSA,A,3,23,27,24,11,10,17,,,,,,,1.63,0.80,1.42,3*0D
$GNGSA,A,3,09,13,06,,,,,,,,,,1.63,0.80,1.42,4*02
$GPGSV,4,1,13,01,00,121,,02,33,300,36,04,52,247,37,07,84,121,37,0*6E
$GPGSV,4,2,13,08,47,207,37,10,01,310,,13,50,031,37,16,01,039,,0*64
