$GNRMC,000008.00,A,2959.99966,N,12000.00031,E,0.032,,230721,5.69,W,A,V*54
$GNVTG,,T,,M,0.032,N,0.058,K,A*31
$GNGGA,000008.00,2959.99966,N,12000.00031,E,1,12,0.84,-7.6,M,7.0,M,,*51
$GNGSA,A,3,07,25,13,04,08,02,,,,,,,1.83,0.84,1.62,1*0E
$GNGSA,A,3,24,10,27,17,11,23,,,,,,,1.83,0.84,1.62,3*05
$GNGSA,A,3,09,06,,,,,,,,,,,1.83,0.84,1.62,4*08
$GPGSV,4,1,13,01,00,121,,02,33,300,35,04,52,247,35,07,84,121,35,0*6D
$GPGSV,4,2,13,08,47,207,35,10,01,310,,13,50,031,35,16,01,039,,0*64
$GPGSV,4,3,13,20,23,121,,23,28,057,,25,67,043,35,27,18,219,,0*69
$GPGSV,4,4,13,28,00,182,,0*56
$GAGSV,2,1,08,09,13,317,,10,64,334,36,11,56,117,36,12,07,130,,0*74
$GAGSV,2,2,08,17,31,040,36,23,38,222,36,24,86,021,36,27,31,126,36,0*7D
$GBGSV,3,1,09,01,38,122,30,02,50,173,30,04,36,126,30,06,37,216,30,0*76
$GBGSV,3,2,09,09,37,287,30,11,18,131,,12,10,061,,13,49,203,,0*7D
$GBGSV,3,3,09,14,09,165,29,0*4B
$GNGLL,2959.99966,N,12000.00031,E,000008.00,A,A*70

$GNRMC,000009.00,A,2959.99982,N,12000.00033,E,0.039,,230721,5.69,W,A,V*56
$GNVTG,,T,,M,0.039,N,0.072,K,A*32
$GNGGA,000009.00,2959.99982,N,12000.00033,E,1,12,0.82,-7.2,M,7.0,M,,*5A
$GNGSA,A,3,07,25,13,04,08,02,,,,,,,1.81,0.82,1.62,1*0A
$GNGSA,A,3,24,10,27,17,11,23,,,,,,,1.81,0.82,1.62,3*01
$GNGSA,A,3,09,13,06,,,,,,,,,,1.81,0.82,1.62,4*0E
$GPGSV,4,1,13,01,00,121,,02,33,300,35,04,52,247,35,07,84,121,35,0*6D
$GPGSV,4,2,13,08,47,207,35,10,01,310,,13,50,031,35,16,01,039,,0*64
$GPGSV,4,3,13,20,23,121,,23,28,057,,25,67,043,35,27,18,219,,0*69
$GPGSV,4,4,13,28,00,182,,0*56
$GAGSV,2,1,08,09,13,317,,10,64,334,36,11,56,117,36,12,07,130,,0*74
$GAGSV,2,2,08,17,31,040,36,23,38,222,36,24,86,021,36,27,31,126,36,0*7D
$GBGSV,3,1,09,01,38,122,30,02,50,173,30,04,36,126,30,06,37,216,30,0*76
$GBGSV,3,2,09,09,37,287,30,11,18,131,,12,10,061,,13,49,203,30,0*7E
$GBGSV,3,3,09,14,09,165,29,0*4B
$GNGLL,2959.99982,N,12000.00033,E,000009.00,A,A*79

$GNRMC,000010.00,A,2959.99982,N,12000.00031,E,0.009,,230721,5.69,W,A,V*5F
$GNVTG,,T,,M,0.009,N,0.017,K,A*32
$GNGGA,000010.00,2959.99982,N,12000.00031,E,1,12,0.82,-6.9,M,7.0,M,,*5A
$GNGSA,A,3,07,25,13,04,08,02,,,,,,,1.81,0.82,1.62,1*0A
$GNGSA,A,3,24,10,27,17,11,23,,,,,,,1.81,0.82,1.62,3*01
$GNGSA,A,3,09,13,06,,,,,,,,,,1.81,0.82,1.62,4*0E
$GPGSV,4,1,13,01,00,121,,02,33,300,35,04,52,247,35,07,84,121,35,0*6D
$GPGSV,4,2,13,08,47,207,35,10,01,310,,13,50,031,35,16,01,039,,0*64
$GPGSV,4,3,13,20,23,121,,23,28,057,,25,67,043,35,27,18,219,,0*69
$GPGSV,4,4,13,28,00,182,,0*56
$GAGSV,2,1,08,09,13,317,,10,64,334,36,11,56,117,36,12,07,130,,0*74
$GAGSV,2,2,08,17,31,040,36,23,38,222,36,24,86,021,36,27,31,126,36,0*7D
$GBGSV,3,1,09,01,38,122,30,02,50,173,30,04,36,126,30,06,37,216,30,0*76
$GBGSV,3,2,09,09,37,287,30,11,18,131,,12,10,061,,13,49,203,31,0*7F
$GBGSV,3,3,09,14,09,165,29,0*4B
$GNGLL,2959.99982,N,12000.00031,E,000010.00,A,A*73

$GNRMC,000011.00,A,2959.99981,N,12000.00026,E,0.033,,230721,5.69,W,A,V*52
$GNVTG,,T,,M,0.033,N,0.061,K,A*3A
$GNGGA,000011.00,2959.99981,N,12000.00026,E,1,12,0.82,-7.3,M,7.0,M,,*55
$GNGSA,A,3,07,25,13,04,08,02,,,,,,,1.81,0.82,1.62,1*0A
$GNGSA,A,3,24,10,27,17,11,23,,,,,,,1.81,0.82,1.62,3*01
$GNGSA,A,3,09,13,06,,,,,,,,,,1.81,0.82,1.62,4*0E
$GPGSV,4,1,13,01,00,121,,02,33,300,35,04,52,247,35,07,84,121,35,0*6D
$GPGSV,4,2,13,08,47,207,35,10,01,310,,13,50,031,35,16,01,039,,0*64
$GPGSV,4,3,13,20,23,121,,23,28,057,,25,67,043,35,27,18,219,,0*69
$GPGSV,4,4,13,28,00,182,,0*56
$GAGSV,2,1,08,09,13,317,,10,64,334,36,11,56,117,36,12,07,130,,0*74
$GAGSV,2,2,08,17,31,040,36,23,38,222,36,24,86,021,36,27,31,126,36,0*7D
$GBGSV,3,1,09,01,38,122,30,02,50,173,30,04,36,126,30,06,37,216,30,0*76
$GBGSV,3,2,09,09,37,287,30,11,18,131,,12,10,061,,13,49,203,30,0*7E
$GBGSV,3,3,09,14,09,165,29,0*4B
$GNGLL,2959.99981,N,12000.00026,E,000011.00,A,A*77

$GNRMC,000012.00,A,2959.99985,N,12000.00031,E,0.013,,230721,5.69,W,A,V*51
$GNVTG,,T,,M,0.013,N,0.025,K,A*38
$GNGGA,000012.00,2959.99985,N,12000.00031,E,1,12,0.82,-7.4,M,7.0,M,,*53
$GNGSA,A,3,07,25,13,04,08,02,,,,,,,1.81,0.82,1.62,1*0A
$GNGSA,A,3,24,10,27,17,11,23,,,,,,,1.81,0.82,1.62,3*01
$GNGSA,A,3,09,13,06,,,,,,,,,,1.81,0.82,1.62,4*0E
$GPGSV,4,1,13,01,00,121,,02,33,300,35,04,52,247,35,07,84,121,35,0*6D
$GPGSV,4,2,13,08,47,207,35,10,01,310,,13,50,031,35,16,01,039,,0*64
$GPGSV,4,3,13,20,23,121,,23,28,057,,25,67,043,35,27,18,219,,0*69
$GPGSV,4,4,13,28,00,182,,0*56
$GAGSV,2,1,08,09,13,317,,10,64,334,36,11,56,117,36,12,07,130,,0*74
$GAGSV,2,2,08,17,31,040,36,23,38,222,36,24,86,021,36,27,31,126,36,0*7D
$GBGSV,3,1,09,01,38,122,30,02,50,173,30,04,36,126,30,06,37,216,30,0*76
$GBGSV,3,2,09,09,37,287,30,11,18,131,,12,10,061,,13,49,203,30,0*7E
$GBGSV,3,3,09,14,09,165,29,0*4B
$GNGLL,2959.99985,N,12000.00031,E,000012.00,A,A*76

$GNRMC,000013.00,A,2959.99988,N,12000.00031,E,0.012,,230721,5.69,W,A,V*5C
$GNVTG,,T,,M,0.012,N,0.022,K,A*3E
$GNGGA,000013.00,2959.99988,N,12000.00031,E,1,12,0.82,-7.5,M,7.0,M,,*5E
$GNGSA,A,3,07,25,13,04,08,02,,,,,,,1.81,0.82,1.62,1*0A
$GNGSA,A,3,24,10,27,17,11,23,,,,,,,1.81,0.82,1.62,3*01
$GNGSA,A,3,09,13,06,,,,,,,,,,1.81,0.82,1.62,4*0E
$GPGSV,4,1,13,01,00,121,,02,33,300,35,04,52,247,35,07,84,121,35,0*6D
$GPGSV,4,2,13,08,47,207,35,10,01,310,,13,50,031,35,16,01,039,,0*64
$GPGSV,4,3,13,20,23,121,,23,28,057,,25,67,043,35,27,18,219,,0*69
$GPGSV,4,4,13,28,00,182,,0*56
$GAGSV,2,1,08,09,13,317,,10,64,334,36,11,56,117,36,12,07,130,,0*74
$GAGSV,2,2,08,17,31,040,36,23,38,222,36,24,86,021,36,27,31,126,36,0*7D
$GBGSV,3,1,09,01,38,122,30,02,50,173,30,04,36,126,30,06,37,216,30,0*76
$GBGSV,3,2,09,09,37,287,30,11,18,131,,12,10,061,,13,49,203,30,0*7E
$GBGSV,3,3,09,14,09,165,29,0*4B
$GNGLL,2959.99988,N,12000.00031,E,000013.00,A,A*7A

$GNRMC,000014.00,A,2959.99989,N,12000.00033,E,0.024,,230721,5.69,W,A,V*5D
$GNVTG,,T,,M,0.024,N,0.045,K,A*3A
$GNGGA,000014.00,2959.99989,N,12000.00033,E,1,12,0.82,-7.4,M,7.0,M,,*5B
$GNGSA,A,3,07,25,13,04,08,02,,,,,,,1.81,0.82,1.62,1*0A
$GNGSA,A,3,24,10,27,17,11,23,,,,,,,1.81,0.82,1.62,3*01
$GNGSA,A,3,09,13,06,,,,,,,,,,1.81,0.82,1.62,4*0E
$GPGSV,4,1,13,01,00,121,,02,33,300,35,04,52,247,35,07,84,121,35,0*6D
$GPGSV,4,2,13,08,47,207,35,10,01,310,,13,50,031,35,16,01,039,,0*64
$GPGSV,4,3,13,20,23,121,,23,28,057,,25,67,043,35,27,18,219,,0*69
$GPGSV,4,4,13,28,00,182,,0*56
$GAGSV,2,1,08,09,13,317,,10,64,334,36,11,56,117,36,12,07,130,,0*74
$GAGSV,2,2,08,17,31,040,36,23,38,222,36,24,86,021,36,27,31,126,36,0*7D
$GBGSV,3,1,09,01,38,122,30,02,50,173,30,04,36,126,30,06,37,216,30,0*76
$GBGSV,3,2,09,09,37,287,30,11,18,131,,12,10,061,,13,49,203,30,0*7E
$GBGSV,3,3,09,14,09,165,29,0*4B
$GNGLL,2959.99989,N,12000.00033,E,000014.00,A,A*7E

$GNRMC,000015.00,A,2959.99989,N,12000.00032,E,0.016,,230721,5.69,W,A,V*5C
$GNVTG,,T,,M,0.016,N,0.030,K,A*39
$GNGGA,000015.00,2959.99989,N,12000.00032,E,1,12,0.82,-7.3,M,7.0,M,,*5C
$GNGSA,A,3,07,25,13,04,08,02,,,,,,,1.81,0.82,1.62,1*0A
$GNGSA,A,3,24,10,27,17,11,23,,,,,,,1.81,0.82,1.62,3*01
$GNGSA,A,3,09,13,06,,,,,,,,,,1.81,0.82,1.62,4*0E
$GPGSV,4,1,13,01,00,121,,02,33,300,35,04,52,247,35,07,84,121,35,0*6D
$GPGSV,4,2,13,08,47,207,35,10,01,310,,13,50,031,35,16,01,039,,0*64
$GPGSV,4,3,13,20,23,121,,23,28,057,,25,67,043,35,27,18,219,,0*69
$GPGSV,4,4,13,28,00,182,,0*56
$GAGSV,2,1,08,09,13,317,,10,64,334,36,11,56,117,36,12,07,130,,0*74
$GAGSV,2,2,08,17,31,040,36,23,38,222,36,24,86,021,36,27,31,126,36,0*7D
$GBGSV,3,1,09,01,38,122,30,02,50,173,30,04,36,126,30,06,37,216,29,0*7E
$GBGSV,3,2,09,09,37,287,30,11,18,131,,12,10,061,,13,49,203,31,0*7F
$GBGSV,3,3,09,14,09,165,29,0*4B
$GNGLL,2959.99989,N,12000.00032,E,000015.00,A,A*7E

$GNRMC,000016.00,A,2959.99989,N,12000.00032,E,0.017,,230721,5.69,W,A,V*5E
$GNVTG,,T,,M,0.017,N,0.032,K,A*3A
$GNGGA,000016.00,2959.99989,N,12000.00032,E,1,12,0.88,-7.3,M,7.0,M,,*55
$GNGSA,A,3,07,25,13,04,08,02,,,,,,,1.87,0.88,1.65,1*01
$GNGSA,A,3,24,10,27,17,11,23,,,,,,,1.87,0.88,1.65,3*0A
$GNGSA,A,3,13,06,,,,,,,,,,,1.87,0.88,1.65,4*0C
$GPGSV,4,1,13,01,00,121,,02,33,300,35,04,52,247,35,07,84,121,35,0*6D
$GPGSV,4,2,13,08,47,207,35,10,01,310,,13,50,031,35,16,01,039,,0*64
$GPGSV,4,3,13,20,23,121,,23,28,057,,25,67,043,35,27,18,219,,0*69
$GPGSV,4,4,13,28,00,182,,0*56
$GAGSV,2,1,08,09,13,317,,10,64,334,36,11,56,117,36,12,07,130,,0*74
$GAGSV,2,2,08,17,31,040,36,23,38,222,36,24,86,021,36,27,31,126,36,0*7D
$GBGSV,3,1,09,01,38,122,30,02,50,173,30,04,36,126,30,06,37,216,29,0*7E
$GBGSV,3,2,09,09,37,287,,11,18,131,,12,10,061,,13,49,202,31,0*7D
$GBGSV,3,3,09,14,09,165,29,0*4B
$GNGLL,2959.99989,N,12000.00032,E,000016.00,A,A*7D

$GNRMC,000017.00,A,2959.99989,N,12000.00032,E,0.018,,230721,5.69,W,A,V*50
$GNVTG,,T,,M,0.018,N,0.034,K,A*33
$GNGGA,000017.00,2959.99989,N,12000.00032,E,1,12,0.88,-7.3,M,7.0,M,,*54
$GNGSA,A,3,07,25,13,04,08,02,,,,,,,1.87,0.88,1.65,1*01
$GNGSA,A,3,24,10,27,17,11,23,,,,,,,1.87,0.88,1.65,3*0A
$GNGSA,A,3,13,06,,,,,,,,,,,1.87,0.88,1.65,4*0C
$GPGSV,4,1,13,01,00,121,,02,33,300,35,04,52,247,35,07,84,121,35,0*6D
$GPGSV,4,2,13,08,47,207,35,10,01,310,,13,50,031,35,16,01,039,,0*64
$GPGSV,4,3,13,20,23,121,,23,28,057,,25,67,043,35,27,18,219,,0*69
$GPGSV,4,4,13,28,00,182,,0*56
$GAGSV,2,1,08,09,13,317,,10,64,334,36,11,56,117,36,12,07,130,,0*74
$GAGSV,2,2,08,17,31,040,36,23,38,222,36,24,86,021,36,27,31,126,36,0*7D
$GBGSV,3,1,09,01,38,122,30,02,50,173,30,04,36,126,30,06,37,216,29,0*7E
$GBGSV,3,2,09,09,37,287,,11,18,131,,12,10,061,,13,49,202,30,0*7C
$GBGSV,3,3,09,14,09,165,29,0*4B
$GNGLL,2959.99989,N,12000.00032,E,000017.00,A,A*7C

$GNRMC,000018.00,A,2959.99991,N,12000.00031,E,0.011,,230721,5.69,W,A,V*5C
$GNVTG,,T,,M,0.011,N,0.021,K,A*3E
$GNGGA,000018.00,2959.99991,N,12000.00031,E,1,12,0.88,-7.2,M,7.0,M,,*50
$GNGSA,A,3,07,25,13,04,08,02,,,,,,,1.87,0.88,1.65,1*01
$GNGSA,A,3,24,10,27,17,11,23,,,,,,,1.87,0.88,1.65,3*0A
$GNGSA,A,3,13,06,,,,,,,,,,,1.87,0.88,1.65,4*0C
$GPGSV,4,1,13,01,00,121,,02,33,300,35,04,52,247,35,07,84,121,35,0*6D
$GPGSV,4,2,13,08,47,207,35,10,01,310,,13,50,031,35,16,01,039,,0*64
$GPGSV,4,3,13,20,23,121,,23,28,057,,25,67,043,35,27,18,219,,0*69
$GPGSV,4,4,13,28,00,182,,0*56
$GAGSV,2,1,08,09,13,317,,10,64,334,36,11,56,117,36,12,07,130,,0*74
$GAGSV,2,2,08,17,31,040,36,23,38,222,36,24,86,021,36,27,31,126,36,0*7D
$GBGSV,3,1,09,01,38,122,30,02,50,173,30,04,36,126,30,06,37,216,30,0*76
$GBGSV,3,2,09,09,37,287,,11,18,131,,12,10,061,,13,49,202,30,0*7C
$GBGSV,3,3,09,14,09,165,29,0*4B
$GNGLL,2959.99991,N,12000.00031,E,000018.00,A,A*79

$GNRMC,000019.00,A,2959.99992,N,12000.00030,E,0.039,,230721,5.69,W,A,V*55
$GNVTG,,T,,M,0.039,N,0.073,K,A*33
$GNGGA,000019.00,2959.99992,N,12000.00030,E,1,12,0.88,-7.2,M,7.0,M,,*53
$GNGSA,A,3,07,25,13,04,08,02,,,,,,,1.87,0.88,1.65,1*01
$GNGSA,A,3,24,10,27,17,11,23,,,,,,,1.87,0.88,1.65,3*0A
$GNGSA,A,3,13,06,,,,,,,,,,,1.87,0.88,1.65,4*0C
$GPGSV,4,1,13,01,00,121,,02,33,300,35,04,52,247,35,07,84,121,35,0*6D
$GPGSV,4,2,13,08,47,207,35,10,01,310,,13,50,031,35,16,01,039,,0*64
$GPGSV,4,3,13,20,23,121,,23,28,057,,25,67,043,35,27,18,219,,0*69
$GPGSV,4,4,13,28,00,182,,0*56
$GAGSV,2,1,08,09,13,317,,10,64,334,36,11,56,117,36,12,07,130,,0*74
$GAGSV,2,2,08,17,31,040,36,23,38,222,36,24,86,021,36,27,31,126,36,0*7D
$GBGSV,3,1,09,01,38,122,30,02,50,173,30,04,36,126,30,06,37,216,30,0*76
$GBGSV,3,2,09,09,37,287,,11,18,131,,12,10,061,,13,49,202,30,0*7C
$GBGSV,3,3,09,14,09,165,29,0*4B
$GNGLL,2959.99992,N,12000.00030,E,000019.00,A,A*7A

$GNRMC,000020.00,A,2959.99992,N,12000.00029,E,0.019,,230721,5.69,W,A,V*55
$GNVTG,,T,,M,0.019,N,0.035,K,A*33
$GNGGA,000020.00,2959.99992,N,12000.00029,E,1,12,0.88,-7.2,M,7.0,M,,*51
$GNGSA,A,3,07,25,13,04,08,02,,,,,,,1.87,0.88,1.65,1*01
$GNGSA,A,3,24,10,27,17,11,23,,,,,,,1.87,0.88,1.65,3*0A
$GNGSA,A,3,13,06,,,,,,,,,,,1.87,0.88,1.65,4*0C
$GPGSV,4,1,13,01,00,121,,02,33,300,35,04,52,247,35,07,84,121,35,0*6D
$GPGSV,4,2,13,08,47,207,35,10,01,310,,13,50,031,35,16,01,039,,0*64
$GPGSV,4,3,13,20,23,121,,23,28,057,,25,67,043,35,27,18,219,,0*69
$GPGSV,4,4,13,28,00,182,,0*56
$GAGSV,2,1,08,09,13,317,,10,64,334,36,11,56,117,36,12,07,130,,0*74
$GAGSV,2,2,08,17,31,040,36,23,38,222,36,24,86,021,36,27,31,126,36,0*7D
$GBGSV,3,1,09,01,38,122,30,02,50,173,30,04,36,126,30,06,37,216,30,0*76
$GBGSV,3,2,09,09,37,287,,11,18,131,,12,10,061,,13,49,202,30,0*7C
$GBGSV,3,3,09,14,09,165,29,0*4B
$GNGLL,2959.99992,N,12000.00029,E,000020.00,A,A*78

$GNRMC,000021.00,A,2959.99992,N,12000.00030,E,0.022,,230721,5.69,W,A,V*54
$GNVTG,,T,,M,0.022,N,0.041,K,A*38
$GNGGA,000021.00,2959.99992,N,12000.00030,E,1,12,0.88,-7.2,M,7.0,M,,*58
$GNGSA,A,3,07,25,13,04,08,02,,,,,,,1.87,0.88,1.65,1*01
$GNGSA,A,3,24,10,27,17,11,23,,,,,,,1.87,0.88,1.65,3*0A
$GNGSA,A,3,13,06,,,,,,,,,,,1.87,0.88,1.65,4*0C
$GPGSV,4,1,13,01,00,121,,02,33,300,35,04,52,247,35,07,84,121,35,0*6D
$GPGSV,4,2,13,08,47,207,35,10,01,310,,13,50,031,35,16,01,039,,0*64
$GPGSV,4,3,13,20,23,121,,23,28,057,,25,67,043,35,27,18,219,,0*69
$GPGSV,4,4,13,28,00,182,,0*56
$GAGSV,2,1,08,09,13,317,,10,64,334,36,11,56,117,36,12,07,130,,0*74
$GAGSV,2,2,08,17,31,040,36,23,38,222,36,24,86,021,36,27,31,126,36,0*7D
$GBGSV,3,1,09,01,38,122,30,02,50,173,30,04,36,126,30,06,37,216,30,0*76
$GBGSV,3,2,09,09,37,287,,11,18,131,,12,10,061,,13,49,202,30,0*7C
$GBGSV,3,3,09,14,09,165,29,0*4B
$GNGLL,2959.99992,N,12000.00030,E,000021.00,A,A*71

$GNRMC,000022.00,A,2959.99992,N,12000.00030,E,0.021,,230721,5.69,W,A,V*54
$GNVTG,,T,,M,0.021,N,0.038,K,A*35
$GNGGA,000022.00,2959.99992,N,12000.00030,E,1,12,0.88,-7.1,M,7.0,M,,*58
$GNGSA,A,3,07,25,13,04,08,02,,,,,,,1.87,0.88,1.65,1*01
$GNGSA,A,3,24,10,27,17,11,23,,,,,,,1.87,0.88,1.65,3*0A
$GNGSA,A,3,13,06,,,,,,,,,,,1.87,0.88,1.65,4*0C
$GPGSV,4,1,13,01,00,121,,02,33,300,35,04,52,247,35,07,84,121,35,0*6D
$GPGSV,4,2,13,08,47,207,35,10,01,310,,13,50,031,35,16,01,039,,0*64
$GPGSV,4,3,13,20,23,121,,23,28,057,,25,67,043,35,27,18,219,,0*69
$GPGSV,4,4,13,28,00,182,,0*56
$GAGSV,2,1,08,09,13,317,,10,64,334,36,11,56,117,36,12,07,130,,0*74
$GAGSV,2,2,08,17,31,040,36,23,38,222,36,24,86,021,36,27,31,126,36,0*7D
$GBGSV,3,1,09,01,38,122,30,02,50,173,30,04,36,126,30,06,37,216,30,0*76
$GBGSV,3,2,09,09,37,287,31,11,18,131,,12,10,061,,13,49,202,30,0*7E
$GBGSV,3,3,09,14,09,165,29,0*4B
$GNGLL,2959.99992,N,12000.00030,E,000022.00,A,A*72

$GNRMC,000023.00,A,2959.99992,N,12000.00030,E,0.014,,230721,5.69,W,A,V*53
$GNVTG,,T,,M,0.014,N,0.027,K,A*3D
$GNGGA,000023.00,2959.99992,N,12000.00030,E,1,12,0.82,-7.1,M,7.0,M,,*53
$GNGSA,A,3,07,25,13,04,08,02,,,,,,,1.81,0.82,1.62,1*0A
$GNGSA,A,3,24,10,27,17,11,23,,,,,,,1.81,0.82,1.62,3*01
$GNGSA,A,3,09,13,06,,,,,,,,,,1.81,0.82,1.62,4*0E
$GPGSV,4,1,13,01,00,121,,02,33,300,35,04,52,247,35,07,84,121,35,0*6D
$GPGSV,4,2,13,08,47,207,35,10,01,310,,13,50,031,35,16,01,039,,0*64
$GPGSV,4,3,13,20,23,121,,23,28,057,,25,67,043,35,27,18,219,,0*69
$GPGSV,4,4,13,28,00,182,,0*56
$GAGSV,2,1,08,09,13,317,,10,64,334,36,11,56,117,36,12,07,130,,0*74
$GAGSV,2,2,08,17,31,040,36,23,38,222,36,24,86,021,36,27,31,126,36,0*7D
$GBGSV,3,1,09,01,38,122,30,02,50,173,30,04,36,126,30,06,37,216,30,0*76
$GBGSV,3,2,09,09,37,287,30,11,18,131,,12,10,061,,13,49,202,30,0*7F
$GBGSV,3,3,09,14,09,165,29,0*4B
$GNGLL,2959.99992,N,12000.00030,E,000023.00,A,A*73

$GNRMC,000024.00,A,2959.99992,N,12000.00030,E,0.023,,230721,5.69,W,A,V*50
$GNVTG,,T,,M,0.023,N,0.043,K,A*3B
$GNGGA,000024.00,2959.99992,N,12000.00030,E,1,12,0.88,-7.1,M,7.0,M,,*5E
$GNGSA,A,3,07,25,13,04,08,02,,,,,,,1.87,0.88,1.65,1*01
$GNGSA,A,3,24,10,27,17,11,23,,,,,,,1.87,0.88,1.65,3*0A
$GNGSA,A,3,13,06,,,,,,,,,,,1.87,0.88,1.65,4*0C
$GPGSV,4,1,13,01,00,121,,02,33,300,35,04,52,247,35,07,84,121,35,0*6D
$GPGSV,4,2,13,08,47,207,35,10,01,310,,13,50,031,35,16,01,039,,0*64
$GPGSV,4,3,13,20,23,121,,23,28,057,,25,67,043,35,27,18,219,,0*69
$GPGSV,4,4,13,28,00,182,,0*56
$GAGSV,2,1,08,09,13,317,,10,64,334,36,11,56,117,36,12,07,130,,0*74
$GAGSV,2,2,08,17,31,040,36,23,38,222,36,24,86,021,36,27,31,126,36,0*7D
$GBGSV,3,1,09,01,38,122,30,02,50,173,30,04,36,126,30,06,37,216,30,0*76
$GBGSV,3,2,09,09,37,287,,11,18,131,,12,10,061,,13,49,202,30,0*7C
$GBGSV,3,3,09,14,09,165,29,0*4B
$GNGLL,2959.99992,N,12000.00030,E,000024.00,A,A*74

$GNRMC,000025.00,A,2959.99993,N,12000.00029,E,0.019,,230721,5.69,W,A,V*51
$GNVTG,,T,,M,0.019,N,0.035,K,A*33
$GNGGA,000025.00,2959.99993,N,12000.00029,E,1,12,0.88,-7.0,M,7.0,M,,*57
$GNGSA,A,3,07,25,13,04,08,02,,,,,,,1.87,0.88,1.65,1*01
$GNGSA,A,3,24,10,27,17,11,23,,,,,,,1.87,0.88,1.65,3*0A
$GNGSA,A,3,13,06,,,,,,,,,,,1.87,0.88,1.65,4*0C
$GPGSV,4,1,13,01,00,121,,02,33,300,35,04,52,247,35,07,84,121,35,0*6D
$GPGSV,4,2,13,08,47,207,35,10,01,310,,13,50,031,35,16,01,039,,0*64
$GPGSV,4,3,13,20,23,121,,23,28,057,,25,67,043,35,27,18,219,,0*69
$GPGSV,4,4,13,28,00,182,,0*56
$GAGSV,2,1,08,09,13,317,,10,64,334,36,11,56,117,36,12,07,130,,0*74
$GAGSV,2,2,08,17,31,040,36,23,38,222,36,24,86,021,36,27,31,126,36,0*7D
$GBGSV,3,1,09,01,38,122,30,02,50,173,30,04,36,126,29,06,37,216,29,0*76
$GBGSV,3,2,09,09,37,287,,11,18,131,,12,10,061,,13,49,202,30,0*7C
$GBGSV,3,3,09,14,09,165,29,0*4B
$GNGLL,2959.99993,N,12000.00029,E,000025.00,A,A*7C

$GNRMC,000026.00,A,2959.99994,N,12000.00026,E,0.022,,230721,5.69,W,A,V*52
$GNVTG,,T,,M,0.022,N,0.040,K,A*39
$GNGGA,000026.00,2959.99994,N,12000.00026,E,1,12,0.88,-7.0,M,7.0,M,,*5C
$GNGSA,A,3,07,25,13,04,08,02,,,,,,,1.87,0.88,1.65,1*01
$GNGSA,A,3,24,10,27,17,11,23,,,,,,,1.87,0.88,1.65,3*0A
$GNGSA,A,3,13,06,,,,,,,,,,,1.87,0.88,1.65,4*0C
$GPGSV,4,1,13,01,00,121,,02,33,300,35,04,52,247,35,07,84,121,35,0*6D
$GPGSV,4,2,13,08,47,207,35,10,01,310,,13,50,031,35,16,01,039,,0*64
$GPGSV,4,3,13,20,23,121,,23,28,057,,25,67,043,35,27,18,219,,0*69
$GPGSV,4,4,13,28,00,182,,0*56
$GAGSV,2,1,08,09,13,317,,10,64,334,36,11,56,117,36,12,07,130,,0*74
$GAGSV,2,2,08,17,31,040,36,23,38,222,36,24,86,021,36,27,31,126,36,0*7D
$GBGSV,3,1,09,01,38,122,30,02,50,173,30,04,36,126,30,06,37,216,29,0*7E
$GBGSV,3,2,09,09,37,287,,11,18,131,,12,10,061,,13,49,202,30,0*7C
$GBGSV,3,3,09,14,09,165,29,0*4B
$GNGLL,2959.99994,N,12000.00026,E,000026.00,A,A*77

$GNRMC,000027.00,A,2959.99995,N,12000.00025,E,0.021,,230721,5.69,W,A,V*52
$GNVTG,,T,,M,0.021,N,0.039,K,A*34
$GNGGA,000027.00,2959.99995,N,12000.00025,E,1,12,0.88,-7.0,M,7.0,M,,*5F
$GNGSA,A,3,07,25,13,04,08,02,,,,,,,1.87,0.88,1.65,1*01
$GNGSA,A,3,24,10,27,17,11,23,,,,,,,1.87,0.88,1.65,3*0A
$GNGSA,A,3,13,06,,,,,,,,,,,1.87,0.88,1.65,4*0C
$GPGSV,4,1,13,01,00,121,,02,33,300,35,04,52,247,35,07,84,121,35,0*6D
$GPGSV,4,2,13,08,47,207,35,10,01,310,,13,50,031,35,16,01,039,,0*64
$GPGSV,4,3,13,20,23,121,,23,28,057,,25,67,043,35,27,18,219,,0*69
$GPGSV,4,4,13,28,00,182,,0*56
$GAGSV,2,1,08,09,13,317,,10,64,334,36,11,56,117,36,12,07,130,,0*74
$GAGSV,2,2,08,17,31,040,36,23,38,222,36,24,86,021,36,27,31,126,36,0*7D
$GBGSV,3,1,09,01,38,122,30,02,50,173,30,04,36,126,30,06,37,216,29,0*7E
$GBGSV,3,2,09,09,37,287,,11,18,131,,12,10,061,,13,49,202,30,0*7C
$GBGSV,3,3,09,14,09,165,29,0*4B
$GNGLL,2959.99995,N,12000.00025,E,000027.00,A,A*74

$GNRMC,000028.00,A,2959.99996,N,12000.00024,E,0.031,,230721,5.69,W,A,V*5E
$GNVTG,,T,,M,0.031,N,0.058,K,A*32
$GNGGA,000028.00,2959.99996,N,12000.00024,E,1,12,0.88,-7.0,M,7.0,M,,*52
$GNGSA,A,3,07,25,13,04,08,02,,,,,,,1.87,0.88,1.65,1*01
$GNGSA,A,3,24,10,27,17,11,23,,,,,,,1.87,0.88,1.65,3*0A
$GNGSA,A,3,13,06,,,,,,,,,,,1.87,0.88,1.65,4*0C
$GPGSV,4,1,13,01,00,121,,02,33,300,35,04,52,247,35,07,84,119,35,0*66
$GPGSV,4,2,13,08,47,207,35,10,01,310,,13,50,031,35,16,01,039,,0*64
$GPGSV,4,3,13,20,23,121,,23,28,057,,25,67,043,35,27,18,219,,0*69
$GPGSV,4,4,13,28,00,182,,0*56
$GAGSV,2,1,08,09,13,317,,10,64,334,36,11,56,117,36,12,07,130,,0*74
$GAGSV,2,2,08,17,31,040,36,23,38,222,36,24,86,021,36,27,31,126,36,0*7D
$GBGSV,3,1,09,01,38,122,30,02,50,173,30,04,36,126,30,06,37,216,30,0*76
$GBGSV,3,2,09,09,37,287,,11,18,131,,12,10,061,,13,49,202,31,0*7D
$GBGSV,3,3,09,14,09,165,29,0*4B
$GNGLL,2959.99996,N,12000.00024,E,000028.00,A,A*79

$GNRMC,000029.00,A,2959.99997,N,12000.00024,E,0.005,,230721,5.69,W,A,V*59
$GNVTG,,T,,M,0.005,N,0.009,K,A*31
$GNGGA,000029.00,2959.99997,N,12000.00024,E,1,12,0.88,-7.0,M,7.0,M,,*52
$GNGSA,A,3,07,25,13,04,08,02,,,,,,,1.87,0.88,1.65,1*01
$GNGSA,A,3,24,10,27,17,11,23,,,,,,,1.87,0.88,1.65,3*0A
$GNGSA,A,3,13,06,,,,,,,,,,,1.87,0.88,1.65,4*0C
$GPGSV,4,1,13,01,00,121,,02,33,300,35,04,52,247,35,07,84,119,35,0*66
$GPGSV,4,2,13,08,47,207,35,10,01,310,,13,50,031,35,16,01,039,,0*64
$GPGSV,4,3,13,20,23,121,,23,28,057,,25,67,043,35,27,18,219,,0*69
$GPGSV,4,4,13,28,00,182,,0*56
$GAGSV,2,1,08,09,13,317,,10,64,334,36,11,56,117,36,12,07,130,,0*74
$GAGSV,2,2,08,17,31,040,36,23,38,222,36,24,86,021,36,27,31,126,36,0*7D
$GBGSV,3,1,09,01,38,122,30,02,50,173,30,04,36,126,30,06,37,216,30,0*76
$GBGSV,3,2,09,09,37,287,,11,18,131,,12,10,061,,13,49,202,31,0*7D
$GBGSV,3,3,09,14,09,165,29,0*4B
$GNGLL,2959.99997,N,12000.00024,E,000029.00,A,A*79

$GNRMC,000030.00,A,2959.99998,N,12000.00023,E,0.017,,230721,5.69,W,A,V*5A
$GNVTG,,T,,M,0.017,N,0.032,K,A*3A
$GNGGA,000030.00,2959.99998,N,12000.00023,E,1,12,0.88,-6.9,M,7.0,M,,*5A
$GNGSA,A,3,07,25,13,04,08,02,,,,,,,1.87,0.88,1.65,1*01
$GNGSA,A,3,24,10,27,17,11,23,,,,,,,1.87,0.88,1.65,3*0A
$GNGSA,A,3,13,06,,,,,,,,,,,1.87,0.88,1.65,4*0C
$GPGSV,4,1,13,01,00,121,,02,33,300,35,04,52,247,35,07,84,119,35,0*66
$GPGSV,4,2,13,08,47,207,35,10,01,310,,13,50,031,35,16,01,039,,0*64
$GPGSV,4,3,13,20,23,121,,23,28,057,,25,67,043,35,27,18,219,,0*69
$GPGSV,4,4,13,28,00,182,,0*56
$GAGSV,2,1,08,09,13,317,,10,64,334,36,11,56,117,36,12,07,130,,0*74
$GAGSV,2,2,08,17,31,040,36,23,38,222,36,24,86,021,36,27,31,126,36,0*7D
$GBGSV,3,1,09,01,38,122,30,02,50,173,30,04,36,126,30,06,37,216,30,0*76
$GBGSV,3,2,09,09,37,287,,11,18,131,,12,10,061,,13,49,202,30,0*7C
$GBGSV,3,3,09,14,09,165,29,0*4B
$GNGLL,2959.99998,N,12000.00023,E,000030.00,A,A*79

$GNRMC,000031.00,A,2959.99998,N,12000.00022,E,0.011,,230721,5.69,W,A,V*5C
$GNVTG,,T,,M,0.011,N,0.020,K,A*3F
$GNGGA,000031.00,2959.99998,N,12000.00022,E,1,12,0.88,-6.9,M,7.0,M,,*5A
$GNGSA,A,3,07,25,13,04,08,02,,,,,,,1.87,0.88,1.65,1*01
$GNGSA,A,3,24,10,27,17,11,23,,,,,,,1.87,0.88,1.65,3*0A
$GNGSA,A,3,13,06,,,,,,,,,,,1.87,0.88,1.65,4*0C
$GPGSV,4,1,13,01,00,121,,02,33,300,35,04,52,247,35,07,84,119,35,0*66
$GPGSV,4,2,13,08,47,207,35,10,01,310,,13,50,031,35,16,01,039,,0*64
$GPGSV,4,3,13,20,23,121,,23,28,057,,25,67,043,35,27,18,219,,0*69
$GPGSV,4,4,13,28,00,182,,0*56
$GAGSV,2,1,08,09,13,317,,10,64,334,36,11,56,117,36,12,07,130,,0*74
$GAGSV,2,2,08,17,31,040,36,23,38,222,36,24,86,021,36,27,31,126,36,0*7D
$GBGSV,3,1,09,01,38,122,30,02,50,173,30,04,36,126,30,06,37,216,29,0*7E
$GBGSV,3,2,09,09,37,287,,11,18,131,,12,10,061,,13,49,202,30,0*7C
$GBGSV,3,3,09,14,09,165,29,0*4B
$GNGLL,2959.99998,N,12000.00022,E,000031.00,A,A*79

$GNRMC,000032.00,A,2959.99999,N,12000.00021,E,0.018,,230721,5.69,W,A,V*54
$GNVTG,,T,,M,0.018,N,0.033,K,A*34
$GNGGA,000032.00,2959.99999,N,12000.00021,E,1,12,0.88,-7.0,M,7.0,M,,*53
$GNGSA,A,3,07,25,13,04,08,02,,,,,,,1.87,0.88,1.65,1*01
$GNGSA,A,3,24,10,27,17,11,23,,,,,,,1.87,0.88,1.65,3*0A
$GNGSA,A,3,13,06,,,,,,,,,,,1.87,0.88,1.65,4*0C
$GPGSV,4,1,13,01,00,121,,02,33,300,35,04,52,247,35,07,84,119,35,0*66
$GPGSV,4,2,13,08,47,207,35,10,01,310,,13,50,031,35,16,01,039,,0*64
$GPGSV,4,3,13,20,23,121,,23,28,057,,25,67,043,35,27,18,219,,0*69
$GPGSV,4,4,13,28,00,182,,0*56
$GAGSV,2,1,08,09,13,317,,10,64,334,36,11,56,117,36,12,07,130,,0*74
$GAGSV,2,2,08,17,31,040,36,23,38,222,36,24,86,021,36,27,31,126,36,0*7D
$GBGSV,3,1,09,01,38,122,30,02,50,173,30,04,36,126,30,06,37,216,29,0*7E
$GBGSV,3,2,09,09,37,287,,11,18,131,,12,10,061,,13,49,202,30,0*7C
$GBGSV,3,3,09,14,09,165,29,0*4B
$GNGLL,2959.99999,N,12000.00021,E,000032.00,A,A*78

$GNRMC,000033.00,A,2959.99999,N,12000.00020,E,0.033,,230721,5.69,W,A,V*5D
$GNVTG,,T,,M,0.033,N,0.060,K,A*3B
$GNGGA,000033.00,2959.99999,N,12000.00020,E,1,12,0.88,-6.9,M,7.0,M,,*5B
$GNGSA,A,3,07,25,13,04,08,02,,,,,,,1.87,0.88,1.65,1*01
$GNGSA,A,3,24,10,27,17,11,23,,,,,,,1.87,0.88,1.65,3*0A
$GNGSA,A,3,13,06,,,,,,,,,,,1.87,0.88,1.65,4*0C
$GPGSV,4,1,13,01,00,121,,02,33,300,35,04,52,247,35,07,84,119,35,0*66
$GPGSV,4,2,13,08,47,207,35,10,01,310,,13,50,031,35,16,01,039,,0*64
$GPGSV,4,3,13,20,23,121,,23,28,057,,25,67,043,35,27,18,219,,0*69
$GPGSV,4,4,13,28,00,182,,0*56
$GAGSV,2,1,08,09,13,317,,10,64,334,36,11,56,117,36,12,07,130,,0*74
$GAGSV,2,2,08,17,31,040,36,23,38,222,36,24,86,021,36,27,31,126,36,0*7D
$GBGSV,3,1,09,01,38,122,30,02,50,173,30,04,36,126,29,06,37,216,30,0*7E
$GBGSV,3,2,09,09,37,287,,11,18,131,,12,10,061,,13,49,202,30,0*7C
$GBGSV,3,3,09,14,09,165,29,0*4B
$GNGLL,2959.99999,N,12000.00020,E,000033.00,A,A*78

$GNRMC,000034.00,A,2959.99999,N,12000.00020,E,0.012,,230721,5.69,W,A,V*59
$GNVTG,,T,,M,0.012,N,0.021,K,A*3D
$GNGGA,000034.00,2959.99999,N,12000.00020,E,1,12,0.88,-6.9,M,7.0,M,,*5C
$GNGSA,A,3,07,25,13,04,08,02,,,,,,,1.87,0.88,1.65,1*01
$GNGSA,A,3,24,10,27,17,11,23,,,,,,,1.87,0.88,1.65,3*0A
$GNGSA,A,3,13,06,,,,,,,,,,,1.87,0.88,1.65,4*0C
$GPGSV,4,1,13,01,00,121,,02,33,300,35,04,52,247,35,07,84,119,35,0*66
$GPGSV,4,2,13,08,47,207,35,10,01,310,,13,50,031,35,16,01,039,,0*64
$GPGSV,4,3,13,20,23,121,,23,28,057,,25,67,043,35,27,18,219,,0*69
$GPGSV,4,4,13,28,00,182,,0*56
$GAGSV,2,1,08,09,13,317,,10,64,334,36,11,56,117,36,12,07,130,,0*74
$GAGSV,2,2,08,17,31,040,36,23,38,222,36,24,86,021,36,27,31,126,36,0*7D
$GBGSV,3,1,09,01,38,122,29,02,50,173,30,04,36,126,30,06,37,216,30,0*7E
$GBGSV,3,2,09,09,37,287,,11,18,131,,12,10,061,,13,49,202,30,0*7C
$GBGSV,3,3,09,14,09,165,29,0*4B
$GNGLL,2959.99999,N,12000.00020,E,000034.00,A,A*7F

$GNRMC,000035.00,A,3000.00000,N,12000.00019,E,0.019,,230721,5.69,W,A,V*54
$GNVTG,,T,,M,0.019,N,0.034,K,A*32
$GNGGA,000035.00,3000.00000,N,12000.00019,E,1,12,0.88,-6.8,M,7.0,M,,*5B
$GNGSA,A,3,07,25,13,04,08,02,,,,,,,1.87,0.88,1.65,1*01
$GNGSA,A,3,24,10,27,17,11,23,,,,,,,1.87,0.88,1.65,3*0A
$GNGSA,A,3,13,06,,,,,,,,,,,1.87,0.88,1.65,4*0C
$GPGSV,4,1,13,01,00,121,,02,33,300,35,04,52,247,35,07,84,119,35,0*66
$GPGSV,4,2,13,08,47,207,35,10,01,310,,13,50,031,35,16,01,039,,0*64
$GPGSV,4,3,13,20,23,121,,23,28,057,,25,67,043,35,27,18,219,,0*69
$GPGSV,4,4,13,28,00,182,,0*56
$GAGSV,2,1,08,09,13,317,,10,64,334,36,11,56,117,36,12,07,130,,0*74
$GAGSV,2,2,08,17,31,040,36,23,38,222,36,24,86,021,36,27,31,126,36,0*7D
$GBGSV,3,1,09,01,38,122,30,02,50,173,30,04,36,126,30,06,37,216,30,0*76
$GBGSV,3,2,09,09,37,287,,11,18,131,,12,10,061,,13,49,202,30,0*7C
$GBGSV,3,3,09,14,09,165,29,0*4B
$GNGLL,3000.00000,N,12000.00019,E,000035.00,A,A*79

$GNRMC,000036.00,A,3000.00001,N,12000.00018,E,0.016,,230721,5.69,W,A,V*58
$GNVTG,,T,,M,0.016,N,0.029,K,A*31
$GNGGA,000036.00,3000.00001,N,12000.00018,E,1,12,0.88,-6.8,M,7.0,M,,*58
$GNGSA,A,3,07,25,13,04,08,02,,,,,,,1.87,0.88,1.65,1*01
$GNGSA,A,3,24,10,27,17,11,23,,,,,,,1.87,0.88,1.65,3*0A
$GNGSA,A,3,13,06,,,,,,,,,,,1.87,0.88,1.65,4*0C
$GPGSV,4,1,13,01,00,121,,02,33,300,35,04,52,247,35,07,84,119,35,0*66
$GPGSV,4,2,13,08,47,207,35,10,01,310,,13,50,031,35,16,01,039,,0*64
$GPGSV,4,3,13,20,23,121,,23,28,057,,25,67,043,35,27,18,219,,0*69
$GPGSV,4,4,13,28,00,182,,0*56
$GAGSV,2,1,08,09,13,317,,10,64,334,36,11,56,117,36,12,07,130,,0*74
$GAGSV,2,2,08,17,31,040,36,23,38,222,36,24,86,021,36,27,31,126,36,0*7D
$GBGSV,3,1,09,01,38,122,30,02,50,173,30,04,36,126,30,06,37,216,30,0*76
$GBGSV,3,2,09,09,37,287,,11,18,131,,12,10,061,,13,49,202,31,0*7D
$GBGSV,3,3,09,14,09,165,29,0*4B
$GNGLL,3000.00001,N,12000.00018,E,000036.00,A,A*7A

$GNRMC,000037.00,A,3000.00003,N,12000.00017,E,0.022,,230721,5.69,W,A,V*53
$GNVTG,,T,,M,0.022,N,0.041,K,A*38
$GNGGA,000037.00,3000.00003,N,12000.00017,E,1,12,0.88,-6.8,M,7.0,M,,*54
$GNGSA,A,3,07,25,13,04,08,02,,,,,,,1.87,0.88,1.65,1*01
$GNGSA,A,3,24,10,27,17,11,23,,,,,,,1.87,0.88,1.65,3*0A
$GNGSA,A,3,13,06,,,,,,,,,,,1.87,0.88,1.65,4*0C
$GPGSV,4,1,13,01,00,121,,02,33,300,35,04,52,247,35,07,84,119,35,0*66
$GPGSV,4,2,13,08,47,207,35,10,01,310,,13,50,031,35,16,01,039,,0*64
$GPGSV,4,3,13,20,23,121,,23,28,057,,25,67,043,35,27,18,219,,0*69
$GPGSV,4,4,13,28,00,182,,0*56
$GAGSV,2,1,08,09,13,317,,10,64,334,36,11,56,117,36,12,07,130,,0*74
$GAGSV,2,2,08,17,31,040,36,23,38,222,36,24,86,021,36,27,31,126,36,0*7D
$GBGSV,3,1,09,01,38,122,30,02,50,173,30,04,36,126,30,06,37,216,30,0*76
$GBGSV,3,2,09,09,37,287,,11,18,131,,12,10,061,,13,49,202,31,0*7D
$GBGSV,3,3,09,14,09,165,29,0*4B
$GNGLL,3000.00003,N,12000.00017,E,000037.00,A,A*76

$GNRMC,000038.00,A,3000.00004,N,12000.00016,E,0.007,,230721,5.69,W,A,V*5D
$GNVTG,,T,,M,0.007,N,0.012,K,A*39
$GNGGA,000038.00,3000.00004,N,12000.00016,E,1,12,0.88,-6.8,M,7.0,M,,*5D
$GNGSA,A,3,07,25,13,04,08,02,,,,,,,1.87,0.88,1.65,1*01
$GNGSA,A,3,24,10,27,17,11,23,,,,,,,1.87,0.88,1.65,3*0A
$GNGSA,A,3,13,06,,,,,,,,,,,1.87,0.88,1.65,4*0C
$GPGSV,4,1,13,01,00,121,,02,33,300,35,04,52,247,35,07,84,119,35,0*66
$GPGSV,4,2,13,08,47,207,35,10,01,310,,13,50,031,35,16,01,039,,0*64
$GPGSV,4,3,13,20,23,121,,23,28,057,,25,67,043,35,27,18,219,,0*69
$GPGSV,4,4,13,28,00,182,,0*56
$GAGSV,2,1,08,09,13,317,,10,64,334,36,11,56,117,36,12,07,130,,0*74
$GAGSV,2,2,08,17,31,040,36,23,38,222,36,24,86,021,36,27,31,126,36,0*7D
$GBGSV,3,1,09,01,38,122,30,02,50,173,30,04,36,126,30,06,37,216,30,0*76
$GBGSV,3,2,09,09,37,287,,11,18,131,,12,10,061,,13,49,202,30,0*7C
$GBGSV,3,3,09,14,09,165,29,0*4B
$GNGLL,3000.00004,N,12000.00016,E,000038.00,A,A*7F

$GNRMC,000039.00,A,3000.00004,N,12000.00016,E,0.018,,230721,5.69,W,A,V*52
$GNVTG,,T,,M,0.018,N,0.034,K,A*33
$GNGGA,000039.00,3000.00004,N,12000.00016,E,1,12,0.88,-6.8,M,7.0,M,,*5C
$GNGSA,A,3,07,25,13,04,08,02,,,,,,,1.87,0.88,1.65,1*01
$GNGSA,A,3,24,10,27,17,11,23,,,,,,,1.87,0.88,1.65,3*0A
$GNGSA,A,3,13,06,,,,,,,,,,,1.87,0.88,1.65,4*0C
$GPGSV,4,1,13,01,00,121,,02,33,300,35,04,52,247,35,07,84,119,35,0*66
$GPGSV,4,2,13,08,47,207,35,10,01,310,,13,50,031,35,16,01,039,,0*64
$GPGSV,4,3,13,20,23,121,,23,28,057,,25,67,043,35,27,18,219,,0*69
$GPGSV,4,4,13,28,00,182,,0*56
$GAGSV,2,1,08,09,13,317,,10,64,334,36,11,56,117,36,12,07,130,,0*74
$GAGSV,2,2,08,17,31,040,36,23,39,222,36,24,86,021,36,27,31,126,36,0*7C
$GBGSV,3,1,09,01,38,122,30,02,50,173,30,04,36,126,30,06,37,216,30,0*76
$GBGSV,3,2,09,09,37,287,,11,18,131,,12,10,061,,13,49,202,30,0*7C
$GBGSV,3,3,09,14,09,165,29,0*4B
$GNGLL,3000.00004,N,12000.00016,E,000039.00,A,A*7E

$GNRMC,000040.00,A,3000.00006,N,12000.00016,E,0.011,,230721,5.69,W,A,V*57
$GNVTG,,T,,M,0.011,N,0.021,K,A*3E
$GNGGA,000040.00,3000.00006,N,12000.00016,E,1,12,0.88,-6.9,M,7.0,M,,*51
$GNGSA,A,3,07,25,13,04,08,02,,,,,,,1.87,0.88,1.65,1*01
$GNGSA,A,3,24,10,27,17,11,23,,,,,,,1.87,0.88,1.65,3*0A
$GNGSA,A,3,13,06,,,,,,,,,,,1.87,0.88,1.65,4*0C
$GPGSV,4,1,13,01,00,121,,02,33,300,35,04,52,247,35,07,84,119,35,0*66
$GPGSV,4,2,13,08,47,207,35,10,01,310,,13,50,031,35,16,01,039,,0*64
$GPGSV,4,3,13,20,23,121,,23,28,057,,25,67,043,35,27,18,219,,0*69
$GPGSV,4,4,13,28,00,182,,0*56
$GAGSV,2,1,08,09,13,317,,10,64,334,36,11,56,117,36,12,07,130,,0*74
$GAGSV,2,2,08,17,31,040,36,23,39,222,36,24,86,021,36,27,31,126,36,0*7C
$GBGSV,3,1,09,01,38,122,30,02,50,173,30,04,36,126,30,06,37,216,30,0*76
$GBGSV,3,2,09,09,37,287,,11,18,131,,12,10,061,,13,49,202,30,0*7C
$GBGSV,3,3,09,14,09,165,29,0*4B
$GNGLL,3000.00006,N,12000.00016,E,000040.00,A,A*72

$GNRMC,000041.00,A,3000.00006,N,12000.00016,E,0.016,,230721,5.69,W,A,V*51
$GNVTG,,T,,M,0.016,N,0.030,K,A*39
$GNGGA,000041.00,3000.00006,N,12000.00016,E,1,12,0.88,-6.8,M,7.0,M,,*51
$GNGSA,A,3,07,25,13,04,08,02,,,,,,,1.87,0.88,1.65,1*01
$GNGSA,A,3,24,10,27,17,11,23,,,,,,,1.87,0.88,1.65,3*0A
$GNGSA,A,3,13,06,,,,,,,,,,,1.87,0.88,1.65,4*0C
$GPGSV,4,1,13,01,00,121,,02,33,300,35,04,52,247,35,07,84,119,35,0*66
$GPGSV,4,2,13,08,47,207,35,10,01,310,,13,50,031,35,16,01,039,,0*64
$GPGSV,4,3,13,20,23,121,,23,28,057,,25,67,043,35,27,18,219,,0*69
$GPGSV,4,4,13,28,00,182,,0*56
$GAGSV,2,1,08,09,13,317,,10,64,334,36,11,56,117,36,12,07,130,,0*74
$GAGSV,2,2,08,17,31,040,36,23,39,222,36,24,86,021,36,27,31,126,36,0*7C
$GBGSV,3,1,09,01,38,122,30,02,50,173,30,04,36,126,30,06,37,216,30,0*76
$GBGSV,3,2,09,09,37,287,,11,18,131,,12,10,061,,13,49,202,30,0*7C
$GBGSV,3,3,09,14,09,165,29,0*4B
$GNGLL,3000.00006,N,12000.00016,E,000041.00,A,A*73

$GNRMC,000042.00,A,3000.00006,N,12000.00017,E,0.019,,230721,5.69,W,A,V*5C
$GNVTG,,T,,M,0.019,N,0.034,K,A*32
$GNGGA,000042.00,3000.00006,N,12000.00017,E,1,12,0.88,-6.8,M,7.0,M,,*53
$GNGSA,A,3,07,25,13,04,08,02,,,,,,,1.87,0.88,1.65,1*01
$GNGSA,A,3,24,10,27,17,11,23,,,,,,,1.87,0.88,1.65,3*0A
$GNGSA,A,3,13,06,,,,,,,,,,,1.87,0.88,1.65,4*0C
$GPGSV,4,1,13,01,00,121,,02,33,300,35,04,52,247,35,07,84,119,35,0*66
$GPGSV,4,2,13,08,47,207,35,10,01,310,,13,50,031,35,16,01,039,,0*64
$GPGSV,4,3,13,20,23,121,,23,28,057,,25,67,043,35,27,18,219,,0*69
$GPGSV,4,4,13,28,00,182,,0*56
$GAGSV,2,1,08,09,13,317,,10,64,334,36,11,56,117,36,12,07,130,,0*74
$GAGSV,2,2,08,17,31,040,36,23,39,222,36,24,86,021,36,27,31,126,36,0*7C
$GBGSV,3,1,09,01,38,122,30,02,50,173,30,04,36,126,30,06,37,216,29,0*7E
$GBGSV,3,2,09,09,37,287,,11,18,131,,12,10,061,,13,49,202,30,0*7C
$GBGSV,3,3,09,14,09,165,29,0*4B
$GNGLL,3000.00006,N,12000.00017,E,000042.00,A,A*71

$GNRMC,000043.00,A,3000.00005,N,12000.00018,E,0.018,,230721,5.69,W,A,V*50
$GNVTG,,T,,M,0.018,N,0.032,K,A*35
$GNGGA,000043.00,3000.00005,N,12000.00018,E,1,12,0.88,-6.8,M,7.0,M,,*5E
$GNGSA,A,3,07,25,13,04,08,02,,,,,,,1.87,0.88,1.65,1*01
$GNGSA,A,3,24,10,27,17,11,23,,,,,,,1.87,0.88,1.65,3*0A
$GNGSA,A,3,13,06,,,,,,,,,,,1.87,0.88,1.65,4*0C
$GPGSV,4,1,13,01,00,121,,02,33,300,35,04,52,247,35,07,84,119,35,0*66
$GPGSV,4,2,13,08,47,207,35,10,01,310,,13,50,031,35,16,01,039,,0*64
$GPGSV,4,3,13,20,23,121,,23,28,057,,25,67,043,35,27,18,219,,0*69
$GPGSV,4,4,13,28,00,182,,0*56
$GAGSV,2,1,08,09,13,317,,10,64,334,36,11,56,117,36,12,07,130,,0*74
$GAGSV,2,2,08,17,31,040,36,23,39,222,36,24,86,021,36,27,31,126,36,0*7C
$GBGSV,3,1,09,01,38,122,30,02,50,173,30,04,36,126,30,06,37,216,29,0*7E
$GBGSV,3,2,09,09,37,287,,11,18,131,,12,10,061,,13,49,202,30,0*7C
$GBGSV,3,3,09,14,09,165,29,0*4B
$GNGLL,3000.00005,N,12000.00018,E,000043.00,A,A*7C

$GNRMC,000044.00,A,3000.00004,N,12000.00018,E,0.007,,230721,5.69,W,A,V*58
$GNVTG,,T,,M,0.007,N,0.012,K,A*39
$GNGGA,000044.00,3000.00004,N,12000.00018,E,1,12,0.88,-6.8,M,7.0,M,,*58
$GNGSA,A,3,07,25,13,04,08,02,,,,,,,1.87,0.88,1.65,1*01
$GNGSA,A,3,24,10,27,17,11,23,,,,,,,1.87,0.88,1.65,3*0A
$GNGSA,A,3,13,06,,,,,,,,,,,1.87,0.88,1.65,4*0C
$GPGSV,4,1,13,01,00,121,,02,33,300,35,04,52,247,35,07,84,119,35,0*66
$GPGSV,4,2,13,08,47,207,35,10,01,310,,13,50,031,35,16,01,039,,0*64
$GPGSV,4,3,13,20,23,121,,23,28,057,,25,67,043,35,27,18,219,,0*69
$GPGSV,4,4,13,28,00,182,,0*56
$GAGSV,2,1,08,09,13,317,,10,64,334,36,11,56,117,36,12,07,130,,0*74
$GAGSV,2,2,08,17,31,040,36,23,39,222,36,24,86,021,36,27,31,126,36,0*7C
$GBGSV,3,1,09,01,38,122,30,02,50,173,30,04,36,126,30,06,37,216,29,0*7E
$GBGSV,3,2,09,09,37,287,,11,18,131,,12,10,061,,13,49,202,30,0*7C
$GBGSV,3,3,09,14,09,165,29,0*4B
$GNGLL,3000.00004,N,12000.00018,E,000044.00,A,A*7A

$GNRMC,000045.00,A,3000.00003,N,12000.00019,E,0.002,,230721,5.69,W,A,V*5A
$GNVTG,,T,,M,0.002,N,0.004,K,A*3B
$GNGGA,000045.00,3000.00003,N,12000.00019,E,1,12,0.88,-6.8,M,7.0,M,,*5F
$GNGSA,A,3,07,25,13,04,08,02,,,,,,,1.87,0.88,1.65,1*01
$GNGSA,A,3,24,10,27,17,11,23,,,,,,,1.87,0.88,1.65,3*0A
$GNGSA,A,3,13,06,,,,,,,,,,,1.87,0.88,1.65,4*0C
$GPGSV,4,1,13,01,00,121,,02,33,300,35,04,52,247,35,07,84,119,35,0*66
$GPGSV,4,2,13,08,47,207,35,10,01,310,,13,50,031,35,16,01,039,,0*64
$GPGSV,4,3,13,20,23,121,,23,28,057,,25,67,043,35,27,18,219,,0*69
$GPGSV,4,4,13,28,00,182,,0*56
$GAGSV,2,1,08,09,13,317,,10,64,334,36,11,56,117,36,12,07,130,,0*74
$GAGSV,2,2,08,17,31,040,36,23,39,222,36,24,86,021,36,27,31,126,36,0*7C
$GBGSV,3,1,09,01,38,122,30,02,50,173,30,04,36,126,30,06,37,216,30,0*76
$GBGSV,3,2,09,09,37,287,,11,18,131,,12,10,061,,13,49,202,30,0*7C
$GBGSV,3,3,09,14,09,165,29,0*4B
$GNGLL,3000.00003,N,12000.00019,E,000045.00,A,A*7D

$GNRMC,000046.00,A,3000.00003,N,12000.00019,E,0.014,,230721,5.69,W,A,V*5E
$GNVTG,,T,,M,0.014,N,0.027,K,A*3D
$GNGGA,000046.00,3000.00003,N,12000.00019,E,1,12,0.88,-6.8,M,7.0,M,,*5C
$GNGSA,A,3,07,25,13,04,08,02,,,,,,,1.87,0.88,1.65,1*01
$GNGSA,A,3,24,10,27,17,11,23,,,,,,,1.87,0.88,1.65,3*0A
$GNGSA,A,3,13,06,,,,,,,,,,,1.87,0.88,1.65,4*0C
$GPGSV,4,1,13,01,00,121,,02,33,300,35,04,52,247,35,07,84,119,35,0*66
$GPGSV,4,2,13,08,47,207,35,10,01,310,,13,50,031,35,16,01,039,,0*64
$GPGSV,4,3,13,20,23,121,,23,28,057,,25,67,043,35,27,18,219,,0*69
$GPGSV,4,4,13,28,00,182,,0*56
$GAGSV,2,1,08,09,13,317,,10,64,334,36,11,56,117,36,12,07,130,,0*74
$GAGSV,2,2,08,17,31,040,36,23,39,222,36,24,86,021,36,27,31,126,36,0*7C
$GBGSV,3,1,09,01,38,122,30,02,50,173,30,04,36,126,29,06,37,216,30,0*7E
$GBGSV,3,2,09,09,37,287,,11,18,131,,12,10,061,,13,49,202,30,0*7C
$GBGSV,3,3,09,14,09,165,29,0*4B
$GNGLL,3000.00003,N,12000.00019,E,000046.00,A,A*7E

$GNRMC,000047.00,A,3000.00003,N,12000.00018,E,0.067,,230721,5.69,W,A,V*5A
$GNVTG,,T,,M,0.067,N,0.124,K,A*3B
$GNGGA,000047.00,3000.00003,N,12000.00018,E,1,12,0.82,-6.8,M,7.0,M,,*56
$GNGSA,A,3,07,25,13,04,08,02,,,,,,,1.81,0.82,1.61,1*09
$GNGSA,A,3,24,10,27,17,11,23,,,,,,,1.81,0.82,1.61,3*02
$GNGSA,A,3,09,13,06,,,,,,,,,,1.81,0.82,1.61,4*0D
$GPGSV,4,1,13,01,00,121,,02,33,300,35,04,52,247,35,07,84,119,35,0*66
$GPGSV,4,2,13,08,47,207,35,10,01,310,,13,50,031,35,16,01,039,,0*64
$GPGSV,4,3,13,20,23,121,,23,28,057,,25,67,043,35,27,18,219,,0*69
$GPGSV,4,4,13,28,00,182,,0*56
$GAGSV,2,1,08,09,13,317,,10,64,334,36,11,56,117,36,12,07,130,,0*74
$GAGSV,2,2,08,17,31,040,36,23,39,222,36,24,86,021,36,27,31,126,36,0*7C
$GBGSV,3,1,09,01,38,122,29,02,50,173,30,04,36,126,30,06,37,216,29,0*76
$GBGSV,3,2,09,09,37,287,30,11,18,131,,12,10,061,,13,49,202,30,0*7F
$GBGSV,3,3,09,14,09,165,29,0*4B
$GNGLL,3000.00003,N,12000.00018,E,000047.00,A,A*7E

$GNRMC,000048.00,A,3000.00003,N,12000.00017,E,0.014,,230721,5.69,W,A,V*5E
$GNVTG,,T,,M,0.014,N,0.026,K,A*3C
$GNGGA,000048.00,3000.00003,N,12000.00017,E,1,12,0.82,-6.7,M,7.0,M,,*59
$GNGSA,A,3,07,25,13,04,08,02,,,,,,,1.81,0.82,1.61,1*09
$GNGSA,A,3,24,10,27,17,11,23,,,,,,,1.81,0.82,1.61,3*02
$GNGSA,A,3,09,13,06,,,,,,,,,,1.81,0.82,1.61,4*0D
$GPGSV,4,1,13,01,00,121,,02,33,300,35,04,52,247,35,07,84,119,35,0*66
$GPGSV,4,2,13,08,47,207,35,10,01,310,,13,50,031,35,16,01,039,,0*64
$GPGSV,4,3,13,20,23,121,,23,28,057,,25,67,043,35,27,18,219,,0*69
$GPGSV,4,4,13,28,00,182,,0*56
$GAGSV,2,1,08,09,13,317,,10,64,334,36,11,56,117,36,12,07,130,,0*74
$GAGSV,2,2,08,17,31,040,36,23,39,222,36,24,86,021,36,27,31,126,36,0*7C
$GBGSV,3,1,09,01,38,122,30,02,50,173,30,04,36,126,29,06,37,216,29,0*76
$GBGSV,3,2,09,09,37,287,30,11,18,131,,12,10,061,,13,49,202,30,0*7F
$GBGSV,3,3,09,14,09,165,29,0*4B
$GNGLL,3000.00003,N,12000.00017,E,000048.00,A,A*7E

$GNRMC,000049.00,A,3000.00004,N,12000.00016,E,0.010,,230721,5.69,W,A,V*5D
$GNVTG,,T,,M,0.010,N,0.018,K,A*35
$GNGGA,000049.00,3000.00004,N,12000.00016,E,1,12,0.82,-6.7,M,7.0,M,,*5E
$GNGSA,A,3,07,25,13,04,08,02,,,,,,,1.81,0.82,1.61,1*09
$GNGSA,A,3,24,10,27,17,11,23,,,,,,,1.81,0.82,1.61,3*02
$GNGSA,A,3,09,13,06,,,,,,,,,,1.81,0.82,1.61,4*0D
$GPGSV,4,1,13,01,00,121,,02,33,300,35,04,52,247,35,07,84,119,35,0*66
$GPGSV,4,2,13,08,47,207,35,10,01,310,,13,50,031,35,16,01,039,,0*64
$GPGSV,4,3,13,20,23,121,,23,28,057,,25,67,043,35,27,18,219,,0*69
$GPGSV,4,4,13,28,00,182,,0*56
$GAGSV,2,1,08,09,13,317,,10,64,334,36,11,56,117,36,12,07,130,,0*74
$GAGSV,2,2,08,17,31,040,36,23,39,222,36,24,86,021,36,27,31,126,36,0*7C
$GBGSV,3,1,09,01,38,122,30,02,50,173,30,04,36,126,30,06,37,216,30,0*76
$GBGSV,3,2,09,09,37,287,29,11,18,131,,12,10,061,,13,49,202,30,0*77
$GBGSV,3,3,09,14,09,165,29,0*4B
$GNGLL,3000.00004,N,12000.00016,E,000049.00,A,A*79

$GNRMC,000050.00,A,3000.00003,N,12000.00015,E,0.018,,230721,5.69,W,A,V*59
$GNVTG,,T,,M,0.018,N,0.033,K,A*34
$GNGGA,000050.00,3000.00003,N,12000.00015,E,1,12,0.82,-6.7,M,7.0,M,,*52
$GNGSA,A,3,07,25,13,04,08,02,,,,,,,1.81,0.82,1.61,1*09
$GNGSA,A,3,24,10,27,17,11,23,,,,,,,1.81,0.82,1.61,3*02
$GNGSA,A,3,09,13,06,,,,,,,,,,1.81,0.82,1.61,4*0D
$GPGSV,4,1,13,01,00,121,,02,33,300,35,04,52,247,35,07,84,119,35,0*66
$GPGSV,4,2,13,08,47,207,35,10,01,310,,13,50,031,35,16,01,039,,0*64
$GPGSV,4,3,13,20,23,121,,23,28,057,,25,67,043,35,27,18,219,,0*69
$GPGSV,4,4,13,28,00,182,,0*56
$GAGSV,2,1,08,09,13,317,,10,64,334,36,11,56,117,36,12,07,130,,0*74
$GAGSV,2,2,08,17,31,040,36,23,39,222,36,24,86,021,36,27,31,126,36,0*7C
$GBGSV,3,1,09,01,38,122,30,02,50,173,30,04,36,126,30,06,37,216,30,0*76
$GBGSV,3,2,09,09,37,287,29,11,18,131,,12,10,061,,13,49,202,30,0*77
$GBGSV,3,3,09,14,09,165,29,0*4B
$GNGLL,3000.00003,N,12000.00015,E,000050.00,A,A*75

$GNRMC,000051.00,A,3000.00004,N,12000.00014,E,0.031,,230721,5.69,W,A,V*55
$GNVTG,,T,,M,0.031,N,0.058,K,A*32
$GNGGA,000051.00,3000.00004,N,12000.00014,E,1,12,0.82,-6.7,M,7.0,M,,*55
$GNGSA,A,3,07,25,13,04,08,02,,,,,,,1.81,0.82,1.61,1*09
$GNGSA,A,3,24,10,27,17,11,23,,,,,,,1.81,0.82,1.61,3*02
$GNGSA,A,3,09,13,06,,,,,,,,,,1.81,0.82,1.61,4*0D
$GPGSV,4,1,13,01,00,121,,02,33,300,35,04,52,247,35,07,84,119,35,0*66
$GPGSV,4,2,13,08,47,207,35,10,01,310,,13,50,031,35,16,01,039,,0*64
$GPGSV,4,3,13,20,23,121,,23,28,057,,25,67,043,35,27,18,219,,0*69
$GPGSV,4,4,13,28,00,182,,0*56
$GAGSV,2,1,08,09,13,317,,10,64,334,36,11,56,117,36,12,07,130,,0*74
$GAGSV,2,2,08,17,31,040,36,23,39,222,36,24,86,021,36,27,31,126,36,0*7C
$GBGSV,3,1,09,01,38,122,30,02,50,173,30,04,36,126,30,06,37,216,29,0*7E
$GBGSV,3,2,09,09,37,287,29,11,18,131,,12,10,061,,13,49,202,30,0*77
$GBGSV,3,3,09,14,09,165,29,0*4B
$GNGLL,3000.00004,N,12000.00014,E,000051.00,A,A*72

$GNRMC,000052.00,A,3000.00004,N,12000.00013,E,0.028,,230721,5.69,W,A,V*59
$GNVTG,,T,,M,0.028,N,0.051,K,A*33
$GNGGA,000052.00,3000.00004,N,12000.00013,E,1,12,0.82,-6.7,M,7.0,M,,*51
$GNGSA,A,3,07,25,13,04,08,02,,,,,,,1.81,0.82,1.61,1*09
$GNGSA,A,3,24,10,27,17,11,23,,,,,,,1.81,0.82,1.61,3*02
$GNGSA,A,3,09,13,06,,,,,,,,,,1.81,0.82,1.61,4*0D
$GPGSV,4,1,13,01,00,121,,02,33,300,35,04,52,247,35,07,84,119,35,0*66
$GPGSV,4,2,13,08,47,207,35,10,01,310,,13,50,031,35,16,01,039,,0*64
$GPGSV,4,3,13,20,23,121,,23,28,057,,25,67,043,35,27,18,219,,0*69
$GPGSV,4,4,13,28,00,182,,0*56
$GAGSV,2,1,08,09,13,317,,10,64,334,36,11,56,117,36,12,07,130,,0*74
$GAGSV,2,2,08,17,31,040,36,23,39,222,36,24,86,021,36,27,31,126,36,0*7C
$GBGSV,3,1,09,01,38,122,30,02,50,173,30,04,36,126,29,06,37,216,29,0*76
$GBGSV,3,2,09,09,37,287,29,11,18,131,,12,10,061,,13,49,202,30,0*77
$GBGSV,3,3,09,14,09,165,29,0*4B
$GNGLL,3000.00004,N,12000.00013,E,000052.00,A,A*76

$GNRMC,000053.00,A,3000.00004,N,12000.00012,E,0.012,,230721,5.69,W,A,V*50
$GNVTG,,T,,M,0.012,N,0.023,K,A*3F
$GNGGA,000053.00,3000.00004,N,12000.00012,E,1,12,0.82,-6.7,M,7.0,M,,*51
$GNGSA,A,3,07,25,13,04,08,02,,,,,,,1.81,0.82,1.61,1*09
$GNGSA,A,3,24,10,27,17,11,23,,,,,,,1.81,0.82,1.61,3*02
$GNGSA,A,3,09,13,06,,,,,,,,,,1.81,0.82,1.61,4*0D
$GPGSV,4,1,13,01,00,121,,02,33,300,35,04,52,247,35,07,84,119,35,0*66
$GPGSV,4,2,13,08,47,207,35,10,01,310,,13,50,031,35,16,01,039,,0*64
$GPGSV,4,3,13,20,23,121,,23,28,057,,25,67,043,35,27,18,219,,0*69
$GPGSV,4,4,13,28,00,182,,0*56
$GAGSV,2,1,08,09,13,317,,10,64,334,36,11,56,117,36,12,07,130,,0*74
$GAGSV,2,2,08,17,31,040,36,23,39,222,36,24,86,021,36,27,31,126,36,0*7C
$GBGSV,3,1,09,01,38,122,30,02,50,173,30,04,36,126,30,06,37,216,29,0*7E
$GBGSV,3,2,09,09,37,287,30,11,18,131,,12,10,061,,13,49,202,30,0*7F
$GBGSV,3,3,09,14,09,165,29,0*4B
$GNGLL,3000.00004,N,12000.00012,E,000053.00,A,A*76

$GNRMC,000054.00,A,3000.00003,N,12000.00011,E,0.008,,230721,5.69,W,A,V*58
$GNVTG,,T,,M,0.008,N,0.016,K,A*32
$GNGGA,000054.00,3000.00003,N,12000.00011,E,1,12,0.82,-6.7,M,7.0,M,,*52
$GNGSA,A,3,07,25,13,04,08,02,,,,,,,1.81,0.82,1.61,1*09
$GNGSA,A,3,24,10,27,17,11,23,,,,,,,1.81,0.82,1.61,3*02
$GNGSA,A,3,09,13,06,,,,,,,,,,1.81,0.82,1.61,4*0D
$GPGSV,4,1,13,01,00,121,,02,33,300,35,04,52,247,35,07,84,119,35,0*66
$GPGSV,4,2,13,08,47,207,35,10,01,310,,13,50,031,35,16,01,039,,0*64
$GPGSV,4,3,13,20,23,121,,23,28,057,,25,67,043,35,27,18,219,,0*69
$GPGSV,4,4,13,28,00,182,,0*56
$GAGSV,2,1,08,09,13,317,,10,64,334,36,11,56,117,36,12,07,130,,0*74
$GAGSV,2,2,08,17,31,040,36,23,39,222,36,24,86,021,36,27,31,126,36,0*7C
$GBGSV,3,1,09,01,38,122,30,02,50,173,30,04,36,126,30,06,37,216,29,0*7E
$GBGSV,3,2,09,09,37,287,30,11,18,131,,12,10,061,,13,49,202,30,0*7F
$GBGSV,3,3,09,14,09,165,29,0*4B
$GNGLL,3000.00003,N,12000.00011,E,000054.00,A,A*75

$GNRMC,000055.00,A,3000.00003,N,12000.00011,E,0.029,,230721,5.69,W,A,V*5A
$GNVTG,,T,,M,0.029,N,0.053,K,A*30
$GNGGA,000055.00,3000.00003,N,12000.00011,E,1,12,0.82,-6.6,M,7.0,M,,*52
$GNGSA,A,3,07,25,13,04,08,02,,,,,,,1.81,0.82,1.61,1*09
$GNGSA,A,3,24,10,27,17,11,23,,,,,,,1.81,0.82,1.61,3*02
$GNGSA,A,3,09,13,06,,,,,,,,,,1.81,0.82,1.61,4*0D
$GPGSV,4,1,13,01,00,121,,02,33,300,35,04,52,247,35,07,84,119,35,0*66
$GPGSV,4,2,13,08,47,207,35,10,01,310,,13,50,031,35,16,01,039,,0*64
$GPGSV,4,3,13,20,23,121,,23,28,057,,25,67,043,35,27,18,219,,0*69
$GPGSV,4,4,13,28,00,182,,0*56
$GAGSV,2,1,08,09,13,317,,10,64,334,36,11,56,117,36,12,07,130,,0*74
$GAGSV,2,2,08,17,31,040,36,23,39,222,36,24,86,021,36,27,31,126,36,0*7C
$GBGSV,3,1,09,01,38,122,30,02,50,173,30,04,36,126,30,06,37,216,30,0*76
$GBGSV,3,2,09,09,37,287,29,11,18,131,,12,10,061,,13,49,202,30,0*77
$GBGSV,3,3,09,14,09,165,29,0*4B
$GNGLL,3000.00003,N,12000.00011,E,000055.00,A,A*74

$GNRMC,000056.00,A,3000.00004,N,12000.00011,E,0.022,,230721,5.69,W,A,V*55
$GNVTG,,T,,M,0.022,N,0.041,K,A*38
$GNGGA,000056.00,3000.00004,N,12000.00011,E,1,12,0.82,-6.6,M,7.0,M,,*56
$GNGSA,A,3,07,25,13,04,08,02,,,,,,,1.81,0.82,1.61,1*09
$GNGSA,A,3,24,10,27,17,11,23,,,,,,,1.81,0.82,1.61,3*02
$GNGSA,A,3,09,13,06,,,,,,,,,,1.81,0.82,1.61,4*0D
$GPGSV,4,1,13,01,00,121,,02,33,300,35,04,52,247,35,07,84,119,35,0*66
$GPGSV,4,2,13,08,47,207,35,10,01,310,,13,50,031,35,16,01,039,,0*64
$GPGSV,4,3,13,20,23,121,,23,28,057,,25,67,043,35,27,18,219,,0*69
$GPGSV,4,4,13,28,00,182,,0*56
$GAGSV,2,1,08,09,13,317,,10,64,334,36,11,56,117,36,12,07,130,,0*74
$GAGSV,2,2,08,17,31,040,36,23,39,222,36,24,86,021,36,27,31,126,36,0*7C
$GBGSV,3,1,09,01,38,122,30,02,50,173,30,04,36,126,29,06,37,216,29,0*76
$GBGSV,3,2,09,09,37,287,30,11,18,131,,12,10,061,,13,49,202,30,0*7F
$GBGSV,3,3,09,14,09,165,29,0*4B
$GNGLL,3000.00004,N,12000.00011,E,000056.00,A,A*70

$GNRMC,000057.00,A,3000.00005,N,12000.00010,E,0.015,,230721,5.69,W,A,V*50
$GNVTG,,T,,M,0.015,N,0.029,K,A*32
$GNGGA,000057.00,3000.00005,N,12000.00010,E,1,12,0.82,-6.6,M,7.0,M,,*57
$GNGSA,A,3,07,25,13,04,08,02,,,,,,,1.81,0.82,1.61,1*09
$GNGSA,A,3,24,10,27,17,11,23,,,,,,,1.81,0.82,1.61,3*02
$GNGSA,A,3,09,13,06,,,,,,,,,,1.81,0.82,1.61,4*0D
$GPGSV,4,1,13,01,00,121,,02,33,300,35,04,52,247,35,07,84,119,35,0*66
$GPGSV,4,2,13,08,47,207,35,10,01,310,,13,50,031,35,16,01,039,,0*64
$GPGSV,4,3,13,20,23,121,,23,28,057,,25,67,043,35,27,18,219,,0*69
$GPGSV,4,4,13,28,00,182,,0*56
$GAGSV,2,1,08,09,13,317,,10,64,334,36,11,56,117,36,12,07,130,,0*74
$GAGSV,2,2,08,17,31,040,36,23,39,222,36,24,86,021,36,27,31,126,36,0*7C
$GBGSV,3,1,09,01,38,122,30,02,50,173,30,04,36,126,30,06,37,216,30,0*76
$GBGSV,3,2,09,09,37,287,29,11,18,131,,12,10,061,,13,49,202,30,0*77
$GBGSV,3,3,09,14,09,165,29,0*4B
$GNGLL,3000.00005,N,12000.00010,E,000057.00,A,A*71

$GNRMC,000058.00,A,3000.00005,N,12000.00010,E,0.025,,230721,5.69,W,A,V*5C
$GNVTG,,T,,M,0.025,N,0.046,K,A*38
$GNGGA,000058.00,3000.00005,N,12000.00010,E,1,12,0.82,-6.6,M,7.0,M,,*58
$GNGSA,A,3,07,25,13,04,08,02,,,,,,,1.81,0.82,1.61,1*09
$GNGSA,A,3,24,10,27,17,11,23,,,,,,,1.81,0.82,1.61,3*02
$GNGSA,A,3,09,13,06,,,,,,,,,,1.81,0.82,1.61,4*0D
$GPGSV,4,1,13,01,00,121,,02,33,300,35,04,52,247,35,07,84,119,35,0*66
$GPGSV,4,2,13,08,47,207,35,10,01,310,,13,50,031,35,16,01,039,,0*64
$GPGSV,4,3,13,20,23,121,,23,28,057,,25,67,043,35,27,18,219,,0*69
$GPGSV,4,4,13,28,00,182,,0*56
$GAGSV,2,1,08,09,13,317,,10,64,334,36,11,56,117,36,12,07,130,,0*74
$GAGSV,2,2,08,17,31,040,36,23,39,222,36,24,86,021,36,27,31,126,36,0*7C
$GBGSV,3,1,09,01,38,122,30,02,50,173,30,04,36,126,30,06,37,216,30,0*76
$GBGSV,3,2,09,09,37,287,30,11,18,131,,12,10,061,,13,49,202,30,0*7F
$GBGSV,3,3,09,14,09,165,29,0*4B
$GNGLL,3000.00005,N,12000.00010,E,000058.00,A,A*7E

$GNRMC,000059.00,A,3000.00006,N,12000.00011,E,0.022,,230721,5.69,W,A,V*58
$GNVTG,,T,,M,0.022,N,0.040,K,A*39
$GNGGA,000059.00,3000.00006,N,12000.00011,E,1,12,0.82,-6.6,M,7.0,M,,*5B
$GNGSA,A,3,07,25,13,04,08,02,,,,,,,1.81,0.82,1.61,1*09
$GNGSA,A,3,24,10,27,17,11,23,,,,,,,1.81,0.82,1.61,3*02
$GNGSA,A,3,09,13,06,,,,,,,,,,1.81,0.82,1.61,4*0D
$GPGSV,4,1,13,01,00,121,,02,33,300,35,04,52,247,35,07,84,119,35,0*66
$GPGSV,4,2,13,08,47,207,35,10,01,310,,13,50,031,35,16,01,039,,0*64
$GPGSV,4,3,13,20,23,121,,23,28,057,,25,67,043,35,27,18,219,,0*69
$GPGSV,4,4,13,28,00,182,,0*56
$GAGSV,2,1,08,09,13,317,,10,64,334,36,11,56,117,36,12,07,130,,0*74
$GAGSV,2,2,08,17,31,040,36,23,39,222,36,24,86,021,36,27,31,126,36,0*7C
$GBGSV,3,1,09,01,38,122,30,02,50,173,30,04,36,126,30,06,37,216,29,0*7E
$GBGSV,3,2,09,09,37,287,29,11,18,131,,12,10,061,,13,49,202,31,0*76
$GBGSV,3,3,09,14,09,165,29,0*4B
$GNGLL,3000.00006,N,12000.00011,E,000059.00,A,A*7D

$GNRMC,000100.00,A,3000.00006,N,12000.00011,E,0.013,,230721,5.69,W,A,V*57
$GNVTG,,T,,M,0.013,N,0.024,K,A*39
$GNGGA,000100.00,3000.00006,N,12000.00011,E,1,12,0.82,-6.5,M,7.0,M,,*55
$GNGSA,A,3,07,25,13,04,08,02,,,,,,,1.81,0.82,1.61,1*09
$GNGSA,A,3,24,10,27,17,11,23,,,,,,,1.81,0.82,1.61,3*02
$GNGSA,A,3,09,13,06,,,,,,,,,,1.81,0.82,1.61,4*0D
$GPGSV,4,1,13,01,00,121,,02,33,300,35,04,52,247,35,07,84,119,35,0*66
$GPGSV,4,2,13,08,47,207,35,10,01,310,,13,50,031,35,16,01,039,,0*64
$GPGSV,4,3,13,20,23,121,,23,28,057,,25,67,043,35,27,18,219,,0*69
$GPGSV,4,4,13,28,00,182,,0*56
$GAGSV,2,1,08,09,13,317,,10,64,334,36,11,56,117,36,12,07,130,,0*74
$GAGSV,2,2,08,17,31,040,36,23,39,222,36,24,86,021,36,27,31,126,36,0*7C
$GBGSV,3,1,09,01,38,122,30,02,50,173,30,04,36,126,30,06,37,216,29,0*7E
$GBGSV,3,2,09,09,37,287,30,11,18,131,,12,10,061,,13,49,202,30,0*7F
$GBGSV,3,3,09,14,09,165,29,0*4B
$GNGLL,3000.00006,N,12000.00011,E,000100.00,A,A*70

$GNRMC,000101.00,A,3000.00005,N,12000.00011,E,0.022,,230721,5.69,W,A,V*57
$GNVTG,,T,,M,0.022,N,0.040,K,A*39
$GNGGA,000101.00,3000.00005,N,12000.00011,E,1,12,0.82,-6.5,M,7.0,M,,*57
$GNGSA,A,3,07,25,13,04,08,02,,,,,,,1.81,0.82,1.61,1*09
$GNGSA,A,3,24,10,27,17,11,23,,,,,,,1.81,0.82,1.61,3*02
$GNGSA,A,3,09,13,06,,,,,,,,,,1.81,0.82,1.61,4*0D
$GPGSV,4,1,13,01,00,121,,02,33,300,35,04,52,247,35,07,84,119,35,0*66
$GPGSV,4,2,13,08,47,207,35,10,01,310,,13,50,031,35,16,01,039,,0*64
$GPGSV,4,3,13,20,23,121,,23,28,057,,25,67,043,35,27,18,219,,0*69
$GPGSV,4,4,13,28,00,182,,0*56
$GAGSV,2,1,08,09,13,317,,10,64,334,36,11,56,117,36,12,07,130,,0*74
$GAGSV,2,2,08,17,31,040,36,23,39,222,36,24,86,021,36,27,31,126,36,0*7C
$GBGSV,3,1,09,01,38,122,30,02,50,173,30,04,36,126,30,06,37,216,29,0*7E
$GBGSV,3,2,09,09,37,287,30,11,18,131,,12,10,061,,13,49,202,30,0*7F
$GBGSV,3,3,09,14,09,165,29,0*4B
$GNGLL,3000.00005,N,12000.00011,E,000101.00,A,A*72

$GNRMC,000102.00,A,3000.00003,N,12000.00011,E,0.036,,230721,5.69,W,A,V*57
$GNVTG,,T,,M,0.036,N,0.068,K,A*36
$GNGGA,000102.00,3000.00003,N,12000.00011,E,1,12,0.82,-6.5,M,7.0,M,,*52
$GNGSA,A,3,07,25,13,04,08,02,,,,,,,1.81,0.82,1.61,1*09
$GNGSA,A,3,24,10,27,17,11,23,,,,,,,1.81,0.82,1.61,3*02
$GNGSA,A,3,09,13,06,,,,,,,,,,1.81,0.82,1.61,4*0D
$GPGSV,4,1,13,01,00,121,,02,33,300,35,04,52,247,35,07,84,119,35,0*66
$GPGSV,4,2,13,08,47,207,35,10,01,310,,13,50,031,35,16,01,039,,0*64
$GPGSV,4,3,13,20,23,121,,23,28,057,,25,67,043,35,27,18,219,,0*69
$GPGSV,4,4,13,28,00,182,,0*56
$GAGSV,2,1,08,09,13,317,,10,64,334,36,11,56,117,36,12,07,130,,0*74
$GAGSV,2,2,08,17,31,040,36,23,39,222,36,24,86,021,36,27,31,126,36,0*7C
$GBGSV,3,1,09,01,38,122,29,02,50,173,30,04,36,126,30,06,37,216,29,0*76
$GBGSV,3,2,09,09,37,287,29,11,18,131,,12,10,061,,13,49,202,30,0*77
$GBGSV,3,3,09,14,09,165,29,0*4B
$GNGLL,3000.00003,N,12000.00011,E,000102.00,A,A*77

$GNRMC,000103.00,A,3000.00002,N,12000.00011,E,0.003,,230721,5.69,W,A,V*51
$GNVTG,,T,,M,0.003,N,0.006,K,A*38
$GNGGA,000103.00,3000.00002,N,12000.00011,E,1,12,0.82,-6.5,M,7.0,M,,*52
$GNGSA,A,3,07,25,13,04,08,02,,,,,,,1.81,0.82,1.61,1*09
$GNGSA,A,3,24,10,27,17,11,23,,,,,,,1.81,0.82,1.61,3*02
$GNGSA,A,3,09,13,06,,,,,,,,,,1.81,0.82,1.61,4*0D
$GPGSV,4,1,13,01,00,121,,02,33,300,35,04,52,247,35,07,84,119,35,0*66
$GPGSV,4,2,13,08,47,207,35,10,01,310,,13,50,031,35,16,01,039,,0*64
$GPGSV,4,3,13,20,23,121,,23,28,057,,25,67,043,35,27,18,219,,0*69
$GPGSV,4,4,13,28,00,182,,0*56
$GAGSV,2,1,08,09,13,317,,10,64,334,36,11,56,117,36,12,07,130,,0*74
$GAGSV,2,2,08,17,31,040,36,23,39,222,36,24,86,021,36,27,31,126,36,0*7C
$GBGSV,3,1,09,01,38,122,30,02,50,173,30,04,36,126,30,06,37,216,29,0*7E
$GBGSV,3,2,09,09,37,287,29,11,18,131,,12,10,061,,13,49,202,30,0*77
$GBGSV,3,3,09,14,09,165,29,0*4B
$GNGLL,3000.00002,N,12000.00011,E,000103.00,A,A*77

$GNRMC,000104.00,A,3000.00002,N,12000.00011,E,0.024,,230721,5.69,W,A,V*53
$GNVTG,,T,,M,0.024,N,0.044,K,A*3B
$GNGGA,000104.00,3000.00002,N,12000.00011,E,1,12,0.82,-6.5,M,7.0,M,,*55
$GNGSA,A,3,07,25,13,04,08,02,,,,,,,1.81,0.82,1.61,1*09
$GNGSA,A,3,24,10,27,17,11,23,,,,,,,1.81,0.82,1.61,3*02
$GNGSA,A,3,09,13,06,,,,,,,,,,1.81,0.82,1.61,4*0D
$GPGSV,4,1,13,01,00,121,,02,33,300,35,04,52,247,35,07,84,119,35,0*66
$GPGSV,4,2,13,08,47,207,35,10,01,310,,13,50,031,35,16,01,039,,0*64
$GPGSV,4,3,13,20,23,121,,23,28,057,,25,67,043,35,27,18,219,,0*69
$GPGSV,4,4,13,28,00,182,,0*56
$GAGSV,2,1,08,09,13,317,,10,64,334,36,11,56,117,36,12,07,130,,0*74
$GAGSV,2,2,08,17,31,040,36,23,39,222,36,24,86,021,36,27,31,126,36,0*7C
$GBGSV,3,1,09,01,38,122,30,02,50,173,30,04,36,126,30,06,37,216,30,0*76
$GBGSV,3,2,09,09,37,287,29,11,18,131,,12,10,061,,13,49,202,30,0*77
$GBGSV,3,3,09,14,09,165,29,0*4B
$GNGLL,3000.00002,N,12000.00011,E,000104.00,A,A*70

$GNRMC,000105.00,A,3000.00002,N,12000.00011,E,0.030,,230721,5.69,W,A,V*57
$GNVTG,,T,,M,0.030,N,0.056,K,A*3D
$GNGGA,000105.00,3000.00002,N,12000.00011,E,1,12,0.82,-6.5,M,7.0,M,,*54
$GNGSA,A,3,07,25,13,04,08,02,,,,,,,1.81,0.82,1.61,1*09
$GNGSA,A,3,24,10,27,17,11,23,,,,,,,1.81,0.82,1.61,3*02
$GNGSA,A,3,09,13,06,,,,,,,,,,1.81,0.82,1.61,4*0D
$GPGSV,4,1,13,01,00,121,,02,33,300,35,04,52,247,35,07,84,119,35,0*66
$GPGSV,4,2,13,08,47,207,35,10,01,310,,13,50,031,35,16,01,039,,0*64
$GPGSV,4,3,13,20,23,121,,23,28,057,,25,67,043,35,27,18,219,,0*69
$GPGSV,4,4,13,28,00,182,,0*56
$GAGSV,2,1,08,09,13,317,,10,64,334,36,11,56,117,36,12,07,130,,0*74
$GAGSV,2,2,08,17,31,040,36,23,39,222,36,24,86,021,36,27,31,126,36,0*7C
$GBGSV,3,1,09,01,38,122,30,02,50,173,30,04,36,126,29,06,37,216,29,0*76
$GBGSV,3,2,09,09,37,287,30,11,18,131,,12,10,061,,13,49,202,30,0*7F
$GBGSV,3,3,09,14,09,165,29,0*4B
$GNGLL,3000.00002,N,12000.00011,E,000105.00,A,A*71

$GNRMC,000106.00,A,3000.00002,N,12000.00010,E,0.030,,230721,5.69,W,A,V*55
$GNVTG,,T,,M,0.030,N,0.056,K,A*3D
$GNGGA,000106.00,3000.00002,N,12000.00010,E,1,12,0.82,-6.5,M,7.0,M,,*56
$GNGSA,A,3,07,25,13,04,08,02,,,,,,,1.81,0.82,1.61,1*09
$GNGSA,A,3,24,10,27,17,11,23,,,,,,,1.81,0.82,1.61,3*02
$GNGSA,A,3,09,13,06,,,,,,,,,,1.81,0.82,1.61,4*0D
$GPGSV,4,1,13,01,00,121,,02,33,300,35,04,52,247,35,07,84,119,35,0*66
$GPGSV,4,2,13,08,47,207,35,10,01,310,,13,50,031,35,16,01,039,,0*64
$GPGSV,4,3,13,20,23,121,,23,28,057,,25,67,043,35,27,18,219,,0*69
$GPGSV,4,4,13,28,00,182,,0*56
$GAGSV,2,1,08,09,13,317,,10,64,334,36,11,56,117,36,12,07,130,,0*74
$GAGSV,2,2,08,17,31,040,36,23,39,222,36,24,86,021,36,27,31,126,36,0*7C
$GBGSV,3,1,09,01,38,122,30,02,50,173,30,04,36,126,29,06,37,216,29,0*76
$GBGSV,3,2,09,09,37,287,29,11,18,131,,12,10,061,,13,49,202,30,0*77
$GBGSV,3,3,09,14,09,165,29,0*4B
$GNGLL,3000.00002,N,12000.00010,E,000106.00,A,A*73

$GNRMC,000107.00,A,3000.00002,N,12000.00010,E,0.012,,230721,5.69,W,A,V*54
$GNVTG,,T,,M,0.012,N,0.022,K,A*3E
$GNGGA,000107.00,3000.00002,N,12000.00010,E,1,12,0.82,-6.5,M,7.0,M,,*57
$GNGSA,A,3,07,25,13,04,08,02,,,,,,,1.81,0.82,1.61,1*09
$GNGSA,A,3,24,10,27,17,11,23,,,,,,,1.81,0.82,1.61,3*02
$GNGSA,A,3,09,13,06,,,,,,,,,,1.81,0.82,1.61,4*0D
$GPGSV,4,1,13,01,00,121,,02,33,300,35,04,52,247,35,07,84,119,35,0*66
$GPGSV,4,2,13,08,47,207,35,10,01,310,,13,50,031,35,16,01,039,,0*64
$GPGSV,4,3,13,20,23,121,,23,28,057,,25,67,043,35,27,18,219,,0*69
$GPGSV,4,4,13,28,00,182,,0*56
$GAGSV,2,1,08,09,13,317,,10,64,334,36,11,56,117,36,12,07,130,,0*74
$GAGSV,2,2,08,17,31,040,36,23,39,222,36,24,86,021,36,27,31,126,36,0*7C
$GBGSV,3,1,09,01,38,122,30,02,50,173,30,04,36,126,30,06,37,216,29,0*7E
$GBGSV,3,2,09,09,37,287,29,11,18,131,,12,10,061,,13,49,202,30,0*77
$GBGSV,3,3,09,14,09,165,29,0*4B
$GNGLL,3000.00002,N,12000.00010,E,000107.00,A,A*72

$GNRMC,000108.00,A,3000.00002,N,12000.00010,E,0.026,,230721,5.69,W,A,V*5C
$GNVTG,,T,,M,0.026,N,0.048,K,A*35
$GNGGA,000108.00,3000.00002,N,12000.00010,E,1,12,0.82,-6.5,M,7.0,M,,*58
$GNGSA,A,3,07,25,13,04,08,02,,,,,,,1.81,0.82,1.61,1*09
$GNGSA,A,3,24,10,27,17,11,23,,,,,,,1.81,0.82,1.61,3*02
$GNGSA,A,3,09,13,06,,,,,,,,,,1.81,0.82,1.61,4*0D
$GPGSV,4,1,13,01,00,121,,02,33,300,35,04,52,247,35,07,84,119,35,0*66
$GPGSV,4,2,13,08,47,207,35,10,01,310,,13,50,031,35,16,01,039,,0*64
$GPGSV,4,3,13,20,23,121,,23,28,057,,25,67,043,35,27,18,219,,0*69
$GPGSV,4,4,13,28,00,182,,0*56
$GAGSV,2,1,08,09,13,317,,10,64,334,36,11,56,117,36,12,07,130,,0*74
$GAGSV,2,2,08,17,31,040,36,23,39,222,36,24,86,021,36,27,31,126,36,0*7C
$GBGSV,3,1,09,01,38,122,30,02,50,173,30,04,36,126,29,06,37,216,29,0*76
$GBGSV,3,2,09,09,37,287,30,11,18,131,,12,10,061,,13,49,202,30,0*7F
$GBGSV,3,3,09,14,09,165,29,0*4B
$GNGLL,3000.00002,N,12000.00010,E,000108.00,A,A*7D

$GNRMC,000109.00,A,3000.00002,N,12000.00011,E,0.005,,230721,5.69,W,A,V*5D
$GNVTG,,T,,M,0.005,N,0.009,K,A*31
$GNGGA,000109.00,3000.00002,N,12000.00011,E,1,12,0.82,-6.5,M,7.0,M,,*58
$GNGSA,A,3,07,25,13,04,08,02,,,,,,,1.81,0.82,1.61,1*09
$GNGSA,A,3,24,10,27,17,11,23,,,,,,,1.81,0.82,1.61,3*02
$GNGSA,A,3,09,13,06,,,,,,,,,,1.81,0.82,1.61,4*0D
$GPGSV,4,1,13,01,00,121,,02,33,300,35,04,52,247,35,07,84,119,35,0*66
$GPGSV,4,2,13,08,47,207,35,10,01,310,,13,50,031,35,16,01,039,,0*64
$GPGSV,4,3,13,20,23,121,,23,28,057,,25,67,043,35,27,18,219,,0*69
$GPGSV,4,4,13,28,00,182,,0*56
$GAGSV,2,1,08,09,13,317,,10,64,334,36,11,56,117,36,12,07,130,,0*74
$GAGSV,2,2,08,17,31,040,36,23,39,222,36,24,86,021,36,27,31,126,36,0*7C
$GBGSV,3,1,09,01,38,122,30,02,50,173,30,04,36,126,30,06,37,216,29,0*7E
$GBGSV,3,2,09,09,37,287,30,11,18,131,,12,10,061,,13,49,202,30,0*7F
$GBGSV,3,3,09,14,09,165,29,0*4B
$GNGLL,3000.00002,N,12000.00011,E,000109.00,A,A*7D

$GNRMC,000110.00,A,3000.00002,N,12000.00010,E,0.031,,230721,5.69,W,A,V*53
$GNVTG,,T,,M,0.031,N,0.058,K,A*32
$GNGGA,000110.00,3000.00002,N,12000.00010,E,1,12,0.82,-6.5,M,7.0,M,,*51
$GNGSA,A,3,07,25,13,04,08,02,,,,,,,1.81,0.82,1.61,1*09
$GNGSA,A,3,24,10,27,17,11,23,,,,,,,1.81,0.82,1.61,3*02
$GNGSA,A,3,09,13,06,,,,,,,,,,1.81,0.82,1.61,4*0D
$GPGSV,4,1,13,01,00,121,,02,33,300,35,04,52,247,35,07,84,119,35,0*66
$GPGSV,4,2,13,08,47,207,35,10,01,310,,13,50,031,35,16,01,039,,0*64
$GPGSV,4,3,13,20,23,121,,23,28,057,,25,67,043,35,27,18,219,,0*69
$GPGSV,4,4,13,28,00,182,,0*56
$GAGSV,2,1,08,09,13,317,,10,64,334,36,11,56,117,36,12,07,130,,0*74
$GAGSV,2,2,08,17,31,040,36,23,39,222,36,24,86,021,36,27,31,126,36,0*7C
$GBGSV,3,1,09,01,38,122,30,02,50,173,30,04,36,126,30,06,37,216,29,0*7E
$GBGSV,3,2,09,09,37,287,30,11,18,131,,12,10,061,,13,49,202,31,0*7E
$GBGSV,3,3,09,14,09,165,29,0*4B
$GNGLL,3000.00002,N,12000.00010,E,000110.00,A,A*74

$GNRMC,000111.00,A,3000.00003,N,12000.00010,E,0.011,,230721,5.69,W,A,V*51
$GNVTG,,T,,M,0.011,N,0.020,K,A*3F
$GNGGA,000111.00,3000.00003,N,12000.00010,E,1,12,0.82,-6.5,M,7.0,M,,*51
$GNGSA,A,3,07,25,13,04,08,02,,,,,,,1.81,0.82,1.61,1*09
$GNGSA,A,3,24,10,27,17,11,23,,,,,,,1.81,0.82,1.61,3*02
$GNGSA,A,3,09,13,06,,,,,,,,,,1.81,0.82,1.61,4*0D
$GPGSV,4,1,13,01,00,121,,02,33,300,35,04,52,247,35,07,84,119,35,0*66
$GPGSV,4,2,13,08,47,207,35,10,01,310,,13,50,031,35,16,01,039,,0*64
$GPGSV,4,3,13,20,23,121,,23,28,057,,25,67,043,35,27,18,219,,0*69
$GPGSV,4,4,13,28,00,182,,0*56
$GAGSV,2,1,08,09,13,317,,10,64,334,36,11,56,117,36,12,07,130,,0*74
$GAGSV,2,2,08,17,31,040,36,23,39,222,36,24,86,021,36,27,31,126,36,0*7C
$GBGSV,3,1,09,01,38,122,30,02,50,173,30,04,36,126,30,06,37,216,30,0*76
$GBGSV,3,2,09,09,37,287,30,11,18,131,,12,10,061,,13,49,202,30,0*7F
$GBGSV,3,3,09,14,09,165,29,0*4B
$GNGLL,3000.00003,N,12000.00010,E,000111.00,A,A*74

$GNRMC,000112.00,A,3000.00004,N,12000.00010,E,0.012,,230721,5.69,W,A,V*56
$GNVTG,,T,,M,0.012,N,0.022,K,A*3E
$GNGGA,000112.00,3000.00004,N,12000.00010,E,1,12,0.82,-6.5,M,7.0,M,,*55
$GNGSA,A,3,07,25,13,04,08,02,,,,,,,1.81,0.82,1.61,1*09
$GNGSA,A,3,24,10,27,17,11,23,,,,,,,1.81,0.82,1.61,3*02
$GNGSA,A,3,09,13,06,,,,,,,,,,1.81,0.82,1.61,4*0D
$GPGSV,4,1,13,01,00,121,,02,33,300,35,04,52,247,35,07,84,119,35,0*66
$GPGSV,4,2,13,08,47,207,35,10,01,310,,13,50,031,35,16,01,039,,0*64
$GPGSV,4,3,13,20,23,121,,23,28,057,,25,67,043,35,27,18,219,,0*69
$GPGSV,4,4,13,28,00,182,,0*56
