$GNRMC,000231.00,A,2959.99999,N,12000.00014,E,0.097,,230721,5.69,W,A,V*54
$GNVTG,,T,,M,0.097,N,0.180,K,A*3A
$GNGGA,000231.00,2959.99999,N,12000.00014,E,1,06,2.28,-7.2,M,7.0,M,,*5B
$GNGSA,A,3,02,08,13,04,07,25,,,,,,,5.46,2.28,4.96,1*09
$GNGSA,A,3,,,,,,,,,,,,,5.46,2.28,4.96,3*07
$GNGSA,A,3,,,,,,,,,,,,,5.46,2.28,4.96,4*00
$GPGSV,2,1,06,02,33,299,39,04,51,245,39,07,85,110,39,08,48,207,39,0*68
$GPGSV,2,2,06,13,49,032,39,25,66,042,39,0*6C
$GAGSV,1,1,00,0*74
$GBGSV,1,1,00,0*77
$GNGLL,2959.99999,N,12000.00014,E,000231.00,A,A*7F

$GNRMC,000232.00,A,2959.99998,N,12000.00013,E,0.086,,230721,5.69,W,A,V*51
$GNVTG,,T,,M,0.086,N,0.160,K,A*34
$GNGGA,000232.00,2959.99998,N,12000.00013,E,1,06,2.28,-7.2,M,7.0,M,,*5E
$GNGSA,A,3,02,08,13,04,07,25,,,,,,,5.46,2.28,4.96,1*09
$GNGSA,A,3,,,,,,,,,,,,,5.46,2.28,4.96,3*07
$GNGSA,A,3,,,,,,,,,,,,,5.46,2.28,4.96,4*00
$GPGSV,2,1,06,02,33,299,39,04,51,245,39,07,85,108,39,08,48,207,39,0*61
$GPGSV,2,2,06,13,49,032,39,25,66,042,39,0*6C
$GAGSV,1,1,00,0*74
$GBGSV,1,1,00,0*77
$GNGLL,2959.99998,N,12000.00013,E,000232.00,A,A*7A

$GNRMC,000233.00,A,2959.99998,N,12000.00013,E,0.058,,230721,5.69,W,A,V*53
$GNVTG,,T,,M,0.058,N,0.108,K,A*39
$GNGGA,000233.00,2959.99998,N,12000.00013,E,1,06,2.28,-7.2,M,7.0,M,,*5F
$GNGSA,A,3,02,08,13,04,07,25,,,,,,,5.46,2.28,4.96,1*09
$GNGSA,A,3,,,,,,,,,,,,,5.46,2.28,4.96,3*07
$GNGSA,A,3,,,,,,,,,,,,,5.46,2.28,4.96,4*00
$GPGSV,2,1,06,02,33,299,39,04,51,245,39,07,85,108,39,08,48,208,39,0*6E
$GPGSV,2,2,06,13,49,032,39,25,66,042,39,0*6C
$GAGSV,1,1,00,0*74
$GBGSV,1,1,00,0*77
$GNGLL,2959.99998,N,12000.00013,E,000233.00,A,A*7B

$GNRMC,000234.00,A,2959.99997,N,12000.00015,E,0.033,,230721,5.69,W,A,V*50
$GNVTG,,T,,M,0.033,N,0.062,K,A*39
$GNGGA,000234.00,2959.99997,N,12000.00015,E,1,06,2.28,-7.3,M,7.0,M,,*50
$GNGSA,A,3,02,08,13,04,07,25,,,,,,,5.46,2.28,4.96,1*09
$GNGSA,A,3,,,,,,,,,,,,,5.46,2.28,4.96,3*07
$GNGSA,A,3,,,,,,,,,,,,,5.46,2.28,4.96,4*00
$GPGSV,2,1,06,02,33,299,39,04,51,245,39,07,85,108,39,08,48,208,39,0*6E
$GPGSV,2,2,06,13,49,032,40,25,66,042,40,0*6C
$GAGSV,1,1,00,0*74
$GBGSV,1,1,00,0*77
$GNGLL,2959.99997,N,12000.00015,E,000234.00,A,A*75

$GNRMC,000235.00,A,2959.99997,N,12000.00015,E,0.013,,230721,5.69,W,A,V*53
$GNVTG,,T,,M,0.013,N,0.024,K,A*39
$GNGGA,000235.00,2959.99997,N,12000.00015,E,1,06,2.28,-7.4,M,7.0,M,,*56
$GNGSA,A,3,02,08,13,04,07,25,,,,,,,5.46,2.28,4.97,1*08
$GNGSA,A,3,,,,,,,,,,,,,5.46,2.28,4.97,3*06
$GNGSA,A,3,,,,,,,,,,,,,5.46,2.28,4.97,4*01
$GPGSV,2,1,06,02,33,299,40,04,51,245,39,07,85,108,39,08,48,208,39,0*60
$GPGSV,2,2,06,13,49,032,39,25,66,042,39,0*6C
$GAGSV,1,1,00,0*74
$GBGSV,1,1,00,0*77
$GNGLL,2959.99997,N,12000.00015,E,000235.00,A,A*74

$GNRMC,000236.00,A,2959.99997,N,12000.00018,E,0.057,,230721,5.69,W,A,V*5D
$GNVTG,,T,,M,0.057,N,0.105,K,A*3B
$GNGGA,000236.00,2959.99997,N,12000.00018,E,1,06,2.28,-7.6,M,7.0,M,,*5A
$GNGSA,A,3,02,08,13,04,07,25,,,,,,,5.47,2.28,4.97,1*09
$GNGSA,A,3,,,,,,,,,,,,,5.47,2.28,4.97,3*07
$GNGSA,A,3,,,,,,,,,,,,,5.47,2.28,4.97,4*00
$GPGSV,2,1,06,02,33,299,40,04,51,245,40,07,85,108,39,08,48,208,39,0*6E
$GPGSV,2,2,06,13,49,032,39,25,66,042,39,0*6C
$GAGSV,1,1,00,0*74
$GBGSV,1,1,00,0*77
$GNGLL,2959.99997,N,12000.00018,E,000236.00,A,A*7A

$GNRMC,000237.00,A,2959.99997,N,12000.00017,E,0.003,,230721,5.69,W,A,V*52
$GNVTG,,T,,M,0.003,N,0.006,K,A*38
$GNGGA,000237.00,2959.99997,N,12000.00017,E,1,06,2.28,-7.7,M,7.0,M,,*55
$GNGSA,A,3,02,08,13,04,07,25,,,,,,,5.47,2.28,4.97,1*09
$GNGSA,A,3,,,,,,,,,,,,,5.47,2.28,4.97,3*07
$GNGSA,A,3,,,,,,,,,,,,,5.47,2.28,4.97,4*00
$GPGSV,2,1,06,02,33,299,39,04,51,245,39,07,85,108,39,08,48,208,39,0*6E
$GPGSV,2,2,06,13,49,032,39,25,66,042,40,0*62
$GAGSV,1,1,00,0*74
$GBGSV,1,1,00,0*77
$GNGLL,2959.99997,N,12000.00017,E,000237.00,A,A*74

$GNRMC,000238.00,A,2959.99998,N,12000.00016,E,0.177,,230721,5.69,W,A,V*51
$GNVTG,,T,,M,0.177,N,0.328,K,A*35
$GNGGA,000238.00,2959.99998,N,12000.00016,E,1,06,2.28,-7.8,M,7.0,M,,*5B
$GNGSA,A,3,02,08,13,04,07,25,,,,,,,5.47,2.28,4.97,1*09
$GNGSA,A,3,,,,,,,,,,,,,5.47,2.28,4.97,3*07
$GNGSA,A,3,,,,,,,,,,,,,5.47,2.28,4.97,4*00
$GPGSV,2,1,06,02,33,299,39,04,51,245,39,07,85,108,39,08,48,208,39,0*6E
$GPGSV,2,2,06,13,49,032,39,25,66,042,39,0*6C
$GAGSV,1,1,00,0*74
$GBGSV,1,1,00,0*77
$GNGLL,2959.99998,N,12000.00016,E,000238.00,A,A*75

$GNRMC,000239.00,A,2959.99997,N,12000.00018,E,0.137,,230721,5.69,W,A,V*55
$GNVTG,,T,,M,0.137,N,0.253,K,A*3C
$GNGGA,000239.00,2959.99997,N,12000.00018,E,1,06,2.28,-8.0,M,7.0,M,,*5C
$GNGSA,A,3,02,08,13,04,07,25,,,,,,,5.47,2.28,4.97,1*09
$GNGSA,A,3,,,,,,,,,,,,,5.47,2.28,4.97,3*07
$GNGSA,A,3,,,,,,,,,,,,,5.47,2.28,4.97,4*00
$GPGSV,2,1,06,02,33,299,40,04,51,245,40,07,85,108,39,08,48,208,39,0*6E
$GPGSV,2,2,06,13,49,032,39,25,66,042,39,0*6C
$GAGSV,1,1,00,0*74
$GBGSV,1,1,00,0*77
$GNGLL,2959.99997,N,12000.00018,E,000239.00,A,A*75

$GNRMC,000240.00,A,2959.99996,N,12000.00021,E,0.093,,230721,5.69,W,A,V*5F
$GNVTG,,T,,M,0.093,N,0.172,K,A*33
$GNGGA,000240.00,2959.99996,N,12000.00021,E,1,06,2.28,-8.2,M,7.0,M,,*5B
$GNGSA,A,3,02,08,13,04,07,25,,,,,,,5.47,2.28,4.97,1*09
$GNGSA,A,3,,,,,,,,,,,,,5.47,2.28,4.97,3*07
$GNGSA,A,3,,,,,,,,,,,,,5.47,2.28,4.97,4*00
$GPGSV,2,1,06,02,33,299,40,04,51,245,39,07,85,108,40,08,48,208,39,0*6E
$GPGSV,2,2,06,13,49,032,39,25,66,042,39,0*6C
$GAGSV,1,1,00,0*74
$GBGSV,1,1,00,0*77
$GNGLL,2959.99996,N,12000.00021,E,000240.00,A,A*70

$GNRMC,000241.00,A,2959.99994,N,12000.00021,E,0.038,,230721,5.69,W,A,V*5D
$GNVTG,,T,,M,0.038,N,0.070,K,A*31
$GNGGA,000241.00,2959.99994,N,12000.00021,E,1,06,2.28,-8.3,M,7.0,M,,*59
$GNGSA,A,3,02,08,13,04,07,25,,,,,,,5.47,2.28,4.97,1*09
$GNGSA,A,3,,,,,,,,,,,,,5.47,2.28,4.97,3*07
$GNGSA,A,3,,,,,,,,,,,,,5.47,2.28,4.97,4*00
$GPGSV,2,1,06,02,33,299,39,04,51,245,39,07,85,108,39,08,48,208,39,0*6E
$GPGSV,2,2,06,13,49,032,40,25,66,042,39,0*62
$GAGSV,1,1,00,0*74
$GBGSV,1,1,00,0*77
$GNGLL,2959.99994,N,12000.00021,E,000241.00,A,A*73

$GNRMC,000242.00,A,2959.99993,N,12000.00021,E,0.071,,230721,5.69,W,A,V*54
$GNVTG,,T,,M,0.071,N,0.131,K,A*38
$GNGGA,000242.00,2959.99993,N,12000.00021,E,1,06,2.28,-8.4,M,7.0,M,,*5A
$GNGSA,A,3,02,08,13,04,07,25,,,,,,,5.47,2.28,4.97,1*09
$GNGSA,A,3,,,,,,,,,,,,,5.47,2.28,4.97,3*07
$GNGSA,A,3,,,,,,,,,,,,,5.47,2.28,4.97,4*00
$GPGSV,2,1,06,02,33,299,39,04,51,245,39,07,85,108,39,08,48,208,39,0*6E
$GPGSV,2,2,06,13,49,032,40,25,66,042,39,0*62
$GAGSV,1,1,00,0*74
$GBGSV,1,1,00,0*77
$GNGLL,2959.99993,N,12000.00021,E,000242.00,A,A*77

$GNRMC,000243.00,A,2959.99991,N,12000.00021,E,0.094,,230721,5.69,W,A,V*5C
$GNVTG,,T,,M,0.094,N,0.174,K,A*32
$GNGGA,000243.00,2959.99991,N,12000.00021,E,1,06,2.28,-8.5,M,7.0,M,,*58
$GNGSA,A,3,02,08,13,04,07,25,,,,,,,5.47,2.28,4.97,1*09
$GNGSA,A,3,,,,,,,,,,,,,5.47,2.28,4.97,3*07
$GNGSA,A,3,,,,,,,,,,,,,5.47,2.28,4.97,4*00
$GPGSV,2,1,06,02,33,299,40,04,51,245,39,07,85,108,39,08,48,208,39,0*60
$GPGSV,2,2,06,13,49,032,39,25,66,042,39,0*6C
$GAGSV,1,1,00,0*74
$GBGSV,1,1,00,0*77
$GNGLL,2959.99991,N,12000.00021,E,000243.00,A,A*74

$GNRMC,000244.00,A,2959.99988,N,12000.00021,E,0.017,,230721,5.69,W,A,V*58
$GNVTG,,T,,M,0.017,N,0.032,K,A*3A
$GNGGA,000244.00,2959.99988,N,12000.00021,E,1,06,2.28,-8.6,M,7.0,M,,*54
$GNGSA,A,3,02,08,13,04,07,25,,,,,,,5.47,2.28,4.98,1*06
$GNGSA,A,3,,,,,,,,,,,,,5.47,2.28,4.98,3*08
$GNGSA,A,3,,,,,,,,,,,,,5.47,2.28,4.98,4*0F
$GPGSV,2,1,06,02,33,299,39,04,51,245,39,07,85,108,40,08,48,208,39,0*60
$GPGSV,2,2,06,13,49,032,40,25,66,042,39,0*62
$GAGSV,1,1,00,0*74
$GBGSV,1,1,00,0*77
$GNGLL,2959.99988,N,12000.00021,E,000244.00,A,A*7B

$GNRMC,000245.00,A,2959.99988,N,12000.00019,E,0.079,,230721,5.69,W,A,V*5A
$GNVTG,,T,,M,0.079,N,0.146,K,A*30
$GNGGA,000245.00,2959.99988,N,12000.00019,E,1,06,2.28,-8.6,M,7.0,M,,*5E
$GNGSA,A,3,02,08,13,04,07,25,,,,,,,5.48,2.28,4.98,1*09
$GNGSA,A,3,,,,,,,,,,,,,5.48,2.28,4.98,3*07
$GNGSA,A,3,,,,,,,,,,,,,5.48,2.28,4.98,4*00
$GPGSV,2,1,06,02,33,299,39,04,51,245,40,07,85,108,40,08,48,208,39,0*6E
$GPGSV,2,2,06,13,49,032,39,25,66,042,39,0*6C
$GAGSV,1,1,00,0*74
$GBGSV,1,1,00,0*77
$GNGLL,2959.99988,N,12000.00019,E,000245.00,A,A*71

$GNRMC,000246.00,A,2959.99986,N,12000.00019,E,0.097,,230721,5.69,W,A,V*57
$GNVTG,,T,,M,0.097,N,0.179,K,A*3C
$GNGGA,000246.00,2959.99986,N,12000.00019,E,1,06,2.28,-8.7,M,7.0,M,,*52
$GNGSA,A,3,02,08,13,04,07,25,,,,,,,5.48,2.28,4.98,1*09
$GNGSA,A,3,,,,,,,,,,,,,5.48,2.28,4.98,3*07
$GNGSA,A,3,,,,,,,,,,,,,5.48,2.28,4.98,4*00
$GPGSV,2,1,06,02,33,299,39,04,51,245,39,07,85,108,40,08,48,208,39,0*60
$GPGSV,2,2,06,13,49,032,39,25,66,042,39,0*6C
$GAGSV,1,1,00,0*74
$GBGSV,1,1,00,0*77
$GNGLL,2959.99986,N,12000.00019,E,000246.00,A,A*7C

$GNRMC,000247.00,A,2959.99986,N,12000.00018,E,0.062,,230721,5.69,W,A,V*5D
$GNVTG,,T,,M,0.062,N,0.114,K,A*3D
$GNGGA,000247.00,2959.99986,N,12000.00018,E,1,06,2.28,-8.7,M,7.0,M,,*52
$GNGSA,A,3,02,08,13,04,07,25,,,,,,,5.48,2.28,4.98,1*09
$GNGSA,A,3,,,,,,,,,,,,,5.48,2.28,4.98,3*07
$GNGSA,A,3,,,,,,,,,,,,,5.48,2.28,4.98,4*00
$GPGSV,2,1,06,02,33,299,39,04,51,245,40,07,85,108,39,08,48,208,39,0*60
$GPGSV,2,2,06,13,49,032,39,25,66,042,39,0*6C
$GAGSV,1,1,00,0*74
$GBGSV,1,1,00,0*77
$GNGLL,2959.99986,N,12000.00018,E,000247.00,A,A*7C

$GNRMC,000248.00,A,2959.99986,N,12000.00016,E,0.064,,230721,5.69,W,A,V*5A
$GNVTG,,T,,M,0.064,N,0.119,K,A*36
$GNGGA,000248.00,2959.99986,N,12000.00016,E,1,06,2.28,-8.7,M,7.0,M,,*53
$GNGSA,A,3,02,08,13,04,07,25,,,,,,,5.48,2.28,4.98,1*09
$GNGSA,A,3,,,,,,,,,,,,,5.48,2.28,4.98,3*07
$GNGSA,A,3,,,,,,,,,,,,,5.48,2.28,4.98,4*00
$GPGSV,2,1,06,02,33,299,39,04,51,245,40,07,85,108,40,08,48,208,39,0*6E
$GPGSV,2,2,06,13,49,032,40,25,66,042,39,0*62
$GAGSV,1,1,00,0*74
$GBGSV,1,1,00,0*77
$GNGLL,2959.99986,N,12000.00016,E,000248.00,A,A*7D

$GNRMC,000249.00,A,2959.99988,N,12000.00014,E,0.074,,230721,5.69,W,A,V*56
$GNVTG,,T,,M,0.074,N,0.136,K,A*3A
$GNGGA,000249.00,2959.99988,N,12000.00014,E,1,06,2.28,-8.6,M,7.0,M,,*5F
$GNGSA,A,3,02,08,13,04,07,25,,,,,,,5.48,2.28,4.98,1*09
$GNGSA,A,3,,,,,,,,,,,,,5.48,2.28,4.98,3*07
$GNGSA,A,3,,,,,,,,,,,,,5.48,2.28,4.98,4*00
$GPGSV,2,1,06,02,33,299,40,04,51,245,40,07,85,108,39,08,48,208,39,0*6E
$GPGSV,2,2,06,13,49,032,39,25,66,042,39,0*6C
$GAGSV,1,1,00,0*74
$GBGSV,1,1,00,0*77
$GNGLL,2959.99988,N,12000.00014,E,000249.00,A,A*70

$GNRMC,000250.00,A,2959.99989,N,12000.00011,E,0.046,,230721,5.69,W,A,V*5B
$GNVTG,,T,,M,0.046,N,0.084,K,A*33
$GNGGA,000250.00,2959.99989,N,12000.00011,E,1,06,2.29,-8.4,M,7.0,M,,*50
$GNGSA,A,3,02,08,13,04,07,25,,,,,,,5.48,2.29,4.98,1*08
$GNGSA,A,3,,,,,,,,,,,,,5.48,2.29,4.98,3*06
$GNGSA,A,3,,,,,,,,,,,,,5.48,2.29,4.98,4*01
$GPGSV,2,1,06,02,33,299,39,04,51,245,39,07,85,108,40,08,48,208,39,0*60
$GPGSV,2,2,06,13,49,032,40,25,66,042,39,0*62
$GAGSV,1,1,00,0*74
$GBGSV,1,1,00,0*77
$GNGLL,2959.99989,N,12000.00011,E,000250.00,A,A*7C

$GNRMC,000251.00,A,2959.99989,N,12000.00010,E,0.014,,230721,5.69,W,A,V*5C
$GNVTG,,T,,M,0.014,N,0.027,K,A*3D
$GNGGA,000251.00,2959.99989,N,12000.00010,E,1,06,2.29,-8.3,M,7.0,M,,*57
$GNGSA,A,3,02,08,13,04,07,25,,,,,,,5.48,2.29,4.98,1*08
$GNGSA,A,3,,,,,,,,,,,,,5.48,2.29,4.98,3*06
$GNGSA,A,3,,,,,,,,,,,,,5.48,2.29,4.98,4*01
$GPGSV,2,1,06,02,33,299,40,04,51,245,39,07,85,108,39,08,48,208,39,0*60
$GPGSV,2,2,06,13,49,032,39,25,66,042,39,0*6C
$GAGSV,1,1,00,0*74
$GBGSV,1,1,00,0*77
$GNGLL,2959.99989,N,12000.00010,E,000251.00,A,A*7C

$GNRMC,000252.00,A,2959.99989,N,12000.00009,E,0.025,,230721,5.69,W,A,V*55
$GNVTG,,T,,M,0.025,N,0.046,K,A*38
$GNGGA,000252.00,2959.99989,N,12000.00009,E,1,06,2.29,-8.1,M,7.0,M,,*5E
$GNGSA,A,3,02,08,13,04,07,25,,,,,,,5.48,2.29,4.98,1*08
$GNGSA,A,3,,,,,,,,,,,,,5.48,2.29,4.98,3*06
$GNGSA,A,3,,,,,,,,,,,,,5.48,2.29,4.98,4*01
$GPGSV,2,1,06,02,33,299,40,04,51,245,40,07,85,108,40,08,48,208,39,0*60
$GPGSV,2,2,06,13,49,032,39,25,66,042,39,0*6C
$GAGSV,1,1,00,0*74
$GBGSV,1,1,00,0*77
$GNGLL,2959.99989,N,12000.00009,E,000252.00,A,A*77

$GNRMC,000253.00,A,2959.99988,N,12000.00010,E,0.025,,230721,5.69,W,A,V*5D
$GNVTG,,T,,M,0.025,N,0.045,K,A*3B
$GNGGA,000253.00,2959.99988,N,12000.00010,E,1,06,2.29,-8.0,M,7.0,M,,*57
$GNGSA,A,3,02,08,13,04,07,25,,,,,,,5.48,2.29,4.98,1*08
$GNGSA,A,3,,,,,,,,,,,,,5.48,2.29,4.98,3*06
$GNGSA,A,3,,,,,,,,,,,,,5.48,2.29,4.98,4*01
$GPGSV,2,1,06,02,33,299,39,04,51,245,39,07,85,108,39,08,48,208,39,0*6E
$GPGSV,2,2,06,13,49,032,40,25,66,042,39,0*62
$GAGSV,1,1,00,0*74
$GBGSV,1,1,00,0*77
$GNGLL,2959.99988,N,12000.00010,E,000253.00,A,A*7F

$GNRMC,000254.00,A,2959.99988,N,12000.00010,E,0.024,,230721,5.69,W,A,V*5B
$GNVTG,,T,,M,0.024,N,0.045,K,A*3A
$GNGGA,000254.00,2959.99988,N,12000.00010,E,1,06,2.29,-7.9,M,7.0,M,,*56
$GNGSA,A,3,02,08,13,04,07,25,,,,,,,5.48,2.29,4.99,1*09
$GNGSA,A,3,,,,,,,,,,,,,5.48,2.29,4.99,3*07
$GNGSA,A,3,,,,,,,,,,,,,5.48,2.29,4.99,4*00
$GPGSV,2,1,06,02,33,299,40,04,51,245,40,07,85,108,39,08,48,208,39,0*6E
$GPGSV,2,2,06,13,49,032,39,25,66,042,39,0*6C
$GAGSV,1,1,00,0*74
$GBGSV,1,1,00,0*77
$GNGLL,2959.99988,N,12000.00010,E,000254.00,A,A*78

$GNRMC,000255.00,A,2959.99987,N,12000.00008,E,0.041,,230721,5.69,W,A,V*5F
$GNVTG,,T,,M,0.041,N,0.077,K,A*38
$GNGGA,000255.00,2959.99987,N,12000.00008,E,1,06,2.29,-7.8,M,7.0,M,,*50
$GNGSA,A,3,02,08,13,04,07,25,,,,,,,5.49,2.29,4.99,1*08
$GNGSA,A,3,,,,,,,,,,,,,5.49,2.29,4.99,3*06
$GNGSA,A,3,,,,,,,,,,,,,5.49,2.29,4.99,4*01
$GPGSV,2,1,06,02,33,298,39,04,51,245,40,07,85,108,40,08,48,208,39,0*6F
$GPGSV,2,2,06,13,49,032,39,25,66,042,39,0*6C
$GAGSV,1,1,00,0*74
$GBGSV,1,1,00,0*77
$GNGLL,2959.99987,N,12000.00008,E,000255.00,A,A*7F

$GNRMC,000256.00,A,2959.99986,N,12000.00009,E,0.062,,230721,5.69,W,A,V*5D
$GNVTG,,T,,M,0.062,N,0.115,K,A*3C
$GNGGA,000256.00,2959.99986,N,12000.00009,E,1,06,2.29,-7.8,M,7.0,M,,*53
$GNGSA,A,3,02,08,13,04,07,25,,,,,,,5.49,2.29,4.99,1*08
$GNGSA,A,3,,,,,,,,,,,,,5.49,2.29,4.99,3*06
$GNGSA,A,3,,,,,,,,,,,,,5.49,2.29,4.99,4*01
$GPGSV,2,1,06,02,33,298,39,04,51,245,40,07,85,108,40,08,48,208,40,0*61
$GPGSV,2,2,06,13,49,032,39,25,66,042,39,0*6C
$GAGSV,1,1,00,0*74
$GBGSV,1,1,00,0*77
$GNGLL,2959.99986,N,12000.00009,E,000256.00,A,A*7C

$GNRMC,000257.00,A,2959.99985,N,12000.00011,E,0.053,,230721,5.69,W,A,V*54
$GNVTG,,T,,M,0.053,N,0.099,K,A*3B
$GNGGA,000257.00,2959.99985,N,12000.00011,E,1,06,2.29,-7.9,M,7.0,M,,*59
$GNGSA,A,3,02,08,13,04,07,25,,,,,,,5.49,2.29,4.99,1*08
$GNGSA,A,3,,,,,,,,,,,,,5.49,2.29,4.99,3*06
$GNGSA,A,3,,,,,,,,,,,,,5.49,2.29,4.99,4*01
$GPGSV,2,1,06,02,33,298,40,04,51,245,40,07,85,105,39,08,48,208,39,0*62
$GPGSV,2,2,06,13,49,032,40,25,66,042,39,0*62
$GAGSV,1,1,00,0*74
$GBGSV,1,1,00,0*77
$GNGLL,2959.99985,N,12000.00011,E,000257.00,A,A*77

$GNRMC,000258.00,A,2959.99985,N,12000.00015,E,0.029,,230721,5.69,W,A,V*52
$GNVTG,,T,,M,0.029,N,0.053,K,A*30
$GNGGA,000258.00,2959.99985,N,12000.00015,E,1,06,2.29,-8.0,M,7.0,M,,*54
$GNGSA,A,3,02,08,13,04,07,25,,,,,,,5.49,2.29,4.99,1*08
$GNGSA,A,3,,,,,,,,,,,,,5.49,2.29,4.99,3*06
$GNGSA,A,3,,,,,,,,,,,,,5.49,2.29,4.99,4*01
$GPGSV,2,1,06,02,33,298,39,04,51,245,40,07,85,105,40,08,48,208,40,0*6C
$GPGSV,2,2,06,13,49,032,40,25,66,042,39,0*62
$GAGSV,1,1,00,0*74
$GBGSV,1,1,00,0*77
$GNGLL,2959.99985,N,12000.00015,E,000258.00,A,A*7C

$GNRMC,000259.00,A,2959.99983,N,12000.00018,E,0.033,,230721,5.69,W,A,V*53
$GNVTG,,T,,M,0.033,N,0.060,K,A*3B
$GNGGA,000259.00,2959.99983,N,12000.00018,E,1,06,2.29,-8.1,M,7.0,M,,*5F
$GNGSA,A,3,02,08,13,04,07,25,,,,,,,5.49,2.29,4.99,1*08
$GNGSA,A,3,,,,,,,,,,,,,5.49,2.29,4.99,3*06
$GNGSA,A,3,,,,,,,,,,,,,5.49,2.29,4.99,4*01
$GPGSV,2,1,06,02,33,298,39,04,51,245,39,07,85,105,39,08,48,208,40,0*6C
$GPGSV,2,2,06,13,49,032,39,25,66,042,40,0*62
$GAGSV,1,1,00,0*74
$GBGSV,1,1,00,0*77
$GNGLL,2959.99983,N,12000.00018,E,000259.00,A,A*76

$GNRMC,000300.00,A,2959.99981,N,12000.00024,E,0.013,,230721,5.69,W,A,V*51
$GNVTG,,T,,M,0.013,N,0.024,K,A*39
$GNGGA,000300.00,2959.99981,N,12000.00024,E,1,06,2.29,-8.3,M,7.0,M,,*5D
$GNGSA,A,3,02,08,13,04,07,25,,,,,,,5.49,2.29,4.99,1*08
$GNGSA,A,3,,,,,,,,,,,,,5.49,2.29,4.99,3*06
$GNGSA,A,3,,,,,,,,,,,,,5.49,2.29,4.99,4*01
$GPGSV,2,1,06,02,33,298,40,04,51,245,40,07,85,105,40,08,48,208,39,0*6C
$GPGSV,2,2,06,13,49,032,39,25,66,042,39,0*6C
$GAGSV,1,1,00,0*74
$GBGSV,1,1,00,0*77
$GNGLL,2959.99981,N,12000.00024,E,000300.00,A,A*76

$GNRMC,000301.00,A,2959.99980,N,12000.00028,E,0.088,,230721,5.69,W,A,V*5F
$GNVTG,,T,,M,0.088,N,0.162,K,A*38
$GNGGA,000301.00,2959.99980,N,12000.00028,E,1,06,2.29,-8.5,M,7.0,M,,*57
$GNGSA,A,3,02,08,13,04,07,25,,,,,,,5.49,2.29,4.99,1*08
$GNGSA,A,3,,,,,,,,,,,,,5.49,2.29,4.99,3*06
$GNGSA,A,3,,,,,,,,,,,,,5.49,2.29,4.99,4*01
$GPGSV,2,1,06,02,33,298,40,04,51,245,39,07,85,105,40,08,48,208,39,0*62
$GPGSV,2,2,06,13,49,032,40,25,66,042,39,0*62
$GAGSV,1,1,00,0*74
$GBGSV,1,1,00,0*77
$GNGLL,2959.99980,N,12000.00028,E,000301.00,A,A*7A

$GNRMC,000302.00,A,2959.99979,N,12000.00031,E,0.082,,230721,5.69,W,A,V*58
$GNVTG,,T,,M,0.082,N,0.151,K,A*32
$GNGGA,000302.00,2959.99979,N,12000.00031,E,1,06,2.29,-8.6,M,7.0,M,,*59
$GNGSA,A,3,02,08,13,04,07,25,,,,,,,5.49,2.29,4.99,1*08
$GNGSA,A,3,,,,,,,,,,,,,5.49,2.29,4.99,3*06
$GNGSA,A,3,,,,,,,,,,,,,5.49,2.29,4.99,4*01
$GPGSV,2,1,06,02,33,298,40,04,51,245,39,07,85,105,40,08,48,208,39,0*62
$GPGSV,2,2,06,13,49,032,40,25,66,042,40,0*6C
$GAGSV,1,1,00,0*74
$GBGSV,1,1,00,0*77
$GNGLL,2959.99979,N,12000.00031,E,000302.00,A,A*77

$GNRMC,000303.00,A,2959.99978,N,12000.00033,E,0.055,,230721,5.69,W,A,V*50
$GNVTG,,T,,M,0.055,N,0.102,K,A*3E
$GNGGA,000303.00,2959.99978,N,12000.00033,E,1,06,2.29,-8.7,M,7.0,M,,*5A
$GNGSA,A,3,02,08,13,04,07,25,,,,,,,5.49,2.29,4.99,1*08
$GNGSA,A,3,,,,,,,,,,,,,5.49,2.29,4.99,3*06
$GNGSA,A,3,,,,,,,,,,,,,5.49,2.29,4.99,4*01
$GPGSV,2,1,06,02,33,298,39,04,51,245,39,07,85,105,40,08,48,208,40,0*62
$GPGSV,2,2,06,13,49,032,39,25,66,042,39,0*6C
$GAGSV,1,1,00,0*74
$GBGSV,1,1,00,0*77
$GNGLL,2959.99978,N,12000.00033,E,000303.00,A,A*75

$GNRMC,000304.00,A,2959.99979,N,12000.00033,E,0.025,,230721,5.69,W,A,V*51
$GNVTG,,T,,M,0.025,N,0.046,K,A*38
$GNGGA,000304.00,2959.99979,N,12000.00033,E,1,06,2.29,-8.7,M,7.0,M,,*5C
$GNGSA,A,3,02,08,13,04,07,25,,,,,,,5.50,2.29,5.00,1*01
$GNGSA,A,3,,,,,,,,,,,,,5.50,2.29,5.00,3*0F
$GNGSA,A,3,,,,,,,,,,,,,5.50,2.29,5.00,4*08
$GPGSV,2,1,06,02,33,298,39,04,51,245,39,07,85,105,39,08,48,208,39,0*62
$GPGSV,2,2,06,13,49,032,39,25,66,042,39,0*6C
$GAGSV,1,1,00,0*74
$GBGSV,1,1,00,0*77
$GNGLL,2959.99979,N,12000.00033,E,000304.00,A,A*73

$GNRMC,000305.00,A,2959.99979,N,12000.00033,E,0.095,,230721,5.69,W,A,V*5B
$GNVTG,,T,,M,0.095,N,0.175,K,A*32
$GNGGA,000305.00,2959.99979,N,12000.00033,E,1,06,2.29,-8.6,M,7.0,M,,*5C
$GNGSA,A,3,02,08,13,04,07,25,,,,,,,5.50,2.29,5.00,1*01
$GNGSA,A,3,,,,,,,,,,,,,5.50,2.29,5.00,3*0F
$GNGSA,A,3,,,,,,,,,,,,,5.50,2.29,5.00,4*08
$GPGSV,2,1,06,02,33,298,39,04,51,245,40,07,85,105,39,08,48,208,39,0*6C
$GPGSV,2,2,06,13,49,032,40,25,66,042,39,0*62
$GAGSV,1,1,00,0*74
$GBGSV,1,1,00,0*77
$GNGLL,2959.99979,N,12000.00033,E,000305.00,A,A*72

$GNRMC,000306.00,A,2959.99981,N,12000.00031,E,0.014,,230721,5.69,W,A,V*54
$GNVTG,,T,,M,0.014,N,0.026,K,A*3C
$GNGGA,000306.00,2959.99981,N,12000.00031,E,1,06,2.29,-8.5,M,7.0,M,,*59
$GNGSA,A,3,02,08,13,04,07,25,,,,,,,5.50,2.29,5.00,1*01
$GNGSA,A,3,,,,,,,,,,,,,5.50,2.29,5.00,3*0F
$GNGSA,A,3,,,,,,,,,,,,,5.50,2.29,5.00,4*08
$GPGSV,2,1,06,02,33,298,39,04,51,245,40,07,85,105,39,08,48,208,39,0*6C
$GPGSV,2,2,06,13,49,032,39,25,66,042,40,0*62
$GAGSV,1,1,00,0*74
$GBGSV,1,1,00,0*77
$GNGLL,2959.99981,N,12000.00031,E,000306.00,A,A*74

$GNRMC,000307.00,A,2959.99983,N,12000.00027,E,0.005,,230721,5.69,W,A,V*50
$GNVTG,,T,,M,0.005,N,0.010,K,A*39
$GNGGA,000307.00,2959.99983,N,12000.00027,E,1,06,2.29,-8.3,M,7.0,M,,*5B
$GNGSA,A,3,02,08,13,04,07,25,,,,,,,5.50,2.29,5.00,1*01
$GNGSA,A,3,,,,,,,,,,,,,5.50,2.29,5.00,3*0F
$GNGSA,A,3,,,,,,,,,,,,,5.50,2.29,5.00,4*08
$GPGSV,2,1,06,02,33,298,40,04,51,245,39,07,85,105,39,08,48,208,40,0*62
$GPGSV,2,2,06,13,49,032,39,25,66,042,40,0*62
$GAGSV,1,1,00,0*74
$GBGSV,1,1,00,0*77
$GNGLL,2959.99983,N,12000.00027,E,000307.00,A,A*70

$GNRMC,000308.00,A,2959.99985,N,12000.00023,E,0.098,,230721,5.69,W,A,V*59
$GNVTG,,T,,M,0.098,N,0.181,K,A*34
$GNGGA,000308.00,2959.99985,N,12000.00023,E,1,06,2.29,-8.2,M,7.0,M,,*57
$GNGSA,A,3,02,08,13,04,07,25,,,,,,,5.50,2.29,5.00,1*01
$GNGSA,A,3,,,,,,,,,,,,,5.50,2.29,5.00,3*0F
$GNGSA,A,3,,,,,,,,,,,,,5.50,2.29,5.00,4*08
$GPGSV,2,1,06,02,33,298,39,04,51,245,39,07,85,105,39,08,48,208,39,0*62
$GPGSV,2,2,06,13,49,032,39,25,66,042,39,0*6C
$GAGSV,1,1,00,0*74
$GBGSV,1,1,00,0*77
$GNGLL,2959.99985,N,12000.00023,E,000308.00,A,A*7D

$GNRMC,000309.00,A,2959.99986,N,12000.00019,E,0.087,,230721,5.69,W,A,V*5C
$GNVTG,,T,,M,0.087,N,0.162,K,A*37
$GNGGA,000309.00,2959.99986,N,12000.00019,E,1,06,2.29,-8.1,M,7.0,M,,*5F
$GNGSA,A,3,02,08,13,04,07,25,,,,,,,5.50,2.29,5.00,1*01
$GNGSA,A,3,,,,,,,,,,,,,5.50,2.29,5.00,3*0F
$GNGSA,A,3,,,,,,,,,,,,,5.50,2.29,5.00,4*08
$GPGSV,2,1,06,02,33,298,40,04,51,245,40,07,85,105,40,08,48,208,40,0*62
$GPGSV,2,2,06,13,49,032,40,25,66,042,39,0*62
$GAGSV,1,1,00,0*74
$GBGSV,1,1,00,0*77
$GNGLL,2959.99986,N,12000.00019,E,000309.00,A,A*76

$GNRMC,000310.00,A,2959.99986,N,12000.00018,E,0.064,,230721,5.69,W,A,V*58
$GNVTG,,T,,M,0.064,N,0.119,K,A*36
$GNGGA,000310.00,2959.99986,N,12000.00018,E,1,06,2.29,-8.0,M,7.0,M,,*57
$GNGSA,A,3,02,08,13,04,07,25,,,,,,,5.50,2.29,5.00,1*01
$GNGSA,A,3,,,,,,,,,,,,,5.50,2.29,5.00,3*0F
$GNGSA,A,3,,,,,,,,,,,,,5.50,2.29,5.00,4*08
$GPGSV,2,1,06,02,33,298,40,04,51,245,39,07,85,105,40,08,48,208,40,0*6C
$GPGSV,2,2,06,13,49,032,39,25,66,042,40,0*62
$GAGSV,1,1,00,0*74
$GBGSV,1,1,00,0*77
$GNGLL,2959.99986,N,12000.00018,E,000310.00,A,A*7F

$GNRMC,000311.00,A,2959.99987,N,12000.00016,E,0.035,,230721,5.69,W,A,V*52
$GNVTG,,T,,M,0.035,N,0.065,K,A*38
$GNGGA,000311.00,2959.99987,N,12000.00016,E,1,06,2.29,-8.0,M,7.0,M,,*59
$GNGSA,A,3,02,08,13,04,07,25,,,,,,,5.50,2.29,5.00,1*01
$GNGSA,A,3,,,,,,,,,,,,,5.50,2.29,5.00,3*0F
$GNGSA,A,3,,,,,,,,,,,,,5.50,2.29,5.00,4*08
$GPGSV,2,1,06,02,33,298,40,04,51,245,39,07,85,105,39,08,48,208,39,0*6C
$GPGSV,2,2,06,13,49,032,40,25,66,042,39,0*62
$GAGSV,1,1,00,0*74
$GBGSV,1,1,00,0*77
$GNGLL,2959.99987,N,12000.00016,E,000311.00,A,A*71

$GNRMC,000312.00,A,2959.99988,N,12000.00015,E,0.004,,230721,5.69,W,A,V*5F
$GNVTG,,T,,M,0.004,N,0.007,K,A*3E
$GNGGA,000312.00,2959.99988,N,12000.00015,E,1,06,2.29,-8.0,M,7.0,M,,*56
$GNGSA,A,3,02,08,13,04,07,25,,,,,,,5.50,2.29,5.00,1*01
$GNGSA,A,3,,,,,,,,,,,,,5.50,2.29,5.00,3*0F
$GNGSA,A,3,,,,,,,,,,,,,5.50,2.29,5.00,4*08
$GPGSV,2,1,06,02,33,298,40,04,51,245,39,07,85,105,39,08,48,208,40,0*62
$GPGSV,2,2,06,13,49,032,40,25,66,042,39,0*62
$GAGSV,1,1,00,0*74
$GBGSV,1,1,00,0*77
$GNGLL,2959.99988,N,12000.00015,E,000312.00,A,A*7E

$GNRMC,000313.00,A,2959.99990,N,12000.00011,E,0.043,,230721,5.69,W,A,V*50
$GNVTG,,T,,M,0.043,N,0.079,K,A*34
$GNGGA,000313.00,2959.99990,N,12000.00011,E,1,06,2.29,-7.8,M,7.0,M,,*5D
$GNGSA,A,3,02,08,13,04,07,25,,,,,,,5.50,2.29,5.00,1*01
$GNGSA,A,3,,,,,,,,,,,,,5.50,2.29,5.00,3*0F
$GNGSA,A,3,,,,,,,,,,,,,5.50,2.29,5.00,4*08
$GPGSV,2,1,06,02,33,298,39,04,51,245,39,07,85,105,39,08,48,208,40,0*6C
$GPGSV,2,2,06,13,49,032,40,25,66,042,40,0*6C
$GAGSV,1,1,00,0*74
$GBGSV,1,1,00,0*77
$GNGLL,2959.99990,N,12000.00011,E,000313.00,A,A*72

$GNRMC,000314.00,A,2959.99990,N,12000.00010,E,0.019,,230721,5.69,W,A,V*59
$GNVTG,,T,,M,0.019,N,0.035,K,A*33
$GNGGA,000314.00,2959.99990,N,12000.00010,E,1,06,2.29,-7.8,M,7.0,M,,*5B
$GNGSA,A,3,02,08,13,04,07,25,,,,,,,5.51,2.29,5.01,1*01
$GNGSA,A,3,,,,,,,,,,,,,5.51,2.29,5.01,3*0F
$GNGSA,A,3,,,,,,,,,,,,,5.51,2.29,5.01,4*08
$GPGSV,2,1,06,02,33,298,39,04,51,245,40,07,85,105,40,08,48,208,39,0*62
$GPGSV,2,2,06,13,49,032,40,25,66,042,39,0*62
$GAGSV,1,1,00,0*74
$GBGSV,1,1,00,0*77
$GNGLL,2959.99990,N,12000.00010,E,000314.00,A,A*74

$GNRMC,000315.00,A,2959.99989,N,12000.00012,E,0.043,,230721,5.69,W,A,V*5D
$GNVTG,,T,,M,0.043,N,0.080,K,A*32
$GNGGA,000315.00,2959.99989,N,12000.00012,E,1,06,2.29,-7.9,M,7.0,M,,*51
$GNGSA,A,3,02,08,13,04,07,25,,,,,,,5.51,2.29,5.01,1*01
$GNGSA,A,3,,,,,,,,,,,,,5.51,2.29,5.01,3*0F
$GNGSA,A,3,,,,,,,,,,,,,5.51,2.29,5.01,4*08
$GPGSV,2,1,06,02,33,298,39,04,51,245,40,07,85,105,40,08,48,208,40,0*6C
$GPGSV,2,2,06,13,49,032,39,25,66,042,40,0*62
$GAGSV,1,1,00,0*74
$GBGSV,1,1,00,0*77
$GNGLL,2959.99989,N,12000.00012,E,000315.00,A,A*7F

$GNRMC,000316.00,A,2959.99989,N,12000.00013,E,0.047,,230721,5.69,W,A,V*5B
$GNVTG,,T,,M,0.047,N,0.087,K,A*31
$GNGGA,000316.00,2959.99989,N,12000.00013,E,1,06,2.29,-7.9,M,7.0,M,,*53
$GNGSA,A,3,02,08,13,04,07,25,,,,,,,5.51,2.29,5.01,1*01
$GNGSA,A,3,,,,,,,,,,,,,5.51,2.29,5.01,3*0F
$GNGSA,A,3,,,,,,,,,,,,,5.51,2.29,5.01,4*08
$GPGSV,2,1,06,02,33,298,39,04,51,245,39,07,85,105,40,08,48,208,40,0*62
$GPGSV,2,2,06,13,49,032,40,25,66,042,39,0*62
$GAGSV,1,1,00,0*74
$GBGSV,1,1,00,0*77
$GNGLL,2959.99989,N,12000.00013,E,000316.00,A,A*7D

$GNRMC,000317.00,A,2959.99988,N,12000.00014,E,0.050,,230721,5.69,W,A,V*5A
$GNVTG,,T,,M,0.050,N,0.092,K,A*33
$GNGGA,000317.00,2959.99988,N,12000.00014,E,1,06,2.29,-8.0,M,7.0,M,,*52
$GNGSA,A,3,02,08,13,04,07,25,,,,,,,5.51,2.29,5.01,1*01
$GNGSA,A,3,,,,,,,,,,,,,5.51,2.29,5.01,3*0F
$GNGSA,A,3,,,,,,,,,,,,,5.51,2.29,5.01,4*08
$GPGSV,2,1,06,02,33,298,39,04,51,245,39,07,85,105,40,08,48,208,40,0*62
$GPGSV,2,2,06,13,49,032,39,25,66,042,39,0*6C
$GAGSV,1,1,00,0*74
$GBGSV,1,1,00,0*77
$GNGLL,2959.99988,N,12000.00014,E,000317.00,A,A*7A

$GNRMC,000318.00,A,2959.99989,N,12000.00015,E,0.010,,230721,5.69,W,A,V*51
$GNVTG,,T,,M,0.010,N,0.018,K,A*35
$GNGGA,000318.00,2959.99989,N,12000.00015,E,1,06,2.29,-8.0,M,7.0,M,,*5D
$GNGSA,A,3,02,08,13,04,07,25,,,,,,,5.51,2.29,5.01,1*01
$GNGSA,A,3,,,,,,,,,,,,,5.51,2.29,5.01,3*0F
$GNGSA,A,3,,,,,,,,,,,,,5.51,2.29,5.01,4*08
$GPGSV,2,1,06,02,33,298,40,04,51,245,39,07,85,105,39,08,48,208,39,0*6C
$GPGSV,2,2,06,13,49,032,39,25,66,042,40,0*62
$GAGSV,1,1,00,0*74
$GBGSV,1,1,00,0*77
$GNGLL,2959.99989,N,12000.00015,E,000318.00,A,A*75

$GNRMC,000319.00,A,2959.99991,N,12000.00015,E,0.040,,230721,5.69,W,A,V*5C
$GNVTG,,T,,M,0.040,N,0.074,K,A*3A
$GNGGA,000319.00,2959.99991,N,12000.00015,E,1,06,2.30,-7.9,M,7.0,M,,*5B
$GNGSA,A,3,02,08,13,04,07,25,,,,,,,5.51,2.30,5.01,1*09
$GNGSA,A,3,,,,,,,,,,,,,5.51,2.30,5.01,3*07
$GNGSA,A,3,,,,,,,,,,,,,5.51,2.30,5.01,4*00
$GPGSV,2,1,06,02,33,298,40,04,51,245,40,07,85,105,40,08,48,208,40,0*62
$GPGSV,2,2,06,13,49,032,40,25,66,042,40,0*6C
$GAGSV,1,1,00,0*74
$GBGSV,1,1,00,0*77
$GNGLL,2959.99991,N,12000.00015,E,000319.00,A,A*7D

$GNRMC,000320.00,A,2959.99993,N,12000.00015,E,0.062,,230721,5.69,W,A,V*54
$GNVTG,,T,,M,0.062,N,0.114,K,A*3D
$GNGGA,000320.00,2959.99993,N,12000.00015,E,1,06,2.30,-7.8,M,7.0,M,,*52
$GNGSA,A,3,02,08,13,04,07,25,,,,,,,5.51,2.30,5.01,1*09
$GNGSA,A,3,,,,,,,,,,,,,5.51,2.30,5.01,3*07
$GNGSA,A,3,,,,,,,,,,,,,5.51,2.30,5.01,4*00
$GPGSV,2,1,06,02,33,298,40,04,51,245,39,07,85,105,40,08,48,208,39,0*62
$GPGSV,2,2,06,13,49,032,39,25,66,042,40,0*62
$GAGSV,1,1,00,0*74
$GBGSV,1,1,00,0*77
$GNGLL,2959.99993,N,12000.00015,E,000320.00,A,A*75

$GNRMC,000321.00,A,2959.99993,N,12000.00016,E,0.024,,230721,5.69,W,A,V*54
$GNVTG,,T,,M,0.024,N,0.045,K,A*3A
$GNGGA,000321.00,2959.99993,N,12000.00016,E,1,06,2.30,-7.8,M,7.0,M,,*50
$GNGSA,A,3,02,08,13,04,07,25,,,,,,,5.51,2.30,5.01,1*09
$GNGSA,A,3,,,,,,,,,,,,,5.51,2.30,5.01,3*07
$GNGSA,A,3,,,,,,,,,,,,,5.51,2.30,5.01,4*00
$GPGSV,2,1,06,02,33,298,40,04,51,245,40,07,85,105,40,08,48,208,39,0*6C
$GPGSV,2,2,06,13,49,032,39,25,66,042,39,0*6C
$GAGSV,1,1,00,0*74
$GBGSV,1,1,00,0*77
$GNGLL,2959.99993,N,12000.00016,E,000321.00,A,A*77

$GNRMC,000322.00,A,2959.99996,N,12000.00014,E,0.017,,230721,5.69,W,A,V*50
$GNVTG,,T,,M,0.017,N,0.031,K,A*39
$GNGGA,000322.00,2959.99996,N,12000.00014,E,1,06,2.30,-7.7,M,7.0,M,,*5B
$GNGSA,A,3,02,08,13,04,07,25,,,,,,,5.51,2.30,5.01,1*09
$GNGSA,A,3,,,,,,,,,,,,,5.51,2.30,5.01,3*07
$GNGSA,A,3,,,,,,,,,,,,,5.51,2.30,5.01,4*00
$GPGSV,2,1,06,02,33,298,39,04,51,245,39,07,85,103,40,08,48,208,39,0*6A
$GPGSV,2,2,06,13,49,032,40,25,66,042,39,0*62
$GAGSV,1,1,00,0*74
$GBGSV,1,1,00,0*77
$GNGLL,2959.99996,N,12000.00014,E,000322.00,A,A*73

$GNRMC,000323.00,A,3000.00000,N,12000.00008,E,0.016,,230721,5.69,W,A,V*5F
$GNVTG,,T,,M,0.016,N,0.030,K,A*39
$GNGGA,000323.00,3000.00000,N,12000.00008,E,1,06,2.30,-7.4,M,7.0,M,,*56
$GNGSA,A,3,02,08,13,04,07,25,,,,,,,5.52,2.30,5.01,1*0A
$GNGSA,A,3,,,,,,,,,,,,,5.52,2.30,5.01,3*04
$GNGSA,A,3,,,,,,,,,,,,,5.52,2.30,5.01,4*03
$GPGSV,2,1,06,02,33,298,39,04,51,245,39,07,85,103,40,08,49,208,40,0*65
$GPGSV,2,2,06,13,49,032,40,25,66,042,40,0*6C
$GAGSV,1,1,00,0*74
$GBGSV,1,1,00,0*77
$GNGLL,3000.00000,N,12000.00008,E,000323.00,A,A*7D

$GNRMC,000324.00,A,3000.00003,N,12000.00003,E,0.018,,230721,5.69,W,A,V*5E
$GNVTG,,T,,M,0.018,N,0.034,K,A*33
$GNGGA,000324.00,3000.00003,N,12000.00003,E,1,06,2.30,-7.3,M,7.0,M,,*5E
$GNGSA,A,3,02,08,13,04,07,25,,,,,,,5.52,2.30,5.02,1*09
$GNGSA,A,3,,,,,,,,,,,,,5.52,2.30,5.02,3*07
$GNGSA,A,3,,,,,,,,,,,,,5.52,2.30,5.02,4*00
$GPGSV,2,1,06,02,33,298,40,04,51,245,40,07,85,103,40,08,49,208,39,0*6B
$GPGSV,2,2,06,13,49,032,39,25,66,042,40,0*62
$GAGSV,1,1,00,0*74
$GBGSV,1,1,00,0*77
$GNGLL,3000.00003,N,12000.00003,E,000324.00,A,A*72

$GNRMC,000325.00,A,3000.00006,N,12000.00001,E,0.026,,230721,5.69,W,A,V*55
$GNVTG,,T,,M,0.026,N,0.048,K,A*35
$GNGGA,000325.00,3000.00006,N,12000.00001,E,1,06,2.30,-7.2,M,7.0,M,,*59
$GNGSA,A,3,02,08,13,04,07,25,,,,,,,5.52,2.30,5.02,1*09
$GNGSA,A,3,,,,,,,,,,,,,5.52,2.30,5.02,3*07
$GNGSA,A,3,,,,,,,,,,,,,5.52,2.30,5.02,4*00
$GPGSV,2,1,06,02,33,298,39,04,51,245,39,07,85,103,39,08,49,208,40,0*6B
$GPGSV,2,2,06,13,49,032,40,25,66,042,39,0*62
$GAGSV,1,1,00,0*74
$GBGSV,1,1,00,0*77
$GNGLL,3000.00006,N,12000.00001,E,000325.00,A,A*74

$GNRMC,000326.00,A,3000.00008,N,11959.99997,E,0.078,,230721,5.69,W,A,V*53
$GNVTG,,T,,M,0.078,N,0.145,K,A*32
$GNGGA,000326.00,3000.00008,N,11959.99997,E,1,06,2.30,-7.1,M,7.0,M,,*57
$GNGSA,A,3,02,08,13,04,07,25,,,,,,,5.52,2.30,5.02,1*09
$GNGSA,A,3,,,,,,,,,,,,,5.52,2.30,5.02,3*07
$GNGSA,A,3,,,,,,,,,,,,,5.52,2.30,5.02,4*00
$GPGSV,2,1,06,02,33,298,39,04,51,245,40,07,85,103,40,08,49,208,39,0*65
$GPGSV,2,2,06,13,49,032,40,25,66,042,40,0*6C
$GAGSV,1,1,00,0*74
$GBGSV,1,1,00,0*77
$GNGLL,3000.00008,N,11959.99997,E,000326.00,A,A*79

$GNRMC,000327.00,A,3000.00009,N,11959.99998,E,0.057,,230721,5.69,W,A,V*51
$GNVTG,,T,,M,0.057,N,0.106,K,A*38
$GNGGA,000327.00,3000.00009,N,11959.99998,E,1,06,2.30,-7.2,M,7.0,M,,*5B
$GNGSA,A,3,02,08,13,04,07,25,,,,,,,5.52,2.30,5.02,1*09
$GNGSA,A,3,,,,,,,,,,,,,5.52,2.30,5.02,3*07
$GNGSA,A,3,,,,,,,,,,,,,5.52,2.30,5.02,4*00
$GPGSV,2,1,06,02,33,298,40,04,51,245,39,07,85,103,39,08,49,208,39,0*6B
$GPGSV,2,2,06,13,49,032,40,25,66,042,40,0*6C
$GAGSV,1,1,00,0*74
$GBGSV,1,1,00,0*77
$GNGLL,3000.00009,N,11959.99998,E,000327.00,A,A*76

$GNRMC,000328.00,A,3000.00009,N,11959.99997,E,0.058,,230721,5.69,W,A,V*5E
$GNVTG,,T,,M,0.058,N,0.107,K,A*36
$GNGGA,000328.00,3000.00009,N,11959.99997,E,1,06,2.30,-7.3,M,7.0,M,,*5A
$GNGSA,A,3,02,08,13,04,07,25,,,,,,,5.52,2.30,5.02,1*09
$GNGSA,A,3,,,,,,,,,,,,,5.52,2.30,5.02,3*07
$GNGSA,A,3,,,,,,,,,,,,,5.52,2.30,5.02,4*00
$GPGSV,2,1,06,02,33,298,40,04,51,245,40,07,85,103,39,08,49,208,40,0*6B
$GPGSV,2,2,06,13,49,032,39,25,66,042,39,0*6C
$GAGSV,1,1,00,0*74
$GBGSV,1,1,00,0*77
$GNGLL,3000.00009,N,11959.99997,E,000328.00,A,A*76

$GNRMC,000329.00,A,3000.00010,N,11959.99997,E,0.040,,230721,5.69,W,A,V*5E
$GNVTG,,T,,M,0.040,N,0.074,K,A*3A
$GNGGA,000329.00,3000.00010,N,11959.99997,E,1,06,2.30,-7.3,M,7.0,M,,*53
$GNGSA,A,3,02,08,13,04,07,25,,,,,,,5.52,2.30,5.02,1*09
$GNGSA,A,3,,,,,,,,,,,,,5.52,2.30,5.02,3*07
$GNGSA,A,3,,,,,,,,,,,,,5.52,2.30,5.02,4*00
$GPGSV,2,1,06,02,33,298,40,04,51,245,40,07,85,103,39,08,49,208,39,0*65
$GPGSV,2,2,06,13,49,032,40,25,66,042,39,0*62
$GAGSV,1,1,00,0*74
$GBGSV,1,1,00,0*77
$GNGLL,3000.00010,N,11959.99997,E,000329.00,A,A*7F

$GNRMC,000330.00,A,3000.00010,N,11959.99999,E,0.036,,230721,5.69,W,A,V*59
$GNVTG,,T,,M,0.036,N,0.067,K,A*39
$GNGGA,000330.00,3000.00010,N,11959.99999,E,1,06,2.30,-7.4,M,7.0,M,,*52
$GNGSA,A,3,02,08,13,04,07,25,,,,,,,5.52,2.30,5.02,1*09
$GNGSA,A,3,,,,,,,,,,,,,5.52,2.30,5.02,3*07
$GNGSA,A,3,,,,,,,,,,,,,5.52,2.30,5.02,4*00
$GPGSV,2,1,06,02,33,298,40,04,51,245,40,07,85,103,39,08,49,208,39,0*65
$GPGSV,2,2,06,13,49,032,39,25,66,042,39,0*6C
$GAGSV,1,1,00,0*74
$GBGSV,1,1,00,0*77
$GNGLL,3000.00010,N,11959.99999,E,000330.00,A,A*79

$GNRMC,000331.00,A,3000.00009,N,12000.00000,E,0.187,,230721,5.69,W,A,V*54
$GNVTG,,T,,M,0.187,N,0.347,K,A*33
$GNGGA,000331.00,3000.00009,N,12000.00000,E,1,06,2.30,-7.4,M,7.0,M,,*54
$GNGSA,A,3,02,08,13,04,07,25,,,,,,,5.52,2.30,5.02,1*09
$GNGSA,A,3,,,,,,,,,,,,,5.52,2.30,5.02,3*07
$GNGSA,A,3,,,,,,,,,,,,,5.52,2.30,5.02,4*00
$GPGSV,2,1,06,02,33,298,39,04,51,245,40,07,85,103,40,08,49,208,39,0*65
$GPGSV,2,2,06,13,49,032,39,25,66,042,40,0*62
$GAGSV,1,1,00,0*74
$GBGSV,1,1,00,0*77
$GNGLL,3000.00009,N,12000.00000,E,000331.00,A,A*7F

$GNRMC,000332.00,A,3000.00008,N,11959.99999,E,0.127,,230721,5.69,W,A,V*53
$GNVTG,,T,,M,0.127,N,0.234,K,A*3C
$GNGGA,000332.00,3000.00008,N,11959.99999,E,1,06,2.30,-7.4,M,7.0,M,,*59
$GNGSA,A,3,02,08,13,04,07,25,,,,,,,5.52,2.30,5.02,1*09
$GNGSA,A,3,,,,,,,,,,,,,5.52,2.30,5.02,3*07
$GNGSA,A,3,,,,,,,,,,,,,5.52,2.30,5.02,4*00
$GPGSV,2,1,06,02,33,298,39,04,51,245,39,07,85,103,40,08,49,208,40,0*65
$GPGSV,2,2,06,13,49,032,40,25,66,042,40,0*6C
$GAGSV,1,1,00,0*74
$GBGSV,1,1,00,0*77
$GNGLL,3000.00008,N,11959.99999,E,000332.00,A,A*72

$GNRMC,000333.00,A,3000.00009,N,11959.99997,E,0.055,,230721,5.69,W,A,V*59
$GNVTG,,T,,M,0.055,N,0.102,K,A*3E
$GNGGA,000333.00,3000.00009,N,11959.99997,E,1,06,2.30,-7.4,M,7.0,M,,*57
$GNGSA,A,3,02,08,13,04,07,25,,,,,,,5.53,2.30,5.02,1*08
$GNGSA,A,3,,,,,,,,,,,,,5.53,2.30,5.02,3*06
$GNGSA,A,3,,,,,,,,,,,,,5.53,2.30,5.02,4*01
$GPGSV,2,1,06,02,33,298,40,04,51,245,40,07,85,103,40,08,49,208,39,0*6B
$GPGSV,2,2,06,13,49,032,39,25,66,042,40,0*62
$GAGSV,1,1,00,0*74
$GBGSV,1,1,00,0*77
$GNGLL,3000.00009,N,11959.99997,E,000333.00,A,A*7C

$GNRMC,000334.00,A,3000.00009,N,11959.99996,E,0.064,,230721,5.69,W,A,V*5D
$GNVTG,,T,,M,0.064,N,0.118,K,A*37
$GNGGA,000334.00,3000.00009,N,11959.99996,E,1,06,2.30,-7.3,M,7.0,M,,*56
$GNGSA,A,3,02,08,13,04,07,25,,,,,,,5.53,2.30,5.03,1*09
$GNGSA,A,3,,,,,,,,,,,,,5.53,2.30,5.03,3*07
$GNGSA,A,3,,,,,,,,,,,,,5.53,2.30,5.03,4*00
$GPGSV,2,1,06,02,33,298,40,04,51,245,39,07,85,103,40,08,49,208,39,0*65
$GPGSV,2,2,06,13,49,032,40,25,66,042,39,0*62
$GAGSV,1,1,00,0*74
$GBGSV,1,1,00,0*77
$GNGLL,3000.00009,N,11959.99996,E,000334.00,A,A*7A

$GNRMC,000335.00,A,3000.00008,N,11959.99995,E,0.103,,230721,5.69,W,A,V*5E
$GNVTG,,T,,M,0.103,N,0.191,K,A*36
$GNGGA,000335.00,3000.00008,N,11959.99995,E,1,06,2.30,-7.2,M,7.0,M,,*54
$GNGSA,A,3,02,08,13,04,07,25,,,,,,,5.53,2.30,5.03,1*09
$GNGSA,A,3,,,,,,,,,,,,,5.53,2.30,5.03,3*07
$GNGSA,A,3,,,,,,,,,,,,,5.53,2.30,5.03,4*00
$GPGSV,2,1,06,02,33,298,40,04,51,245,39,07,85,103,40,08,49,208,40,0*6B
$GPGSV,2,2,06,13,49,032,40,25,66,042,39,0*62
$GAGSV,1,1,00,0*74
$GBGSV,1,1,00,0*77
$GNGLL,3000.00008,N,11959.99995,E,000335.00,A,A*79

$GNRMC,000336.00,A,3000.00008,N,11959.99993,E,0.114,,230721,5.69,W,A,V*5D
$GNVTG,,T,,M,0.114,N,0.211,K,A*3B
$GNGGA,000336.00,3000.00008,N,11959.99993,E,1,06,2.30,-7.1,M,7.0,M,,*52
$GNGSA,A,3,02,08,13,04,07,25,,,,,,,5.53,2.30,5.03,1*09
$GNGSA,A,3,,,,,,,,,,,,,5.53,2.30,5.03,3*07
$GNGSA,A,3,,,,,,,,,,,,,5.53,2.30,5.03,4*00
$GPGSV,2,1,06,02,33,298,40,04,51,245,40,07,85,103,40,08,49,208,40,0*65
$GPGSV,2,2,06,13,49,032,40,25,66,042,40,0*6C
$GAGSV,1,1,00,0*74
$GBGSV,1,1,00,0*77
$GNGLL,3000.00008,N,11959.99993,E,000336.00,A,A*7C

$GNRMC,000337.00,A,3000.00008,N,11959.99993,E,0.070,,230721,5.69,W,A,V*5F
$GNVTG,,T,,M,0.070,N,0.129,K,A*30
$GNGGA,000337.00,3000.00008,N,11959.99993,E,1,06,2.30,-7.2,M,7.0,M,,*50
$GNGSA,A,3,02,08,13,04,07,25,,,,,,,5.53,2.30,5.03,1*09
$GNGSA,A,3,,,,,,,,,,,,,5.53,2.30,5.03,3*07
$GNGSA,A,3,,,,,,,,,,,,,5.53,2.30,5.03,4*00
$GPGSV,2,1,06,02,33,298,40,04,51,245,40,07,85,103,39,08,49,208,39,0*65
$GPGSV,2,2,06,13,49,032,39,25,66,042,40,0*62
$GAGSV,1,1,00,0*74
$GBGSV,1,1,00,0*77
$GNGLL,3000.00008,N,11959.99993,E,000337.00,A,A*7D

$GNRMC,000338.00,A,3000.00007,N,11959.99992,E,0.082,,230721,5.69,W,A,V*53
$GNVTG,,T,,M,0.082,N,0.153,K,A*30
$GNGGA,000338.00,3000.00007,N,11959.99992,E,1,06,2.30,-7.1,M,7.0,M,,*52
$GNGSA,A,3,02,08,13,04,07,25,,,,,,,5.53,2.30,5.03,1*09
$GNGSA,A,3,,,,,,,,,,,,,5.53,2.30,5.03,3*07
$GNGSA,A,3,,,,,,,,,,,,,5.53,2.30,5.03,4*00
$GPGSV,2,1,06,02,33,298,40,04,51,245,40,07,85,103,40,08,49,208,39,0*6B
$GPGSV,2,2,06,13,49,032,40,25,66,042,40,0*6C
$GAGSV,1,1,00,0*74
$GBGSV,1,1,00,0*77
$GNGLL,3000.00007,N,11959.99992,E,000338.00,A,A*7C

$GNRMC,000339.00,A,3000.00005,N,11959.99994,E,0.083,,230721,5.69,W,A,V*57
$GNVTG,,T,,M,0.083,N,0.154,K,A*36
$GNGGA,000339.00,3000.00005,N,11959.99994,E,1,06,2.30,-7.2,M,7.0,M,,*54
$GNGSA,A,3,02,08,13,04,07,25,,,,,,,5.53,2.30,5.03,1*09
$GNGSA,A,3,,,,,,,,,,,,,5.53,2.30,5.03,3*07
$GNGSA,A,3,,,,,,,,,,,,,5.53,2.30,5.03,4*00
$GPGSV,2,1,06,02,33,298,39,04,51,245,40,07,85,103,40,08,49,208,39,0*65
$GPGSV,2,2,06,13,49,032,40,25,66,042,40,0*6C
$GAGSV,1,1,00,0*74
$GBGSV,1,1,00,0*77
$GNGLL,3000.00005,N,11959.99994,E,000339.00,A,A*79

$GNRMC,000340.00,A,3000.00002,N,11959.99996,E,0.035,,230721,5.69,W,A,V*51
$GNVTG,,T,,M,0.035,N,0.064,K,A*39
$GNGGA,000340.00,3000.00002,N,11959.99996,E,1,06,2.30,-7.3,M,7.0,M,,*5E
$GNGSA,A,3,02,08,13,04,07,25,,,,,,,5.53,2.30,5.03,1*09
$GNGSA,A,3,,,,,,,,,,,,,5.53,2.30,5.03,3*07
$GNGSA,A,3,,,,,,,,,,,,,5.53,2.30,5.03,4*00
$GPGSV,2,1,06,02,33,298,39,04,51,245,40,07,85,103,40,08,49,208,40,0*6B
$GPGSV,2,2,06,13,49,032,39,25,66,042,40,0*62
$GAGSV,1,1,00,0*74
$GBGSV,1,1,00,0*77
$GNGLL,3000.00002,N,11959.99996,E,000340.00,A,A*72

$GNRMC,000341.00,A,3000.00001,N,11959.99997,E,0.038,,230721,5.69,W,A,V*5F
$GNVTG,,T,,M,0.038,N,0.070,K,A*31
$GNGGA,000341.00,3000.00001,N,11959.99997,E,1,06,2.30,-7.3,M,7.0,M,,*5D
$GNGSA,A,3,02,08,13,04,07,25,,,,,,,5.53,2.30,5.03,1*09
$GNGSA,A,3,,,,,,,,,,,,,5.53,2.30,5.03,3*07
$GNGSA,A,3,,,,,,,,,,,,,5.53,2.30,5.03,4*00
$GPGSV,2,1,06,02,33,298,40,04,51,245,40,07,85,103,39,08,49,208,40,0*6B
$GPGSV,2,2,06,13,49,032,39,25,66,042,40,0*62
$GAGSV,1,1,00,0*74
$GBGSV,1,1,00,0*77
$GNGLL,3000.00001,N,11959.99997,E,000341.00,A,A*71

$GNRMC,000342.00,A,3000.00000,N,11959.99997,E,0.012,,230721,5.69,W,A,V*55
$GNVTG,,T,,M,0.012,N,0.022,K,A*3E
$GNGGA,000342.00,3000.00000,N,11959.99997,E,1,06,2.30,-7.2,M,7.0,M,,*5E
$GNGSA,A,3,02,08,13,04,07,25,,,,,,,5.53,2.30,5.03,1*09
$GNGSA,A,3,,,,,,,,,,,,,5.53,2.30,5.03,3*07
$GNGSA,A,3,,,,,,,,,,,,,5.53,2.30,5.03,4*00
$GPGSV,2,1,06,02,33,298,39,04,51,245,39,07,85,103,40,08,49,208,39,0*6B
$GPGSV,2,2,06,13,49,032,39,25,66,042,40,0*62
$GAGSV,1,1,00,0*74
$GBGSV,1,1,00,0*77
$GNGLL,3000.00000,N,11959.99997,E,000342.00,A,A*73

$GNRMC,000343.00,A,3000.00001,N,11959.99997,E,0.057,,230721,5.69,W,A,V*54
$GNVTG,,T,,M,0.057,N,0.105,K,A*3B
$GNGGA,000343.00,3000.00001,N,11959.99997,E,1,06,2.30,-7.1,M,7.0,M,,*5D
$GNGSA,A,3,02,08,13,04,07,25,,,,,,,5.54,2.30,5.03,1*0E
$GNGSA,A,3,,,,,,,,,,,,,5.54,2.30,5.03,3*00
$GNGSA,A,3,,,,,,,,,,,,,5.54,2.30,5.03,4*07
$GPGSV,2,1,06,02,33,298,40,04,51,245,40,07,85,103,39,08,49,208,39,0*65
$GPGSV,2,2,06,13,49,032,39,25,66,042,40,0*62
$GAGSV,1,1,00,0*74
$GBGSV,1,1,00,0*77
$GNGLL,3000.00001,N,11959.99997,E,000343.00,A,A*73

$GNRMC,000344.00,A,3000.00001,N,11959.99999,E,0.017,,230721,5.69,W,A,V*59
$GNVTG,,T,,M,0.017,N,0.032,K,A*3A
$GNGGA,000344.00,3000.00001,N,11959.99999,E,1,06,2.30,-7.1,M,7.0,M,,*54
$GNGSA,A,3,02,08,13,04,07,25,,,,,,,5.54,2.30,5.03,1*0E
$GNGSA,A,3,,,,,,,,,,,,,5.54,2.30,5.03,3*00
$GNGSA,A,3,,,,,,,,,,,,,5.54,2.30,5.03,4*07
$GPGSV,2,1,06,02,33,298,40,04,51,245,39,07,85,103,39,08,49,208,39,0*6B
$GPGSV,2,2,06,13,49,032,40,25,66,042,40,0*6C
$GAGSV,1,1,00,0*74
$GBGSV,1,1,00,0*77
$GNGLL,3000.00001,N,11959.99999,E,000344.00,A,A*7A

$GNRMC,000345.00,A,3000.00001,N,12000.00002,E,0.022,,230721,5.69,W,A,V*53
$GNVTG,,T,,M,0.022,N,0.040,K,A*39
$GNGGA,000345.00,3000.00001,N,12000.00002,E,1,06,2.30,-7.2,M,7.0,M,,*5B
$GNGSA,A,3,02,08,13,04,07,25,,,,,,,5.54,2.30,5.04,1*09
$GNGSA,A,3,,,,,,,,,,,,,5.54,2.30,5.04,3*07
$GNGSA,A,3,,,,,,,,,,,,,5.54,2.30,5.04,4*00
$GPGSV,2,1,06,02,33,298,40,04,51,245,39,07,85,103,39,08,49,208,39,0*6B
$GPGSV,2,2,06,13,49,032,40,25,66,042,40,0*6C
$GAGSV,1,1,00,0*74
$GBGSV,1,1,00,0*77
$GNGLL,3000.00001,N,12000.00002,E,000345.00,A,A*76

$GNRMC,000346.00,A,3000.00000,N,12000.00006,E,0.064,,230721,5.69,W,A,V*57
$GNVTG,,T,,M,0.064,N,0.119,K,A*36
$GNGGA,000346.00,3000.00000,N,12000.00006,E,1,06,2.30,-7.4,M,7.0,M,,*5B
$GNGSA,A,3,02,08,13,04,07,25,,,,,,,5.54,2.30,5.04,1*09
$GNGSA,A,3,,,,,,,,,,,,,5.54,2.30,5.04,3*07
$GNGSA,A,3,,,,,,,,,,,,,5.54,2.30,5.04,4*00
$GPGSV,2,1,06,02,33,298,40,04,51,245,40,07,85,103,40,08,49,208,40,0*65
$GPGSV,2,2,06,13,49,032,40,25,66,042,39,0*62
$GAGSV,1,1,00,0*74
$GBGSV,1,1,00,0*77
$GNGLL,3000.00000,N,12000.00006,E,000346.00,A,A*70

$GNRMC,000347.00,A,3000.00001,N,12000.00008,E,0.069,,230721,5.69,W,A,V*54
$GNVTG,,T,,M,0.069,N,0.128,K,A*39
$GNGGA,000347.00,3000.00001,N,12000.00008,E,1,06,2.31,-7.6,M,7.0,M,,*56
$GNGSA,A,3,02,08,13,04,07,25,,,,,,,5.54,2.31,5.04,1*08
$GNGSA,A,3,,,,,,,,,,,,,5.54,2.31,5.04,3*06
$GNGSA,A,3,,,,,,,,,,,,,5.54,2.31,5.04,4*01
$GPGSV,2,1,06,02,33,298,40,04,51,245,40,07,85,101,39,08,49,208,40,0*69
$GPGSV,2,2,06,13,49,032,40,25,66,042,39,0*62
$GAGSV,1,1,00,0*74
$GBGSV,1,1,00,0*77
$GNGLL,3000.00001,N,12000.00008,E,000347.00,A,A*7E

$GNRMC,000348.00,A,3000.00000,N,12000.00010,E,0.067,,230721,5.69,W,A,V*5D
$GNVTG,,T,,M,0.067,N,0.124,K,A*3B
$GNGGA,000348.00,3000.00000,N,12000.00010,E,1,06,2.31,-7.7,M,7.0,M,,*50
$GNGSA,A,3,02,08,13,04,07,25,,,,,,,5.54,2.31,5.04,1*08
$GNGSA,A,3,,,,,,,,,,,,,5.54,2.31,5.04,3*06
$GNGSA,A,3,,,,,,,,,,,,,5.54,2.31,5.04,4*01
$GPGSV,2,1,06,02,33,298,40,04,51,245,39,07,85,101,40,08,49,208,39,0*67
$GPGSV,2,2,06,13,49,032,40,25,66,042,40,0*6C
$GAGSV,1,1,00,0*74
$GBGSV,1,1,00,0*77
$GNGLL,3000.00000,N,12000.00010,E,000348.00,A,A*79

$GNRMC,000349.00,A,3000.00000,N,12000.00012,E,0.042,,230721,5.69,W,A,V*59
$GNVTG,,T,,M,0.042,N,0.077,K,A*3B
$GNGGA,000349.00,3000.00000,N,12000.00012,E,1,06,2.31,-7.7,M,7.0,M,,*53
$GNGSA,A,3,02,08,13,04,07,25,,,,,,,5.54,2.31,5.04,1*08
$GNGSA,A,3,,,,,,,,,,,,,5.54,2.31,5.04,3*06
$GNGSA,A,3,,,,,,,,,,,,,5.54,2.31,5.04,4*01
$GPGSV,2,1,06,02,33,298,40,04,51,245,40,07,85,101,40,08,49,208,40,0*67
$GPGSV,2,2,06,13,49,033,40,25,66,042,40,0*6D
$GAGSV,1,1,00,0*74
$GBGSV,1,1,00,0*77
$GNGLL,3000.00000,N,12000.00012,E,000349.00,A,A*7A

$GNRMC,000350.00,A,3000.00003,N,12000.00010,E,0.063,,230721,5.69,W,A,V*53
$GNVTG,,T,,M,0.063,N,0.118,K,A*30
$GNGGA,000350.00,3000.00003,N,12000.00010,E,1,06,2.31,-7.6,M,7.0,M,,*5B
$GNGSA,A,3,02,08,13,04,07,25,,,,,,,5.54,2.31,5.04,1*08
$GNGSA,A,3,,,,,,,,,,,,,5.54,2.31,5.04,3*06
$GNGSA,A,3,,,,,,,,,,,,,5.54,2.31,5.04,4*01
$GPGSV,2,1,06,02,33,298,40,04,51,245,40,07,85,101,40,08,49,208,40,0*67
$GPGSV,2,2,06,13,49,033,40,25,65,041,39,0*63
$GAGSV,1,1,00,0*74
$GBGSV,1,1,00,0*77
$GNGLL,3000.00003,N,12000.00010,E,000350.00,A,A*73

$GNRMC,000351.00,A,3000.00006,N,12000.00007,E,0.022,,230721,5.69,W,A,V*54
$GNVTG,,T,,M,0.022,N,0.040,K,A*39
$GNGGA,000351.00,3000.00006,N,12000.00007,E,1,06,2.31,-7.5,M,7.0,M,,*5A
$GNGSA,A,3,02,08,13,04,07,25,,,,,,,5.54,2.31,5.04,1*08
$GNGSA,A,3,,,,,,,,,,,,,5.54,2.31,5.04,3*06
$GNGSA,A,3,,,,,,,,,,,,,5.54,2.31,5.04,4*01
$GPGSV,2,1,06,02,33,298,40,04,51,245,40,07,85,101,40,08,49,208,39,0*69
$GPGSV,2,2,06,13,49,033,40,25,65,041,40,0*6D
$GAGSV,1,1,00,0*74
$GBGSV,1,1,00,0*77
$GNGLL,3000.00006,N,12000.00007,E,000351.00,A,A*71

$GNRMC,000352.00,A,3000.00009,N,12000.00005,E,0.031,,230721,5.69,W,A,V*58
$GNVTG,,T,,M,0.031,N,0.058,K,A*32
$GNGGA,000352.00,3000.00009,N,12000.00005,E,1,06,2.31,-7.4,M,7.0,M,,*55
$GNGSA,A,3,02,08,13,04,07,25,,,,,,,5.54,2.31,5.04,1*08
$GNGSA,A,3,,,,,,,,,,,,,5.54,2.31,5.04,3*06
$GNGSA,A,3,,,,,,,,,,,,,5.54,2.31,5.04,4*01
$GPGSV,2,1,06,02,33,298,40,04,51,245,40,07,85,101,40,08,49,208,40,0*67
$GPGSV,2,2,06,13,49,033,40,25,65,041,40,0*6D
$GAGSV,1,1,00,0*74
$GBGSV,1,1,00,0*77
$GNGLL,3000.00009,N,12000.00005,E,000352.00,A,A*7F

$GNRMC,000353.00,A,3000.00009,N,12000.00003,E,0.030,,230721,5.69,W,A,V*5E
$GNVTG,,T,,M,0.030,N,0.055,K,A*3E
$GNGGA,000353.00,3000.00009,N,12000.00003,E,1,06,2.31,-7.4,M,7.0,M,,*52
$GNGSA,A,3,02,08,13,04,07,25,,,,,,,5.55,2.31,5.04,1*09
$GNGSA,A,3,,,,,,,,,,,,,5.55,2.31,5.04,3*07
$GNGSA,A,3,,,,,,,,,,,,,5.55,2.31,5.04,4*00
$GPGSV,2,1,06,02,33,298,39,04,51,245,40,07,85,101,40,08,49,208,40,0*69
$GPGSV,2,2,06,13,49,033,40,25,65,041,40,0*6D
$GAGSV,1,1,00,0*74
$GBGSV,1,1,00,0*77
$GNGLL,3000.00009,N,12000.00003,E,000353.00,A,A*78

$GNRMC,000354.00,A,3000.00009,N,12000.00003,E,0.037,,230721,5.69,W,A,V*5E
$GNVTG,,T,,M,0.037,N,0.069,K,A*36
$GNGGA,000354.00,3000.00009,N,12000.00003,E,1,06,2.31,-7.3,M,7.0,M,,*52
$GNGSA,A,3,02,08,13,04,07,25,,,,,,,5.55,2.31,5.04,1*09
$GNGSA,A,3,,,,,,,,,,,,,5.55,2.31,5.04,3*07
$GNGSA,A,3,,,,,,,,,,,,,5.55,2.31,5.04,4*00
$GPGSV,2,1,06,02,33,298,39,04,51,245,39,07,85,101,40,08,49,208,39,0*69
$GPGSV,2,2,06,13,49,033,39,25,65,041,39,0*6D
$GAGSV,1,1,00,0*74
$GBGSV,1,1,00,0*77
$GNGLL,3000.00009,N,12000.00003,E,000354.00,A,A*7F

$GNRMC,000355.00,A,3000.00008,N,12000.00005,E,0.030,,230721,5.69,W,A,V*5F
$GNVTG,,T,,M,0.030,N,0.056,K,A*3D
$GNGGA,000355.00,3000.00008,N,12000.00005,E,1,06,2.31,-7.3,M,7.0,M,,*54
$GNGSA,A,3,02,08,13,04,07,25,,,,,,,5.55,2.31,5.05,1*08
$GNGSA,A,3,,,,,,,,,,,,,5.55,2.31,5.05,3*06
$GNGSA,A,3,,,,,,,,,,,,,5.55,2.31,5.05,4*01
$GPGSV,2,1,06,02,33,298,40,04,51,245,39,07,85,101,40,08,49,208,40,0*69
$GPGSV,2,2,06,13,49,033,40,25,65,041,40,0*6D
$GAGSV,1,1,00,0*74
$GBGSV,1,1,00,0*77
$GNGLL,3000.00008,N,12000.00005,E,000355.00,A,A*79

$GNRMC,000356.00,A,3000.00006,N,12000.00005,E,0.050,,230721,5.69,W,A,V*54
$GNVTG,,T,,M,0.050,N,0.093,K,A*32
$GNGGA,000356.00,3000.00006,N,12000.00005,E,1,06,2.31,-7.3,M,7.0,M,,*59
$GNGSA,A,3,02,08,13,04,07,25,,,,,,,5.55,2.31,5.05,1*08
$GNGSA,A,3,,,,,,,,,,,,,5.55,2.31,5.05,3*06
$GNGSA,A,3,,,,,,,,,,,,,5.55,2.31,5.05,4*01
$GPGSV,2,1,06,02,33,298,40,04,51,245,39,07,85,101,40,08,49,208,40,0*69
$GPGSV,2,2,06,13,49,033,40,25,65,041,40,0*6D
$GAGSV,1,1,00,0*74
$GBGSV,1,1,00,0*77
$GNGLL,3000.00006,N,12000.00005,E,000356.00,A,A*74

$GNRMC,000357.00,A,3000.00005,N,12000.00007,E,0.054,,230721,5.69,W,A,V*50
$GNVTG,,T,,M,0.054,N,0.100,K,A*3D
$GNGGA,000357.00,3000.00005,N,12000.00007,E,1,06,2.31,-7.3,M,7.0,M,,*59
$GNGSA,A,3,02,08,13,04,07,25,,,,,,,5.55,2.31,5.05,1*08
$GNGSA,A,3,,,,,,,,,,,,,5.55,2.31,5.05,3*06
$GNGSA,A,3,,,,,,,,,,,,,5.55,2.31,5.05,4*01
$GPGSV,2,1,06,02,33,298,40,04,51,245,40,07,85,101,39,08,49,208,39,0*67
$GPGSV,2,2,06,13,49,033,40,25,65,041,40,0*6D
$GAGSV,1,1,00,0*74
$GBGSV,1,1,00,0*77
$GNGLL,3000.00005,N,12000.00007,E,000357.00,A,A*74

$GNRMC,000358.00,A,3000.00003,N,12000.00009,E,0.023,,230721,5.69,W,A,V*57
$GNVTG,,T,,M,0.023,N,0.043,K,A*3B
$GNGGA,000358.00,3000.00003,N,12000.00009,E,1,06,2.31,-7.4,M,7.0,M,,*59
$GNGSA,A,3,02,08,13,04,07,25,,,,,,,5.55,2.31,5.05,1*08
$GNGSA,A,3,,,,,,,,,,,,,5.55,2.31,5.05,3*06
$GNGSA,A,3,,,,,,,,,,,,,5.55,2.31,5.05,4*01
$GPGSV,2,1,06,02,33,298,40,04,51,245,39,07,85,101,40,08,49,208,40,0*69
$GPGSV,2,2,06,13,49,033,40,25,65,041,40,0*6D
$GAGSV,1,1,00,0*74
$GBGSV,1,1,00,0*77
$GNGLL,3000.00003,N,12000.00009,E,000358.00,A,A*73

$GNRMC,000359.00,A,3000.00001,N,12000.00012,E,0.071,,230721,5.69,W,A,V*59
$GNVTG,,T,,M,0.071,N,0.132,K,A*3B
$GNGGA,000359.00,3000.00001,N,12000.00012,E,1,06,2.31,-7.4,M,7.0,M,,*50
$GNGSA,A,3,02,08,13,04,07,25,,,,,,,5.55,2.31,5.05,1*08
$GNGSA,A,3,,,,,,,,,,,,,5.55,2.31,5.05,3*06
$GNGSA,A,3,,,,,,,,,,,,,5.55,2.31,5.05,4*01
$GPGSV,2,1,06,02,33,298,40,04,51,245,40,07,85,101,40,08,49,208,39,0*69
$GPGSV,2,2,06,13,49,033,40,25,65,041,40,0*6D
$GAGSV,1,1,00,0*74
$GBGSV,1,1,00,0*77
$GNGLL,3000.00001,N,12000.00012,E,000359.00,A,A*7A

$GNRMC,000400.00,A,2959.99999,N,12000.00014,E,0.014,,230721,5.69,W,A,V*5B
$GNVTG,,T,,M,0.014,N,0.027,K,A*3D
$GNGGA,000400.00,2959.99999,N,12000.00014,E,1,06,2.31,-7.5,M,7.0,M,,*50
$GNGSA,A,3,02,08,13,04,07,25,,,,,,,5.55,2.31,5.05,1*08
$GNGSA,A,3,,,,,,,,,,,,,5.55,2.31,5.05,3*06
$GNGSA,A,3,,,,,,,,,,,,,5.55,2.31,5.05,4*01
$GPGSV,2,1,06,02,33,298,40,04,51,245,40,07,85,101,40,08,49,208,40,0*67
$GPGSV,2,2,06,13,49,033,40,25,65,041,39,0*63
$GAGSV,1,1,00,0*74
$GBGSV,1,1,00,0*77
$GNGLL,2959.99999,N,12000.00014,E,000400.00,A,A*7B

$GNRMC,000401.00,A,2959.99999,N,12000.00015,E,0.172,,230721,5.69,W,A,V*5A
$GNVTG,,T,,M,0.172,N,0.319,K,A*32
$GNGGA,000401.00,2959.99999,N,12000.00015,E,1,06,2.31,-7.5,M,7.0,M,,*50
$GNGSA,A,3,02,08,13,04,07,25,,,,,,,5.55,2.31,5.05,1*08
$GNGSA,A,3,,,,,,,,,,,,,5.55,2.31,5.05,3*06
$GNGSA,A,3,,,,,,,,,,,,,5.55,2.31,5.05,4*01
$GPGSV,2,1,06,02,33,298,40,04,51,245,39,07,85,101,40,08,49,208,39,0*67
$GPGSV,2,2,06,13,49,033,39,25,65,041,40,0*63
$GAGSV,1,1,00,0*74
$GBGSV,1,1,00,0*77
$GNGLL,2959.99999,N,12000.00015,E,000401.00,A,A*7B

$GNRMC,000402.00,A,3000.00000,N,12000.00012,E,0.103,,230721,5.69,W,A,V*55
$GNVTG,,T,,M,0.103,N,0.190,K,A*37
$GNGGA,000402.00,3000.00000,N,12000.00012,E,1,06,2.31,-7.4,M,7.0,M,,*58
$GNGSA,A,3,02,08,13,04,07,25,,,,,,,5.55,2.31,5.05,1*08
$GNGSA,A,3,,,,,,,,,,,,,5.55,2.31,5.05,3*06
$GNGSA,A,3,,,,,,,,,,,,,5.55,2.31,5.05,4*01
$GPGSV,2,1,06,02,33,298,39,04,51,245,40,07,85,101,40,08,49,208,39,0*67
$GPGSV,2,2,06,13,49,033,40,25,65,041,40,0*6D
$GAGSV,1,1,00,0*74
$GBGSV,1,1,00,0*77
$GNGLL,3000.00000,N,12000.00012,E,000402.00,A,A*72

$GNRMC,000403.00,A,2959.99998,N,12000.00013,E,0.044,,230721,5.69,W,A,V*5B
$GNVTG,,T,,M,0.044,N,0.082,K,A*37
$GNGGA,000403.00,2959.99998,N,12000.00013,E,1,06,2.31,-7.4,M,7.0,M,,*54
$GNGSA,A,3,02,08,13,04,07,25,,,,,,,5.56,2.31,5.05,1*0B
$GNGSA,A,3,,,,,,,,,,,,,5.56,2.31,5.05,3*05
$GNGSA,A,3,,,,,,,,,,,,,5.56,2.31,5.05,4*02
$GPGSV,2,1,06,02,33,298,39,04,51,245,40,07,85,101,39,08,49,208,40,0*67
$GPGSV,2,2,06,13,49,033,39,25,65,041,40,0*63
$GAGSV,1,1,00,0*74
$GBGSV,1,1,00,0*77
$GNGLL,2959.99998,N,12000.00013,E,000403.00,A,A*7E

$GNRMC,000404.00,A,2959.99996,N,12000.00013,E,0.092,,230721,5.69,W,A,V*59
$GNVTG,,T,,M,0.092,N,0.170,K,A*30
$GNGGA,000404.00,2959.99996,N,12000.00013,E,1,06,2.31,-7.4,M,7.0,M,,*5D
$GNGSA,A,3,02,08,13,04,07,25,,,,,,,5.56,2.31,5.05,1*0B
$GNGSA,A,3,,,,,,,,,,,,,5.56,2.31,5.05,3*05
$GNGSA,A,3,,,,,,,,,,,,,5.56,2.31,5.05,4*02
$GPGSV,2,1,06,02,33,298,40,04,51,245,40,07,85,101,39,08,49,208,39,0*67
$GPGSV,2,2,06,13,49,033,40,25,65,041,40,0*6D
$GAGSV,1,1,00,0*74
$GBGSV,1,1,00,0*77
$GNGLL,2959.99996,N,12000.00013,E,000404.00,A,A*77

$GNRMC,000405.00,A,2959.99996,N,12000.00013,E,0.064,,230721,5.69,W,A,V*51
$GNVTG,,T,,M,0.064,N,0.119,K,A*36
$GNGGA,000405.00,2959.99996,N,12000.00013,E,1,06,2.31,-7.4,M,7.0,M,,*5C
$GNGSA,A,3,02,08,13,04,07,25,,,,,,,5.56,2.31,5.05,1*0B
$GNGSA,A,3,,,,,,,,,,,,,5.56,2.31,5.05,3*05
$GNGSA,A,3,,,,,,,,,,,,,5.56,2.31,5.05,4*02
$GPGSV,2,1,06,02,33,298,40,04,51,245,40,07,85,101,39,08,49,208,39,0*67
$GPGSV,2,2,06,13,49,033,40,25,65,041,40,0*6D
$GAGSV,1,1,00,0*74
$GBGSV,1,1,00,0*77
$GNGLL,2959.99996,N,12000.00013,E,000405.00,A,A*76

$GNRMC,000406.00,A,2959.99995,N,12000.00016,E,0.057,,230721,5.69,W,A,V*54
$GNVTG,,T,,M,0.057,N,0.105,K,A*3B
$GNGGA,000406.00,2959.99995,N,12000.00016,E,1,06,2.31,-7.5,M,7.0,M,,*58
$GNGSA,A,3,02,08,13,04,07,25,,,,,,,5.56,2.31,5.06,1*08
$GNGSA,A,3,,,,,,,,,,,,,5.56,2.31,5.06,3*06
$GNGSA,A,3,,,,,,,,,,,,,5.56,2.31,5.06,4*01
$GPGSV,2,1,06,02,33,298,40,04,51,245,40,07,85,101,39,08,49,208,39,0*67
$GPGSV,2,2,06,13,49,033,40,25,65,041,39,0*63
$GAGSV,1,1,00,0*74
$GBGSV,1,1,00,0*77
$GNGLL,2959.99995,N,12000.00016,E,000406.00,A,A*73

$GNRMC,000407.00,A,2959.99993,N,12000.00019,E,0.019,,230721,5.69,W,A,V*56
$GNVTG,,T,,M,0.019,N,0.035,K,A*33
$GNGGA,000407.00,2959.99993,N,12000.00019,E,1,06,2.31,-7.7,M,7.0,M,,*52
$GNGSA,A,3,02,08,13,04,07,25,,,,,,,5.56,2.31,5.06,1*08
$GNGSA,A,3,,,,,,,,,,,,,5.56,2.31,5.06,3*06
$GNGSA,A,3,,,,,,,,,,,,,5.56,2.31,5.06,4*01
$GPGSV,2,1,06,02,33,298,40,04,51,245,39,07,85,101,39,08,49,208,40,0*67
$GPGSV,2,2,06,13,49,033,39,25,65,041,40,0*63
$GAGSV,1,1,00,0*74
$GBGSV,1,1,00,0*77
$GNGLL,2959.99993,N,12000.00019,E,000407.00,A,A*7B

$GNRMC,000408.00,A,2959.99992,N,12000.00021,E,0.095,,230721,5.69,W,A,V*57
$GNVTG,,T,,M,0.095,N,0.175,K,A*32
$GNGGA,000408.00,2959.99992,N,12000.00021,E,1,06,2.31,-7.7,M,7.0,M,,*57
$GNGSA,A,3,02,08,13,04,07,25,,,,,,,5.56,2.31,5.06,1*08
$GNGSA,A,3,,,,,,,,,,,,,5.56,2.31,5.06,3*06
$GNGSA,A,3,,,,,,,,,,,,,5.56,2.31,5.06,4*01
$GPGSV,2,1,06,02,33,298,40,04,51,245,39,07,85,101,39,08,49,208,39,0*69
$GPGSV,2,2,06,13,49,033,39,25,65,041,39,0*6D
$GAGSV,1,1,00,0*74
$GBGSV,1,1,00,0*77
$GNGLL,2959.99992,N,12000.00021,E,000408.00,A,A*7E

$GNRMC,000409.00,A,2959.99993,N,12000.00022,E,0.062,,230721,5.69,W,A,V*5C
$GNVTG,,T,,M,0.062,N,0.115,K,A*3C
$GNGGA,000409.00,2959.99993,N,12000.00022,E,1,06,2.31,-7.7,M,7.0,M,,*54
$GNGSA,A,3,02,08,13,04,07,25,,,,,,,5.56,2.31,5.06,1*08
$GNGSA,A,3,,,,,,,,,,,,,5.56,2.31,5.06,3*06
$GNGSA,A,3,,,,,,,,,,,,,5.56,2.31,5.06,4*01
$GPGSV,2,1,06,02,33,298,40,04,51,245,40,07,85,101,39,08,49,208,39,0*67
$GPGSV,2,2,06,13,49,033,40,25,65,041,39,0*63
$GAGSV,1,1,00,0*74
$GBGSV,1,1,00,0*77
$GNGLL,2959.99993,N,12000.00022,E,000409.00,A,A*7D

$GNRMC,000410.00,A,2959.99991,N,12000.00025,E,0.076,,230721,5.69,W,A,V*54
$GNVTG,,T,,M,0.076,N,0.141,K,A*38
$GNGGA,000410.00,2959.99991,N,12000.00025,E,1,06,2.31,-7.8,M,7.0,M,,*56
$GNGSA,A,3,02,08,13,04,07,25,,,,,,,5.56,2.31,5.06,1*08
$GNGSA,A,3,,,,,,,,,,,,,5.56,2.31,5.06,3*06
$GNGSA,A,3,,,,,,,,,,,,,5.56,2.31,5.06,4*01
$GPGSV,2,1,06,02,33,298,40,04,51,245,39,07,85,101,39,08,49,208,40,0*67
$GPGSV,2,2,06,13,49,033,39,25,65,041,39,0*6D
$GAGSV,1,1,00,0*74
$GBGSV,1,1,00,0*77
$GNGLL,2959.99991,N,12000.00025,E,000410.00,A,A*70

$GNRMC,000411.00,A,2959.99991,N,12000.00027,E,0.048,,230721,5.69,W,A,V*5A
$GNVTG,,T,,M,0.048,N,0.088,K,A*31
$GNGGA,000411.00,2959.99991,N,12000.00027,E,1,06,2.31,-7.9,M,7.0,M,,*54
$GNGSA,A,3,02,08,13,04,07,25,,,,,,,5.56,2.31,5.06,1*08
$GNGSA,A,3,,,,,,,,,,,,,5.56,2.31,5.06,3*06
$GNGSA,A,3,,,,,,,,,,,,,5.56,2.31,5.06,4*01
$GPGSV,2,1,06,02,33,298,39,04,51,244,40,07,85,101,40,08,49,208,40,0*68
$GPGSV,2,2,06,13,49,033,40,25,65,041,39,0*63
$GAGSV,1,1,00,0*74
$GBGSV,1,1,00,0*77
$GNGLL,2959.99991,N,12000.00027,E,000411.00,A,A*73

$GNRMC,000412.00,A,2959.99992,N,12000.00027,E,0.013,,230721,5.69,W,A,V*54
$GNVTG,,T,,M,0.013,N,0.023,K,A*3E
$GNGGA,000412.00,2959.99992,N,12000.00027,E,1,06,2.31,-7.9,M,7.0,M,,*54
$GNGSA,A,3,02,08,13,04,07,25,,,,,,,5.56,2.31,5.06,1*08
$GNGSA,A,3,,,,,,,,,,,,,5.56,2.31,5.06,3*06
$GNGSA,A,3,,,,,,,,,,,,,5.56,2.31,5.06,4*01
$GPGSV,2,1,06,02,33,298,39,04,51,244,40,07,85,099,40,08,49,208,40,0*68
$GPGSV,2,2,06,13,49,033,40,25,65,041,39,0*63
$GAGSV,1,1,00,0*74
$GBGSV,1,1,00,0*77
$GNGLL,2959.99992,N,12000.00027,E,000412.00,A,A*73

$GNRMC,000413.00,A,2959.99994,N,12000.00024,E,0.023,,230721,5.69,W,A,V*53
$GNVTG,,T,,M,0.023,N,0.043,K,A*3B
$GNGGA,000413.00,2959.99994,N,12000.00024,E,1,06,2.31,-7.8,M,7.0,M,,*51
$GNGSA,A,3,02,08,13,04,07,25,,,,,,,5.57,2.31,5.06,1*09
$GNGSA,A,3,,,,,,,,,,,,,5.57,2.31,5.06,3*07
$GNGSA,A,3,,,,,,,,,,,,,5.57,2.31,5.06,4*00
$GPGSV,2,1,06,02,33,298,39,04,51,244,39,07,85,099,40,08,49,208,40,0*66
$GPGSV,2,2,06,13,49,033,40,25,65,041,39,0*63
$GAGSV,1,1,00,0*74
$GBGSV,1,1,00,0*77
$GNGLL,2959.99994,N,12000.00024,E,000413.00,A,A*77

$GNRMC,000414.00,A,2959.99994,N,12000.00022,E,0.013,,230721,5.69,W,A,V*51
$GNVTG,,T,,M,0.013,N,0.024,K,A*39
$GNGGA,000414.00,2959.99994,N,12000.00022,E,1,06,2.31,-7.7,M,7.0,M,,*5F
$GNGSA,A,3,02,08,13,04,07,25,,,,,,,5.57,2.31,5.06,1*09
$GNGSA,A,3,,,,,,,,,,,,,5.57,2.31,5.06,3*07
$GNGSA,A,3,,,,,,,,,,,,,5.57,2.31,5.06,4*00
$GPGSV,2,1,06,02,33,298,40,04,51,244,39,07,85,099,40,08,49,208,39,0*66
$GPGSV,2,2,06,13,49,033,39,25,65,041,39,0*6D
$GAGSV,1,1,00,0*74
$GBGSV,1,1,00,0*77
$GNGLL,2959.99994,N,12000.00022,E,000414.00,A,A*76

$GNRMC,000415.00,A,2959.99998,N,12000.00017,E,0.012,,230721,5.69,W,A,V*5B
$GNVTG,,T,,M,0.012,N,0.023,K,A*3F
$GNGGA,000415.00,2959.99998,N,12000.00017,E,1,06,2.31,-7.6,M,7.0,M,,*55
$GNGSA,A,3,02,08,13,04,07,25,,,,,,,5.57,2.31,5.06,1*09
$GNGSA,A,3,,,,,,,,,,,,,5.57,2.31,5.06,3*07
$GNGSA,A,3,,,,,,,,,,,,,5.57,2.31,5.06,4*00
$GPGSV,2,1,06,02,33,298,40,04,51,244,40,07,85,099,40,08,49,208,40,0*66
$GPGSV,2,2,06,13,49,033,39,25,65,041,39,0*6D
$GAGSV,1,1,00,0*74
$GBGSV,1,1,00,0*77
$GNGLL,2959.99998,N,12000.00017,E,000415.00,A,A*7D

$GNRMC,000416.00,A,3000.00001,N,12000.00011,E,0.074,,230721,5.69,W,A,V*53
$GNVTG,,T,,M,0.074,N,0.137,K,A*3B
$GNGGA,000416.00,3000.00001,N,12000.00011,E,1,06,2.31,-7.3,M,7.0,M,,*58
$GNGSA,A,3,02,08,13,04,07,25,,,,,,,5.57,2.31,5.06,1*09
$GNGSA,A,3,,,,,,,,,,,,,5.57,2.31,5.06,3*07
$GNGSA,A,3,,,,,,,,,,,,,5.57,2.31,5.06,4*00
$GPGSV,2,1,06,02,33,298,40,04,51,244,39,07,85,099,40,08,49,208,39,0*66
$GPGSV,2,2,06,13,49,033,40,25,65,041,40,0*6D
$GAGSV,1,1,00,0*74
$GBGSV,1,1,00,0*77
$GNGLL,3000.00001,N,12000.00011,E,000416.00,A,A*75

$GNRMC,000417.00,A,3000.00003,N,12000.00007,E,0.098,,230721,5.69,W,A,V*55
$GNVTG,,T,,M,0.098,N,0.182,K,A*37
$GNGGA,000417.00,3000.00003,N,12000.00007,E,1,06,2.32,-7.1,M,7.0,M,,*5D
$GNGSA,A,3,02,08,13,04,07,25,,,,,,,5.57,2.32,5.07,1*0B
$GNGSA,A,3,,,,,,,,,,,,,5.57,2.32,5.07,3*05
$GNGSA,A,3,,,,,,,,,,,,,5.57,2.32,5.07,4*02
$GPGSV,2,1,06,02,33,298,40,04,51,244,39,07,85,099,40,08,49,208,39,0*66
$GPGSV,2,2,06,13,49,033,39,25,65,041,40,0*63
$GAGSV,1,1,00,0*74
$GBGSV,1,1,00,0*77
$GNGLL,3000.00003,N,12000.00007,E,000417.00,A,A*71

$GNRMC,000418.00,A,3000.00004,N,12000.00005,E,0.035,,230721,5.69,W,A,V*58
$GNVTG,,T,,M,0.035,N,0.064,K,A*39
$GNGGA,000418.00,3000.00004,N,12000.00005,E,1,06,2.32,-6.9,M,7.0,M,,*5E
$GNGSA,A,3,02,08,13,04,07,25,,,,,,,5.57,2.32,5.07,1*0B
$GNGSA,A,3,,,,,,,,,,,,,5.57,2.32,5.07,3*05
$GNGSA,A,3,,,,,,,,,,,,,5.57,2.32,5.07,4*02
$GPGSV,2,1,06,02,33,298,39,04,51,244,40,07,85,099,39,08,49,208,39,0*68
$GPGSV,2,2,06,13,49,033,40,25,65,041,39,0*63
$GAGSV,1,1,00,0*74
$GBGSV,1,1,00,0*77
$GNGLL,3000.00004,N,12000.00005,E,000418.00,A,A*7B

$GNRMC,000419.00,A,3000.00005,N,12000.00001,E,0.016,,230721,5.69,W,A,V*5D
$GNVTG,,T,,M,0.016,N,0.029,K,A*31
$GNGGA,000419.00,3000.00005,N,12000.00001,E,1,06,2.32,-6.8,M,7.0,M,,*5B
$GNGSA,A,3,02,08,13,04,07,25,,,,,,,5.57,2.32,5.07,1*0B
$GNGSA,A,3,,,,,,,,,,,,,5.57,2.32,5.07,3*05
$GNGSA,A,3,,,,,,,,,,,,,5.57,2.32,5.07,4*02
$GPGSV,2,1,06,02,33,298,40,04,51,244,39,07,85,099,39,08,49,208,39,0*68
$GPGSV,2,2,06,13,49,033,40,25,65,041,39,0*63
$GAGSV,1,1,00,0*74
$GBGSV,1,1,00,0*77
$GNGLL,3000.00005,N,12000.00001,E,000419.00,A,A*7F

$GNRMC,000420.00,A,3000.00008,N,11959.99994,E,0.023,,230721,5.69,W,A,V*5F
$GNVTG,,T,,M,0.023,N,0.042,K,A*3A
$GNGGA,000420.00,3000.00008,N,11959.99994,E,1,06,2.32,-6.5,M,7.0,M,,*52
$GNGSA,A,3,02,08,13,04,07,25,,,,,,,5.57,2.32,5.07,1*0B
$GNGSA,A,3,,,,,,,,,,,,,5.57,2.32,5.07,3*05
$GNGSA,A,3,,,,,,,,,,,,,5.57,2.32,5.07,4*02
$GPGSV,2,1,06,02,33,298,40,04,51,244,39,07,85,099,40,08,49,208,39,0*66
$GPGSV,2,2,06,13,49,033,40,25,65,041,39,0*63
$GAGSV,1,1,00,0*74
$GBGSV,1,1,00,0*77
$GNGLL,3000.00008,N,11959.99994,E,000420.00,A,A*7B

$GNRMC,000421.00,A,3000.00008,N,11959.99989,E,0.018,,230721,5.69,W,A,V*5A
$GNVTG,,T,,M,0.018,N,0.034,K,A*33
$GNGGA,000421.00,3000.00008,N,11959.99989,E,1,06,2.32,-6.2,M,7.0,M,,*58
$GNGSA,A,3,02,08,13,04,07,25,,,,,,,5.57,2.32,5.07,1*0B
$GNGSA,A,3,,,,,,,,,,,,,5.57,2.32,5.07,3*05
$GNGSA,A,3,,,,,,,,,,,,,5.57,2.32,5.07,4*02
$GPGSV,2,1,06,02,33,298,40,04,51,244,40,07,85,099,40,08,49,208,40,0*66
$GPGSV,2,2,06,13,49,033,40,25,65,041,39,0*63
$GAGSV,1,1,00,0*74
$GBGSV,1,1,00,0*77
$GNGLL,3000.00008,N,11959.99989,E,000421.00,A,A*76

$GNRMC,000422.00,A,3000.00008,N,11959.99982,E,0.016,,230721,5.69,W,A,V*5C
$GNVTG,,T,,M,0.016,N,0.029,K,A*31
$GNGGA,000422.00,3000.00008,N,11959.99982,E,1,06,2.32,-5.9,M,7.0,M,,*58
$GNGSA,A,3,02,08,13,04,07,25,,,,,,,5.57,2.32,5.07,1*0B
$GNGSA,A,3,,,,,,,,,,,,,5.57,2.32,5.07,3*05
$GNGSA,A,3,,,,,,,,,,,,,5.57,2.32,5.07,4*02
$GPGSV,2,1,06,02,33,298,40,04,51,244,40,07,85,099,40,08,49,208,40,0*66
$GPGSV,2,2,06,13,49,033,40,25,65,041,40,0*6D
$GAGSV,1,1,00,0*74
$GBGSV,1,1,00,0*77
$GNGLL,3000.00008,N,11959.99982,E,000422.00,A,A*7E

$GNRMC,000423.00,A,3000.00007,N,11959.99981,E,0.050,,230721,5.69,W,A,V*53
$GNVTG,,T,,M,0.050,N,0.093,K,A*32
$GNGGA,000423.00,3000.00007,N,11959.99981,E,1,06,2.32,-5.9,M,7.0,M,,*55
$GNGSA,A,3,02,08,13,04,07,25,,,,,,,5.58,2.32,5.07,1*04
$GNGSA,A,3,,,,,,,,,,,,,5.58,2.32,5.07,3*0A
$GNGSA,A,3,,,,,,,,,,,,,5.58,2.32,5.07,4*0D
$GPGSV,2,1,06,02,33,298,40,04,51,244,40,07,85,099,40,08,49,208,40,0*66
$GPGSV,2,2,06,13,49,033,40,25,65,041,40,0*6D
$GAGSV,1,1,00,0*74
$GBGSV,1,1,00,0*77
$GNGLL,3000.00007,N,11959.99981,E,000423.00,A,A*73

$GNRMC,000424.00,A,3000.00009,N,11959.99977,E,0.032,,230721,5.69,W,A,V*57
$GNVTG,,T,,M,0.032,N,0.059,K,A*30
$GNGGA,000424.00,3000.00009,N,11959.99977,E,1,06,2.32,-5.9,M,7.0,M,,*55
$GNGSA,A,3,02,08,13,04,07,25,,,,,,,5.58,2.32,5.07,1*04
$GNGSA,A,3,,,,,,,,,,,,,5.58,2.32,5.07,3*0A
$GNGSA,A,3,,,,,,,,,,,,,5.58,2.32,5.07,4*0D
$GPGSV,2,1,06,02,33,298,40,04,51,244,39,07,85,099,40,08,49,208,40,0*68
$GPGSV,2,2,06,13,49,033,39,25,65,041,39,0*6D
