$GNRMC,000025.00,A,2959.94640,N,12000.61559,E,75.605,191.52,230721,5.69,W,A,V*71
$GNVTG,191.52,T,197.20,M,75.605,N,140.020,K,A*08
$GNGGA,000025.00,2959.94640,N,12000.61559,E,1,12,0.59,-6.9,M,7.0,M,,*5A
$GNGSA,A,3,13,02,23,04,25,08,07,27,20,,,,1.10,0.59,0.92,1*0C
$GNGSA,A,3,24,23,10,09,27,11,17,,,,,,1.10,0.59,0.92,3*08
$GNGSA,A,3,06,12,11,09,13,,,,,,,,1.10,0.59,0.92,4*0D
$GPGSV,4,1,13,01,00,121,,02,33,300,36,04,52,247,37,07,84,122,37,0*6D
$GPGSV,4,2,13,08,47,207,36,10,01,310,,13,50,031,36,16,01,039,,0*64
$GPGSV,4,3,13,20,23,121,36,23,28,057,36,25,67,043,37,27,18,219,36,0*6E
$GPGSV,4,4,13,28,00,182,,0*56
$GAGSV,2,1,08,09,13,317,36,10,64,334,37,11,56,117,37,12,07,130,,0*71
$GAGSV,2,2,08,17,31,040,37,23,38,222,37,24,86,021,38,27,31,126,37,0*72
$GBGSV,3,1,09,01,38,122,29,02,50,173,29,04,36,126,29,06,37,216,29,0*76
$GBGSV,3,2,09,09,37,287,29,11,18,131,29,12,10,061,29,13,49,203,30,0*76
$GBGSV,3,3,09,14,09,165,29,0*4B
$GNGLL,2959.94640,N,12000.61559,E,000025.00,A,A*75

$GNRMC,000026.00,A,2959.92598,N,12000.60984,E,75.605,195.97,230721,5.69,W,A,V*72
$GNVTG,195.97,T,201.66,M,75.605,N,140.021,K,A*0A
$GNGGA,000026.00,2959.92598,N,12000.60984,E,1,12,0.59,-6.9,M,7.0,M,,*54
$GNGSA,A,3,13,02,23,04,25,08,07,27,20,,,,1.10,0.59,0.92,1*0C
$GNGSA,A,3,24,23,10,09,27,11,17,,,,,,1.10,0.59,0.92,3*08
$GNGSA,A,3,06,12,11,09,13,,,,,,,,1.10,0.59,0.92,4*0D
$GPGSV,4,1,13,01,00,121,,02,33,300,36,04,52,247,37,07,84,122,37,0*6D
$GPGSV,4,2,13,08,47,207,36,10,01,310,,13,50,031,36,16,01,039,,0*64
$GPGSV,4,3,13,20,23,121,36,23,28,057,36,25,67,043,37,27,18,219,36,0*6E
$GPGSV,4,4,13,28,00,182,,0*56
$GAGSV,2,1,08,09,13,317,36,10,64,334,37,11,56,117,37,12,07,130,,0*71
$GAGSV,2,2,08,17,31,040,37,23,38,222,37,24,86,021,38,27,31,126,37,0*72
$GBGSV,3,1,09,01,38,122,29,02,50,173,30,04,36,126,29,06,37,216,29,0*7E
$GBGSV,3,2,09,09,37,287,29,11,18,131,29,12,10,061,29,13,49,203,30,0*76
$GBGSV,3,3,09,14,09,165,29,0*4B
$GNGLL,2959.92598,N,12000.60984,E,000026.00,A,A*7B

$GNRMC,000027.00,A,2959.90600,N,12000.60229,E,75.581,200.43,230721,5.69,W,A,V*76
$GNVTG,200.43,T,206.11,M,75.581,N,139.976,K,A*01
$GNGGA,000027.00,2959.90600,N,12000.60229,E,1,12,0.59,-6.9,M,7.0,M,,*59
$GNGSA,A,3,13,02,23,04,25,08,07,27,20,,,,1.10,0.59,0.92,1*0C
$GNGSA,A,3,24,23,10,09,27,11,17,,,,,,1.10,0.59,0.92,3*08
$GNGSA,A,3,06,12,11,09,13,,,,,,,,1.10,0.59,0.92,4*0D
$GPGSV,4,1,13,01,00,121,,02,33,300,36,04,52,247,37,07,84,122,37,0*6D
$GPGSV,4,2,13,08,47,207,36,10,01,310,,13,50,031,36,16,01,039,,0*64
$GPGSV,4,3,13,20,23,121,36,23,28,057,36,25,67,043,37,27,18,219,36,0*6E
$GPGSV,4,4,13,28,00,182,,0*56
$GAGSV,2,1,08,09,13,317,36,10,64,334,37,11,56,117,37,12,07,130,,0*71
$GAGSV,2,2,08,17,31,040,37,23,38,222,37,24,86,021,38,27,31,126,37,0*72
$GBGSV,3,1,09,01,38,122,29,02,50,173,30,04,36,126,30,06,37,216,29,0*76
$GBGSV,3,2,09,09,37,287,29,11,18,131,29,12,10,061,29,13,49,203,30,0*76
$GBGSV,3,3,09,14,09,165,29,0*4B
$GNGLL,2959.90600,N,12000.60229,E,000027.00,A,A*76

$GNRMC,000028.00,A,2959.88659,N,12000.59297,E,75.590,204.88,230721,5.69,W,A,V*70
$GNVTG,204.88,T,210.57,M,75.590,N,139.993,K,A*0C
$GNGGA,000028.00,2959.88659,N,12000.59297,E,1,12,0.59,-6.9,M,7.0,M,,*5C
$GNGSA,A,3,13,02,23,04,25,08,07,27,20,,,,1.10,0.59,0.92,1*0C
$GNGSA,A,3,24,23,10,09,27,11,17,,,,,,1.10,0.59,0.92,3*08
$GNGSA,A,3,06,12,11,09,13,,,,,,,,1.10,0.59,0.92,4*0D
$GPGSV,4,1,13,01,00,121,,02,33,300,36,04,52,247,37,07,84,122,37,0*6D
$GPGSV,4,2,13,08,47,207,36,10,01,310,,13,50,031,36,16,01,039,,0*64
$GPGSV,4,3,13,20,23,121,36,23,28,057,36,25,67,043,37,27,18,219,36,0*6E
$GPGSV,4,4,13,28,00,182,,0*56
$GAGSV,2,1,08,09,13,317,36,10,64,334,38,11,56,117,37,12,07,130,,0*7E
$GAGSV,2,2,08,17,31,040,37,23,38,222,37,24,86,021,38,27,31,126,37,0*72
$GBGSV,3,1,09,01,38,122,30,02,50,173,30,04,36,126,29,06,37,216,29,0*76
$GBGSV,3,2,09,09,37,287,30,11,18,131,29,12,10,061,29,13,49,203,30,0*7E
$GBGSV,3,3,09,14,09,165,29,0*4B
$GNGLL,2959.88659,N,12000.59297,E,000028.00,A,A*73

$GNRMC,000029.00,A,2959.86787,N,12000.58196,E,75.606,209.33,230721,5.69,W,A,V*7F
$GNVTG,209.33,T,215.02,M,75.606,N,140.022,K,A*05
$GNGGA,000029.00,2959.86787,N,12000.58196,E,1,12,0.59,-6.9,M,7.0,M,,*52
$GNGSA,A,3,13,02,23,04,25,08,07,27,20,,,,1.10,0.59,0.92,1*0C
$GNGSA,A,3,24,23,10,09,27,11,17,,,,,,1.10,0.59,0.92,3*08
$GNGSA,A,3,06,12,11,09,13,,,,,,,,1.10,0.59,0.92,4*0D
$GPGSV,4,1,13,01,00,121,,02,33,300,36,04,52,247,36,07,84,122,37,0*6C
$GPGSV,4,2,13,08,47,207,36,10,01,310,,13,50,031,37,16,01,039,,0*65
$GPGSV,4,3,13,20,23,121,36,23,28,057,36,25,67,043,37,27,18,219,36,0*6E
$GPGSV,4,4,13,28,00,182,,0*56
$GAGSV,2,1,08,09,13,317,36,10,64,334,37,11,56,117,37,12,07,130,,0*71
$GAGSV,2,2,08,17,31,040,37,23,38,222,37,24,86,021,38,27,31,126,37,0*72
$GBGSV,3,1,09,01,38,122,30,02,50,173,30,04,36,126,30,06,37,216,30,0*76
$GBGSV,3,2,09,09,37,287,29,11,18,131,29,12,10,061,29,13,49,203,31,0*77
$GBGSV,3,3,09,14,09,165,29,0*4B
$GNGLL,2959.86787,N,12000.58196,E,000029.00,A,A*7D

$GNRMC,000030.00,A,2959.84994,N,12000.56930,E,75.601,213.80,230721,5.69,W,A,V*77
$GNVTG,213.80,T,219.49,M,75.601,N,140.012,K,A*01
$GNGGA,000030.00,2959.84994,N,12000.56930,E,1,12,0.59,-6.9,M,7.0,M,,*5E
$GNGSA,A,3,13,02,23,04,25,08,07,27,20,,,,1.10,0.59,0.92,1*0C
$GNGSA,A,3,24,23,10,09,27,11,17,,,,,,1.10,0.59,0.92,3*08
$GNGSA,A,3,06,12,11,09,13,,,,,,,,1.10,0.59,0.92,4*0D
$GPGSV,4,1,13,01,00,121,,02,33,300,36,04,52,247,37,07,84,122,37,0*6D
$GPGSV,4,2,13,08,47,207,36,10,01,310,,13,50,031,37,16,01,039,,0*65
$GPGSV,4,3,13,20,23,121,36,23,28,057,36,25,67,043,37,27,18,219,36,0*6E
$GPGSV,4,4,13,28,00,182,,0*56
$GAGSV,2,1,08,09,13,317,36,10,64,334,37,11,56,117,37,12,07,130,,0*71
$GAGSV,2,2,08,17,31,040,37,23,38,222,37,24,86,021,38,27,31,126,37,0*72
$GBGSV,3,1,09,01,38,122,30,02,50,173,30,04,36,126,29,06,37,216,29,0*76
$GBGSV,3,2,09,09,37,287,29,11,18,131,29,12,10,061,29,13,49,203,30,0*76
$GBGSV,3,3,09,14,09,165,29,0*4B
$GNGLL,2959.84994,N,12000.56930,E,000030.00,A,A*71

$GNRMC,000031.00,A,2959.83293,N,12000.55508,E,75.603,218.24,230721,5.69,W,A,V*7E
$GNVTG,218.24,T,223.93,M,75.603,N,140.017,K,A*0D
$GNGGA,000031.00,2959.83293,N,12000.55508,E,1,12,0.59,-7.0,M,7.0,M,,*58
$GNGSA,A,3,13,02,23,04,25,08,07,27,20,,,,1.10,0.59,0.92,1*0C
$GNGSA,A,3,24,23,10,09,27,11,17,,,,,,1.10,0.59,0.92,3*08
$GNGSA,A,3,06,12,11,09,13,,,,,,,,1.10,0.59,0.92,4*0D
$GPGSV,4,1,13,01,00,121,,02,33,300,36,04,52,247,36,07,84,122,37,0*6C
$GPGSV,4,2,13,08,47,207,36,10,01,310,,13,50,031,37,16,01,039,,0*65
$GPGSV,4,3,13,20,23,121,36,23,28,057,36,25,67,043,37,27,18,219,36,0*6E
$GPGSV,4,4,13,28,00,182,,0*56
$GAGSV,2,1,08,09,13,317,36,10,64,334,37,11,56,117,37,12,07,130,,0*71
$GAGSV,2,2,08,17,31,040,37,23,38,222,37,24,86,021,38,27,31,126,37,0*72
$GBGSV,3,1,09,01,38,122,29,02,50,173,30,04,36,126,29,06,37,216,29,0*7E
$GBGSV,3,2,09,09,37,287,29,11,18,131,29,12,10,061,29,13,49,203,30,0*76
$GBGSV,3,3,09,14,09,165,29,0*4B
$GNGLL,2959.83293,N,12000.55508,E,000031.00,A,A*7F

$GNRMC,000032.00,A,2959.81692,N,12000.53939,E,75.601,222.70,230721,5.69,W,A,V*78
$GNVTG,222.70,T,228.39,M,75.601,N,140.013,K,A*08
$GNGGA,000032.00,2959.81692,N,12000.53939,E,1,12,0.59,-7.0,M,7.0,M,,*54
$GNGSA,A,3,13,02,23,04,25,08,07,27,20,,,,1.10,0.59,0.92,1*0C
$GNGSA,A,3,24,23,10,09,27,11,17,,,,,,1.10,0.59,0.92,3*08
$GNGSA,A,3,06,12,11,09,13,,,,,,,,1.10,0.59,0.92,4*0D
$GPGSV,4,1,13,01,00,121,,02,33,300,36,04,52,247,36,07,84,122,37,0*6C
$GPGSV,4,2,13,08,47,207,36,10,01,310,,13,50,031,37,16,01,039,,0*65
$GPGSV,4,3,13,20,23,121,36,23,28,057,36,25,67,043,37,27,18,219,35,0*6D
$GPGSV,4,4,13,28,00,182,,0*56
$GAGSV,2,1,08,09,13,317,36,10,64,334,37,11,56,117,38,12,07,130,,0*7E
$GAGSV,2,2,08,17,31,040,37,23,38,222,37,24,86,021,38,27,31,126,37,0*72
$GBGSV,3,1,09,01,38,122,29,02,50,173,30,04,36,126,30,06,37,216,29,0*76
$GBGSV,3,2,09,09,37,287,29,11,18,131,29,12,10,061,29,13,49,203,30,0*76
$GBGSV,3,3,09,14,09,165,29,0*4B
$GNGLL,2959.81692,N,12000.53939,E,000032.00,A,A*73

$GNRMC,000033.00,A,2959.80203,N,12000.52232,E,75.594,227.17,230721,5.69,W,A,V*7E
$GNVTG,227.17,T,232.85,M,75.594,N,139.999,K,A*0A
$GNGGA,000033.00,2959.80203,N,12000.52232,E,1,12,0.59,-7.0,M,7.0,M,,*59
$GNGSA,A,3,13,02,23,04,25,08,07,27,20,,,,1.10,0.59,0.92,1*0C
$GNGSA,A,3,24,23,10,09,27,11,17,,,,,,1.10,0.59,0.92,3*08
$GNGSA,A,3,06,12,11,09,13,,,,,,,,1.10,0.59,0.92,4*0D
$GPGSV,4,1,13,01,00,121,,02,33,300,36,04,52,247,37,07,84,122,37,0*6D
$GPGSV,4,2,13,08,47,207,36,10,01,310,,13,50,031,37,16,01,039,,0*65
$GPGSV,4,3,13,20,23,121,36,23,28,057,36,25,67,043,37,27,18,219,36,0*6E
$GPGSV,4,4,13,28,00,182,,0*56
$GAGSV,2,1,08,09,13,317,36,10,64,334,38,11,56,117,37,12,07,130,,0*7E
$GAGSV,2,2,08,17,31,040,37,23,38,222,37,24,86,021,38,27,31,126,37,0*72
$GBGSV,3,1,09,01,38,122,30,02,50,173,30,04,36,126,30,06,37,216,29,0*7E
$GBGSV,3,2,09,09,37,287,29,11,18,131,29,12,10,061,29,13,49,203,30,0*76
$GBGSV,3,3,09,14,09,165,29,0*4B
$GNGLL,2959.80203,N,12000.52232,E,000033.00,A,A*7E

$GNRMC,000034.00,A,2959.78834,N,12000.50396,E,75.576,231.63,230721,5.69,W,A,V*75
$GNVTG,231.63,T,237.32,M,75.576,N,139.966,K,A*0B
$GNGGA,000034.00,2959.78834,N,12000.50396,E,1,12,0.59,-7.0,M,7.0,M,,*5A
$GNGSA,A,3,13,02,23,04,25,08,07,27,20,,,,1.10,0.59,0.92,1*0C
$GNGSA,A,3,24,23,10,09,27,11,17,,,,,,1.10,0.59,0.92,3*08
$GNGSA,A,3,06,12,11,09,13,,,,,,,,1.10,0.59,0.92,4*0D
$GPGSV,4,1,13,01,00,121,,02,33,300,36,04,52,247,36,07,84,122,37,0*6C
$GPGSV,4,2,13,08,47,207,36,10,01,310,,13,50,031,36,16,01,039,,0*64
$GPGSV,4,3,13,20,23,121,36,23,28,057,36,25,67,043,37,27,18,219,36,0*6E
$GPGSV,4,4,13,28,00,182,,0*56
$GAGSV,2,1,08,09,13,317,36,10,64,334,37,11,56,117,37,12,07,130,,0*71
$GAGSV,2,2,08,17,31,040,37,23,38,222,37,24,86,021,38,27,31,126,37,0*72
$GBGSV,3,1,09,01,38,122,30,02,50,173,30,04,36,126,29,06,37,216,29,0*76
$GBGSV,3,2,09,09,37,287,29,11,18,131,29,12,10,061,29,13,49,203,30,0*76
$GBGSV,3,3,09,14,09,165,29,0*4B
$GNGLL,2959.78834,N,12000.50396,E,000034.00,A,A*7D

$GNRMC,000035.00,A,2959.77594,N,12000.48445,E,75.606,236.08,230721,5.69,W,A,V*72
$GNVTG,236.08,T,241.77,M,75.606,N,140.022,K,A*02
$GNGGA,000035.00,2959.77594,N,12000.48445,E,1,12,0.59,-7.0,M,7.0,M,,*53
$GNGSA,A,3,13,02,23,04,25,08,07,27,20,,,,1.10,0.59,0.92,1*0C
$GNGSA,A,3,24,23,10,09,27,11,17,,,,,,1.10,0.59,0.92,3*08
$GNGSA,A,3,06,12,11,09,13,,,,,,,,1.10,0.59,0.92,4*0D
$GPGSV,4,1,13,01,00,121,,02,33,300,36,04,52,247,36,07,84,122,37,0*6C
$GPGSV,4,2,13,08,47,207,36,10,01,310,,13,50,031,36,16,01,039,,0*64
$GPGSV,4,3,13,20,23,121,36,23,28,057,36,25,67,043,37,27,18,219,35,0*6D
$GPGSV,4,4,13,28,00,182,,0*56
$GAGSV,2,1,08,09,13,317,36,10,64,334,37,11,56,117,37,12,07,130,,0*71
$GAGSV,2,2,08,17,31,040,37,23,38,222,37,24,86,021,38,27,31,126,37,0*72
$GBGSV,3,1,09,01,38,122,29,02,50,173,30,04,36,126,29,06,37,216,29,0*7E
$GBGSV,3,2,09,09,37,287,29,11,18,131,29,12,10,061,29,13,49,203,30,0*76
$GBGSV,3,3,09,14,09,165,29,0*4B
$GNGLL,2959.77594,N,12000.48445,E,000035.00,A,A*74

$GNRMC,000036.00,A,2959.76489,N,12000.46388,E,75.586,240.54,230721,5.69,W,A,V*76
$GNVTG,240.54,T,246.23,M,75.586,N,139.986,K,A*0E
$GNGGA,000036.00,2959.76489,N,12000.46388,E,1,12,0.59,-7.0,M,7.0,M,,*54
$GNGSA,A,3,13,02,23,04,25,08,07,27,20,,,,1.10,0.59,0.92,1*0C
$GNGSA,A,3,24,23,10,09,27,11,17,,,,,,1.10,0.59,0.92,3*08
$GNGSA,A,3,06,12,11,09,13,,,,,,,,1.10,0.59,0.92,4*0D
$GPGSV,4,1,13,01,00,121,,02,33,300,36,04,52,247,36,07,84,122,37,0*6C
$GPGSV,4,2,13,08,47,207,36,10,01,310,,13,50,031,36,16,01,039,,0*64
$GPGSV,4,3,13,20,23,121,36,23,28,057,36,25,67,043,37,27,18,219,36,0*6E
$GPGSV,4,4,13,28,00,182,,0*56
$GAGSV,2,1,08,09,13,317,36,10,64,334,38,11,56,117,37,12,07,130,,0*7E
$GAGSV,2,2,08,17,31,040,37,23,38,222,37,24,86,021,38,27,31,126,37,0*72
$GBGSV,3,1,09,01,38,122,29,02,50,173,30,04,36,126,30,06,37,216,29,0*76
$GBGSV,3,2,09,09,37,287,29,11,18,131,29,12,10,061,29,13,49,203,30,0*76
$GBGSV,3,3,09,14,09,165,29,0*4B
$GNGLL,2959.76489,N,12000.46388,E,000036.00,A,A*73

$GNRMC,000037.00,A,2959.75527,N,12000.44239,E,75.604,244.98,230721,5.69,W,A,V*75
$GNVTG,244.98,T,250.67,M,75.604,N,140.019,K,A*05
$GNGGA,000037.00,2959.75527,N,12000.44239,E,1,12,0.59,-7.0,M,7.0,M,,*5A
$GNGSA,A,3,13,02,23,04,25,08,07,27,20,,,,1.10,0.59,0.92,1*0C
$GNGSA,A,3,24,23,10,09,27,11,17,,,,,,1.10,0.59,0.92,3*08
$GNGSA,A,3,06,12,11,09,13,,,,,,,,1.10,0.59,0.92,4*0D
$GPGSV,4,1,13,01,00,121,,02,33,300,36,04,52,247,37,07,84,122,37,0*6D
$GPGSV,4,2,13,08,47,207,36,10,01,310,,13,50,031,37,16,01,039,,0*65
$GPGSV,4,3,13,20,23,121,36,23,28,057,36,25,67,043,37,27,18,219,35,0*6D
$GPGSV,4,4,13,28,00,182,,0*56
$GAGSV,2,1,08,09,13,317,36,10,64,334,38,11,56,117,37,12,07,130,,0*7E
$GAGSV,2,2,08,17,31,040,37,23,38,222,37,24,86,021,38,27,31,126,37,0*72
$GBGSV,3,1,09,01,38,122,29,02,50,173,30,04,36,126,30,06,37,216,29,0*76
$GBGSV,3,2,09,09,37,287,29,11,18,131,29,12,10,061,29,13,49,203,30,0*76
$GBGSV,3,3,09,14,09,165,29,0*4B
$GNGLL,2959.75527,N,12000.44239,E,000037.00,A,A*7D

$GNRMC,000038.00,A,2959.74714,N,12000.42010,E,75.595,249.45,230721,5.69,W,A,V*70
$GNVTG,249.45,T,255.14,M,75.595,N,140.001,K,A*0B
$GNGGA,000038.00,2959.74714,N,12000.42010,E,1,12,0.59,-7.0,M,7.0,M,,*59
$GNGSA,A,3,13,02,23,04,25,08,07,27,20,,,,1.10,0.59,0.92,1*0C
$GNGSA,A,3,24,23,10,09,27,11,17,,,,,,1.10,0.59,0.92,3*08
$GNGSA,A,3,06,12,11,09,13,,,,,,,,1.10,0.59,0.92,4*0D
$GPGSV,4,1,13,01,00,121,,02,33,300,36,04,52,247,37,07,84,122,37,0*6D
$GPGSV,4,2,13,08,47,207,36,10,01,310,,13,50,031,37,16,01,039,,0*65
$GPGSV,4,3,13,20,23,121,36,23,28,057,36,25,67,043,37,27,18,219,36,0*6E
$GPGSV,4,4,13,28,00,182,,0*56
$GAGSV,2,1,08,09,13,317,36,10,64,334,37,11,56,117,37,12,07,130,,0*71
$GAGSV,2,2,08,17,31,040,37,23,38,222,37,24,86,021,38,27,31,126,37,0*72
$GBGSV,3,1,09,01,38,122,29,02,50,173,30,04,36,126,29,06,37,216,29,0*7E
$GBGSV,3,2,09,09,37,287,29,11,18,131,29,12,10,061,29,13,49,203,30,0*76
$GBGSV,3,3,09,14,09,165,29,0*4B
$GNGLL,2959.74714,N,12000.42010,E,000038.00,A,A*7E

$GNRMC,000039.00,A,2959.74053,N,12000.39716,E,75.585,253.90,230721,5.69,W,A,V*7A
$GNVTG,253.90,T,259.58,M,75.585,N,139.984,K,A*07
$GNGGA,000039.00,2959.74053,N,12000.39716,E,1,12,0.59,-7.0,M,7.0,M,,*51
$GNGSA,A,3,13,02,23,04,25,08,07,27,20,,,,1.10,0.59,0.92,1*0C
$GNGSA,A,3,24,23,10,09,27,11,17,,,,,,1.10,0.59,0.92,3*08
$GNGSA,A,3,06,12,11,09,13,,,,,,,,1.10,0.59,0.92,4*0D
$GPGSV,4,1,13,01,00,121,,02,33,300,36,04,52,247,36,07,84,122,37,0*6C
$GPGSV,4,2,13,08,47,207,36,10,01,310,,13,50,031,36,16,01,039,,0*64
$GPGSV,4,3,13,20,23,121,36,23,28,057,36,25,67,043,37,27,18,219,36,0*6E
$GPGSV,4,4,13,28,00,182,,0*56
$GAGSV,2,1,08,09,13,317,36,10,64,334,38,11,56,117,37,12,07,130,,0*7E
$GAGSV,2,2,08,17,31,040,37,23,38,222,37,24,86,021,38,27,31,126,37,0*72
$GBGSV,3,1,09,01,38,122,30,02,50,173,30,04,36,126,30,06,37,216,29,0*7E
$GBGSV,3,2,09,09,37,287,29,11,18,131,29,12,10,061,29,13,49,203,30,0*76
$GBGSV,3,3,09,14,09,165,29,0*4B
$GNGLL,2959.74053,N,12000.39716,E,000039.00,A,A*76

$GNRMC,000040.00,A,2959.73550,N,12000.37369,E,75.588,258.37,230721,5.69,W,A,V*7C
$GNVTG,258.37,T,264.05,M,75.588,N,139.989,K,A*07
$GNGGA,000040.00,2959.73550,N,12000.37369,E,1,12,0.59,-7.0,M,7.0,M,,*5C
$GNGSA,A,3,13,02,23,04,25,08,07,27,20,,,,1.10,0.59,0.92,1*0C
$GNGSA,A,3,24,23,10,09,27,11,17,,,,,,1.10,0.59,0.92,3*08
$GNGSA,A,3,06,12,11,09,13,,,,,,,,1.10,0.59,0.92,4*0D
$GPGSV,4,1,13,01,00,121,,02,33,300,36,04,52,247,37,07,84,122,37,0*6D
$GPGSV,4,2,13,08,47,207,37,10,01,310,,13,50,031,36,16,01,039,,0*65
$GPGSV,4,3,13,20,23,121,36,23,28,057,36,25,67,043,37,27,18,219,35,0*6D
$GPGSV,4,4,13,28,00,182,,0*56
$GAGSV,2,1,08,09,13,317,36,10,64,334,37,11,56,117,37,12,07,130,,0*71
$GAGSV,2,2,08,17,31,040,37,23,38,222,37,24,86,021,38,27,31,126,37,0*72
$GBGSV,3,1,09,01,38,122,29,02,50,173,29,04,36,126,30,06,37,216,29,0*7E
$GBGSV,3,2,09,09,37,287,29,11,18,131,29,12,10,061,29,13,49,203,30,0*76
$GBGSV,3,3,09,14,09,165,29,0*4B
$GNGLL,2959.73550,N,12000.37369,E,000040.00,A,A*7B

$GNRMC,000041.00,A,2959.73207,N,12000.34985,E,75.586,262.81,230721,5.69,W,A,V*79
$GNVTG,262.81,T,268.49,M,75.586,N,139.984,K,A*04
$GNGGA,000041.00,2959.73207,N,12000.34985,E,1,12,0.59,-7.0,M,7.0,M,,*53
$GNGSA,A,3,13,02,23,04,25,08,07,27,20,,,,1.10,0.59,0.92,1*0C
$GNGSA,A,3,24,23,10,09,27,11,17,,,,,,1.10,0.59,0.92,3*08
$GNGSA,A,3,06,12,11,09,13,,,,,,,,1.10,0.59,0.92,4*0D
$GPGSV,4,1,13,01,00,121,,02,33,300,36,04,52,247,37,07,84,122,37,0*6D
$GPGSV,4,2,13,08,47,207,36,10,01,310,,13,50,031,37,16,01,039,,0*65
$GPGSV,4,3,13,20,23,121,36,23,28,057,36,25,67,043,37,27,18,219,35,0*6D
$GPGSV,4,4,13,28,00,182,,0*56
$GAGSV,2,1,08,09,13,317,36,10,64,334,37,11,56,117,37,12,07,130,,0*71
$GAGSV,2,2,08,17,31,040,37,23,38,222,37,24,86,021,38,27,31,126,37,0*72
$GBGSV,3,1,09,01,38,122,29,02,50,173,30,04,36,126,30,06,37,216,29,0*76
$GBGSV,3,2,09,09,37,287,29,11,18,131,29,12,10,061,29,13,48,202,30,0*76
$GBGSV,3,3,09,14,09,165,29,0*4B
$GNGLL,2959.73207,N,12000.34985,E,000041.00,A,A*74

$GNRMC,000042.00,A,2959.73026,N,12000.32577,E,75.593,267.27,230721,5.69,W,A,V*71
$GNVTG,267.27,T,272.96,M,75.593,N,139.998,K,A*0D
$GNGGA,000042.00,2959.73026,N,12000.32577,E,1,12,0.59,-7.0,M,7.0,M,,*56
$GNGSA,A,3,13,02,23,04,25,08,07,27,20,,,,1.10,0.59,0.92,1*0C
$GNGSA,A,3,24,23,10,09,27,11,17,,,,,,1.10,0.59,0.92,3*08
$GNGSA,A,3,06,12,11,09,13,,,,,,,,1.10,0.59,0.92,4*0D
$GPGSV,4,1,13,01,00,121,,02,33,300,36,04,52,247,36,07,84,122,37,0*6C
$GPGSV,4,2,13,08,47,207,36,10,01,310,,13,50,031,36,16,01,039,,0*64
$GPGSV,4,3,13,20,23,121,36,23,28,057,36,25,67,043,37,27,18,219,36,0*6E
$GPGSV,4,4,13,28,00,182,,0*56
$GAGSV,2,1,08,09,13,317,36,10,64,334,38,11,56,117,37,12,07,130,,0*7E
$GAGSV,2,2,08,17,31,040,37,23,38,222,37,24,86,021,38,27,31,126,37,0*72
$GBGSV,3,1,09,01,38,122,30,02,50,173,30,04,36,126,30,06,37,216,29,0*7E
$GBGSV,3,2,09,09,37,287,29,11,18,131,29,12,10,061,29,13,48,202,30,0*76
$GBGSV,3,3,09,14,09,165,29,0*4B
$GNGLL,2959.73026,N,12000.32577,E,000042.00,A,A*71

$GNRMC,000043.00,A,2959.73008,N,12000.30160,E,75.599,271.73,230721,5.69,W,A,V*70
$GNVTG,271.73,T,277.42,M,75.599,N,140.010,K,A*0A
$GNGGA,000043.00,2959.73008,N,12000.30160,E,1,12,0.59,-7.0,M,7.0,M,,*5B
$GNGSA,A,3,13,02,23,04,25,08,07,27,20,,,,1.10,0.59,0.92,1*0C
$GNGSA,A,3,24,23,10,09,27,11,17,,,,,,1.10,0.59,0.92,3*08
$GNGSA,A,3,06,12,11,09,13,,,,,,,,1.10,0.59,0.92,4*0D
$GPGSV,4,1,13,01,00,121,,02,33,300,36,04,52,247,37,07,84,122,37,0*6D
$GPGSV,4,2,13,08,47,207,36,10,01,310,,13,50,031,36,16,01,039,,0*64
$GPGSV,4,3,13,20,23,121,36,23,28,057,36,25,67,043,37,27,18,219,36,0*6E
$GPGSV,4,4,13,28,00,182,,0*56
$GAGSV,2,1,08,09,13,317,36,10,64,334,38,11,56,117,37,12,07,130,,0*7E
$GAGSV,2,2,08,17,31,040,37,23,38,222,37,24,86,021,38,27,31,126,37,0*72
$GBGSV,3,1,09,01,38,122,30,02,50,173,30,04,36,126,29,06,37,216,29,0*76
$GBGSV,3,2,09,09,37,287,29,11,18,131,29,12,10,061,29,13,48,202,30,0*76
$GBGSV,3,3,09,14,09,165,29,0*4B
$GNGLL,2959.73008,N,12000.30160,E,000043.00,A,A*7C

$GNRMC,000044.00,A,2959.73154,N,12000.27748,E,75.586,276.19,230721,5.69,W,A,V*70
$GNVTG,276.19,T,281.87,M,75.586,N,139.985,K,A*04
$GNGGA,000044.00,2959.73154,N,12000.27748,E,1,12,0.59,-6.9,M,7.0,M,,*56
$GNGSA,A,3,13,02,23,04,25,08,07,27,20,,,,1.10,0.59,0.92,1*0C
$GNGSA,A,3,24,23,10,09,27,11,17,,,,,,1.10,0.59,0.92,3*08
$GNGSA,A,3,06,12,11,09,13,,,,,,,,1.10,0.59,0.92,4*0D
$GPGSV,4,1,13,01,00,121,,02,33,300,36,04,52,247,37,07,84,122,37,0*6D
$GPGSV,4,2,13,08,47,207,36,10,01,310,,13,50,031,36,16,01,039,,0*64
$GPGSV,4,3,13,20,23,121,36,23,28,057,36,25,67,043,37,27,18,219,36,0*6E
$GPGSV,4,4,13,28,00,182,,0*56
$GAGSV,2,1,08,09,13,317,36,10,64,334,38,11,56,117,37,12,07,130,,0*7E
$GAGSV,2,2,08,17,31,040,37,23,38,222,37,24,86,021,38,27,31,126,37,0*72
$GBGSV,3,1,09,01,38,122,29,02,50,173,30,04,36,126,29,06,37,216,29,0*7E
$GBGSV,3,2,09,09,37,287,29,11,18,131,29,12,10,061,29,13,48,202,30,0*76
$GBGSV,3,3,09,14,09,165,29,0*4B
$GNGLL,2959.73154,N,12000.27748,E,000044.00,A,A*79

$GNRMC,000045.00,A,2959.73463,N,12000.25357,E,75.587,280.64,230721,5.69,W,A,V*7A
$GNVTG,280.64,T,286.33,M,75.587,N,139.987,K,A*0C
$GNGGA,000045.00,2959.73463,N,12000.25357,E,1,12,0.59,-6.9,M,7.0,M,,*5E
$GNGSA,A,3,13,02,23,04,25,08,07,27,20,,,,1.10,0.59,0.92,1*0C
$GNGSA,A,3,24,23,10,09,27,11,17,,,,,,1.10,0.59,0.92,3*08
$GNGSA,A,3,06,12,11,09,13,,,,,,,,1.10,0.59,0.92,4*0D
$GPGSV,4,1,13,01,00,121,,02,33,300,36,04,52,247,36,07,84,122,37,0*6C
$GPGSV,4,2,13,08,47,207,36,10,01,310,,13,50,031,37,16,01,039,,0*65
$GPGSV,4,3,13,20,23,121,36,23,28,057,36,25,67,043,37,27,18,219,35,0*6D
$GPGSV,4,4,13,28,00,182,,0*56
$GAGSV,2,1,08,09,13,317,36,10,64,334,38,11,56,117,37,12,07,130,,0*7E
$GAGSV,2,2,08,17,31,040,37,23,38,222,37,24,86,021,38,27,31,126,37,0*72
$GBGSV,3,1,09,01,38,122,30,02,50,173,30,04,36,126,29,06,37,216,29,0*76
$GBGSV,3,2,09,09,37,287,30,11,18,131,29,12,10,061,29,13,48,202,30,0*7E
$GBGSV,3,3,09,14,09,165,29,0*4B
$GNGLL,2959.73463,N,12000.25357,E,000045.00,A,A*71

$GNRMC,000046.00,A,2959.73932,N,12000.23001,E,75.583,285.11,230721,5.69,W,A,V*75
$GNVTG,285.11,T,290.79,M,75.583,N,139.979,K,A*07
$GNGGA,000046.00,2959.73932,N,12000.23001,E,1,12,0.59,-6.9,M,7.0,M,,*52
$GNGSA,A,3,13,02,23,04,25,08,07,27,20,,,,1.10,0.59,0.92,1*0C
$GNGSA,A,3,24,23,10,09,27,11,17,,,,,,1.10,0.59,0.92,3*08
$GNGSA,A,3,06,12,11,09,13,,,,,,,,1.10,0.59,0.92,4*0D
$GPGSV,4,1,13,01,00,121,,02,33,300,36,04,52,247,36,07,84,122,37,0*6C
$GPGSV,4,2,13,08,47,207,36,10,01,310,,13,50,031,37,16,01,039,,0*65
$GPGSV,4,3,13,20,23,121,36,23,28,057,36,25,67,043,37,27,18,219,36,0*6E
$GPGSV,4,4,13,28,00,182,,0*56
$GAGSV,2,1,08,09,13,317,36,10,64,334,38,11,56,117,37,12,07,130,,0*7E
$GAGSV,2,2,08,17,31,040,37,23,38,222,37,24,86,021,38,27,31,126,37,0*72
$GBGSV,3,1,09,01,38,122,29,02,50,173,30,04,36,126,30,06,37,216,29,0*76
$GBGSV,3,2,09,09,37,287,29,11,18,131,29,12,10,061,29,13,48,202,30,0*76
$GBGSV,3,3,09,14,09,165,29,0*4B
$GNGLL,2959.73932,N,12000.23001,E,000046.00,A,A*7D

$GNRMC,000047.00,A,2959.74560,N,12000.20694,E,75.589,289.55,230721,5.69,W,A,V*77
$GNVTG,289.55,T,295.24,M,75.589,N,139.991,K,A*0A
$GNGGA,000047.00,2959.74560,N,12000.20694,E,1,12,0.59,-6.8,M,7.0,M,,*57
$GNGSA,A,3,13,02,23,04,25,08,07,27,20,,,,1.10,0.59,0.92,1*0C
$GNGSA,A,3,24,23,10,09,27,11,17,,,,,,1.10,0.59,0.92,3*08
$GNGSA,A,3,06,12,11,09,13,,,,,,,,1.10,0.59,0.92,4*0D
$GPGSV,4,1,13,01,00,122,,02,33,300,36,04,52,247,36,07,84,122,37,0*6F
$GPGSV,4,2,13,08,47,207,36,10,01,310,,13,50,031,37,16,01,039,,0*65
$GPGSV,4,3,13,20,23,121,36,23,28,057,36,25,67,043,37,27,18,219,35,0*6D
$GPGSV,4,4,13,28,00,182,,0*56
$GAGSV,2,1,08,09,13,317,36,10,64,334,38,11,56,117,37,12,07,130,,0*7E
$GAGSV,2,2,08,17,31,040,37,23,38,222,37,24,86,021,38,27,31,126,37,0*72
$GBGSV,3,1,09,01,38,122,30,02,50,173,30,04,36,126,30,06,37,216,29,0*7E
$GBGSV,3,2,09,09,37,287,29,11,18,131,29,12,10,061,29,13,48,202,30,0*76
$GBGSV,3,3,09,14,09,165,28,0*4A
$GNGLL,2959.74560,N,12000.20694,E,000047.00,A,A*79

$GNRMC,000048.00,A,2959.75341,N,12000.18450,E,75.607,294.01,230721,5.69,W,A,V*75
$GNVTG,294.01,T,299.70,M,75.607,N,140.025,K,A*07
$GNGGA,000048.00,2959.75341,N,12000.18450,E,1,12,0.59,-6.8,M,7.0,M,,*5D
$GNGSA,A,3,13,02,23,04,25,08,07,27,20,,,,1.10,0.59,0.92,1*0C
$GNGSA,A,3,24,23,10,09,27,11,17,,,,,,1.10,0.59,0.92,3*08
$GNGSA,A,3,06,12,11,09,13,,,,,,,,1.10,0.59,0.92,4*0D
$GPGSV,4,1,13,01,00,122,,02,33,299,36,04,52,247,36,07,84,122,37,0*6E
$GPGSV,4,2,13,08,47,207,36,10,01,310,,13,50,031,36,16,01,039,,0*64
$GPGSV,4,3,13,20,23,121,36,23,28,057,36,25,67,043,37,27,18,219,35,0*6D
$GPGSV,4,4,13,28,00,182,,0*56
$GAGSV,2,1,08,09,13,317,36,10,64,334,37,11,56,117,37,12,07,130,,0*71
$GAGSV,2,2,08,17,31,040,37,23,38,222,37,24,86,021,38,27,31,126,37,0*72
$GBGSV,3,1,09,01,38,122,30,02,50,173,30,04,36,126,29,06,37,216,29,0*76
$GBGSV,3,2,09,09,37,287,29,11,18,131,29,12,10,061,29,13,48,202,30,0*76
$GBGSV,3,3,09,14,09,165,29,0*4B
$GNGLL,2959.75341,N,12000.18450,E,000048.00,A,A*73

$GNRMC,000049.00,A,2959.76272,N,12000.16281,E,75.600,298.46,230721,5.69,W,A,V*7A
$GNVTG,298.46,T,304.14,M,75.600,N,140.011,K,A*0F
$GNGGA,000049.00,2959.76272,N,12000.16281,E,1,12,0.59,-6.8,M,7.0,M,,*5A
$GNGSA,A,3,13,02,23,04,25,08,07,27,20,,,,1.10,0.59,0.92,1*0C
$GNGSA,A,3,24,23,10,09,27,11,17,,,,,,1.10,0.59,0.92,3*08
$GNGSA,A,3,06,12,11,09,13,,,,,,,,1.10,0.59,0.92,4*0D
$GPGSV,4,1,13,01,00,122,,02,33,299,36,04,52,247,36,07,84,122,37,0*6E
$GPGSV,4,2,13,08,47,207,36,10,01,310,,13,50,031,36,16,01,039,,0*64
$GPGSV,4,3,13,20,23,121,36,23,28,057,36,25,67,043,37,27,18,219,35,0*6D
$GPGSV,4,4,13,28,00,182,,0*56
$GAGSV,2,1,08,09,13,317,36,10,64,334,37,11,56,117,37,12,07,130,,0*71
$GAGSV,2,2,08,17,31,040,37,23,38,222,37,24,86,021,38,27,31,126,37,0*72
$GBGSV,3,1,09,01,38,122,30,02,50,173,30,04,36,126,30,06,37,216,29,0*7E
$GBGSV,3,2,09,09,37,287,29,11,18,131,29,12,10,061,29,13,48,202,30,0*76
$GBGSV,3,3,09,14,09,165,29,0*4B
$GNGLL,2959.76272,N,12000.16281,E,000049.00,A,A*74

$GNRMC,000050.00,A,2959.77346,N,12000.14203,E,75.591,302.93,230721,5.69,W,A,V*7C
$GNVTG,302.93,T,308.61,M,75.591,N,139.994,K,A*0A
$GNGGA,000050.00,2959.77346,N,12000.14203,E,1,12,0.59,-6.9,M,7.0,M,,*5C
$GNGSA,A,3,13,02,23,04,25,08,07,27,20,,,,1.10,0.59,0.92,1*0C
$GNGSA,A,3,24,23,10,09,27,11,17,,,,,,1.10,0.59,0.92,3*08
$GNGSA,A,3,06,12,11,09,13,,,,,,,,1.10,0.59,0.92,4*0D
$GPGSV,4,1,13,01,00,122,,02,33,299,36,04,52,247,36,07,84,122,37,0*6E
$GPGSV,4,2,13,08,47,207,36,10,01,310,,13,50,031,36,16,01,039,,0*64
$GPGSV,4,3,13,20,23,121,36,23,28,057,36,25,67,043,37,27,18,219,35,0*6D
$GPGSV,4,4,13,28,00,182,,0*56
$GAGSV,2,1,08,09,13,317,36,10,64,334,38,11,56,117,37,12,07,130,,0*7E
$GAGSV,2,2,08,17,31,040,37,23,38,222,37,24,86,021,38,27,31,126,37,0*72
$GBGSV,3,1,09,01,38,122,30,02,50,173,30,04,36,126,30,06,37,216,29,0*7E
$GBGSV,3,2,09,09,37,287,29,11,18,131,29,12,10,061,29,13,48,202,30,0*76
$GBGSV,3,3,09,14,09,165,29,0*4B
$GNGLL,2959.77346,N,12000.14203,E,000050.00,A,A*73

$GNRMC,000051.00,A,2959.78558,N,12000.12228,E,75.594,307.39,230721,5.69,W,A,V*74
$GNVTG,307.39,T,313.07,M,75.594,N,140.000,K,A*0A
$GNGGA,000051.00,2959.78558,N,12000.12228,E,1,12,0.59,-6.9,M,7.0,M,,*54
$GNGSA,A,3,13,02,23,04,25,08,07,27,20,,,,1.10,0.59,0.92,1*0C
$GNGSA,A,3,24,23,10,09,27,11,17,,,,,,1.10,0.59,0.92,3*08
$GNGSA,A,3,06,12,11,09,13,,,,,,,,1.10,0.59,0.92,4*0D
$GPGSV,4,1,13,01,00,122,,02,33,299,36,04,52,247,36,07,84,122,37,0*6E
$GPGSV,4,2,13,08,47,207,36,10,01,310,,13,50,031,36,16,01,039,,0*64
$GPGSV,4,3,13,20,23,121,36,23,28,057,36,25,67,043,37,27,18,219,36,0*6E
$GPGSV,4,4,13,28,00,182,,0*56
$GAGSV,2,1,08,09,13,317,36,10,64,334,38,11,56,117,37,12,07,130,,0*7E
$GAGSV,2,2,08,17,31,040,37,23,38,222,37,24,86,021,38,27,31,126,37,0*72
$GBGSV,3,1,09,01,38,122,30,02,50,173,30,04,36,126,30,06,37,216,29,0*7E
$GBGSV,3,2,09,09,37,287,29,11,18,131,29,12,10,061,29,13,48,202,30,0*76
$GBGSV,3,3,09,14,09,165,29,0*4B
$GNGLL,2959.78558,N,12000.12228,E,000051.00,A,A*7B

$GNRMC,000052.00,A,2959.79899,N,12000.10367,E,75.582,311.83,230721,5.69,W,A,V*7F
$GNVTG,311.83,T,317.52,M,75.582,N,139.978,K,A*07
$GNGGA,000052.00,2959.79899,N,12000.10367,E,1,12,0.59,-6.9,M,7.0,M,,*5E
$GNGSA,A,3,13,02,23,04,25,08,07,27,20,,,,1.10,0.59,0.92,1*0C
$GNGSA,A,3,24,23,10,09,27,11,17,,,,,,1.10,0.59,0.92,3*08
$GNGSA,A,3,06,12,11,09,13,,,,,,,,1.10,0.59,0.92,4*0D
$GPGSV,4,1,13,01,00,122,,02,33,299,36,04,52,247,36,07,84,122,37,0*6E
$GPGSV,4,2,13,08,47,207,36,10,01,310,,13,50,031,37,16,01,039,,0*65
$GPGSV,4,3,13,20,23,121,36,23,28,057,36,25,67,043,37,27,18,219,36,0*6E
$GPGSV,4,4,13,28,00,182,,0*56
$GAGSV,2,1,08,09,13,317,36,10,64,334,38,11,56,117,37,12,07,130,,0*7E
$GAGSV,2,2,08,17,31,040,37,23,38,222,37,24,86,021,38,27,31,126,37,0*72
$GBGSV,3,1,09,01,38,122,30,02,50,173,30,04,36,126,30,06,37,216,29,0*7E
$GBGSV,3,2,09,09,37,287,29,11,18,131,29,12,10,061,29,13,48,202,30,0*76
$GBGSV,3,3,09,14,09,165,29,0*4B
$GNGLL,2959.79899,N,12000.10367,E,000052.00,A,A*71

$GNRMC,000053.00,A,2959.81361,N,12000.08631,E,75.590,316.28,230721,5.69,W,A,V*7F
$GNVTG,316.28,T,321.97,M,75.590,N,139.993,K,A*0B
$GNGGA,000053.00,2959.81361,N,12000.08631,E,1,12,0.59,-6.9,M,7.0,M,,*5B
$GNGSA,A,3,13,02,23,04,25,08,07,27,20,,,,1.10,0.59,0.92,1*0C
$GNGSA,A,3,24,23,10,09,27,11,17,,,,,,1.10,0.59,0.92,3*08
$GNGSA,A,3,06,12,11,09,13,,,,,,,,1.10,0.59,0.92,4*0D
$GPGSV,4,1,13,01,00,122,,02,33,299,36,04,52,247,37,07,84,117,37,0*69
$GPGSV,4,2,13,08,47,207,36,10,01,310,,13,50,031,36,16,01,039,,0*64
$GPGSV,4,3,13,20,23,121,36,23,28,057,36,25,67,043,37,27,18,219,36,0*6E
$GPGSV,4,4,13,28,00,182,,0*56
$GAGSV,2,1,08,09,13,317,36,10,64,334,37,11,56,117,37,12,07,130,,0*71
$GAGSV,2,2,08,17,31,040,37,23,38,222,37,24,86,021,38,27,31,126,37,0*72
$GBGSV,3,1,09,01,38,122,30,02,50,173,30,04,36,126,29,06,37,216,29,0*76
$GBGSV,3,2,09,09,37,287,29,11,18,131,29,12,10,061,29,13,48,202,30,0*76
$GBGSV,3,3,09,14,09,165,29,0*4B
$GNGLL,2959.81361,N,12000.08631,E,000053.00,A,A*74

$GNRMC,000054.00,A,2959.82937,N,12000.07031,E,75.572,320.75,230721,5.69,W,A,V*7A
$GNVTG,320.75,T,326.44,M,75.572,N,139.959,K,A*05
$GNGGA,000054.00,2959.82937,N,12000.07031,E,1,12,0.59,-6.9,M,7.0,M,,*5F
$GNGSA,A,3,13,02,23,04,25,08,07,27,20,,,,1.10,0.59,0.92,1*0C
$GNGSA,A,3,24,23,10,09,27,11,17,,,,,,1.10,0.59,0.92,3*08
$GNGSA,A,3,06,12,11,09,13,,,,,,,,1.10,0.59,0.92,4*0D
$GPGSV,4,1,13,01,00,122,,02,33,299,36,04,52,247,36,07,84,117,37,0*68
$GPGSV,4,2,13,08,47,207,36,10,01,310,,13,50,031,37,16,01,039,,0*65
$GPGSV,4,3,13,20,23,121,36,23,28,057,36,25,67,043,37,27,18,219,36,0*6E
$GPGSV,4,4,13,28,00,182,,0*56
$GAGSV,2,1,08,09,13,317,36,10,64,334,38,11,56,117,37,12,07,130,,0*7E
$GAGSV,2,2,08,17,31,040,37,23,38,222,37,24,86,021,38,27,31,126,37,0*72
$GBGSV,3,1,09,01,38,122,29,02,50,173,30,04,36,126,29,06,37,216,29,0*7E
$GBGSV,3,2,09,09,37,287,29,11,18,131,29,12,10,061,29,13,48,202,30,0*76
$GBGSV,3,3,09,14,09,165,29,0*4B
$GNGLL,2959.82937,N,12000.07031,E,000054.00,A,A*70

$GNRMC,000055.00,A,2959.84616,N,12000.05576,E,75.586,325.20,230721,5.69,W,A,V*7B
$GNVTG,325.20,T,330.89,M,75.586,N,139.986,K,A*0F
$GNGGA,000055.00,2959.84616,N,12000.05576,E,1,12,0.59,-6.9,M,7.0,M,,*50
$GNGSA,A,3,13,02,23,04,25,08,07,27,20,,,,1.10,0.59,0.92,1*0C
$GNGSA,A,3,24,23,10,09,27,11,17,,,,,,1.10,0.59,0.92,3*08
$GNGSA,A,3,06,12,11,09,13,,,,,,,,1.10,0.59,0.92,4*0D
$GPGSV,4,1,13,01,00,122,,02,33,299,36,04,52,247,36,07,84,117,37,0*68
$GPGSV,4,2,13,08,47,207,36,10,01,310,,13,50,031,36,16,01,039,,0*64
$GPGSV,4,3,13,20,23,121,36,23,28,057,36,25,67,043,37,27,18,219,35,0*6D
$GPGSV,4,4,13,28,00,182,,0*56
$GAGSV,2,1,08,09,13,317,36,10,64,334,38,11,56,117,37,12,07,130,36,0*7B
$GAGSV,2,2,08,17,31,040,37,23,38,222,37,24,86,021,38,27,31,126,37,0*72
$GBGSV,3,1,09,01,38,122,30,02,50,173,30,04,36,126,30,06,37,216,29,0*7E
$GBGSV,3,2,09,09,37,287,29,11,18,131,29,12,10,061,29,13,48,202,30,0*76
$GBGSV,3,3,09,14,09,165,29,0*4B
$GNGLL,2959.84616,N,12000.05576,E,000055.00,A,A*7F

$GNRMC,000056.00,A,2959.86388,N,12000.04276,E,75.581,329.67,230721,5.69,W,A,V*76
$GNVTG,329.67,T,335.35,M,75.581,N,139.976,K,A*0A
$GNGGA,000056.00,2959.86388,N,12000.04276,E,1,12,0.59,-6.9,M,7.0,M,,*55
$GNGSA,A,3,13,02,23,04,25,08,07,27,20,,,,1.10,0.59,0.92,1*0C
$GNGSA,A,3,24,23,10,09,27,11,17,,,,,,1.10,0.59,0.92,3*08
$GNGSA,A,3,06,12,11,09,13,,,,,,,,1.10,0.59,0.92,4*0D
$GPGSV,4,1,13,01,00,122,,02,33,299,36,04,52,247,36,07,84,117,37,0*68
$GPGSV,4,2,13,08,47,207,36,10,01,310,,13,50,031,36,16,01,039,,0*64
$GPGSV,4,3,13,20,23,121,36,23,28,057,36,25,67,043,37,27,18,219,36,0*6E
$GPGSV,4,4,13,28,00,182,,0*56
$GAGSV,2,1,08,09,13,317,36,10,64,334,38,11,56,117,37,12,07,130,36,0*7B
$GAGSV,2,2,08,17,31,040,37,23,38,222,37,24,86,021,38,27,31,126,37,0*72
$GBGSV,3,1,09,01,38,122,29,02,50,173,30,04,36,126,30,06,37,216,29,0*76
$GBGSV,3,2,09,09,37,287,29,11,18,131,29,12,10,061,29,13,48,202,30,0*76
$GBGSV,3,3,09,14,09,165,29,0*4B
$GNGLL,2959.86388,N,12000.04276,E,000056.00,A,A*7A

$GNRMC,000057.00,A,2959.88244,N,12000.03138,E,75.588,334.11,230721,5.69,W,A,V*72
$GNVTG,334.11,T,339.80,M,75.588,N,139.989,K,A*0C
$GNGGA,000057.00,2959.88244,N,12000.03138,E,1,12,0.59,-6.9,M,7.0,M,,*55
$GNGSA,A,3,13,02,23,04,25,08,07,27,20,,,,1.10,0.59,0.92,1*0C
$GNGSA,A,3,24,23,10,09,27,11,17,,,,,,1.10,0.59,0.92,3*08
$GNGSA,A,3,06,12,11,09,13,,,,,,,,1.10,0.59,0.92,4*0D
$GPGSV,4,1,13,01,00,122,,02,33,299,36,04,52,247,37,07,84,117,37,0*69
$GPGSV,4,2,13,08,47,207,37,10,01,310,,13,50,031,36,16,01,039,,0*65
$GPGSV,4,3,13,20,23,121,36,23,28,057,36,25,67,043,37,27,18,219,36,0*6E
$GPGSV,4,4,13,28,00,182,,0*56
$GAGSV,2,1,08,09,13,317,36,10,64,334,38,11,56,117,37,12,07,130,36,0*7B
$GAGSV,2,2,08,17,31,040,37,23,38,222,37,24,86,021,38,27,31,126,37,0*72
$GBGSV,3,1,09,01,38,122,30,02,50,173,30,04,36,126,30,06,37,216,30,0*76
$GBGSV,3,2,09,09,37,287,29,11,18,131,29,12,10,061,29,13,48,202,30,0*76
$GBGSV,3,3,09,14,09,165,29,0*4B
$GNGLL,2959.88244,N,12000.03138,E,000057.00,A,A*7A

$GNRMC,000058.00,A,2959.90170,N,12000.02168,E,75.580,338.57,230721,5.69,W,A,V*72
$GNVTG,338.57,T,344.25,M,75.580,N,139.975,K,A*0C
$GNGGA,000058.00,2959.90170,N,12000.02168,E,1,12,0.59,-6.9,M,7.0,M,,*53
$GNGSA,A,3,13,02,23,04,25,08,07,27,20,,,,1.10,0.59,0.92,1*0C
$GNGSA,A,3,24,23,10,09,27,11,17,,,,,,1.10,0.59,0.92,3*08
$GNGSA,A,3,06,12,11,09,13,,,,,,,,1.10,0.59,0.92,4*0D
$GPGSV,4,1,13,01,00,122,,02,33,299,36,04,52,247,36,07,84,117,37,0*68
$GPGSV,4,2,13,08,47,207,36,10,01,310,,13,50,031,36,16,01,039,,0*64
$GPGSV,4,3,13,20,23,121,36,23,28,057,36,25,67,043,37,27,18,219,36,0*6E
$GPGSV,4,4,13,28,00,182,,0*56
$GAGSV,2,1,08,09,13,317,36,10,64,334,37,11,56,117,37,12,07,130,36,0*74
$GAGSV,2,2,08,17,31,040,37,23,38,222,37,24,86,021,37,27,31,126,37,0*7D
$GBGSV,3,1,09,01,38,122,30,02,50,173,30,04,36,126,30,06,37,216,29,0*7E
$GBGSV,3,2,09,09,37,287,29,11,18,131,29,12,10,061,29,13,48,202,30,0*76
$GBGSV,3,3,09,14,09,165,29,0*4B
$GNGLL,2959.90170,N,12000.02168,E,000058.00,A,A*7C

$GNRMC,000059.00,A,2959.92156,N,12000.01374,E,75.583,343.03,230721,5.69,W,A,V*77
$GNVTG,343.03,T,348.72,M,75.583,N,139.980,K,A*06
$GNGGA,000059.00,2959.92156,N,12000.01374,E,1,12,0.59,-6.9,M,7.0,M,,*58
$GNGSA,A,3,13,02,23,04,25,08,07,27,20,,,,1.10,0.59,0.92,1*0C
$GNGSA,A,3,24,23,10,09,27,11,17,,,,,,1.10,0.59,0.92,3*08
$GNGSA,A,3,06,12,11,09,13,,,,,,,,1.10,0.59,0.92,4*0D
$GPGSV,4,1,13,01,00,122,,02,33,299,36,04,52,247,36,07,84,117,37,0*68
$GPGSV,4,2,13,08,47,207,36,10,01,310,,13,50,031,36,16,01,039,,0*64
$GPGSV,4,3,13,20,23,121,36,23,28,057,36,25,67,043,37,27,18,219,35,0*6D
$GPGSV,4,4,13,28,00,182,,0*56
$GAGSV,2,1,08,09,13,317,36,10,64,334,37,11,56,117,37,12,07,130,36,0*74
$GAGSV,2,2,08,17,31,040,37,23,38,222,37,24,86,021,38,27,31,126,37,0*72
$GBGSV,3,1,09,01,38,122,30,02,50,173,30,04,36,126,30,06,37,216,29,0*7E
$GBGSV,3,2,09,09,37,287,29,11,18,131,29,12,10,061,29,13,48,202,30,0*76
$GBGSV,3,3,09,14,09,165,29,0*4B
$GNGLL,2959.92156,N,12000.01374,E,000059.00,A,A*77

$GNRMC,000100.00,A,2959.94190,N,12000.00759,E,75.606,347.48,230721,5.69,W,A,V*79
$GNVTG,347.48,T,353.17,M,75.606,N,140.023,K,A*04
$GNGGA,000100.00,2959.94190,N,12000.00759,E,1,12,0.59,-6.9,M,7.0,M,,*53
$GNGSA,A,3,13,02,23,04,25,08,07,27,20,,,,1.10,0.59,0.92,1*0C
$GNGSA,A,3,24,23,10,09,27,11,17,,,,,,1.10,0.59,0.92,3*08
$GNGSA,A,3,06,12,11,09,13,,,,,,,,1.10,0.59,0.92,4*0D
$GPGSV,4,1,13,01,00,122,,02,33,299,36,04,52,247,37,07,84,117,37,0*69
$GPGSV,4,2,13,08,47,207,36,10,01,310,,13,50,031,36,16,01,039,,0*64
$GPGSV,4,3,13,20,23,121,36,23,28,057,36,25,67,043,37,27,18,219,36,0*6E
$GPGSV,4,4,13,28,00,182,,0*56
$GAGSV,2,1,08,09,13,317,36,10,64,334,37,11,56,117,37,12,07,130,36,0*74
$GAGSV,2,2,08,17,31,040,37,23,38,222,37,24,86,021,38,27,31,126,37,0*72
$GBGSV,3,1,09,01,38,122,29,02,50,173,30,04,36,126,30,06,37,216,29,0*76
$GBGSV,3,2,09,09,37,287,30,11,18,131,29,12,10,061,29,13,48,202,30,0*7E
$GBGSV,3,3,09,14,09,165,29,0*4B
$GNGLL,2959.94190,N,12000.00759,E,000100.00,A,A*7C

$GNRMC,000101.00,A,2959.96260,N,12000.00328,E,75.608,351.94,230721,5.69,W,A,V*7C
$GNVTG,351.94,T,357.63,M,75.608,N,140.026,K,A*0E
$GNGGA,000101.00,2959.96260,N,12000.00328,E,1,12,0.59,-6.8,M,7.0,M,,*5F
$GNGSA,A,3,13,02,23,04,25,08,07,27,20,,,,1.10,0.59,0.92,1*0C
$GNGSA,A,3,24,23,10,09,27,11,17,,,,,,1.10,0.59,0.92,3*08
$GNGSA,A,3,06,12,11,09,13,,,,,,,,1.10,0.59,0.92,4*0D
$GPGSV,4,1,13,01,00,122,,02,33,299,36,04,52,247,37,07,84,117,37,0*69
$GPGSV,4,2,13,08,47,207,36,10,01,310,,13,50,031,36,16,01,039,,0*64
$GPGSV,4,3,13,20,23,121,36,23,28,057,36,25,67,043,37,27,18,219,36,0*6E
$GPGSV,4,4,13,28,00,182,,0*56
$GAGSV,2,1,08,09,13,317,36,10,64,334,37,11,56,117,37,12,07,130,36,0*74
$GAGSV,2,2,08,17,31,040,37,23,38,222,37,24,86,021,38,27,31,126,37,0*72
$GBGSV,3,1,09,01,38,122,30,02,50,173,29,04,36,126,29,06,37,216,29,0*7E
$GBGSV,3,2,09,09,37,287,29,11,18,131,29,12,10,061,29,13,48,202,30,0*76
$GBGSV,3,3,09,14,09,165,29,0*4B
$GNGLL,2959.96260,N,12000.00328,E,000101.00,A,A*71

$GNRMC,000102.00,A,2959.98352,N,12000.00082,E,75.580,356.40,230721,5.69,W,A,V*7F
$GNVTG,356.40,T,2.09,M,75.580,N,139.975,K,A*0D
$GNGGA,000102.00,2959.98352,N,12000.00082,E,1,12,0.59,-6.8,M,7.0,M,,*51
$GNGSA,A,3,13,02,23,04,25,08,07,27,20,,,,1.10,0.59,0.92,1*0C
$GNGSA,A,3,24,23,10,09,27,11,17,,,,,,1.10,0.59,0.92,3*08
$GNGSA,A,3,06,12,11,09,13,,,,,,,,1.10,0.59,0.92,4*0D
$GPGSV,4,1,13,01,00,122,,02,33,299,36,04,52,247,36,07,84,117,37,0*68
$GPGSV,4,2,13,08,47,207,36,10,01,310,,13,50,031,36,16,01,039,,0*64
$GPGSV,4,3,13,20,23,121,36,23,28,057,36,25,67,043,37,27,18,219,36,0*6E
$GPGSV,4,4,13,28,00,182,,0*56
$GAGSV,2,1,08,09,13,317,36,10,64,334,38,11,56,117,37,12,07,130,36,0*7B
$GAGSV,2,2,08,17,31,040,37,23,38,222,37,24,86,021,38,27,31,126,37,0*72
$GBGSV,3,1,09,01,38,122,30,02,50,173,29,04,36,126,30,06,37,216,29,0*76
$GBGSV,3,2,09,09,37,287,29,11,18,131,29,12,10,061,29,13,48,202,30,0*76
$GBGSV,3,3,09,14,09,165,29,0*4B
$GNGLL,2959.98352,N,12000.00082,E,000102.00,A,A*7F

$GNRMC,000103.00,A,3000.00455,N,12000.00024,E,75.589,0.86,230721,5.69,W,A,V*74
$GNVTG,0.86,T,6.55,M,75.589,N,139.990,K,A*08
$GNGGA,000103.00,3000.00455,N,12000.00024,E,1,12,0.59,-6.8,M,7.0,M,,*59
$GNGSA,A,3,13,02,23,04,25,08,07,27,20,,,,1.10,0.59,0.92,1*0C
$GNGSA,A,3,24,23,10,09,27,11,17,,,,,,1.10,0.59,0.92,3*08
$GNGSA,A,3,06,12,11,09,13,,,,,,,,1.10,0.59,0.92,4*0D
$GPGSV,4,1,13,01,00,122,,02,33,299,36,04,52,247,36,07,84,117,37,0*68
$GPGSV,4,2,13,08,47,207,36,10,01,310,,13,50,031,36,16,01,039,,0*64
$GPGSV,4,3,13,20,23,121,36,23,28,057,36,25,67,043,37,27,18,219,35,0*6D
$GPGSV,4,4,13,28,00,182,,0*56
$GAGSV,2,1,08,09,13,317,36,10,64,334,37,11,56,117,37,12,07,130,36,0*74
$GAGSV,2,2,08,17,31,040,37,23,38,222,37,24,86,021,38,27,31,126,37,0*72
$GBGSV,3,1,09,01,38,122,30,02,50,173,30,04,36,126,30,06,37,216,29,0*7E
$GBGSV,3,2,09,09,37,287,29,11,18,131,29,12,10,061,29,13,48,202,30,0*76
$GBGSV,3,3,09,14,09,165,29,0*4B
$GNGLL,3000.00455,N,12000.00024,E,000103.00,A,A*77

$GNRMC,000104.00,A,3000.02555,N,12000.00155,E,75.600,5.30,230721,5.69,W,A,V*7D
$GNVTG,5.30,T,10.99,M,75.600,N,140.011,K,A*3B
$GNGGA,000104.00,3000.02555,N,12000.00155,E,1,12,0.59,-6.8,M,7.0,M,,*5A
$GNGSA,A,3,13,02,23,04,25,08,07,27,20,,,,1.10,0.59,0.92,1*0C
$GNGSA,A,3,24,23,10,09,27,11,17,,,,,,1.10,0.59,0.92,3*08
$GNGSA,A,3,06,12,11,09,13,,,,,,,,1.10,0.59,0.92,4*0D
$GPGSV,4,1,13,01,00,122,,02,33,299,36,04,52,247,37,07,84,117,37,0*69
$GPGSV,4,2,13,08,47,207,36,10,01,310,,13,50,031,36,16,01,039,,0*64
$GPGSV,4,3,13,20,23,121,36,23,28,057,36,25,67,043,37,27,18,219,35,0*6D
$GPGSV,4,4,13,28,00,182,,0*56
$GAGSV,2,1,08,09,13,317,36,10,64,334,37,11,56,117,37,12,07,130,36,0*74
$GAGSV,2,2,08,17,31,040,37,23,38,222,37,24,86,021,38,27,31,126,37,0*72
$GBGSV,3,1,09,01,38,122,29,02,50,173,30,04,36,126,30,06,37,216,29,0*76
$GBGSV,3,2,09,09,37,287,29,11,18,131,29,12,10,061,29,13,48,202,30,0*76
$GBGSV,3,3,09,14,09,165,29,0*4B
$GNGLL,3000.02555,N,12000.00155,E,000104.00,A,A*74

$GNRMC,000105.00,A,3000.04640,N,12000.00472,E,75.604,9.77,230721,5.69,W,A,V*76
$GNVTG,9.77,T,15.46,M,75.604,N,140.018,K,A*3E
$GNGGA,000105.00,3000.04640,N,12000.00472,E,1,12,0.59,-6.9,M,7.0,M,,*5B
$GNGSA,A,3,13,02,23,04,25,08,07,27,20,,,,1.10,0.59,0.92,1*0C
$GNGSA,A,3,24,23,10,09,27,11,17,,,,,,1.10,0.59,0.92,3*08
$GNGSA,A,3,06,12,11,09,13,,,,,,,,1.10,0.59,0.92,4*0D
$GPGSV,4,1,13,01,00,122,,02,33,299,36,04,52,247,37,07,84,117,37,0*69
$GPGSV,4,2,13,08,47,207,36,10,01,310,,13,50,031,36,16,01,039,,0*64
$GPGSV,4,3,13,20,23,121,36,23,28,057,36,25,67,043,37,27,18,219,36,0*6E
$GPGSV,4,4,13,28,00,182,,0*56
$GAGSV,2,1,08,09,13,317,36,10,64,334,37,11,56,117,37,12,07,130,36,0*74
$GAGSV,2,2,08,17,31,040,37,23,38,222,37,24,86,021,38,27,31,126,37,0*72
$GBGSV,3,1,09,01,38,122,29,02,50,173,30,04,36,126,30,06,37,216,29,0*76
$GBGSV,3,2,09,09,37,287,29,11,18,131,29,12,10,061,29,13,48,202,30,0*76
$GBGSV,3,3,09,14,09,165,29,0*4B
$GNGLL,3000.04640,N,12000.00472,E,000105.00,A,A*74

$GNRMC,000106.00,A,3000.06697,N,12000.00975,E,75.601,14.22,230721,5.69,W,A,V*4E
$GNVTG,14.22,T,19.91,M,75.601,N,140.013,K,A*0A
$GNGGA,000106.00,3000.06697,N,12000.00975,E,1,12,0.59,-6.9,M,7.0,M,,*5A
$GNGSA,A,3,13,02,23,04,25,08,07,27,20,,,,1.10,0.59,0.92,1*0C
$GNGSA,A,3,24,23,10,09,27,11,17,,,,,,1.10,0.59,0.92,3*08
$GNGSA,A,3,06,12,11,09,13,,,,,,,,1.10,0.59,0.92,4*0D
$GPGSV,4,1,13,01,00,122,,02,33,299,36,04,52,247,37,07,84,117,37,0*69
$GPGSV,4,2,13,08,47,207,36,10,01,310,,13,50,031,36,16,01,039,,0*64
$GPGSV,4,3,13,20,23,121,36,23,28,057,36,25,67,043,37,27,18,219,35,0*6D
$GPGSV,4,4,13,28,00,182,,0*56
$GAGSV,2,1,08,09,13,317,36,10,64,334,37,11,56,117,37,12,07,130,36,0*74
$GAGSV,2,2,08,17,31,040,37,23,38,222,37,24,86,021,38,27,31,126,37,0*72
$GBGSV,3,1,09,01,38,122,29,02,50,173,30,04,36,126,30,06,37,216,29,0*76
$GBGSV,3,2,09,09,37,287,29,11,18,131,29,12,10,061,29,13,48,202,30,0*76
$GBGSV,3,3,09,14,09,165,29,0*4B
$GNGLL,3000.06697,N,12000.00975,E,000106.00,A,A*75

$GNRMC,000107.00,A,3000.08714,N,12000.01660,E,75.602,18.67,230721,5.69,W,A,V*4F
$GNVTG,18.67,T,24.36,M,75.602,N,140.014,K,A*00
$GNGGA,000107.00,3000.08714,N,12000.01660,E,1,12,0.59,-6.9,M,7.0,M,,*55
$GNGSA,A,3,13,02,23,04,25,08,07,27,20,,,,1.10,0.59,0.92,1*0C
$GNGSA,A,3,24,23,10,09,27,11,17,,,,,,1.10,0.59,0.92,3*08
$GNGSA,A,3,06,12,11,09,13,,,,,,,,1.10,0.59,0.92,4*0D
$GPGSV,4,1,13,01,00,122,,02,33,299,36,04,52,247,36,07,84,117,37,0*68
$GPGSV,4,2,13,08,47,207,36,10,01,310,,13,50,031,36,16,01,039,,0*64
$GPGSV,4,3,13,20,23,121,36,23,28,057,36,25,67,043,37,27,18,219,35,0*6D
$GPGSV,4,4,13,28,00,182,,0*56
$GAGSV,2,1,08,09,13,317,36,10,64,334,38,11,56,117,37,12,07,130,36,0*7B
$GAGSV,2,2,08,17,31,040,37,23,38,222,37,24,86,021,38,27,31,126,37,0*72
$GBGSV,3,1,09,01,38,122,30,02,50,173,30,04,36,126,30,06,37,216,29,0*7E
$GBGSV,3,2,09,09,37,287,29,11,18,131,29,12,10,061,29,13,48,202,30,0*76
$GBGSV,3,3,09,14,09,165,29,0*4B
$GNGLL,3000.08714,N,12000.01660,E,000107.00,A,A*7A

$GNRMC,000108.00,A,3000.10678,N,12000.02523,E,75.584,23.14,230721,5.69,W,A,V*44
$GNVTG,23.14,T,28.82,M,75.584,N,139.982,K,A*0A
$GNGGA,000108.00,3000.10678,N,12000.02523,E,1,12,0.59,-6.9,M,7.0,M,,*5F
$GNGSA,A,3,13,02,23,04,25,08,07,27,20,,,,1.10,0.59,0.92,1*0C
$GNGSA,A,3,24,23,10,09,27,11,17,,,,,,1.10,0.59,0.92,3*08
$GNGSA,A,3,06,12,11,09,13,,,,,,,,1.10,0.59,0.92,4*0D
$GPGSV,4,1,13,01,00,122,,02,33,299,36,04,52,247,37,07,84,117,37,0*69
$GPGSV,4,2,13,08,47,207,37,10,01,310,,13,50,031,36,16,01,039,,0*65
$GPGSV,4,3,13,20,23,121,36,23,28,057,36,25,67,043,37,27,18,219,35,0*6D
$GPGSV,4,4,13,28,00,182,,0*56
$GAGSV,2,1,08,09,13,317,36,10,64,334,38,11,56,117,37,12,07,130,36,0*7B
$GAGSV,2,2,08,17,31,040,37,23,38,222,37,24,86,021,38,27,31,126,37,0*72
$GBGSV,3,1,09,01,38,122,30,02,50,173,30,04,36,126,29,06,37,216,29,0*76
$GBGSV,3,2,09,09,37,287,29,11,18,131,29,12,10,061,29,13,48,202,30,0*76
$GBGSV,3,3,09,14,09,165,29,0*4B
$GNGLL,3000.10678,N,12000.02523,E,000108.00,A,A*70

$GNRMC,000109.00,A,3000.12579,N,12000.03559,E,75.586,27.58,230721,5.69,W,A,V*47
$GNVTG,27.58,T,33.27,M,75.586,N,139.986,K,A*05
$GNGGA,000109.00,3000.12579,N,12000.03559,E,1,12,0.59,-6.8,M,7.0,M,,*53
$GNGSA,A,3,13,02,23,04,25,08,07,27,20,,,,1.10,0.59,0.92,1*0C
$GNGSA,A,3,24,23,10,09,27,11,17,,,,,,1.10,0.59,0.92,3*08
$GNGSA,A,3,06,12,11,09,13,,,,,,,,1.10,0.59,0.92,4*0D
$GPGSV,4,1,13,01,00,122,,02,33,299,36,04,52,247,37,07,84,117,37,0*69
$GPGSV,4,2,13,08,47,207,36,10,01,310,,13,50,031,37,16,01,039,,0*65
$GPGSV,4,3,13,20,23,121,36,23,27,057,36,25,67,043,37,27,18,219,35,0*62
$GPGSV,4,4,13,28,00,182,,0*56
$GAGSV,2,1,08,09,13,317,36,10,64,334,38,11,56,117,37,12,07,130,36,0*7B
$GAGSV,2,2,08,17,31,040,37,23,38,222,37,24,86,021,38,27,31,126,37,0*72
$GBGSV,3,1,09,01,38,122,30,02,50,173,30,04,36,126,29,06,37,216,29,0*76
$GBGSV,3,2,09,09,37,287,29,11,18,131,29,12,10,061,29,13,48,202,30,0*76
$GBGSV,3,3,09,14,09,165,29,0*4B
$GNGLL,3000.12579,N,12000.03559,E,000109.00,A,A*7D

$GNRMC,000110.00,A,3000.14403,N,12000.04761,E,75.619,32.04,230721,5.69,W,A,V*43
$GNVTG,32.04,T,37.73,M,75.619,N,140.046,K,A*03
$GNGGA,000110.00,3000.14403,N,12000.04761,E,1,12,0.59,-6.8,M,7.0,M,,*5F
$GNGSA,A,3,13,02,23,04,25,08,07,27,20,,,,1.10,0.59,0.92,1*0C
$GNGSA,A,3,24,23,10,09,27,11,17,,,,,,1.10,0.59,0.92,3*08
$GNGSA,A,3,06,12,11,09,13,,,,,,,,1.10,0.59,0.92,4*0D
$GPGSV,4,1,13,01,00,122,,02,33,299,36,04,52,247,36,07,84,117,37,0*68
$GPGSV,4,2,13,08,47,207,36,10,01,310,,13,50,031,37,16,01,039,,0*65
$GPGSV,4,3,13,20,23,121,36,23,27,057,36,25,67,043,37,27,18,219,36,0*61
$GPGSV,4,4,13,28,00,182,,0*56
$GAGSV,2,1,08,09,13,317,36,10,64,334,37,11,56,117,38,12,07,130,36,0*7B
$GAGSV,2,2,08,17,31,040,37,23,38,222,37,24,86,021,38,27,31,126,37,0*72
$GBGSV,3,1,09,01,38,122,30,02,50,173,30,04,36,126,29,06,37,216,29,0*76
$GBGSV,3,2,09,09,37,287,29,11,18,131,29,12,10,061,29,13,48,202,30,0*76
$GBGSV,3,3,09,14,09,165,29,0*4B
$GNGLL,3000.14403,N,12000.04761,E,000110.00,A,A*71

$GNRMC,000111.00,A,3000.16141,N,12000.06123,E,75.596,36.50,230721,5.69,W,A,V*40
$GNVTG,36.50,T,42.19,M,75.596,N,140.004,K,A*0A
$GNGGA,000111.00,3000.16141,N,12000.06123,E,1,12,0.59,-6.8,M,7.0,M,,*5D
$GNGSA,A,3,13,02,23,04,25,08,07,27,20,,,,1.10,0.59,0.92,1*0C
$GNGSA,A,3,24,23,10,09,27,11,17,,,,,,1.10,0.59,0.92,3*08
$GNGSA,A,3,06,12,11,09,13,,,,,,,,1.10,0.59,0.92,4*0D
$GPGSV,4,1,13,01,00,122,,02,33,299,36,04,52,247,36,07,84,117,37,0*68
$GPGSV,4,2,13,08,47,207,36,10,01,310,,13,50,031,36,16,01,039,,0*64
$GPGSV,4,3,13,20,23,121,36,23,27,057,36,25,67,042,37,27,18,219,36,0*60
$GPGSV,4,4,13,28,00,182,,0*56
$GAGSV,2,1,08,09,13,317,36,10,64,334,37,11,56,117,37,12,07,130,36,0*74
$GAGSV,2,2,08,17,31,040,37,23,38,222,37,24,86,021,38,27,31,126,37,0*72
$GBGSV,3,1,09,01,38,122,29,02,50,173,30,04,36,126,30,06,37,216,29,0*76
$GBGSV,3,2,09,09,37,287,29,11,18,131,29,12,10,061,29,13,48,202,30,0*76
$GBGSV,3,3,09,14,09,165,29,0*4B
$GNGLL,3000.16141,N,12000.06123,E,000111.00,A,A*73

$GNRMC,000112.00,A,3000.17781,N,12000.07636,E,75.595,40.97,230721,5.69,W,A,V*43
$GNVTG,40.97,T,46.66,M,75.595,N,140.002,K,A*09
$GNGGA,000112.00,3000.17781,N,12000.07636,E,1,12,0.59,-6.8,M,7.0,M,,*57
$GNGSA,A,3,13,02,23,04,25,08,07,27,20,,,,1.10,0.59,0.92,1*0C
$GNGSA,A,3,24,23,10,09,27,11,17,,,,,,1.10,0.59,0.92,3*08
$GNGSA,A,3,06,12,11,09,13,,,,,,,,1.10,0.59,0.92,4*0D
$GPGSV,4,1,13,01,00,122,,02,33,299,36,04,52,247,37,07,84,117,37,0*69
$GPGSV,4,2,13,08,47,207,36,10,01,310,,13,50,031,37,16,01,039,,0*65
$GPGSV,4,3,13,20,23,121,36,23,27,057,36,25,67,042,37,27,18,219,36,0*60
$GPGSV,4,4,13,28,00,182,,0*56
$GAGSV,2,1,08,09,13,317,36,10,64,334,37,11,56,117,37,12,07,130,36,0*74
$GAGSV,2,2,08,17,31,040,37,23,38,222,37,24,86,021,38,27,31,126,37,0*72
$GBGSV,3,1,09,01,38,122,29,02,50,173,30,04,36,126,30,06,37,216,29,0*76
$GBGSV,3,2,09,09,37,287,29,11,18,131,29,12,10,061,29,13,48,202,30,0*76
$GBGSV,3,3,09,14,09,165,29,0*4B
$GNGLL,3000.17781,N,12000.07636,E,000112.00,A,A*79

$GNRMC,000113.00,A,3000.19315,N,12000.09291,E,75.599,45.40,230721,5.69,W,A,V*41
$GNVTG,45.40,T,51.09,M,75.599,N,140.009,K,A*0E
$GNGGA,000113.00,3000.19315,N,12000.09291,E,1,12,0.59,-6.8,M,7.0,M,,*56
$GNGSA,A,3,13,02,23,04,25,08,07,27,20,,,,1.10,0.59,0.92,1*0C
$GNGSA,A,3,24,23,10,09,27,11,17,,,,,,1.10,0.59,0.92,3*08
$GNGSA,A,3,06,12,11,09,13,,,,,,,,1.10,0.59,0.92,4*0D
$GPGSV,4,1,13,01,00,122,,02,33,299,36,04,52,247,37,07,84,117,37,0*69
$GPGSV,4,2,13,08,47,207,36,10,01,310,,13,50,031,36,16,01,039,,0*64
$GPGSV,4,3,13,20,23,121,36,23,27,057,36,25,67,042,37,27,19,219,36,0*61
$GPGSV,4,4,13,28,00,182,,0*56
$GAGSV,2,1,08,09,13,317,36,10,64,334,37,11,56,117,37,12,07,130,36,0*74
$GAGSV,2,2,08,17,31,040,37,23,38,222,37,24,86,021,38,27,31,126,37,0*72
$GBGSV,3,1,09,01,38,122,29,02,50,173,30,04,36,126,29,06,37,216,29,0*7E
$GBGSV,3,2,09,09,37,287,29,11,18,131,29,12,10,061,29,13,48,202,30,0*76
$GBGSV,3,3,09,14,09,165,29,0*4B
$GNGLL,3000.19315,N,12000.09291,E,000113.00,A,A*78

$GNRMC,000114.00,A,3000.20732,N,12000.11077,E,75.602,49.87,230721,5.69,W,A,V*48
$GNVTG,49.87,T,55.56,M,75.602,N,140.014,K,A*0A
$GNGGA,000114.00,3000.20732,N,12000.11077,E,1,12,0.59,-6.8,M,7.0,M,,*59
$GNGSA,A,3,13,02,23,04,25,08,07,27,20,,,,1.10,0.59,0.92,1*0C
$GNGSA,A,3,24,23,10,09,27,11,17,,,,,,1.10,0.59,0.92,3*08
$GNGSA,A,3,06,12,11,09,13,,,,,,,,1.10,0.59,0.92,4*0D
$GPGSV,4,1,13,01,00,122,,02,33,299,36,04,52,247,37,07,84,117,37,0*69
$GPGSV,4,2,13,08,47,207,36,10,01,310,,13,50,031,37,16,01,039,,0*65
$GPGSV,4,3,13,20,23,121,36,23,27,057,36,25,67,042,37,27,19,219,36,0*61
$GPGSV,4,4,13,28,00,182,,0*56
$GAGSV,2,1,08,09,13,317,36,10,64,334,37,11,56,117,37,12,07,130,36,0*74
$GAGSV,2,2,08,17,31,040,37,23,38,222,37,24,86,021,38,27,31,126,37,0*72
$GBGSV,3,1,09,01,38,122,29,02,50,173,30,04,36,126,30,06,37,216,29,0*76
$GBGSV,3,2,09,09,37,287,29,11,18,131,29,12,10,061,29,13,48,202,30,0*76
$GBGSV,3,3,09,14,09,165,29,0*4B
$GNGLL,3000.20732,N,12000.11077,E,000114.00,A,A*77

$GNRMC,000115.00,A,3000.22024,N,12000.12984,E,75.572,54.29,230721,5.69,W,A,V*41
$GNVTG,54.29,T,59.98,M,75.572,N,139.960,K,A*0C
$GNGGA,000115.00,3000.22024,N,12000.12984,E,1,12,0.59,-6.8,M,7.0,M,,*5C
$GNGSA,A,3,13,02,23,04,25,08,07,27,20,,,,1.10,0.59,0.92,1*0C
$GNGSA,A,3,24,23,10,09,27,11,17,,,,,,1.10,0.59,0.92,3*08
$GNGSA,A,3,06,12,11,09,13,,,,,,,,1.10,0.59,0.92,4*0D
$GPGSV,4,1,13,01,00,122,,02,33,299,36,04,52,247,36,07,84,117,37,0*68
$GPGSV,4,2,13,08,47,207,36,10,01,310,,13,50,031,36,16,01,039,,0*64
$GPGSV,4,3,13,20,23,121,36,23,27,057,36,25,67,042,37,27,19,219,36,0*61
$GPGSV,4,4,13,28,00,182,,0*56
$GAGSV,2,1,08,09,13,317,36,10,64,334,38,11,56,117,37,12,07,130,36,0*7B
$GAGSV,2,2,08,17,31,040,37,23,38,222,37,24,86,021,38,27,31,126,37,0*72
$GBGSV,3,1,09,01,38,122,29,02,50,173,30,04,36,126,30,06,37,216,29,0*76
$GBGSV,3,2,09,09,37,287,29,11,18,131,29,12,10,061,29,13,48,202,30,0*76
$GBGSV,3,3,09,14,09,165,29,0*4B
$GNGLL,3000.22024,N,12000.12984,E,000115.00,A,A*72

$GNRMC,000116.00,A,3000.23183,N,12000.15000,E,75.573,58.77,230721,5.69,W,A,V*4B
$GNVTG,58.77,T,64.46,M,75.573,N,139.962,K,A*05
$GNGGA,000116.00,3000.23183,N,12000.15000,E,1,12,0.59,-6.8,M,7.0,M,,*50
$GNGSA,A,3,13,02,23,04,25,08,07,27,20,,,,1.10,0.59,0.92,1*0C
$GNGSA,A,3,24,23,10,09,27,11,17,,,,,,1.10,0.59,0.92,3*08
$GNGSA,A,3,06,12,11,09,13,,,,,,,,1.10,0.59,0.92,4*0D
$GPGSV,4,1,13,01,00,122,,02,33,299,36,04,52,247,36,07,84,117,37,0*68
$GPGSV,4,2,13,08,47,207,36,10,01,310,,13,50,031,37,16,01,039,,0*65
$GPGSV,4,3,13,20,23,121,36,23,27,057,36,25,67,042,37,27,19,219,36,0*61
$GPGSV,4,4,13,28,00,182,,0*56
$GAGSV,2,1,08,09,13,317,36,10,64,334,37,11,56,117,37,12,07,130,36,0*74
$GAGSV,2,2,08,17,31,040,37,23,38,222,37,24,86,021,38,27,31,126,37,0*72
$GBGSV,3,1,09,01,38,122,30,02,50,173,30,04,36,126,30,06,37,216,29,0*7E
$GBGSV,3,2,09,09,37,287,29,11,18,131,29,12,10,061,29,13,48,202,30,0*76
$GBGSV,3,3,09,14,09,165,29,0*4B
$GNGLL,3000.23183,N,12000.15000,E,000116.00,A,A*7E

$GNRMC,000117.00,A,3000.24202,N,12000.17114,E,75.568,63.24,230721,5.69,W,A,V*45
$GNVTG,63.24,T,68.93,M,75.568,N,139.951,K,A*05
$GNGGA,000117.00,3000.24202,N,12000.17114,E,1,12,0.59,-6.8,M,7.0,M,,*5A
$GNGSA,A,3,13,02,23,04,25,08,07,27,20,,,,1.10,0.59,0.92,1*0C
$GNGSA,A,3,24,23,10,09,27,11,17,,,,,,1.10,0.59,0.92,3*08
$GNGSA,A,3,06,12,11,09,13,,,,,,,,1.10,0.59,0.92,4*0D
$GPGSV,4,1,13,01,00,122,,02,33,299,36,04,52,247,37,07,84,117,37,0*69
$GPGSV,4,2,13,08,47,207,36,10,01,310,,13,50,031,37,16,01,039,,0*65
$GPGSV,4,3,13,20,23,121,36,23,27,057,36,25,67,042,37,27,19,219,35,0*62
$GPGSV,4,4,13,28,00,182,,0*56
$GAGSV,2,1,08,09,13,317,36,10,64,334,37,11,56,117,37,12,06,131,36,0*74
$GAGSV,2,2,08,17,31,040,37,23,38,222,37,24,86,021,38,27,31,126,37,0*72
$GBGSV,3,1,09,01,38,122,30,02,50,173,30,04,36,126,29,06,37,216,29,0*76
$GBGSV,3,2,09,09,37,287,29,11,18,131,29,12,10,061,29,13,48,202,30,0*76
$GBGSV,3,3,09,14,09,165,29,0*4B
$GNGLL,3000.24202,N,12000.17114,E,000117.00,A,A*74

$GNRMC,000118.00,A,3000.25074,N,12000.19313,E,75.593,67.70,230721,5.69,W,A,V*42
$GNVTG,67.70,T,73.38,M,75.593,N,139.998,K,A*0A
$GNGGA,000118.00,3000.25074,N,12000.19313,E,1,12,0.59,-6.8,M,7.0,M,,*5C
$GNGSA,A,3,13,02,23,04,25,08,07,27,20,,,,1.10,0.59,0.92,1*0C
$GNGSA,A,3,24,23,10,09,27,11,17,,,,,,1.10,0.59,0.92,3*08
$GNGSA,A,3,06,12,11,09,13,,,,,,,,1.10,0.59,0.92,4*0D
$GPGSV,4,1,13,01,00,122,,02,33,299,36,04,52,247,37,07,84,117,37,0*69
$GPGSV,4,2,13,08,47,207,36,10,01,310,,13,50,031,37,16,01,039,,0*65
$GPGSV,4,3,13,20,23,121,36,23,27,057,36,25,67,042,37,27,19,219,36,0*61
$GPGSV,4,4,13,28,00,182,,0*56
$GAGSV,2,1,08,09,13,317,36,10,64,334,38,11,56,117,37,12,06,131,36,0*7B
$GAGSV,2,2,08,17,31,040,37,23,38,222,37,24,86,021,38,27,31,126,37,0*72
$GBGSV,3,1,09,01,38,122,30,02,50,173,30,04,36,126,30,06,37,216,29,0*7E
$GBGSV,3,2,09,09,37,287,29,11,18,131,29,12,10,061,29,13,48,202,30,0*76
$GBGSV,3,3,09,14,09,165,29,0*4B
$GNGLL,3000.25074,N,12000.19313,E,000118.00,A,A*72

$GNRMC,000119.00,A,3000.25796,N,12000.21584,E,75.596,72.15,230721,5.69,W,A,V*49
$GNVTG,72.15,T,77.84,M,75.596,N,140.003,K,A*0E
$GNGGA,000119.00,3000.25796,N,12000.21584,E,1,12,0.59,-6.8,M,7.0,M,,*55
$GNGSA,A,3,13,02,23,04,25,08,07,27,20,,,,1.10,0.59,0.92,1*0C
$GNGSA,A,3,24,23,10,09,27,11,17,,,,,,1.10,0.59,0.92,3*08
$GNGSA,A,3,06,12,11,09,13,,,,,,,,1.10,0.59,0.92,4*0D
$GPGSV,4,1,13,01,00,122,,02,33,299,36,04,52,247,36,07,84,117,37,0*68
$GPGSV,4,2,13,08,47,207,36,10,01,310,,13,50,031,36,16,01,039,,0*64
$GPGSV,4,3,13,20,23,121,36,23,27,057,36,25,67,042,37,27,19,219,36,0*61
$GPGSV,4,4,13,28,00,182,,0*56
$GAGSV,2,1,08,09,13,317,36,10,64,334,38,11,56,117,37,12,06,131,36,0*7B
$GAGSV,2,2,08,17,31,040,37,23,38,222,37,24,86,021,38,27,31,126,37,0*72
$GBGSV,3,1,09,01,38,122,30,02,50,173,30,04,36,126,30,06,37,216,29,0*7E
$GBGSV,3,2,09,09,37,287,29,11,18,131,29,12,10,061,29,13,48,202,30,0*76
$GBGSV,3,3,09,14,09,165,29,0*4B
$GNGLL,3000.25796,N,12000.21584,E,000119.00,A,A*7B

$GNRMC,000120.00,A,3000.26362,N,12000.23911,E,75.582,76.61,230721,5.69,W,A,V*4F
$GNVTG,76.61,T,82.29,M,75.582,N,139.978,K,A*0A
$GNGGA,000120.00,3000.26362,N,12000.23911,E,1,12,0.59,-6.8,M,7.0,M,,*51
$GNGSA,A,3,13,02,23,04,25,08,07,27,20,,,,1.10,0.59,0.92,1*0C
$GNGSA,A,3,24,23,10,09,27,11,17,,,,,,1.10,0.59,0.92,3*08
$GNGSA,A,3,06,12,11,09,13,,,,,,,,1.10,0.59,0.92,4*0D
$GPGSV,4,1,13,01,00,122,,02,33,299,36,04,52,247,37,07,84,117,37,0*69
$GPGSV,4,2,13,08,47,207,36,10,01,310,,13,50,031,36,16,01,039,,0*64
$GPGSV,4,3,13,20,23,121,36,23,27,057,36,25,67,042,37,27,19,219,35,0*62
$GPGSV,4,4,13,28,00,182,,0*56
$GAGSV,2,1,08,09,13,317,36,10,64,334,37,11,56,117,37,12,06,131,36,0*74
$GAGSV,2,2,08,17,31,040,37,23,38,222,37,24,86,021,38,27,31,126,37,0*72
$GBGSV,3,1,09,01,38,122,30,02,50,173,30,04,36,126,30,06,37,216,29,0*7E
$GBGSV,3,2,09,09,37,287,29,11,18,131,29,12,10,061,29,13,48,202,30,0*76
$GBGSV,3,3,09,14,09,165,29,0*4B
$GNGLL,3000.26362,N,12000.23911,E,000120.00,A,A*7F

$GNRMC,000121.00,A,3000.26769,N,12000.26282,E,75.588,81.07,230721,5.69,W,A,V*47
$GNVTG,81.07,T,86.75,M,75.588,N,139.989,K,A*0B
$GNGGA,000121.00,3000.26769,N,12000.26282,E,1,12,0.59,-6.8,M,7.0,M,,*5B
$GNGSA,A,3,13,02,23,04,25,08,07,27,20,,,,1.10,0.59,0.92,1*0C
$GNGSA,A,3,24,23,10,09,27,11,17,,,,,,1.10,0.59,0.92,3*08
$GNGSA,A,3,06,12,11,09,13,,,,,,,,1.10,0.59,0.92,4*0D
$GPGSV,4,1,13,01,00,122,,02,33,299,36,04,52,247,37,07,84,117,37,0*69
$GPGSV,4,2,13,08,47,207,36,10,01,310,,13,50,031,36,16,01,039,,0*64
$GPGSV,4,3,13,20,23,121,36,23,27,057,36,25,67,042,37,27,19,219,36,0*61
$GPGSV,4,4,13,28,00,182,,0*56
$GAGSV,2,1,08,09,13,317,36,10,64,334,37,11,56,117,37,12,06,131,36,0*74
$GAGSV,2,2,08,17,31,040,37,23,39,223,37,24,86,021,38,27,31,126,37,0*72
$GBGSV,3,1,09,01,38,122,29,02,50,173,30,04,36,126,30,06,37,216,29,0*76
$GBGSV,3,2,09,09,37,287,29,11,18,131,29,12,10,061,29,13,48,202,30,0*76
$GBGSV,3,3,09,14,09,165,29,0*4B
$GNGLL,3000.26769,N,12000.26282,E,000121.00,A,A*75

$GNRMC,000122.00,A,3000.27013,N,12000.28682,E,75.590,85.52,230721,5.69,W,A,V*48
$GNVTG,85.52,T,91.21,M,75.590,N,139.993,K,A*0A
$GNGGA,000122.00,3000.27013,N,12000.28682,E,1,12,0.59,-6.8,M,7.0,M,,*59
$GNGSA,A,3,13,02,23,04,25,08,07,27,20,,,,1.10,0.59,0.92,1*0C
$GNGSA,A,3,24,23,10,09,27,11,17,,,,,,1.10,0.59,0.92,3*08
$GNGSA,A,3,06,12,11,09,13,,,,,,,,1.10,0.59,0.92,4*0D
$GPGSV,4,1,13,01,00,122,,02,33,299,36,04,52,247,36,07,84,117,37,0*68
$GPGSV,4,2,13,08,47,207,36,10,01,310,,13,50,031,36,16,01,039,,0*64
$GPGSV,4,3,13,20,23,121,36,23,27,057,36,25,67,042,37,27,19,219,36,0*61
$GPGSV,4,4,13,28,00,182,,0*56
$GAGSV,2,1,08,09,13,317,36,10,64,334,37,11,56,117,37,12,06,131,36,0*74
$GAGSV,2,2,08,17,31,040,37,23,39,223,37,24,86,021,37,27,31,126,37,0*7D
$GBGSV,3,1,09,01,38,122,29,02,50,173,30,04,36,126,30,06,37,216,29,0*76
$GBGSV,3,2,09,09,37,287,29,11,18,131,29,12,10,061,29,13,48,202,30,0*76
$GBGSV,3,3,09,14,09,165,29,0*4B
$GNGLL,3000.27013,N,12000.28682,E,000122.00,A,A*77

$GNRMC,000123.00,A,3000.27095,N,12000.31097,E,75.577,89.97,230721,5.69,W,A,V*41
$GNVTG,89.97,T,95.66,M,75.577,N,139.969,K,A*04
$GNGGA,000123.00,3000.27095,N,12000.31097,E,1,12,0.59,-6.8,M,7.0,M,,*5C
$GNGSA,A,3,13,02,23,04,25,08,07,27,20,,,,1.10,0.59,0.92,1*0C
$GNGSA,A,3,24,23,10,09,27,11,17,,,,,,1.10,0.59,0.92,3*08
$GNGSA,A,3,06,12,11,09,13,,,,,,,,1.10,0.59,0.92,4*0D
$GPGSV,4,1,13,01,00,122,,02,33,299,36,04,52,247,36,07,84,117,37,0*68
$GPGSV,4,2,13,08,47,207,36,10,01,310,,13,50,031,36,16,01,039,,0*64
$GPGSV,4,3,13,20,23,121,36,23,27,057,36,25,67,042,37,27,19,219,36,0*61
$GPGSV,4,4,13,28,00,182,,0*56
$GAGSV,2,1,08,09,13,317,36,10,64,334,37,11,56,117,37,12,06,131,36,0*74
$GAGSV,2,2,08,17,31,040,37,23,39,223,37,24,85,020,38,27,31,126,37,0*70
$GBGSV,3,1,09,01,38,122,30,02,50,173,29,04,36,126,30,06,37,216,29,0*76
$GBGSV,3,2,09,09,37,287,29,11,18,131,29,12,10,061,29,13,48,202,30,0*76
$GBGSV,3,3,09,14,09,165,29,0*4B
$GNGLL,3000.27095,N,12000.31097,E,000123.00,A,A*72

$GNRMC,000124.00,A,3000.27013,N,12000.33512,E,75.588,94.44,230721,5.69,W,A,V*40
$GNVTG,94.44,T,100.13,M,75.588,N,139.989,K,A*37
$GNGGA,000124.00,3000.27013,N,12000.33512,E,1,12,0.59,-6.7,M,7.0,M,,*50
$GNGSA,A,3,13,02,23,04,25,08,07,27,20,,,,1.10,0.59,0.92,1*0C
$GNGSA,A,3,24,23,10,09,27,11,17,,,,,,1.10,0.59,0.92,3*08
$GNGSA,A,3,06,12,11,09,13,,,,,,,,1.10,0.59,0.92,4*0D
$GPGSV,4,1,13,01,00,122,,02,33,299,36,04,52,247,36,07,84,117,37,0*68
$GPGSV,4,2,13,08,47,207,37,10,01,310,,13,50,031,36,16,01,039,,0*65
$GPGSV,4,3,13,20,23,121,36,23,27,057,36,25,67,042,37,27,19,219,35,0*62
$GPGSV,4,4,13,28,00,182,,0*56
$GAGSV,2,1,08,09,13,317,36,10,64,334,37,11,56,117,37,12,06,131,36,0*74
$GAGSV,2,2,08,17,31,040,37,23,39,223,37,24,85,020,38,27,31,126,37,0*70
$GBGSV,3,1,09,01,38,122,29,02,50,173,30,04,36,126,30,06,37,216,29,0*76
$GBGSV,3,2,09,09,37,287,29,11,18,131,29,12,10,061,29,13,48,202,30,0*76
$GBGSV,3,3,09,14,09,165,29,0*4B
$GNGLL,3000.27013,N,12000.33512,E,000124.00,A,A*71

$GNRMC,000125.00,A,3000.26768,N,12000.35913,E,75.592,98.88,230721,5.69,W,A,V*47
$GNVTG,98.88,T,104.57,M,75.592,N,139.996,K,A*3A
$GNGGA,000125.00,3000.26768,N,12000.35913,E,1,12,0.59,-6.7,M,7.0,M,,*50
$GNGSA,A,3,13,02,23,04,25,08,07,27,20,,,,1.10,0.59,0.93,1*0D
$GNGSA,A,3,24,23,10,09,27,11,17,,,,,,1.10,0.59,0.93,3*09
$GNGSA,A,3,06,12,11,09,13,,,,,,,,1.10,0.59,0.93,4*0C
$GPGSV,4,1,13,01,00,122,,02,33,299,36,04,52,247,36,07,84,117,37,0*68
$GPGSV,4,2,13,08,47,207,36,10,01,310,,13,50,031,36,16,01,039,,0*64
$GPGSV,4,3,13,20,23,121,36,23,27,057,36,25,67,042,37,27,19,219,35,0*62
$GPGSV,4,4,13,28,00,182,,0*56
$GAGSV,2,1,08,09,13,317,36,10,64,334,37,11,56,117,37,12,06,131,36,0*74
$GAGSV,2,2,08,17,31,040,37,23,39,223,37,24,85,020,38,27,31,126,37,0*70
$GBGSV,3,1,09,01,38,122,30,02,50,173,30,04,36,126,29,06,37,216,29,0*76
$GBGSV,3,2,09,09,37,287,29,11,18,131,29,12,10,061,29,13,48,202,30,0*76
$GBGSV,3,3,09,14,09,165,29,0*4B
$GNGLL,3000.26768,N,12000.35913,E,000125.00,A,A*71

$GNRMC,000126.00,A,3000.26362,N,12000.38284,E,75.589,103.35,230721,5.69,W,A,V*7D
$GNVTG,103.35,T,109.04,M,75.589,N,139.991,K,A*09
$GNGGA,000126.00,3000.26362,N,12000.38284,E,1,12,0.59,-6.7,M,7.0,M,,*55
$GNGSA,A,3,13,02,23,04,25,08,07,27,20,,,,1.10,0.59,0.93,1*0D
$GNGSA,A,3,24,23,10,09,27,11,17,,,,,,1.10,0.59,0.93,3*09
$GNGSA,A,3,06,12,11,09,13,,,,,,,,1.10,0.59,0.93,4*0C
$GPGSV,4,1,13,01,00,122,,02,33,299,36,04,52,247,36,07,84,117,37,0*68
