$GNRMC,140456.00,A,3114.50124,N,12130.90629,E,16.128,162.48,010620,6.15,W,A,V*73
$GNVTG,162.48,T,168.63,M,16.128,N,29.869,K,A*3E
$GNGGA,140456.00,3114.50124,N,12130.90629,E,1,08,1.11,39.6,M,9.9,M,,*45
$GNGSA,A,3,,,,,,,,,,,,,2.96,1.11,2.75,1*0D
$GNGSA,A,3,,,,,,,,,,,,,2.96,1.11,2.75,3*0F
$GNGSA,A,3,23,17,13,08,06,11,14,02,,,,,2.96,1.11,2.75,4*04
$GPGSV,3,1,11,02,33,049,,05,67,052,,09,30,167,,10,10,109,,0*69
$GPGSV,3,2,11,12,58,070,,14,13,264,,21,14,200,,24,50,173,,0*68
$GPGSV,3,3,11,29,56,283,,30,61,345,,31,18,318,,0*53
$GAGSV,3,1,12,01,47,035,,02,04,063,,07,13,260,,08,56,298,,0*7B
$GAGSV,3,2,12,14,15,138,,15,18,086,,16,02,040,,17,45,300,,0*7B
$GAGSV,3,3,12,18,57,207,,19,16,165,,24,02,327,,25,26,053,,0*73
$GBGSV,4,1,13,01,39,129,,02,56,188,34,04,39,124,,06,45,207,34,0*7A
$GBGSV,4,2,13,08,38,318,34,11,22,093,34,13,49,171,34,14,54,074,34,0*7F
$GBGSV,4,3,13,17,41,040,34,23,28,130,34,27,00,322,,29,03,238,,0*7B
$GBGSV,4,4,13,30,15,279,34,0*49
$GNGLL,3114.50124,N,12130.90629,E,140456.00,A,A*75

$GNRMC,140457.00,A,3114.49580,N,12130.90706,E,23.722,179.76,010620,6.15,W,A,V*71
$GNVTG,179.76,T,185.91,M,23.722,N,43.933,K,A*3F
$GNGGA,140457.00,3114.49580,N,12130.90706,E,1,08,1.11,39.7,M,9.9,M,,*4B
$GNGSA,A,3,,,,,,,,,,,,,2.96,1.11,2.75,1*0D
$GNGSA,A,3,,,,,,,,,,,,,2.96,1.11,2.75,3*0F
$GNGSA,A,3,23,17,13,08,06,11,14,02,,,,,2.96,1.11,2.75,4*04
$GPGSV,3,1,11,02,33,049,,05,67,052,,09,30,167,,10,10,109,,0*69
$GPGSV,3,2,11,12,58,070,,14,13,264,,21,14,200,,24,50,173,,0*68
$GPGSV,3,3,11,29,56,283,,30,61,345,,31,18,318,,0*53
$GAGSV,3,1,12,01,47,035,,02,04,063,,07,13,260,,08,56,298,,0*7B
$GAGSV,3,2,12,14,15,138,,15,18,086,,16,02,040,,17,45,300,,0*7B
$GAGSV,3,3,12,18,57,207,,19,16,165,,24,02,327,,25,26,053,,0*73
$GBGSV,4,1,13,01,39,129,,02,56,188,34,04,39,124,,06,45,207,34,0*7A
$GBGSV,4,2,13,08,38,318,34,11,22,093,34,13,49,171,34,14,54,074,34,0*7F
$GBGSV,4,3,13,17,41,040,34,23,28,130,34,27,00,322,,29,03,238,,0*7B
$GBGSV,4,4,13,30,15,279,34,0*49
$GNGLL,3114.49580,N,12130.90706,E,140457.00,A,A*7A

$GNRMC,140458.00,A,3114.48546,N,12130.90705,E,50.076,179.96,010620,6.15,W,A,V*7A
$GNVTG,179.96,T,186.10,M,50.076,N,92.741,K,A*3E
$GNGGA,140458.00,3114.48546,N,12130.90705,E,1,08,1.11,39.7,M,9.9,M,,*4C
$GNGSA,A,3,,,,,,,,,,,,,2.96,1.11,2.75,1*0D
$GNGSA,A,3,,,,,,,,,,,,,2.96,1.11,2.75,3*0F
$GNGSA,A,3,23,17,13,08,06,11,14,02,,,,,2.96,1.11,2.75,4*04
$GPGSV,3,1,11,02,33,049,,05,67,052,,09,30,167,,10,10,109,,0*69
$GPGSV,3,2,11,12,58,070,,14,13,264,,21,14,200,,24,50,173,,0*68
$GPGSV,3,3,11,29,56,283,,30,61,345,,31,18,318,,0*53
$GAGSV,3,1,12,01,47,035,,02,04,063,,07,13,260,,08,56,298,,0*7B
$GAGSV,3,2,12,14,15,138,,15,18,086,,16,02,040,,17,45,300,,0*7B
$GAGSV,3,3,12,18,57,207,,19,16,165,,24,02,327,,25,26,053,,0*73
$GBGSV,4,1,13,01,39,129,,02,56,188,34,04,39,124,,06,45,207,34,0*7A
$GBGSV,4,2,13,08,38,318,34,11,22,093,34,13,49,171,34,14,54,074,34,0*7F
$GBGSV,4,3,13,17,41,040,34,23,28,130,34,27,00,322,,29,03,238,,0*7B
$GBGSV,4,4,13,30,15,279,34,0*49
$GNGLL,3114.48546,N,12130.90705,E,140458.00,A,A*7D

$GNRMC,140459.00,A,3114.46772,N,12130.90705,E,76.805,179.95,010620,6.15,W,A,V*7B
$GNVTG,179.95,T,186.10,M,76.805,N,142.242,K,A*0F
$GNGGA,140459.00,3114.46772,N,12130.90705,E,1,08,1.11,39.7,M,9.9,M,,*46
$GNGSA,A,3,,,,,,,,,,,,,2.96,1.11,2.74,1*0C
$GNGSA,A,3,,,,,,,,,,,,,2.96,1.11,2.74,3*0E
$GNGSA,A,3,23,17,13,08,06,11,14,02,,,,,2.96,1.11,2.74,4*05
$GPGSV,3,1,11,02,33,049,,05,67,052,,09,30,167,,10,10,109,,0*69
$GPGSV,3,2,11,12,58,070,,14,13,264,,21,14,200,,24,50,173,,0*68
$GPGSV,3,3,11,29,56,283,,30,61,345,,31,18,318,,0*53
$GAGSV,3,1,12,01,47,035,,02,04,063,,07,13,260,,08,56,298,,0*7B
$GAGSV,3,2,12,14,15,138,,15,18,086,,16,02,040,,17,45,300,,0*7B
$GAGSV,3,3,12,18,57,207,,19,16,165,,24,02,327,,25,26,053,,0*73
$GBGSV,4,1,13,01,39,129,,02,56,188,34,04,39,124,,06,45,207,34,0*7A
$GBGSV,4,2,13,08,38,318,34,11,22,093,34,13,49,171,34,14,54,074,34,0*7F
$GBGSV,4,3,13,17,41,040,34,23,28,130,34,27,00,322,,29,03,238,,0*7B
$GBGSV,4,4,13,30,15,279,34,0*49
$GNGLL,3114.46772,N,12130.90705,E,140459.00,A,A*77

$GNRMC,140500.00,A,3114.44251,N,12130.90705,E,103.553,179.98,010620,6.15,W,A,V*40
$GNVTG,179.98,T,186.13,M,103.553,N,191.781,K,A*38
$GNGGA,140500.00,3114.44251,N,12130.90705,E,1,08,1.11,39.8,M,9.9,M,,*42
$GNGSA,A,3,,,,,,,,,,,,,2.96,1.11,2.74,1*0C
$GNGSA,A,3,,,,,,,,,,,,,2.96,1.11,2.74,3*0E
$GNGSA,A,3,23,17,13,08,06,11,14,02,,,,,2.96,1.11,2.74,4*05
$GPGSV,3,1,11,02,33,049,,05,67,052,,09,30,167,,10,10,109,,0*69
$GPGSV,3,2,11,12,58,070,,14,13,264,,21,14,200,,24,50,173,,0*68
$GPGSV,3,3,11,29,56,283,,30,61,345,,31,18,318,,0*53
$GAGSV,3,1,12,01,47,035,,02,04,063,,07,13,260,,08,56,298,,0*7B
$GAGSV,3,2,12,14,15,138,,15,18,086,,16,02,040,,17,45,300,,0*7B
$GAGSV,3,3,12,18,57,207,,19,16,165,,24,02,327,,25,26,053,,0*73
$GBGSV,4,1,13,01,39,129,,02,56,188,34,04,39,124,,06,45,207,34,0*7A
$GBGSV,4,2,13,08,38,318,34,11,22,093,34,13,49,171,34,14,54,074,34,0*7F
$GBGSV,4,3,13,17,41,040,34,23,28,130,34,27,00,322,,29,03,238,,0*7B
$GBGSV,4,4,13,30,15,279,34,0*49
$GNGLL,3114.44251,N,12130.90705,E,140500.00,A,A*7C

$GNRMC,140501.00,A,3114.40986,N,12130.90706,E,130.301,180.01,010620,6.15,W,A,V*40
$GNVTG,180.01,T,186.16,M,130.301,N,241.318,K,A*30
$GNGGA,140501.00,3114.40986,N,12130.90706,E,1,08,1.11,39.8,M,9.9,M,,*45
$GNGSA,A,3,,,,,,,,,,,,,2.96,1.11,2.74,1*0C
$GNGSA,A,3,,,,,,,,,,,,,2.96,1.11,2.74,3*0E
$GNGSA,A,3,23,17,13,08,06,11,14,02,,,,,2.96,1.11,2.74,4*05
$GPGSV,3,1,11,02,33,049,,05,67,052,,09,30,167,,10,10,109,,0*69
$GPGSV,3,2,11,12,58,070,,14,13,264,,21,14,200,,24,50,173,,0*68
$GPGSV,3,3,11,29,56,283,,30,61,345,,31,18,318,,0*53
$GAGSV,3,1,12,01,47,035,,02,04,063,,07,13,260,,08,56,298,,0*7B
$GAGSV,3,2,12,14,15,138,,15,18,086,,16,02,040,,17,45,300,,0*7B
$GAGSV,3,3,12,18,57,207,,19,16,165,,24,02,327,,25,26,053,,0*73
$GBGSV,4,1,13,01,39,129,35,02,56,188,34,04,39,124,34,06,45,207,34,0*7B
$GBGSV,4,2,13,08,38,318,34,11,22,093,34,13,49,171,34,14,54,074,34,0*7F
$GBGSV,4,3,13,17,41,040,34,23,28,130,34,27,00,322,,29,03,238,,0*7B
$GBGSV,4,4,13,30,15,279,34,0*49
$GNGLL,3114.40986,N,12130.90706,E,140501.00,A,A*7B

$GNRMC,140502.00,A,3114.37001,N,12130.90702,E,157.084,179.98,010620,6.15,W,A,V*48
$GNVTG,179.98,T,186.13,M,157.084,N,290.919,K,A*3B
$GNGGA,140502.00,3114.37001,N,12130.90702,E,1,08,1.11,39.9,M,9.9,M,,*45
$GNGSA,A,3,,,,,,,,,,,,,2.96,1.11,2.74,1*0C
$GNGSA,A,3,,,,,,,,,,,,,2.96,1.11,2.74,3*0E
$GNGSA,A,3,23,17,13,08,06,11,14,02,,,,,2.96,1.11,2.74,4*05
$GPGSV,3,1,11,02,33,049,,05,67,052,,09,30,167,,10,10,109,,0*69
$GPGSV,3,2,11,12,58,070,,14,13,264,,21,14,200,,24,50,173,,0*68
$GPGSV,3,3,11,29,56,283,,30,61,345,,31,18,318,,0*53
$GAGSV,3,1,12,01,47,035,,02,04,063,,07,13,260,,08,56,298,,0*7B
$GAGSV,3,2,12,14,15,138,,15,18,086,,16,02,040,,17,45,300,,0*7B
$GAGSV,3,3,12,18,57,207,,19,16,165,,24,02,327,,25,26,053,,0*73
$GBGSV,4,1,13,01,39,129,35,02,56,188,34,04,39,124,34,06,45,207,34,0*7B
$GBGSV,4,2,13,08,38,318,34,11,22,093,34,13,49,171,34,14,54,074,34,0*7F
$GBGSV,4,3,13,17,41,040,34,23,28,130,34,27,00,322,,29,03,238,,0*7B
$GBGSV,4,4,13,30,15,279,34,0*49
$GNGLL,3114.37001,N,12130.90702,E,140502.00,A,A*7A

$GNRMC,140503.00,A,3114.32541,N,12130.90698,E,161.918,179.99,010620,6.15,W,A,V*47
$GNVTG,179.99,T,186.14,M,161.918,N,299.873,K,A*30
$GNGGA,140503.00,3114.32541,N,12130.90698,E,1,08,1.11,40.0,M,9.9,M,,*45
$GNGSA,A,3,,,,,,,,,,,,,2.96,1.11,2.74,1*0C
$GNGSA,A,3,,,,,,,,,,,,,2.96,1.11,2.74,3*0E
$GNGSA,A,3,23,17,13,08,06,11,14,02,,,,,2.96,1.11,2.74,4*05
$GPGSV,3,1,11,02,33,049,,05,67,052,,09,30,167,,10,10,109,,0*69
$GPGSV,3,2,11,12,58,070,,14,13,264,,21,14,200,,24,50,173,,0*68
$GPGSV,3,3,11,29,56,283,,30,61,345,,31,18,318,,0*53
$GAGSV,3,1,12,01,47,035,,02,04,063,,07,13,260,,08,56,298,,0*7B
$GAGSV,3,2,12,14,15,138,,15,18,086,,16,02,040,,17,45,300,,0*7B
$GAGSV,3,3,12,18,57,207,,19,16,165,,24,02,327,,25,26,053,,0*73
$GBGSV,4,1,13,01,39,129,34,02,56,188,34,04,39,124,34,06,45,207,34,0*7A
$GBGSV,4,2,13,08,38,318,34,11,22,093,34,13,49,171,34,14,54,074,34,0*7F
$GBGSV,4,3,13,17,41,040,34,23,28,130,34,27,00,322,,29,03,238,,0*7B
$GBGSV,4,4,13,30,15,279,34,0*49
$GNGLL,3114.32541,N,12130.90698,E,140503.00,A,A*7D

$GNRMC,140504.00,A,3114.28023,N,12130.90698,E,161.980,180.02,010620,6.15,W,A,V*4F
$GNVTG,180.02,T,186.16,M,161.980,N,299.987,K,A*3D
$GNGGA,140504.00,3114.28023,N,12130.90698,E,1,08,1.11,40.1,M,9.9,M,,*49
$GNGSA,A,3,,,,,,,,,,,,,2.96,1.11,2.74,1*0C
$GNGSA,A,3,,,,,,,,,,,,,2.96,1.11,2.74,3*0E
$GNGSA,A,3,23,17,13,08,06,11,14,02,,,,,2.96,1.11,2.74,4*05
$GPGSV,3,1,11,02,33,049,,05,67,052,,09,30,167,,10,10,109,,0*69
$GPGSV,3,2,11,12,58,070,,14,13,264,,21,14,200,,24,50,173,,0*68
$GPGSV,3,3,11,29,56,283,,30,61,345,,31,18,318,,0*53
$GAGSV,3,1,12,01,47,035,,02,04,063,,07,13,260,,08,56,298,,0*7B
$GAGSV,3,2,12,14,15,138,,15,18,086,,16,02,040,,17,45,300,,0*7B
$GAGSV,3,3,12,18,57,207,,19,16,165,,24,02,327,,25,26,053,,0*73
$GBGSV,4,1,13,01,39,129,34,02,56,188,34,04,39,124,34,06,45,207,34,0*7A
$GBGSV,4,2,13,08,38,318,34,11,22,093,34,13,49,171,34,14,54,074,34,0*7F
$GBGSV,4,3,13,17,41,040,34,23,28,130,34,27,00,322,,29,03,238,,0*7B
$GBGSV,4,4,13,30,15,279,34,0*49
$GNGLL,3114.28023,N,12130.90698,E,140504.00,A,A*70

$GNRMC,140505.00,A,3114.23509,N,12130.90696,E,161.952,180.01,010620,6.14,W,A,V*4B
$GNVTG,180.01,T,186.15,M,161.952,N,299.935,K,A*3B
$GNGGA,140505.00,3114.23509,N,12130.90696,E,1,08,1.11,40.2,M,9.9,M,,*43
$GNGSA,A,3,,,,,,,,,,,,,2.96,1.11,2.74,1*0C
$GNGSA,A,3,,,,,,,,,,,,,2.96,1.11,2.74,3*0E
$GNGSA,A,3,23,17,13,08,06,11,14,02,,,,,2.96,1.11,2.74,4*05
$GPGSV,3,1,11,02,33,049,,05,67,052,,09,30,167,,10,10,109,,0*69
$GPGSV,3,2,11,12,58,070,,14,13,264,,21,14,200,,24,50,173,,0*68
$GPGSV,3,3,11,29,56,283,,30,61,345,,31,18,318,,0*53
$GAGSV,3,1,12,01,47,035,,02,04,063,,07,13,260,,08,56,298,,0*7B
$GAGSV,3,2,12,14,15,138,,15,18,086,,16,02,040,,17,45,300,,0*7B
$GAGSV,3,3,12,18,57,207,,19,16,165,,24,02,327,,25,26,053,,0*73
$GBGSV,4,1,13,01,39,129,34,02,56,188,34,04,39,124,34,06,45,207,34,0*7A
$GBGSV,4,2,13,08,38,318,34,11,22,093,34,13,49,171,34,14,54,074,34,0*7F
$GBGSV,4,3,13,17,41,040,34,23,28,130,34,27,00,322,,29,03,238,,0*7B
$GBGSV,4,4,13,30,15,279,34,0*49
$GNGLL,3114.23509,N,12130.90696,E,140505.00,A,A*79

$GNRMC,140506.00,A,3114.18996,N,12130.90695,E,161.944,180.00,010620,6.14,W,A,V*4F
$GNVTG,180.00,T,186.14,M,161.944,N,299.921,K,A*39
$GNGGA,140506.00,3114.18996,N,12130.90695,E,1,08,1.11,40.2,M,9.9,M,,*41
$GNGSA,A,3,,,,,,,,,,,,,2.96,1.11,2.74,1*0C
$GNGSA,A,3,,,,,,,,,,,,,2.96,1.11,2.74,3*0E
$GNGSA,A,3,23,17,13,08,06,11,14,02,,,,,2.96,1.11,2.74,4*05
$GPGSV,3,1,11,02,33,049,,05,67,052,,09,30,167,,10,10,109,,0*69
$GPGSV,3,2,11,12,58,070,,14,13,264,,21,14,200,,24,50,173,,0*68
$GPGSV,3,3,11,29,56,283,,30,61,345,,31,18,318,,0*53
$GAGSV,3,1,12,01,47,035,,02,04,063,,07,13,260,,08,56,298,,0*7B
$GAGSV,3,2,12,14,15,138,,15,18,086,,16,02,040,,17,45,300,,0*7B
$GAGSV,3,3,12,18,57,207,,19,16,165,,24,02,327,,25,26,053,,0*73
$GBGSV,4,1,13,01,39,129,34,02,56,188,34,04,39,124,34,06,45,207,34,0*7A
$GBGSV,4,2,13,08,38,318,34,11,22,093,34,13,49,171,34,14,54,074,34,0*7F
$GBGSV,4,3,13,17,41,040,34,23,28,130,34,27,00,322,,29,03,238,,0*7B
$GBGSV,4,4,13,30,15,279,34,0*49
$GNGLL,3114.18996,N,12130.90695,E,140506.00,A,A*7B

$GNRMC,140507.00,A,3114.14506,N,12130.90693,E,160.365,179.99,010620,6.14,W,A,V*4F
$GNVTG,179.99,T,186.14,M,160.365,N,296.996,K,A*34
$GNGGA,140507.00,3114.14506,N,12130.90693,E,1,08,1.11,40.2,M,9.9,M,,*4F
$GNGSA,A,3,,,,,,,,,,,,,2.96,1.11,2.74,1*0C
$GNGSA,A,3,,,,,,,,,,,,,2.96,1.11,2.74,3*0E
$GNGSA,A,3,23,17,13,08,06,11,14,02,,,,,2.96,1.11,2.74,4*05
$GPGSV,3,1,11,02,33,049,,05,67,052,,09,30,167,,10,10,109,,0*69
$GPGSV,3,2,11,12,58,070,,14,13,264,,21,14,200,,24,50,173,,0*68
$GPGSV,3,3,11,29,56,283,,30,61,345,,31,18,318,,0*53
$GAGSV,3,1,12,01,47,035,,02,04,063,,07,13,260,,08,56,298,,0*7B
$GAGSV,3,2,12,14,15,138,,15,18,086,,16,02,040,,17,45,300,,0*7B
$GAGSV,3,3,12,18,57,207,,19,16,165,,24,02,327,,25,26,053,,0*73
$GBGSV,4,1,13,01,39,129,34,02,56,188,34,04,39,124,34,06,45,207,34,0*7A
$GBGSV,4,2,13,08,38,318,34,11,22,093,34,13,49,171,34,14,54,073,34,0*78
$GBGSV,4,3,13,17,41,040,34,23,28,130,34,27,00,322,,29,03,238,,0*7B
$GBGSV,4,4,13,30,15,279,34,0*49
$GNGLL,3114.14506,N,12130.90693,E,140507.00,A,A*75

$GNRMC,140508.00,A,3114.10398,N,12130.90693,E,135.052,180.00,010620,6.14,W,A,V*44
$GNVTG,180.00,T,186.14,M,135.052,N,250.117,K,A*3E
$GNGGA,140508.00,3114.10398,N,12130.90693,E,1,08,1.11,40.2,M,9.9,M,,*45
$GNGSA,A,3,,,,,,,,,,,,,2.96,1.11,2.74,1*0C
$GNGSA,A,3,,,,,,,,,,,,,2.96,1.11,2.74,3*0E
$GNGSA,A,3,23,17,13,08,06,11,14,02,,,,,2.96,1.11,2.74,4*05
$GPGSV,3,1,11,02,33,049,,05,67,052,,09,30,167,,10,10,109,,0*69
$GPGSV,3,2,11,12,58,070,,14,13,264,,21,14,200,,24,50,173,,0*68
$GPGSV,3,3,11,29,56,283,,30,61,345,,31,18,318,,0*53
$GAGSV,3,1,12,01,47,035,,02,04,063,,07,13,260,,08,56,298,,0*7B
$GAGSV,3,2,12,14,15,138,,15,18,086,,16,02,040,,17,45,300,,0*7B
$GAGSV,3,3,12,18,57,207,,19,16,165,,24,02,327,,25,26,053,,0*73
$GBGSV,4,1,13,01,39,129,34,02,56,188,34,04,39,124,34,06,45,207,34,0*7A
$GBGSV,4,2,13,08,38,318,34,11,22,093,34,13,49,171,34,14,54,073,34,0*78
$GBGSV,4,3,13,17,41,040,34,23,28,130,34,27,00,322,,29,03,238,,0*7B
$GBGSV,4,4,13,30,15,279,34,0*49
$GNGLL,3114.10398,N,12130.90693,E,140508.00,A,A*7F

$GNRMC,140509.00,A,3114.07017,N,12130.90691,E,108.373,180.02,010620,6.14,W,A,V*49
$GNVTG,180.02,T,186.17,M,108.373,N,200.706,K,A*32
$GNGGA,140509.00,3114.07017,N,12130.90691,E,1,09,0.92,40.1,M,9.9,M,,*4C
$GNGSA,A,3,,,,,,,,,,,,,2.05,0.92,1.83,1*07
$GNGSA,A,3,,,,,,,,,,,,,2.05,0.92,1.83,3*05
$GNGSA,A,3,23,17,13,08,06,11,30,14,02,,,,2.05,0.92,1.83,4*0D
$GPGSV,3,1,11,02,33,049,,05,67,052,,09,30,167,,10,10,109,,0*69
$GPGSV,3,2,11,12,58,070,,14,13,264,,21,14,200,,24,50,173,,0*68
$GPGSV,3,3,11,29,56,283,,30,61,345,,31,18,318,,0*53
$GAGSV,3,1,12,01,47,035,,02,04,063,,07,13,260,,08,56,298,,0*7B
$GAGSV,3,2,12,14,15,138,,15,18,086,,16,02,040,,17,45,300,,0*7B
$GAGSV,3,3,12,18,57,207,,19,16,165,,24,02,327,,25,26,053,,0*73
$GBGSV,4,1,13,01,39,129,34,02,56,188,34,04,39,124,34,06,45,207,34,0*7A
$GBGSV,4,2,13,08,38,318,34,11,22,093,34,13,49,171,34,14,54,073,34,0*78
$GBGSV,4,3,13,17,41,040,34,23,28,130,34,27,00,322,,29,03,238,,0*7B
$GBGSV,4,4,13,30,16,279,34,0*4A
$GNGLL,3114.07017,N,12130.90691,E,140509.00,A,A*7E

$GNRMC,140510.00,A,3114.04383,N,12130.90689,E,81.564,180.03,010620,6.14,W,A,V*74
$GNVTG,180.03,T,186.17,M,81.564,N,151.056,K,A*06
$GNGGA,140510.00,3114.04383,N,12130.90689,E,1,09,0.92,40.0,M,9.9,M,,*41
$GNGSA,A,3,,,,,,,,,,,,,2.05,0.92,1.83,1*07
$GNGSA,A,3,,,,,,,,,,,,,2.05,0.92,1.83,3*05
$GNGSA,A,3,23,17,13,08,06,11,30,14,02,,,,2.05,0.92,1.83,4*0D
$GPGSV,3,1,11,02,33,049,,05,67,052,,09,30,167,,10,10,109,,0*69
$GPGSV,3,2,11,12,58,070,,14,13,264,,21,14,200,,24,50,173,,0*68
$GPGSV,3,3,11,29,56,283,,30,61,345,,31,18,318,,0*53
$GAGSV,3,1,12,01,47,035,,02,04,063,,07,13,260,,08,56,298,,0*7B
$GAGSV,3,2,12,14,15,138,,15,18,086,,16,02,040,,17,45,300,,0*7B
$GAGSV,3,3,12,18,57,207,,19,16,165,,24,02,327,,25,26,053,,0*73
$GBGSV,4,1,13,01,39,129,34,02,56,188,34,04,39,124,34,06,45,207,34,0*7A
$GBGSV,4,2,13,08,38,318,34,11,22,093,34,13,49,171,34,14,54,073,34,0*78
$GBGSV,4,3,13,17,41,040,34,23,28,130,34,27,00,322,,29,03,238,,0*7B
$GBGSV,4,4,13,30,16,279,34,0*4A
$GNGLL,3114.04383,N,12130.90689,E,140510.00,A,A*72

$GNRMC,140511.00,A,3114.02495,N,12130.90688,E,54.805,180.06,010620,6.14,W,A,V*75
$GNVTG,180.06,T,186.20,M,54.805,N,101.499,K,A*07
$GNGGA,140511.00,3114.02495,N,12130.90688,E,1,09,0.92,40.1,M,9.9,M,,*46
$GNGSA,A,3,,,,,,,,,,,,,2.05,0.92,1.83,1*07
$GNGSA,A,3,,,,,,,,,,,,,2.05,0.92,1.83,3*05
$GNGSA,A,3,23,17,13,08,06,11,30,14,02,,,,2.05,0.92,1.83,4*0D
$GPGSV,3,1,11,02,33,049,,05,67,052,,09,30,167,,10,10,109,,0*69
$GPGSV,3,2,11,12,58,070,,14,13,264,,21,14,200,,24,50,173,,0*68
$GPGSV,3,3,11,29,56,283,,30,61,345,,31,18,318,,0*53
$GAGSV,3,1,12,01,47,035,,02,04,063,,07,13,260,,08,56,298,,0*7B
$GAGSV,3,2,12,14,15,138,,15,18,086,,16,02,040,,17,45,300,,0*7B
$GAGSV,3,3,12,18,57,207,,19,16,165,,24,02,327,,25,26,053,,0*73
$GBGSV,4,1,13,01,39,129,34,02,56,188,34,04,39,124,34,06,45,207,34,0*7A
$GBGSV,4,2,13,08,38,318,34,11,22,093,34,13,49,171,34,14,54,073,34,0*78
$GBGSV,4,3,13,17,41,040,34,23,28,130,34,27,00,322,,29,03,238,,0*7B
$GBGSV,4,4,13,30,16,279,34,0*4A
$GNGLL,3114.02495,N,12130.90688,E,140511.00,A,A*74

$GNRMC,140512.00,A,3114.01352,N,12130.90687,E,28.058,180.07,010620,6.14,W,A,V*7C
$GNVTG,180.07,T,186.22,M,28.058,N,51.963,K,A*33
$GNGGA,140512.00,3114.01352,N,12130.90687,E,1,09,0.92,40.1,M,9.9,M,,*45
$GNGSA,A,3,,,,,,,,,,,,,2.05,0.92,1.83,1*07
$GNGSA,A,3,,,,,,,,,,,,,2.05,0.92,1.83,3*05
$GNGSA,A,3,23,17,13,08,06,11,30,14,02,,,,2.05,0.92,1.83,4*0D
$GPGSV,3,1,11,02,33,049,,05,67,052,,09,30,167,,10,10,109,,0*69
$GPGSV,3,2,11,12,58,070,,14,13,264,,21,14,200,,24,50,173,,0*68
$GPGSV,3,3,11,29,56,283,,30,61,345,,31,18,318,,0*53
$GAGSV,3,1,12,01,47,035,,02,04,063,,07,13,260,,08,56,298,,0*7B
$GAGSV,3,2,12,14,15,138,,15,18,086,,16,02,040,,17,45,300,,0*7B
$GAGSV,3,3,12,18,57,207,,19,16,165,,24,02,327,,25,26,053,,0*73
$GBGSV,4,1,13,01,39,129,34,02,56,188,34,04,39,124,34,06,45,207,34,0*7A
$GBGSV,4,2,13,08,38,318,34,11,22,093,34,13,49,171,34,14,54,073,34,0*78
$GBGSV,4,3,13,17,41,040,34,23,28,130,34,27,00,322,,29,03,238,,0*7B
$GBGSV,4,4,13,30,16,279,34,0*4A
$GNGLL,3114.01352,N,12130.90687,E,140512.00,A,A*77

$GNRMC,140513.00,A,3114.00753,N,12130.90625,E,16.355,193.46,010620,6.14,W,A,V*75
$GNVTG,193.46,T,199.61,M,16.355,N,30.289,K,A*36
$GNGGA,140513.00,3114.00753,N,12130.90625,E,1,09,0.92,40.0,M,9.9,M,,*49
$GNGSA,A,3,,,,,,,,,,,,,2.05,0.92,1.83,1*07
$GNGSA,A,3,,,,,,,,,,,,,2.05,0.92,1.83,3*05
$GNGSA,A,3,23,17,13,08,06,11,30,14,02,,,,2.05,0.92,1.83,4*0D
$GPGSV,3,1,11,02,33,049,,05,67,052,,09,30,167,,10,10,109,,0*69
$GPGSV,3,2,11,12,58,070,,14,13,264,,21,14,200,,24,50,173,,0*68
$GPGSV,3,3,11,29,56,283,,30,61,345,,31,18,318,,0*53
$GAGSV,3,1,12,01,47,035,,02,04,063,,07,13,260,,08,56,298,,0*7B
$GAGSV,3,2,12,14,15,138,,15,18,086,,16,02,040,,17,45,300,,0*7B
$GAGSV,3,3,12,18,57,207,,19,16,165,,24,02,327,,25,26,053,,0*73
$GBGSV,4,1,13,01,39,129,34,02,56,188,34,04,39,124,34,06,45,207,34,0*7A
$GBGSV,4,2,13,08,38,318,34,11,22,093,34,13,49,171,34,14,54,073,34,0*78
$GBGSV,4,3,13,17,41,040,34,23,28,130,34,27,00,322,,29,03,238,,0*7B
$GBGSV,4,4,13,30,16,279,34,0*4A
$GNGLL,3114.00753,N,12130.90625,E,140513.00,A,A*7A

$GNRMC,140514.00,A,3114.00359,N,12130.90405,E,16.184,217.24,010620,6.14,W,A,V*79
$GNVTG,217.24,T,223.39,M,16.184,N,29.972,K,A*3B
$GNGGA,140514.00,3114.00359,N,12130.90405,E,1,09,0.92,40.0,M,9.9,M,,*40
$GNGSA,A,3,,,,,,,,,,,,,2.05,0.92,1.83,1*07
$GNGSA,A,3,,,,,,,,,,,,,2.05,0.92,1.83,3*05
$GNGSA,A,3,23,17,13,08,06,11,30,14,02,,,,2.05,0.92,1.83,4*0D
$GPGSV,3,1,11,02,33,049,,05,67,052,,09,30,167,,10,10,109,,0*69
$GPGSV,3,2,11,12,58,070,,14,13,264,,21,14,200,,24,50,173,,0*68
$GPGSV,3,3,11,29,56,283,,30,61,345,,31,18,318,,0*53
$GAGSV,3,1,12,01,47,035,,02,04,063,,07,13,260,,08,56,298,,0*7B
$GAGSV,3,2,12,14,15,138,,15,18,086,,16,02,040,,17,45,300,,0*7B
$GAGSV,3,3,12,18,57,207,,19,16,165,,24,02,327,,25,26,053,,0*73
$GBGSV,4,1,13,01,39,129,34,02,56,188,34,04,39,124,34,06,45,207,34,0*7A
$GBGSV,4,2,13,08,38,318,34,11,22,093,34,13,49,171,34,14,54,073,34,0*78
$GBGSV,4,3,13,17,41,040,34,23,28,130,34,27,00,322,,29,03,238,,0*7B
$GBGSV,4,4,13,30,16,279,34,0*4A
$GNGLL,3114.00359,N,12130.90405,E,140514.00,A,A*73

$GNRMC,140515.00,A,3114.00077,N,12130.90016,E,16.204,241.11,010620,6.14,W,A,V*7F
$GNVTG,241.11,T,247.25,M,16.204,N,30.010,K,A*3F
$GNGGA,140515.00,3114.00077,N,12130.90016,E,1,09,0.92,40.0,M,9.9,M,,*48
$GNGSA,A,3,,,,,,,,,,,,,2.05,0.92,1.83,1*07
$GNGSA,A,3,,,,,,,,,,,,,2.05,0.92,1.83,3*05
$GNGSA,A,3,23,17,13,08,06,11,30,14,02,,,,2.05,0.92,1.83,4*0D
$GPGSV,3,1,11,02,33,049,,05,67,052,,09,30,167,,10,10,109,,0*69
$GPGSV,3,2,11,12,58,070,,14,13,264,,21,14,200,,24,50,173,,0*68
$GPGSV,3,3,11,29,56,283,,30,61,345,,31,18,318,,0*53
$GAGSV,3,1,12,01,47,035,,02,04,063,,07,13,260,,08,56,298,,0*7B
$GAGSV,3,2,12,14,15,138,,15,18,086,,16,02,040,,17,45,300,,0*7B
$GAGSV,3,3,12,18,57,207,,19,16,165,,24,02,327,,25,26,053,,0*73
$GBGSV,4,1,13,01,39,129,34,02,56,188,34,04,39,124,34,06,45,207,34,0*7A
$GBGSV,4,2,13,08,38,318,34,11,22,093,34,13,49,171,34,14,54,073,34,0*78
$GBGSV,4,3,13,17,41,040,34,23,28,130,34,27,00,322,,29,03,238,,0*7B
$GBGSV,4,4,13,30,16,279,34,0*4A
$GNGLL,3114.00077,N,12130.90016,E,140515.00,A,A*7B

$GNRMC,140516.00,A,3113.99954,N,12130.89525,E,16.186,264.96,010620,6.14,W,A,V*7F
$GNVTG,264.96,T,271.10,M,16.186,N,29.977,K,A*3D
$GNGGA,140516.00,3113.99954,N,12130.89525,E,1,09,0.92,39.9,M,9.9,M,,*4E
$GNGSA,A,3,,,,,,,,,,,,,2.05,0.92,1.83,1*07
$GNGSA,A,3,,,,,,,,,,,,,2.05,0.92,1.83,3*05
$GNGSA,A,3,23,17,13,08,06,11,30,14,02,,,,2.05,0.92,1.83,4*0D
$GPGSV,3,1,11,02,33,049,,05,67,052,,09,30,167,,10,10,109,,0*69
$GPGSV,3,2,11,12,58,070,,14,13,264,,21,14,200,,24,50,173,,0*68
$GPGSV,3,3,11,29,56,283,,30,61,345,,31,18,318,,0*53
$GAGSV,3,1,12,01,47,035,,02,04,063,,07,13,260,,08,56,298,,0*7B
$GAGSV,3,2,12,14,15,138,,15,18,086,,16,02,040,,17,45,300,,0*7B
$GAGSV,3,3,12,18,57,207,,19,16,165,,24,02,327,,25,26,053,,0*73
$GBGSV,4,1,13,01,39,129,34,02,56,188,34,04,39,124,34,06,45,207,34,0*7A
$GBGSV,4,2,13,08,38,318,34,11,22,093,34,13,49,171,34,14,54,073,34,0*78
$GBGSV,4,3,13,17,41,040,34,23,28,130,34,27,00,322,,29,03,238,,0*7B
$GBGSV,4,4,13,30,16,279,34,0*4A
$GNGLL,3113.99954,N,12130.89525,E,140516.00,A,A*7A

$GNRMC,140517.00,A,3113.99938,N,12130.88656,E,37.438,269.99,010620,6.14,W,A,V*73
$GNVTG,269.99,T,276.14,M,37.438,N,69.336,K,A*34
$GNGGA,140517.00,3113.99938,N,12130.88656,E,1,09,0.92,40.0,M,9.9,M,,*44
$GNGSA,A,3,,,,,,,,,,,,,2.05,0.92,1.83,1*07
$GNGSA,A,3,,,,,,,,,,,,,2.05,0.92,1.83,3*05
$GNGSA,A,3,23,17,13,08,06,11,30,14,02,,,,2.05,0.92,1.83,4*0D
$GPGSV,3,1,11,02,33,049,,05,67,052,,09,30,167,,10,10,109,,0*69
$GPGSV,3,2,11,12,58,070,,14,13,264,,21,14,200,,24,50,173,,0*68
$GPGSV,3,3,11,29,56,283,,30,61,345,,31,18,318,,0*53
$GAGSV,3,1,12,01,47,035,,02,04,063,,07,13,260,,08,56,298,,0*7B
$GAGSV,3,2,12,14,15,138,,15,18,086,,16,02,040,,17,45,300,,0*7B
$GAGSV,3,3,12,18,57,207,,19,16,165,,24,02,327,,25,26,053,,0*73
$GBGSV,4,1,13,01,39,129,34,02,56,188,34,04,39,124,34,06,45,207,34,0*7A
$GBGSV,4,2,13,08,38,318,34,11,22,093,34,13,49,171,34,14,54,073,34,0*78
$GBGSV,4,3,13,17,41,040,34,23,28,130,34,27,00,322,,29,03,238,,0*7B
$GBGSV,4,4,13,30,16,279,34,0*4A
$GNGLL,3113.99938,N,12130.88656,E,140517.00,A,A*77

$GNRMC,140518.00,A,3113.99942,N,12130.87007,E,64.106,270.03,010620,6.14,W,A,V*79
$GNVTG,270.03,T,276.18,M,64.106,N,118.724,K,A*0D
$GNGGA,140518.00,3113.99942,N,12130.87007,E,1,09,0.92,40.0,M,9.9,M,,*4B
$GNGSA,A,3,,,,,,,,,,,,,2.05,0.92,1.83,1*07
$GNGSA,A,3,,,,,,,,,,,,,2.05,0.92,1.83,3*05
$GNGSA,A,3,23,17,13,08,06,11,30,14,02,,,,2.05,0.92,1.83,4*0D
$GPGSV,3,1,11,02,33,049,,05,67,052,,09,30,167,,10,10,109,,0*69
$GPGSV,3,2,11,12,58,070,,14,13,264,,21,14,200,,24,50,173,,0*68
$GPGSV,3,3,11,29,56,283,,30,61,345,,31,18,318,,0*53
$GAGSV,3,1,12,01,47,035,,02,04,063,,07,13,260,,08,56,298,,0*7B
$GAGSV,3,2,12,14,15,138,,15,18,086,,16,02,040,,17,45,300,,0*7B
$GAGSV,3,3,12,18,57,207,,19,16,165,,24,02,327,,25,26,053,,0*73
$GBGSV,4,1,13,01,39,129,34,02,56,188,34,04,39,124,34,06,45,207,34,0*7A
$GBGSV,4,2,13,08,38,318,34,11,22,093,34,13,49,171,34,14,54,073,34,0*78
$GBGSV,4,3,13,17,41,040,34,23,28,130,34,27,00,322,,29,03,238,,0*7B
$GBGSV,4,4,13,30,16,279,34,0*4A
$GNGLL,3113.99942,N,12130.87007,E,140518.00,A,A*78

$GNRMC,140519.00,A,3113.99946,N,12130.84492,E,90.887,270.05,010620,6.14,W,A,V*7A
$GNVTG,270.05,T,276.20,M,90.887,N,168.322,K,A*0E
$GNGGA,140519.00,3113.99946,N,12130.84492,E,1,09,0.92,40.0,M,9.9,M,,*45
$GNGSA,A,3,,,,,,,,,,,,,2.05,0.92,1.83,1*07
$GNGSA,A,3,,,,,,,,,,,,,2.05,0.92,1.83,3*05
$GNGSA,A,3,23,17,13,08,06,11,30,14,02,,,,2.05,0.92,1.83,4*0D
$GPGSV,3,1,11,02,33,049,,05,67,052,,09,30,167,,10,10,109,,0*69
$GPGSV,3,2,11,12,58,070,,14,13,264,,21,14,200,,24,50,173,,0*68
$GPGSV,3,3,11,29,56,283,,30,61,345,,31,18,318,,0*53
$GAGSV,3,1,12,01,47,035,,02,04,063,,07,13,260,,08,56,298,,0*7B
$GAGSV,3,2,12,14,15,138,,15,18,086,,16,02,040,,17,45,300,,0*7B
$GAGSV,3,3,12,18,57,207,,19,16,165,,24,02,327,,25,26,053,,0*73
$GBGSV,4,1,13,01,39,129,35,02,56,188,34,04,39,124,34,06,45,207,34,0*7B
$GBGSV,4,2,13,08,38,318,34,11,22,093,34,13,49,171,34,14,54,073,34,0*78
$GBGSV,4,3,13,17,41,040,34,23,28,130,34,27,00,322,,29,03,238,,0*7B
$GBGSV,4,4,13,30,16,279,34,0*4A
$GNGLL,3113.99946,N,12130.84492,E,140519.00,A,A*76

$GNRMC,140520.00,A,3113.99950,N,12130.81109,E,117.658,270.02,010620,6.14,W,A,V*40
$GNVTG,270.02,T,276.17,M,117.658,N,217.903,K,A*3D
$GNGGA,140520.00,3113.99950,N,12130.81109,E,1,09,0.92,40.1,M,9.9,M,,*4B
$GNGSA,A,3,,,,,,,,,,,,,2.05,0.92,1.83,1*07
$GNGSA,A,3,,,,,,,,,,,,,2.05,0.92,1.83,3*05
$GNGSA,A,3,23,17,13,08,06,11,30,14,02,,,,2.05,0.92,1.83,4*0D
$GPGSV,3,1,11,02,33,049,,05,67,052,,09,30,167,,10,10,109,,0*69
$GPGSV,3,2,11,12,58,070,,14,13,264,,21,14,200,,24,50,173,,0*68
$GPGSV,3,3,11,29,56,283,,30,61,345,,31,18,318,,0*53
$GAGSV,3,1,12,01,47,035,,02,04,063,,07,13,260,,08,56,298,,0*7B
$GAGSV,3,2,12,14,15,138,,15,18,086,,16,02,040,,17,45,300,,0*7B
$GAGSV,3,3,12,18,57,207,,19,16,165,,24,02,327,,25,26,053,,0*73
$GBGSV,4,1,13,01,39,129,34,02,56,188,34,04,39,124,34,06,45,207,34,0*7A
$GBGSV,4,2,13,08,38,318,34,11,22,093,34,13,49,171,34,14,54,073,34,0*78
$GBGSV,4,3,13,17,41,040,34,23,28,130,34,27,00,322,,29,03,238,,0*7B
$GBGSV,4,4,13,30,16,279,34,0*4A
$GNGLL,3113.99950,N,12130.81109,E,140520.00,A,A*79

$GNRMC,140521.00,A,3113.99953,N,12130.76861,E,144.308,270.03,010620,6.14,W,A,V*4A
$GNVTG,270.03,T,276.17,M,144.308,N,267.258,K,A*38
$GNGGA,140521.00,3113.99953,N,12130.76861,E,1,09,0.92,40.1,M,9.9,M,,*46
$GNGSA,A,3,,,,,,,,,,,,,2.05,0.92,1.83,1*07
$GNGSA,A,3,,,,,,,,,,,,,2.05,0.92,1.83,3*05
$GNGSA,A,3,23,17,13,08,06,11,30,14,02,,,,2.05,0.92,1.83,4*0D
$GPGSV,3,1,11,02,33,049,,05,67,052,,09,30,167,,10,10,109,,0*69
$GPGSV,3,2,11,12,58,070,,14,13,264,,21,14,200,,24,50,173,,0*68
$GPGSV,3,3,11,29,56,283,,30,61,345,,31,18,318,,0*53
$GAGSV,3,1,12,01,47,035,,02,04,063,,07,13,260,,08,56,298,,0*7B
$GAGSV,3,2,12,14,15,138,,15,18,086,,16,02,040,,17,45,300,,0*7B
$GAGSV,3,3,12,18,57,207,,19,16,165,,24,02,327,,25,26,053,,0*73
$GBGSV,4,1,13,01,39,129,35,02,56,188,34,04,39,124,34,06,45,207,34,0*7B
$GBGSV,4,2,13,08,38,318,34,11,22,093,34,13,49,171,34,14,54,073,34,0*78
$GBGSV,4,3,13,17,41,040,34,23,28,130,34,27,00,322,,29,04,239,,0*7D
$GBGSV,4,4,13,30,16,279,34,0*4A
$GNGLL,3113.99953,N,12130.76861,E,140521.00,A,A*74

$GNRMC,140522.00,A,3113.99956,N,12130.71895,E,161.777,270.02,010620,6.14,W,A,V*4A
$GNVTG,270.02,T,276.16,M,161.777,N,299.611,K,A*3B
$GNGGA,140522.00,3113.99956,N,12130.71895,E,1,09,0.92,40.1,M,9.9,M,,*4C
$GNGSA,A,3,,,,,,,,,,,,,2.05,0.92,1.83,1*07
$GNGSA,A,3,,,,,,,,,,,,,2.05,0.92,1.83,3*05
$GNGSA,A,3,23,17,13,08,06,11,30,14,02,,,,2.05,0.92,1.83,4*0D
$GPGSV,3,1,11,02,33,049,,05,67,052,,09,30,167,,10,10,109,,0*69
$GPGSV,3,2,11,12,58,070,,14,13,264,,21,14,200,,24,50,173,,0*68
$GPGSV,3,3,11,29,56,283,,30,61,345,,31,18,318,,0*53
$GAGSV,3,1,12,01,47,035,,02,04,063,,07,13,260,,08,56,298,,0*7B
$GAGSV,3,2,12,14,15,138,,15,18,086,,16,02,040,,17,45,300,,0*7B
$GAGSV,3,3,12,18,57,207,,19,16,165,,24,02,327,,25,26,053,,0*73
$GBGSV,4,1,13,01,39,129,34,02,56,188,34,04,39,124,34,06,45,207,34,0*7A
$GBGSV,4,2,13,08,38,318,34,11,22,093,34,13,49,171,34,14,54,073,34,0*78
$GBGSV,4,3,13,17,41,040,34,23,28,130,34,27,00,322,,29,04,239,,0*7D
$GBGSV,4,4,13,30,16,279,34,0*4A
$GNGLL,3113.99956,N,12130.71895,E,140522.00,A,A*7E

$GNRMC,140523.00,A,3113.99959,N,12130.66648,E,161.974,270.02,010620,6.14,W,A,V*41
$GNVTG,270.02,T,276.16,M,161.974,N,299.976,K,A*38
$GNGGA,140523.00,3113.99959,N,12130.66648,E,1,09,0.92,40.1,M,9.9,M,,*4A
$GNGSA,A,3,,,,,,,,,,,,,2.05,0.92,1.83,1*07
$GNGSA,A,3,,,,,,,,,,,,,2.05,0.92,1.83,3*05
$GNGSA,A,3,23,17,13,08,06,11,30,14,02,,,,2.05,0.92,1.83,4*0D
$GPGSV,3,1,11,02,33,049,,05,67,052,,09,30,167,,10,10,109,,0*69
$GPGSV,3,2,11,12,58,070,,14,13,264,,21,14,200,,24,50,173,,0*68
$GPGSV,3,3,11,29,56,283,,30,61,345,,31,18,318,,0*53
$GAGSV,3,1,12,01,47,035,,02,04,063,,07,13,260,,08,56,298,,0*7B
$GAGSV,3,2,12,14,15,138,,15,18,086,,16,02,040,,17,45,300,,0*7B
$GAGSV,3,3,12,18,57,207,,19,16,165,,24,02,327,,25,26,053,,0*73
$GBGSV,4,1,13,01,39,129,34,02,56,188,34,04,39,124,34,06,45,207,34,0*7A
$GBGSV,4,2,13,08,38,318,34,11,22,093,34,13,49,171,34,14,54,073,34,0*78
$GBGSV,4,3,13,17,41,040,34,23,28,130,34,27,00,322,,29,04,239,,0*7D
$GBGSV,4,4,13,30,16,279,34,0*4A
$GNGLL,3113.99959,N,12130.66648,E,140523.00,A,A*78

$GNRMC,140524.00,A,3113.99962,N,12130.61398,E,161.965,270.02,010620,6.14,W,A,V*41
$GNVTG,270.02,T,276.16,M,161.965,N,299.959,K,A*35
$GNGGA,140524.00,3113.99962,N,12130.61398,E,1,09,0.92,40.0,M,9.9,M,,*4B
$GNGSA,A,3,,,,,,,,,,,,,2.05,0.92,1.83,1*07
$GNGSA,A,3,,,,,,,,,,,,,2.05,0.92,1.83,3*05
$GNGSA,A,3,23,17,13,08,06,11,30,14,02,,,,2.05,0.92,1.83,4*0D
$GPGSV,3,1,11,02,33,049,,05,67,052,,09,30,167,,10,10,109,,0*69
$GPGSV,3,2,11,12,58,070,,14,13,264,,21,14,200,,24,50,173,,0*68
$GPGSV,3,3,11,29,56,283,,30,61,345,,31,18,318,,0*53
$GAGSV,3,1,12,01,47,035,,02,04,063,,07,13,260,,08,56,298,,0*7B
$GAGSV,3,2,12,14,15,138,,15,18,086,,16,02,040,,17,45,300,,0*7B
$GAGSV,3,3,12,18,57,207,,19,16,165,,24,02,327,,25,26,053,,0*73
$GBGSV,4,1,13,01,39,129,34,02,56,188,34,04,39,124,34,06,45,207,34,0*7A
$GBGSV,4,2,13,08,38,318,34,11,22,093,34,13,49,171,34,14,54,073,34,0*78
$GBGSV,4,3,13,17,41,040,34,23,28,130,34,27,00,322,,29,04,239,,0*7D
$GBGSV,4,4,13,30,16,279,34,0*4A
$GNGLL,3113.99962,N,12130.61398,E,140524.00,A,A*78

$GNRMC,140525.00,A,3113.99965,N,12130.56149,E,161.978,270.00,010620,6.14,W,A,V*43
$GNVTG,270.00,T,276.14,M,161.978,N,299.983,K,A*3E
$GNGGA,140525.00,3113.99965,N,12130.56149,E,1,09,0.92,40.0,M,9.9,M,,*47
$GNGSA,A,3,,,,,,,,,,,,,2.05,0.92,1.83,1*07
$GNGSA,A,3,,,,,,,,,,,,,2.05,0.92,1.83,3*05
$GNGSA,A,3,23,17,13,08,06,11,30,14,02,,,,2.05,0.92,1.83,4*0D
$GPGSV,3,1,11,02,33,049,,05,67,052,,09,30,167,,10,10,109,,0*69
$GPGSV,3,2,11,12,58,070,,14,13,264,,21,14,200,,24,50,173,,0*68
$GPGSV,3,3,11,29,56,283,,30,61,345,,31,18,318,,0*53
$GAGSV,3,1,12,01,47,035,,02,04,063,,07,13,260,,08,56,298,,0*7B
$GAGSV,3,2,12,14,15,138,,15,18,086,,16,02,040,,17,45,300,,0*7B
$GAGSV,3,3,12,18,57,207,,19,16,165,,24,02,327,,25,26,053,,0*73
$GBGSV,4,1,13,01,39,129,34,02,56,188,34,04,39,124,34,06,45,207,34,0*7A
$GBGSV,4,2,13,08,38,318,34,11,22,093,34,13,49,171,34,14,54,073,34,0*78
$GBGSV,4,3,13,17,41,040,34,23,28,130,34,27,00,322,,29,04,239,,0*7D
$GBGSV,4,4,13,30,16,279,34,0*4A
$GNGLL,3113.99965,N,12130.56149,E,140525.00,A,A*74

$GNRMC,140526.00,A,3113.99966,N,12130.50899,E,161.989,270.01,010620,6.14,W,A,V*4E
$GNVTG,270.01,T,276.15,M,161.989,N,300.004,K,A*37
$GNGGA,140526.00,3113.99966,N,12130.50899,E,1,09,0.92,40.0,M,9.9,M,,*45
$GNGSA,A,3,,,,,,,,,,,,,2.05,0.92,1.83,1*07
$GNGSA,A,3,,,,,,,,,,,,,2.05,0.92,1.83,3*05
$GNGSA,A,3,23,17,13,08,06,11,30,14,02,,,,2.05,0.92,1.83,4*0D
$GPGSV,3,1,11,02,33,049,,05,67,052,,09,30,167,,10,10,109,,0*69
$GPGSV,3,2,11,12,58,070,,14,13,264,,21,14,200,,24,50,173,,0*68
$GPGSV,3,3,11,29,56,283,,30,61,345,,31,18,318,,0*53
$GAGSV,3,1,12,01,47,035,,02,04,063,,07,13,260,,08,56,298,,0*7B
$GAGSV,3,2,12,14,15,138,,15,18,086,,16,02,040,,17,45,300,,0*7B
$GAGSV,3,3,12,18,57,207,,19,16,165,,24,02,327,,25,26,053,,0*73
$GBGSV,4,1,13,01,39,129,34,02,56,188,34,04,39,124,34,06,45,207,34,0*7A
$GBGSV,4,2,13,08,38,318,34,11,22,093,34,13,49,171,34,14,54,073,34,0*78
$GBGSV,4,3,13,17,41,040,34,23,28,130,34,27,00,322,,29,04,239,,0*7D
$GBGSV,4,4,13,30,16,279,34,0*4A
$GNGLL,3113.99966,N,12130.50899,E,140526.00,A,A*76

$GNRMC,140527.00,A,3113.99968,N,12130.45649,E,161.983,270.01,010620,6.14,W,A,V*4C
$GNVTG,270.01,T,276.15,M,161.983,N,299.992,K,A*3A
$GNGGA,140527.00,3113.99968,N,12130.45649,E,1,09,0.92,40.0,M,9.9,M,,*4D
$GNGSA,A,3,,,,,,,,,,,,,2.05,0.92,1.83,1*07
$GNGSA,A,3,,,,,,,,,,,,,2.05,0.92,1.83,3*05
$GNGSA,A,3,23,17,13,08,06,11,30,14,02,,,,2.05,0.92,1.83,4*0D
$GPGSV,3,1,11,02,33,049,,05,67,054,,09,30,167,,10,10,109,,0*6F
$GPGSV,3,2,11,12,58,070,,14,13,264,,21,14,200,,24,50,173,,0*68
$GPGSV,3,3,11,29,56,283,,30,61,345,,31,18,318,,0*53
$GAGSV,3,1,12,01,47,035,,02,04,063,,07,13,260,,08,56,298,,0*7B
$GAGSV,3,2,12,14,15,138,,15,18,086,,16,02,040,,17,45,300,,0*7B
$GAGSV,3,3,12,18,57,207,,19,16,165,,24,02,327,,25,26,053,,0*73
$GBGSV,4,1,13,01,39,129,34,02,56,188,34,04,39,124,34,06,45,207,34,0*7A
$GBGSV,4,2,13,08,38,318,34,11,22,093,34,13,49,171,34,14,54,073,34,0*78
$GBGSV,4,3,13,17,41,040,34,23,28,130,34,27,00,322,,29,04,239,,0*7D
$GBGSV,4,4,13,30,16,279,34,0*4A
$GNGLL,3113.99968,N,12130.45649,E,140527.00,A,A*7E

$GNRMC,140528.00,A,3113.99970,N,12130.40400,E,161.979,270.00,010620,6.14,W,A,V*44
$GNVTG,270.00,T,276.14,M,161.979,N,299.985,K,A*39
$GNGGA,140528.00,3113.99970,N,12130.40400,E,1,09,0.92,40.0,M,9.9,M,,*41
$GNGSA,A,3,,,,,,,,,,,,,2.05,0.92,1.83,1*07
$GNGSA,A,3,,,,,,,,,,,,,2.05,0.92,1.83,3*05
$GNGSA,A,3,23,17,13,08,06,11,30,14,02,,,,2.05,0.92,1.83,4*0D
$GPGSV,3,1,11,02,33,049,,05,67,054,,09,29,167,,10,10,109,,0*67
$GPGSV,3,2,11,12,58,070,,14,13,264,,21,14,200,,24,50,173,,0*68
$GPGSV,3,3,11,29,56,283,,30,61,345,,31,18,318,,0*53
$GAGSV,3,1,12,01,47,035,,02,04,063,,07,13,260,,08,56,298,,0*7B
$GAGSV,3,2,12,14,15,138,,15,18,086,,16,02,040,,17,45,300,,0*7B
$GAGSV,3,3,12,18,57,207,,19,16,165,,24,02,327,,25,26,053,,0*73
$GBGSV,4,1,13,01,39,129,34,02,56,188,34,04,39,124,34,06,45,207,34,0*7A
$GBGSV,4,2,13,08,38,318,34,11,22,093,34,13,49,171,34,14,54,073,34,0*78
$GBGSV,4,3,13,17,41,040,35,23,28,130,34,27,00,322,,29,04,239,,0*7C
$GBGSV,4,4,13,30,16,279,34,0*4A
$GNGLL,3113.99970,N,12130.40400,E,140528.00,A,A*72

$GNRMC,140529.00,A,3113.99972,N,12130.35151,E,161.981,270.00,010620,6.14,W,A,V*43
$GNVTG,270.00,T,276.14,M,161.981,N,299.990,K,A*3A
$GNGGA,140529.00,3113.99972,N,12130.35151,E,1,09,0.92,40.0,M,9.9,M,,*41
$GNGSA,A,3,,,,,,,,,,,,,2.05,0.92,1.83,1*07
$GNGSA,A,3,,,,,,,,,,,,,2.05,0.92,1.83,3*05
$GNGSA,A,3,23,17,13,08,06,11,30,14,02,,,,2.05,0.92,1.83,4*0D
$GPGSV,3,1,11,02,33,049,,05,67,054,,09,29,167,,10,10,109,,0*67
$GPGSV,3,2,11,12,58,070,,14,13,264,,21,14,200,,24,50,173,,0*68
$GPGSV,3,3,11,29,56,283,,30,61,345,,31,18,318,,0*53
$GAGSV,3,1,12,01,47,035,,02,04,063,,07,13,260,,08,56,298,,0*7B
$GAGSV,3,2,12,14,15,138,,15,18,086,,16,02,040,,17,45,300,,0*7B
$GAGSV,3,3,12,18,57,207,,19,16,165,,24,02,327,,25,26,053,,0*73
$GBGSV,4,1,13,01,39,129,34,02,56,188,34,04,39,124,34,06,45,207,34,0*7A
$GBGSV,4,2,13,08,38,318,34,11,22,093,34,13,49,171,34,14,54,073,34,0*78
$GBGSV,4,3,13,17,41,040,34,23,28,130,34,27,00,322,,29,04,239,,0*7D
$GBGSV,4,4,13,30,16,279,34,0*4A
$GNGLL,3113.99972,N,12130.35151,E,140529.00,A,A*72

$GNRMC,140530.00,A,3113.99972,N,12130.29901,E,162.012,270.00,010620,6.14,W,A,V*4B
$GNVTG,270.00,T,276.14,M,162.012,N,300.047,K,A*38
$GNGGA,140530.00,3113.99972,N,12130.29901,E,1,09,0.92,40.0,M,9.9,M,,*49
$GNGSA,A,3,,,,,,,,,,,,,2.05,0.92,1.83,1*07
$GNGSA,A,3,,,,,,,,,,,,,2.05,0.92,1.83,3*05
$GNGSA,A,3,23,17,13,08,06,11,30,14,02,,,,2.05,0.92,1.83,4*0D
$GPGSV,3,1,11,02,33,049,,05,67,054,,09,29,167,,10,10,109,,0*67
$GPGSV,3,2,11,12,57,071,,14,13,264,,21,14,200,,24,50,173,,0*66
$GPGSV,3,3,11,29,56,283,,30,61,345,,31,18,318,,0*53
$GAGSV,3,1,12,01,47,035,,02,04,063,,07,13,260,,08,56,298,,0*7B
$GAGSV,3,2,12,14,15,138,,15,18,086,,16,02,040,,17,45,300,,0*7B
$GAGSV,3,3,12,18,57,207,,19,16,165,,24,02,327,,25,26,053,,0*73
$GBGSV,4,1,13,01,39,129,34,02,56,188,34,04,39,124,34,06,45,207,34,0*7A
$GBGSV,4,2,13,08,38,318,34,11,22,093,34,13,49,171,34,14,54,073,34,0*78
$GBGSV,4,3,13,17,41,040,34,23,28,130,34,27,00,322,,29,04,239,,0*7D
$GBGSV,4,4,13,30,16,279,34,0*4A
$GNGLL,3113.99972,N,12130.29901,E,140530.00,A,A*7A

$GNRMC,140531.00,A,3113.99974,N,12130.24652,E,161.983,270.00,010620,6.14,W,A,V*4A
$GNVTG,270.00,T,276.14,M,161.983,N,299.993,K,A*3B
$GNGGA,140531.00,3113.99974,N,12130.24652,E,1,09,0.92,40.0,M,9.9,M,,*4A
$GNGSA,A,3,,,,,,,,,,,,,2.05,0.92,1.83,1*07
$GNGSA,A,3,,,,,,,,,,,,,2.05,0.92,1.83,3*05
$GNGSA,A,3,23,17,13,08,06,11,30,14,02,,,,2.05,0.92,1.83,4*0D
$GPGSV,3,1,11,02,33,049,,05,67,054,,09,29,167,,10,10,109,,0*67
$GPGSV,3,2,11,12,57,071,,14,13,263,,21,14,200,,24,50,173,,0*61
$GPGSV,3,3,11,29,56,283,,30,61,345,,31,18,318,,0*53
$GAGSV,3,1,12,01,47,035,,02,04,063,,07,13,260,,08,56,298,,0*7B
$GAGSV,3,2,12,14,15,138,,15,18,086,,16,02,040,,17,45,300,,0*7B
$GAGSV,3,3,12,18,57,207,,19,16,165,,24,02,327,,25,26,053,,0*73
$GBGSV,4,1,13,01,39,129,34,02,56,188,34,04,39,124,34,06,45,207,34,0*7A
$GBGSV,4,2,13,08,38,318,34,11,22,093,34,13,49,171,34,14,54,073,34,0*78
$GBGSV,4,3,13,17,41,040,34,23,28,130,34,27,00,322,,29,04,239,,0*7D
$GBGSV,4,4,13,30,16,279,34,0*4A
$GNGLL,3113.99974,N,12130.24652,E,140531.00,A,A*79

$GNRMC,140532.00,A,3113.99975,N,12130.19404,E,161.968,270.01,010620,6.14,W,A,V*43
$GNVTG,270.01,T,276.15,M,161.968,N,299.966,K,A*34
$GNGGA,140532.00,3113.99975,N,12130.19404,E,1,09,0.92,40.0,M,9.9,M,,*47
$GNGSA,A,3,,,,,,,,,,,,,2.05,0.92,1.83,1*07
$GNGSA,A,3,,,,,,,,,,,,,2.05,0.92,1.83,3*05
$GNGSA,A,3,23,17,13,08,06,11,30,14,02,,,,2.05,0.92,1.83,4*0D
$GPGSV,3,1,11,02,33,049,,05,67,054,,09,29,167,,10,10,109,,0*67
$GPGSV,3,2,11,12,57,071,,14,13,263,,21,14,201,,24,50,173,,0*60
$GPGSV,3,3,11,29,56,283,,30,61,345,,31,18,318,,0*53
$GAGSV,3,1,12,01,47,035,,02,04,063,,07,13,260,,08,56,298,,0*7B
$GAGSV,3,2,12,14,15,138,,15,18,086,,16,02,040,,17,45,300,,0*7B
$GAGSV,3,3,12,18,57,207,,19,16,165,,24,02,327,,25,26,053,,0*73
$GBGSV,4,1,13,01,39,129,34,02,56,188,34,04,39,124,34,06,45,207,34,0*7A
$GBGSV,4,2,13,08,38,318,34,11,22,093,34,13,49,171,34,14,54,073,34,0*78
$GBGSV,4,3,13,17,41,040,34,23,28,130,34,27,00,322,,29,04,239,,0*7D
$GBGSV,4,4,13,30,16,279,34,0*4A

$GNRMC,140533.00,A,3113.99976,N,12130.14388,E,147.657,270.00,010620,6.14,W,A,V*49
$GNVTG,270.00,T,276.14,M,147.657,N,273.461,K,A*3D
$GNGGA,140533.00,3113.99976,N,12130.14388,E,1,09,0.92,40.0,M,9.9,M,,*4B
$GNGSA,A,3,,,,,,,,,,,,,2.05,0.92,1.83,1*07
$GNGSA,A,3,,,,,,,,,,,,,2.05,0.92,1.83,3*05
$GNGSA,A,3,23,17,13,08,06,11,30,14,02,,,,2.05,0.92,1.83,4*0D
$GPGSV,3,1,11,02,33,049,,05,67,054,,09,29,167,,10,10,109,,0*67
$GPGSV,3,2,11,12,57,071,,14,13,263,,21,14,201,,24,51,173,,0*61
$GPGSV,3,3,11,29,56,283,,30,61,345,,31,18,318,,0*53
$GAGSV,3,1,12,01,47,035,,02,04,063,,07,13,260,,08,56,298,,0*7B
$GAGSV,3,2,12,14,15,138,,15,18,086,,16,02,040,,17,45,300,,0*7B
$GAGSV,3,3,12,18,57,207,,19,16,165,,24,02,327,,25,26,053,,0*73
$GBGSV,4,1,13,01,39,129,34,02,56,188,34,04,39,124,34,06,45,207,34,0*7A
$GBGSV,4,2,13,08,38,318,34,11,22,093,34,13,49,171,34,14,54,073,34,0*78
$GBGSV,4,3,13,17,41,040,34,23,28,130,34,27,00,322,,29,04,239,,0*7D
$GBGSV,4,4,13,30,16,279,34,0*4A

$GNRMC,140534.00,A,3113.99977,N,12130.10039,E,121.010,269.99,010620,6.14,W,A,V*4F
$GNVTG,269.99,T,276.13,M,121.010,N,224.110,K,A*36
$GNGGA,140534.00,3113.99977,N,12130.10039,E,1,09,0.92,40.0,M,9.9,M,,*40
$GNGSA,A,3,,,,,,,,,,,,,2.05,0.92,1.83,1*07
$GNGSA,A,3,,,,,,,,,,,,,2.05,0.92,1.83,3*05
$GNGSA,A,3,23,17,13,08,06,11,30,14,02,,,,2.05,0.92,1.83,4*0D
$GPGSV,3,1,11,02,33,049,,05,67,054,,09,29,167,,10,10,109,,0*67
$GPGSV,3,2,11,12,57,071,,14,13,263,,21,14,201,,24,51,173,,0*61
$GPGSV,3,3,11,29,57,284,,30,61,345,,31,18,318,,0*55
$GAGSV,3,1,12,01,47,035,,02,04,063,,07,13,260,,08,56,298,,0*7B
$GAGSV,3,2,12,14,15,138,,15,18,086,,16,02,040,,17,45,300,,0*7B
$GAGSV,3,3,12,18,57,207,,19,16,165,,24,02,327,,25,26,053,,0*73
$GBGSV,4,1,13,01,39,129,34,02,56,188,34,04,39,124,34,06,45,207,34,0*7A
$GBGSV,4,2,13,08,38,318,34,11,22,093,34,13,49,171,34,14,54,073,34,0*78
$GBGSV,4,3,13,17,41,040,34,23,28,130,34,27,00,322,,29,04,239,,0*7D
$GBGSV,4,4,13,30,16,279,34,0*4A

$GNRMC,140535.00,A,3113.99977,N,12130.06556,E,94.285,270.00,010620,6.14,W,A,V*7C
$GNVTG,270.00,T,276.14,M,94.285,N,174.615,K,A*0C
$GNGGA,140535.00,3113.99977,N,12130.06556,E,1,09,0.92,39.9,M,9.9,M,,*4D
$GNGSA,A,3,,,,,,,,,,,,,2.05,0.92,1.83,1*07
$GNGSA,A,3,,,,,,,,,,,,,2.05,0.92,1.83,3*05
$GNGSA,A,3,23,17,13,08,06,11,30,14,02,,,,2.05,0.92,1.83,4*0D
$GPGSV,3,1,11,02,33,049,,05,67,054,,09,29,167,,10,10,109,,0*67
$GPGSV,3,2,11,12,57,071,,14,13,263,,21,14,201,,24,51,173,06,0*67
$GPGSV,3,3,11,29,57,284,,30,61,346,,31,18,318,,0*56
$GAGSV,3,1,12,01,47,035,,02,04,063,,07,13,260,,08,56,298,,0*7B
$GAGSV,3,2,12,14,15,138,,15,18,086,,16,02,040,,17,45,300,,0*7B
$GAGSV,3,3,12,18,57,207,,19,16,165,,24,02,327,,25,26,053,,0*73
$GBGSV,4,1,13,01,39,129,34,02,56,188,34,04,39,124,34,06,45,207,34,0*7A
$GBGSV,4,2,13,08,38,318,34,11,22,093,34,13,49,171,34,14,54,073,34,0*78
$GBGSV,4,3,13,17,41,040,34,23,28,130,34,27,00,322,,29,04,239,,0*7D
$GBGSV,4,4,13,30,16,279,34,0*4A

$GNRMC,140536.00,A,3113.99978,N,12130.03939,E,67.549,269.95,010620,6.14,W,A,V*7F
$GNVTG,269.95,T,276.10,M,67.549,N,125.101,K,A*01
$GNGGA,140536.00,3113.99978,N,12130.03939,E,1,09,0.92,39.9,M,9.9,M,,*41
$GNGSA,A,3,,,,,,,,,,,,,2.05,0.92,1.83,1*07
$GNGSA,A,3,,,,,,,,,,,,,2.05,0.92,1.83,3*05
$GNGSA,A,3,23,17,13,08,06,11,30,14,02,,,,2.05,0.92,1.83,4*0D
$GPGSV,3,1,11,02,33,049,,05,67,054,,09,29,167,,10,10,109,,0*67
$GPGSV,3,2,11,12,57,071,,14,13,263,,21,14,201,,24,51,173,07,0*66
$GPGSV,3,3,11,29,57,284,,30,61,346,,31,19,318,,0*57
$GAGSV,3,1,12,01,47,035,,02,04,063,,07,13,260,,08,56,298,,0*7B
$GAGSV,3,2,12,14,15,138,,15,18,086,,16,02,040,,17,45,300,,0*7B
$GAGSV,3,3,12,18,57,207,,19,16,165,,24,02,327,,25,26,053,,0*73
$GBGSV,4,1,13,01,39,129,34,02,56,188,34,04,39,124,34,06,45,207,34,0*7A
$GBGSV,4,2,13,08,38,318,34,11,22,093,34,13,49,171,34,14,54,073,34,0*78
$GBGSV,4,3,13,17,41,040,34,23,28,130,34,27,00,322,,29,04,239,,0*7D
$GBGSV,4,4,13,30,16,279,34,0*4A

$GNRMC,140537.00,A,3113.99977,N,12130.02190,E,40.756,269.94,010620,6.14,W,A,V*73
$GNVTG,269.94,T,276.09,M,40.756,N,75.480,K,A*39
$GNGGA,140537.00,3113.99977,N,12130.02190,E,1,09,0.92,40.0,M,9.9,M,,*42
$GNGSA,A,3,,,,,,,,,,,,,2.05,0.92,1.83,1*07
$GNGSA,A,3,,,,,,,,,,,,,2.05,0.92,1.83,3*05
$GNGSA,A,3,23,17,13,08,06,11,30,14,02,,,,2.05,0.92,1.83,4*0D
$GPGSV,3,1,11,02,33,049,,05,67,054,,09,29,167,,10,10,109,,0*67
$GPGSV,3,2,11,12,57,071,,14,13,263,,21,14,201,,24,51,173,,0*61
$GPGSV,3,3,11,29,57,284,,30,61,346,,31,19,318,,0*57
$GAGSV,3,1,12,01,47,035,,02,04,063,,07,13,260,,08,56,298,,0*7B
$GAGSV,3,2,12,14,15,138,,15,18,086,,16,02,040,,17,45,300,,0*7B
$GAGSV,3,3,12,18,57,207,,19,16,165,,24,02,327,,25,26,053,,0*73
$GBGSV,4,1,13,01,39,129,34,02,56,188,34,04,39,124,34,06,45,207,34,0*7A
$GBGSV,4,2,13,08,38,318,34,11,22,093,34,13,49,171,34,14,54,073,34,0*78

$GNRMC,140538.00,A,3113.99987,N,12130.01263,E,16.824,272.34,010620,6.14,W,A,V*76
$GNVTG,272.34,T,278.49,M,16.824,N,31.159,K,A*3B
$GNGGA,140538.00,3113.99987,N,12130.01263,E,1,09,0.92,39.9,M,9.9,M,,*49
$GNGSA,A,3,,,,,,,,,,,,,2.05,0.92,1.83,1*07
$GNGSA,A,3,,,,,,,,,,,,,2.05,0.92,1.83,3*05
$GNGSA,A,3,23,17,13,08,06,11,30,14,02,,,,2.05,0.92,1.83,4*0D
$GPGSV,3,1,11,02,33,049,,05,67,054,,09,29,167,,10,10,109,,0*67
$GPGSV,3,2,11,12,57,071,,14,13,263,,21,14,201,,24,51,173,,0*61
$GPGSV,3,3,11,29,57,284,,30,61,346,,31,19,318,,0*57
$GAGSV,3,1,12,01,47,035,,02,04,063,,07,13,260,,08,56,298,,0*7B
$GAGSV,3,2,12,14,15,138,,15,18,086,,16,02,040,,17,45,300,,0*7B
$GAGSV,3,3,12,18,57,207,,19,16,165,,24,02,327,,25,26,053,,0*73
$GBGSV,4,1,13,01,39,129,34,02,56,188,34,04,39,124,34,06,45,207,34,0*7A
$GBGSV,4,2,13,08,38,318,34,11,22,093,34,13,49,171,34,14,54,073,34,0*78
$GBGSV,4,3,13,17,41,040,34,23,28,130,34,27,00,322,,29,04,239,,0*7D
$GBGSV,4,4,13,30,16,279,34,0*4A
$GNGLL,3113.99987,N,12130.01263,E,140538.00,A,A*7D

$GNRMC,140539.00,A,3114.00096,N,12130.00755,E,16.188,295.66,010620,6.14,W,A,V*79
$GNVTG,295.66,T,301.80,M,16.188,N,29.981,K,A*34
$GNGGA,140539.00,3114.00096,N,12130.00755,E,1,09,0.92,39.9,M,9.9,M,,*47
$GNGSA,A,3,,,,,,,,,,,,,2.05,0.92,1.83,1*07
$GNGSA,A,3,,,,,,,,,,,,,2.05,0.92,1.83,3*05
$GNGSA,A,3,23,17,13,08,06,11,30,14,02,,,,2.05,0.92,1.83,4*0D
$GPGSV,3,1,11,02,33,049,,05,67,054,,09,29,167,,10,10,109,,0*67
$GPGSV,3,2,11,12,57,071,,14,13,263,,21,14,201,,24,51,173,,0*61
$GPGSV,3,3,11,29,57,284,,30,61,346,,31,19,318,,0*57
$GAGSV,3,1,12,01,47,035,,02,04,063,,07,13,260,,08,56,298,,0*7B
$GAGSV,3,2,12,14,15,138,,15,18,086,,16,02,040,,17,45,300,,0*7B
$GAGSV,3,3,12,18,57,207,,19,16,165,,24,02,327,,25,26,053,,0*73
$GBGSV,4,1,13,01,39,129,34,02,56,188,34,04,39,124,34,06,45,207,34,0*7A
$GBGSV,4,2,13,08,38,318,34,11,22,093,34,13,49,171,34,14,54,073,34,0*78
$GBGSV,4,3,13,17,41,040,34,23,28,130,34,27,00,322,,29,04,239,,0*7D
$GBGSV,4,4,13,30,16,279,34,0*4A

$GNRMC,140540.00,A,3114.00367,N,12130.00348,E,16.156,319.44,010620,6.14,W,A,V*74
$GNVTG,319.44,T,325.58,M,16.156,N,29.921,K,A*3B
$GNGGA,140540.00,3114.00367,N,12130.00348,E,1,09,0.92,39.9,M,9.9,M,,*4C
$GNGSA,A,3,,,,,,,,,,,,,2.05,0.92,1.83,1*07
$GNGSA,A,3,,,,,,,,,,,,,2.05,0.92,1.83,3*05
$GNGSA,A,3,23,17,13,08,06,11,30,14,02,,,,2.05,0.92,1.83,4*0D
$GPGSV,3,1,11,02,33,049,,05,67,054,,09,29,167,,10,10,109,,0*67
$GPGSV,3,2,11,12,57,071,,14,13,263,,21,14,201,,24,51,173,,0*61
$GPGSV,3,3,11,29,57,284,,30,61,346,,31,19,318,,0*57
$GAGSV,3,1,12,01,47,035,,02,04,063,,07,13,260,,08,56,298,,0*7B
$GAGSV,3,2,12,14,15,138,,15,18,086,,16,02,040,,17,45,300,,0*7B
$GAGSV,3,3,12,18,57,207,,19,16,165,,24,02,327,,25,26,053,,0*73
$GBGSV,4,1,13,01,39,129,34,02,56,188,34,04,39,124,34,06,45,207,34,0*7A
$GBGSV,4,2,13,08,38,318,34,11,22,093,34,13,49,171,34,14,54,073,34,0*78
$GBGSV,4,3,13,17,41,040,34,23,28,130,34,27,00,322,,29,04,239,,0*7D
$GBGSV,4,4,13,30,16,279,34,0*4A

$GNRMC,140541.00,A,3114.00755,N,12130.00104,E,16.114,343.48,010620,6.14,W,A,V*7F
$GNVTG,343.48,T,349.62,M,16.114,N,29.843,K,A*38
$GNGGA,140541.00,3114.00755,N,12130.00104,E,1,09,0.92,39.9,M,9.9,M,,*42
$GNGSA,A,3,,,,,,,,,,,,,2.05,0.92,1.83,1*07
$GNGSA,A,3,,,,,,,,,,,,,2.05,0.92,1.83,3*05
$GNGSA,A,3,23,17,13,08,06,11,30,14,02,,,,2.05,0.92,1.83,4*0D
$GPGSV,3,1,11,02,33,049,,05,67,054,,09,29,167,,10,10,109,,0*67
$GPGSV,3,2,11,12,57,071,,14,13,263,,21,14,201,,24,51,173,,0*61
$GPGSV,3,3,11,29,57,284,,30,61,346,,31,19,318,,0*57
$GAGSV,3,1,12,01,47,035,,02,04,063,,07,13,260,,08,56,298,,0*7B
$GAGSV,3,2,12,14,15,138,,15,18,086,,16,02,040,,17,45,300,,0*7B
$GAGSV,3,3,12,18,57,207,,19,16,165,,24,02,327,,25,26,053,,0*73
$GBGSV,4,1,13,01,39,129,34,02,56,188,34,04,39,124,34,06,45,207,34,0*7A
$GBGSV,4,2,13,08,38,318,34,11,22,093,34,13,49,171,34,14,54,073,34,0*78
$GBGSV,4,3,13,17,41,040,34,23,28,130,34,27,00,322,,29,04,239,,0*7D

$GNRMC,140542.00,A,3114.01317,N,12130.00029,E,24.785,359.78,010620,6.14,W,A,V*76
$GNVTG,359.78,T,5.92,M,24.785,N,45.902,K,A*35
$GNGGA,140542.00,3114.01317,N,12130.00029,E,1,09,0.92,39.9,M,9.9,M,,*4C
$GNGSA,A,3,,,,,,,,,,,,,2.05,0.92,1.83,1*07
$GNGSA,A,3,,,,,,,,,,,,,2.05,0.92,1.83,3*05
$GNGSA,A,3,23,17,13,08,06,11,30,14,02,,,,2.05,0.92,1.83,4*0D
$GPGSV,3,1,11,02,33,049,,05,67,054,,09,29,167,,10,10,109,,0*67
$GPGSV,3,2,11,12,57,071,,14,13,263,,21,14,201,,24,51,173,,0*61
$GPGSV,3,3,11,29,57,284,,30,61,346,,31,19,318,,0*57
$GAGSV,3,1,12,01,47,035,,02,04,063,,07,13,260,,08,56,298,,0*7B
$GAGSV,3,2,12,14,15,138,,15,18,086,,16,02,040,,17,45,300,,0*7B
$GAGSV,3,3,12,18,57,207,,19,16,165,,24,02,327,,25,26,053,,0*73
$GBGSV,4,1,13,01,39,129,34,02,56,188,34,04,39,124,34,06,45,207,34,0*7A
$GBGSV,4,2,13,08,38,318,34,11,22,093,34,13,49,171,34,14,54,073,34,0*78
$GBGSV,4,3,13,17,41,040,34,23,28,130,34,27,00,322,,29,04,239,,0*7D

$GNRMC,140543.00,A,3114.02382,N,12130.00027,E,51.150,359.96,010620,6.14,W,A,V*7A
$GNVTG,359.96,T,6.10,M,51.150,N,94.730,K,A*33
$GNGGA,140543.00,3114.02382,N,12130.00027,E,1,09,0.92,39.9,M,9.9,M,,*4C
$GNGSA,A,3,,,,,,,,,,,,,2.05,0.92,1.83,1*07
$GNGSA,A,3,,,,,,,,,,,,,2.05,0.92,1.83,3*05
$GNGSA,A,3,23,17,13,08,06,11,30,14,02,,,,2.05,0.92,1.83,4*0D
$GPGSV,3,1,11,02,33,049,,05,67,054,,09,29,167,,10,10,109,,0*67
$GPGSV,3,2,11,12,57,071,,14,13,263,,21,14,201,,24,51,173,,0*61
$GPGSV,3,3,11,29,57,284,,30,61,346,,31,19,318,,0*57
$GAGSV,3,1,12,01,47,035,,02,04,063,,07,13,260,,08,56,298,,0*7B
$GAGSV,3,2,12,14,15,138,,15,18,086,,16,02,040,,17,45,300,,0*7B
$GAGSV,3,3,12,18,57,207,,19,16,165,,24,02,327,,25,26,053,,0*73
$GBGSV,4,1,13,01,39,129,34,02,56,188,34,04,39,124,34,06,45,207,34,0*7A
$GBGSV,4,2,13,08,38,318,34,11,22,093,34,13,49,171,34,14,54,073,34,0*78
$GBGSV,4,3,13,17,41,040,34,23,28,130,34,27,00,322,,29,04,239,,0*7D
$GBGSV,4,4,13,30,16,279,34,0*4A

$GNRMC,140544.00,A,3114.04187,N,12130.00026,E,77.869,359.95,010620,6.14,W,A,V*79
$GNVTG,359.95,T,6.09,M,77.869,N,144.213,K,A*07
$GNGGA,140544.00,3114.04187,N,12130.00026,E,1,09,0.92,40.0,M,9.9,M,,*4C
$GNGSA,A,3,,,,,,,,,,,,,2.05,0.92,1.83,1*07
$GNGSA,A,3,,,,,,,,,,,,,2.05,0.92,1.83,3*05
$GNGSA,A,3,23,17,13,08,06,11,30,14,02,,,,2.05,0.92,1.83,4*0D
$GPGSV,3,1,11,02,33,049,,05,67,054,,09,29,167,,10,10,109,,0*67
$GPGSV,3,2,11,12,57,071,,14,13,263,,21,14,201,,24,51,173,,0*61
$GPGSV,3,3,11,29,57,284,,30,61,346,,31,19,318,,0*57
$GAGSV,3,1,12,01,47,035,,02,04,063,,07,13,260,,08,56,298,,0*7B
$GAGSV,3,2,12,14,15,138,,15,18,086,,16,02,040,,17,45,300,,0*7B
$GAGSV,3,3,12,18,57,207,,19,16,165,,24,02,327,,25,26,053,,0*73
$GBGSV,4,1,13,01,39,129,34,02,56,188,34,04,39,124,34,06,45,207,34,0*7A
$GBGSV,4,2,13,08,38,318,34,11,22,093,34,13,49,171,34,14,54,073,34,0*78
$GBGSV,4,3,13,17,41,040,34,23,28,130,34,27,00,322,,29,04,239,,0*7D
$GBGSV,4,4,13,30,16,279,34,0*4A

$GNRMC,140545.00,A,3114.06736,N,12130.00024,E,104.632,359.99,010620,6.14,W,A,V*4D
$GNVTG,359.99,T,6.13,M,104.632,N,193.779,K,A*36
$GNGGA,140545.00,3114.06736,N,12130.00024,E,1,09,0.92,40.0,M,9.9,M,,*41
$GNGSA,A,3,,,,,,,,,,,,,2.05,0.92,1.83,1*07
$GNGSA,A,3,,,,,,,,,,,,,2.05,0.92,1.83,3*05
$GNGSA,A,3,23,17,13,08,06,11,30,14,02,,,,2.05,0.92,1.83,4*0D
$GPGSV,3,1,11,02,33,049,,05,67,054,,09,29,167,,10,10,109,,0*67
$GPGSV,3,2,11,12,57,071,,14,13,263,,21,14,201,,24,51,173,,0*61
$GPGSV,3,3,11,29,57,284,,30,61,346,,31,19,318,,0*57
$GAGSV,3,1,12,01,47,035,,02,04,063,,07,13,260,,08,56,298,,0*7B
$GAGSV,3,2,12,14,15,138,,15,18,086,,16,02,040,,17,45,300,,0*7B
$GAGSV,3,3,12,18,57,207,,19,16,165,,24,02,327,,25,26,053,,0*73
$GBGSV,4,1,13,01,39,129,34,02,56,188,34,04,39,124,34,06,45,207,34,0*7A
$GBGSV,4,2,13,08,38,318,34,11,22,093,34,13,49,171,34,14,54,073,34,0*78
$GBGSV,4,3,13,17,41,040,34,23,28,130,34,27,00,322,,29,04,239,,0*7D
$GBGSV,4,4,13,30,16,279,34,0*4A

$GNRMC,140546.00,A,3114.10031,N,12130.00024,E,131.392,359.99,010620,6.14,W,A,V*40
$GNVTG,359.99,T,6.14,M,131.392,N,243.339,K,A*36
$GNGGA,140546.00,3114.10031,N,12130.00024,E,1,09,0.92,39.9,M,9.9,M,,*42
$GNGSA,A,3,,,,,,,,,,,,,2.05,0.92,1.83,1*07
$GNGSA,A,3,,,,,,,,,,,,,2.05,0.92,1.83,3*05
$GNGSA,A,3,23,17,13,08,06,11,30,14,02,,,,2.05,0.92,1.83,4*0D
$GPGSV,3,1,11,02,33,049,,05,67,054,,09,29,167,,10,10,109,,0*67
$GPGSV,3,2,11,12,57,071,,14,13,263,,21,14,201,,24,51,173,,0*61
$GPGSV,3,3,11,29,57,284,,30,61,346,,31,19,318,,0*57
$GAGSV,3,1,12,01,47,035,,02,04,063,,07,13,260,,08,56,298,,0*7B
$GAGSV,3,2,12,14,15,138,,15,18,086,,16,02,040,,17,45,300,,0*7B
$GAGSV,3,3,12,18,57,207,,19,16,165,,24,02,327,,25,26,053,,0*73
$GBGSV,4,1,13,01,39,129,34,02,56,188,34,04,39,124,34,06,45,207,34,0*7A
$GBGSV,4,2,13,08,38,318,34,11,22,093,34,13,49,171,34,14,54,073,34,0*78
$GBGSV,4,3,13,17,41,040,34,23,28,130,34,27,00,322,,29,04,239,,0*7D

$GNRMC,140547.00,A,3114.14043,N,12130.00013,E,158.137,0.00,010620,6.14,W,A,V*49
$GNVTG,0.00,T,6.15,M,158.137,N,292.870,K,A*30
$GNGGA,140547.00,3114.14043,N,12130.00013,E,1,09,0.92,40.0,M,9.9,M,,*41
$GNGSA,A,3,,,,,,,,,,,,,2.05,0.92,1.83,1*07
$GNGSA,A,3,,,,,,,,,,,,,2.05,0.92,1.83,3*05
$GNGSA,A,3,23,17,13,08,06,11,30,14,02,,,,2.05,0.92,1.83,4*0D
$GPGSV,3,1,11,02,33,049,,05,67,054,,09,29,167,,10,10,109,,0*67
$GPGSV,3,2,11,12,57,071,,14,13,263,,21,14,201,,24,51,173,,0*61
$GPGSV,3,3,11,29,57,284,,30,61,346,,31,19,318,,0*57
$GAGSV,3,1,12,01,47,035,,02,04,063,,07,13,260,,08,56,298,,0*7B
$GAGSV,3,2,12,14,15,138,,15,18,086,,16,02,040,,17,45,300,,0*7B
$GAGSV,3,3,12,18,57,207,,19,16,165,,24,02,327,,25,26,053,,0*73
$GBGSV,4,1,13,01,39,129,34,02,56,188,34,04,39,124,34,06,45,207,34,0*7A
$GBGSV,4,2,13,08,38,318,34,11,22,093,34,13,49,171,34,14,54,073,34,0*78
$GBGSV,4,3,13,17,41,040,34,23,28,130,34,27,00,322,,29,04,239,,0*7D

$GNRMC,140548.00,A,3114.18512,N,12130.00005,E,161.928,0.00,010620,6.14,W,A,V*40
$GNVTG,0.00,T,6.14,M,161.928,N,299.891,K,A*39
$GNGGA,140548.00,3114.18512,N,12130.00005,E,1,10,0.89,40.1,M,9.9,M,,*47
$GNGSA,A,3,,,,,,,,,,,,,2.03,0.89,1.83,1*0B
$GNGSA,A,3,,,,,,,,,,,,,2.03,0.89,1.83,3*09
$GNGSA,A,3,23,17,13,08,06,11,30,14,02,01,,,2.03,0.89,1.83,4*00
$GPGSV,3,1,11,02,33,049,,05,67,054,,09,29,167,,10,10,109,,0*67
$GPGSV,3,2,11,12,57,071,,14,13,263,,21,14,201,,24,51,173,,0*61
$GPGSV,3,3,11,29,57,284,,30,61,346,,31,19,318,,0*57
$GAGSV,3,1,12,01,47,035,,02,04,063,,07,13,260,,08,56,298,,0*7B
$GAGSV,3,2,12,14,15,138,,15,18,086,,16,02,040,,17,45,300,,0*7B
$GAGSV,3,3,12,18,57,207,,19,16,165,,24,02,327,,25,26,053,,0*73
$GBGSV,4,1,13,01,39,129,34,02,56,188,34,04,39,124,34,06,45,207,34,0*7A
$GBGSV,4,2,13,08,38,318,34,11,22,093,34,13,49,171,34,14,54,073,34,0*78
$GBGSV,4,3,13,17,41,040,34,23,28,130,34,27,00,322,,29,04,239,,0*7D
$GBGSV,4,4,13,30,16,279,34,0*4A

$GNRMC,140549.00,A,3114.23028,N,12130.00003,E,161.966,0.00,010620,6.14,W,A,V*49
$GNVTG,0.00,T,6.14,M,161.966,N,299.962,K,A*3E
$GNGGA,140549.00,3114.23028,N,12130.00003,E,1,10,0.89,40.1,M,9.9,M,,*44
$GNGSA,A,3,,,,,,,,,,,,,2.03,0.89,1.83,1*0B
$GNGSA,A,3,,,,,,,,,,,,,2.03,0.89,1.83,3*09
$GNGSA,A,3,23,17,13,08,06,11,30,14,02,01,,,2.03,0.89,1.83,4*00
$GPGSV,3,1,11,02,33,049,,05,67,054,,09,29,167,,10,10,109,,0*67
$GPGSV,3,2,11,12,57,071,,14,13,263,,21,14,201,,24,51,173,,0*61
$GPGSV,3,3,11,29,57,284,,30,61,346,,31,19,318,,0*57
$GAGSV,3,1,12,01,47,035,,02,04,063,,07,13,260,,08,56,298,,0*7B
$GAGSV,3,2,12,14,15,138,,15,18,086,,16,02,040,,17,45,300,,0*7B
$GAGSV,3,3,12,18,57,207,,19,16,165,,24,02,327,,25,26,053,,0*73
$GBGSV,4,1,13,01,39,129,34,02,56,188,34,04,39,124,34,06,45,207,34,0*7A
$GBGSV,4,2,13,08,38,318,34,11,22,093,34,13,49,171,34,14,54,073,34,0*78
$GBGSV,4,3,13,17,41,040,34,23,28,130,34,27,00,322,,29,04,239,,0*7D
$GBGSV,4,4,13,30,16,279,34,0*4A

$GNRMC,140550.00,A,3114.27543,N,12130.00003,E,161.974,0.01,010620,6.14,W,A,V*4F
$GNVTG,0.01,T,6.15,M,161.974,N,299.976,K,A*38
$GNGGA,140550.00,3114.27543,N,12130.00003,E,1,10,0.89,40.1,M,9.9,M,,*40
$GNGSA,A,3,,,,,,,,,,,,,2.03,0.89,1.83,1*0B
$GNGSA,A,3,,,,,,,,,,,,,2.03,0.89,1.83,3*09
$GNGSA,A,3,23,17,13,08,06,11,30,14,02,01,,,2.03,0.89,1.83,4*00
$GPGSV,3,1,11,02,33,049,,05,67,054,,09,29,167,,10,10,109,,0*67
$GPGSV,3,2,11,12,57,071,,14,13,263,,21,14,201,,24,51,173,,0*61
$GPGSV,3,3,11,29,57,284,,30,61,346,,31,19,318,,0*57
$GAGSV,3,1,12,01,47,035,,02,04,063,,07,13,260,,08,56,298,,0*7B
$GAGSV,3,2,12,14,15,138,,15,18,086,,16,02,040,,17,45,300,,0*7B
$GAGSV,3,3,12,18,57,207,,19,16,165,,24,02,327,,25,26,053,,0*73
$GBGSV,4,1,13,01,39,129,34,02,56,188,34,04,39,124,34,06,45,207,34,0*7A
$GBGSV,4,2,13,08,38,318,34,11,22,093,34,13,49,171,34,14,54,073,34,0*78
$GBGSV,4,3,13,17,41,040,34,23,28,130,34,27,00,322,,29,04,239,,0*7D

$GNRMC,140551.00,A,3114.32057,N,12130.00003,E,161.993,0.00,010620,6.14,W,A,V*42
$GNVTG,0.00,T,6.14,M,161.993,N,300.011,K,A*38
$GNGGA,140551.00,3114.32057,N,12130.00003,E,1,10,0.89,40.2,M,9.9,M,,*46
$GNGSA,A,3,,,,,,,,,,,,,2.03,0.89,1.83,1*0B
$GNGSA,A,3,,,,,,,,,,,,,2.03,0.89,1.83,3*09
$GNGSA,A,3,23,17,13,08,06,11,30,14,02,01,,,2.03,0.89,1.83,4*00
$GPGSV,3,1,11,02,33,049,,05,67,054,,09,29,167,,10,10,109,,0*67
$GPGSV,3,2,11,12,57,071,,14,13,263,,21,14,201,,24,51,173,,0*61
$GPGSV,3,3,11,29,57,284,,30,61,346,,31,19,318,,0*57
$GAGSV,3,1,12,01,47,035,,02,04,063,,07,13,260,,08,56,298,,0*7B
$GAGSV,3,2,12,14,15,138,,15,18,086,,16,02,040,,17,45,300,,0*7B
$GAGSV,3,3,12,18,57,207,,19,16,165,,24,02,327,,25,26,053,,0*73
$GBGSV,4,1,13,01,39,129,34,02,56,188,34,04,39,124,34,06,45,207,34,0*7A
$GBGSV,4,2,13,08,38,318,34,11,22,093,34,13,49,171,34,14,54,073,34,0*78
$GBGSV,4,3,13,17,41,040,34,23,28,130,34,27,00,322,,29,04,239,,0*7D

$GNRMC,140552.00,A,3114.36541,N,12130.00003,E,159.728,359.99,010620,6.14,W,A,V*4D
$GNVTG,359.99,T,6.13,M,159.728,N,295.816,K,A*37
$GNGGA,140552.00,3114.36541,N,12130.00003,E,1,10,0.89,40.3,M,9.9,M,,*42
$GNGSA,A,3,,,,,,,,,,,,,2.03,0.89,1.83,1*0B
$GNGSA,A,3,,,,,,,,,,,,,2.03,0.89,1.83,3*09
$GNGSA,A,3,23,17,13,08,06,11,30,14,02,01,,,2.03,0.89,1.83,4*00
$GPGSV,3,1,11,02,33,049,,05,67,054,,09,29,167,,10,10,109,,0*67
$GPGSV,3,2,11,12,57,071,,14,13,263,,21,14,201,,24,51,173,,0*61
$GPGSV,3,3,11,29,57,284,,30,61,346,,31,19,318,,0*57
$GAGSV,3,1,12,01,47,035,,02,04,063,,07,13,260,,08,56,298,,0*7B
$GAGSV,3,2,12,14,15,138,,15,18,086,,16,02,040,,17,45,300,,0*7B
$GAGSV,3,3,12,18,57,207,,19,16,165,,24,02,327,,25,26,053,,0*73
$GBGSV,4,1,13,01,39,129,34,02,56,188,34,04,39,124,34,06,45,207,34,0*7A
$GBGSV,4,2,13,08,38,318,34,11,22,093,34,13,49,171,34,14,54,073,34,0*78
$GBGSV,4,3,13,17,41,040,34,23,28,130,34,27,00,322,,29,04,239,,0*7D
$GBGSV,4,4,13,30,16,279,34,0*4A

$GNRMC,140553.00,A,3114.40626,N,12130.00003,E,133.985,0.01,010620,6.14,W,A,V*44
$GNVTG,0.01,T,6.16,M,133.985,N,248.141,K,A*32
$GNGGA,140553.00,3114.40626,N,12130.00003,E,1,10,0.89,40.3,M,9.9,M,,*40
$GNGSA,A,3,,,,,,,,,,,,,2.03,0.89,1.83,1*0B
$GNGSA,A,3,,,,,,,,,,,,,2.03,0.89,1.83,3*09
$GNGSA,A,3,23,17,13,08,06,11,30,14,02,01,,,2.03,0.89,1.83,4*00
$GPGSV,3,1,11,02,33,049,,05,67,054,,09,29,167,,10,10,109,,0*67
$GPGSV,3,2,11,12,57,071,,14,13,263,,21,14,201,,24,51,173,,0*61
$GPGSV,3,3,11,29,57,284,,30,61,346,,31,19,318,,0*57
$GAGSV,3,1,12,01,47,035,,02,04,063,,07,13,260,,08,56,298,,0*7B
$GAGSV,3,2,12,14,15,138,,15,18,086,,16,02,040,,17,45,300,,0*7B
$GAGSV,3,3,12,18,57,207,,19,16,165,,24,02,327,,25,26,053,,0*73
$GBGSV,4,1,13,01,39,129,34,02,56,188,34,04,39,124,34,06,45,207,34,0*7A
$GBGSV,4,2,13,08,38,318,34,11,22,093,34,13,49,171,34,14,54,073,34,0*78
$GBGSV,4,3,13,17,41,040,34,23,28,130,34,27,00,322,,29,04,239,,0*7D
$GBGSV,4,4,13,30,16,279,34,0*4A

$GNRMC,140554.00,A,3114.43979,N,12130.00003,E,107.246,0.03,010620,6.14,W,A,V*44
$GNVTG,0.03,T,6.18,M,107.246,N,198.620,K,A*33
$GNGGA,140554.00,3114.43979,N,12130.00003,E,1,10,0.89,40.3,M,9.9,M,,*41
$GNGSA,A,3,,,,,,,,,,,,,2.03,0.89,1.83,1*0B
$GNGSA,A,3,,,,,,,,,,,,,2.03,0.89,1.83,3*09
$GNGSA,A,3,23,17,13,08,06,11,30,14,02,01,,,2.03,0.89,1.83,4*00
$GPGSV,3,1,11,02,33,049,,05,67,054,,09,29,167,,10,10,109,,0*67
$GPGSV,3,2,11,12,57,071,,14,13,263,,21,14,201,,24,51,173,,0*61
$GPGSV,3,3,11,29,57,284,,30,61,346,,31,19,318,,0*57
$GAGSV,3,1,12,01,47,035,,02,04,063,,07,13,260,,08,56,298,,0*7B
$GAGSV,3,2,12,14,15,138,,15,18,086,,16,02,040,,17,45,300,,0*7B
$GAGSV,3,3,12,18,57,207,,19,16,165,,24,02,327,,25,26,053,,0*73
$GBGSV,4,1,13,01,39,129,34,02,56,188,34,04,39,124,34,06,45,207,34,0*7A
$GBGSV,4,2,13,08,38,318,34,11,22,093,34,13,49,171,34,14,54,073,34,0*78
$GBGSV,4,3,13,17,41,040,34,23,28,130,34,27,00,322,,29,04,239,,0*7D

$GNRMC,140555.00,A,3114.46584,N,12130.00003,E,80.491,0.03,010620,6.14,W,A,V*7C
$GNVTG,0.03,T,6.17,M,80.491,N,149.070,K,A*01
$GNGGA,140555.00,3114.46584,N,12130.00003,E,1,10,0.89,40.4,M,9.9,M,,*4C
$GNGSA,A,3,,,,,,,,,,,,,2.03,0.89,1.83,1*0B
$GNGSA,A,3,,,,,,,,,,,,,2.03,0.89,1.83,3*09
$GNGSA,A,3,23,17,13,08,06,11,30,14,02,01,,,2.03,0.89,1.83,4*00
$GPGSV,3,1,11,02,33,049,,05,67,054,,09,29,167,,10,10,109,,0*67
$GPGSV,3,2,11,12,57,071,,14,13,263,,21,14,201,,24,51,173,,0*61
$GPGSV,3,3,11,29,57,284,,30,61,346,,31,19,318,,0*57
$GAGSV,3,1,12,01,47,035,,02,04,063,,07,14,261,,08,56,298,,0*7D
$GAGSV,3,2,12,14,15,138,,15,18,086,,16,02,040,,17,45,300,,0*7B
$GAGSV,3,3,12,18,57,207,,19,16,165,,24,02,327,,25,26,053,,0*73
$GBGSV,4,1,13,01,39,129,34,02,56,188,34,04,39,124,34,06,45,207,34,0*7A
$GBGSV,4,2,13,08,38,318,34,11,22,093,34,13,49,171,34,14,54,073,34,0*78
$GBGSV,4,3,13,17,41,040,34,23,28,130,34,27,00,322,,29,04,239,,0*7D
$GBGSV,4,4,13,30,16,279,34,0*4A

$GNRMC,140556.00,A,3114.48445,N,12130.00003,E,53.736,0.05,010620,6.14,W,A,V*7B
$GNVTG,0.05,T,6.20,M,53.736,N,99.520,K,A*3F
$GNGGA,140556.00,3114.48445,N,12130.00003,E,1,10,0.89,40.4,M,9.9,M,,*4D
$GNGSA,A,3,,,,,,,,,,,,,2.03,0.89,1.83,1*0B
$GNGSA,A,3,,,,,,,,,,,,,2.03,0.89,1.83,3*09
$GNGSA,A,3,23,17,13,08,06,11,30,14,02,01,,,2.03,0.89,1.83,4*00
$GPGSV,3,1,11,02,33,049,,05,67,054,,09,29,167,,10,10,109,,0*67
$GPGSV,3,2,11,12,57,071,,14,13,263,,21,14,201,,24,51,173,,0*61
$GPGSV,3,3,11,29,57,284,,30,61,346,,31,19,318,,0*57
$GAGSV,3,1,12,01,47,035,,02,04,063,,07,14,261,,08,56,299,,0*7C
$GAGSV,3,2,12,14,15,138,,15,18,086,,16,02,040,,17,45,300,,0*7B
$GAGSV,3,3,12,18,57,207,,19,16,165,,24,02,327,,25,26,053,,0*73
$GBGSV,4,1,13,01,39,129,34,02,56,188,34,04,39,124,34,06,45,207,34,0*7A
$GBGSV,4,2,13,08,38,318,34,11,22,093,34,13,49,171,34,14,54,073,34,0*78
$GBGSV,4,3,13,17,41,040,34,23,28,130,34,27,00,322,,29,04,239,,0*7D

