$GNRMC,120041.00,A,2302.55297,N,11300.00007,E,162.006,359.99,010821,4.12,W,A,V*4F
$GNVTG,359.99,T,4.11,M,162.006,N,300.035,K,A*30
$GNGGA,120041.00,2302.55297,N,11300.00007,E,1,11,0.90,55.9,M,-6.4,M,,*60
$GNGSA,A,3,,,,,,,,,,,,,1.99,0.90,1.78,1*07
$GNGSA,A,3,,,,,,,,,,,,,1.99,0.90,1.78,3*05
$GNGSA,A,3,09,13,26,30,27,02,20,06,08,29,04,,1.99,0.90,1.78,4*0A
$GPGSV,4,1,13,03,07,280,,05,12,128,,06,19,286,,12,02,126,,0*67
$GPGSV,4,2,13,14,01,197,,16,31,325,,18,29,140,,21,74,034,,0*6B
$GPGSV,4,3,13,22,15,172,,24,28,039,,29,27,049,,30,35,117,,0*67
$GPGSV,4,4,13,31,53,236,,0*54
$GAGSV,3,1,11,01,29,054,,07,21,291,,08,49,348,,13,24,170,,0*7B
$GAGSV,3,2,11,14,41,111,,15,19,055,,17,43,273,,18,37,201,,0*71
$GAGSV,3,3,11,19,02,164,,24,10,317,,25,11,071,,0*4E
$GBGSV,4,1,13,01,33,114,,02,65,150,34,04,36,112,34,06,65,257,34,0*71
$GBGSV,4,2,13,08,42,325,34,09,13,228,34,13,37,039,34,20,32,172,34,0*71
$GBGSV,4,3,13,25,00,252,,26,38,325,34,27,51,297,34,29,49,305,34,0*71
$GBGSV,4,4,13,30,49,354,35,0*4F
$GNGLL,2302.55297,N,11300.00007,E,120041.00,A,A*7A

$GNRMC,120042.00,A,2302.59813,N,11300.00006,E,161.985,359.99,010821,4.12,W,A,V*46
$GNVTG,359.99,T,4.11,M,161.985,N,299.997,K,A*31
$GNGGA,120042.00,2302.59813,N,11300.00006,E,1,11,0.90,55.9,M,-6.4,M,,*68
$GNGSA,A,3,,,,,,,,,,,,,1.99,0.90,1.78,1*07
$GNGSA,A,3,,,,,,,,,,,,,1.99,0.90,1.78,3*05
$GNGSA,A,3,09,13,26,30,27,02,20,06,08,29,04,,1.99,0.90,1.78,4*0A
$GPGSV,4,1,13,03,07,280,,05,12,128,,06,19,286,,12,02,126,,0*67
$GPGSV,4,2,13,14,01,197,,16,31,325,,18,29,140,,21,74,034,,0*6B
$GPGSV,4,3,13,22,15,172,,24,28,039,,29,27,049,,30,35,117,,0*67
$GPGSV,4,4,13,31,53,236,,0*54
$GAGSV,3,1,11,01,29,054,,07,21,291,,08,49,348,,13,24,170,,0*7B
$GAGSV,3,2,11,14,41,111,,15,19,055,,17,43,272,,18,37,201,,0*70
$GAGSV,3,3,11,19,02,164,,24,10,317,,25,11,071,,0*4E
$GBGSV,4,1,13,01,33,114,,02,65,150,34,04,36,112,34,06,65,257,34,0*71
$GBGSV,4,2,13,08,42,325,34,09,13,228,34,13,37,039,34,20,32,172,34,0*71
$GBGSV,4,3,13,25,00,252,,26,38,325,34,27,51,297,34,29,49,305,34,0*71
$GBGSV,4,4,13,30,49,354,35,0*4F
$GNGLL,2302.59813,N,11300.00006,E,120042.00,A,A*72

$GNRMC,120043.00,A,2302.64328,N,11300.00006,E,161.996,0.00,010821,4.12,W,A,V*47
$GNVTG,0.00,T,4.12,M,161.996,N,300.017,K,A*3F
$GNGGA,120043.00,2302.64328,N,11300.00006,E,1,11,0.90,55.8,M,-6.4,M,,*65
$GNGSA,A,3,,,,,,,,,,,,,1.99,0.90,1.78,1*07
$GNGSA,A,3,,,,,,,,,,,,,1.99,0.90,1.78,3*05
$GNGSA,A,3,09,13,26,30,27,02,20,06,08,29,04,,1.99,0.90,1.78,4*0A
$GPGSV,4,1,13,03,07,280,,05,12,128,,06,19,286,,12,02,126,,0*67
$GPGSV,4,2,13,14,01,197,,16,31,325,,18,29,140,,21,74,034,,0*6B
$GPGSV,4,3,13,22,15,172,,24,28,039,,29,27,049,,30,35,117,,0*67
$GPGSV,4,4,13,31,53,236,,0*54
$GAGSV,3,1,11,01,29,054,,07,21,291,,08,49,348,,13,24,170,,0*7B
$GAGSV,3,2,11,14,41,111,,15,19,055,,17,43,272,,18,37,200,,0*71
$GAGSV,3,3,11,19,02,164,,24,10,317,,25,11,071,,0*4E
$GBGSV,4,1,13,01,33,114,,02,65,150,34,04,36,112,34,06,65,257,34,0*71
$GBGSV,4,2,13,08,42,325,34,09,13,228,34,13,37,039,34,20,32,172,34,0*71
$GBGSV,4,3,13,25,00,252,,26,38,325,34,27,51,297,34,29,49,305,35,0*70
$GBGSV,4,4,13,30,49,354,34,0*4E
$GNGLL,2302.64328,N,11300.00006,E,120043.00,A,A*7E

$GNRMC,120044.00,A,2302.68843,N,11300.00007,E,161.985,0.00,010821,4.12,W,A,V*49
$GNVTG,0.00,T,4.12,M,161.985,N,299.997,K,A*3D
$GNGGA,120044.00,2302.68843,N,11300.00007,E,1,11,0.90,55.8,M,-6.4,M,,*69
$GNGSA,A,3,,,,,,,,,,,,,1.99,0.90,1.78,1*07
$GNGSA,A,3,,,,,,,,,,,,,1.99,0.90,1.78,3*05
$GNGSA,A,3,09,13,26,30,27,02,20,06,08,29,04,,1.99,0.90,1.78,4*0A
$GPGSV,4,1,13,03,07,280,,05,12,128,,06,19,286,,12,02,126,,0*67
$GPGSV,4,2,13,14,01,197,,16,31,325,,18,29,140,,21,74,034,,0*6B
$GPGSV,4,3,13,22,15,172,,24,28,039,,29,27,049,,30,35,117,,0*67
$GPGSV,4,4,13,31,53,236,,0*54
$GAGSV,3,1,11,01,29,054,,07,21,291,,08,49,348,,13,24,170,,0*7B
$GAGSV,3,2,11,14,41,111,,15,19,055,,17,43,272,,18,37,200,,0*71
$GAGSV,3,3,11,19,02,163,,24,10,317,,25,11,071,,0*49
$GBGSV,4,1,13,01,33,114,,02,65,150,34,04,36,112,34,06,65,257,34,0*71
$GBGSV,4,2,13,08,42,325,34,09,13,228,34,13,37,039,34,20,32,172,34,0*71
$GBGSV,4,3,13,25,00,252,,26,38,325,34,27,51,297,34,29,49,305,34,0*71
$GBGSV,4,4,13,30,49,354,34,0*4E
$GNGLL,2302.68843,N,11300.00007,E,120044.00,A,A*72

$GNRMC,120045.00,A,2302.73359,N,11300.00007,E,161.971,359.99,010821,4.12,W,A,V*46
$GNVTG,359.99,T,4.11,M,161.971,N,299.970,K,A*33
$GNGGA,120045.00,2302.73359,N,11300.00007,E,1,11,0.90,55.7,M,-6.4,M,,*6D
$GNGSA,A,3,,,,,,,,,,,,,1.99,0.90,1.78,1*07
$GNGSA,A,3,,,,,,,,,,,,,1.99,0.90,1.78,3*05
$GNGSA,A,3,09,13,26,30,27,02,20,06,08,29,04,,1.99,0.90,1.78,4*0A
$GPGSV,4,1,13,03,07,280,,05,12,128,,06,19,286,,12,02,126,,0*67
$GPGSV,4,2,13,14,01,197,,16,31,325,,18,29,140,,21,74,034,,0*6B
$GPGSV,4,3,13,22,15,172,,24,28,039,,29,27,049,,30,35,117,,0*67
$GPGSV,4,4,13,31,53,236,,0*54
$GAGSV,3,1,11,01,29,054,,07,21,291,,08,49,348,,13,24,170,,0*7B
$GAGSV,3,2,11,14,41,111,,15,19,055,,17,43,272,,18,37,200,,0*71
$GAGSV,3,3,11,19,02,163,,24,10,317,,25,11,071,,0*49
$GBGSV,4,1,13,01,33,114,,02,65,150,34,04,36,112,34,06,65,257,34,0*71
$GBGSV,4,2,13,08,42,325,34,09,13,228,34,13,37,039,34,20,32,172,34,0*71
$GBGSV,4,3,13,25,00,252,,26,38,325,34,27,51,297,34,29,49,305,34,0*71
$GBGSV,4,4,13,30,49,354,34,0*4E
$GNGLL,2302.73359,N,11300.00007,E,120045.00,A,A*79

$GNRMC,120046.00,A,2302.77874,N,11300.00006,E,161.982,0.00,010821,4.12,W,A,V*47
$GNVTG,0.00,T,4.12,M,161.982,N,299.990,K,A*3D
$GNGGA,120046.00,2302.77874,N,11300.00006,E,1,11,0.90,55.7,M,-6.4,M,,*6F
$GNGSA,A,3,,,,,,,,,,,,,1.99,0.90,1.78,1*07
$GNGSA,A,3,,,,,,,,,,,,,1.99,0.90,1.78,3*05
$GNGSA,A,3,09,13,26,30,27,02,20,06,08,29,04,,1.99,0.90,1.78,4*0A
$GPGSV,4,1,13,03,07,280,,05,12,128,,06,19,286,,12,02,126,,0*67
$GPGSV,4,2,13,14,01,197,,16,31,325,,18,29,140,,21,74,034,,0*6B
$GPGSV,4,3,13,22,15,172,,24,28,039,,29,27,049,,30,35,117,,0*67
$GPGSV,4,4,13,31,53,236,,0*54
$GAGSV,3,1,11,01,29,054,,07,21,291,,08,49,348,,13,24,170,,0*7B
$GAGSV,3,2,11,14,41,111,,15,19,055,,17,43,272,,18,37,200,,0*71
$GAGSV,3,3,11,19,02,163,,24,10,317,,25,11,071,,0*49
$GBGSV,4,1,13,01,33,114,,02,65,150,34,04,36,112,34,06,65,257,34,0*71
$GBGSV,4,2,13,08,42,325,34,09,13,228,34,13,37,039,34,20,32,172,34,0*71
$GBGSV,4,3,13,25,00,252,,26,38,325,34,27,51,297,34,29,49,305,34,0*71
$GBGSV,4,4,13,30,49,354,34,0*4E
$GNGLL,2302.77874,N,11300.00006,E,120046.00,A,A*7B

$GNRMC,120047.00,A,2302.82389,N,11300.00006,E,161.969,0.00,010821,4.12,W,A,V*40
$GNVTG,0.00,T,4.12,M,161.969,N,299.967,K,A*30
$GNGGA,120047.00,2302.82389,N,11300.00006,E,1,11,0.90,55.7,M,-6.4,M,,*6D
$GNGSA,A,3,,,,,,,,,,,,,1.99,0.90,1.78,1*07
$GNGSA,A,3,,,,,,,,,,,,,1.99,0.90,1.78,3*05
$GNGSA,A,3,09,13,26,30,27,02,20,06,08,29,04,,1.99,0.90,1.78,4*0A
$GPGSV,4,1,13,03,07,280,,05,12,128,,06,19,286,,12,02,126,,0*67
$GPGSV,4,2,13,14,01,197,,16,31,325,,18,29,140,,21,74,034,,0*6B
$GPGSV,4,3,13,22,15,172,,24,28,039,,29,27,049,,30,35,117,,0*67
$GPGSV,4,4,13,31,53,236,,0*54
$GAGSV,3,1,11,01,29,054,,07,21,291,,08,49,348,,13,24,170,,0*7B
$GAGSV,3,2,11,14,41,111,,15,19,055,,17,43,272,,18,37,200,,0*71
$GAGSV,3,3,11,19,02,163,,24,10,317,,25,11,071,,0*49
$GBGSV,4,1,13,01,33,114,,02,65,150,34,04,36,112,34,06,65,257,34,0*71
$GBGSV,4,2,13,08,42,325,34,09,13,228,34,13,37,039,34,20,32,172,34,0*71
$GBGSV,4,3,13,25,00,252,,26,38,325,34,27,51,297,34,29,49,305,34,0*71
$GBGSV,4,4,13,30,49,354,34,0*4E
$GNGLL,2302.82389,N,11300.00006,E,120047.00,A,A*79

$GNRMC,120048.00,A,2302.86904,N,11300.00005,E,161.968,359.99,010821,4.12,W,A,V*49
$GNVTG,359.99,T,4.11,M,161.968,N,299.965,K,A*3F
$GNGGA,120048.00,2302.86904,N,11300.00005,E,1,11,0.90,55.7,M,-6.4,M,,*6A
$GNGSA,A,3,,,,,,,,,,,,,1.99,0.90,1.78,1*07
$GNGSA,A,3,,,,,,,,,,,,,1.99,0.90,1.78,3*05
$GNGSA,A,3,09,13,26,30,27,02,20,06,08,29,04,,1.99,0.90,1.78,4*0A
$GPGSV,4,1,13,03,07,280,,05,12,128,,06,19,286,,12,02,126,,0*67
$GPGSV,4,2,13,14,01,197,,16,31,325,,18,29,140,,21,74,034,,0*6B
$GPGSV,4,3,13,22,15,172,,24,28,039,,29,27,049,,30,35,117,,0*67
$GPGSV,4,4,13,31,53,236,,0*54
$GAGSV,3,1,11,01,29,054,,07,21,291,,08,49,348,,13,24,170,,0*7B
$GAGSV,3,2,11,14,41,111,,15,19,055,,17,43,272,,18,37,200,,0*71
$GAGSV,3,3,11,19,02,163,,24,10,317,,25,11,071,,0*49
$GBGSV,4,1,13,01,33,114,,02,65,150,34,04,36,112,34,06,65,257,34,0*71
$GBGSV,4,2,13,08,42,325,34,09,13,228,34,13,37,039,34,20,32,172,34,0*71
$GBGSV,4,3,13,25,00,252,,26,38,325,34,27,51,297,34,29,49,305,34,0*71
$GBGSV,4,4,13,30,49,354,34,0*4E
$GNGLL,2302.86904,N,11300.00005,E,120048.00,A,A*7E

$GNRMC,120049.00,A,2302.91420,N,11300.00005,E,161.972,359.99,010821,4.12,W,A,V*4E
$GNVTG,359.99,T,4.11,M,161.972,N,299.972,K,A*32
$GNGGA,120049.00,2302.91420,N,11300.00005,E,1,11,0.90,55.6,M,-6.4,M,,*67
$GNGSA,A,3,,,,,,,,,,,,,1.99,0.90,1.78,1*07
$GNGSA,A,3,,,,,,,,,,,,,1.99,0.90,1.78,3*05
$GNGSA,A,3,09,13,26,30,27,02,20,06,08,29,04,,1.99,0.90,1.78,4*0A
$GPGSV,4,1,13,03,07,280,,05,12,128,,06,19,286,,12,02,126,,0*67
$GPGSV,4,2,13,14,01,197,,16,31,325,,18,29,140,,21,74,034,,0*6B
$GPGSV,4,3,13,22,15,172,,24,28,039,,29,27,049,,30,35,117,,0*67
$GPGSV,4,4,13,31,53,236,,0*54
$GAGSV,3,1,11,01,29,054,,07,21,291,,08,49,348,,13,24,170,,0*7B
$GAGSV,3,2,11,14,41,111,,15,19,055,,17,43,272,,18,37,200,,0*71
$GAGSV,3,3,11,19,02,163,,24,11,317,,25,11,071,,0*48
$GBGSV,4,1,13,01,33,114,,02,65,150,34,04,36,112,34,06,65,257,34,0*71
$GBGSV,4,2,13,08,42,325,34,09,13,228,34,13,37,039,34,20,32,172,34,0*71
$GBGSV,4,3,13,25,00,252,,26,38,325,34,27,51,297,34,29,49,305,34,0*71

$GNTXT,01,01,00,txbuf alloc*61

$GNRMC,120050.00,A,2302.95935,N,11300.00004,E,161.973,0.00,010821,4.12,W,A,V*44
$GNVTG,0.00,T,4.12,M,161.973,N,299.974,K,A*39
$GNGGA,120050.00,2302.95935,N,11300.00004,E,1,11,0.90,55.6,M,-6.4,M,,*63
$GNGSA,A,3,,,,,,,,,,,,,1.99,0.90,1.78,1*07
$GNGSA,A,3,,,,,,,,,,,,,1.99,0.90,1.78,3*05
$GNGSA,A,3,09,13,26,30,27,02,20,06,08,29,04,,1.99,0.90,1.78,4*0A
$GPGSV,4,1,13,03,07,280,,05,12,128,,06,19,286,,12,02,126,,0*67
$GPGSV,4,2,13,14,01,197,,16,31,325,,18,29,140,,21,74,034,,0*6B
$GPGSV,4,3,13,22,15,172,,24,28,039,,29,27,049,,30,35,117,,0*67
$GPGSV,4,4,13,31,53,236,,0*54
$GAGSV,3,1,11,01,29,054,,07,21,291,,08,49,348,,13,24,170,,0*7B
$GAGSV,3,2,11,14,41,111,,15,19,055,,17,43,272,,18,37,200,,0*71
$GAGSV,3,3,11,19,02,163,,24,11,317,,25,11,071,,0*48
$GBGSV,4,1,13,01,33,114,,02,65,150,34,04,36,112,34,06,65,257,34,0*71
$GBGSV,4,2,13,08,42,325,34,09,13,228,34,13,37,039,34,20,32,172,34,0*71
$GBGSV,4,3,13,25,00,252,,26,38,325,34,27,51,297,34,29,49,305,34,0*71

$GNRMC,120051.00,A,2303.00451,N,11300.00004,E,161.971,0.00,010821,4.12,W,A,V*45
$GNVTG,0.00,T,4.12,M,161.971,N,299.971,K,A*3E
$GNGGA,120051.00,2303.00451,N,11300.00004,E,1,11,0.90,55.5,M,-6.4,M,,*63
$GNGSA,A,3,,,,,,,,,,,,,1.99,0.90,1.77,1*08
$GNGSA,A,3,,,,,,,,,,,,,1.99,0.90,1.77,3*0A
$GNGSA,A,3,09,13,26,30,27,02,20,06,08,29,04,,1.99,0.90,1.77,4*05
$GPGSV,4,1,13,03,07,280,,05,12,128,,06,19,286,,12,02,126,,0*67
$GPGSV,4,2,13,14,01,197,,16,31,325,,18,29,140,,21,74,034,,0*6B
$GPGSV,4,3,13,22,15,172,,24,28,039,,29,27,049,,30,35,117,,0*67
$GPGSV,4,4,13,31,53,236,,0*54
$GAGSV,3,1,11,01,29,054,,07,21,291,,08,49,348,,13,24,170,,0*7B
$GAGSV,3,2,11,14,41,111,,15,19,055,,17,43,272,,18,37,200,,0*71
$GAGSV,3,3,11,19,02,163,,24,11,317,,25,11,071,,0*48
$GBGSV,4,1,13,01,33,114,,02,65,150,34,04,36,112,34,06,65,257,34,0*71
$GBGSV,4,2,13,08,42,325,34,09,13,228,34,13,37,039,34,20,32,172,34,0*71
$GBGSV,4,3,13,25,00,252,,26,38,325,34,27,51,297,34,29,49,305,34,0*71

$GNRMC,120052.00,A,2303.04966,N,11300.00004,E,161.987,359.99,010821,4.12,W,A,V*4D
$GNVTG,359.99,T,4.12,M,161.987,N,300.000,K,A*36
$GNGGA,120052.00,2303.04966,N,11300.00004,E,1,11,0.90,55.4,M,-6.4,M,,*6C
$GNGSA,A,3,,,,,,,,,,,,,1.99,0.90,1.77,1*08
$GNGSA,A,3,,,,,,,,,,,,,1.99,0.90,1.77,3*0A
$GNGSA,A,3,09,13,26,30,27,02,20,06,08,29,04,,1.99,0.90,1.77,4*05
$GPGSV,4,1,13,03,07,280,,05,12,128,,06,19,286,,12,02,126,,0*67
$GPGSV,4,2,13,14,01,197,,16,31,325,,18,29,140,,21,74,034,,0*6B
$GPGSV,4,3,13,22,15,172,,24,28,039,,29,27,049,,30,35,117,,0*67
$GPGSV,4,4,13,31,53,236,,0*54
$GAGSV,3,1,11,01,29,054,,07,21,291,,08,49,348,,13,24,170,,0*7B
$GAGSV,3,2,11,14,41,111,,15,19,055,,17,43,272,,18,37,200,,0*71
$GAGSV,3,3,11,19,02,163,,24,11,317,,25,11,071,,0*48
$GBGSV,4,1,13,01,33,114,,02,65,150,34,04,36,112,34,06,65,257,34,0*71
$GBGSV,4,2,13,08,42,325,34,09,13,228,34,13,37,039,34,20,32,172,34,0*71
$GBGSV,4,3,13,25,00,252,,26,38,325,34,27,51,297,34,29,49,305,34,0*71
$GBGSV,4,4,13,30,49,354,34,0*4E

$GNRMC,120053.00,A,2303.09482,N,11300.00003,E,161.996,0.01,010821,4.12,W,A,V*4F
$GNVTG,0.01,T,4.14,M,161.996,N,300.016,K,A*39
$GNGGA,120053.00,2303.09482,N,11300.00003,E,1,11,0.90,55.4,M,-6.4,M,,*60
$GNGSA,A,3,,,,,,,,,,,,,1.99,0.90,1.77,1*08
$GNGSA,A,3,,,,,,,,,,,,,1.99,0.90,1.77,3*0A
$GNGSA,A,3,09,13,26,30,27,02,20,06,08,29,04,,1.99,0.90,1.77,4*05
$GPGSV,4,1,13,03,07,280,,05,12,128,,06,19,286,,12,02,126,,0*67
$GPGSV,4,2,13,14,01,197,,16,31,325,,18,29,140,,21,74,034,,0*6B
$GPGSV,4,3,13,22,15,172,,24,28,039,,29,27,049,,30,35,117,,0*67
$GPGSV,4,4,13,31,53,236,,0*54
$GAGSV,3,1,11,01,29,054,,07,21,291,,08,49,348,,13,24,170,,0*7B
$GAGSV,3,2,11,14,41,111,,15,19,055,,17,43,272,,18,37,200,,0*71
$GAGSV,3,3,11,19,02,163,,24,11,317,,25,11,071,,0*48
$GBGSV,4,1,13,01,33,114,,02,65,150,34,04,36,112,34,06,65,257,34,0*71
$GBGSV,4,2,13,08,42,325,34,09,13,228,34,13,37,039,34,20,32,172,34,0*71
$GBGSV,4,3,13,25,00,252,,26,38,325,34,27,51,297,34,29,49,305,34,0*71

$GNRMC,120054.00,A,2303.13997,N,11300.00004,E,161.989,0.00,010821,4.12,W,A,V*42
$GNVTG,0.00,T,4.12,M,161.989,N,300.004,K,A*33
$GNGGA,120054.00,2303.13997,N,11300.00004,E,1,11,0.90,55.3,M,-6.4,M,,*65
$GNGSA,A,3,,,,,,,,,,,,,1.99,0.90,1.77,1*08
$GNGSA,A,3,,,,,,,,,,,,,1.99,0.90,1.77,3*0A
$GNGSA,A,3,09,13,26,30,27,02,20,06,08,29,04,,1.99,0.90,1.77,4*05
$GPGSV,4,1,13,03,07,280,,05,12,128,,06,19,286,,12,02,126,,0*67
$GPGSV,4,2,13,14,01,197,,16,31,325,,18,29,140,,21,74,034,,0*6B
$GPGSV,4,3,13,22,15,172,,24,28,039,,29,27,049,,30,35,117,,0*67
$GPGSV,4,4,13,31,53,236,,0*54
$GAGSV,3,1,11,01,29,054,,07,21,291,,08,49,348,,13,24,170,,0*7B
$GAGSV,3,2,11,14,41,111,,15,19,055,,17,43,272,,18,37,200,,0*71
$GAGSV,3,3,11,19,02,163,,24,11,317,,25,11,071,,0*48
$GBGSV,4,1,13,01,33,114,,02,65,150,34,04,36,112,34,06,65,257,34,0*71
$GBGSV,4,2,13,08,42,325,34,09,13,228,34,13,37,039,34,20,32,172,34,0*71

$GNTXT,01,01,00,txbuf alloc*61

$GNRMC,120055.00,A,2303.18513,N,11300.00004,E,161.983,0.00,010821,4.12,W,A,V*42
$GNVTG,0.00,T,4.12,M,161.983,N,299.993,K,A*3F
$GNGGA,120055.00,2303.18513,N,11300.00004,E,1,11,0.90,55.3,M,-6.4,M,,*6F
$GNGSA,A,3,,,,,,,,,,,,,1.99,0.90,1.77,1*08
$GNGSA,A,3,,,,,,,,,,,,,1.99,0.90,1.77,3*0A
$GNGSA,A,3,09,13,26,30,27,02,20,06,08,29,04,,1.99,0.90,1.77,4*05
$GPGSV,4,1,13,03,07,280,,05,12,128,,06,19,286,,12,02,126,,0*67
$GPGSV,4,2,13,14,01,197,,16,31,325,,18,29,140,,21,74,034,,0*6B
$GPGSV,4,3,13,22,15,172,,24,28,039,,29,27,049,,30,35,117,,0*67
$GPGSV,4,4,13,31,53,236,,0*54
$GAGSV,3,1,11,01,29,054,,07,21,291,,08,49,348,,13,24,170,,0*7B
$GAGSV,3,2,11,14,41,111,,15,19,055,,17,43,272,,18,37,200,,0*71
$GAGSV,3,3,11,19,02,163,,24,11,317,,25,11,071,,0*48
$GBGSV,4,1,13,01,33,114,,02,65,150,34,04,36,112,34,06,65,257,34,0*71
$GBGSV,4,2,13,08,42,325,34,09,13,228,34,13,37,039,34,20,32,172,34,0*71
$GBGSV,4,3,13,25,00,252,,26,38,325,34,27,51,297,34,29,49,305,34,0*71

$GNRMC,120056.00,A,2303.23028,N,11300.00004,E,161.996,0.01,010821,4.12,W,A,V*41
$GNVTG,0.01,T,4.13,M,161.996,N,300.016,K,A*3E
$GNGGA,120056.00,2303.23028,N,11300.00004,E,1,11,0.90,55.3,M,-6.4,M,,*69
$GNGSA,A,3,,,,,,,,,,,,,1.99,0.90,1.77,1*08
$GNGSA,A,3,,,,,,,,,,,,,1.99,0.90,1.77,3*0A
$GNGSA,A,3,09,13,26,30,27,02,20,06,08,29,04,,1.99,0.90,1.77,4*05
$GPGSV,4,1,13,03,07,280,,05,12,128,,06,19,286,,12,02,126,,0*67
$GPGSV,4,2,13,14,01,197,,16,31,325,,18,29,140,,21,74,034,,0*6B
$GPGSV,4,3,13,22,15,172,,24,28,039,,29,27,049,,30,35,117,,0*67
$GPGSV,4,4,13,31,53,236,,0*54
$GAGSV,3,1,11,01,29,054,,07,21,291,,08,49,348,,13,24,170,,0*7B
$GAGSV,3,2,11,14,41,111,,15,19,055,,17,43,272,,18,37,200,,0*71
$GAGSV,3,3,11,19,02,163,,24,11,317,,25,11,071,,0*48
$GBGSV,4,1,13,01,33,114,,02,65,150,34,04,36,112,34,06,65,257,34,0*71
$GBGSV,4,2,13,08,42,325,34,09,13,228,34,13,37,039,34,20,32,172,34,0*71
$GBGSV,4,3,13,25,00,252,,26,38,325,34,27,51,297,34,29,49,305,34,0*71

$GNRMC,120057.00,A,2303.27544,N,11300.00004,E,161.982,0.00,010821,4.12,W,A,V*4F
$GNVTG,0.00,T,4.12,M,161.982,N,299.991,K,A*3C
$GNGGA,120057.00,2303.27544,N,11300.00004,E,1,11,0.90,55.3,M,-6.4,M,,*63
$GNGSA,A,3,,,,,,,,,,,,,1.99,0.90,1.77,1*08
$GNGSA,A,3,,,,,,,,,,,,,1.99,0.90,1.77,3*0A
$GNGSA,A,3,09,13,26,30,27,02,20,06,08,29,04,,1.99,0.90,1.77,4*05
$GPGSV,4,1,13,03,07,280,,05,12,128,,06,19,286,,12,02,126,,0*67
$GPGSV,4,2,13,14,01,197,,16,31,325,,18,29,140,,21,74,034,,0*6B
$GPGSV,4,3,13,22,15,172,,24,28,039,,29,27,049,,30,35,117,,0*67
$GPGSV,4,4,13,31,53,236,,0*54
$GAGSV,3,1,11,01,29,054,,07,21,291,,08,49,348,,13,24,170,,0*7B
$GAGSV,3,2,11,14,41,111,,15,19,055,,17,43,272,,18,37,200,,0*71
$GAGSV,3,3,11,19,02,163,,24,11,317,,25,11,071,,0*48
$GBGSV,4,1,13,01,33,114,,02,65,150,34,04,36,112,34,06,65,257,34,0*71
$GBGSV,4,2,13,08,42,325,34,09,13,228,34,13,37,039,34,20,32,172,34,0*71
$GBGSV,4,3,13,25,00,252,,26,38,325,34,27,51,297,34,29,49,305,34,0*71

$GNRMC,120058.00,A,2303.32059,N,11300.00003,E,161.966,0.00,010821,4.12,W,A,V*40
$GNVTG,0.00,T,4.12,M,161.966,N,299.961,K,A*39
$GNGGA,120058.00,2303.32059,N,11300.00003,E,1,11,0.90,55.3,M,-6.4,M,,*66
$GNGSA,A,3,,,,,,,,,,,,,1.99,0.90,1.77,1*08
$GNGSA,A,3,,,,,,,,,,,,,1.99,0.90,1.77,3*0A
$GNGSA,A,3,09,13,26,30,27,02,20,06,08,29,04,,1.99,0.90,1.77,4*05
$GPGSV,4,1,13,03,07,280,,05,12,128,,06,19,286,,12,02,126,,0*67
$GPGSV,4,2,13,14,01,197,,16,31,325,,18,29,140,,21,74,034,,0*6B
$GPGSV,4,3,13,22,15,172,,24,28,039,,29,27,049,,30,35,117,,0*67
$GPGSV,4,4,13,31,53,236,,0*54
$GAGSV,3,1,11,01,29,054,,07,21,291,,08,49,348,,13,24,170,,0*7B
$GAGSV,3,2,11,14,41,111,,15,19,055,,17,43,272,,18,37,200,,0*71
$GAGSV,3,3,11,19,02,163,,24,11,317,,25,11,071,,0*48
$GBGSV,4,1,13,01,33,114,34,02,65,150,34,04,36,112,34,06,65,257,34,0*76
$GBGSV,4,2,13,08,42,325,34,09,13,228,34,13,37,039,34,20,32,172,34,0*71
$GBGSV,4,3,13,25,00,252,,26,38,325,34,27,51,297,34,29,49,305,34,0*71

$GNRMC,120059.00,A,2303.36573,N,11300.00004,E,162.005,359.98,010821,4.12,W,A,V*4E
$GNVTG,359.98,T,4.10,M,162.005,N,300.034,K,A*32
$GNGGA,120059.00,2303.36573,N,11300.00004,E,1,11,0.90,55.3,M,-6.4,M,,*69
$GNGSA,A,3,,,,,,,,,,,,,1.99,0.90,1.77,1*08
$GNGSA,A,3,,,,,,,,,,,,,1.99,0.90,1.77,3*0A
$GNGSA,A,3,09,13,26,30,27,02,20,06,08,29,04,,1.99,0.90,1.77,4*05
$GPGSV,4,1,13,03,07,280,,05,12,128,,06,19,286,,12,02,126,,0*67
$GPGSV,4,2,13,14,01,197,,16,31,325,,18,29,140,,21,74,034,,0*6B
$GPGSV,4,3,13,22,15,172,,24,28,039,,29,27,049,,30,35,117,,0*67
$GPGSV,4,4,13,31,53,236,,0*54
$GAGSV,3,1,11,01,29,054,,07,21,291,,08,49,348,,13,24,170,,0*7B
$GAGSV,3,2,11,14,41,111,,15,19,055,,17,43,272,,18,37,200,,0*71
$GAGSV,3,3,11,19,02,163,,24,11,317,,25,11,071,,0*48
$GBGSV,4,1,13,01,33,114,34,02,65,150,34,04,36,112,34,06,65,257,34,0*76
$GBGSV,4,2,13,08,42,325,34,09,13,228,34,13,37,039,34,20,32,172,34,0*71
$GBGSV,4,3,13,25,00,252,,26,38,325,34,27,51,297,34,29,49,305,34,0*71

$GNTXT,01,01,00,txbuf alloc*61

$GNRMC,120100.00,A,2303.41088,N,11300.00002,E,161.962,359.99,010821,4.12,W,A,V*4E
$GNVTG,359.99,T,4.12,M,161.962,N,299.953,K,A*33
$GNGGA,120100.00,2303.41088,N,11300.00002,E,1,11,0.90,55.3,M,-6.4,M,,*63
$GNGSA,A,3,,,,,,,,,,,,,1.99,0.90,1.77,1*08
$GNGSA,A,3,,,,,,,,,,,,,1.99,0.90,1.77,3*0A
$GNGSA,A,3,09,13,26,30,27,02,20,06,08,29,04,,1.99,0.90,1.77,4*05
$GPGSV,4,1,13,03,07,280,,05,12,128,,06,19,286,,12,02,126,,0*67
$GPGSV,4,2,13,14,01,197,,16,31,325,,18,29,140,,21,74,034,,0*6B
$GPGSV,4,3,13,22,15,172,,24,28,039,,29,27,049,,30,35,117,,0*67
$GPGSV,4,4,13,31,53,236,,0*54
$GAGSV,3,1,11,01,29,054,,07,21,291,,08,49,348,,13,24,170,,0*7B
$GAGSV,3,2,11,14,41,111,,15,19,055,,17,43,272,,18,37,200,,0*71
$GAGSV,3,3,11,19,02,163,,24,11,317,,25,11,071,,0*48
$GBGSV,4,1,13,01,33,114,34,02,65,150,34,04,36,112,34,06,65,257,34,0*76
$GBGSV,4,2,13,08,42,325,34,09,13,228,34,13,37,039,34,20,32,172,34,0*71

$GNRMC,120101.00,A,2303.45603,N,11300.00001,E,161.955,0.01,010821,4.12,W,A,V*47
$GNVTG,0.01,T,4.14,M,161.955,N,299.941,K,A*3C
$GNGGA,120101.00,2303.45603,N,11300.00001,E,1,11,0.90,55.4,M,-6.4,M,,*67
$GNGSA,A,3,,,,,,,,,,,,,1.99,0.90,1.77,1*08
$GNGSA,A,3,,,,,,,,,,,,,1.99,0.90,1.77,3*0A
$GNGSA,A,3,09,13,26,30,27,02,20,06,08,29,04,,1.99,0.90,1.77,4*05
$GPGSV,4,1,13,03,07,280,,05,12,128,,06,19,286,,12,02,126,,0*67
$GPGSV,4,2,13,14,01,197,,16,31,325,,18,29,140,,21,74,034,,0*6B
$GPGSV,4,3,13,22,15,172,,24,28,039,,29,27,049,,30,35,117,,0*67
$GPGSV,4,4,13,31,53,236,,0*54
$GAGSV,3,1,11,01,29,054,,07,21,291,,08,49,348,,13,24,170,,0*7B
$GAGSV,3,2,11,14,41,111,,15,19,055,,17,43,272,,18,37,200,,0*71
$GAGSV,3,3,11,19,02,163,,24,11,317,,25,11,071,,0*48
$GBGSV,4,1,13,01,33,114,34,02,65,150,34,04,36,112,34,06,65,257,34,0*76
$GBGSV,4,2,13,08,42,325,34,09,14,228,34,13,37,039,34,20,32,172,34,0*76
$GBGSV,4,3,13,25,00,252,,26,38,325,34,27,51,297,34,29,49,305,34,0*71

$GNRMC,120102.00,A,2303.50117,N,11300.00001,E,161.986,0.00,010821,4.12,W,A,V*4D
$GNVTG,0.00,T,4.13,M,161.986,N,299.999,K,A*31
$GNGGA,120102.00,2303.50117,N,11300.00001,E,1,11,0.90,55.4,M,-6.4,M,,*62
$GNGSA,A,3,,,,,,,,,,,,,1.99,0.90,1.77,1*08
$GNGSA,A,3,,,,,,,,,,,,,1.99,0.90,1.77,3*0A
$GNGSA,A,3,09,13,26,30,27,02,20,06,08,29,04,,1.99,0.90,1.77,4*05
$GPGSV,4,1,13,03,07,280,,05,12,128,,06,19,286,,12,02,126,,0*67
$GPGSV,4,2,13,14,01,197,,16,31,325,,18,29,140,,21,74,034,,0*6B
$GPGSV,4,3,13,22,15,172,,24,28,039,,29,27,049,,30,35,117,,0*67
$GPGSV,4,4,13,31,53,236,,0*54
$GAGSV,3,1,11,01,29,054,,07,21,291,,08,49,348,,13,24,170,,0*7B
$GAGSV,3,2,11,14,41,111,,15,19,055,,17,43,272,,18,37,200,,0*71
$GAGSV,3,3,11,19,02,163,,24,11,317,,25,11,071,,0*48
$GBGSV,4,1,13,01,33,114,34,02,65,150,34,04,36,112,34,06,65,257,34,0*76
$GBGSV,4,2,13,08,42,325,34,09,14,228,34,13,37,039,34,20,32,172,34,0*76
$GBGSV,4,3,13,25,00,252,,26,38,325,34,27,51,297,34,29,49,305,34,0*71

$GNRMC,120103.00,A,2303.54632,N,11300.00001,E,161.971,0.01,010821,4.12,W,A,V*41
$GNVTG,0.01,T,4.13,M,161.971,N,299.970,K,A*3F
$GNGGA,120103.00,2303.54632,N,11300.00001,E,1,11,0.90,55.4,M,-6.4,M,,*67
$GNGSA,A,3,,,,,,,,,,,,,1.99,0.90,1.77,1*08
$GNGSA,A,3,,,,,,,,,,,,,1.99,0.90,1.77,3*0A
$GNGSA,A,3,09,13,26,30,27,02,20,06,08,29,04,,1.99,0.90,1.77,4*05
$GPGSV,4,1,13,03,07,280,,05,12,128,,06,19,286,,12,02,126,,0*67
$GPGSV,4,2,13,14,01,197,,16,31,325,,18,29,140,,21,74,034,,0*6B
$GPGSV,4,3,13,22,15,172,,24,28,039,,29,27,049,,30,35,117,,0*67
$GPGSV,4,4,13,31,53,236,,0*54
$GAGSV,3,1,11,01,29,054,,07,21,291,,08,49,348,,13,24,170,,0*7B
$GAGSV,3,2,11,14,41,111,,15,19,055,,17,43,272,,18,37,200,,0*71
$GAGSV,3,3,11,19,02,163,,24,11,317,,25,11,071,,0*48
$GBGSV,4,1,13,01,33,114,34,02,65,150,34,04,36,112,34,06,65,257,34,0*76
$GBGSV,4,2,13,08,42,325,34,09,14,228,34,13,37,039,34,20,32,172,34,0*76

$GNRMC,120104.00,A,2303.59147,N,11300.00001,E,161.991,0.00,010821,4.12,W,A,V*41
$GNVTG,0.00,T,4.12,M,161.991,N,300.007,K,A*39
$GNGGA,120104.00,2303.59147,N,11300.00001,E,1,11,0.90,55.4,M,-6.4,M,,*68
$GNGSA,A,3,,,,,,,,,,,,,1.99,0.90,1.77,1*08
$GNGSA,A,3,,,,,,,,,,,,,1.99,0.90,1.77,3*0A
$GNGSA,A,3,09,13,26,30,27,02,20,06,08,29,04,,1.99,0.90,1.77,4*05
$GPGSV,4,1,13,03,07,280,,05,12,128,,06,19,286,,12,02,126,,0*67
$GPGSV,4,2,13,14,01,197,,16,31,325,,18,29,140,,21,74,034,,0*6B
$GPGSV,4,3,13,22,15,172,,24,28,039,,29,27,049,,30,35,117,,0*67
$GPGSV,4,4,13,31,53,236,,0*54
$GAGSV,3,1,11,01,29,054,,07,21,291,,08,49,348,,13,24,170,,0*7B
$GAGSV,3,2,11,14,41,111,,15,19,055,,17,43,272,,18,37,200,,0*71
$GAGSV,3,3,11,19,02,163,,24,11,317,,25,11,071,,0*48

$GNTXT,01,01,00,txbuf alloc*61

$GNRMC,120105.00,A,2303.63661,N,11300.00001,E,162.011,359.99,010821,4.12,W,A,V*47
$GNVTG,359.99,T,4.12,M,162.011,N,300.044,K,A*33
$GNGGA,120105.00,2303.63661,N,11300.00001,E,1,11,0.90,55.4,M,-6.4,M,,*63
$GNGSA,A,3,,,,,,,,,,,,,1.99,0.90,1.77,1*08
$GNGSA,A,3,,,,,,,,,,,,,1.99,0.90,1.77,3*0A
$GNGSA,A,3,09,13,26,30,27,02,20,06,08,29,04,,1.99,0.90,1.77,4*05
$GPGSV,4,1,13,03,07,280,,05,12,128,,06,19,286,,12,02,126,,0*67
$GPGSV,4,2,13,14,01,197,,16,31,325,,18,29,140,,21,74,034,,0*6B
$GPGSV,4,3,13,22,15,172,,24,28,039,,29,27,049,,30,35,117,,0*67
$GPGSV,4,4,13,31,53,236,,0*54
$GAGSV,3,1,11,01,29,054,,07,21,291,,08,49,348,,13,24,170,,0*7B
$GAGSV,3,2,11,14,41,111,,15,19,055,,17,43,272,,18,37,200,,0*71
$GAGSV,3,3,11,19,02,163,,24,11,317,,25,11,071,,0*48
$GBGSV,4,1,13,01,33,114,34,02,65,150,34,04,36,112,34,06,65,257,34,0*76
$GBGSV,4,2,13,08,42,325,34,09,14,228,34,13,36,039,34,20,32,172,34,0*77
$GBGSV,4,3,13,25,00,252,,26,38,325,34,27,51,297,34,29,49,305,34,0*71
$GBGSV,4,4,13,30,49,354,34,0*4E
$GNGLL,2303.63661,N,11300.00001,E,120105.00,A,A*74

$GNRMC,120106.00,A,2303.68176,N,11300.00000,E,161.978,0.01,010821,4.12,W,A,V*44
$GNVTG,0.01,T,4.13,M,161.978,N,299.984,K,A*3D
$GNGGA,120106.00,2303.68176,N,11300.00000,E,1,11,0.90,55.4,M,-6.4,M,,*6B
$GNGSA,A,3,,,,,,,,,,,,,1.99,0.90,1.77,1*08
$GNGSA,A,3,,,,,,,,,,,,,1.99,0.90,1.77,3*0A
$GNGSA,A,3,09,13,26,30,27,02,20,06,08,29,04,,1.99,0.90,1.77,4*05
$GPGSV,4,1,13,03,07,280,,05,12,128,,06,19,286,,12,02,126,,0*67
$GPGSV,4,2,13,14,01,197,,16,31,325,,18,29,140,,21,74,034,,0*6B
$GPGSV,4,3,13,22,15,172,,24,28,039,,29,27,049,,30,35,117,,0*67
$GPGSV,4,4,13,31,53,236,,0*54
$GAGSV,3,1,11,01,29,054,,07,21,291,,08,49,348,,13,24,170,,0*7B
$GAGSV,3,2,11,14,41,111,,15,19,055,,17,43,272,,18,37,200,,0*71
$GAGSV,3,3,11,19,02,163,,24,11,317,,25,11,071,,0*48
$GBGSV,4,1,13,01,33,114,34,02,65,150,34,04,36,112,34,06,65,257,34,0*76
$GBGSV,4,2,13,08,42,325,34,09,14,228,34,13,36,039,34,20,32,172,35,0*76
$GBGSV,4,3,13,25,00,252,,26,38,325,34,27,51,297,34,29,49,305,34,0*71

$GNRMC,120107.00,A,2303.72691,N,11300.00000,E,162.003,0.00,010821,4.12,W,A,V*47
$GNVTG,0.00,T,4.12,M,162.003,N,300.029,K,A*34
$GNGGA,120107.00,2303.72691,N,11300.00000,E,1,11,0.90,55.4,M,-6.4,M,,*6F
$GNGSA,A,3,,,,,,,,,,,,,1.99,0.90,1.77,1*08
$GNGSA,A,3,,,,,,,,,,,,,1.99,0.90,1.77,3*0A
$GNGSA,A,3,09,13,26,30,27,02,20,06,08,29,04,,1.99,0.90,1.77,4*05
$GPGSV,4,1,13,03,07,280,,05,12,128,,06,19,286,,12,02,126,,0*67
$GPGSV,4,2,13,14,01,197,,16,31,325,,18,29,140,,21,74,034,,0*6B
$GPGSV,4,3,13,22,15,172,,24,28,039,,29,27,049,,30,35,117,,0*67
$GPGSV,4,4,13,31,53,236,,0*54
$GAGSV,3,1,11,01,29,054,,07,21,291,,08,49,348,,13,24,170,,0*7B
$GAGSV,3,2,11,14,41,111,,15,19,055,,17,43,272,,18,37,200,,0*71
$GAGSV,3,3,11,19,02,163,,24,11,317,,25,11,071,,0*48
$GBGSV,4,1,13,01,33,114,34,02,65,150,34,04,36,112,34,06,65,257,34,0*76
$GBGSV,4,2,13,08,42,325,34,09,14,228,34,13,36,039,34,20,32,172,34,0*77
$GBGSV,4,3,13,25,00,252,,26,38,325,34,27,51,297,34,29,49,305,34,0*71

$GNRMC,120108.00,A,2303.77206,N,11259.99999,E,161.991,0.01,010821,4.12,W,A,V*43
$GNVTG,0.01,T,4.13,M,161.991,N,300.008,K,A*36
$GNGGA,120108.00,2303.77206,N,11259.99999,E,1,11,0.90,55.5,M,-6.4,M,,*6A
$GNGSA,A,3,,,,,,,,,,,,,1.99,0.90,1.77,1*08
$GNGSA,A,3,,,,,,,,,,,,,1.99,0.90,1.77,3*0A
$GNGSA,A,3,09,13,26,30,27,02,20,06,08,29,04,,1.99,0.90,1.77,4*05
$GPGSV,4,1,13,03,07,280,,05,12,128,,06,19,286,,12,02,126,,0*67
$GPGSV,4,2,13,14,01,197,,16,31,325,,18,29,140,,21,74,034,,0*6B
$GPGSV,4,3,13,22,15,172,,24,28,039,,29,27,049,,30,35,117,,0*67
$GPGSV,4,4,13,31,53,236,,0*54
$GAGSV,3,1,11,01,29,054,,07,21,291,,08,49,348,,13,24,170,,0*7B
$GAGSV,3,2,11,14,41,111,,15,19,055,,17,43,272,,18,37,200,,0*71
$GAGSV,3,3,11,19,02,163,,24,11,317,,25,11,071,,0*48
$GBGSV,4,1,13,01,33,114,34,02,65,150,34,04,36,112,34,06,65,257,34,0*76
$GBGSV,4,2,13,08,42,325,35,09,14,228,34,13,36,039,34,20,32,172,34,0*76
$GBGSV,4,3,13,25,00,252,,26,38,325,34,27,51,297,34,29,49,305,34,0*71

$GNRMC,120109.00,A,2303.81721,N,11259.99999,E,161.971,0.00,010821,4.12,W,A,V*44
$GNVTG,0.00,T,4.13,M,161.971,N,299.970,K,A*3E
$GNGGA,120109.00,2303.81721,N,11259.99999,E,1,11,0.90,55.5,M,-6.4,M,,*62
$GNGSA,A,3,,,,,,,,,,,,,1.99,0.90,1.77,1*08
$GNGSA,A,3,,,,,,,,,,,,,1.99,0.90,1.77,3*0A
$GNGSA,A,3,09,13,26,30,27,02,20,06,08,29,04,,1.99,0.90,1.77,4*05
$GPGSV,4,1,13,03,07,280,,05,12,128,,06,19,286,,12,02,126,,0*67
$GPGSV,4,2,13,14,01,197,,16,31,325,,18,29,140,,21,74,034,,0*6B
$GPGSV,4,3,13,22,15,172,,24,28,039,,29,27,049,,30,35,117,,0*67
$GPGSV,4,4,13,31,53,236,,0*54
$GAGSV,3,1,11,01,29,054,,07,21,291,,08,49,348,,13,24,170,,0*7B
$GAGSV,3,2,11,14,41,111,,15,19,055,,17,43,272,,18,37,200,,0*71
$GAGSV,3,3,11,19,02,163,,24,11,317,,25,11,071,,0*48

$GNTXT,01,01,00,txbuf alloc*61

$GNRMC,120110.00,A,2303.86235,N,11300.00000,E,162.003,0.01,010821,4.12,W,A,V*41
$GNVTG,0.01,T,4.13,M,162.003,N,300.029,K,A*34
$GNGGA,120110.00,2303.86235,N,11300.00000,E,1,11,0.90,55.5,M,-6.4,M,,*69
$GNGSA,A,3,,,,,,,,,,,,,1.99,0.90,1.77,1*08
$GNGSA,A,3,,,,,,,,,,,,,1.99,0.90,1.77,3*0A
$GNGSA,A,3,09,13,26,30,27,02,20,06,08,29,04,,1.99,0.90,1.77,4*05
$GPGSV,4,1,13,03,07,280,,05,12,128,,06,19,286,,12,02,126,,0*67
$GPGSV,4,2,13,14,01,197,,16,31,325,,18,29,140,,21,74,034,,0*6B
$GPGSV,4,3,13,22,15,172,,24,28,039,,29,27,049,,30,35,117,,0*67
$GPGSV,4,4,13,31,53,236,,0*54
$GAGSV,3,1,11,01,29,054,,07,21,291,,08,49,348,,13,24,170,,0*7B
$GAGSV,3,2,11,14,41,111,,15,19,055,,17,43,272,,18,37,200,,0*71
$GAGSV,3,3,11,19,02,163,,24,11,317,,25,11,071,,0*48
$GBGSV,4,1,13,01,33,114,34,02,65,150,35,04,36,112,34,06,65,257,34,0*77
$GBGSV,4,2,13,08,42,325,34,09,14,228,34,13,36,039,34,20,32,172,34,0*77
$GBGSV,4,3,13,25,00,252,,26,38,325,34,27,51,297,34,29,49,305,34,0*71
$GBGSV,4,4,13,30,49,354,34,0*4E
$GNGLL,2303.86235,N,11300.00000,E,120110.00,A,A*7F

$GNRMC,120111.00,A,2303.90750,N,11300.00000,E,161.978,359.99,010821,4.12,W,A,V*49
$GNVTG,359.99,T,4.12,M,161.978,N,299.983,K,A*35
$GNGGA,120111.00,2303.90750,N,11300.00000,E,1,11,0.90,55.5,M,-6.4,M,,*69
$GNGSA,A,3,,,,,,,,,,,,,1.99,0.90,1.77,1*08
$GNGSA,A,3,,,,,,,,,,,,,1.99,0.90,1.77,3*0A
$GNGSA,A,3,09,13,26,30,27,02,20,06,08,29,04,,1.99,0.90,1.77,4*05
$GPGSV,4,1,13,03,07,280,,05,12,128,,06,19,286,,12,02,126,,0*67
$GPGSV,4,2,13,14,01,197,,16,31,325,,18,29,140,,21,74,034,,0*6B
$GPGSV,4,3,13,22,15,172,,24,28,039,,29,27,049,,30,35,117,,0*67
$GPGSV,4,4,13,31,53,236,,0*54
$GAGSV,3,1,11,01,29,054,,07,21,291,,08,49,348,,13,24,170,,0*7B
$GAGSV,3,2,11,14,41,111,,15,19,055,,17,43,272,,18,37,200,,0*71
$GAGSV,3,3,11,19,02,163,,24,11,317,,25,11,071,,0*48
$GBGSV,4,1,13,01,33,114,35,02,65,150,34,04,36,112,34,06,65,257,34,0*77
$GBGSV,4,2,13,08,42,325,34,09,14,228,34,13,36,039,34,20,33,172,34,0*76
$GBGSV,4,3,13,25,00,252,,26,38,325,34,27,51,297,34,29,49,305,34,0*71
$GBGSV,4,4,13,30,49,354,34,0*4E

$GNRMC,120112.00,A,2303.95265,N,11259.99999,E,162.001,0.00,010821,4.12,W,A,V*43
$GNVTG,0.00,T,4.13,M,162.001,N,300.025,K,A*3B
$GNGGA,120112.00,2303.95265,N,11259.99999,E,1,11,0.90,55.5,M,-6.4,M,,*68
$GNGSA,A,3,,,,,,,,,,,,,1.99,0.90,1.77,1*08
$GNGSA,A,3,,,,,,,,,,,,,1.99,0.90,1.77,3*0A
$GNGSA,A,3,09,13,26,30,27,02,20,06,08,29,04,,1.99,0.90,1.77,4*05
$GPGSV,4,1,13,03,07,280,,05,12,128,,06,19,286,,12,02,126,,0*67
$GPGSV,4,2,13,14,01,197,,16,31,325,,18,29,140,,21,74,034,,0*6B
$GPGSV,4,3,13,22,15,172,,24,28,039,,29,27,049,,30,35,117,,0*67
$GPGSV,4,4,13,31,53,236,,0*54
$GAGSV,3,1,11,01,29,054,,07,21,291,,08,49,348,,13,24,170,,0*7B
$GAGSV,3,2,11,14,41,111,,15,19,055,,17,43,272,,18,37,200,,0*71
$GAGSV,3,3,11,19,02,163,,24,11,317,,25,11,071,,0*48
$GBGSV,4,1,13,01,33,114,34,02,65,150,34,04,36,112,34,06,65,257,34,0*76
$GBGSV,4,2,13,08,42,325,34,09,14,228,34,13,36,039,34,20,33,172,34,0*76

$GNRMC,120113.00,A,2303.99780,N,11259.99999,E,161.984,0.00,010821,4.12,W,A,V*47
$GNVTG,0.00,T,4.12,M,161.984,N,299.994,K,A*3F
$GNGGA,120113.00,2303.99780,N,11259.99999,E,1,11,0.90,55.6,M,-6.4,M,,*68
$GNGSA,A,3,,,,,,,,,,,,,1.99,0.90,1.77,1*08
$GNGSA,A,3,,,,,,,,,,,,,1.99,0.90,1.77,3*0A
$GNGSA,A,3,09,13,26,30,27,02,20,06,08,29,04,,1.99,0.90,1.77,4*05
$GPGSV,4,1,13,03,07,280,,05,12,128,,06,19,286,,12,02,126,,0*67
$GPGSV,4,2,13,14,01,197,,16,31,325,,18,29,140,,21,74,034,,0*6B
$GPGSV,4,3,13,22,15,172,,24,28,039,,29,27,049,,30,35,117,,0*67
$GPGSV,4,4,13,31,53,236,,0*54
$GAGSV,3,1,11,01,29,054,,07,21,291,,08,49,348,,13,24,170,,0*7B
$GAGSV,3,2,11,14,41,111,,15,19,055,,17,43,272,,18,37,200,,0*71
$GAGSV,3,3,11,19,02,163,,24,11,317,,25,11,071,,0*48
$GBGSV,4,1,13,01,33,114,34,02,65,150,35,04,36,112,34,06,65,257,34,0*77
$GBGSV,4,2,13,08,42,325,34,09,14,228,34,13,36,039,34,20,33,172,34,0*76
$GBGSV,4,3,13,25,00,252,,26,38,325,34,27,51,297,34,29,49,305,34,0*71

$GNRMC,120114.00,A,2304.04295,N,11259.99999,E,162.005,0.00,010821,4.12,W,A,V*41
$GNVTG,0.00,T,4.13,M,162.005,N,300.034,K,A*3F
$GNGGA,120114.00,2304.04295,N,11259.99999,E,1,11,0.90,55.6,M,-6.5,M,,*6C
$GNGSA,A,3,,,,,,,,,,,,,1.99,0.90,1.77,1*08
$GNGSA,A,3,,,,,,,,,,,,,1.99,0.90,1.77,3*0A
$GNGSA,A,3,09,13,26,30,27,02,20,06,08,29,04,,1.99,0.90,1.77,4*05
$GPGSV,4,1,13,03,07,280,,05,12,128,,06,19,286,,12,02,126,,0*67
$GPGSV,4,2,13,14,01,197,,16,31,325,,18,29,140,,21,74,034,,0*6B
$GPGSV,4,3,13,22,15,172,,24,28,039,,29,27,049,,30,35,117,,0*67
$GPGSV,4,4,13,31,53,236,,0*54
$GAGSV,3,1,11,01,29,054,,07,21,291,,08,49,348,,13,24,170,,0*7B
$GAGSV,3,2,11,14,41,111,,15,19,055,,17,43,272,,18,37,200,,0*71
$GAGSV,3,3,11,19,02,163,,24,11,317,,25,11,071,,0*48

$GNTXT,01,01,00,txbuf alloc*61

$GNRMC,120115.00,A,2304.08811,N,11259.99999,E,162.001,359.99,010821,4.12,W,A,V*41
$GNVTG,359.99,T,4.12,M,162.001,N,300.026,K,A*36
$GNGGA,120115.00,2304.08811,N,11259.99999,E,1,11,0.90,55.5,M,-6.5,M,,*64
$GNGSA,A,3,,,,,,,,,,,,,1.99,0.90,1.77,1*08
$GNGSA,A,3,,,,,,,,,,,,,1.99,0.90,1.77,3*0A
$GNGSA,A,3,09,13,26,30,27,02,20,06,08,29,04,,1.99,0.90,1.77,4*05
$GPGSV,4,1,13,03,07,280,,05,12,128,,06,19,286,,12,02,126,,0*67
$GPGSV,4,2,13,14,01,197,,16,31,325,,18,29,140,,21,74,034,,0*6B
$GPGSV,4,3,13,22,15,172,,24,28,039,,29,27,049,,30,35,117,,0*67
$GPGSV,4,4,13,31,53,236,,0*54
$GAGSV,3,1,11,01,29,054,,07,21,291,,08,49,348,,13,24,170,,0*7B
$GAGSV,3,2,11,14,41,111,,15,19,055,,17,43,272,,18,37,200,,0*71
$GAGSV,3,3,11,19,02,163,,24,11,317,,25,11,071,,0*48
$GBGSV,4,1,13,01,33,114,34,02,65,150,34,04,36,112,34,06,65,257,34,0*76
$GBGSV,4,2,13,08,42,325,34,09,14,228,34,13,36,039,34,20,33,172,34,0*76
$GBGSV,4,3,13,25,00,252,,26,38,325,34,27,51,297,34,29,49,305,34,0*71
$GBGSV,4,4,13,30,49,354,34,0*4E
$GNGLL,2304.08811,N,11259.99999,E,120115.00,A,A*73

$GNRMC,120116.00,A,2304.13326,N,11259.99999,E,162.022,0.00,010821,4.12,W,A,V*49
$GNVTG,0.00,T,4.12,M,162.022,N,300.064,K,A*3E
$GNGGA,120116.00,2304.13326,N,11259.99999,E,1,11,0.90,55.5,M,-6.5,M,,*62
$GNGSA,A,3,,,,,,,,,,,,,1.99,0.90,1.77,1*08
$GNGSA,A,3,,,,,,,,,,,,,1.99,0.90,1.77,3*0A
$GNGSA,A,3,09,13,26,30,27,02,20,06,08,29,04,,1.99,0.90,1.77,4*05
$GPGSV,4,1,13,03,07,280,,05,12,128,,06,19,286,,12,02,126,,0*67
$GPGSV,4,2,13,14,01,197,,16,31,325,,18,29,140,,21,74,034,,0*6B
$GPGSV,4,3,13,22,15,172,,24,28,039,,29,27,049,,30,35,117,,0*67
$GPGSV,4,4,13,31,53,236,,0*54
$GAGSV,3,1,11,01,29,054,,07,21,291,,08,49,348,,13,24,170,,0*7B
$GAGSV,3,2,11,14,41,111,,15,19,055,,17,43,272,,18,37,200,,0*71
$GAGSV,3,3,11,19,02,163,,24,11,317,,25,11,071,,0*48
$GBGSV,4,1,13,01,33,114,34,02,65,150,34,04,36,112,34,06,65,257,34,0*76
$GBGSV,4,2,13,08,42,325,34,09,14,228,34,13,36,039,34,20,33,172,34,0*76
$GBGSV,4,3,13,25,01,253,,26,38,325,34,27,51,297,34,29,49,305,34,0*71
$GBGSV,4,4,13,30,49,354,34,0*4E

$GNRMC,120117.00,A,2304.17842,N,11259.99998,E,162.014,0.00,010821,4.12,W,A,V*41
$GNVTG,0.00,T,4.12,M,162.014,N,300.051,K,A*3D
$GNGGA,120117.00,2304.17842,N,11259.99998,E,1,11,0.90,55.6,M,-6.5,M,,*6C
$GNGSA,A,3,,,,,,,,,,,,,1.99,0.90,1.77,1*08
$GNGSA,A,3,,,,,,,,,,,,,1.99,0.90,1.77,3*0A
$GNGSA,A,3,09,13,26,30,27,02,20,06,08,29,04,,1.99,0.90,1.77,4*05
$GPGSV,4,1,13,03,07,280,,05,12,128,,06,19,286,,12,02,126,,0*67
$GPGSV,4,2,13,14,01,197,,16,31,325,,18,29,140,,21,74,034,,0*6B
$GPGSV,4,3,13,22,15,172,,24,28,039,,29,27,049,,30,35,117,,0*67
$GPGSV,4,4,13,31,53,236,,0*54
$GAGSV,3,1,11,01,29,054,,07,21,291,,08,49,348,,13,24,170,,0*7B
$GAGSV,3,2,11,14,41,111,,15,19,055,,17,43,272,,18,37,200,,0*71
$GAGSV,3,3,11,19,02,163,,24,11,317,,25,11,071,,0*48
$GBGSV,4,1,13,01,33,114,34,02,65,150,34,04,36,112,34,06,65,257,34,0*76
$GBGSV,4,2,13,08,42,325,34,09,14,228,34,13,36,039,34,20,33,172,34,0*76
$GBGSV,4,3,13,25,01,253,,26,38,325,34,27,51,297,34,29,49,305,34,0*71
$GBGSV,4,4,13,30,49,354,34,0*4E
$GNGLL,2304.17842,N,11259.99998,E,120117.00,A,A*78

$GNRMC,120118.00,A,2304.22357,N,11259.99999,E,161.979,0.00,010821,4.12,W,A,V*47
$GNVTG,0.00,T,4.12,M,161.979,N,299.984,K,A*3C
$GNGGA,120118.00,2304.22357,N,11259.99999,E,1,11,0.90,55.6,M,-6.5,M,,*6B
$GNGSA,A,3,,,,,,,,,,,,,1.99,0.90,1.77,1*08
$GNGSA,A,3,,,,,,,,,,,,,1.99,0.90,1.77,3*0A
$GNGSA,A,3,09,13,26,30,27,02,20,06,08,29,04,,1.99,0.90,1.77,4*05
$GPGSV,4,1,13,03,07,280,,05,12,128,,06,19,286,,12,02,126,,0*67
$GPGSV,4,2,13,14,01,197,,16,31,325,,18,29,140,,21,74,034,,0*6B
$GPGSV,4,3,13,22,15,172,,24,28,039,,29,27,049,,30,35,117,,0*67
$GPGSV,4,4,13,31,53,236,,0*54
$GAGSV,3,1,11,01,29,054,,07,21,291,,08,49,348,,13,24,170,,0*7B
$GAGSV,3,2,11,14,41,111,,15,19,055,,17,43,272,,18,37,200,,0*71
$GAGSV,3,3,11,19,02,163,,24,11,317,,25,11,071,,0*48
$GBGSV,4,1,13,01,33,114,34,02,65,150,34,04,36,112,34,06,65,257,34,0*76
$GBGSV,4,2,13,08,42,325,34,09,14,228,34,13,36,039,34,20,33,172,34,0*76

$GNTXT,01,01,00,txbuf alloc*61

$GNRMC,120119.00,A,2304.26871,N,11259.99999,E,161.972,0.00,010821,4.13,W,A,V*47
$GNVTG,0.00,T,4.12,M,161.972,N,299.972,K,A*3E
$GNGGA,120119.00,2304.26871,N,11259.99999,E,1,11,0.90,55.6,M,-6.5,M,,*61
$GNGSA,A,3,,,,,,,,,,,,,1.99,0.90,1.77,1*08
$GNGSA,A,3,,,,,,,,,,,,,1.99,0.90,1.77,3*0A
$GNGSA,A,3,09,13,26,30,27,02,20,06,08,29,04,,1.99,0.90,1.77,4*05
$GPGSV,4,1,13,03,07,280,,05,12,128,,06,19,286,,12,02,126,,0*67
$GPGSV,4,2,13,14,01,197,,16,31,325,,18,29,140,,21,74,034,,0*6B
$GPGSV,4,3,13,22,15,172,,24,28,039,,29,27,049,,30,35,117,,0*67
$GPGSV,4,4,13,31,53,236,,0*54
$GAGSV,3,1,11,01,29,054,,07,21,291,,08,49,348,,13,24,170,,0*7B
$GAGSV,3,2,11,14,41,111,,15,19,055,,17,43,272,,18,37,200,,0*71
$GAGSV,3,3,11,19,02,163,,24,11,317,,25,11,071,,0*48

$GNRMC,120120.00,A,2304.31386,N,11259.99999,E,161.970,359.99,010821,4.13,W,A,V*45
$GNVTG,359.99,T,4.11,M,161.970,N,299.969,K,A*3A
$GNGGA,120120.00,2304.31386,N,11259.99999,E,1,11,0.90,55.6,M,-6.5,M,,*6E
$GNGSA,A,3,,,,,,,,,,,,,1.99,0.90,1.77,1*08
$GNGSA,A,3,,,,,,,,,,,,,1.99,0.90,1.77,3*0A
$GNGSA,A,3,09,13,26,30,27,02,20,06,08,29,04,,1.99,0.90,1.77,4*05
$GPGSV,4,1,13,03,07,280,,05,12,128,,06,19,286,,12,02,126,,0*67
$GPGSV,4,2,13,14,01,197,,16,31,325,,18,29,140,,21,74,034,,0*6B
$GPGSV,4,3,13,22,15,172,,24,28,039,,29,27,049,,30,35,117,,0*67
$GPGSV,4,4,13,31,53,236,,0*54
$GAGSV,3,1,11,01,29,054,,07,21,291,,08,49,348,,13,24,170,,0*7B
$GAGSV,3,2,11,14,41,111,,15,19,055,,17,43,272,,18,37,200,,0*71
$GAGSV,3,3,11,19,02,163,,24,11,317,,25,11,071,,0*48
$GBGSV,4,1,13,01,33,114,34,02,65,150,34,04,36,112,34,06,65,257,34,0*76
$GBGSV,4,2,13,08,42,325,34,09,14,228,34,13,36,039,34,20,33,172,34,0*76
$GBGSV,4,3,13,25,01,253,,26,38,325,34,27,52,296,34,29,49,306,34,0*70
$GBGSV,4,4,13,30,49,354,34,0*4E
$GNGLL,2304.31386,N,11259.99999,E,120120.00,A,A*7A

$GNRMC,120121.00,A,2304.35901,N,11259.99999,E,161.984,359.99,010821,4.13,W,A,V*4E
$GNVTG,359.99,T,4.11,M,161.984,N,299.994,K,A*33
$GNGGA,120121.00,2304.35901,N,11259.99999,E,1,11,0.90,55.6,M,-6.5,M,,*6E
$GNGSA,A,3,,,,,,,,,,,,,1.99,0.90,1.77,1*08
$GNGSA,A,3,,,,,,,,,,,,,1.99,0.90,1.77,3*0A
$GNGSA,A,3,09,13,26,30,27,02,20,06,08,29,04,,1.99,0.90,1.77,4*05
$GPGSV,4,1,13,03,07,280,,05,12,128,,06,19,286,,12,02,126,,0*67
$GPGSV,4,2,13,14,01,197,,16,31,325,,18,29,140,,21,74,034,,0*6B
$GPGSV,4,3,13,22,15,172,,24,28,039,,29,27,049,,30,35,117,,0*67
$GPGSV,4,4,13,31,53,236,,0*54
$GAGSV,3,1,11,01,29,054,,07,21,291,,08,49,348,,13,24,170,,0*7B
$GAGSV,3,2,11,14,41,111,,15,19,055,,17,43,272,,18,37,200,,0*71
$GAGSV,3,3,11,19,02,163,,24,11,317,,25,11,071,,0*48
$GBGSV,4,1,13,01,33,114,34,02,65,150,34,04,36,112,34,06,65,257,34,0*76
$GBGSV,4,2,13,08,42,325,34,09,14,228,34,13,36,039,34,20,33,172,34,0*76
$GBGSV,4,3,13,25,01,253,,26,38,325,34,27,52,296,34,29,49,306,34,0*70
$GBGSV,4,4,13,30,49,355,34,0*4F

$GNRMC,120122.00,A,2304.40416,N,11259.99998,E,161.978,0.01,010821,4.13,W,A,V*48
$GNVTG,0.01,T,4.13,M,161.978,N,299.984,K,A*3D
$GNGGA,120122.00,2304.40416,N,11259.99998,E,1,11,0.90,55.7,M,-6.5,M,,*64
$GNGSA,A,3,,,,,,,,,,,,,1.99,0.90,1.77,1*08
$GNGSA,A,3,,,,,,,,,,,,,1.99,0.90,1.77,3*0A
$GNGSA,A,3,09,13,26,30,27,02,20,06,08,29,04,,1.99,0.90,1.77,4*05
$GPGSV,4,1,13,03,07,280,,05,12,128,,06,19,286,,12,02,126,,0*67
$GPGSV,4,2,13,14,01,197,,16,31,325,,18,29,140,,21,74,034,,0*6B
$GPGSV,4,3,13,22,15,172,,24,28,039,,29,27,049,,30,35,117,,0*67
$GPGSV,4,4,13,31,53,236,,0*54
$GAGSV,3,1,11,01,29,054,,07,21,291,,08,49,348,,13,24,170,,0*7B
$GAGSV,3,2,11,14,41,111,,15,19,055,,17,43,272,,18,37,200,,0*71
$GAGSV,3,3,11,19,02,163,,24,11,317,,25,11,071,,0*48
$GBGSV,4,1,13,01,33,114,34,02,65,150,34,04,36,112,34,06,65,257,34,0*76
$GBGSV,4,2,13,08,42,325,34,09,14,228,34,13,36,039,34,20,33,172,34,0*76
$GBGSV,4,3,13,25,01,253,,26,38,325,34,27,52,296,34,29,49,306,34,0*70

$GNRMC,120123.00,A,2304.44931,N,11259.99998,E,161.973,0.00,010821,4.13,W,A,V*4F
$GNVTG,0.00,T,4.13,M,161.973,N,299.973,K,A*3F
$GNGGA,120123.00,2304.44931,N,11259.99998,E,1,11,0.90,55.6,M,-6.5,M,,*68
$GNGSA,A,3,,,,,,,,,,,,,1.99,0.90,1.77,1*08
$GNGSA,A,3,,,,,,,,,,,,,1.99,0.90,1.77,3*0A
$GNGSA,A,3,09,13,26,30,27,02,20,06,08,29,04,,1.99,0.90,1.77,4*05
$GPGSV,4,1,13,03,07,280,,05,12,128,,06,19,286,,12,02,126,,0*67
$GPGSV,4,2,13,14,01,197,,16,31,325,,18,29,140,,21,74,034,,0*6B
$GPGSV,4,3,13,22,15,172,,24,28,039,,29,27,049,,30,35,117,,0*67
$GPGSV,4,4,13,31,53,236,,0*54
$GAGSV,3,1,11,01,29,054,,07,21,291,,08,49,348,,13,24,170,,0*7B
$GAGSV,3,2,11,14,41,111,,15,19,055,,17,43,272,,18,37,200,,0*71
$GAGSV,3,3,11,19,02,163,,24,11,317,,25,11,071,,0*48
$GBGSV,4,1,13,01,33,114,34,02,65,150,34,04,36,112,34,06,65,257,34,0*76
$GBGSV,4,2,13,08,42,325,34,09,14,228,34,13,36,039,34,20,33,172,34,0*76

$GNTXT,01,01,00,txbuf alloc*61

$GNRMC,120124.00,A,2304.49446,N,11259.99999,E,161.987,0.00,010821,4.13,W,A,V*42
$GNVTG,0.00,T,4.13,M,161.987,N,299.999,K,A*30
$GNGGA,120124.00,2304.49446,N,11259.99999,E,1,11,0.90,55.6,M,-6.5,M,,*6E
$GNGSA,A,3,,,,,,,,,,,,,1.99,0.90,1.77,1*08
$GNGSA,A,3,,,,,,,,,,,,,1.99,0.90,1.77,3*0A
$GNGSA,A,3,09,13,26,30,27,02,20,06,08,29,04,,1.99,0.90,1.77,4*05
$GPGSV,4,1,13,03,07,280,,05,12,128,,06,19,286,,12,02,126,,0*67
$GPGSV,4,2,13,14,01,197,,16,31,325,,18,29,140,,21,74,034,,0*6B
$GPGSV,4,3,13,22,15,172,,24,28,039,,29,27,049,,30,35,117,,0*67
$GPGSV,4,4,13,31,53,236,,0*54
$GAGSV,3,1,11,01,29,054,,07,21,291,,08,49,348,,13,24,170,,0*7B
$GAGSV,3,2,11,14,41,111,,15,19,055,,17,43,272,,18,37,200,,0*71
$GAGSV,3,3,11,19,02,163,,24,11,317,,25,11,071,,0*48
$GBGSV,4,1,13,01,33,114,34,02,65,150,34,04,36,112,34,06,65,257,34,0*76

$GNRMC,120125.00,A,2304.53962,N,11300.00000,E,161.999,359.99,010821,4.13,W,A,V*47
$GNVTG,359.99,T,4.11,M,161.999,N,300.022,K,A*3A
$GNGGA,120125.00,2304.53962,N,11300.00000,E,1,11,0.90,55.6,M,-6.5,M,,*6B
$GNGSA,A,3,,,,,,,,,,,,,1.99,0.90,1.77,1*08
$GNGSA,A,3,,,,,,,,,,,,,1.99,0.90,1.77,3*0A
$GNGSA,A,3,09,13,26,30,27,02,20,06,08,29,04,,1.99,0.90,1.77,4*05
$GPGSV,4,1,13,03,07,280,,05,12,128,,06,19,286,,12,02,126,,0*67
$GPGSV,4,2,13,14,01,197,,16,31,325,,18,29,140,,21,74,034,,0*6B
$GPGSV,4,3,13,22,15,172,,24,28,039,,29,27,049,,30,35,117,,0*67
$GPGSV,4,4,13,31,53,236,,0*54
$GAGSV,3,1,11,01,29,054,,07,21,291,,08,49,348,,13,24,170,,0*7B
$GAGSV,3,2,11,14,41,111,,15,19,055,,17,43,272,,18,37,200,,0*71
$GAGSV,3,3,11,19,02,163,,24,11,317,,25,11,071,,0*48
$GBGSV,4,1,13,01,33,114,34,02,65,150,34,04,36,112,34,06,65,257,34,0*76
$GBGSV,4,2,13,08,42,325,34,09,14,228,34,13,36,039,34,20,33,172,34,0*76
$GBGSV,4,3,13,25,01,253,,26,38,325,34,27,52,296,34,29,49,306,34,0*70
$GBGSV,4,4,13,30,49,355,34,0*4F
$GNGLL,2304.53962,N,11300.00000,E,120125.00,A,A*7F

$GNRMC,120126.00,A,2304.58477,N,11300.00000,E,161.960,0.00,010821,4.13,W,A,V*4F
$GNVTG,0.00,T,4.12,M,161.960,N,299.950,K,A*3D
$GNGGA,120126.00,2304.58477,N,11300.00000,E,1,11,0.90,55.6,M,-6.5,M,,*6A
$GNGSA,A,3,,,,,,,,,,,,,1.99,0.90,1.77,1*08
$GNGSA,A,3,,,,,,,,,,,,,1.99,0.90,1.77,3*0A
$GNGSA,A,3,09,13,26,30,27,02,20,06,08,29,04,,1.99,0.90,1.77,4*05
$GPGSV,4,1,13,03,07,280,,05,12,128,,06,19,286,,12,02,126,,0*67
$GPGSV,4,2,13,14,01,197,,16,31,325,,18,29,140,,21,74,034,,0*6B
$GPGSV,4,3,13,22,15,172,,24,28,039,,29,27,049,,30,35,117,,0*67
$GPGSV,4,4,13,31,53,236,,0*54
$GAGSV,3,1,11,01,29,054,,07,21,291,,08,49,348,,13,24,170,,0*7B
$GAGSV,3,2,11,14,41,111,,15,19,055,,17,43,272,,18,37,200,,0*71
$GAGSV,3,3,11,19,02,163,,24,11,317,,25,11,071,,0*48
$GBGSV,4,1,13,01,33,114,34,02,65,150,34,04,36,112,34,06,65,257,34,0*76
$GBGSV,4,2,13,08,42,325,34,09,14,228,34,13,36,039,34,20,33,172,34,0*76
$GBGSV,4,3,13,25,01,253,,26,38,325,34,27,52,296,34,29,49,306,34,0*70
$GBGSV,4,4,13,30,49,355,34,0*4F
$GNGLL,2304.58477,N,11300.00000,E,120126.00,A,A*7E

$GNRMC,120127.00,A,2304.62992,N,11300.00000,E,161.990,0.00,010821,4.13,W,A,V*4E
$GNVTG,0.00,T,4.13,M,161.990,N,300.006,K,A*38
$GNGGA,120127.00,2304.62992,N,11300.00000,E,1,11,0.90,55.5,M,-6.5,M,,*67
$GNGSA,A,3,,,,,,,,,,,,,1.99,0.90,1.77,1*08
$GNGSA,A,3,,,,,,,,,,,,,1.99,0.90,1.77,3*0A
$GNGSA,A,3,09,13,26,30,27,02,20,06,08,29,04,,1.99,0.90,1.77,4*05
$GPGSV,4,1,13,03,08,281,,05,12,128,,06,19,286,,12,02,126,,0*69
$GPGSV,4,2,13,14,01,197,,16,31,325,,18,29,140,,21,74,034,,0*6B
$GPGSV,4,3,13,22,15,172,,24,28,039,,29,27,049,,30,35,117,,0*67
$GPGSV,4,4,13,31,53,236,,0*54
$GAGSV,3,1,11,01,29,054,,07,21,291,,08,49,348,,13,24,170,,0*7B
$GAGSV,3,2,11,14,41,111,,15,19,055,,17,43,272,,18,37,200,,0*71
$GAGSV,3,3,11,19,02,163,,24,11,317,,25,11,071,,0*48
$GBGSV,4,1,13,01,33,114,34,02,65,150,34,04,36,112,34,06,65,257,34,0*76
$GBGSV,4,2,13,08,42,325,34,09,14,228,34,13,36,039,34,20,33,172,34,0*76

$GNRMC,120128.00,A,2304.67507,N,11259.99999,E,161.986,359.99,010821,4.13,W,A,V*48
$GNVTG,359.99,T,4.12,M,161.986,N,299.997,K,A*31
$GNGGA,120128.00,2304.67507,N,11259.99999,E,1,11,0.90,55.5,M,-6.5,M,,*69
$GNGSA,A,3,,,,,,,,,,,,,1.99,0.90,1.77,1*08
$GNGSA,A,3,,,,,,,,,,,,,1.99,0.90,1.77,3*0A
$GNGSA,A,3,09,13,26,30,27,02,20,06,08,29,04,,1.99,0.90,1.77,4*05
$GPGSV,4,1,13,03,08,281,,05,12,128,,06,19,286,,12,02,126,,0*69
$GPGSV,4,2,13,14,01,197,,16,31,325,,18,29,140,,21,74,034,,0*6B
$GPGSV,4,3,13,22,15,172,,24,28,039,,29,27,049,,30,35,117,,0*67
$GPGSV,4,4,13,31,53,236,,0*54
$GAGSV,3,1,11,01,29,054,,07,21,291,,08,49,348,,13,24,170,,0*7B
$GAGSV,3,2,11,14,41,111,,15,19,055,,17,43,272,,18,37,200,,0*71
$GAGSV,3,3,11,19,02,163,,24,11,317,,25,11,071,,0*48
$GBGSV,4,1,13,01,33,114,34,02,65,150,34,04,36,112,34,06,65,257,34,0*76
$GBGSV,4,2,13,08,42,325,34,09,14,228,34,13,36,039,34,20,33,172,34,0*76
$GBGSV,4,3,13,25,01,253,,26,38,325,34,27,52,296,34,29,49,306,34,0*70

$GNTXT,01,01,00,txbuf alloc*61

$GNRMC,120129.00,A,2304.72022,N,11300.00000,E,162.011,0.00,010821,4.13,W,A,V*40
$GNVTG,0.00,T,4.12,M,162.011,N,300.044,K,A*3C
$GNGGA,120129.00,2304.72022,N,11300.00000,E,1,11,0.90,55.5,M,-6.5,M,,*6A
$GNGSA,A,3,,,,,,,,,,,,,1.99,0.90,1.77,1*08
$GNGSA,A,3,,,,,,,,,,,,,1.99,0.90,1.77,3*0A
$GNGSA,A,3,09,13,26,30,27,02,20,06,08,29,04,,1.99,0.90,1.77,4*05
$GPGSV,4,1,13,03,08,281,,05,11,128,,06,19,286,,12,02,126,,0*6A
$GPGSV,4,2,13,14,01,197,,16,31,325,,18,29,140,,21,74,034,,0*6B
$GPGSV,4,3,13,22,15,172,,24,28,039,,29,27,049,,30,35,117,,0*67
$GPGSV,4,4,13,31,53,236,,0*54
$GAGSV,3,1,11,01,29,054,,07,21,291,,08,49,348,,13,24,170,,0*7B
$GAGSV,3,2,11,14,41,111,,15,19,055,,17,43,272,,18,37,200,,0*71
$GAGSV,3,3,11,19,02,163,,24,11,317,,25,11,071,,0*48
$GBGSV,4,1,13,01,33,114,34,02,65,150,34,04,36,112,34,06,65,257,34,0*76
$GBGSV,4,2,13,08,42,325,34,09,14,228,34,13,36,039,34,20,33,172,34,0*76
$GBGSV,4,3,13,25,01,253,,26,38,325,34,27,52,296,34,29,49,306,34,0*70

$GNRMC,120130.00,A,2304.76537,N,11300.00000,E,162.001,0.01,010821,4.13,W,A,V*4D
$GNVTG,0.01,T,4.14,M,162.001,N,300.027,K,A*3F
$GNGGA,120130.00,2304.76537,N,11300.00000,E,1,11,0.90,55.5,M,-6.5,M,,*67
$GNGSA,A,3,,,,,,,,,,,,,1.99,0.90,1.77,1*08
$GNGSA,A,3,,,,,,,,,,,,,1.99,0.90,1.77,3*0A
$GNGSA,A,3,09,13,26,30,27,02,20,06,08,29,04,,1.99,0.90,1.77,4*05
$GPGSV,4,1,13,03,08,281,,05,11,128,,06,20,286,,12,02,126,,0*60
$GPGSV,4,2,13,14,01,197,,16,31,325,,18,29,140,,21,74,034,,0*6B
$GPGSV,4,3,13,22,15,172,,24,28,039,,29,27,049,,30,35,117,,0*67
$GPGSV,4,4,13,31,53,236,,0*54
$GAGSV,3,1,11,01,29,054,,07,21,291,,08,49,348,,13,24,170,,0*7B
$GAGSV,3,2,11,14,41,111,,15,19,055,,17,43,272,,18,37,200,,0*71
$GAGSV,3,3,11,19,02,163,,24,11,317,,25,11,071,,0*48
$GBGSV,4,1,13,01,33,114,34,02,65,150,34,04,36,112,34,06,65,257,34,0*76
$GBGSV,4,2,13,08,42,325,34,09,14,228,34,13,36,039,34,20,33,172,34,0*76
$GBGSV,4,3,13,25,01,253,,26,38,325,34,27,52,296,34,29,49,306,34,0*70

$GNRMC,120131.00,A,2304.81053,N,11300.00000,E,162.014,0.01,010821,4.13,W,A,V*47
$GNVTG,0.01,T,4.14,M,162.014,N,300.049,K,A*33
$GNGGA,120131.00,2304.81053,N,11300.00000,E,1,11,0.90,55.5,M,-6.5,M,,*69
$GNGSA,A,3,,,,,,,,,,,,,1.99,0.90,1.77,1*08
$GNGSA,A,3,,,,,,,,,,,,,1.99,0.90,1.77,3*0A
$GNGSA,A,3,09,13,26,30,27,02,20,06,08,29,04,,1.99,0.90,1.77,4*05
$GPGSV,4,1,13,03,08,281,,05,11,128,,06,20,286,,12,02,126,,0*60
$GPGSV,4,2,13,14,01,197,,16,31,325,,18,29,140,,21,74,034,,0*6B
$GPGSV,4,3,13,22,15,172,,24,28,039,,29,27,049,,30,35,117,,0*67
$GPGSV,4,4,13,31,53,236,,0*54
$GAGSV,3,1,11,01,29,054,,07,21,291,,08,49,348,,13,24,170,,0*7B
$GAGSV,3,2,11,14,41,111,,15,19,055,,17,43,272,,18,37,200,,0*71
$GAGSV,3,3,11,19,02,163,,24,11,317,,25,11,071,,0*48
$GBGSV,4,1,13,01,33,114,34,02,65,150,34,04,36,112,34,06,65,257,34,0*76
$GBGSV,4,2,13,08,42,325,34,09,14,228,34,13,36,039,34,20,33,172,34,0*76
$GBGSV,4,3,13,25,01,253,,26,38,325,34,27,52,296,34,29,49,306,35,0*71

$GNRMC,120132.00,A,2304.85568,N,11300.00000,E,162.008,0.00,010821,4.13,W,A,V*41
$GNVTG,0.00,T,4.13,M,162.008,N,300.038,K,A*3E
$GNGGA,120132.00,2304.85568,N,11300.00000,E,1,11,0.90,55.5,M,-6.5,M,,*63
$GNGSA,A,3,,,,,,,,,,,,,1.99,0.90,1.77,1*08
$GNGSA,A,3,,,,,,,,,,,,,1.99,0.90,1.77,3*0A
$GNGSA,A,3,09,13,26,30,27,02,20,06,08,29,04,,1.99,0.90,1.77,4*05
$GPGSV,4,1,13,03,08,281,,05,11,128,,06,20,286,,12,02,126,,0*60
$GPGSV,4,2,13,14,01,197,,16,31,325,,18,29,140,,21,74,034,,0*6B
$GPGSV,4,3,13,22,15,172,,24,28,039,,29,27,049,,30,35,117,,0*67
$GPGSV,4,4,13,31,53,236,,0*54
$GAGSV,3,1,11,01,29,054,,07,21,291,,08,49,348,,13,24,170,,0*7B
$GAGSV,3,2,11,14,41,111,,15,19,055,,17,43,272,,18,37,200,,0*71
$GAGSV,3,3,11,19,02,163,,24,11,317,,25,11,071,,0*48
$GBGSV,4,1,13,01,33,114,34,02,65,150,34,04,36,112,34,06,65,257,34,0*76
$GBGSV,4,2,13,08,42,325,34,09,14,228,34,13,36,039,34,20,33,172,34,0*76
$GBGSV,4,3,13,25,01,253,,26,38,325,34,27,52,296,34,29,49,306,34,0*70

$GNRMC,120133.00,A,2304.90083,N,11259.99999,E,161.995,0.00,010821,4.13,W,A,V*4E
$GNVTG,0.00,T,4.13,M,161.995,N,300.015,K,A*3F
$GNGGA,120133.00,2304.90083,N,11259.99999,E,1,11,0.90,55.5,M,-6.5,M,,*62
$GNGSA,A,3,,,,,,,,,,,,,1.99,0.90,1.77,1*08
$GNGSA,A,3,,,,,,,,,,,,,1.99,0.90,1.77,3*0A
$GNGSA,A,3,09,13,26,30,27,02,20,06,08,29,04,,1.99,0.90,1.77,4*05
$GPGSV,4,1,13,03,08,281,,05,11,128,,06,20,286,,12,02,126,,0*60
$GPGSV,4,2,13,14,01,197,,16,31,325,,18,29,140,,21,74,034,,0*6B
$GPGSV,4,3,13,22,15,172,,24,28,039,,29,27,049,,30,35,117,,0*67
$GPGSV,4,4,13,31,53,236,,0*54
$GAGSV,3,1,11,01,29,054,,07,21,291,,08,49,348,,13,24,170,,0*7B
$GAGSV,3,2,11,14,41,111,,15,19,055,,17,43,272,,18,37,200,,0*71
$GAGSV,3,3,11,19,02,163,,24,11,317,,25,11,071,,0*48
$GBGSV,4,1,13,01,33,114,34,02,65,150,34,04,36,112,34,06,65,257,34,0*76
$GBGSV,4,2,13,08,42,325,34,09,14,228,34,13,36,039,34,20,33,172,34,0*76

$GNTXT,01,01,00,txbuf alloc*61

$GNRMC,120134.00,A,2304.94598,N,11300.00000,E,162.000,0.00,010821,4.13,W,A,V*40
$GNVTG,0.00,T,4.13,M,162.000,N,300.025,K,A*3A
$GNGGA,120134.00,2304.94598,N,11300.00000,E,1,11,0.90,55.5,M,-6.5,M,,*6A
$GNGSA,A,3,,,,,,,,,,,,,1.99,0.90,1.77,1*08
$GNGSA,A,3,,,,,,,,,,,,,1.99,0.90,1.77,3*0A
$GNGSA,A,3,09,13,26,30,27,02,20,06,08,29,04,,1.99,0.90,1.77,4*05
$GPGSV,4,1,13,03,08,281,,05,11,128,,06,20,286,,12,02,126,,0*60
$GPGSV,4,2,13,14,01,197,,16,31,325,,18,29,140,,21,74,034,,0*6B
$GPGSV,4,3,13,22,15,172,,24,28,039,,29,27,049,,30,35,117,,0*67
$GPGSV,4,4,13,31,53,236,,0*54
$GAGSV,3,1,11,01,29,054,,07,21,291,,08,49,348,,13,24,170,,0*7B
$GAGSV,3,2,11,14,41,111,,15,19,055,,17,43,272,,18,37,200,,0*71
$GAGSV,3,3,11,19,02,163,,24,11,317,,25,11,071,,0*48
$GBGSV,4,1,13,01,33,114,34,02,65,150,34,04,36,112,34,06,65,257,34,0*76
$GBGSV,4,2,13,08,42,325,34,09,14,228,34,13,36,039,34,20,33,172,34,0*76
$GBGSV,4,3,13,25,01,253,,26,38,325,34,27,52,296,34,29,49,306,35,0*71

$GNRMC,120135.00,A,2304.99113,N,11300.00000,E,161.975,0.00,010821,4.13,W,A,V*43
$GNVTG,0.00,T,4.12,M,161.975,N,299.978,K,A*33
$GNGGA,120135.00,2304.99113,N,11300.00000,E,1,11,0.90,55.5,M,-6.5,M,,*61
$GNGSA,A,3,,,,,,,,,,,,,1.99,0.90,1.77,1*08
$GNGSA,A,3,,,,,,,,,,,,,1.99,0.90,1.77,3*0A
$GNGSA,A,3,09,13,26,30,27,02,20,06,08,29,04,,1.99,0.90,1.77,4*05
$GPGSV,4,1,13,03,08,281,,05,11,128,,06,20,286,,12,02,126,,0*60
$GPGSV,4,2,13,14,01,197,,16,31,325,,18,29,140,,21,74,034,,0*6B
$GPGSV,4,3,13,22,15,172,,24,28,039,,29,27,049,,30,35,117,,0*67
$GPGSV,4,4,13,31,53,236,,0*54
$GAGSV,3,1,11,01,29,054,,07,21,291,,08,49,348,,13,24,170,,0*7B
$GAGSV,3,2,11,14,41,111,,15,19,055,,17,43,272,,18,37,200,,0*71
$GAGSV,3,3,11,19,02,163,,24,11,317,,25,11,071,,0*48
$GBGSV,4,1,13,01,33,114,34,02,65,150,34,04,36,112,34,06,65,257,34,0*76
$GBGSV,4,2,13,08,42,325,34,09,14,228,34,13,36,039,34,20,33,172,34,0*76
$GBGSV,4,3,13,25,01,253,,26,38,325,34,27,52,296,34,29,49,306,34,0*70

$GNRMC,120136.00,A,2305.03628,N,11300.00000,E,162.000,0.00,010821,4.13,W,A,V*45
$GNVTG,0.00,T,4.13,M,162.000,N,300.024,K,A*3B
$GNGGA,120136.00,2305.03628,N,11300.00000,E,1,11,0.90,55.6,M,-6.5,M,,*6C
$GNGSA,A,3,,,,,,,,,,,,,1.99,0.90,1.77,1*08
$GNGSA,A,3,,,,,,,,,,,,,1.99,0.90,1.77,3*0A
$GNGSA,A,3,09,13,26,30,27,02,20,06,08,29,04,,1.99,0.90,1.77,4*05
$GPGSV,4,1,13,03,08,281,,05,11,128,,06,20,286,,12,01,126,,0*63
$GPGSV,4,2,13,14,01,197,,16,31,325,,18,29,140,,21,74,034,,0*6B
$GPGSV,4,3,13,22,15,172,,24,28,039,,29,27,049,,30,35,117,,0*67
$GPGSV,4,4,13,31,53,236,,0*54
$GAGSV,3,1,11,01,29,054,,07,21,291,,08,49,348,,13,24,170,,0*7B
$GAGSV,3,2,11,14,41,111,,15,19,055,,17,43,272,,18,37,200,,0*71
$GAGSV,3,3,11,19,02,163,,24,11,317,,25,11,071,,0*48
$GBGSV,4,1,13,01,33,114,34,02,65,150,34,04,36,112,34,06,65,257,34,0*76
$GBGSV,4,2,13,08,42,325,34,09,14,228,34,13,36,039,34,20,33,172,34,0*76
$GBGSV,4,3,13,25,01,253,,26,38,325,34,27,52,296,34,29,49,306,34,0*70

$GNRMC,120137.00,A,2305.08143,N,11300.00000,E,162.002,0.00,010821,4.13,W,A,V*47
$GNVTG,0.00,T,4.13,M,162.002,N,300.027,K,A*3A
$GNGGA,120137.00,2305.08143,N,11300.00000,E,1,11,0.90,55.6,M,-6.5,M,,*6C
$GNGSA,A,3,,,,,,,,,,,,,1.99,0.90,1.77,1*08
$GNGSA,A,3,,,,,,,,,,,,,1.99,0.90,1.77,3*0A
$GNGSA,A,3,09,13,26,30,27,02,20,06,08,29,04,,1.99,0.90,1.77,4*05
$GPGSV,4,1,13,03,08,281,,05,11,128,,06,20,286,,12,01,126,,0*63
$GPGSV,4,2,13,14,01,197,,16,31,325,,18,29,140,,21,74,034,,0*6B
$GPGSV,4,3,13,22,15,172,,24,28,039,,29,27,049,,30,35,117,,0*67
$GPGSV,4,4,13,31,53,236,,0*54
$GAGSV,3,1,11,01,29,054,,07,21,291,,08,49,348,,13,24,170,,0*7B
$GAGSV,3,2,11,14,41,111,,15,19,055,,17,43,272,,18,37,200,,0*71
$GAGSV,3,3,11,19,02,163,,24,11,317,,25,11,071,,0*48
$GBGSV,4,1,13,01,33,114,34,02,65,150,34,04,36,112,34,06,65,257,34,0*76
$GBGSV,4,2,13,08,42,325,34,09,14,228,34,13,36,039,34,20,33,172,34,0*76

$GNRMC,120138.00,A,2305.12658,N,11300.00001,E,162.018,0.00,010821,4.13,W,A,V*44
$GNVTG,0.00,T,4.13,M,162.018,N,300.058,K,A*39
$GNGGA,120138.00,2305.12658,N,11300.00001,E,1,11,0.90,55.6,M,-6.5,M,,*64
$GNGSA,A,3,,,,,,,,,,,,,1.99,0.90,1.77,1*08
$GNGSA,A,3,,,,,,,,,,,,,1.99,0.90,1.77,3*0A
$GNGSA,A,3,09,13,26,30,27,02,20,06,08,29,04,,1.99,0.90,1.77,4*05
$GPGSV,4,1,13,03,08,281,,05,11,128,,06,20,286,,12,01,126,,0*63
$GPGSV,4,2,13,14,01,196,,16,31,325,,18,29,140,,21,74,034,,0*6A
$GPGSV,4,3,13,22,15,172,,24,28,039,,29,27,049,,30,35,117,,0*67
$GPGSV,4,4,13,31,53,236,,0*54
$GAGSV,3,1,11,01,29,054,,07,21,291,,08,49,348,,13,24,170,,0*7B
$GAGSV,3,2,11,14,41,111,,15,19,055,,17,43,272,,18,37,200,,0*71
$GAGSV,3,3,11,19,02,163,,24,11,317,,25,11,071,,0*48
$GBGSV,4,1,13,01,33,114,34,02,65,150,34,04,36,112,34,06,65,257,34,0*76
$GBGSV,4,2,13,08,42,325,34,09,14,228,34,13,36,039,34,20,33,172,34,0*76
$GBGSV,4,3,13,25,01,253,,26,38,325,34,27,52,296,34,29,49,306,34,0*70

$GNTXT,01,01,00,txbuf alloc*61

$GNRMC,120139.00,A,2305.17173,N,11300.00001,E,162.018,0.01,010821,4.13,W,A,V*4F
$GNVTG,0.01,T,4.14,M,162.018,N,300.057,K,A*30
$GNGGA,120139.00,2305.17173,N,11300.00001,E,1,11,0.90,55.6,M,-6.5,M,,*6E
$GNGSA,A,3,,,,,,,,,,,,,1.99,0.90,1.77,1*08
$GNGSA,A,3,,,,,,,,,,,,,1.99,0.90,1.77,3*0A
$GNGSA,A,3,09,13,26,30,27,02,20,06,08,29,04,,1.99,0.90,1.77,4*05
$GPGSV,4,1,13,03,08,281,,05,11,128,,06,20,286,,12,01,126,,0*63
$GPGSV,4,2,13,14,01,196,,16,31,325,,18,29,140,,21,74,034,,0*6A
$GPGSV,4,3,13,22,15,172,,24,28,039,,29,27,049,,30,35,117,,0*67
$GPGSV,4,4,13,31,53,236,,0*54
$GAGSV,3,1,11,01,29,054,,07,21,291,,08,49,348,,13,24,170,,0*7B
$GAGSV,3,2,11,14,41,111,,15,19,055,,17,43,272,,18,37,200,,0*71
$GAGSV,3,3,11,19,02,163,,24,11,317,,25,11,071,,0*48
$GBGSV,4,1,13,01,33,114,34,02,65,150,34,04,36,112,34,06,65,257,34,0*76
$GBGSV,4,2,13,08,42,325,34,09,14,228,34,13,36,039,34,20,33,172,34,0*76
$GBGSV,4,3,13,25,01,253,,26,38,325,34,27,52,296,34,29,49,306,34,0*70

$GNRMC,120140.00,A,2305.21688,N,11300.00002,E,162.014,0.01,010821,4.13,W,A,V*48
$GNVTG,0.01,T,4.14,M,162.014,N,300.050,K,A*3B
$GNGGA,120140.00,2305.21688,N,11300.00002,E,1,11,0.90,55.6,M,-6.5,M,,*65
$GNGSA,A,3,,,,,,,,,,,,,1.99,0.90,1.77,1*08
$GNGSA,A,3,,,,,,,,,,,,,1.99,0.90,1.77,3*0A
$GNGSA,A,3,09,13,26,30,27,02,20,06,08,29,04,,1.99,0.90,1.77,4*05
$GPGSV,4,1,13,03,08,281,,05,11,128,,06,20,286,,12,01,126,,0*63
$GPGSV,4,2,13,14,01,196,,16,31,325,,18,29,140,,21,74,034,,0*6A
$GPGSV,4,3,13,22,15,172,,24,28,039,,29,27,049,,30,35,117,,0*67
$GPGSV,4,4,13,31,53,236,,0*54
$GAGSV,3,1,11,01,29,054,,07,21,291,,08,49,348,,13,24,170,,0*7B
$GAGSV,3,2,11,14,41,111,,15,19,055,,17,43,272,,18,37,200,,0*71
$GAGSV,3,3,11,19,02,163,,24,11,317,,25,11,071,,0*48
$GBGSV,4,1,13,01,33,114,34,02,65,150,35,04,36,112,34,06,65,257,34,0*77
$GBGSV,4,2,13,08,42,325,34,09,14,228,34,13,36,039,34,20,33,172,34,0*76

$GNRMC,120141.00,A,2305.26203,N,11300.00003,E,162.014,0.01,010821,4.13,W,A,V*48
$GNVTG,0.01,T,4.14,M,162.014,N,300.050,K,A*3B
$GNGGA,120141.00,2305.26203,N,11300.00003,E,1,11,0.90,55.6,M,-6.5,M,,*65
$GNGSA,A,3,,,,,,,,,,,,,1.99,0.90,1.77,1*08
$GNGSA,A,3,,,,,,,,,,,,,1.99,0.90,1.77,3*0A
$GNGSA,A,3,09,13,26,30,27,02,20,06,08,29,04,,1.99,0.90,1.77,4*05
$GPGSV,4,1,13,03,08,281,,05,11,128,,06,20,286,,12,01,126,,0*63
$GPGSV,4,2,13,14,01,196,,16,31,325,,18,29,140,,21,74,034,,0*6A
$GPGSV,4,3,13,22,15,172,,24,28,039,,29,27,049,,30,35,117,,0*67
$GPGSV,4,4,13,31,53,236,,0*54
$GAGSV,3,1,11,01,29,054,,07,21,291,,08,49,348,,13,24,170,,0*7B
$GAGSV,3,2,11,14,41,111,,15,19,055,,17,43,272,,18,37,200,,0*71
$GAGSV,3,3,11,19,02,163,,24,11,317,,25,11,071,,0*48
$GBGSV,4,1,13,01,33,114,34,02,65,150,34,04,36,112,34,06,65,257,34,0*76
$GBGSV,4,2,13,08,42,325,35,09,14,228,34,13,36,039,34,20,33,172,34,0*77
$GBGSV,4,3,13,25,01,253,,26,38,325,34,27,52,296,34,29,49,306,34,0*70

$GNRMC,120142.00,A,2305.30718,N,11300.00004,E,162.005,0.00,010821,4.13,W,A,V*45
$GNVTG,0.00,T,4.13,M,162.005,N,300.034,K,A*3F
$GNGGA,120142.00,2305.30718,N,11300.00004,E,1,11,0.90,55.6,M,-6.5,M,,*69
$GNGSA,A,3,,,,,,,,,,,,,1.99,0.90,1.77,1*08
$GNGSA,A,3,,,,,,,,,,,,,1.99,0.90,1.77,3*0A
$GNGSA,A,3,09,13,26,30,27,02,20,06,08,29,04,,1.99,0.90,1.77,4*05
$GPGSV,4,1,13,03,08,281,,05,11,128,,06,20,286,,12,01,126,,0*63
$GPGSV,4,2,13,14,01,196,,16,31,325,,18,29,139,,21,74,034,,0*64
$GPGSV,4,3,13,22,15,172,,24,28,039,,29,27,049,,30,35,117,,0*67
$GPGSV,4,4,13,31,53,236,,0*54
$GAGSV,3,1,11,01,29,054,,07,21,291,,08,49,348,,13,24,170,,0*7B
$GAGSV,3,2,11,14,41,111,,15,19,055,,17,43,272,,18,37,200,,0*71
$GAGSV,3,3,11,19,02,163,,24,11,317,,25,11,071,,0*48
$GBGSV,4,1,13,01,33,114,35,02,65,150,34,04,36,112,34,06,65,257,34,0*77
$GBGSV,4,2,13,08,42,325,34,09,14,228,34,13,36,039,34,20,33,172,35,0*77
$GBGSV,4,3,13,25,01,253,,26,38,325,34,27,52,296,34,29,49,306,34,0*70

$GNRMC,120143.00,A,2305.35232,N,11300.00004,E,162.018,0.00,010821,4.13,W,A,V*40
$GNVTG,0.00,T,4.13,M,162.018,N,300.058,K,A*39
$GNGGA,120143.00,2305.35232,N,11300.00004,E,1,11,0.90,55.6,M,-6.5,M,,*60
$GNGSA,A,3,,,,,,,,,,,,,1.99,0.90,1.77,1*08
$GNGSA,A,3,,,,,,,,,,,,,1.99,0.90,1.77,3*0A
$GNGSA,A,3,09,13,26,30,27,02,20,06,08,29,04,,1.99,0.90,1.77,4*05
$GPGSV,4,1,13,03,08,281,,05,11,128,,06,20,286,,12,01,126,,0*63
