$GNRMC,000045.00,A,2959.99969,N,12000.00007,E,0.050,,230721,5.69,W,A,V*53
$GNVTG,,T,,M,0.050,N,0.093,K,A*32
$GNGGA,000045.00,2959.99969,N,12000.00007,E,1,08,1.55,-7.7,M,7.0,M,,*55
$GNGSA,A,3,02,13,04,25,08,07,27,,,,,,2.64,1.55,2.13,1*09
$GNGSA,A,3,09,,,,,,,,,,,,2.64,1.55,2.13,3*0B
$GNGSA,A,3,,,,,,,,,,,,,2.64,1.55,2.13,4*05
$GPGSV,3,1,12,02,33,299,35,04,52,247,35,07,84,119,35,08,47,207,35,0*6A
$GPGSV,3,2,12,10,01,310,,13,50,031,35,16,01,039,,20,,,35,0*5E
$GPGSV,3,3,12,23,,,35,25,67,043,35,27,18,219,35,28,00,182,,0*57
$GAGSV,1,1,02,09,13,317,36,27,31,126,36,0*7A
$GBGSV,1,1,00,0*77
$GNGLL,2959.99969,N,12000.00007,E,000045.00,A,A*73

$GNRMC,000046.00,A,2959.99968,N,12000.00005,E,0.037,,230721,5.69,W,A,V*52
$GNVTG,,T,,M,0.037,N,0.068,K,A*37
$GNGGA,000046.00,2959.99968,N,12000.00005,E,1,08,1.55,-7.6,M,7.0,M,,*54
$GNGSA,A,3,02,13,04,25,08,07,27,,,,,,2.64,1.55,2.13,1*09
$GNGSA,A,3,09,,,,,,,,,,,,2.64,1.55,2.13,3*0B
$GNGSA,A,3,,,,,,,,,,,,,2.64,1.55,2.13,4*05
$GPGSV,3,1,12,02,33,299,35,04,52,247,35,07,84,119,35,08,47,207,35,0*6A
$GPGSV,3,2,12,10,01,310,,13,50,031,35,16,01,039,,20,,,35,0*5E
$GPGSV,3,3,12,23,,,35,25,67,043,35,27,18,219,35,28,00,182,,0*57
$GAGSV,1,1,02,09,13,317,36,27,31,126,36,0*7A
$GBGSV,1,1,00,0*77
$GNGLL,2959.99968,N,12000.00005,E,000046.00,A,A*73

$GNRMC,000047.00,A,2959.99967,N,12000.00001,E,0.020,,230721,5.69,W,A,V*5E
$GNVTG,,T,,M,0.020,N,0.037,K,A*3B
$GNGGA,000047.00,2959.99967,N,12000.00001,E,1,09,1.01,-7.6,M,7.0,M,,*5E
$GNGSA,A,3,02,13,04,25,08,07,27,,,,,,1.82,1.01,1.51,1*06
$GNGSA,A,3,27,09,,,,,,,,,,,1.82,1.01,1.51,3*01
$GNGSA,A,3,,,,,,,,,,,,,1.82,1.01,1.51,4*0A
$GPGSV,3,1,12,02,33,299,35,04,52,247,35,07,84,117,35,08,47,207,35,0*64
$GPGSV,3,2,12,10,01,310,,13,50,031,35,16,01,039,,20,,,35,0*5E
$GPGSV,3,3,12,23,,,35,25,67,043,35,27,18,219,35,28,00,182,,0*57
$GAGSV,1,1,02,09,13,317,36,27,31,126,36,0*7A
$GBGSV,1,1,00,0*77
$GNGLL,2959.99967,N,12000.00001,E,000047.00,A,A*79

$GNRMC,000048.00,A,2959.99967,N,12000.00000,E,0.032,,230721,5.69,W,A,V*53
$GNVTG,,T,,M,0.032,N,0.060,K,A*3A
$GNGGA,000048.00,2959.99967,N,12000.00000,E,1,09,1.01,-7.6,M,7.0,M,,*50
$GNGSA,A,3,02,13,04,25,08,07,27,,,,,,1.82,1.01,1.51,1*06
$GNGSA,A,3,27,09,,,,,,,,,,,1.82,1.01,1.51,3*01
$GNGSA,A,3,,,,,,,,,,,,,1.82,1.01,1.51,4*0A
$GPGSV,3,1,12,02,33,299,35,04,52,247,35,07,84,117,35,08,47,207,35,0*64
$GPGSV,3,2,12,10,01,310,,13,50,031,35,16,01,039,,20,,,35,0*5E
$GPGSV,3,3,12,23,,,35,25,67,043,35,27,18,219,35,28,00,182,,0*57
$GAGSV,1,1,02,09,13,317,36,27,31,126,36,0*7A
$GBGSV,1,1,00,0*77
$GNGLL,2959.99967,N,12000.00000,E,000048.00,A,A*77

$GNRMC,000049.00,A,2959.99966,N,12000.00002,E,0.042,,230721,5.69,W,A,V*56
$GNVTG,,T,,M,0.042,N,0.079,K,A*35
$GNGGA,000049.00,2959.99966,N,12000.00002,E,1,09,1.01,-7.7,M,7.0,M,,*53
$GNGSA,A,3,02,13,04,25,08,07,27,,,,,,1.82,1.01,1.51,1*06
$GNGSA,A,3,27,09,,,,,,,,,,,1.82,1.01,1.51,3*01
$GNGSA,A,3,,,,,,,,,,,,,1.82,1.01,1.51,4*0A
$GPGSV,3,1,12,02,33,299,35,04,52,247,35,07,84,117,35,08,47,207,35,0*64
$GPGSV,3,2,12,10,01,310,,13,50,031,35,16,01,039,,20,,,35,0*5E
$GPGSV,3,3,12,23,,,35,25,67,043,35,27,18,219,35,28,00,182,,0*57
$GAGSV,1,1,02,09,13,317,36,27,31,126,36,0*7A
$GBGSV,1,1,00,0*77
$GNGLL,2959.99966,N,12000.00002,E,000049.00,A,A*75

$GNRMC,000050.00,A,2959.99965,N,12000.00001,E,0.009,,230721,5.69,W,A,V*51
$GNVTG,,T,,M,0.009,N,0.017,K,A*32
$GNGGA,000050.00,2959.99965,N,12000.00001,E,1,09,1.01,-7.7,M,7.0,M,,*5B
$GNGSA,A,3,02,13,04,25,08,07,27,,,,,,1.82,1.01,1.51,1*06
$GNGSA,A,3,27,09,,,,,,,,,,,1.82,1.01,1.51,3*01
$GNGSA,A,3,,,,,,,,,,,,,1.82,1.01,1.51,4*0A
$GPGSV,3,1,12,02,33,299,35,04,52,247,35,07,84,117,35,08,47,207,35,0*64
$GPGSV,3,2,12,10,01,310,,13,50,031,35,16,01,039,,20,,,35,0*5E
$GPGSV,3,3,12,23,,,35,25,67,043,35,27,18,219,35,28,00,182,,0*57
$GAGSV,1,1,02,09,13,317,36,27,31,126,36,0*7A
$GBGSV,1,1,00,0*77
$GNGLL,2959.99965,N,12000.00001,E,000050.00,A,A*7D

$GNRMC,000051.00,A,2959.99965,N,12000.00003,E,0.036,,230721,5.69,W,A,V*5E
$GNVTG,,T,,M,0.036,N,0.066,K,A*38
$GNGGA,000051.00,2959.99965,N,12000.00003,E,1,09,1.01,-7.7,M,7.0,M,,*58
$GNGSA,A,3,02,13,04,25,08,07,27,,,,,,1.82,1.01,1.51,1*06
$GNGSA,A,3,27,09,,,,,,,,,,,1.82,1.01,1.51,3*01
$GNGSA,A,3,,,,,,,,,,,,,1.82,1.01,1.51,4*0A
$GPGSV,3,1,12,02,33,299,35,04,52,247,35,07,84,117,35,08,47,207,35,0*64
$GPGSV,3,2,12,10,01,310,,13,50,031,35,16,01,039,,20,,,35,0*5E
$GPGSV,3,3,12,23,,,35,25,67,043,35,27,18,219,35,28,00,182,,0*57
$GAGSV,1,1,02,09,13,317,36,27,31,126,36,0*7A
$GBGSV,1,1,00,0*77
$GNGLL,2959.99965,N,12000.00003,E,000051.00,A,A*7E

$GNRMC,000052.00,A,2959.99965,N,12000.00002,E,0.005,,230721,5.69,W,A,V*5C
$GNVTG,,T,,M,0.005,N,0.008,K,A*30
$GNGGA,000052.00,2959.99965,N,12000.00002,E,1,09,1.01,-7.8,M,7.0,M,,*55
$GNGSA,A,3,02,13,04,25,08,07,27,,,,,,1.82,1.01,1.51,1*06
$GNGSA,A,3,27,09,,,,,,,,,,,1.82,1.01,1.51,3*01
$GNGSA,A,3,,,,,,,,,,,,,1.82,1.01,1.51,4*0A
$GPGSV,3,1,12,02,33,299,35,04,52,247,35,07,84,117,35,08,47,207,35,0*64
$GPGSV,3,2,12,10,01,310,,13,50,031,35,16,01,039,,20,,,35,0*5E
$GPGSV,3,3,12,23,,,35,25,67,043,35,27,18,219,35,28,00,182,,0*57
$GAGSV,1,1,02,09,13,317,36,27,31,126,36,0*7A
$GBGSV,1,1,00,0*77
$GNGLL,2959.99965,N,12000.00002,E,000052.00,A,A*7C

$GNRMC,000053.00,A,2959.99965,N,12000.00002,E,0.034,,230721,5.69,W,A,V*5F
$GNVTG,,T,,M,0.034,N,0.063,K,A*3F
$GNGGA,000053.00,2959.99965,N,12000.00002,E,1,09,1.01,-7.8,M,7.0,M,,*54
$GNGSA,A,3,02,13,04,25,08,07,27,,,,,,1.82,1.01,1.51,1*06
$GNGSA,A,3,27,09,,,,,,,,,,,1.82,1.01,1.51,3*01
$GNGSA,A,3,,,,,,,,,,,,,1.82,1.01,1.51,4*0A
$GPGSV,3,1,12,02,33,299,35,04,52,247,35,07,84,117,35,08,47,207,35,0*64
$GPGSV,3,2,12,10,01,310,,13,50,031,35,16,01,039,,20,,,35,0*5E
$GPGSV,3,3,12,23,,,35,25,67,043,35,27,18,219,35,28,00,182,,0*57
$GAGSV,1,1,02,09,13,317,36,27,31,126,36,0*7A
$GBGSV,1,1,00,0*77
$GNGLL,2959.99965,N,12000.00002,E,000053.00,A,A*7D

$GNRMC,000054.00,A,2959.99965,N,12000.00002,E,0.042,,230721,5.69,W,A,V*59
$GNVTG,,T,,M,0.042,N,0.079,K,A*35
$GNGGA,000054.00,2959.99965,N,12000.00002,E,1,09,1.01,-7.9,M,7.0,M,,*52
$GNGSA,A,3,02,13,04,25,08,07,27,,,,,,1.82,1.01,1.51,1*06
$GNGSA,A,3,27,09,,,,,,,,,,,1.82,1.01,1.51,3*01
$GNGSA,A,3,,,,,,,,,,,,,1.82,1.01,1.51,4*0A
$GPGSV,3,1,12,02,33,299,35,04,52,247,35,07,84,117,35,08,47,207,35,0*64
$GPGSV,3,2,12,10,01,310,,13,50,031,35,16,01,039,,20,,,35,0*5E
$GPGSV,3,3,12,23,,,35,25,67,043,35,27,18,219,35,28,00,182,,0*57
$GAGSV,1,1,02,09,13,317,36,27,31,126,36,0*7A
$GBGSV,1,1,00,0*77
$GNGLL,2959.99965,N,12000.00002,E,000054.00,A,A*7A

$GNRMC,000055.00,A,2959.99965,N,12000.00001,E,0.064,,230721,5.69,W,A,V*5F
$GNVTG,,T,,M,0.064,N,0.119,K,A*36
$GNGGA,000055.00,2959.99965,N,12000.00001,E,1,09,1.01,-7.9,M,7.0,M,,*50
$GNGSA,A,3,02,13,04,25,08,07,27,,,,,,1.82,1.01,1.51,1*06
$GNGSA,A,3,27,09,,,,,,,,,,,1.82,1.01,1.51,3*01
$GNGSA,A,3,,,,,,,,,,,,,1.82,1.01,1.51,4*0A
$GPGSV,3,1,12,02,33,299,35,04,52,247,35,07,84,117,35,08,47,207,35,0*64
$GPGSV,3,2,12,10,01,310,,13,50,031,35,16,01,039,,20,,,35,0*5E
$GPGSV,3,3,12,23,,,35,25,67,043,35,27,18,219,35,28,00,182,,0*57
$GAGSV,1,1,02,09,13,317,36,27,31,126,36,0*7A
$GBGSV,1,1,02,02,,,30,04,,,29,0*7B
$GNGLL,2959.99965,N,12000.00001,E,000055.00,A,A*78

$GNRMC,000056.00,A,2959.99964,N,11959.99999,E,0.088,,230721,5.69,W,A,V*51
$GNVTG,,T,,M,0.088,N,0.164,K,A*3E
$GNGGA,000056.00,2959.99964,N,11959.99999,E,1,09,1.01,-7.9,M,7.0,M,,*5C
$GNGSA,A,3,02,13,04,25,08,07,27,,,,,,1.82,1.01,1.51,1*06
$GNGSA,A,3,27,09,,,,,,,,,,,1.82,1.01,1.51,3*01
$GNGSA,A,3,,,,,,,,,,,,,1.82,1.01,1.51,4*0A
$GPGSV,3,1,12,02,33,299,35,04,52,247,35,07,84,117,35,08,47,207,35,0*64
$GPGSV,3,2,12,10,01,310,,13,50,031,35,16,01,039,,20,,,35,0*5E
$GPGSV,3,3,12,23,,,35,25,67,043,35,27,18,219,35,28,00,182,,0*57
$GAGSV,1,1,02,09,13,317,36,27,31,126,36,0*7A
$GBGSV,1,1,02,02,,,30,04,,,30,0*73
$GNGLL,2959.99964,N,11959.99999,E,000056.00,A,A*74

$GNRMC,000057.00,A,2959.99963,N,12000.00001,E,0.023,,230721,5.69,W,A,V*58
$GNVTG,,T,,M,0.023,N,0.043,K,A*3B
$GNGGA,000057.00,2959.99963,N,12000.00001,E,1,10,0.89,-8.0,M,7.0,M,,*5B
$GNGSA,A,3,02,13,04,25,08,07,27,20,,,,,1.60,0.89,1.33,1*0D
$GNGSA,A,3,27,09,,,,,,,,,,,1.60,0.89,1.33,3*08
$GNGSA,A,3,,,,,,,,,,,,,1.60,0.89,1.33,4*03
$GPGSV,3,1,12,02,33,299,35,04,52,247,35,07,84,117,35,08,47,207,35,0*64
$GPGSV,3,2,12,10,01,310,,13,50,031,35,16,01,039,,20,23,121,35,0*6D
$GPGSV,3,3,12,23,,,35,25,67,043,35,27,18,219,35,28,00,182,,0*57
$GAGSV,1,1,02,09,13,317,36,27,31,126,36,0*7A
$GBGSV,1,1,02,02,,,30,04,,,30,0*73
$GNGLL,2959.99963,N,12000.00001,E,000057.00,A,A*7C

$GNRMC,000058.00,A,2959.99962,N,12000.00001,E,0.010,,230721,5.69,W,A,V*56
$GNVTG,,T,,M,0.010,N,0.019,K,A*34
$GNGGA,000058.00,2959.99962,N,12000.00001,E,1,10,0.89,-8.1,M,7.0,M,,*54
$GNGSA,A,3,02,13,04,25,08,07,27,20,,,,,1.60,0.89,1.33,1*0D
$GNGSA,A,3,27,09,,,,,,,,,,,1.60,0.89,1.33,3*08
$GNGSA,A,3,,,,,,,,,,,,,1.60,0.89,1.33,4*03
$GPGSV,3,1,12,02,33,299,35,04,52,247,35,07,84,117,35,08,47,207,35,0*64
$GPGSV,3,2,12,10,01,310,,13,50,031,35,16,01,039,,20,23,121,35,0*6D
$GPGSV,3,3,12,23,,,35,25,67,043,35,27,18,219,35,28,00,182,,0*57
$GAGSV,1,1,02,09,13,317,36,27,31,126,36,0*7A
$GBGSV,1,1,02,02,,,30,04,,,30,0*73
$GNGLL,2959.99962,N,12000.00001,E,000058.00,A,A*72

$GNRMC,000059.00,A,2959.99961,N,12000.00002,E,0.016,,230721,5.69,W,A,V*51
$GNVTG,,T,,M,0.016,N,0.029,K,A*31
$GNGGA,000059.00,2959.99961,N,12000.00002,E,1,10,0.89,-8.1,M,7.0,M,,*55
$GNGSA,A,3,02,13,04,25,08,07,27,20,,,,,1.60,0.89,1.33,1*0D
$GNGSA,A,3,27,09,,,,,,,,,,,1.60,0.89,1.33,3*08
$GNGSA,A,3,,,,,,,,,,,,,1.60,0.89,1.33,4*03
$GPGSV,3,1,12,02,33,299,35,04,52,247,35,07,84,117,35,08,47,207,35,0*64
$GPGSV,3,2,12,10,01,310,,13,50,031,35,16,01,039,,20,23,121,35,0*6D
$GPGSV,3,3,12,23,,,35,25,67,043,35,27,18,219,35,28,00,182,,0*57
$GAGSV,1,1,02,09,13,317,36,27,31,126,36,0*7A
$GBGSV,1,1,02,02,,,30,04,,,30,0*73
$GNGLL,2959.99961,N,12000.00002,E,000059.00,A,A*73

$GNRMC,000100.00,A,2959.99960,N,12000.00002,E,0.030,,230721,5.69,W,A,V*59
$GNVTG,,T,,M,0.030,N,0.055,K,A*3E
$GNGGA,000100.00,2959.99960,N,12000.00002,E,1,11,0.80,-8.1,M,7.0,M,,*51
$GNGSA,A,3,02,13,04,23,25,08,07,27,20,,,,1.50,0.80,1.27,1*03
$GNGSA,A,3,27,09,,,,,,,,,,,1.50,0.80,1.27,3*07
$GNGSA,A,3,,,,,,,,,,,,,1.50,0.80,1.27,4*0C
$GPGSV,3,1,12,02,33,299,35,04,52,247,35,07,84,117,35,08,47,207,35,0*64
$GPGSV,3,2,12,10,01,310,,13,50,031,35,16,01,039,,20,23,121,35,0*6D
$GPGSV,3,3,12,23,27,057,35,25,67,043,35,27,18,219,35,28,00,182,,0*60
$GAGSV,1,1,02,09,13,317,36,27,31,126,36,0*7A
$GBGSV,1,1,02,02,,,30,04,,,30,0*73
$GNGLL,2959.99960,N,12000.00002,E,000100.00,A,A*7F

$GNRMC,000101.00,A,2959.99959,N,12000.00001,E,0.021,,230721,5.69,W,A,V*51
$GNVTG,,T,,M,0.021,N,0.040,K,A*3A
$GNGGA,000101.00,2959.99959,N,12000.00001,E,1,11,0.80,-8.1,M,7.0,M,,*59
$GNGSA,A,3,02,13,04,23,25,08,07,27,20,,,,1.50,0.80,1.27,1*03
$GNGSA,A,3,27,09,,,,,,,,,,,1.50,0.80,1.27,3*07
$GNGSA,A,3,,,,,,,,,,,,,1.50,0.80,1.27,4*0C
$GPGSV,3,1,12,02,33,299,35,04,52,247,35,07,84,117,35,08,47,207,35,0*64
$GPGSV,3,2,12,10,01,310,,13,50,031,35,16,01,039,,20,23,121,35,0*6D
$GPGSV,3,3,12,23,27,057,35,25,67,043,35,27,18,219,35,28,00,182,,0*60
$GAGSV,1,1,02,09,13,317,36,27,31,126,36,0*7A
$GBGSV,1,1,02,02,,,30,04,,,30,0*73
$GNGLL,2959.99959,N,12000.00001,E,000101.00,A,A*77

$GNRMC,000102.00,A,2959.99958,N,12000.00000,E,0.014,,230721,5.69,W,A,V*54
$GNVTG,,T,,M,0.014,N,0.026,K,A*3C
$GNGGA,000102.00,2959.99958,N,12000.00000,E,1,11,0.80,-8.1,M,7.0,M,,*5A
$GNGSA,A,3,02,13,04,23,25,08,07,27,20,,,,1.50,0.80,1.27,1*03
$GNGSA,A,3,27,09,,,,,,,,,,,1.50,0.80,1.27,3*07
$GNGSA,A,3,,,,,,,,,,,,,1.50,0.80,1.27,4*0C
$GPGSV,3,1,12,02,33,299,35,04,52,247,35,07,84,117,35,08,47,207,35,0*64
$GPGSV,3,2,12,10,01,310,,13,50,031,35,16,01,039,,20,23,121,35,0*6D
$GPGSV,3,3,12,23,27,057,35,25,67,043,35,27,19,219,35,28,00,182,,0*61
$GAGSV,1,1,02,09,13,317,36,27,31,126,36,0*7A
$GBGSV,1,1,02,02,,,31,04,,,30,0*72
$GNGLL,2959.99958,N,12000.00000,E,000102.00,A,A*74

$GNRMC,000103.00,A,2959.99958,N,12000.00001,E,0.004,,230721,5.69,W,A,V*55
$GNVTG,,T,,M,0.004,N,0.008,K,A*31
$GNGGA,000103.00,2959.99958,N,12000.00001,E,1,11,0.80,-8.1,M,7.0,M,,*5A
$GNGSA,A,3,02,13,04,23,25,08,07,27,20,,,,1.50,0.80,1.27,1*03
$GNGSA,A,3,27,09,,,,,,,,,,,1.50,0.80,1.27,3*07
$GNGSA,A,3,,,,,,,,,,,,,1.50,0.80,1.27,4*0C
$GPGSV,3,1,12,02,33,299,35,04,52,247,35,07,84,117,35,08,47,207,35,0*64
$GPGSV,3,2,12,10,01,310,,13,50,031,35,16,01,039,,20,23,121,35,0*6D
$GPGSV,3,3,12,23,27,057,35,25,67,043,35,27,19,219,35,28,00,182,,0*61
$GAGSV,1,1,02,09,13,317,36,27,31,126,36,0*7A
$GBGSV,1,1,02,02,,,30,04,,,30,0*73
$GNGLL,2959.99958,N,12000.00001,E,000103.00,A,A*74

$GNRMC,000104.00,A,2959.99958,N,12000.00002,E,0.015,,230721,5.69,W,A,V*51
$GNVTG,,T,,M,0.015,N,0.028,K,A*33
$GNGGA,000104.00,2959.99958,N,12000.00002,E,1,11,0.80,-8.1,M,7.0,M,,*5E
$GNGSA,A,3,02,13,04,23,25,08,07,27,20,,,,1.50,0.80,1.27,1*03
$GNGSA,A,3,27,09,,,,,,,,,,,1.50,0.80,1.27,3*07
$GNGSA,A,3,,,,,,,,,,,,,1.50,0.80,1.27,4*0C
$GPGSV,3,1,12,02,33,299,35,04,52,247,35,07,84,117,35,08,47,207,35,0*64
$GPGSV,3,2,12,10,01,310,,13,50,031,35,16,01,039,,20,23,121,35,0*6D
$GPGSV,3,3,12,23,27,057,35,25,67,043,35,27,19,219,35,28,00,182,,0*61
$GAGSV,1,1,02,09,13,317,36,27,31,126,36,0*7A
$GBGSV,1,1,02,02,,,30,04,,,30,0*73
$GNGLL,2959.99958,N,12000.00002,E,000104.00,A,A*70

$GNRMC,000105.00,A,2959.99958,N,12000.00003,E,0.022,,230721,5.69,W,A,V*55
$GNVTG,,T,,M,0.022,N,0.040,K,A*39
$GNGGA,000105.00,2959.99958,N,12000.00003,E,1,11,0.80,-8.1,M,7.0,M,,*5E
$GNGSA,A,3,02,13,04,23,25,08,07,27,20,,,,1.50,0.80,1.27,1*03
$GNGSA,A,3,27,09,,,,,,,,,,,1.50,0.80,1.27,3*07
$GNGSA,A,3,,,,,,,,,,,,,1.50,0.80,1.27,4*0C
$GPGSV,3,1,12,02,33,299,35,04,52,247,35,07,84,117,35,08,47,207,35,0*64
$GPGSV,3,2,12,10,01,310,,13,50,031,35,16,01,039,,20,23,121,35,0*6D
$GPGSV,3,3,12,23,27,057,35,25,67,043,35,27,19,219,35,28,00,182,,0*61
$GAGSV,1,1,02,09,13,317,36,27,31,126,36,0*7A
$GBGSV,1,1,02,02,,,31,04,,,30,0*72
$GNGLL,2959.99958,N,12000.00003,E,000105.00,A,A*70

$GNRMC,000106.00,A,2959.99958,N,12000.00003,E,0.018,,230721,5.69,W,A,V*5F
$GNVTG,,T,,M,0.018,N,0.033,K,A*34
$GNGGA,000106.00,2959.99958,N,12000.00003,E,1,11,0.80,-8.1,M,7.0,M,,*5D
$GNGSA,A,3,02,13,04,23,25,08,07,27,20,,,,1.50,0.80,1.27,1*03
$GNGSA,A,3,27,09,,,,,,,,,,,1.50,0.80,1.27,3*07
$GNGSA,A,3,,,,,,,,,,,,,1.50,0.80,1.27,4*0C
$GPGSV,3,1,12,02,33,299,35,04,52,247,35,07,84,117,35,08,47,207,35,0*64
$GPGSV,3,2,12,10,01,310,,13,50,031,35,16,01,039,,20,23,121,35,0*6D
$GPGSV,3,3,12,23,27,057,35,25,67,043,35,27,19,219,35,28,00,182,,0*61
$GAGSV,1,1,02,09,13,317,36,27,31,126,36,0*7A
$GBGSV,1,1,02,02,,,30,04,,,30,0*73
$GNGLL,2959.99958,N,12000.00003,E,000106.00,A,A*73

$GNRMC,000107.00,A,2959.99958,N,12000.00003,E,0.008,,230721,5.69,W,A,V*5F
$GNVTG,,T,,M,0.008,N,0.015,K,A*31
$GNGGA,000107.00,2959.99958,N,12000.00003,E,1,11,0.80,-8.1,M,7.0,M,,*5C
$GNGSA,A,3,02,13,04,23,25,08,07,27,20,,,,1.50,0.80,1.27,1*03
$GNGSA,A,3,27,09,,,,,,,,,,,1.50,0.80,1.27,3*07
$GNGSA,A,3,,,,,,,,,,,,,1.50,0.80,1.27,4*0C
$GPGSV,3,1,12,02,33,299,35,04,52,247,35,07,84,117,35,08,47,207,35,0*64
$GPGSV,3,2,12,10,01,310,,13,50,031,35,16,01,039,,20,23,121,35,0*6D
$GPGSV,3,3,12,23,27,057,35,25,67,043,35,27,19,219,35,28,00,182,,0*61
$GAGSV,1,1,02,09,13,317,36,27,31,126,36,0*7A
$GBGSV,1,1,02,02,,,30,04,,,31,0*72
$GNGLL,2959.99958,N,12000.00003,E,000107.00,A,A*72

$GNRMC,000108.00,A,2959.99958,N,12000.00003,E,0.014,,230721,5.69,W,A,V*5D
$GNVTG,,T,,M,0.014,N,0.026,K,A*3C
$GNGGA,000108.00,2959.99958,N,12000.00003,E,1,11,0.80,-8.2,M,7.0,M,,*50
$GNGSA,A,3,02,13,04,23,25,08,07,27,20,,,,1.50,0.80,1.27,1*03
$GNGSA,A,3,27,09,,,,,,,,,,,1.50,0.80,1.27,3*07
$GNGSA,A,3,,,,,,,,,,,,,1.50,0.80,1.27,4*0C
$GPGSV,3,1,12,02,33,299,35,04,52,247,35,07,84,117,35,08,47,207,35,0*64
$GPGSV,3,2,12,10,01,310,,13,50,031,35,16,01,039,,20,23,121,35,0*6D
$GPGSV,3,3,12,23,27,057,35,25,67,043,35,27,19,219,35,28,00,182,,0*61
$GAGSV,1,1,02,09,13,317,36,27,31,126,36,0*7A
$GBGSV,1,1,02,02,,,31,04,,,30,0*72
$GNGLL,2959.99958,N,12000.00003,E,000108.00,A,A*7D

$GNRMC,000109.00,A,2959.99958,N,12000.00003,E,0.004,,230721,5.69,W,A,V*5D
$GNVTG,,T,,M,0.004,N,0.007,K,A*3E
$GNGGA,000109.00,2959.99958,N,12000.00003,E,1,11,0.80,-8.2,M,7.0,M,,*51
$GNGSA,A,3,02,13,04,23,25,08,07,27,20,,,,1.50,0.80,1.27,1*03
$GNGSA,A,3,27,09,,,,,,,,,,,1.50,0.80,1.27,3*07
$GNGSA,A,3,,,,,,,,,,,,,1.50,0.80,1.27,4*0C
$GPGSV,3,1,12,02,33,299,35,04,52,247,35,07,84,117,35,08,47,207,35,0*64
$GPGSV,3,2,12,10,01,310,,13,50,031,35,16,01,039,,20,23,121,35,0*6D
$GPGSV,3,3,12,23,27,057,35,25,67,043,35,27,19,219,35,28,00,182,,0*61
$GAGSV,1,1,02,09,13,317,36,27,31,126,36,0*7A
$GBGSV,1,1,02,02,,,30,04,,,30,0*73
$GNGLL,2959.99958,N,12000.00003,E,000109.00,A,A*7C

$GNRMC,000110.00,A,2959.99957,N,12000.00004,E,0.020,,230721,5.69,W,A,V*5B
$GNVTG,,T,,M,0.020,N,0.037,K,A*3B
$GNGGA,000110.00,2959.99957,N,12000.00004,E,1,11,0.80,-8.2,M,7.0,M,,*51
$GNGSA,A,3,02,13,04,23,25,08,07,27,20,,,,1.50,0.80,1.27,1*03
$GNGSA,A,3,27,09,,,,,,,,,,,1.50,0.80,1.27,3*07
$GNGSA,A,3,,,,,,,,,,,,,1.50,0.80,1.27,4*0C
$GPGSV,3,1,12,02,33,299,35,04,52,247,35,07,84,117,35,08,47,207,35,0*64
$GPGSV,3,2,12,10,01,310,,13,50,031,35,16,01,039,,20,23,121,35,0*6D
$GPGSV,3,3,12,23,27,057,35,25,67,043,35,27,19,219,35,28,00,182,,0*61
$GAGSV,1,1,02,09,13,317,36,27,31,126,36,0*7A
$GBGSV,1,1,02,02,,,30,04,,,30,0*73
$GNGLL,2959.99957,N,12000.00004,E,000110.00,A,A*7C

$GNRMC,000111.00,A,2959.99957,N,12000.00004,E,0.019,,230721,5.69,W,A,V*50
$GNVTG,,T,,M,0.019,N,0.034,K,A*32
$GNGGA,000111.00,2959.99957,N,12000.00004,E,1,11,0.80,-8.2,M,7.0,M,,*50
$GNGSA,A,3,02,13,04,23,25,08,07,27,20,,,,1.50,0.80,1.27,1*03
$GNGSA,A,3,27,09,,,,,,,,,,,1.50,0.80,1.27,3*07
$GNGSA,A,3,,,,,,,,,,,,,1.50,0.80,1.27,4*0C
$GPGSV,3,1,12,02,33,299,35,04,52,247,35,07,84,117,35,08,47,207,35,0*64
$GPGSV,3,2,12,10,01,310,,13,50,031,35,16,01,039,,20,23,121,35,0*6D
$GPGSV,3,3,12,23,27,057,35,25,67,043,35,27,19,219,35,28,00,182,,0*61
$GAGSV,1,1,02,09,13,317,36,27,31,126,36,0*7A
$GBGSV,1,1,02,02,,,30,04,,,30,0*73
$GNGLL,2959.99957,N,12000.00004,E,000111.00,A,A*7D

$GNRMC,000112.00,A,2959.99956,N,12000.00004,E,0.007,,230721,5.69,W,A,V*5D
$GNVTG,,T,,M,0.007,N,0.014,K,A*3F
$GNGGA,000112.00,2959.99956,N,12000.00004,E,1,11,0.80,-8.2,M,7.0,M,,*52
$GNGSA,A,3,02,13,04,23,25,08,07,27,20,,,,1.51,0.80,1.27,1*02
$GNGSA,A,3,27,09,,,,,,,,,,,1.51,0.80,1.27,3*06
$GNGSA,A,3,,,,,,,,,,,,,1.51,0.80,1.27,4*0D
$GPGSV,3,1,12,02,33,299,35,04,52,247,35,07,84,117,35,08,47,207,35,0*64
$GPGSV,3,2,12,10,01,310,,13,50,031,35,16,01,039,,20,23,121,35,0*6D
$GPGSV,3,3,12,23,27,057,35,25,67,043,35,27,19,219,35,28,00,182,,0*61
$GAGSV,1,1,02,09,13,317,36,27,31,126,36,0*7A
$GBGSV,1,1,02,02,,,30,04,,,30,0*73
$GNGLL,2959.99956,N,12000.00004,E,000112.00,A,A*7F

$GNRMC,000113.00,A,2959.99956,N,12000.00005,E,0.012,,230721,5.69,W,A,V*59
$GNVTG,,T,,M,0.012,N,0.022,K,A*3E
$GNGGA,000113.00,2959.99956,N,12000.00005,E,1,11,0.80,-8.2,M,7.0,M,,*52
$GNGSA,A,3,02,13,04,23,25,08,07,27,20,,,,1.51,0.80,1.27,1*02
$GNGSA,A,3,27,09,,,,,,,,,,,1.51,0.80,1.27,3*06
$GNGSA,A,3,,,,,,,,,,,,,1.51,0.80,1.27,4*0D
$GPGSV,3,1,12,02,33,299,35,04,52,247,35,07,84,117,35,08,47,207,35,0*64
$GPGSV,3,2,12,10,01,310,,13,50,031,35,16,01,039,,20,23,121,35,0*6D
$GPGSV,3,3,12,23,27,057,35,25,67,043,35,27,19,219,35,28,00,182,,0*61
$GAGSV,1,1,02,09,13,317,36,27,31,126,36,0*7A
$GBGSV,1,1,02,02,,,30,04,,,30,0*73
$GNGLL,2959.99956,N,12000.00005,E,000113.00,A,A*7F

$GNRMC,000114.00,A,2959.99955,N,12000.00005,E,0.006,,230721,5.69,W,A,V*58
$GNVTG,,T,,M,0.006,N,0.011,K,A*3B
$GNGGA,000114.00,2959.99955,N,12000.00005,E,1,11,0.80,-8.2,M,7.0,M,,*56
$GNGSA,A,3,02,13,04,23,25,08,07,27,20,,,,1.51,0.80,1.27,1*02
$GNGSA,A,3,27,09,,,,,,,,,,,1.51,0.80,1.27,3*06
$GNGSA,A,3,,,,,,,,,,,,,1.51,0.80,1.27,4*0D
$GPGSV,3,1,12,02,33,299,35,04,52,247,35,07,84,117,35,08,47,207,35,0*64
$GPGSV,3,2,12,10,01,310,,13,50,031,35,16,01,039,,20,23,121,35,0*6D
$GPGSV,3,3,12,23,27,057,35,25,67,043,35,27,19,219,35,28,00,182,,0*61
$GAGSV,1,1,02,09,13,317,36,27,31,126,36,0*7A
$GBGSV,1,1,02,02,,,30,04,,,30,0*73
$GNGLL,2959.99955,N,12000.00005,E,000114.00,A,A*7B

$GNRMC,000115.00,A,2959.99955,N,12000.00005,E,0.014,,230721,5.69,W,A,V*5A
$GNVTG,,T,,M,0.014,N,0.026,K,A*3C
$GNGGA,000115.00,2959.99955,N,12000.00005,E,1,11,0.80,-8.2,M,7.0,M,,*57
$GNGSA,A,3,02,13,04,23,25,08,07,27,20,,,,1.51,0.80,1.27,1*02
$GNGSA,A,3,27,09,,,,,,,,,,,1.51,0.80,1.27,3*06
$GNGSA,A,3,,,,,,,,,,,,,1.51,0.80,1.27,4*0D
$GPGSV,3,1,12,02,33,299,35,04,52,247,35,07,84,117,35,08,47,207,35,0*64
$GPGSV,3,2,12,10,01,310,,13,50,031,35,16,01,039,,20,23,121,35,0*6D
$GPGSV,3,3,12,23,27,057,35,25,67,043,35,27,19,219,35,28,00,182,,0*61
$GAGSV,1,1,02,09,13,317,36,27,31,126,36,0*7A
$GBGSV,1,1,02,02,,,30,04,,,30,0*73
$GNGLL,2959.99955,N,12000.00005,E,000115.00,A,A*7A

$GNRMC,000116.00,A,2959.99954,N,12000.00005,E,0.006,,230721,5.69,W,A,V*5B
$GNVTG,,T,,M,0.006,N,0.011,K,A*3B
$GNGGA,000116.00,2959.99954,N,12000.00005,E,1,11,0.80,-8.2,M,7.0,M,,*55
$GNGSA,A,3,02,13,04,23,25,08,07,27,20,,,,1.51,0.80,1.27,1*02
$GNGSA,A,3,27,09,,,,,,,,,,,1.51,0.80,1.27,3*06
$GNGSA,A,3,,,,,,,,,,,,,1.51,0.80,1.27,4*0D
$GPGSV,3,1,12,02,33,299,35,04,52,247,35,07,84,117,35,08,47,207,35,0*64
$GPGSV,3,2,12,10,01,310,,13,50,031,35,16,01,039,,20,23,121,35,0*6D
$GPGSV,3,3,12,23,27,057,35,25,67,043,35,27,19,219,35,28,00,182,,0*61
$GAGSV,1,1,02,09,13,317,36,27,31,126,36,0*7A
$GBGSV,1,1,02,02,,,30,04,,,30,0*73
$GNGLL,2959.99954,N,12000.00005,E,000116.00,A,A*78

$GNRMC,000117.00,A,2959.99954,N,12000.00006,E,0.008,,230721,5.69,W,A,V*57
$GNVTG,,T,,M,0.008,N,0.014,K,A*30
$GNGGA,000117.00,2959.99954,N,12000.00006,E,1,11,0.80,-8.2,M,7.0,M,,*57
$GNGSA,A,3,02,13,04,23,25,08,07,27,20,,,,1.51,0.80,1.27,1*02
$GNGSA,A,3,27,09,,,,,,,,,,,1.51,0.80,1.27,3*06
$GNGSA,A,3,,,,,,,,,,,,,1.51,0.80,1.27,4*0D
$GPGSV,3,1,12,02,33,299,35,04,52,247,35,07,84,117,35,08,47,207,35,0*64
$GPGSV,3,2,12,10,01,310,,13,50,031,35,16,01,039,,20,23,121,35,0*6D
$GPGSV,3,3,12,23,27,057,35,25,67,043,35,27,19,219,35,28,00,182,,0*61
$GAGSV,1,1,02,09,13,317,36,27,31,126,36,0*7A
$GBGSV,1,1,02,02,,,30,04,,,30,0*73
$GNGLL,2959.99954,N,12000.00006,E,000117.00,A,A*7A

$GNRMC,000118.00,A,2959.99954,N,12000.00006,E,0.014,,230721,5.69,W,A,V*55
$GNVTG,,T,,M,0.014,N,0.027,K,A*3D
$GNGGA,000118.00,2959.99954,N,12000.00006,E,1,11,0.80,-8.2,M,7.0,M,,*58
$GNGSA,A,3,02,13,04,23,25,08,07,27,20,,,,1.51,0.80,1.27,1*02
$GNGSA,A,3,27,09,,,,,,,,,,,1.51,0.80,1.27,3*06
$GNGSA,A,3,,,,,,,,,,,,,1.51,0.80,1.27,4*0D
$GPGSV,3,1,12,02,33,299,35,04,52,247,35,07,84,117,35,08,47,207,35,0*64
$GPGSV,3,2,12,10,01,310,,13,50,031,35,16,01,039,,20,23,121,35,0*6D
$GPGSV,3,3,12,23,27,057,35,25,67,043,35,27,19,219,35,28,00,182,,0*61
$GAGSV,1,1,02,09,13,317,36,27,31,126,36,0*7A
$GBGSV,1,1,02,02,,,30,04,,,30,0*73
$GNGLL,2959.99954,N,12000.00006,E,000118.00,A,A*75

$GNRMC,000119.00,A,2959.99954,N,12000.00006,E,0.027,,230721,5.69,W,A,V*54
$GNVTG,,T,,M,0.027,N,0.049,K,A*35
$GNGGA,000119.00,2959.99954,N,12000.00006,E,1,11,0.80,-8.2,M,7.0,M,,*59
$GNGSA,A,3,02,13,04,23,25,08,07,27,20,,,,1.51,0.80,1.27,1*02
$GNGSA,A,3,27,09,,,,,,,,,,,1.51,0.80,1.27,3*06
$GNGSA,A,3,,,,,,,,,,,,,1.51,0.80,1.27,4*0D
$GPGSV,3,1,12,02,33,299,35,04,52,247,35,07,84,117,35,08,47,207,35,0*64
$GPGSV,3,2,12,10,01,310,,13,50,031,35,16,01,039,,20,23,121,35,0*6D
$GPGSV,3,3,12,23,27,057,35,25,67,043,35,27,19,219,35,28,00,182,,0*61
$GAGSV,1,1,02,09,13,317,36,27,31,126,36,0*7A
$GBGSV,1,1,02,02,,,30,04,,,30,0*73
$GNGLL,2959.99954,N,12000.00006,E,000119.00,A,A*74

$GNRMC,000120.00,A,2959.99954,N,12000.00006,E,0.017,,230721,5.69,W,A,V*5D
$GNVTG,,T,,M,0.017,N,0.031,K,A*39
$GNGGA,000120.00,2959.99954,N,12000.00006,E,1,11,0.80,-8.2,M,7.0,M,,*53
$GNGSA,A,3,02,13,04,23,25,08,07,27,20,,,,1.51,0.80,1.27,1*02
$GNGSA,A,3,27,09,,,,,,,,,,,1.51,0.80,1.27,3*06
$GNGSA,A,3,,,,,,,,,,,,,1.51,0.80,1.27,4*0D
$GPGSV,3,1,12,02,33,299,35,04,52,247,35,07,84,117,35,08,47,207,35,0*64
$GPGSV,3,2,12,10,01,310,,13,50,031,35,16,01,039,,20,23,121,35,0*6D
$GPGSV,3,3,12,23,27,057,35,25,67,043,35,27,19,219,35,28,00,182,,0*61
$GAGSV,1,1,02,09,13,317,36,27,31,126,36,0*7A
$GBGSV,1,1,03,02,,,30,04,,,30,13,,,32,0*71
$GNGLL,2959.99954,N,12000.00006,E,000120.00,A,A*7E

$GNRMC,000121.00,A,2959.99953,N,12000.00007,E,0.016,,230721,5.69,W,A,V*5B
$GNVTG,,T,,M,0.016,N,0.029,K,A*31
$GNGGA,000121.00,2959.99953,N,12000.00007,E,1,11,0.80,-8.2,M,7.0,M,,*54
$GNGSA,A,3,02,13,04,23,25,08,07,27,20,,,,1.51,0.80,1.27,1*02
$GNGSA,A,3,27,09,,,,,,,,,,,1.51,0.80,1.27,3*06
$GNGSA,A,3,,,,,,,,,,,,,1.51,0.80,1.27,4*0D
$GPGSV,3,1,12,02,33,299,35,04,52,247,35,07,84,117,35,08,47,207,35,0*64
$GPGSV,3,2,12,10,01,310,,13,50,031,35,16,01,039,,20,23,121,35,0*6D
$GPGSV,3,3,12,23,27,057,35,25,67,043,35,27,19,219,35,28,00,182,,0*61
$GAGSV,1,1,03,09,13,317,36,23,39,223,,27,31,126,36,0*43
$GBGSV,1,1,03,02,,,30,04,,,30,13,,,31,0*72
$GNGLL,2959.99953,N,12000.00007,E,000121.00,A,A*79

$GNRMC,000122.00,A,2959.99953,N,12000.00008,E,0.016,,230721,5.69,W,A,V*57
$GNVTG,,T,,M,0.016,N,0.030,K,A*39
$GNGGA,000122.00,2959.99953,N,12000.00008,E,1,11,0.80,-8.3,M,7.0,M,,*59
$GNGSA,A,3,02,13,04,23,25,08,07,27,20,,,,1.51,0.80,1.27,1*02
$GNGSA,A,3,27,09,,,,,,,,,,,1.51,0.80,1.27,3*06
$GNGSA,A,3,,,,,,,,,,,,,1.51,0.80,1.27,4*0D
$GPGSV,3,1,12,02,33,299,35,04,52,247,35,07,84,117,35,08,47,207,35,0*64
$GPGSV,3,2,12,10,01,310,,13,50,031,35,16,01,039,,20,23,121,35,0*6D
$GPGSV,3,3,12,23,27,057,35,25,67,043,35,27,19,219,35,28,00,182,,0*61
$GAGSV,1,1,03,09,13,317,36,23,39,223,35,27,31,126,36,0*45
$GBGSV,1,1,04,02,,,30,04,,,30,13,,,30,14,,,32,0*70
$GNGLL,2959.99953,N,12000.00008,E,000122.00,A,A*75

$GNRMC,000123.00,A,2959.99952,N,12000.00008,E,0.016,,230721,5.69,W,A,V*57
$GNVTG,,T,,M,0.016,N,0.030,K,A*39
$GNGGA,000123.00,2959.99952,N,12000.00008,E,1,11,0.80,-8.3,M,7.0,M,,*59
$GNGSA,A,3,02,13,04,23,25,08,07,27,20,,,,1.51,0.80,1.27,1*02
$GNGSA,A,3,27,09,,,,,,,,,,,1.51,0.80,1.27,3*06
$GNGSA,A,3,,,,,,,,,,,,,1.51,0.80,1.27,4*0D
$GPGSV,3,1,12,02,33,299,35,04,52,247,35,07,84,117,35,08,47,207,35,0*64
$GPGSV,3,2,12,10,01,310,,13,50,031,35,16,01,039,,20,23,121,35,0*6D
$GPGSV,3,3,12,23,27,057,35,25,67,043,35,27,19,219,35,28,00,182,,0*61
$GAGSV,1,1,04,09,13,317,36,23,39,223,35,24,85,020,,27,31,126,36,0*7B
$GBGSV,1,1,04,02,,,30,04,,,30,13,,,30,14,,,30,0*72
$GNGLL,2959.99952,N,12000.00008,E,000123.00,A,A*75

$GNRMC,000124.00,A,2959.99951,N,12000.00009,E,0.014,,230721,5.69,W,A,V*50
$GNVTG,,T,,M,0.014,N,0.025,K,A*3F
$GNGGA,000124.00,2959.99951,N,12000.00009,E,1,11,0.80,-8.3,M,7.0,M,,*5C
$GNGSA,A,3,02,13,04,23,25,08,07,27,20,,,,1.51,0.80,1.27,1*02
$GNGSA,A,3,27,09,,,,,,,,,,,1.51,0.80,1.27,3*06
$GNGSA,A,3,,,,,,,,,,,,,1.51,0.80,1.27,4*0D
$GPGSV,3,1,12,02,33,299,35,04,52,247,35,07,84,117,35,08,47,207,35,0*64
$GPGSV,3,2,12,10,01,310,,13,50,031,35,16,01,039,,20,23,121,35,0*6D
$GPGSV,3,3,12,23,27,057,35,25,67,043,35,27,19,219,35,28,00,182,,0*61
$GAGSV,1,1,04,09,13,317,36,23,39,223,36,24,85,020,36,27,31,126,36,0*7D
$GBGSV,1,1,04,02,,,30,04,,,30,13,,,30,14,,,29,0*7A
$GNGLL,2959.99951,N,12000.00009,E,000124.00,A,A*70

$GNRMC,000125.00,A,2959.99951,N,12000.00010,E,0.039,,230721,5.69,W,A,V*56
$GNVTG,,T,,M,0.039,N,0.073,K,A*33
$GNGGA,000125.00,2959.99951,N,12000.00010,E,1,11,0.80,-8.3,M,7.0,M,,*55
$GNGSA,A,3,02,13,04,23,25,08,07,27,20,,,,1.51,0.80,1.27,1*02
$GNGSA,A,3,27,09,,,,,,,,,,,1.51,0.80,1.27,3*06
$GNGSA,A,3,,,,,,,,,,,,,1.51,0.80,1.27,4*0D
$GPGSV,3,1,12,02,33,299,35,04,52,247,35,07,84,117,35,08,47,207,35,0*64
$GPGSV,3,2,12,10,01,310,,13,50,031,35,16,01,039,,20,23,121,35,0*6D
$GPGSV,3,3,12,23,27,057,35,25,67,043,35,27,19,219,35,28,00,182,,0*61
$GAGSV,1,1,04,09,14,317,36,23,39,223,36,24,85,020,36,27,31,126,36,0*7A
$GBGSV,1,1,04,02,,,30,04,,,30,13,,,30,14,,,29,0*7A
$GNGLL,2959.99951,N,12000.00010,E,000125.00,A,A*79

$GNRMC,000126.00,A,2959.99952,N,12000.00010,E,0.005,,230721,5.69,W,A,V*59
$GNVTG,,T,,M,0.005,N,0.009,K,A*31
$GNGGA,000126.00,2959.99952,N,12000.00010,E,1,11,0.80,-8.3,M,7.0,M,,*55
$GNGSA,A,3,02,13,04,23,25,08,07,27,20,,,,1.51,0.80,1.27,1*02
$GNGSA,A,3,27,09,,,,,,,,,,,1.51,0.80,1.27,3*06
$GNGSA,A,3,,,,,,,,,,,,,1.51,0.80,1.27,4*0D
$GPGSV,3,1,12,02,33,299,35,04,52,247,35,07,84,117,35,08,47,207,35,0*64
$GPGSV,3,2,12,10,01,310,,13,50,031,35,16,01,039,,20,23,121,35,0*6D
$GPGSV,3,3,12,23,27,057,35,25,67,043,35,27,19,219,35,28,00,182,,0*61
$GAGSV,1,1,04,09,14,317,36,23,39,223,36,24,85,020,36,27,31,126,36,0*7A
$GBGSV,1,1,04,02,,,30,04,,,30,13,,,30,14,,,29,0*7A
$GNGLL,2959.99952,N,12000.00010,E,000126.00,A,A*79

$GNRMC,000127.00,A,2959.99952,N,12000.00011,E,0.028,,230721,5.69,W,A,V*56
$GNVTG,,T,,M,0.028,N,0.052,K,A*30
$GNGGA,000127.00,2959.99952,N,12000.00011,E,1,11,0.80,-8.3,M,7.0,M,,*55
$GNGSA,A,3,02,13,04,23,25,08,07,27,20,,,,1.51,0.80,1.27,1*02
$GNGSA,A,3,27,09,,,,,,,,,,,1.51,0.80,1.27,3*06
$GNGSA,A,3,,,,,,,,,,,,,1.51,0.80,1.27,4*0D
$GPGSV,3,1,12,02,33,299,35,04,52,247,35,07,84,117,35,08,47,207,35,0*64
$GPGSV,3,2,12,10,01,310,,13,50,031,35,16,01,039,,20,23,121,35,0*6D
$GPGSV,3,3,12,23,27,057,35,25,67,043,35,27,19,219,35,28,00,182,,0*61
$GAGSV,1,1,04,09,14,317,36,23,39,223,36,24,85,020,36,27,31,126,36,0*7A
$GBGSV,1,1,04,02,,,30,04,,,30,13,,,30,14,,,29,0*7A
$GNGLL,2959.99952,N,12000.00011,E,000127.00,A,A*79

$GNRMC,000128.00,A,2959.99952,N,12000.00011,E,0.024,,230721,5.69,W,A,V*55
$GNVTG,,T,,M,0.024,N,0.045,K,A*3A
$GNGGA,000128.00,2959.99952,N,12000.00011,E,1,11,0.80,-8.3,M,7.0,M,,*5A
$GNGSA,A,3,02,13,04,23,25,08,07,27,20,,,,1.51,0.80,1.27,1*02
$GNGSA,A,3,27,09,,,,,,,,,,,1.51,0.80,1.27,3*06
$GNGSA,A,3,,,,,,,,,,,,,1.51,0.80,1.27,4*0D
$GPGSV,3,1,12,02,33,299,35,04,52,247,35,07,84,117,35,08,47,207,35,0*64
$GPGSV,3,2,12,10,01,310,,13,50,031,35,16,01,039,,20,23,121,35,0*6D
$GPGSV,3,3,12,23,27,057,35,25,67,043,35,27,19,219,35,28,00,182,,0*61
$GAGSV,1,1,04,09,14,317,36,23,39,223,36,24,85,020,36,27,31,126,36,0*7A
$GBGSV,1,1,04,02,,,30,04,,,30,13,,,30,14,,,29,0*7A
$GNGLL,2959.99952,N,12000.00011,E,000128.00,A,A*76

$GNRMC,000129.00,A,2959.99952,N,12000.00011,E,0.019,,230721,5.69,W,A,V*5A
$GNVTG,,T,,M,0.019,N,0.034,K,A*32
$GNGGA,000129.00,2959.99952,N,12000.00011,E,1,11,0.80,-8.3,M,7.0,M,,*5B
$GNGSA,A,3,02,13,04,23,25,08,07,27,20,,,,1.51,0.80,1.27,1*02
$GNGSA,A,3,27,09,,,,,,,,,,,1.51,0.80,1.27,3*06
$GNGSA,A,3,,,,,,,,,,,,,1.51,0.80,1.27,4*0D
$GPGSV,3,1,12,02,33,299,35,04,52,247,35,07,84,117,35,08,47,207,35,0*64
$GPGSV,3,2,12,10,01,310,,13,50,031,35,16,01,039,,20,23,121,35,0*6D
$GPGSV,3,3,12,23,27,057,35,25,67,043,35,27,19,219,35,28,00,182,,0*61
$GAGSV,1,1,04,09,14,317,36,23,39,223,36,24,85,020,36,27,31,126,36,0*7A
$GBGSV,1,1,04,02,,,30,04,,,30,13,,,30,14,,,29,0*7A
$GNGLL,2959.99952,N,12000.00011,E,000129.00,A,A*77

$GNRMC,000130.00,A,2959.99952,N,12000.00011,E,0.012,,230721,5.69,W,A,V*59
$GNVTG,,T,,M,0.012,N,0.022,K,A*3E
$GNGGA,000130.00,2959.99952,N,12000.00011,E,1,11,0.80,-8.3,M,7.0,M,,*53
$GNGSA,A,3,02,13,04,23,25,08,07,27,20,,,,1.51,0.80,1.27,1*02
$GNGSA,A,3,27,09,,,,,,,,,,,1.51,0.80,1.27,3*06
$GNGSA,A,3,,,,,,,,,,,,,1.51,0.80,1.27,4*0D
$GPGSV,3,1,12,02,33,299,35,04,52,247,35,07,84,117,35,08,47,207,35,0*64
$GPGSV,3,2,12,10,01,310,,13,50,031,35,16,01,039,,20,23,121,35,0*6D
$GPGSV,3,3,12,23,27,057,35,25,67,043,35,27,19,219,35,28,00,182,,0*61
$GAGSV,1,1,04,09,14,317,36,23,39,223,36,24,85,020,36,27,31,126,36,0*7A
$GBGSV,1,1,04,02,,,30,04,,,30,13,,,30,14,,,29,0*7A
$GNGLL,2959.99952,N,12000.00011,E,000130.00,A,A*7F

$GNRMC,000131.00,A,2959.99952,N,12000.00012,E,0.019,,230721,5.69,W,A,V*50
$GNVTG,,T,,M,0.019,N,0.035,K,A*33
$GNGGA,000131.00,2959.99952,N,12000.00012,E,1,11,0.80,-8.3,M,7.0,M,,*51
$GNGSA,A,3,02,13,04,23,25,08,07,27,20,,,,1.51,0.80,1.27,1*02
$GNGSA,A,3,27,09,,,,,,,,,,,1.51,0.80,1.27,3*06
$GNGSA,A,3,,,,,,,,,,,,,1.51,0.80,1.27,4*0D
$GPGSV,3,1,12,02,33,299,35,04,52,247,35,07,84,117,35,08,47,207,35,0*64
$GPGSV,3,2,12,10,01,310,,13,50,031,35,16,01,039,,20,23,121,35,0*6D
$GPGSV,3,3,12,23,27,057,35,25,67,043,35,27,19,219,35,28,00,182,,0*61
$GAGSV,1,1,04,09,14,317,36,23,39,223,36,24,85,020,36,27,30,126,36,0*7B
$GBGSV,1,1,04,02,,,30,04,,,30,13,,,31,14,,,29,0*7B
$GNGLL,2959.99952,N,12000.00012,E,000131.00,A,A*7D

$GNRMC,000132.00,A,2959.99952,N,12000.00013,E,0.007,,230721,5.69,W,A,V*5D
$GNVTG,,T,,M,0.007,N,0.013,K,A*38
$GNGGA,000132.00,2959.99952,N,12000.00013,E,1,11,0.80,-8.2,M,7.0,M,,*52
$GNGSA,A,3,02,13,04,23,25,08,07,27,20,,,,1.51,0.80,1.27,1*02
$GNGSA,A,3,27,09,,,,,,,,,,,1.51,0.80,1.27,3*06
$GNGSA,A,3,,,,,,,,,,,,,1.51,0.80,1.27,4*0D
$GPGSV,3,1,12,02,33,299,35,04,52,247,35,07,84,117,35,08,47,207,35,0*64
$GPGSV,3,2,12,10,01,310,,13,50,031,35,16,01,039,,20,23,121,35,0*6D
$GPGSV,3,3,12,23,27,057,35,25,67,043,35,27,19,219,35,28,00,182,,0*61
$GAGSV,1,1,04,09,14,317,36,23,39,223,36,24,85,020,36,27,30,126,36,0*7B
$GBGSV,1,1,04,02,,,30,04,,,30,13,,,30,14,,,29,0*7A
$GNGLL,2959.99952,N,12000.00013,E,000132.00,A,A*7F

$GNRMC,000133.00,A,2959.99953,N,12000.00014,E,0.016,,230721,5.69,W,A,V*5A
$GNVTG,,T,,M,0.016,N,0.029,K,A*31
$GNGGA,000133.00,2959.99953,N,12000.00014,E,1,11,0.80,-8.2,M,7.0,M,,*55
$GNGSA,A,3,02,13,04,23,25,08,07,27,20,,,,1.51,0.80,1.27,1*02
$GNGSA,A,3,27,09,,,,,,,,,,,1.51,0.80,1.27,3*06
$GNGSA,A,3,,,,,,,,,,,,,1.51,0.80,1.27,4*0D
$GPGSV,3,1,12,02,33,299,35,04,52,247,35,07,84,117,35,08,47,207,35,0*64
$GPGSV,3,2,12,10,01,310,,13,50,031,35,16,01,039,,20,23,121,35,0*6D
$GPGSV,3,3,12,23,27,057,35,25,67,043,35,27,19,219,35,28,00,182,,0*61
$GAGSV,1,1,04,09,14,317,36,23,39,223,36,24,85,020,36,27,30,126,36,0*7B
$GBGSV,1,1,04,02,,,30,04,,,30,13,,,30,14,,,29,0*7A
$GNGLL,2959.99953,N,12000.00014,E,000133.00,A,A*78

$GNRMC,000134.00,A,2959.99955,N,12000.00013,E,0.017,,230721,5.69,W,A,V*5D
$GNVTG,,T,,M,0.017,N,0.032,K,A*3A
$GNGGA,000134.00,2959.99955,N,12000.00013,E,1,11,0.80,-8.1,M,7.0,M,,*50
$GNGSA,A,3,02,13,04,23,25,08,07,27,20,,,,1.51,0.80,1.27,1*02
$GNGSA,A,3,27,09,,,,,,,,,,,1.51,0.80,1.27,3*06
$GNGSA,A,3,,,,,,,,,,,,,1.51,0.80,1.27,4*0D
$GPGSV,3,1,12,02,33,299,35,04,52,247,35,07,84,117,35,08,47,207,35,0*64
$GPGSV,3,2,12,10,01,310,,13,50,031,35,16,01,039,,20,23,121,35,0*6D
$GPGSV,3,3,12,23,27,057,35,25,67,043,35,27,19,219,35,28,00,182,,0*61
$GAGSV,1,1,04,09,14,317,36,23,39,223,36,24,85,020,36,27,30,126,36,0*7B
$GBGSV,1,1,04,02,,,30,04,,,30,13,,,30,14,,,29,0*7A
$GNGLL,2959.99955,N,12000.00013,E,000134.00,A,A*7E

$GNRMC,000135.00,A,2959.99956,N,12000.00012,E,0.016,,230721,5.69,W,A,V*5F
$GNVTG,,T,,M,0.016,N,0.030,K,A*39
$GNGGA,000135.00,2959.99956,N,12000.00012,E,1,11,0.80,-8.0,M,7.0,M,,*52
$GNGSA,A,3,02,13,04,23,25,08,07,27,20,,,,1.51,0.80,1.27,1*02
$GNGSA,A,3,27,09,,,,,,,,,,,1.51,0.80,1.27,3*06
$GNGSA,A,3,,,,,,,,,,,,,1.51,0.80,1.27,4*0D
$GPGSV,3,1,12,02,33,299,35,04,52,247,35,07,84,117,35,08,47,207,35,0*64
$GPGSV,3,2,12,10,01,310,,13,50,031,35,16,01,039,,20,23,121,35,0*6D
$GPGSV,3,3,12,23,27,057,35,25,67,043,35,27,19,219,35,28,00,182,,0*61
$GAGSV,1,1,04,09,14,317,36,23,39,223,36,24,85,020,36,27,30,126,36,0*7B
$GBGSV,1,1,04,02,,,30,04,,,30,13,,,31,14,,,29,0*7B
$GNGLL,2959.99956,N,12000.00012,E,000135.00,A,A*7D

$GNRMC,000136.00,A,2959.99958,N,12000.00011,E,0.021,,230721,5.69,W,A,V*55
$GNVTG,,T,,M,0.021,N,0.038,K,A*35
$GNGGA,000136.00,2959.99958,N,12000.00011,E,1,11,0.80,-7.9,M,7.0,M,,*5A
$GNGSA,A,3,02,13,04,23,25,08,07,27,20,,,,1.51,0.80,1.27,1*02
$GNGSA,A,3,27,09,,,,,,,,,,,1.51,0.80,1.27,3*06
$GNGSA,A,3,,,,,,,,,,,,,1.51,0.80,1.27,4*0D
$GPGSV,3,1,12,02,33,299,35,04,52,247,35,07,84,117,35,08,47,207,35,0*64
$GPGSV,3,2,12,10,01,310,,13,50,031,35,16,01,039,,20,23,121,35,0*6D
$GPGSV,3,3,12,23,27,057,35,25,67,043,35,27,19,219,35,28,00,182,,0*61
$GAGSV,1,1,04,09,14,317,36,23,39,223,36,24,85,020,36,27,30,126,36,0*7B
$GBGSV,1,1,04,02,,,30,04,,,30,13,,,30,14,,,29,0*7A
$GNGLL,2959.99958,N,12000.00011,E,000136.00,A,A*73

$GNRMC,000137.00,A,2959.99959,N,12000.00011,E,0.027,,230721,5.69,W,A,V*53
$GNVTG,,T,,M,0.027,N,0.051,K,A*3C
$GNGGA,000137.00,2959.99959,N,12000.00011,E,1,11,0.80,-7.8,M,7.0,M,,*5B
$GNGSA,A,3,02,13,04,23,25,08,07,27,20,,,,1.51,0.80,1.27,1*02
$GNGSA,A,3,27,09,,,,,,,,,,,1.51,0.80,1.27,3*06
$GNGSA,A,3,,,,,,,,,,,,,1.51,0.80,1.27,4*0D
$GPGSV,3,1,12,02,33,299,35,04,52,247,35,07,84,117,35,08,47,207,35,0*64
$GPGSV,3,2,12,10,01,310,,13,50,031,35,16,01,039,,20,23,121,35,0*6D
$GPGSV,3,3,12,23,27,057,35,25,67,043,35,27,19,219,35,28,00,182,,0*61
$GAGSV,1,1,04,09,14,317,36,23,39,223,36,24,85,020,36,27,30,126,36,0*7B
$GBGSV,1,1,04,02,,,30,04,,,30,13,,,30,14,,,29,0*7A
$GNGLL,2959.99959,N,12000.00011,E,000137.00,A,A*73

$GNRMC,000138.00,A,2959.99960,N,12000.00010,E,0.012,,230721,5.69,W,A,V*51
$GNVTG,,T,,M,0.012,N,0.022,K,A*3E
$GNGGA,000138.00,2959.99960,N,12000.00010,E,1,11,0.80,-7.8,M,7.0,M,,*5F
$GNGSA,A,3,02,13,04,23,25,08,07,27,20,,,,1.51,0.80,1.27,1*02
$GNGSA,A,3,27,09,,,,,,,,,,,1.51,0.80,1.27,3*06
$GNGSA,A,3,,,,,,,,,,,,,1.51,0.80,1.27,4*0D
$GPGSV,3,1,12,02,33,299,35,04,52,247,35,07,84,117,35,08,47,207,35,0*64
$GPGSV,3,2,12,10,01,310,,13,50,031,35,16,01,039,,20,23,121,35,0*6D
$GPGSV,3,3,12,23,27,057,35,25,67,043,35,27,19,219,35,28,00,182,,0*61
$GAGSV,1,1,04,09,14,317,36,23,39,223,36,24,85,020,36,27,30,126,36,0*7B
$GBGSV,1,1,04,02,,,30,04,,,30,13,,,30,14,,,29,0*7A
$GNGLL,2959.99960,N,12000.00010,E,000138.00,A,A*77

$GNRMC,000139.00,A,2959.99962,N,12000.00011,E,0.027,,230721,5.69,W,A,V*55
$GNVTG,,T,,M,0.027,N,0.049,K,A*35
$GNGGA,000139.00,2959.99962,N,12000.00011,E,1,11,0.80,-7.7,M,7.0,M,,*52
$GNGSA,A,3,02,13,04,23,25,08,07,27,20,,,,1.51,0.80,1.27,1*02
$GNGSA,A,3,27,09,,,,,,,,,,,1.51,0.80,1.27,3*06
$GNGSA,A,3,,,,,,,,,,,,,1.51,0.80,1.27,4*0D
$GPGSV,3,1,12,02,33,299,35,04,51,246,35,07,84,117,35,08,47,207,35,0*66
$GPGSV,3,2,12,10,01,310,,13,50,031,35,16,01,039,,20,23,121,35,0*6D
$GPGSV,3,3,12,23,27,057,35,25,67,043,35,27,19,219,35,28,00,182,,0*61
$GAGSV,1,1,04,09,14,317,36,23,39,223,36,24,85,020,36,27,30,126,36,0*7B
$GBGSV,1,1,04,02,,,30,04,,,30,13,,,30,14,,,29,0*7A
$GNGLL,2959.99962,N,12000.00011,E,000139.00,A,A*75

$GNRMC,000140.00,A,2959.99965,N,12000.00011,E,0.029,,230721,5.69,W,A,V*52
$GNVTG,,T,,M,0.029,N,0.053,K,A*30
$GNGGA,000140.00,2959.99965,N,12000.00011,E,1,11,0.80,-7.7,M,7.0,M,,*5B
$GNGSA,A,3,02,13,04,23,25,08,07,27,20,,,,1.51,0.80,1.27,1*02
$GNGSA,A,3,27,09,,,,,,,,,,,1.51,0.80,1.27,3*06
$GNGSA,A,3,,,,,,,,,,,,,1.51,0.80,1.27,4*0D
$GPGSV,3,1,12,02,33,299,35,04,51,246,35,07,84,117,35,08,47,207,35,0*66
$GPGSV,3,2,12,10,01,310,,13,50,031,35,16,01,039,,20,23,121,35,0*6D
$GPGSV,3,3,12,23,27,057,35,25,67,043,35,27,19,219,35,28,00,182,,0*61
$GAGSV,1,1,04,09,14,317,36,23,39,223,36,24,85,020,36,27,30,126,36,0*7B
$GBGSV,1,1,04,02,,,30,04,,,30,13,,,30,14,,,29,0*7A
$GNGLL,2959.99965,N,12000.00011,E,000140.00,A,A*7C

$GNRMC,000141.00,A,2959.99966,N,12000.00011,E,0.009,,230721,5.69,W,A,V*52
$GNVTG,,T,,M,0.009,N,0.017,K,A*32
$GNGGA,000141.00,2959.99966,N,12000.00011,E,1,11,0.80,-7.7,M,7.0,M,,*59
$GNGSA,A,3,02,13,04,23,25,08,07,27,20,,,,1.51,0.80,1.28,1*0D
$GNGSA,A,3,27,09,,,,,,,,,,,1.51,0.80,1.28,3*09
$GNGSA,A,3,,,,,,,,,,,,,1.51,0.80,1.28,4*02
$GPGSV,3,1,12,02,33,299,35,04,51,246,35,07,84,117,35,08,47,207,35,0*66
$GPGSV,3,2,12,10,01,310,,13,50,031,35,16,01,039,,20,23,121,35,0*6D
$GPGSV,3,3,12,23,27,057,35,25,67,043,35,27,19,219,35,28,00,182,,0*61
$GAGSV,1,1,04,09,14,317,36,23,39,223,36,24,85,020,36,27,30,126,36,0*7B
$GBGSV,1,1,04,02,,,30,04,,,30,13,,,30,14,,,29,0*7A
$GNGLL,2959.99966,N,12000.00011,E,000141.00,A,A*7E

$GNRMC,000142.00,A,2959.99967,N,12000.00011,E,0.014,,230721,5.69,W,A,V*5C
$GNVTG,,T,,M,0.014,N,0.026,K,A*3C
$GNGGA,000142.00,2959.99967,N,12000.00011,E,1,11,0.80,-7.6,M,7.0,M,,*5A
$GNGSA,A,3,02,13,04,23,25,08,07,27,20,,,,1.51,0.80,1.28,1*0D
$GNGSA,A,3,27,09,,,,,,,,,,,1.51,0.80,1.28,3*09
$GNGSA,A,3,,,,,,,,,,,,,1.51,0.80,1.28,4*02
$GPGSV,3,1,12,02,33,299,35,04,51,246,35,07,85,112,35,08,47,207,35,0*62
$GPGSV,3,2,12,10,01,310,,13,50,031,35,16,01,039,,20,23,121,35,0*6D
$GPGSV,3,3,12,23,27,057,35,25,67,043,35,27,19,219,35,28,00,182,,0*61
$GAGSV,1,1,04,09,14,317,36,23,39,223,36,24,85,020,36,27,30,126,36,0*7B
$GBGSV,1,1,04,02,,,30,04,,,30,13,,,30,14,,,29,0*7A
$GNGLL,2959.99967,N,12000.00011,E,000142.00,A,A*7C

$GNRMC,000143.00,A,2959.99968,N,12000.00011,E,0.005,,230721,5.69,W,A,V*52
$GNVTG,,T,,M,0.005,N,0.010,K,A*39
$GNGGA,000143.00,2959.99968,N,12000.00011,E,1,11,0.80,-7.6,M,7.0,M,,*54
$GNGSA,A,3,02,13,04,23,25,08,07,27,20,,,,1.51,0.80,1.28,1*0D
$GNGSA,A,3,27,09,,,,,,,,,,,1.51,0.80,1.28,3*09
$GNGSA,A,3,,,,,,,,,,,,,1.51,0.80,1.28,4*02
$GPGSV,3,1,12,02,33,299,35,04,51,246,35,07,85,112,35,08,48,207,35,0*6D
$GPGSV,3,2,12,10,01,310,,13,50,031,35,16,01,039,,20,23,121,35,0*6D
$GPGSV,3,3,12,23,27,057,35,25,67,043,35,27,19,219,35,28,00,182,,0*61
$GAGSV,1,1,04,09,14,317,36,23,39,223,36,24,85,020,36,27,30,126,36,0*7B
$GBGSV,1,1,04,02,,,30,04,,,30,13,,,30,14,,,29,0*7A
$GNGLL,2959.99968,N,12000.00011,E,000143.00,A,A*72

$GNRMC,000144.00,A,2959.99969,N,12000.00012,E,0.034,,230721,5.69,W,A,V*55
$GNVTG,,T,,M,0.034,N,0.064,K,A*38
$GNGGA,000144.00,2959.99969,N,12000.00012,E,1,11,0.80,-7.6,M,7.0,M,,*51
$GNGSA,A,3,02,13,04,23,25,08,07,27,20,,,,1.51,0.80,1.28,1*0D
$GNGSA,A,3,27,09,,,,,,,,,,,1.51,0.80,1.28,3*09
$GNGSA,A,3,,,,,,,,,,,,,1.51,0.80,1.28,4*02
$GPGSV,3,1,12,02,33,299,35,04,51,246,35,07,85,112,35,08,48,207,35,0*6D
$GPGSV,3,2,12,10,01,310,,13,50,031,35,16,01,039,,20,23,121,35,0*6D
$GPGSV,3,3,12,23,27,057,35,25,67,043,35,27,19,219,35,28,00,182,,0*61
$GAGSV,1,1,04,09,14,317,36,23,39,223,36,24,85,020,36,27,30,126,36,0*7B
$GBGSV,1,1,04,02,,,30,04,,,30,13,,,30,14,,,29,0*7A
$GNGLL,2959.99969,N,12000.00012,E,000144.00,A,A*77

$GNRMC,000145.00,A,2959.99970,N,12000.00013,E,0.006,,230721,5.69,W,A,V*5C
$GNVTG,,T,,M,0.006,N,0.011,K,A*3B
$GNGGA,000145.00,2959.99970,N,12000.00013,E,1,12,0.77,-7.6,M,7.0,M,,*52
$GNGSA,A,3,02,13,04,23,25,08,07,27,20,,,,1.47,0.77,1.25,1*0F
$GNGSA,A,3,27,09,,,,,,,,,,,1.47,0.77,1.25,3*0B
$GNGSA,A,3,13,,,,,,,,,,,,1.47,0.77,1.25,4*02
$GPGSV,3,1,12,02,33,299,35,04,51,246,35,07,85,112,35,08,48,207,35,0*6D
$GPGSV,3,2,12,10,01,311,,13,50,031,35,16,01,039,,20,23,121,35,0*6C
$GPGSV,3,3,12,23,27,057,35,25,67,043,35,27,19,219,35,28,00,182,,0*61
$GAGSV,1,1,04,09,14,317,36,23,39,223,36,24,85,020,36,27,30,126,36,0*7B
$GBGSV,1,1,04,02,,,30,04,,,30,13,48,202,30,14,08,165,29,0*7C
$GNGLL,2959.99970,N,12000.00013,E,000145.00,A,A*7F

$GNRMC,000146.00,A,2959.99971,N,12000.00013,E,0.018,,230721,5.69,W,A,V*51
$GNVTG,,T,,M,0.018,N,0.034,K,A*33
$GNGGA,000146.00,2959.99971,N,12000.00013,E,1,12,0.77,-7.6,M,7.0,M,,*50
$GNGSA,A,3,02,13,04,23,25,08,07,27,20,,,,1.47,0.77,1.25,1*0F
$GNGSA,A,3,27,09,,,,,,,,,,,1.47,0.77,1.25,3*0B
$GNGSA,A,3,13,,,,,,,,,,,,1.47,0.77,1.25,4*02
$GPGSV,3,1,12,02,33,299,35,04,51,246,35,07,85,112,35,08,48,207,35,0*6D
$GPGSV,3,2,12,10,01,311,,13,50,031,35,16,01,039,,20,23,121,35,0*6C
$GPGSV,3,3,12,23,27,057,35,25,67,043,35,27,19,219,35,28,00,182,,0*61
$GAGSV,1,1,04,09,14,317,36,23,39,223,36,24,85,020,36,27,30,126,36,0*7B
$GBGSV,1,1,04,02,,,30,04,,,30,13,48,202,30,14,08,165,29,0*7C
$GNGLL,2959.99971,N,12000.00013,E,000146.00,A,A*7D

$GNRMC,000147.00,A,2959.99972,N,12000.00013,E,0.019,,230721,5.69,W,A,V*52
$GNVTG,,T,,M,0.019,N,0.035,K,A*33
$GNGGA,000147.00,2959.99972,N,12000.00013,E,1,12,0.75,-7.5,M,7.0,M,,*53
$GNGSA,A,3,02,13,04,23,25,08,07,27,20,,,,1.36,0.75,1.14,1*09
$GNGSA,A,3,23,27,09,24,,,,,,,,,1.36,0.75,1.14,3*0A
$GNGSA,A,3,13,,,,,,,,,,,,1.36,0.75,1.14,4*04
$GPGSV,3,1,12,02,33,299,35,04,51,246,35,07,85,112,35,08,48,207,35,0*6D
$GPGSV,3,2,12,10,01,311,,13,50,031,35,16,01,039,,20,23,121,35,0*6C
$GPGSV,3,3,12,23,27,057,35,25,67,043,35,27,19,219,35,28,00,182,,0*61
$GAGSV,1,1,04,09,14,317,36,23,39,223,36,24,85,020,36,27,30,126,36,0*7B
$GBGSV,1,1,04,02,,,30,04,,,30,13,48,202,30,14,08,165,29,0*7C
$GNGLL,2959.99972,N,12000.00013,E,000147.00,A,A*7F

$GNRMC,000148.00,A,2959.99973,N,12000.00014,E,0.024,,230721,5.69,W,A,V*55
$GNVTG,,T,,M,0.024,N,0.044,K,A*3B
$GNGGA,000148.00,2959.99973,N,12000.00014,E,1,12,0.75,-7.5,M,7.0,M,,*5A
$GNGSA,A,3,02,13,04,23,25,08,07,27,20,,,,1.36,0.75,1.14,1*09
$GNGSA,A,3,23,27,09,24,,,,,,,,,1.36,0.75,1.14,3*0A
$GNGSA,A,3,13,,,,,,,,,,,,1.36,0.75,1.14,4*04
$GPGSV,3,1,12,02,33,299,35,04,51,246,35,07,85,112,35,08,48,207,35,0*6D
$GPGSV,3,2,12,10,01,311,,13,49,032,35,16,01,039,,20,23,121,35,0*67
$GPGSV,3,3,12,23,27,057,35,25,67,043,35,27,19,219,35,28,00,182,,0*61
$GAGSV,1,1,04,09,14,317,36,23,39,223,36,24,85,020,36,27,30,126,36,0*7B
$GBGSV,1,1,04,02,,,30,04,,,30,13,48,202,30,14,08,165,29,0*7C
$GNGLL,2959.99973,N,12000.00014,E,000148.00,A,A*76

$GNRMC,000149.00,A,2959.99974,N,12000.00015,E,0.015,,230721,5.69,W,A,V*50
$GNVTG,,T,,M,0.015,N,0.028,K,A*33
$GNGGA,000149.00,2959.99974,N,12000.00015,E,1,12,0.75,-7.4,M,7.0,M,,*5C
$GNGSA,A,3,02,13,04,23,25,08,07,27,20,,,,1.36,0.75,1.14,1*09
$GNGSA,A,3,23,27,09,24,,,,,,,,,1.36,0.75,1.14,3*0A
$GNGSA,A,3,13,,,,,,,,,,,,1.36,0.75,1.14,4*04
$GPGSV,3,1,12,02,33,299,35,04,51,246,35,07,85,112,35,08,48,207,35,0*6D
$GPGSV,3,2,12,10,01,311,,13,49,032,35,16,01,039,,20,23,121,35,0*67
$GPGSV,3,3,12,23,27,057,35,25,67,043,35,27,19,219,35,28,00,182,,0*61
$GAGSV,1,1,04,09,14,317,36,23,39,223,36,24,85,020,36,27,30,126,36,0*7B
$GBGSV,1,1,04,02,,,30,04,,,30,13,48,202,30,14,08,165,29,0*7C
$GNGLL,2959.99974,N,12000.00015,E,000149.00,A,A*71

$GNRMC,000150.00,A,2959.99975,N,12000.00015,E,0.021,,230721,5.69,W,A,V*5E
$GNVTG,,T,,M,0.021,N,0.038,K,A*35
$GNGGA,000150.00,2959.99975,N,12000.00015,E,1,12,0.75,-7.4,M,7.0,M,,*55
$GNGSA,A,3,02,13,04,23,25,08,07,27,20,,,,1.36,0.75,1.14,1*09
$GNGSA,A,3,23,27,09,24,,,,,,,,,1.36,0.75,1.14,3*0A
$GNGSA,A,3,13,,,,,,,,,,,,1.36,0.75,1.14,4*04
$GPGSV,3,1,12,02,33,299,35,04,51,246,35,07,85,112,35,08,48,207,35,0*6D
$GPGSV,3,2,12,10,01,311,,13,49,032,35,16,01,039,,20,23,121,35,0*67
$GPGSV,3,3,12,23,27,057,35,25,67,043,35,27,19,219,35,28,00,182,,0*61
$GAGSV,1,1,04,09,14,317,36,23,39,223,36,24,85,020,36,27,30,126,36,0*7B
$GBGSV,1,1,04,02,,,30,04,,,30,13,48,202,30,14,08,165,29,0*7C
$GNGLL,2959.99975,N,12000.00015,E,000150.00,A,A*78

$GNRMC,000151.00,A,2959.99976,N,12000.00015,E,0.007,,230721,5.69,W,A,V*58
$GNVTG,,T,,M,0.007,N,0.013,K,A*38
$GNGGA,000151.00,2959.99976,N,12000.00015,E,1,12,0.75,-7.4,M,7.0,M,,*57
$GNGSA,A,3,02,13,04,23,25,08,07,27,20,,,,1.36,0.75,1.14,1*09
$GNGSA,A,3,23,27,09,24,,,,,,,,,1.36,0.75,1.14,3*0A
$GNGSA,A,3,13,,,,,,,,,,,,1.36,0.75,1.14,4*04
$GPGSV,3,1,12,02,33,299,35,04,51,246,35,07,85,112,35,08,48,207,35,0*6D
$GPGSV,3,2,12,10,01,311,,13,49,032,35,16,01,039,,20,23,121,35,0*67
$GPGSV,3,3,12,23,27,057,35,25,67,043,35,27,19,219,35,28,00,182,,0*61
$GAGSV,1,1,04,09,14,317,36,23,39,223,36,24,85,020,36,27,30,126,36,0*7B
$GBGSV,1,1,04,02,,,30,04,,,30,13,48,202,30,14,08,165,29,0*7C
$GNGLL,2959.99976,N,12000.00015,E,000151.00,A,A*7A

$GNRMC,000152.00,A,2959.99976,N,12000.00016,E,0.019,,230721,5.69,W,A,V*57
$GNVTG,,T,,M,0.019,N,0.035,K,A*33
$GNGGA,000152.00,2959.99976,N,12000.00016,E,1,12,0.75,-7.3,M,7.0,M,,*50
$GNGSA,A,3,02,13,04,23,25,08,07,27,20,,,,1.36,0.75,1.14,1*09
$GNGSA,A,3,23,27,09,24,,,,,,,,,1.36,0.75,1.14,3*0A
$GNGSA,A,3,13,,,,,,,,,,,,1.36,0.75,1.14,4*04
$GPGSV,3,1,12,02,33,299,35,04,51,246,35,07,85,112,35,08,48,207,35,0*6D
$GPGSV,3,2,12,10,01,311,,13,49,032,35,16,01,039,,20,23,122,35,0*64
$GPGSV,3,3,12,23,27,057,35,25,67,043,35,27,19,219,35,28,00,182,,0*61
$GAGSV,1,1,04,09,14,317,36,23,39,223,36,24,85,020,36,27,30,126,36,0*7B
$GBGSV,1,1,04,02,,,30,04,,,30,13,48,202,30,14,08,165,29,0*7C
$GNGLL,2959.99976,N,12000.00016,E,000152.00,A,A*7A

$GNRMC,000153.00,A,2959.99977,N,12000.00016,E,0.003,,230721,5.69,W,A,V*5C
$GNVTG,,T,,M,0.003,N,0.005,K,A*3B
$GNGGA,000153.00,2959.99977,N,12000.00016,E,1,12,0.75,-7.3,M,7.0,M,,*50
$GNGSA,A,3,02,13,04,23,25,08,07,27,20,,,,1.36,0.75,1.14,1*09
$GNGSA,A,3,23,27,09,24,,,,,,,,,1.36,0.75,1.14,3*0A
$GNGSA,A,3,13,,,,,,,,,,,,1.36,0.75,1.14,4*04
$GPGSV,3,1,12,02,33,299,35,04,51,246,35,07,85,112,35,08,48,207,35,0*6D
$GPGSV,3,2,12,10,01,311,,13,49,032,35,16,01,039,,20,23,122,35,0*64
$GPGSV,3,3,12,23,27,057,35,25,67,043,35,27,19,219,35,28,00,182,,0*61
$GAGSV,1,1,04,09,14,317,36,23,39,223,36,24,85,020,36,27,30,126,36,0*7B
$GBGSV,1,1,04,02,,,29,04,,,30,13,48,202,30,14,08,165,29,0*74
$GNGLL,2959.99977,N,12000.00016,E,000153.00,A,A*7A

$GNRMC,000154.00,A,2959.99977,N,12000.00016,E,0.007,,230721,5.69,W,A,V*5F
$GNVTG,,T,,M,0.007,N,0.013,K,A*38
$GNGGA,000154.00,2959.99977,N,12000.00016,E,1,12,0.75,-7.3,M,7.0,M,,*57
$GNGSA,A,3,02,13,04,23,25,08,07,27,20,,,,1.36,0.75,1.14,1*09
$GNGSA,A,3,23,27,09,24,,,,,,,,,1.36,0.75,1.14,3*0A
$GNGSA,A,3,13,,,,,,,,,,,,1.36,0.75,1.14,4*04
$GPGSV,3,1,12,02,33,299,35,04,51,246,35,07,85,112,35,08,48,207,35,0*6D
$GPGSV,3,2,12,10,01,311,,13,49,032,35,16,01,039,,20,23,122,35,0*64
$GPGSV,3,3,12,23,27,057,35,25,67,043,35,27,19,219,35,28,00,182,,0*61
$GAGSV,1,1,04,09,14,317,36,23,39,223,36,24,85,020,36,27,30,126,36,0*7B
$GBGSV,1,1,04,02,,,30,04,,,30,13,48,202,30,14,08,165,29,0*7C
$GNGLL,2959.99977,N,12000.00016,E,000154.00,A,A*7D

$GNRMC,000155.00,A,2959.99978,N,12000.00015,E,0.013,,230721,5.69,W,A,V*57
$GNVTG,,T,,M,0.013,N,0.024,K,A*39
$GNGGA,000155.00,2959.99978,N,12000.00015,E,1,12,0.75,-7.2,M,7.0,M,,*5B
$GNGSA,A,3,02,13,04,23,25,08,07,27,20,,,,1.36,0.75,1.14,1*09
$GNGSA,A,3,23,27,09,24,,,,,,,,,1.36,0.75,1.14,3*0A
$GNGSA,A,3,13,,,,,,,,,,,,1.36,0.75,1.14,4*04
$GPGSV,3,1,12,02,33,299,35,04,51,246,35,07,85,112,35,08,48,207,35,0*6D
$GPGSV,3,2,12,10,01,311,,13,49,032,35,16,01,039,,20,23,122,35,0*64
$GPGSV,3,3,12,23,27,057,35,25,67,043,35,27,19,219,35,28,00,182,,0*61
$GAGSV,1,1,04,09,14,317,36,23,39,223,36,24,85,020,36,27,30,126,36,0*7B
$GBGSV,1,1,04,02,,,30,04,,,29,13,48,202,30,14,08,165,29,0*74
$GNGLL,2959.99978,N,12000.00015,E,000155.00,A,A*70

$GNRMC,000156.00,A,2959.99979,N,12000.00015,E,0.015,,230721,5.69,W,A,V*53
$GNVTG,,T,,M,0.015,N,0.028,K,A*33
$GNGGA,000156.00,2959.99979,N,12000.00015,E,1,12,0.75,-7.2,M,7.0,M,,*59
$GNGSA,A,3,02,13,04,23,25,08,07,27,20,,,,1.36,0.75,1.14,1*09
$GNGSA,A,3,23,27,09,24,,,,,,,,,1.36,0.75,1.14,3*0A
$GNGSA,A,3,13,,,,,,,,,,,,1.36,0.75,1.14,4*04
$GPGSV,3,1,12,02,33,299,35,04,51,246,35,07,85,112,35,08,48,207,35,0*6D
$GPGSV,3,2,12,10,01,311,,13,49,032,35,16,01,039,,20,23,122,35,0*64
$GPGSV,3,3,12,23,27,057,35,25,66,042,35,27,19,219,35,28,00,182,,0*61
$GAGSV,1,1,04,09,14,317,36,23,39,223,36,24,85,020,36,27,30,126,36,0*7B
$GBGSV,1,1,04,02,,,30,04,,,30,13,48,202,30,14,08,165,29,0*7C
$GNGLL,2959.99979,N,12000.00015,E,000156.00,A,A*72

$GNRMC,000157.00,A,2959.99979,N,12000.00014,E,0.025,,230721,5.69,W,A,V*50
$GNVTG,,T,,M,0.025,N,0.047,K,A*39
$GNGGA,000157.00,2959.99979,N,12000.00014,E,1,12,0.75,-7.2,M,7.0,M,,*59
$GNGSA,A,3,02,13,04,23,25,08,07,27,20,,,,1.36,0.75,1.14,1*09
$GNGSA,A,3,23,27,09,24,,,,,,,,,1.36,0.75,1.14,3*0A
$GNGSA,A,3,13,,,,,,,,,,,,1.36,0.75,1.14,4*04
$GPGSV,3,1,12,02,33,299,35,04,51,246,35,07,85,112,35,08,48,207,35,0*6D
$GPGSV,3,2,12,10,01,311,,13,49,032,35,16,01,039,,20,23,122,35,0*64
$GPGSV,3,3,12,23,27,057,35,25,66,042,35,27,19,219,35,28,00,182,,0*61
$GAGSV,1,1,04,09,14,317,36,23,39,223,36,24,85,020,36,27,30,126,36,0*7B
$GBGSV,1,1,04,02,,,30,04,,,30,13,48,202,30,14,08,165,29,0*7C
$GNGLL,2959.99979,N,12000.00014,E,000157.00,A,A*72

$GNRMC,000158.00,A,2959.99980,N,12000.00014,E,0.027,,230721,5.69,W,A,V*5B
$GNVTG,,T,,M,0.027,N,0.050,K,A*3D
$GNGGA,000158.00,2959.99980,N,12000.00014,E,1,12,0.75,-7.2,M,7.0,M,,*50
$GNGSA,A,3,02,13,04,23,25,08,07,27,20,,,,1.36,0.75,1.14,1*09
$GNGSA,A,3,23,27,09,24,,,,,,,,,1.36,0.75,1.14,3*0A
$GNGSA,A,3,13,,,,,,,,,,,,1.36,0.75,1.14,4*04
$GPGSV,3,1,12,02,33,299,35,04,51,246,35,07,85,112,35,08,48,207,35,0*6D
$GPGSV,3,2,12,10,01,311,,13,49,032,35,16,01,039,,20,23,122,35,0*64
$GPGSV,3,3,12,23,27,057,35,25,66,042,35,27,19,219,35,28,00,182,,0*61
$GAGSV,1,1,04,09,14,317,36,23,39,223,36,24,85,020,36,27,30,126,36,0*7B
$GBGSV,1,1,04,02,,,30,04,,,30,13,48,202,30,14,08,165,29,0*7C
$GNGLL,2959.99980,N,12000.00014,E,000158.00,A,A*7B

$GNRMC,000159.00,A,2959.99981,N,12000.00014,E,0.014,,230721,5.69,W,A,V*5B
$GNVTG,,T,,M,0.014,N,0.025,K,A*3F
$GNGGA,000159.00,2959.99981,N,12000.00014,E,1,12,0.75,-7.2,M,7.0,M,,*50
$GNGSA,A,3,02,13,04,23,25,08,07,27,20,,,,1.36,0.75,1.14,1*09
$GNGSA,A,3,23,27,09,24,,,,,,,,,1.36,0.75,1.14,3*0A
$GNGSA,A,3,13,,,,,,,,,,,,1.36,0.75,1.14,4*04
$GPGSV,3,1,12,02,33,299,35,04,51,246,35,07,85,112,35,08,48,207,35,0*6D
$GPGSV,3,2,12,10,01,311,,13,49,032,35,16,01,039,,20,23,122,35,0*64
$GPGSV,3,3,12,23,27,057,35,25,66,042,35,27,19,219,35,28,00,182,,0*61
$GAGSV,1,1,04,09,14,317,36,23,39,223,36,24,85,020,36,27,30,126,36,0*7B
$GBGSV,1,1,04,02,,,30,04,,,30,13,48,202,30,14,08,165,29,0*7C
$GNGLL,2959.99981,N,12000.00014,E,000159.00,A,A*7B

$GNRMC,000200.00,A,2959.99982,N,12000.00013,E,0.031,,230721,5.69,W,A,V*57
$GNVTG,,T,,M,0.031,N,0.057,K,A*3D
$GNGGA,000200.00,2959.99982,N,12000.00013,E,1,12,0.75,-7.2,M,7.0,M,,*5B
$GNGSA,A,3,02,13,04,23,25,08,07,27,20,,,,1.36,0.75,1.14,1*09
$GNGSA,A,3,23,27,09,24,,,,,,,,,1.36,0.75,1.14,3*0A
$GNGSA,A,3,13,,,,,,,,,,,,1.36,0.75,1.14,4*04
$GPGSV,3,1,12,02,33,299,35,04,51,246,35,07,85,112,35,08,48,207,35,0*6D
$GPGSV,3,2,12,10,01,311,,13,49,032,35,16,01,039,,20,23,122,35,0*64
$GPGSV,3,3,12,23,27,057,35,25,66,042,35,27,19,219,35,28,00,182,,0*61
$GAGSV,1,1,04,09,14,317,36,23,39,223,36,24,85,020,36,27,30,126,36,0*7B
$GBGSV,1,1,04,02,,,30,04,,,30,13,48,202,30,14,08,165,29,0*7C
$GNGLL,2959.99982,N,12000.00013,E,000200.00,A,A*70

$GNRMC,000201.00,A,2959.99983,N,12000.00013,E,0.019,,230721,5.69,W,A,V*5D
$GNVTG,,T,,M,0.019,N,0.035,K,A*33
$GNGGA,000201.00,2959.99983,N,12000.00013,E,1,12,0.75,-7.2,M,7.0,M,,*5B
$GNGSA,A,3,02,13,04,23,25,08,07,27,20,,,,1.36,0.75,1.14,1*09
$GNGSA,A,3,23,27,09,24,,,,,,,,,1.36,0.75,1.14,3*0A
$GNGSA,A,3,13,,,,,,,,,,,,1.36,0.75,1.14,4*04
$GPGSV,3,1,12,02,33,299,35,04,51,246,35,07,85,112,35,08,48,207,35,0*6D
$GPGSV,3,2,12,10,01,311,,13,49,032,35,16,01,039,,20,23,122,35,0*64
$GPGSV,3,3,12,23,27,057,35,25,66,042,35,27,19,219,35,28,00,182,,0*61
$GAGSV,1,1,04,09,14,317,36,23,39,223,36,24,85,020,36,27,30,126,36,0*7B
$GBGSV,1,1,04,02,,,30,04,,,30,13,48,202,30,14,08,165,29,0*7C
$GNGLL,2959.99983,N,12000.00013,E,000201.00,A,A*70

$GNRMC,000202.00,A,2959.99983,N,12000.00013,E,0.017,,230721,5.69,W,A,V*50
$GNVTG,,T,,M,0.017,N,0.032,K,A*3A
$GNGGA,000202.00,2959.99983,N,12000.00013,E,1,12,0.75,-7.1,M,7.0,M,,*5B
$GNGSA,A,3,02,13,04,23,25,08,07,27,20,,,,1.36,0.75,1.14,1*09
$GNGSA,A,3,23,27,09,24,,,,,,,,,1.36,0.75,1.14,3*0A
$GNGSA,A,3,13,,,,,,,,,,,,1.36,0.75,1.14,4*04
$GPGSV,3,1,12,02,33,299,35,04,51,246,35,07,85,112,35,08,48,207,35,0*6D
$GPGSV,3,2,12,10,01,311,,13,49,032,35,16,01,039,,20,23,122,35,0*64
$GPGSV,3,3,12,23,27,057,35,25,66,042,35,27,19,219,35,28,00,182,,0*61
$GAGSV,1,1,04,09,14,317,36,23,39,223,36,24,85,020,36,27,30,126,36,0*7B
$GBGSV,1,1,04,02,,,30,04,,,30,13,48,202,30,14,08,165,29,0*7C
$GNGLL,2959.99983,N,12000.00013,E,000202.00,A,A*73

$GNRMC,000203.00,A,2959.99984,N,12000.00012,E,0.006,,230721,5.69,W,A,V*57
$GNVTG,,T,,M,0.006,N,0.011,K,A*3B
$GNGGA,000203.00,2959.99984,N,12000.00012,E,1,12,0.75,-7.1,M,7.0,M,,*5C
$GNGSA,A,3,02,13,04,23,25,08,07,27,20,,,,1.36,0.75,1.14,1*09
$GNGSA,A,3,23,27,09,24,,,,,,,,,1.36,0.75,1.14,3*0A
$GNGSA,A,3,13,,,,,,,,,,,,1.36,0.75,1.14,4*04
$GPGSV,3,1,12,02,33,299,35,04,51,246,35,07,85,112,35,08,48,207,35,0*6D
$GPGSV,3,2,12,10,01,311,,13,49,032,35,16,01,039,,20,23,122,35,0*64
$GPGSV,3,3,12,23,27,057,35,25,66,042,35,27,19,219,35,28,00,182,,0*61
$GAGSV,1,1,04,09,14,317,36,23,39,223,36,24,85,020,36,27,30,126,36,0*7B
$GBGSV,1,1,04,02,,,30,04,,,30,13,48,202,30,14,08,165,29,0*7C
$GNGLL,2959.99984,N,12000.00012,E,000203.00,A,A*74

$GNRMC,000204.00,A,2959.99984,N,12000.00012,E,0.006,,230721,5.69,W,A,V*50
$GNVTG,,T,,M,0.006,N,0.012,K,A*38
$GNGGA,000204.00,2959.99984,N,12000.00012,E,1,12,0.75,-7.1,M,7.0,M,,*5B
$GNGSA,A,3,02,13,04,23,25,08,07,27,20,,,,1.36,0.75,1.14,1*09
$GNGSA,A,3,23,27,09,24,,,,,,,,,1.36,0.75,1.14,3*0A
$GNGSA,A,3,13,,,,,,,,,,,,1.36,0.75,1.14,4*04
$GPGSV,3,1,12,02,33,299,35,04,51,246,35,07,85,112,35,08,48,207,35,0*6D
$GPGSV,3,2,12,10,01,311,,13,49,032,35,16,01,039,,20,23,122,35,0*64
$GPGSV,3,3,12,23,27,057,35,25,66,042,35,27,19,219,35,28,00,182,,0*61
$GAGSV,1,1,04,09,14,317,36,23,39,223,36,24,85,020,36,27,30,126,36,0*7B
$GBGSV,1,1,04,02,,,30,04,,,30,13,48,202,30,14,08,165,29,0*7C
$GNGLL,2959.99984,N,12000.00012,E,000204.00,A,A*73

$GNRMC,000205.00,A,2959.99984,N,12000.00011,E,0.014,,230721,5.69,W,A,V*51
$GNVTG,,T,,M,0.014,N,0.026,K,A*3C
$GNGGA,000205.00,2959.99984,N,12000.00011,E,1,12,0.75,-7.1,M,7.0,M,,*59
$GNGSA,A,3,02,13,04,23,25,08,07,27,20,,,,1.36,0.75,1.14,1*09
$GNGSA,A,3,23,27,09,24,,,,,,,,,1.36,0.75,1.14,3*0A
$GNGSA,A,3,13,,,,,,,,,,,,1.36,0.75,1.14,4*04
$GPGSV,3,1,12,02,33,299,35,04,51,246,35,07,85,112,35,08,48,207,35,0*6D
$GPGSV,3,2,12,10,01,311,,13,49,032,35,16,01,039,,20,23,122,35,0*64
$GPGSV,3,3,12,23,27,057,35,25,66,042,35,27,19,219,35,28,00,182,,0*61
$GAGSV,1,1,04,09,14,317,36,23,39,223,36,24,85,020,36,27,30,126,36,0*7B
$GBGSV,1,1,04,02,,,30,04,,,30,13,48,202,30,14,08,165,29,0*7C
$GNGLL,2959.99984,N,12000.00011,E,000205.00,A,A*71

$GNRMC,000206.00,A,2959.99984,N,12000.00011,E,0.011,,230721,5.69,W,A,V*57
$GNVTG,,T,,M,0.011,N,0.021,K,A*3E
$GNGGA,000206.00,2959.99984,N,12000.00011,E,1,12,0.75,-7.1,M,7.0,M,,*5A
$GNGSA,A,3,02,13,04,23,25,08,07,27,20,,,,1.36,0.75,1.14,1*09
$GNGSA,A,3,23,27,09,24,,,,,,,,,1.36,0.75,1.14,3*0A
$GNGSA,A,3,13,,,,,,,,,,,,1.36,0.75,1.14,4*04
$GPGSV,3,1,12,02,33,299,35,04,51,246,35,07,85,112,35,08,48,207,35,0*6D
$GPGSV,3,2,12,10,01,311,,13,49,032,35,16,01,039,,20,23,122,35,0*64
$GPGSV,3,3,12,23,27,057,35,25,66,042,35,27,19,219,35,28,00,182,,0*61
$GAGSV,1,1,04,09,14,317,36,23,39,223,36,24,85,020,36,27,30,126,36,0*7B
$GBGSV,1,1,04,02,,,30,04,,,29,13,48,202,30,14,08,165,29,0*74
$GNGLL,2959.99984,N,12000.00011,E,000206.00,A,A*72

$GNRMC,000207.00,A,2959.99985,N,12000.00011,E,0.021,,230721,5.69,W,A,V*54
$GNVTG,,T,,M,0.021,N,0.040,K,A*3A
$GNGGA,000207.00,2959.99985,N,12000.00011,E,1,12,0.75,-7.0,M,7.0,M,,*5B
$GNGSA,A,3,02,13,04,23,25,08,07,27,20,,,,1.36,0.75,1.14,1*09
$GNGSA,A,3,23,27,09,24,,,,,,,,,1.36,0.75,1.14,3*0A
$GNGSA,A,3,13,,,,,,,,,,,,1.36,0.75,1.14,4*04
$GPGSV,3,1,12,02,33,299,35,04,51,246,35,07,85,112,35,08,48,207,35,0*6D
$GPGSV,3,2,12,10,01,311,,13,49,032,35,16,01,039,,20,23,122,35,0*64
$GPGSV,3,3,12,23,27,057,35,25,66,042,35,27,19,219,35,28,00,182,,0*61
$GAGSV,1,1,04,09,14,317,36,23,39,223,36,24,85,020,36,27,30,126,36,0*7B
$GBGSV,1,1,04,02,,,30,04,,,29,13,48,202,30,14,08,165,29,0*74
$GNGLL,2959.99985,N,12000.00011,E,000207.00,A,A*72

$GNRMC,000208.00,A,2959.99986,N,12000.00011,E,0.017,,230721,5.69,W,A,V*5D
$GNVTG,,T,,M,0.017,N,0.032,K,A*3A
$GNGGA,000208.00,2959.99986,N,12000.00011,E,1,12,0.75,-7.0,M,7.0,M,,*57
$GNGSA,A,3,02,13,04,23,25,08,07,27,20,,,,1.36,0.75,1.14,1*09
$GNGSA,A,3,23,27,09,24,,,,,,,,,1.36,0.75,1.14,3*0A
$GNGSA,A,3,13,,,,,,,,,,,,1.36,0.75,1.14,4*04
$GPGSV,3,1,12,02,33,299,35,04,51,246,35,07,85,112,35,08,48,207,35,0*6D
$GPGSV,3,2,12,10,01,311,,13,49,032,35,16,01,039,,20,23,122,35,0*64
$GPGSV,3,3,12,23,27,057,35,25,66,042,35,27,19,219,35,28,00,182,,0*61
$GAGSV,1,1,04,09,14,317,36,23,39,223,36,24,85,020,36,27,30,126,36,0*7B
$GBGSV,1,1,04,02,,,30,04,,,30,13,48,202,30,14,08,165,29,0*7C
$GNGLL,2959.99986,N,12000.00011,E,000208.00,A,A*7E

$GNRMC,000209.00,A,2959.99986,N,12000.00011,E,0.018,,230721,5.69,W,A,V*53
$GNVTG,,T,,M,0.018,N,0.033,K,A*34
$GNGGA,000209.00,2959.99986,N,12000.00011,E,1,12,0.75,-7.0,M,7.0,M,,*56
$GNGSA,A,3,02,13,04,23,25,08,07,27,20,,,,1.36,0.75,1.14,1*09
$GNGSA,A,3,23,27,09,24,,,,,,,,,1.36,0.75,1.14,3*0A
$GNGSA,A,3,13,,,,,,,,,,,,1.36,0.75,1.14,4*04
$GPGSV,3,1,12,02,33,299,35,04,51,246,35,07,85,112,35,08,48,207,35,0*6D
$GPGSV,3,2,12,10,01,311,,13,49,032,35,16,01,039,,20,23,122,35,0*64
$GPGSV,3,3,12,23,27,057,35,25,66,042,35,27,19,219,35,28,00,182,,0*61
$GAGSV,1,1,04,09,14,317,36,23,39,223,36,24,85,020,36,27,30,126,36,0*7B
$GBGSV,1,1,04,02,,,30,04,,,30,13,48,202,30,14,08,165,29,0*7C
$GNGLL,2959.99986,N,12000.00011,E,000209.00,A,A*7F

$GNRMC,000210.00,A,2959.99986,N,12000.00010,E,0.038,,230721,5.69,W,A,V*58
$GNVTG,,T,,M,0.038,N,0.070,K,A*31
$GNGGA,000210.00,2959.99986,N,12000.00010,E,1,12,0.75,-7.0,M,7.0,M,,*5F
$GNGSA,A,3,02,13,04,23,25,08,07,27,20,,,,1.36,0.75,1.14,1*09
$GNGSA,A,3,23,27,09,24,,,,,,,,,1.36,0.75,1.14,3*0A
$GNGSA,A,3,13,,,,,,,,,,,,1.36,0.75,1.14,4*04
$GPGSV,3,1,12,02,33,299,35,04,51,246,35,07,85,112,35,08,48,207,35,0*6D
$GPGSV,3,2,12,10,01,311,,13,49,032,35,16,01,039,,20,23,122,35,0*64
$GPGSV,3,3,12,23,27,057,35,25,66,042,35,27,19,219,35,28,00,182,,0*61
$GAGSV,2,1,05,09,14,317,36,17,,,36,23,39,223,36,24,85,020,36,0*4C
$GAGSV,2,2,05,27,30,126,36,0*47
$GBGSV,1,1,04,02,,,30,04,,,30,13,48,202,30,14,08,165,29,0*7C
$GNGLL,2959.99986,N,12000.00010,E,000210.00,A,A*76

$GNRMC,000211.00,A,2959.99986,N,12000.00010,E,0.014,,230721,5.69,W,A,V*57
$GNVTG,,T,,M,0.014,N,0.026,K,A*3C
$GNGGA,000211.00,2959.99986,N,12000.00010,E,1,12,0.75,-7.0,M,7.0,M,,*5E
