000,160921,0.000,E,A,V*5F
$GPVTG,90.000,T,90.000,M,0.000,N,0.000,K*4E
$GPGSA,A,1,,,,,,,,,,,,,0.0,0.0,0.0,1*2D
$GPZDA,235950.00,16,09,2021,-7,00*7B
$GPGGA,235951,2300.00000,N,11300.00000,E,3,16,0.00,17.53,M,-7.53,M,,*50
$GPRMC,235951,A,2300.00000,N,11300.00000,E,0.000,90.000,160921,0.000,E,A,V*5E
$GPVTG,90.000,T,90.000,M,0.000,N,0.000,K*4E
$GPGSA,A,1,,,,,,,,,,,,,0.0,0.0,0.0,1*2D
$GPZDA,235951.00,16,09,2021,-7,00*7A
$GPGGA,235952,2300.00000,N,11300.00000,E,3,16,0.00,17.53,M,-7.53,M,,*53
$GPRMC,235952,A,2300.00000,N,11300.00000,E,0.000,90.000,160921,0.000,E,A,V*5D
$GPVTG,90.000,T,90.000,M,0.000,N,0.000,K*4E
$GPGSA,A,1,,,,,,,,,,,,,0.0,0.0,0.0,1*2D
$GPZDA,235952.00,16,09,2021,-7,00*79
$GPGGA,235953,2300.00000,N,11300.00000,E,3,16,0.00,17.53,M,-7.53,M,,*52
$GPRMC,235953,A,2300.00000,N,11300.00000,E,0.000,90.000,160921,0.000,E,A,V*5C
$GPVTG,90.000,T,90.000,M,0.000,N,0.000,K*4E
$GPGSA,A,1,,,,,,,,,,,,,0.0,0.0,0.0,1*2D
$GPZDA,235953.00,16,09,2021,-7,00*78
$GPGGA,235954,2300.00000,N,11300.00000,E,3,16,0.00,17.53,M,-7.53,M,,*55
$GPRMC,235954,A,2300.00000,N,11300.00000,E,0.000,90.000,160921,0.000,E,A,V*5B
$GPVTG,90.000,T,90.000,M,0.000,N,0.000,K*4E
$GPGSA,A,1,,,,,,,,,,,,,0.0,0.0,0.0,1*2D
$GPZDA,235954.00,16,09,2021,-7,00*7F
$GPGGA,235955,2300.00000,N,11300.00000,E,3,16,0.00,17.53,M,-7.53,M,,*54
$GPRMC,235955,A,2300.00000,N,11300.00000,E,0.000,90.000,160921,0.000,E,A,V*5A
$GPVTG,90.000,T,90.000,M,0.000,N,0.000,K*4E
$GPGSA,A,1,,,,,,,,,,,,,0.0,0.0,0.0,1*2D
$GPZDA,235955.00,16,09,2021,-7,00*7E
$GPGGA,235956,2300.00000,N,11300.00000,E,3,16,0.00,17.53,M,-7.53,M,,*57
$GPRMC,235956,A,2300.00000,N,11300.00000,E,0.000,90.000,160921,0.000,E,A,V*59
$GPVTG,90.000,T,90.000,M,0.000,N,0.000,K*4E
$GPGSA,A,1,,,,,,,,,,,,,0.0,0.0,0.0,1*2D
$GPZDA,235956.00,16,09,2021,-7,00*7D
$GPGGA,235957,2300.00000,N,11300.00000,E,3,16,0.00,17.53,M,-7.53,M,,*56
$GPRMC,235957,A,2300.00000,N,11300.00000,E,0.000,90.000,160921,0.000,E,A,V*58
$GPVTG,90.000,T,90.000,M,0.000,N,0.000,K*4E
$GPGSA,A,1,,,,,,,,,,,,,0.0,0.0,0.0,1*2D
$GPZDA,235957.00,16,09,2021,-7,00*7C
$GPGGA,235958,2300.00000,N,11300.00000,E,3,16,0.00,17.53,M,-7.53,M,,*59
$GPRMC,235958,A,2300.00000,N,11300.00000,E,0.000,90.000,160921,0.000,E,A,V*57
$GPVTG,90.000,T,90.000,M,0.000,N,0.000,K*4E
$GPGSA,A,1,,,,,,,,,,,,,0.0,0.0,0.0,1*2D
$GPZDA,235958.00,16,09,2021,-7,00*73
$GPGGA,235959,2300.00000,N,11300.00000,E,3,16,0.00,17.53,M,-7.53,M,,*58
$GPRMC,235959,A,2300.00000,N,11300.00000,E,0.000,90.000,160921,0.000,E,A,V*56
$GPVTG,90.000,T,90.000,M,0.000,N,0.000,K*4E
$GPGSA,A,1,,,,,,,,,,,,,0.0,0.0,0.0,1*2D
$GPZDA,235959.00,16,09,2021,-7,00*72
$GPGGA,000000,2300.00000,N,11300.00000,E,3,16,0.00,17.53,M,-7.53,M,,*59
$GPRMC,000000,A,2300.00000,N,11300.00000,E,0.000,90.000,170921,0.000,E,A,V*56
$GPVTG,90.000,T,90.000,M,0.000,N,0.000,K*4E
$GPGSA,A,1,,,,,,,,,,,,,0.0,0.0,0.0,1*2D
$GPZDA,000000.00,17,09,2021,-7,00*72
$GPGGA,000001,2300.00000,N,11300.00000,E,3,16,0.00,17.53,M,-7.53,M,,*58
$GPRMC,000001,A,2300.00000,N,11300.00000,E,0.000,90.000,170921,0.000,E,A,V*57
$GPVTG,90.000,T,90.000,M,0.000,N,0.000,K*4E
$GPGSA,A,1,,,,,,,,,,,,,0.0,0.0,0.0,1*2D
$GPZDA,000001.00,17,09,2021,-7,00*73
$GPGGA,000002,2300.00000,N,11300.00000,E,3,16,0.00,17.53,M,-7.53,M,,*5B
$GPRMC,000002,A,2300.00000,N,11300.00000,E,0.000,90.000,170921,0.000,E,A,V*54
$GPVTG,90.000,T,90.000,M,0.000,N,0.000,K*4E
$GPGSA,A,1,,,,,,,,,,,,,0.0,0.0,0.0,1*2D
$GPZDA,000002.00,17,09,2021,-7,00*70
$GPGGA,000003,2300.00000,N,11300.00000,E,3,16,0.00,17.53,M,-7.53,M,,*5A
$GPRMC,000003,A,2300.00000,N,11300.00000,E,0.000,90.000,170921,0.000,E,A,V*55
$GPVTG,90.000,T,90.000,M,0.000,N,0.000,K*4E
$GPGSA,A,1,,,,,,,,,,,,,0.0,0.0,0.0,1*2D
$GPZDA,000003.00,17,09,2021,-7,00*71
$GPGGA,000004,2300.00000,N,11300.00000,E,3,16,0.00,17.53,M,-7.53,M,,*5D
$GPRMC,000004,A,2300.00000,N,11300.00000,E,0.000,90.000,170921,0.000,E,A,V*52
$GPVTG,90.000,T,90.000,M,0.000,N,0.000,K*4E
$GPGSA,A,1,,,,,,,,,,,,,0.0,0.0,0.0,1*2D
$GPZDA,000004.00,17,09,2021,-7,00*76
$GPGGA,000005,2300.00000,N,11300.00000,E,3,16,0.00,17.53,M,-7.53,M,,*5C
$GPRMC,000005,A,2300.00000,N,11300.00000,E,0.000,90.000,170921,0.000,E,A,V*53
$GPVTG,90.000,T,90.000,M,0.000,N,0.000,K*4E
$GPGSA,A,1,,,,,,,,,,,,,0.0,0.0,0.0,1*2D
$GPZDA,000005.00,17,09,2021,-7,00*77
$GPGGA,000006,2300.00000,N,11300.00000,E,3,16,0.00,17.53,M,-7.53,M,,*5F
$GPRMC,000006,A,2300.00000,N,11300.00000,E,0.000,90.000,170921,0.000,E,A,V*50
$GPVTG,90.000,T,90.000,M,0.000,N,0.000,K*4E
$GPGSA,A,1,,,,,,,,,,,,,0.0,0.0,0.0,1*2D
$GPZDA,000006.00,17,09,2021,-7,00*74
$GPGGA,000007,2300.00000,N,11300.00000,E,3,16,0.00,17.53,M,-7.53,M,,*5E
$GPRMC,000007,A,2300.00000,N,11300.00000,E,0.000,90.000,170921,0.000,E,A,V*51
$GPVTG,90.000,T,90.000,M,0.000,N,0.000,K*4E
$GPGSA,A,1,,,,,,,,,,,,,0.0,0.0,0.0,1*2D
$GPZDA,000007.00,17,09,2021,-7,00*75
$GPGGA,000008,2300.00000,N,11300.00000,E,3,16,0.00,17.53,M,-7.53,M,,*51
$GPRMC,000008,A,2300.00000,N,11300.00000,E,0.000,90.000,170921,0.000,E,A,V*5E
$GPVTG,90.000,T,90.000,M,0.000,N,0.000,K*4E
$GPGSA,A,1,,,,,,,,,,,,,0.0,0.0,0.0,1*2D
$GPZDA,000008.00,17,09,2021,-7,00*7A
$GPGGA,000009,2300.00000,N,11300.00000,E,3,16,0.00,17.53,M,-7.53,M,,*50
$GPRMC,000009,A,2300.00000,N,11300.00000,E,0.000,90.000,170921,0.000,E,A,V*5F
$GPVTG,90.000,T,90.000,M,0.000,N,0.000,K*4E
$GPGSA,A,1,,,,,,,,,,,,,0.0,0.0,0.0,1*2D
$GPZDA,000009.00,17,09,2021,-7,00*7B
$GPGGA,000010,2300.00000,N,11300.00000,E,3,16,0.00,17.53,M,-7.53,M,,*58
$GPRMC,000010,A,2300.00000,N,11300.00000,E,0.000,90.000,170921,0.000,E,A,V*57
$GPVTG,90.000,T,90.000,M,0.000,N,0.000,K*4E
$GPGSA,A,1,,,,,,,,,,,,,0.0,0.0,0.0,1*2D
$GPZDA,000010.00,17,09,2021,-7,00*73
$GPGGA,000011,2300.00000,N,11300.00000,E,3,16,0.00,17.53,M,-7.53,M,,*59
$GPRMC,000011,A,2300.00000,N,11300.00000,E,0.000,90.000,170921,0.000,E,A,V*56
$GPVTG,90.000,T,90.000,M,0.000,N,0.000,K*4E
$GPGSA,A,1,,,,,,,,,,,,,0.0,0.0,0.0,1*2D
$GPZDA,000011.00,17,09,2021,-7,00*72
$GPGGA,000012,2300.00000,N,11300.00000,E,3,16,0.00,17.53,M,-7.53,M,,*5A
$GPRMC,000012,A,2300.00000,N,11300.00000,E,0.000,90.000,170921,0.000,E,A,V*55
$GPVTG,90.000,T,90.000,M,0.000,N,0.000,K*4E
$GPGSA,A,1,,,,,,,,,,,,,0.0,0.0,0.0,1*2D
$GPZDA,000012.00,17,09,2021,-7,00*71
$GPGGA,000013,2300.00000,N,11300.00000,E,3,16,0.00,17.53,M,-7.53,M,,*5B
$GPRMC,000013,A,2300.00000,N,11300.00000,E,0.000,90.000,170921,0.000,E,A,V*54
$GPVTG,90.000,T,90.000,M,0.000,N,0.000,K*4E
$GPGSA,A,1,,,,,,,,,,,,,0.0,0.0,0.0,1*2D
$GPZDA,000013.00,17,09,2021,-7,00*70
$GPGGA,000014,2300.00000,N,11300.00000,E,3,16,0.00,17.53,M,-7.53,M,,*5C
$GPRMC,000014,A,2300.00000,N,11300.00000,E,0.000,90.000,170921,0.000,E,A,V*53
$GPVTG,90.000,T,90.000,M,0.000,N,0.000,K*4E
$GPGSA,A,1,,,,,,,,,,,,,0.0,0.0,0.0,1*2D
$GPZDA,000014.00,17,09,2021,-7,00*77
$GPGGA,000015,2300.00000,N,11300.00000,E,3,16,0.00,17.53,M,-7.53,M,,*5D
$GPRMC,000015,A,2300.00000,N,11300.00000,E,0.000,90.000,170921,0.000,E,A,V*52
$GPVTG,90.000,T,90.000,M,0.000,N,0.000,K*4E
$GPGSA,A,1,,,,,,,,,,,,,0.0,0.0,0.0,1*2D
$GPZDA,000015.00,17,09,2021,-7,00*76
$GPGGA,000016,2300.00000,N,11300.00000,E,3,16,0.00,17.53,M,-7.53,M,,*5E
$GPRMC,000016,A,2300.00000,N,11300.00000,E,0.000,90.000,170921,0.000,E,A,V*51
$GPVTG,90.000,T,90.000,M,0.000,N,0.000,K*4E
$GPGSA,A,1,,,,,,,,,,,,,0.0,0.0,0.0,1*2D
$GPZDA,000016.00,17,09,2021,-7,00*75
$GPGGA,000017,2300.00000,N,11300.00000,E,3,16,0.00,17.53,M,-7.53,M,,*5F
$GPRMC,000017,A,2300.00000,N,11300.00000,E,0.000,90.000,170921,0.000,E,A,V*50
$GPVTG,90.000,T,90.000,M,0.000,N,0.000,K*4E
$GPGSA,A,1,,,,,,,,,,,,,0.0,0.0,0.0,1*2D
$GPZDA,000017.00,17,09,2021,-7,00*74
$GPGGA,000018,2300.00000,N,11300.00000,E,3,16,0.00,17.53,M,-7.53,M,,*50
$GPRMC,000018,A,2300.00000,N,11300.00000,E,0.000,90.000,170921,0.000,E,A,V*5F
$GPVTG,90.000,T,90.000,M,0.000,N,0.000,K*4E
$GPGSA,A,1,,,,,,,,,,,,,0.0,0.0,0.0,1*2D
$GPZDA,000018.00,17,09,2021,-7,00*7B
$GPGGA,000019,2300.00000,N,11300.00000,E,3,16,0.00,17.53,M,-7.53,M,,*51
$GPRMC,000019,A,2300.00000,N,11300.00000,E,0.000,90.000,170921,0.000,E,A,V*5E
$GPVTG,90.000,T,90.000,M,0.000,N,0.000,K*4E
$GPGSA,A,1,,,,,,,,,,,,,0.0,0.0,0.0,1*2D
$GPZDA,000019.00,17,09,2021,-7,00*7A
$GPGGA,000020,2300.00000,N,11300.00000,E,3,16,0.00,17.53,M,-7.53,M,,*5B
$GPRMC,000020,A,2300.00000,N,11300.00000,E,0.000,90.000,170921,0.000,E,A,V*54
$GPVTG,90.000,T,90.000,M,0.000,N,0.000,K*4E
$GPGSA,A,1,,,,,,,,,,,,,0.0,0.0,0.0,1*2D
$GPZDA,000020.00,17,09,2021,-7,00*70
$GPGGA,000021,2300.00000,N,11300.00000,E,3,16,0.00,17.53,M,-7.53,M,,*5A
$GPRMC,000021,A,2300.00000,N,11300.00000,E,0.000,90.000,170921,0.000,E,A,V*55
$GPVTG,90.000,T,90.000,M,0.000,N,0.000,K*4E
$GPGSA,A,1,,,,,,,,,,,,,0.0,0.0,0.0,1*2D
$GPZDA,000021.00,17,09,2021,-7,00*71
$GPGGA,000022,2300.00000,N,11300.00000,E,3,16,0.00,17.53,M,-7.53,M,,*59
$GPRMC,000022,A,2300.00000,N,11300.00000,E,0.000,90.000,170921,0.000,E,A,V*56
$GPVTG,90.000,T,90.000,M,0.000,N,0.000,K*4E
$GPGSA,A,1,,,,,,,,,,,,,0.0,0.0,0.0,1*2D
$GPZDA,000022.00,17,09,2021,-7,00*72
$GPGGA,000023,2300.00000,N,11300.00000,E,3,16,0.00,17.53,M,-7.53,M,,*58
$GPRMC,000023,A,2300.00000,N,11300.00000,E,0.000,90.000,170921,0.000,E,A,V*57
$GPVTG,90.000,T,90.000,M,0.000,N,0.000,K*4E
$GPGSA,A,1,,,,,,,,,,,,,0.0,0.0,0.0,1*2D
$GPZDA,000023.00,17,09,2021,-7,00*73
$GPGGA,000024,2300.00000,N,11300.00000,E,3,16,0.00,17.53,M,-7.53,M,,*5F
$GPRMC,000024,A,2300.00000,N,11300.00000,E,0.000,90.000,170921,0.000,E,A,V*50
$GPVTG,90.000,T,90.000,M,0.000,N,0.000,K*4E
$GPGSA,A,1,,,,,,,,,,,,,0.0,0.0,0.0,1*2D
$GPZDA,000024.00,17,09,2021,-7,00*74
$GPGGA,000025,2300.00000,N,11300.00000,E,3,16,0.00,17.53,M,-7.53,M,,*5E
$GPRMC,000025,A,2300.00000,N,11300.00000,E,0.000,90.000,170921,0.000,E,A,V*51
$GPVTG,90.000,T,90.000,M,0.000,N,0.000,K*4E
$GPGSA,A,1,,,,,,,,,,,,,0.0,0.0,0.0,1*2D
$GPZDA,000025.00,17,09,2021,-7,00*75
$GPGGA,000026,2300.00000,N,11300.00000,E,3,16,0.00,17.53,M,-7.53,M,,*5D
$GPRMC,000026,A,2300.00000,N,11300.00000,E,0.000,90.000,170921,0.000,E,A,V*52
$GPVTG,90.000,T,90.000,M,0.000,N,0.000,K*4E
$GPGSA,A,1,,,,,,,,,,,,,0.0,0.0,0.0,1*2D
$GPZDA,000026.00,17,09,2021,-7,00*76
$GPGGA,000027,2300.00000,N,11300.00000,E,3,16,0.00,17.53,M,-7.53,M,,*5C
$GPRMC,000027,A,2300.00000,N,11300.00000,E,0.000,90.000,170921,0.000,E,A,V*53
$GPVTG,90.000,T,90.000,M,0.000,N,0.000,K*4E
$GPGSA,A,1,,,,,,,,,,,,,0.0,0.0,0.0,1*2D
$GPZDA,000027.00,17,09,2021,-7,00*77
$GPGGA,000028,2300.00000,N,11300.00000,E,3,16,0.00,17.53,M,-7.53,M,,*53
$GPRMC,000028,A,2300.00000,N,11300.00000,E,0.000,90.000,170921,0.000,E,A,V*5C
$GPVTG,90.000,T,90.000,M,0.000,N,0.000,K*4E
$GPGSA,A,1,,,,,,,,,,,,,0.0,0.0,0.0,1*2D
$GPZDA,000028.00,17,09,2021,-7,00*78
$GPGGA,000029,2300.00000,N,11300.00000,E,3,16,0.00,17.53,M,-7.53,M,,*52
$GPRMC,000029,A,2300.00000,N,11300.00000,E,0.000,90.000,170921,0.000,E,A,V*5D
$GPVTG,90.000,T,90.000,M,0.000,N,0.000,K*4E
$GPGSA,A,1,,,,,,,,,,,,,0.0,0.0,0.0,1*2D
$GPZDA,000029.00,17,09,2021,-7,00*79
$GPGGA,000030,2300.00000,N,11300.00000,E,3,16,0.00,17.53,M,-7.53,M,,*5A
$GPRMC,000030,A,2300.00000,N,11300.00000,E,0.000,90.000,170921,0.000,E,A,V*55
$GPVTG,90.000,T,90.000,M,0.000,N,0.000,K*4E
$GPGSA,A,1,,,,,,,,,,,,,0.0,0.0,0.0,1*2D
$GPZDA,000030.00,17,09,2021,-7,00*71
$GPGGA,000031,2300.00000,N,11300.00000,E,3,16,0.00,17.53,M,-7.53,M,,*5B
$GPRMC,000031,A,2300.00000,N,11300.00000,E,0.000,90.000,170921,0.000,E,A,V*54
$GPVTG,90.000,T,90.000,M,0.000,N,0.000,K*4E
$GPGSA,A,1,,,,,,,,,,,,,0.0,0.0,0.0,1*2D
$GPZDA,000031.00,17,09,2021,-7,00*70
$GPGGA,000032,2300.00000,N,11300.00000,E,3,16,0.00,17.53,M,-7.53,M,,*58
$GPRMC,000032,A,2300.00000,N,11300.00000,E,0.000,90.000,170921,0.000,E,A,V*57
$GPVTG,90.000,T,90.000,M,0.000,N,0.000,K*4E
$GPGSA,A,1,,,,,,,,,,,,,0.0,0.0,0.0,1*2D
$GPZDA,000032.00,17,09,2021,-7,00*73
$GPGGA,000033,2300.00000,N,11300.00000,E,3,16,0.00,17.53,M,-7.53,M,,*59
$GPRMC,000033,A,2300.00000,N,11300.00000,E,0.000,90.000,170921,0.000,E,A,V*56
$GPVTG,90.000,T,90.000,M,0.000,N,0.000,K*4E
$GPGSA,A,1,,,,,,,,,,,,,0.0,0.0,0.0,1*2D
$GPZDA,000033.00,17,09,2021,-7,00*72
$GPGGA,000034,2300.00000,N,11300.00000,E,3,16,0.00,17.53,M,-7.53,M,,*5E
$GPRMC,000034,A,2300.00000,N,11300.00000,E,0.000,90.000,170921,0.000,E,A,V*51
$GPVTG,90.000,T,90.000,M,0.000,N,0.000,K*4E
$GPGSA,A,1,,,,,,,,,,,,,0.0,0.0,0.0,1*2D
$GPZDA,000034.00,17,09,2021,-7,00*75
$GPGGA,000035,2300.00000,N,11300.00000,E,3,16,0.00,17.53,M,-7.53,M,,*5F
$GPRMC,000035,A,2300.00000,N,11300.00000,E,0.000,90.000,170921,0.000,E,A,V*50
$GPVTG,90.000,T,90.000,M,0.000,N,0.000,K*4E
$GPGSA,A,1,,,,,,,,,,,,,0.0,0.0,0.0,1*2D
$GPZDA,000035.00,17,09,2021,-7,00*74
$GPGGA,000036,2300.00000,N,11300.00000,E,3,16,0.00,17.53,M,-7.53,M,,*5C
$GPRMC,000036,A,2300.00000,N,11300.00000,E,0.000,90.000,170921,0.000,E,A,V*53
$GPVTG,90.000,T,90.000,M,0.000,N,0.000,K*4E
$GPGSA,A,1,,,,,,,,,,,,,0.0,0.0,0.0,1*2D
$GPZDA,000036.00,17,09,2021,-7,00*77
$GPGGA,000037,2300.00000,N,11300.00000,E,3,16,0.00,17.53,M,-7.53,M,,*5D
$GPRMC,000037,A,2300.00000,N,11300.00000,E,0.000,90.000,170921,0.000,E,A,V*52
$GPVTG,90.000,T,90.000,M,0.000,N,0.000,K*4E
$GPGSA,A,1,,,,,,,,,,,,,0.0,0.0,0.0,1*2D
$GPZDA,000037.00,17,09,2021,-7,00*76
$GPGGA,000038,2300.00000,N,11300.00000,E,3,16,0.00,17.53,M,-7.53,M,,*52
$GPRMC,000038,A,2300.00000,N,11300.00000,E,0.000,90.000,170921,0.000,E,A,V*5D
$GPVTG,90.000,T,90.000,M,0.000,N,0.000,K*4E
$GPGSA,A,1,,,,,,,,,,,,,0.0,0.0,0.0,1*2D
$GPZDA,000038.00,17,09,2021,-7,00*79
$GPGGA,000039,2300.00000,N,11300.00000,E,3,16,0.00,17.53,M,-7.53,M,,*53
$GPRMC,000039,A,2300.00000,N,11300.00000,E,0.000,90.000,170921,0.000,E,A,V*5C
$GPVTG,90.000,T,90.000,M,0.000,N,0.000,K*4E
$GPGSA,A,1,,,,,,,,,,,,,0.0,0.0,0.0,1*2D
$GPZDA,000039.00,17,09,2021,-7,00*78
$GPGGA,000040,2300.00000,N,11300.00000,E,3,16,0.00,17.53,M,-7.53,M,,*5D
$GPRMC,000040,A,2300.00000,N,11300.00000,E,0.000,90.000,170921,0.000,E,A,V*52
$GPVTG,90.000,T,90.000,M,0.000,N,0.000,K*4E
$GPGSA,A,1,,,,,,,,,,,,,0.0,0.0,0.0,1*2D
$GPZDA,000040.00,17,09,2021,-7,00*76
$GPGGA,000041,2300.00000,N,11300.00000,E,3,16,0.00,17.53,M,-7.53,M,,*5C
$GPRMC,000041,A,2300.00000,N,11300.00000,E,0.000,90.000,170921,0.000,E,A,V*53
$GPVTG,90.000,T,90.000,M,0.000,N,0.000,K*4E
$GPGSA,A,1,,,,,,,,,,,,,0.0,0.0,0.0,1*2D
$GPZDA,000041.00,17,09,2021,-7,00*77
$GPGGA,000042,2300.00000,N,11300.00000,E,3,16,0.00,17.53,M,-7.53,M,,*5F
$GPRMC,000042,A,2300.00000,N,11300.00000,E,0.000,90.000,170921,0.000,E,A,V*50
$GPVTG,90.000,T,90.000,M,0.000,N,0.000,K*4E
$GPGSA,A,1,,,,,,,,,,,,,0.0,0.0,0.0,1*2D
$GPZDA,000042.00,17,09,2021,-7,00*74
$GPGGA,000043,2300.00000,N,11300.00000,E,3,16,0.00,17.53,M,-7.53,M,,*5E
$GPRMC,000043,A,2300.00000,N,11300.00000,E,0.000,90.000,170921,0.000,E,A,V*51
$GPVTG,90.000,T,90.000,M,0.000,N,0.000,K*4E
$GPGSA,A,1,,,,,,,,,,,,,0.0,0.0,0.0,1*2D
$GPZDA,000043.00,17,09,2021,-7,00*75
$GPGGA,000044,2300.00000,N,11300.00000,E,3,16,0.00,17.53,M,-7.53,M,,*59
$GPRMC,000044,A,2300.00000,N,11300.00000,E,0.000,90.000,170921,0.000,E,A,V*56
$GPVTG,90.000,T,90.000,M,0.000,N,0.000,K*4E
$GPGSA,A,1,,,,,,,,,,,,,0.0,0.0,0.0,1*2D
$GPZDA,000044.00,17,09,2021,-7,00*72
$GPGGA,000045,2300.00000,N,11300.00000,E,3,16,0.00,17.53,M,-7.53,M,,*58
$GPRMC,000045,A,2300.00000,N,11300.00000,E,0.000,90.000,170921,0.000,E,A,V*57
$GPVTG,90.000,T,90.000,M,0.000,N,0.000,K*4E
$GPGSA,A,1,,,,,,,,,,,,,0.0,0.0,0.0,1*2D
$GPZDA,000045.00,17,09,2021,-7,00*73
$GPGGA,000046,2300.00000,N,11300.00000,E,3,16,0.00,17.53,M,-7.53,M,,*5B
$GPRMC,000046,A,2300.00000,N,11300.00000,E,0.000,90.000,170921,0.000,E,A,V*54
$GPVTG,90.000,T,90.000,M,0.000,N,0.000,K*4E
$GPGSA,A,1,,,,,,,,,,,,,0.0,0.0,0.0,1*2D
$GPZDA,000046.00,17,09,2021,-7,00*70
$GPGGA,000047,2300.00000,N,11300.00000,E,3,16,0.00,17.53,M,-7.53,M,,*5A
$GPRMC,000047,A,2300.00000,N,11300.00000,E,0.000,90.000,170921,0.000,E,A,V*55
$GPVTG,90.000,T,90.000,M,0.000,N,0.000,K*4E
$GPGSA,A,1,,,,,,,,,,,,,0.0,0.0,0.0,1*2D
$GPZDA,000047.00,17,09,2021,-7,00*71
$GPGGA,000048,2300.00000,N,11300.00000,E,3,16,0.00,17.53,M,-7.53,M,,*55
$GPRMC,000048,A,2300.00000,N,11300.00000,E,0.000,90.000,170921,0.000,E,A,V*5A
$GPVTG,90.000,T,90.000,M,0.000,N,0.000,K*4E
$GPGSA,A,1,,,,,,,,,,,,,0.0,0.0,0.0,1*2D
$GPZDA,000048.00,17,09,2021,-7,00*7E
$GPGGA,000049,2300.00000,N,11300.00000,E,3,16,0.00,17.53,M,-7.53,M,,*54
$GPRMC,000049,A,2300.00000,N,11300.00000,E,0.000,90.000,170921,0.000,E,A,V*5B
$GPVTG,90.000,T,90.000,M,0.000,N,0.000,K*4E
$GPGSA,A,1,,,,,,,,,,,,,0.0,0.0,0.0,1*2D
$GPZDA,000049.00,17,09,2021,-7,00*7F
$GPGGA,000050,2300.00000,N,11300.00000,E,3,16,0.00,17.53,M,-7.53,M,,*5C
$GPRMC,000050,A,2300.00000,N,11300.00000,E,0.000,90.000,170921,0.000,E,A,V*53
$GPVTG,90.000,T,90.000,M,0.000,N,0.000,K*4E
$GPGSA,A,1,,,,,,,,,,,,,0.0,0.0,0.0,1*2D
$GPZDA,000050.00,17,09,2021,-7,00*77
$GPGGA,000051,2300.00000,N,11300.00000,E,3,16,0.00,17.53,M,-7.53,M,,*5D
$GPRMC,000051,A,2300.00000,N,11300.00000,E,0.000,90.000,170921,0.000,E,A,V*52
$GPVTG,90.000,T,90.000,M,0.000,N,0.000,K*4E
$GPGSA,A,1,,,,,,,,,,,,,0.0,0.0,0.0,1*2D
$GPZDA,000051.00,17,09,2021,-7,00*76
$GPGGA,000052,2300.00000,N,11300.00000,E,3,16,0.00,17.53,M,-7.53,M,,*5E
$GPRMC,000052,A,2300.00000,N,11300.00000,E,0.000,90.000,170921,0.000,E,A,V*51
$GPVTG,90.000,T,90.000,M,0.000,N,0.000,K*4E
$GPGSA,A,1,,,,,,,,,,,,,0.0,0.0,0.0,1*2D
$GPZDA,000052.00,17,09,2021,-7,00*75
$GPGGA,000053,2300.00000,N,11300.00000,E,3,16,0.00,17.53,M,-7.53,M,,*5F
$GPRMC,000053,A,2300.00000,N,11300.00000,E,0.000,90.000,170921,0.000,E,A,V*50
$GPVTG,90.000,T,90.000,M,0.000,N,0.000,K*4E
$GPGSA,A,1,,,,,,,,,,,,,0.0,0.0,0.0,1*2D
$GPZDA,000053.00,17,09,2021,-7,00*74
$GPGGA,000054,2300.00000,N,11300.00000,E,3,16,0.00,17.53,M,-7.53,M,,*58
$GPRMC,000054,A,2300.00000,N,11300.00000,E,0.000,90.000,170921,0.000,E,A,V*57
$GPVTG,90.000,T,90.000,M,0.000,N,0.000,K*4E
$GPGSA,A,1,,,,,,,,,,,,,0.0,0.0,0.0,1*2D
$GPZDA,000054.00,17,09,2021,-7,00*73
$GPGGA,000055,2300.00000,N,11300.00000,E,3,16,0.00,17.53,M,-7.53,M,,*59
$GPRMC,000055,A,2300.00000,N,11300.00000,E,0.000,90.000,170921,0.000,E,A,V*56
$GPVTG,90.000,T,90.000,M,0.000,N,0.000,K*4E
$GPGSA,A,1,,,,,,,,,,,,,0.0,0.0,0.0,1*2D
$GPZDA,000055.00,17,09,2021,-7,00*72
$GPGGA,000056,2300.00000,N,11300.00000,E,3,16,0.00,17.53,M,-7.53,M,,*5A
$GPRMC,000056,A,2300.00000,N,11300.00000,E,0.000,90.000,170921,0.000,E,A,V*55
$GPVTG,90.000,T,90.000,M,0.000,N,0.000,K*4E
$GPGSA,A,1,,,,,,,,,,,,,0.0,0.0,0.0,1*2D
$GPZDA,000056.00,17,09,2021,-7,00*71
$GPGGA,000057,2300.00000,N,11300.00000,E,3,16,0.00,17.53,M,-7.53,M,,*5B
$GPRMC,000057,A,2300.00000,N,11300.00000,E,0.000,90.000,170921,0.000,E,A,V*54
$GPVTG,90.000,T,90.000,M,0.000,N,0.000,K*4E
$GPGSA,A,1,,,,,,,,,,,,,0.0,0.0,0.0,1*2D
$GPZDA,000057.00,17,09,2021,-7,00*70
$GPGGA,000058,2300.00000,N,11300.00000,E,3,16,0.00,17.53,M,-7.53,M,,*54
$GPRMC,000058,A,2300.00000,N,11300.00000,E,0.000,90.000,170921,0.000,E,A,V*5B
$GPVTG,90.000,T,90.000,M,0.000,N,0.000,K*4E
$GPGSA,A,1,,,,,,,,,,,,,0.0,0.0,0.0,1*2D
$GPZDA,000058.00,17,09,2021,-7,00*7F
$GPGGA,000059,2300.00000,N,11300.00000,E,3,16,0.00,17.53,M,-7.53,M,,*55
$GPRMC,000059,A,2300.00000,N,11300.00000,E,0.000,90.000,170921,0.000,E,A,V*5A
$GPVTG,90.000,T,90.000,M,0.000,N,0.000,K*4E
$GPGSA,A,1,,,,,,,,,,,,,0.0,0.0,0.0,1*2D
$GPZDA,000059.00,17,09,2021,-7,00*7E
$GPGGA,000100,2300.00000,N,11300.00000,E,3,16,0.00,17.53,M,-7.53,M,,*58
$GPRMC,000100,A,2300.00000,N,11300.00000,E,0.000,90.000,170921,0.000,E,A,V*57
$GPVTG,90.000,T,90.000,M,0.000,N,0.000,K*4E
$GPGSA,A,1,,,,,,,,,,,,,0.0,0.0,0.0,1*2D
$GPZDA,000100.00,17,09,2021,-7,00*73
$GPGGA,000101,2300.00000,N,11300.00000,E,3,16,0.00,17.53,M,-7.53,M,,*59
$GPRMC,000101,A,2300.00000,N,11300.00000,E,0.000,90.000,170921,0.000,E,A,V*56
$GPVTG,90.000,T,90.000,M,0.000,N,0.000,K*4E
$GPGSA,A,1,,,,,,,,,,,,,0.0,0.0,0.0,1*2D
$GPZDA,000101.00,17,09,2021,-7,00*72
$GPGGA,000102,2300.00000,N,11300.00000,E,3,16,0.00,17.53,M,-7.53,M,,*5A
$GPRMC,000102,A,2300.00000,N,11300.00000,E,0.000,90.000,170921,0.000,E,A,V*55
$GPVTG,90.000,T,90.000,M,0.000,N,0.000,K*4E
$GPGSA,A,1,,,,,,,,,,,,,0.0,0.0,0.0,1*2D
$GPZDA,000102.00,17,09,2021,-7,00*71
$GPGGA,000103,2300.00000,N,11300.00000,E,3,16,0.00,17.53,M,-7.53,M,,*5B
$GPRMC,000103,A,2300.00000,N,11300.00000,E,0.000,90.000,170921,0.000,E,A,V*54
$GPVTG,90.000,T,90.000,M,0.000,N,0.000,K*4E
$GPGSA,A,1,,,,,,,,,,,,,0.0,0.0,0.0,1*2D
$GPZDA,000103.00,17,09,2021,-7,00*70
$GPGGA,000104,2300.00000,N,11300.00000,E,3,16,0.00,17.53,M,-7.53,M,,*5C
$GPRMC,000104,A,2300.00000,N,11300.00000,E,0.000,90.000,170921,0.000,E,A,V*53
$GPVTG,90.000,T,90.000,M,0.000,N,0.000,K*4E
$GPGSA,A,1,,,,,,,,,,,,,0.0,0.0,0.0,1*2D
$GPZDA,000104.00,17,09,2021,-7,00*77
$GPGGA,000105,2300.00000,N,11300.00000,E,3,16,0.00,17.53,M,-7.53,M,,*5D
$GPRMC,000105,A,2300.00000,N,11300.00000,E,0.000,90.000,170921,0.000,E,A,V*52
$GPVTG,90.000,T,90.000,M,0.000,N,0.000,K*4E
$GPGSA,A,1,,,,,,,,,,,,,0.0,0.0,0.0,1*2D
$GPZDA,000105.00,17,09,2021,-7,00*76
$GPGGA,000106,2300.00000,N,11300.00000,E,3,16,0.00,17.53,M,-7.53,M,,*5E
$GPRMC,000106,A,2300.00000,N,11300.00000,E,0.000,90.000,170921,0.000,E,A,V*51
$GPVTG,90.000,T,90.000,M,0.000,N,0.000,K*4E
$GPGSA,A,1,,,,,,,,,,,,,0.0,0.0,0.0,1*2D
$GPZDA,000106.00,17,09,2021,-7,00*75
$GPGGA,000107,2300.00000,N,11300.00000,E,3,16,0.00,17.53,M,-7.53,M,,*5F
$GPRMC,000107,A,2300.00000,N,11300.00000,E,0.000,90.000,170921,0.000,E,A,V*50
$GPVTG,90.000,T,90.000,M,0.000,N,0.000,K*4E
$GPGSA,A,1,,,,,,,,,,,,,0.0,0.0,0.0,1*2D
$GPZDA,000107.00,17,09,2021,-7,00*74
$GPGGA,000108,2300.00000,N,11300.00000,E,3,16,0.00,17.53,M,-7.53,M,,*50
$GPRMC,000108,A,2300.00000,N,11300.00000,E,0.000,90.000,170921,0.000,E,A,V*5F
$GPVTG,90.000,T,90.000,M,0.000,N,0.000,K*4E
$GPGSA,A,1,,,,,,,,,,,,,0.0,0.0,0.0,1*2D
$GPZDA,000108.00,17,09,2021,-7,00*7B
$GPGGA,000109,2300.00000,N,11300.00000,E,3,16,0.00,17.53,M,-7.53,M,,*51
$GPRMC,000109,A,2300.00000,N,11300.00000,E,0.000,90.000,170921,0.000,E,A,V*5E
$GPVTG,90.000,T,90.000,M,0.000,N,0.000,K*4E
$GPGSA,A,1,,,,,,,,,,,,,0.0,0.0,0.0,1*2D
$GPZDA,000109.00,17,09,2021,-7,00*7A
$GPGGA,000110,2300.00000,N,11300.00000,E,3,16,0.00,17.53,M,-7.53,M,,*59
$GPRMC,000110,A,2300.00000,N,11300.00000,E,0.000,90.000,170921,0.000,E,A,V*56
$GPVTG,90.000,T,90.000,M,0.000,N,0.000,K*4E
$GPGSA,A,1,,,,,,,,,,,,,0.0,0.0,0.0,1*2D
$GPZDA,000110.00,17,09,2021,-7,00*72
$GPGGA,000111,2300.00000,N,11300.00000,E,3,16,0.00,17.53,M,-7.53,M,,*58
$GPRMC,000111,A,2300.00000,N,11300.00000,E,0.000,90.000,170921,0.000,E,A,V*57
$GPVTG,90.000,T,90.000,M,0.000,N,0.000,K*4E
$GPGSA,A,1,,,,,,,,,,,,,0.0,0.0,0.0,1*2D
$GPZDA,000111.00,17,09,2021,-7,00*73
$GPGGA,000112,2300.00000,N,11300.00000,E,3,16,0.00,17.53,M,-7.53,M,,*5B
$GPRMC,000112,A,2300.00000,N,11300.00000,E,0.000,90.000,170921,0.000,E,A,V*54
$GPVTG,90.000,T,90.000,M,0.000,N,0.000,K*4E
$GPGSA,A,1,,,,,,,,,,,,,0.0,0.0,0.0,1*2D
$GPZDA,000112.00,17,09,2021,-7,00*70
$GPGGA,000113,2300.00000,N,11300.00000,E,3,16,0.00,17.53,M,-7.53,M,,*5A
$GPRMC,000113,A,2300.00000,N,11300.00000,E,0.000,90.000,170921,0.000,E,A,V*55
$GPVTG,90.000,T,90.000,M,0.000,N,0.000,K*4E
$GPGSA,A,1,,,,,,,,,,,,,0.0,0.0,0.0,1*2D
$GPZDA,000113.00,17,09,2021,-7,00*71
$GPGGA,000114,2300.00000,N,11300.00000,E,3,16,0.00,17.53,M,-7.53,M,,*5D
$GPRMC,000114,A,2300.00000,N,11300.00000,E,0.000,90.000,170921,0.000,E,A,V*52
$GPVTG,90.000,T,90.000,M,0.000,N,0.000,K*4E
$GPGSA,A,1,,,,,,,,,,,,,0.0,0.0,0.0,1*2D
$GPZDA,000114.00,17,09,2021,-7,00*76
$GPGGA,000115,2300.00000,N,11300.00000,E,3,16,0.00,17.53,M,-7.53,M,,*5C
$GPRMC,000115,A,2300.00000,N,11300.00000,E,0.000,90.000,170921,0.000,E,A,V*53
$GPVTG,90.000,T,90.000,M,0.000,N,0.000,K*4E
$GPGSA,A,1,,,,,,,,,,,,,0.0,0.0,0.0,1*2D
$GPZDA,000115.00,17,09,2021,-7,00*77
$GPGGA,000116,2300.00000,N,11300.00000,E,3,16,0.00,17.53,M,-7.53,M,,*5F
$GPRMC,000116,A,2300.00000,N,11300.00000,E,0.000,90.000,170921,0.000,E,A,V*50
$GPVTG,90.000,T,90.000,M,0.000,N,0.000,K*4E
$GPGSA,A,1,,,,,,,,,,,,,0.0,0.0,0.0,1*2D
$GPZDA,000116.00,17,09,2021,-7,00*74
$GPGGA,000117,2300.00000,N,11300.00000,E,3,16,0.00,17.53,M,-7.53,M,,*5E
$GPRMC,000117,A,2300.00000,N,11300.00000,E,0.000,90.000,170921,0.000,E,A,V*51
$GPVTG,90.000,T,90.000,M,0.000,N,0.000,K*4E
$GPGSA,A,1,,,,,,,,,,,,,0.0,0.0,0.0,1*2D
$GPZDA,000117.00,17,09,2021,-7,00*75
$GPGGA,000118,2300.00000,N,11300.00000,E,3,16,0.00,17.53,M,-7.53,M,,*51
$GPRMC,000118,A,2300.00000,N,11300.00000,E,0.000,90.000,170921,0.000,E,A,V*5E
$GPVTG,90.000,T,90.000,M,0.000,N,0.000,K*4E
$GPGSA,A,1,,,,,,,,,,,,,0.0,0.0,0.0,1*2D
$GPZDA,000118.00,17,09,2021,-7,00*7A
$GPGGA,000119,2300.00000,N,11300.00000,E,3,16,0.00,17.53,M,-7.53,M,,*50
$GPRMC,000119,A,2300.00000,N,11300.00000,E,0.000,90.000,170921,0.000,E,A,V*5F
$GPVTG,90.000,T,90.000,M,0.000,N,0.000,K*4E
$GPGSA,A,1,,,,,,,,,,,,,0.0,0.0,0.0,1*2D
$GPZDA,000119.00,17,09,2021,-7,00*7B
$GPGGA,000120,2300.00000,N,11300.00000,E,3,16,0.00,17.53,M,-7.53,M,,*5A
$GPRMC,000120,A,2300.00000,N,11300.00000,E,0.000,90.000,170921,0.000,E,A,V*55
$GPVTG,90.000,T,90.000,M,0.000,N,0.000,K*4E
$GPGSA,A,1,,,,,,,,,,,,,0.0,0.0,0.0,1*2D
$GPZDA,000120.00,17,09,2021,-7,00*71
$GPGGA,000121,2300.00000,N,11300.00000,E,3,16,0.00,17.53,M,-7.53,M,,*5B
$GPRMC,000121,A,2300.00000,N,11300.00000,E,0.000,90.000,170921,0.000,E,A,V*54
$GPVTG,90.000,T,90.000,M,0.000,N,0.000,K*4E
$GPGSA,A,1,,,,,,,,,,,,,0.0,0.0,0.0,1*2D
$GPZDA,000121.00,17,09,2021,-7,00*70
$GPGGA,000122,2300.00000,N,11300.00000,E,3,16,0.00,17.53,M,-7.53,M,,*58
$GPRMC,000122,A,2300.00000,N,11300.00000,E,0.000,90.000,170921,0.000,E,A,V*57
$GPVTG,90.000,T,90.000,M,0.000,N,0.000,K*4E
$GPGSA,A,1,,,,,,,,,,,,,0.0,0.0,0.0,1*2D
$GPZDA,000122.00,17,09,2021,-7,00*73
$GPGGA,000123,2300.00000,N,11300.00000,E,3,16,0.00,17.53,M,-7.53,M,,*59
$GPRMC,000123,A,2300.00000,N,11300.00000,E,0.000,90.000,170921,0.000,E,A,V*56
$GPVTG,90.000,T,90.000,M,0.000,N,0.000,K*4E
$GPGSA,A,1,,,,,,,,,,,,,0.0,0.0,0.0,1*2D
$GPZDA,000123.00,17,09,2021,-7,00*72
$GPGGA,000124,2300.00000,N,11300.00000,E,3,16,0.00,17.53,M,-7.53,M,,*5E
$GPRMC,000124,A,2300.00000,N,11300.00000,E,0.000,90.000,170921,0.000,E,A,V*51
$GPVTG,90.000,T,90.000,M,0.000,N,0.000,K*4E
$GPGSA,A,1,,,,,,,,,,,,,0.0,0.0,0.0,1*2D
$GPZDA,000124.00,17,09,2021,-7,00*75
$GPGGA,000125,2300.00000,N,11300.00000,E,3,16,0.00,17.53,M,-7.53,M,,*5F
$GPRMC,000125,A,2300.00000,N,11300.00000,E,0.000,90.000,170921,0.000,E,A,V*50
$GPVTG,90.000,T,90.000,M,0.000,N,0.000,K*4E
$GPGSA,A,1,,,,,,,,,,,,,0.0,0.0,0.0,1*2D
$GPZDA,000125.00,17,09,2021,-7,00*74
$GPGGA,000126,2300.00000,N,11300.00000,E,3,16,0.00,17.53,M,-7.53,M,,*5C
$GPRMC,000126,A,2300.00000,N,11300.00000,E,0.000,90.000,170921,0.000,E,A,V*53
$GPVTG,90.000,T,90.000,M,0.000,N,0.000,K*4E
$GPGSA,A,1,,,,,,,,,,,,,0.0,0.0,0.0,1*2D
$GPZDA,000126.00,17,09,2021,-7,00*77
$GPGGA,000127,2300.00000,N,11300.00000,E,3,16,0.00,17.53,M,-7.53,M,,*5D
$GPRMC,000127,A,2300.00000,N,11300.00000,E,0.000,90.000,170921,0.000,E,A,V*52
$GPVTG,90.000,T,90.000,M,0.000,N,0.000,K*4E
$GPGSA,A,1,,,,,,,,,,,,,0.0,0.0,0.0,1*2D
$GPZDA,000127.00,17,09,2021,-7,00*76
$GPGGA,000128,2300.00000,N,11300.00000,E,3,16,0.00,17.53,M,-7.53,M,,*52
$GPRMC,000128,A,2300.00000,N,11300.00000,E,0.000,90.000,170921,0.000,E,A,V*5D
$GPVTG,90.000,T,90.000,M,0.000,N,0.000,K*4E
$GPGSA,A,1,,,,,,,,,,,,,0.0,0.0,0.0,1*2D
$GPZDA,000128.00,17,09,2021,-7,00*79
$GPGGA,000129,2300.00000,N,11300.00000,E,3,16,0.00,17.53,M,-7.53,M,,*53
$GPRMC,000129,A,2300.00000,N,11300.00000,E,0.000,90.000,170921,0.000,E,A,V*5C
$GPVTG,90.000,T,90.000,M,0.000,N,0.000,K*4E
$GPGSA,A,1,,,,,,,,,,,,,0.0,0.0,0.0,1*2D
$GPZDA,000129.00,17,09,2021,-7,00*78
$GPGGA,000130,2300.00000,N,11300.00000,E,3,16,0.00,17.53,M,-7.53,M,,*5B
$GPRMC,000130,A,2300.00000,N,11300.00000,E,0.000,90.000,170921,0.000,E,A,V*54
$GPVTG,90.000,T,90.000,M,0.000,N,0.000,K*4E
$GPGSA,A,1,,,,,,,,,,,,,0.0,0.0,0.0,1*2D
$GPZDA,000130.00,17,09,2021,-7,00*70
$GPGGA,000131,2300.00000,N,11300.00000,E,3,16,0.00,17.53,M,-7.53,M,,*5A
$GPRMC,000131,A,2300.00000,N,11300.00000,E,0.000,90.000,170921,0.000,E,A,V*55
$GPVTG,90.000,T,90.000,M,0.000,N,0.000,K*4E
$GPGSA,A,1,,,,,,,,,,,,,0.0,0.0,0.0,1*2D
$GPZDA,000131.00,17,09,2021,-7,00*71
$GPGGA,000132,2300.00000,N,11300.00000,E,3,16,0.00,17.53,M,-7.53,M,,*59
$GPRMC,000132,A,2300.00000,N,11300.00000,E,0.000,90.000,170921,0.000,E,A,V*56
$GPVTG,90.000,T,90.000,M,0.000,N,0.000,K*4E
$GPGSA,A,1,,,,,,,,,,,,,0.0,0.0,0.0,1*2D
$GPZDA,000132.00,17,09,2021,-7,00*72
$GPGGA,000133,2300.00000,N,11300.00000,E,3,16,0.00,17.53,M,-7.53,M,,*58
$GPRMC,000133,A,2300.00000,N,11300.00000,E,0.000,90.000,170921,0.000,E,A,V*57
$GPVTG,90.000,T,90.000,M,0.000,N,0.000,K*4E
$GPGSA,A,1,,,,,,,,,,,,,0.0,0.0,0.0,1*2D
$GPZDA,000133.00,17,09,2021,-7,00*73
$GPGGA,000134,2300.00000,N,11300.00000,E,3,16,0.00,17.53,M,-7.53,M,,*5F
$GPRMC,000134,A,2300.00000,N,11300.00000,E,0.000,90.000,170921,0.000,E,A,V*50
$GPVTG,90.000,T,90.000,M,0.000,N,0.000,K*4E
$GPGSA,A,1,,,,,,,,,,,,,0.0,0.0,0.0,1*2D
$GPZDA,000134.00,17,09,2021,-7,00*74
$GPGGA,000135,2300.00000,N,11300.00000,E,3,16,0.00,17.53,M,-7.53,M,,*5E
$GPRMC,000135,A,2300.00000,N,11300.00000,E,0.000,90.000,170921,0.000,E,A,V*51
$GPVTG,90.000,T,90.000,M,0.000,N,0.000,K*4E
$GPGSA,A,1,,,,,,,,,,,,,0.0,0.0,0.0,1*2D
$GPZDA,000135.00,17,09,2021,-7,00*75
$GPGGA,000136,2300.00000,N,11300.00000,E,3,16,0.00,17.53,M,-7.53,M,,*5D
$GPRMC,000136,A,2300.00000,N,11300.00000,E,0.000,90.000,170921,0.000,E,A,V*52
$GPVTG,90.000,T,90.000,M,0.000,N,0.000,K*4E
$GPGSA,A,1,,,,,,,,,,,,,0.0,0.0,0.0,1*2D
$GPZDA,000136.00,17,09,2021,-7,00*76
$GPGGA,000137,2300.00000,N,11300.00000,E,3,16,0.00,17.53,M,-7.53,M,,*5C
$GPRMC,000137,A,2300.00000,N,11300.00000,E,0.000,90.000,170921,0.000,E,A,V*53
$GPVTG,90.000,T,90.000,M,0.000,N,0.000,K*4E
$GPGSA,A,1,,,,,,,,,,,,,0.0,0.0,0.0,1*2D
$GPZDA,000137.00,17,09,2021,-7,00*77
$GPGGA,000138,2300.00000,N,11300.00000,E,3,16,0.00,17.53,M,-7.53,M,,*53
$GPRMC,000138,A,2300.00000,N,11300.00000,E,0.000,90.000,170921,0.000,E,A,V*5C
$GPVTG,90.000,T,90.000,M,0.000,N,0.000,K*4E
$GPGSA,A,1,,,,,,,,,,,,,0.0,0.0,0.0,1*2D
$GPZDA,000138.00,17,09,2021,-7,00*78
$GPGGA,000139,2300.00000,N,11300.00000,E,3,16,0.00,17.53,M,-7.53,M,,*52
$GPRMC,000139,A,2300.00000,N,11300.00000,E,0.000,90.000,170921,0.000,E,A,V*5D
$GPVTG,90.000,T,90.000,M,0.000,N,0.000,K*4E
$GPGSA,A,1,,,,,,,,,,,,,0.0,0.0,0.0,1*2D
$GPZDA,000139.00,17,09,2021,-7,00*79
$GPGGA,000140,2300.00000,N,11300.00000,E,3,16,0.00,17.53,M,-7.53,M,,*5C
$GPRMC,000140,A,2300.00000,N,11300.00000,E,0.000,90.000,170921,0.000,E,A,V*53
$GPVTG,90.000,T,90.000,M,0.000,N,0.000,K*4E
$GPGSA,A,1,,,,,,,,,,,,,0.0,0.0,0.0,1*2D
$GPZDA,000140.00,17,09,2021,-7,00*77
$GPGGA,000141,2300.00000,N,11300.00000,E,3,16,0.00,17.53,M,-7.53,M,,*5D
$GPRMC,000141,A,2300.00000,N,11300.00000,E,0.000,90.000,170921,0.000,E,A,V*52
$GPVTG,90.000,T,90.000,M,0.000,N,0.000,K*4E
$GPGSA,A,1,,,,,,,,,,,,,0.0,0.0,0.0,1*2D
$GPZDA,000141.00,17,09,2021,-7,00*76
$GPGGA,000142,2300.00000,N,11300.00000,E,3,16,0.00,17.53,M,-7.53,M,,*5E
$GPRMC,000142,A,2300.00000,N,11300.00000,E,0.000,90.000,170921,0.000,E,A,V*51
$GPVTG,90.000,T,90.000,M,0.000,N,0.000,K*4E
$GPGSA,A,1,,,,,,,,,,,,,0.0,0.0,0.0,1*2D
$GPZDA,000142.00,17,09,2021,-7,00*75
$GPGGA,000143,2300.00000,N,11300.00029,E,3,16,0.00,17.53,M,-7.53,M,,*54
$GPRMC,000143,A,2300.00000,N,11300.00029,E,1.938,90.000,170921,0.000,E,A,V*58
$GPVTG,90.000,T,90.000,M,1.938,N,3.589,K*4A
$GPGSA,A,1,,,,,,,,,,,,,0.0,0.0,0.0,1*2D
$GPZDA,000143.00,17,09,2021,-7,00*74
$GPGGA,000144,2300.00000,N,11300.00117,E,3,16,0.00,17.53,M,-7.53,M,,*5F
$GPRMC,000144,A,2300.00000,N,11300.00117,E,3.886,90.000,170921,0.000,E,A,V*55
$GPVTG,90.000,T,90.000,M,3.886,N,7.196,K*42
$GPGSA,A,1,,,,,,,,,,,,,0.0,0.0,0.0,1*2D
$GPZDA,000144.00,17,09,2021,-7,00*73
$GPGGA,000145,2300.00000,N,11300.00263,E,3,16,0.00,17.53,M,-7.53,M,,*5E
$GPRMC,000145,A,2300.00000,N,11300.00263,E,5.833,90.000,170921,0.000,E,A,V*5C
$GPVTG,90.000,T,90.000,M,5.833,N,10.804,K*7E
$GPGSA,A,1,,,,,,,,,,,,,0.0,0.0,0.0,1*2D
$GPZDA,000145.00,17,09,2021,-7,00*72
$GPGGA,000146,2300.00000,N,11300.00468,E,3,16,0.00,17.53,M,-7.53,M,,*50
$GPRMC,000146,A,2300.00000,N,11300.00468,E,7.781,90.000,170921,0.000,E,A,V*56
$GPVTG,90.000,T,90.000,M,7.781,N,14.411,K*76
$GPGSA,A,1,,,,,,,,,,,,,0.0,0.0,0.0,1*2D
$GPZDA,000146.00,17,09,2021,-7,00*71
$GPGGA,000147,2300.00000,N,11300.00732,E,3,16,0.00,17.52,M,-7.52,M,,*5D
$GPRMC,000147,A,2300.00000,N,11300.00732,E,9.719,90.000,170921,0.000,E,A,V*54
$GPVTG,90.000,T,90.000,M,9.719,N,18.000,K*71
$GPGSA,A,1,,,,,,,,,,,,,0.0,0.0,0.0,1*2D
$GPZDA,000147.00,17,09,2021,-7,00*70
$GPGGA,000148,2300.00000,N,11300.01024,E,3,16,0.00,17.52,M,-7.52,M,,*53
$GPRMC,000148,A,2300.00000,N,11300.01024,E,9.719,90.000,170921,0.000,E,A,V*5A
$GPVTG,90.000,T,90.000,M,9.719,N,18.000,K*71
$GPGSA,A,1,,,,,,,,,,,,,0.0,0.0,0.0,1*2D
$GPZDA,000148.00,17,09,2021,-7,00*7F
$GPGGA,000149,2300.00000,N,11300.01317,E,3,16,0.00,17.52,M,-7.52,M,,*51
$GPRMC,000149,A,2300.00000,N,11300.01317,E,9.719,90.000,170921,0.000,E,A,V*58
$GPVTG,90.000,T,90.000,M,9.719,N,18.000,K*71
$GPGSA,A,1,,,,,,,,,,,,,0.0,0.0,0.0,1*2D
$GPZDA,000149.00,17,09,2021,-7,00*7E
$GPGGA,000150,2300.00000,N,11300.01609,E,3,16,0.00,17.52,M,-7.52,M,,*53
$GPRMC,000150,A,2300.00000,N,11300.01609,E,9.719,90.000,170921,0.000,E,A,V*5A
$GPVTG,90.000,T,90.000,M,9.719,N,18.000,K*71
$GPGSA,A,1,,,,,,,,,,,,,0.0,0.0,0.0,1*2D
$GPZDA,000150.00,17,09,2021,-7,00*76
$GPGGA,000151,2300.00000,N,11300.01902,E,3,16,0.00,17.52,M,-7.52,M,,*56
$GPRMC,000151,A,2300.00000,N,11300.01902,E,9.719,90.000,170921,0.000,E,A,V*5F
$GPVTG,90.000,T,90.000,M,9.719,N,18.000,K*71
$GPGSA,A,1,,,,,,,,,,,,,0.0,0.0,0.0,1*2D
$GPZDA,000151.00,17,09,2021,-7,00*77
$GPGGA,000152,2300.00000,N,11300.02195,E,3,16,0.00,17.52,M,-7.52,M,,*50
$GPRMC,000152,A,2300.00000,N,11300.02195,E,9.719,90.000,170921,0.000,E,A,V*59
$GPVTG,90.000,T,90.000,M,9.719,N,18.000,K*71
$GPGSA,A,1,,,,,,,,,,,,,0.0,0.0,0.0,1*2D
$GPZDA,000152.00,17,09,2021,-7,00*74
$GPGGA,000153,2300.00000,N,11300.02487,E,3,16,0.00,17.52,M,-7.52,M,,*57
$GPRMC,000153,A,2300.00000,N,11300.02487,E,9.719,90.000,170921,0.000,E,A,V*5E
$GPVTG,90.000,T,90.000,M,9.719,N,18.000,K*71
$GPGSA,A,1,,,,,,,,,,,,,0.0,0.0,0.0,1*2D
$GPZDA,000153.00,17,09,2021,-7,00*75
$GPGGA,000154,2300.00000,N,11300.02780,E,3,16,0.00,17.52,M,-7.52,M,,*54
$GPRMC,000154,A,2300.00000,N,11300.02780,E,9.719,90.000,170921,0.000,E,A,V*5D
$GPVTG,90.000,T,90.000,M,9.719,N,18.000,K*71
$GPGSA,A,1,,,,,,,,,,,,,0.0,0.0,0.0,1*2D
$GPZDA,000154.00,17,09,2021,-7,00*72
$GPGGA,000155,2300.00000,N,11300.03072,E,3,16,0.00,17.52,M,-7.52,M,,*5E
$GPRMC,000155,A,2300.00000,N,11300.03072,E,9.719,90.000,170921,0.000,E,A,V*57
$GPVTG,90.000,T,90.000,M,9.719,N,18.000,K*71
$GPGSA,A,1,,,,,,,,,,,,,0.0,0.0,0.0,1*2D
$GPZDA,000155.00,17,09,2021,-7,00*73
$GPGGA,000156,2300.00000,N,11300.03365,E,3,16,0.00,17.52,M,-7.52,M,,*58
$GPRMC,000156,A,2300.00000,N,11300.03365,E,9.719,90.000,170921,0.000,E,A,V*51
$GPVTG,90.000,T,90.000,M,9.719,N,18.000,K*71
$GPGSA,A,1,,,,,,,,,,,,,0.0,0.0,0.0,1*2D
$GPZDA,000156.00,17,09,2021,-7,00*70
$GPGGA,000157,2300.00000,N,11300.03658,E,3,16,0.00,17.52,M,-7.52,M,,*52
$GPRMC,000157,A,2300.00000,N,11300.03658,E,9.719,90.000,170921,0.000,E,A,V*5B
$GPVTG,90.000,T,90.000,M,9.719,N,18.000,K*71
$GPGSA,A,1,,,,,,,,,,,,,0.0,0.0,0.0,1*2D
$GPZDA,000157.00,17,09,2021,-7,00*71
$GPGGA,000158,2300.00000,N,11300.03950,E,3,16,0.00,17.52,M,-7.52,M,,*5A
$GPRMC,000158,A,2300.00000,N,11300.03950,E,9.719,90.000,170921,0.000,E,A,V*53
$GPVTG,90.000,T,90.000,M,9.719,N,18.000,K*71
$GPGSA,A,1,,,,,,,,,,,,,0.0,0.0,0.0,1*2D
$GPZDA,000158.00,17,09,2021,-7,00*7E
$GPGGA,000159,2300.00000,N,11300.04243,E,3,16,0.00,17.52,M,-7.52,M,,*55
$GPRMC,000159,A,2300.00000,N,11300.04243,E,9.719,90.000,170921,0.000,E,A,V*5C
$GPVTG,90.000,T,90.000,M,9.719,N,18.000,K*71
$GPGSA,A,1,,,,,,,,,,,,,0.0,0.0,0.0,1*2D
$GPZDA,000159.00,17,09,2021,-7,00*7F
$GPGGA,000200,2300.00000,N,11300.04536,E,3,16,0.00,17.52,M,-7.52,M,,*5F
$GPRMC,000200,A,2300.00000,N,11300.04536,E,9.719,90.000,170921,0.000,E,A,V*56
$GPVTG,90.000,T,90.000,M,9.719,N,18.000,K*71
$GPGSA,A,1,,,,,,,,,,,,,0.0,0.0,0.0,1*2D
$GPZDA,000200.00,17,09,2021,-7,00*70
$GPGGA,000201,2300.00000,N,11300.04828,E,3,16,0.00,17.52,M,-7.52,M,,*5C
$GPRMC,000201,A,2300.00000,N,11300.04828,E,9.719,90.000,170921,0.000,E,A,V*55
$GPVTG,90.000,T,90.000,M,9.719,N,18.000,K*71
$GPGSA,A,1,,,,,,,,,,,,,0.0,0.0,0.0,1*2D
$GPZDA,000201.00,17,09,2021,-7,00*71
$GPGGA,000202,2300.00000,N,11300.05121,E,3,16,0.00,17.52,M,-7.52,M,,*5E
$GPRMC,000202,A,2300.00000,N,11300.05121,E,9.719,90.000,170921,0.000,E,A,V*57
$GPVTG,90.000,T,90.000,M,9.719,N,18.000,K*71
$GPGSA,A,1,,,,,,,,,,,,,0.0,0.0,0.0,1*2D
$GPZDA,000202.00,17,09,2021,-7,00*72
$GPGGA,000203,2300.00000,N,11300.05413,E,3,16,0.00,17.52,M,-7.52,M,,*5B
$GPRMC,000203,A,2300.00000,N,11300.05413,E,9.719,90.000,170921,0.000,E,A,V*52
$GPVTG,90.000,T,90.000,M,9.719,N,18.000,K*71
$GPGSA,A,1,,,,,,,,,,,,,0.0,0.0,0.0,1*2D
$GPZDA,000203.00,17,09,2021,-7,00*73
$GPGGA,000204,2300.00000,N,11300.05706,E,3,15,0.00,17.52,M,-7.52,M,,*58
$GPRMC,000204,A,2300.00000,N,11300.05706,E,9.719,90.000,170921,0.000,E,A,V*52
$GPVTG,90.000,T,90.000,M,9.719,N,18.000,K*71
$GPGSA,A,1,,,,,,,,,,,,,0.0,0.0,0.0,1*2D
$GPZDA,000204.00,17,09,2021,-7,00*74
$GPGGA,000205,2300.00000,N,11300.05999,E,3,15,0.00,17.52,M,-7.52,M,,*51
$GPRMC,000205,A,2300.00000,N,11300.05999,E,9.719,90.000,170921,0.000,E,A,V*5B
$GPVTG,90.000,T,90.000,M,9.719,N,18.000,K*71
$GPGSA,A,1,,,,,,,,,,,,,0.0,0.0,0.0,1*2D
$GPZDA,000205.00,17,09,2021,-7,00*75
$GPGGA,000206,2300.00000,N,11300.06291,E,3,15,0.00,17.52,M,-7.52,M,,*52
$GPRMC,000206,A,2300.00000,N,11300.06291,E,9.719,90.000,170921,0.000,E,A,V*58
$GPVTG,90.000,T,90.000,M,9.719,N,18.000,K*71
$GPGSA,A,1,,,,,,,,,,,,,0.0,0.0,0.0,1*2D
$GPZDA,000206.00,17,09,2021,-7,00*76
$GPGGA,000207,2300.00000,N,11300.06584,E,3,15,0.00,17.52,M,-7.52,M,,*50
$GPRMC,000207,A,2300.00000,N,11300.06584,E,9.719,90.000,170921,0.000,E,A,V*5A
$GPVTG,90.000,T,90.000,M,9.719,N,18.000,K*71
$GPGSA,A,1,,,,,,,,,,,,,0.0,0.0,0.0,1*2D
$GPZDA,000207.00,17,09,2021,-7,00*77
$GPGGA,000208,2300.00000,N,11300.06877,E,3,15,0.00,17.52,M,-7.52,M,,*5E
$GPRMC,000208,A,2300.00000,N,11300.06877,E,9.719,90.000,170921,0.000,E,A,V*54
$GPVTG,90.000,T,90.000,M,9.719,N,18.000,K*71
$GPGSA,A,1,,,,,,,,,,,,,0.0,0.0,0.0,1*2D
$GPZDA,000208.00,17,09,2021,-7,00*78
$GPGGA,000209,2300.00000,N,11300.07169,E,3,15,0.00,17.52,M,-7.52,M,,*58
$GPRMC,000209,A,2300.00000,N,11300.07169,E,9.719,90.000,170921,0.000,E,A,V*52
$GPVTG,90.000,T,90.000,M,9.719,N,18.000,K*71
$GPGSA,A,1,,,,,,,,,,,,,0.0,0.0,0.0,1*2D
$GPZDA,000209.00,17,09,2021,-7,00*79
$GPGGA,000210,2300.00000,N,11300.07462,E,3,15,0.00,17.52,M,-7.52,M,,*5E
$GPRMC,000210,A,2300.00000,N,11300.07462,E,9.719,90.000,170921,0.000,E,A,V*54
$GPVTG,90.000,T,90.000,M,9.719,N,18.000,K*71
$GPGSA,A,1,,,,,,,,,,,,,0.0,0.0,0.0,1*2D
$GPZDA,000210.00,17,09,2021,-7,00*71
$GPGGA,000211,2300.00000,N,11300.07754,E,3,15,0.00,17.52,M,-7.52,M,,*59
$GPRMC,000211,A,2300.00000,N,11300.07754,E,9.719,90.000,170921,0.000,E,A,V*53
$GPVTG,90.000,T,90.000,M,9.719,N,18.000,K*71
$GPGSA,A,1,,,,,,,,,,,,,0.0,0.0,0.0,1*2D
$GPZDA,000211.00,17,09,2021,-7,00*70
$GPGGA,000212,2300.00000,N,11300.08047,E,3,15,0.00,17.52,M,-7.52,M,,*50
$GPRMC,000212,A,2300.00000,N,11300.08047,E,9.719,90.000,170921,0.000,E,A,V*5A
$GPVTG,90.000,T,90.000,M,9.719,N,18.000,K*71
$GPGSA,A,1,,,,,,,,,,,,,0.0,0.0,0.0,1*2D
$GPZDA,000212.00,17,09,2021,-7,00*73
$GPGGA,000213,2300.00000,N,11300.08340,E,3,15,0.00,17.52,M,-7.52,M,,*55
$GPRMC,000213,A,2300.00000,N,11300.08340,E,9.719,90.000,170921,0.000,E,A,V*5F
$GPVTG,90.000,T,90.000,M,9.719,N,18.000,K*71
$GPGSA,A,1,,,,,,,,,,,,,0.0,0.0,0.0,1*2D
$GPZDA,000213.00,17,09,2021,-7,00*72
$GPGGA,000214,2300.00000,N,11300.08632,E,3,15,0.00,17.52,M,-7.52,M,,*52
$GPRMC,000214,A,2300.00000,N,11300.08632,E,9.719,90.000,170921,0.000,E,A,V*58
$GPVTG,90.000,T,90.000,M,9.719,N,18.000,K*71
$GPGSA,A,1,,,,,,,,,,,,,0.0,0.0,0.0,1*2D
$GPZDA,000214.00,17,09,2021,-7,00*75
$GPGGA,000215,2300.00000,N,11300.08925,E,3,15,0.00,17.52,M,-7.52,M,,*5A
$GPRMC,000215,A,2300.00000,N,11300.08925,E,9.719,90.000,170921,0.000,E,A,V*50
$GPVTG,90.000,T,90.000,M,9.719,N,18.000,K*71
$GPGSA,A,1,,,,,,,,,,,,,0.0,0.0,0.0,1*2D
$GPZDA,000215.00,17,09,2021,-7,00*74
$GPGGA,000216,2300.00000,N,11300.09217,E,3,15,0.00,17.52,M,-7.52,M,,*52
$GPRMC,000216,A,2300.00000,N,11300.09217,E,9.719,90.000,170921,0.000,E,A,V*58
$GPVTG,90.000,T,90.000,M,9.719,N,18.000,K*71
$GPGSA,A,1,,,,,,,,,,,,,0.0,0.0,0.0,1*2D
$GPZDA,000216.00,17,09,2021,-7,00*77
$GPGGA,000217,2300.00000,N,11300.09510,E,3,15,0.00,17.52,M,-7.52,M,,*53
$GPRMC,000217,A,2300.00000,N,11300.09510,E,9.719,90.000,170921,0.000,E,A,V*59
$GPVTG,90.000,T,90.000,M,9.719,N,18.000,K*71
$GPGSA,A,1,,,,,,,,,,,,,0.0,0.0,0.0,1*2D
$GPZDA,000217.00,17,09,2021,-7,00*76
$GPGGA,000218,2300.00000,N,11300.09803,E,3,15,0.00,17.52,M,-7.52,M,,*53
$GPRMC,000218,A,2300.00000,N,11300.09803,E,9.719,90.000,170921,0.000,E,A,V*59
$GPVTG,90.000,T,90.000,M,9.719,N,18.000,K*71
$GPGSA,A,1,,,,,,,,,,,,,0.0,0.0,0.0,1*2D
$GPZDA,000218.00,17,09,2021,-7,00*79
$GPGGA,000219,2300.00000,N,11300.10095,E,3,15,0.00,17.52,M,-7.52,M,,*5D
$GPRMC,000219,A,2300.00000,N,11300.10095,E,9.719,90.000,170921,0.000,E,A,V*57
$GPVTG,90.000,T,90.000,M,9.719,N,18.000,K*71
$GPGSA,A,1,,,,,,,,,,,,,0.0,0.0,0.0,1*2D
$GPZDA,000219.00,17,09,2021,-7,00*78
$GPGGA,000220,2300.00000,N,11300.10388,E,3,15,0.00,17.52,M,-7.52,M,,*58
$GPRMC,000220,A,2300.00000,N,11300.10388,E,9.719,90.000,170921,0.000,E,A,V*52
$GPVTG,90.000,T,90.000,M,9.719,N,18.000,K*71
$GPGSA,A,1,,,,,,,,,,,,,0.0,0.0,0.0,1*2D
$GPZDA,000220.00,17,09,2021,-7,00*72
$GPGGA,000221,2300.00000,N,11300.10681,E,3,15,0.00,17.52,M,-7.52,M,,*55
$GPRMC,000221,A,2300.00000,N,11300.10681,E,9.719,90.000,170921,0.000,E,A,V*5F
$GPVTG,90.000,T,90.000,M,9.719,N,18.000,K*71
$GPGSA,A,1,,,,,,,,,,,,,0.0,0.0,0.0,1*2D
$GPZDA,000221.00,17,09,2021,-7,00*73
$GPGGA,000222,2300.00000,N,11300.10973,E,3,15,0.00,17.52,M,-7.52,M,,*54
$GPRMC,000222,A,2300.00000,N,11300.10973,E,9.719,90.000,170921,0.000,E,A,V*5E
$GPVTG,90.000,T,90.000,M,9.719,N,18.000,K*71
$GPGSA,A,1,,,,,,,,,,,,,0.0,0.0,0.0,1*2D
$GPZDA,000222.00,17,09,2021,-7,00*70
$GPGGA,000223,2300.00000,N,11300.11266,E,3,15,0.00,17.52,M,-7.52,M,,*5B
$GPRMC,000223,A,2300.00000,N,11300.11266,E,9.719,90.000,170921,0.000,E,A,V*51
$GPVTG,90.000,T,90.000,M,9.719,N,18.000,K*71
$GPGSA,A,1,,,,,,,,,,,,,0.0,0.0,0.0,1*2D
$GPZDA,000223.00,17,09,2021,-7,00*71
$GPGGA,000224,2300.00000,N,11300.11558,E,3,15,0.00,17.52,M,-7.52,M,,*56
$GPRMC,000224,A,2300.00000,N,11300.11558,E,9.719,90.000,170921,0.000,E,A,V*5C
$GPVTG,90.000,T,90.000,M,9.719,N,18.000,K*71
$GPGSA,A,1,,,,,,,,,,,,,0.0,0.0,0.0,1*2D
$GPZDA,000224.00,17,09,2021,-7,00*76
$GPGGA,000225,2300.00000,N,11300.11851,E,3,15,0.00,17.52,M,-7.52,M,,*53
$GPRMC,000225,A,2300.00000,N,11300.11851,E,9.719,90.000,170921,0.000,E,A,V*59
$GPVTG,90.000,T,90.000,M,9.719,N,18.000,K*71
$GPGSA,A,1,,,,,,,,,,,,,0.0,0.0,0.0,1*2D
$GPZDA,000225.00,17,09,2021,-7,00*77
$GPGGA,000226,2300.00000,N,11300.12144,E,3,15,0.00,17.52,M,-7.52,M,,*5E
$GPRMC,000226,A,2300.00000,N,11300.12144,E,9.719,90.000,170921,0.000,E,A,V*54
$GPVTG,90.000,T,90.000,M,9.719,N,18.000,K*71
$GPGSA,A,1,,,,,,,,,,,,,0.0,0.0,0.0,1*2D
$GPZDA,000226.00,17,09,2021,-7,00*74
$GPGGA,000227,2300.00000,N,11300.12436,E,3,15,0.00,17.52,M,-7.52,M,,*5F
$GPRMC,000227,A,2300.00000,N,11300.12436,E,9.719,90.000,170921,0.000,E,A,V*55
$GPVTG,90.000,T,90.000,M,9.719,N,18.000,K*71
$GPGSA,A,1,,,,,,,,,,,,,0.0,0.0,0.0,1*2D
$GPZDA,000227.00,17,09,2021,-7,00*75
$GPGGA,000228,2300.00000,N,11300.12729,E,3,15,0.00,17.52,M,-7.52,M,,*5D
$GPRMC,000228,A,2300.00000,N,11300.12729,E,9.719,90.000,170921,0.000,E,A,V*57
$GPVTG,90.000,T,90.000,M,9.719,N,18.000,K*71
$GPGSA,A,1,,,,,,,,,,,,,0.0,0.0,0.0,1*2D
$GPZDA,000228.00,17,09,2021,-7,00*7A
$GPGGA,000229,2300.00000,N,11300.13022,E,3,15,0.00,17.52,M,-7.52,M,,*51
$GPRMC,000229,A,2300.00000,N,11300.13022,E,9.719,90.000,170921,0.000,E,A,V*5B
$GPVTG,90.000,T,90.000,M,9.719,N,18.000,K*71
$GPGSA,A,1,,,,,,,,,,,,,0.0,0.0,0.0,1*2D
$GPZDA,000229.00,17,09,2021,-7,00*7B
$GPGGA,000230,2300.00000,N,11300.13314,E,3,15,0.00,17.52,M,-7.52,M,,*5F
$GPRMC,000230,A,2300.00000,N,11300.13314,E,9.719,90.000,170921,0.000,E,A,V*55
$GPVTG,90.000,T,90.000,M,9.719,N,18.000,K*71
$GPGSA,A,1,,,,,,,,,,,,,0.0,0.0,0.0,1*2D
$GPZDA,000230.00,17,09,2021,-7,00*73
$GPGGA,000231,2300.00000,N,11300.13607,E,3,15,0.00,17.52,M,-7.52,M,,*59
$GPRMC,000231,A,2300.00000,N,11300.13607,E,9.719,90.000,170921,0.000,E,A,V*53
$GPVTG,90.000,T,90.000,M,9.719,N,18.000,K*71
$GPGSA,A,1,,,,,,,,,,,,,0.0,0.0,0.0,1*2D
$GPZDA,000231.00,17,09,2021,-7,00*72
$GPGGA,000232,2300.00000,N,11300.13899,E,3,15,0.00,17.52,M,-7.52,M,,*53
$GPRMC,000232,A,2300.00000,N,11300.13899,E,9.719,90.000,170921,0.000,E,A,V*59
$GPVTG,90.000,T,90.000,M,9.719,N,18.000,K*71
$GPGSA,A,1,,,,,,,,,,,,,0.0,0.0,0.0,1*2D
$GPZDA,000232.00,17,09,2021,-7,00*71
$GPGGA,000233,2300.00000,N,11300.14192,E,3,15,0.00,17.52,M,-7.52,M,,*57
$GPRMC,000233,A,2300.00000,N,11300.14192,E,9.719,90.000,170921,0.000,E,A,V*5D
$GPVTG,90.000,T,90.000,M,9.719,N,18.000,K*71
$GPGSA,A,1,,,,,,,,,,,,,0.0,0.0,0.0,1*2D
$GPZDA,000233.00,17,09,2021,-7,00*70
$GPGGA,000234,2300.00000,N,11300.14485,E,3,15,0.00,17.52,M,-7.52,M,,*53
$GPRMC,000234,A,2300.00000,N,11300.14485,E,9.719,90.000,170921,0.000,E,A,V*59
$GPVTG,90.000,T,90.000,M,9.719,N,18.000,K*71
$GPGSA,A,1,,,,,,,,,,,,,0.0,0.0,0.0,1*2D
$GPZDA,000234.00,17,09,2021,-7,00*77
$GPGGA,000235,2300.00000,N,11300.14777,E,3,15,0.00,17.52,M,-7.52,M,,*5C
$GPRMC,000235,A,2300.00000,N,11300.14777,E,9.719,90.000,170921,0.000,E,A,V*56
$GPVTG,90.000,T,90.000,M,9.719,N,18.000,K*71
$GPGSA,A,1,,,,,,,,,,,,,0.0,0.0,0.0,1*2D
$GPZDA,000235.00,17,09,2021,-7,00*76
$GPGGA,000236,2300.00000,N,11300.15070,E,3,15,0.00,17.52,M,-7.52,M,,*5E
$GPRMC,000236,A,2300.00000,N,11300.15070,E,9.719,90.000,170921,0.000,E,A,V*54
$GPVTG,90.000,T,90.000,M,9.719,N,18.000,K*71
$GPGSA,A,1,,,,,,,,,,,,,0.0,0.0,0.0,1*2D
$GPZDA,000236.00,17,09,2021,-7,00*75
$GPGGA,000237,2300.00000,N,11300.15362,E,3,15,0.00,17.52,M,-7.52,M,,*5F
$GPRMC,000237,A,2300.00000,N,11300.15362,E,9.719,90.000,170921,0.000,E,A,V*55
$GPVTG,90.000,T,90.000,M,9.719,N,18.000,K*71
$GPGSA,A,1,,,,,,,,,,,,,0.0,0.0,0.0,1*2D
$GPZDA,000237.00,17,09,2021,-7,00*74
$GPGGA,000238,2300.00000,N,11300.15655,E,3,15,0.00,17.52,M,-7.52,M,,*51
$GPRMC,000238,A,2300.00000,N,11300.15655,E,9.719,90.000,170921,0.000,E,A,V*5B
$GPVTG,90.000,T,90.000,M,9.719,N,18.000,K*71
$GPGSA,A,1,,,,,,,,,,,,,0.0,0.0,0.0,1*2D
$GPZDA,000238.00,17,09,2021,-7,00*7B
$GPGGA,000239,2300.00000,N,11300.15948,E,3,15,0.00,17.52,M,-7.52,M,,*53
$GPRMC,000239,A,2300.00000,N,11300.15948,E,9.719,90.000,170921,0.000,E,A,V*59
$GPVTG,90.000,T,90.000,M,9.719,N,18.000,K*71
$GPGSA,A,1,,,,,,,,,,,,,0.0,0.0,0.0,1*2D
$GPZDA,000239.00,17,09,2021,-7,00*7A
$GPGGA,000240,2300.00000,N,11300.16240,E,3,15,0.00,17.52,M,-7.52,M,,*5D
$GPRMC,000240,A,2300.00000,N,11300.16240,E,9.719,90.000,170921,0.000,E,A,V*57
$GPVTG,90.000,T,90.000,M,9.719,N,18.000,K*71
$GPGSA,A,1,,,,,,,,,,,,,0.0,0.0,0.0,1*2D
$GPZDA,000240.00,17,09,2021,-7,00*74
$GPGGA,000241,2300.00000,N,11300.16533,E,3,15,0.00,17.52,M,-7.52,M,,*5F
$GPRMC,000241,A,2300.00000,N,11300.16533,E,9.719,90.000,170921,0.000,E,A,V*55
$GPVTG,90.000,T,90.000,M,9.719,N,18.000,K*71
$GPGSA,A,1,,,,,,,,,,,,,0.0,0.0,0.0,1*2D
$GPZDA,000241.00,17,09,2021,-7,00*75
$GPGGA,000242,2300.00000,N,11300.16826,E,3,15,0.00,17.52,M,-7.52,M,,*55
$GPRMC,000242,A,2300.00000,N,11300.16826,E,9.719,90.000,170921,0.000,E,A,V*5F
$GPVTG,90.000,T,90.000,M,9.719,N,18.000,K*71
$GPGSA,A,1,,,,,,,,,,,,,0.0,0.0,0.0,1*2D
$GPZDA,000242.00,17,09,2021,-7,00*76
$GPGGA,000243,2300.00000,N,11300.17118,E,3,15,0.00,17.52,M,-7.52,M,,*51
$GPRMC,000243,A,2300.00000,N,11300.17118,E,9.719,90.000,170921,0.000,E,A,V*5B
$GPVTG,90.000,T,90.000,M,9.719,N,18.000,K*71
$GPGSA,A,1,,,,,,,,,,,,,0.0,0.0,0.0,1*2D
$GPZDA,000243.00,17,09,2021,-7,00*77
$GPGGA,000244,2300.00000,N,11300.17411,E,3,15,0.00,17.52,M,-7.52,M,,*5A
$GPRMC,000244,A,2300.00000,N,11300.17411,E,9.719,90.000,170921,0.000,E,A,V*50
$GPVTG,90.000,T,90.000,M,9.719,N,18.000,K*71
$GPGSA,A,1,,,,,,,,,,,,,0.0,0.0,0.0,1*2D
$GPZDA,000244.00,17,09,2021,-7,00*70
$GPGGA,000245,2300.00000,N,11300.17703,E,3,15,0.00,17.52,M,-7.52,M,,*5B
$GPRMC,000245,A,2300.00000,N,11300.17703,E,9.719,90.000,170921,0.000,E,A,V*51
$GPVTG,90.000,T,90.000,M,9.719,N,18.000,K*71
$GPGSA,A,1,,,,,,,,,,,,,0.0,0.0,0.0,1*2D
$GPZDA,000245.00,17,09,2021,-7,00*71
$GPGGA,000246,2300.00000,N,11300.17996,E,3,15,0.00,17.52,M,-7.52,M,,*5A
$GPRMC,000246,A,2300.00000,N,11300.17996,E,9.719,90.000,170921,0.000,E,A,V*50
$GPVTG,90.000,T,90.000,M,9.719,N,18.000,K*71
$GPGSA,A,1,,,,,,,,,,,,,0.0,0.0,0.0,1*2D
$GPZDA,000246.00,17,09,2021,-7,00*72
$GPGGA,000247,2300.00000,N,11300.18289,E,3,15,0.00,17.52,M,-7.52,M,,*51
$GPRMC,000247,A,2300.00000,N,11300.18289,E,9.719,90.000,170921,0.000,E,A,V*5B
$GPVTG,90.000,T,90.000,M,9.719,N,18.000,K*71
$GPGSA,A,1,,,,,,,,,,,,,0.0,0.0,0.0,1*2D
$GPZDA,000247.00,17,09,2021,-7,00*73
$GPGGA,000248,2300.00000,N,11300.18581,E,3,15,0.00,17.52,M,-7.52,M,,*51
$GPRMC,000248,A,2300.00000,N,11300.18581,E,9.719,90.000,170921,0.000,E,A,V*5B
$GPVTG,90.000,T,90.000,M,9.719,N,18.000,K*71
$GPGSA,A,1,,,,,,,,,,,,,0.0,0.0,0.0,1*2D
$GPZDA,000248.00,17,09,2021,-7,00*7C
$GPGGA,000249,2300.00000,N,11300.18874,E,3,15,0.00,17.52,M,-7.52,M,,*57
$GPRMC,000249,A,2300.00000,N,11300.18874,E,9.719,90.000,170921,0.000,E,A,V*5D
$GPVTG,90.000,T,90.000,M,9.719,N,18.000,K*71
$GPGSA,A,1,,,,,,,,,,,,,0.0,0.0,0.0,1*2D
$GPZDA,000249.00,17,09,2021,-7,00*7D
$GPGGA,000250,2300.00000,N,11300.19166,E,3,15,0.00,17.52,M,-7.52,M,,*54
$GPRMC,000250,A,2300.00000,N,11300.19166,E,9.719,90.000,170921,0.000,E,A,V*5E
$GPVTG,90.000,T,90.000,M,9.719,N,18.000,K*71
$GPGSA,A,1,,,,,,,,,,,,,0.0,0.0,0.0,1*2D
$GPZDA,000250.00,17,09,2021,-7,00*75
$GPGGA,000251,2300.00000,N,11300.19459,E,3,15,0.00,17.52,M,-7.52,M,,*5C
$GPRMC,000251,A,2300.00000,N,11300.19459,E,9.719,90.000,170921,0.000,E,A,V*56
$GPVTG,90.000,T,90.000,M,9.719,N,18.000,K*71
$GPGSA,A,1,,,,,,,,,,,,,0.0,0.0,0.0,1*2D
$GPZDA,000251.00,17,09,2021,-7,00*74
$GPGGA,000252,2300.00000,N,11300.19752,E,3,15,0.00,17.52,M,-7.52,M,,*57
$GPRMC,000252,A,2300.00000,N,11300.19752,E,9.719,90.000,170921,0.000,E,A,V*5D
$GPVTG,90.000,T,90.000,M,9.719,N,18.000,K*71
$GPGSA,A,1,,,,,,,,,,,,,0.0,0.0,0.0,1*2D
$GPZDA,000252.00,17,09,2021,-7,00*77
$GPGGA,000253,2300.00000,N,11300.20044,E,3,15,0.00,17.52,M,-7.52,M,,*5C
$GPRMC,000253,A,2300.00000,N,11300.20044,E,9.719,90.000,170921,0.000,E,A,V*56
$GPVTG,90.000,T,90.000,M,9.719,N,18.000,K*71
$GPGSA,A,1,,,,,,,,,,,,,0.0,0.0,0.0,1*2D
$GPZDA,000253.00,17,09,2021,-7,00*76
$GPGGA,000254,2300.00000,N,11300.20337,E,3,15,0.00,17.52,M,-7.52,M,,*5C
$GPRMC,000254,A,2300.00000,N,11300.20337,E,9.719,90.000,170921,0.000,E,A,V*56
$GPVTG,90.000,T,90.000,M,9.719,N,18.000,K*71
$GPGSA,A,1,,,,,,,,,,,,,0.0,0.0,0.0,1*2D
$GPZDA,000254.00,17,09,2021,-7,00*71
$GPGGA,000255,2300.00000,N,11300.20630,E,3,15,0.00,17.52,M,-7.52,M,,*5F
$GPRMC,000255,A,2300.00000,N,11300.20630,E,9.719,90.000,170921,0.000,E,A,V*55
$GPVTG,90.000,T,90.000,M,9.719,N,18.000,K*71
$GPGSA,A,1,,,,,,,,,,,,,0.0,0.0,0.0,1*2D
$GPZDA,000255.00,17,09,2021,-7,00*70
$GPGGA,000256,2300.00000,N,11300.20922,E,3,15,0.00,17.52,M,-7.52,M,,*50
$GPRMC,000256,A,2300.00000,N,11300.20922,E,9.719,90.000,170921,0.000,E,A,V*5A
$GPVTG,90.000,T,90.000,M,9.719,N,18.000,K*71
$GPGSA,A,1,,,,,,,,,,,,,0.0,0.0,0.0,1*2D
$GPZDA,000256.00,17,09,2021,-7,00*73
$GPGGA,000257,2300.00000,N,11300.21215,E,3,15,0.00,17.52,M,-7.52,M,,*5F
$GPRMC,000257,A,2300.00000,N,11300.21215,E,9.719,90.000,170921,0.000,E,A,V*55
$GPVTG,90.000,T,90.000,M,9.719,N,18.000,K*71
$GPGSA,A,1,,,,,,,,,,,,,0.0,0.0,0.0,1*2D
$GPZDA,000257.00,17,09,2021,-7,00*72
$GPGGA,000258,2300.00000,N,11300.21507,E,3,15,0.00,17.52,M,-7.52,M,,*54
$GPRMC,000258,A,2300.00000,N,11300.21507,E,9.719,90.000,170921,0.000,E,A,V*5E
$GPVTG,90.000,T,90.000,M,9.719,N,18.000,K*71
$GPGSA,A,1,,,,,,,,,,,,,0.0,0.0,0.0,1*2D
$GPZDA,000258.00,17,09,2021,-7,00*7D
$GPGGA,000259,2300.00000,N,11300.21800,E,3,15,0.00,17.52,M,-7.52,M,,*5F
$GPRMC,000259,A,2300.00000,N,11300.21800,E,9.719,90.000,170921,0.000,E,A,V*55
$GPVTG,90.000,T,90.000,M,9.719,N,18.000,K*71
$GPGSA,A,1,,,,,,,,,,,,,0.0,0.0,0.0,1*2D
$GPZDA,000259.00,17,09,2021,-7,00*7C
$GPGGA,000300,2300.00000,N,11300.22093,E,3,15,0.00,17.52,M,-7.52,M,,*53
$GPRMC,000300,A,2300.00000,N,11300.22093,E,9.719,90.000,170921,0.000,E,A,V*59
$GPVTG,90.000,T,90.000,M,9.719,N,18.000,K*71
$GPGSA,A,1,,,,,,,,,,,,,0.0,0.0,0.0,1*2D
$GPZDA,000300.00,17,09,2021,-7,00*71
$GPGGA,000301,2300.00000,N,11300.22385,E,3,15,0.00,17.52,M,-7.52,M,,*56
$GPRMC,000301,A,2300.00000,N,11300.22385,E,9.719,90.000,170921,0.000,E,A,V*5C
$GPVTG,90.000,T,90.000,M,9.719,N,18.000,K*71
$GPGSA,A,1,,,,,,,,,,,,,0.0,0.0,0.0,1*2D
$GPZDA,000301.00,17,09,2021,-7,00*70
$GPGGA,000302,2300.00000,N,11300.22678,E,3,15,0.00,17.52,M,-7.52,M,,*52
$GPRMC,000302,A,2300.00000,N,11300.22678,E,9.719,90.000,170921,0.000,E,A,V*58
$GPVTG,90.000,T,90.000,M,9.719,N,18.000,K*71
$GPGSA,A,1,,,,,,,,,,,,,0.0,0.0,0.0,1*2D
$GPZDA,000302.00,17,09,2021,-7,00*73
$GPGGA,000303,2300.00000,N,11300.22971,E,3,15,0.00,17.52,M,-7.52,M,,*55
$GPRMC,000303,A,2300.00000,N,11300.22971,E,9.719,90.000,170921,0.000,E,A,V*5F
$GPVTG,90.000,T,90.000,M,9.719,N,18.000,K*71
$GPGSA,A,1,,,,,,,,,,,,,0.0,0.0,0.0,1*2D
$GPZDA,000303.00,17,09,2021,-7,00*72
$GPGGA,000304,2300.00000,N,11300.23263,E,3,15,0.00,17.52,M,-7.52,M,,*5B
$GPRMC,000304,A,2300.00000,N,11300.23263,E,9.719,90.000,170921,0.000,E,A,V*51
$GPVTG,90.000,T,90.000,M,9.719,N,18.000,K*71
$GPGSA,A,1,,,,,,,,,,,,,0.0,0.0,0.0,1*2D
$GPZDA,000304.00,17,09,2021,-7,00*75
$GPGGA,000305,2300.00000,N,11300.23556,E,3,15,0.00,17.52,M,-7.52,M,,*5B
$GPRMC,000305,A,2300.00000,N,11300.23556,E,9.719,90.000,170921,0.000,E,A,V*51
$GPVTG,90.000,T,90.000,M,9.719,N,18.000,K*71
$GPGSA,A,1,,,,,,,,,,,,,0.0,0.0,0.0,1*2D
$GPZDA,000305.00,17,09,2021,-7,00*74
$GPGGA,000306,2300.00000,N,11300.23848,E,3,15,0.00,17.52,M,-7.52,M,,*5A
$GPRMC,000306,A,2300.00000,N,11300.23848,E,9.719,90.000,170921,0.000,E,A,V*50
$GPVTG,90.000,T,90.000,M,9.719,N,18.000,K*71
$GPGSA,A,1,,,,,,,,,,,,,0.0,0.0,0.0,1*2D
$GPZDA,000306.00,17,09,2021,-7,00*77
$GPGGA,000307,2300.00000,N,11300.24141,E,3,15,0.00,17.52,M,-7.52,M,,*5C
$GPRMC,000307,A,2300.00000,N,11300.24141,E,9.719,90.000,170921,0.000,E,A,V*56
$GPVTG,90.000,T,90.000,M,9.719,N,18.000,K*71
$GPGSA,A,1,,,,,,,,,,,,,0.0,0.0,0.0,1*2D
$GPZDA,000307.00,17,09,2021,-7,00*76
$GPGGA,000308,2300.00000,N,11300.24434,E,3,15,0.00,17.52,M,-7.52,M,,*54
$GPRMC,000308,A,2300.00000,N,11300.24434,E,9.719,90.000,170921,0.000,E,A,V*5E
$GPVTG,90.000,T,90.000,M,9.719,N,18.000,K*71
$GPGSA,A,1,,,,,,,,,,,,,0.0,0.0,0.0,1*2D
$GPZDA,000308.00,17,09,2021,-7,00*79
$GPGGA,000309,2300.00000,N,11300.24726,E,3,15,0.00,17.52,M,-7.52,M,,*55
$GPRMC,000309,A,2300.00000,N,11300.24726,E,9.719,90.000,170921,0.000,E,A,V*5F
$GPVTG,90.000,T,90.000,M,9.719,N,18.000,K*71
$GPGSA,A,1,,,,,,,,,,,,,0.0,0.0,0.0,1*2D
$GPZDA,000309.00,17,09,2021,-7,00*78
$GPGGA,000310,2300.00000,N,11300.25019,E,3,15,0.00,17.52,M,-7.52,M,,*57
$GPRMC,000310,A,2300.00000,N,11300.25019,E,9.719,90.000,170921,0.000,E,A,V*5D
$GPVTG,90.000,T,90.000,M,9.719,N,18.000,K*71
$GPGSA,A,1,,,,,,,,,,,,,0.0,0.0,0.0,1*2D
$GPZDA,000310.00,17,09,2021,-7,00*70
$GPGGA,000311,2300.00000,N,11300.25311,E,3,15,0.00,17.52,M,-7.52,M,,*5D
$GPRMC,000311,A,2300.00000,N,11300.25311,E,9.719,90.000,170921,0.000,E,A,V*57
$GPVTG,90.000,T,90.000,M,9.719,N,18.000,K*71
$GPGSA,A,1,,,,,,,,,,,,,0.0,0.0,0.0,1*2D
$GPZDA,000311.00,17,09,2021,-7,00*71
$GPGGA,000312,2300.00000,N,11300.25604,E,3,15,0.00,17.52,M,-7.52,M,,*5F
$GPRMC,000312,A,2300.00000,N,11300.25604,E,9.719,90.000,170921,0.000,E,A,V*55
$GPVTG,90.000,T,90.000,M,9.719,N,18.000,K*71
$GPGSA,A,1,,,,,,,,,,,,,0.0,0.0,0.0,1*2D
$GPZDA,000312.00,17,09,2021,-7,00*72
$GPGGA,000313,2300.00000,N,11300.25897,E,3,15,0.00,17.52,M,-7.52,M,,*5A
$GPRMC,000313,A,2300.00000,N,11300.25897,E,9.719,90.000,170921,0.000,E,A,V*50
$GPVTG,90.000,T,90.000,M,9.719,N,18.000,K*71
$GPGSA,A,1,,,,,,,,,,,,,0.0,0.0,0.0,1*2D
$GPZDA,000313.00,17,09,2021,-7,00*73
$GPGGA,000314,2300.00000,N,11300.26189,E,3,15,0.00,17.52,M,-7.52,M,,*58
$GPRMC,000314,A,2300.00000,N,11300.26189,E,9.719,90.000,170921,0.000,E,A,V*52
$GPVTG,90.000,T,90.000,M,9.719,N,18.000,K*71
$GPGSA,A,1,,,,,,,,,,,,,0.0,0.0,0.0,1*2D
$GPZDA,000314.00,17,09,2021,-7,00*74
$GPGGA,000315,2300.00000,N,11300.26482,E,3,15,0.00,17.52,M,-7.52,M,,*57
$GPRMC,000315,A,2300.00000,N,11300.26482,E,9.719,90.000,170921,0.000,E,A,V*5D
$GPVTG,90.000,T,90.000,M,9.719,N,18.000,K*71
$GPGSA,A,1,,,,,,,,,,,,,0.0,0.0,0.0,1*2D
$GPZDA,000315.00,17,09,2021,-7,00*75
$GPGGA,000316,2300.00000,N,11300.26775,E,3,15,0.00,17.52,M,-7.52,M,,*5F
$GPRMC,000316,A,2300.00000,N,11300.26775,E,9.719,90.000,170921,0.000,E,A,V*55
$GPVTG,90.000,T,90.000,M,9.719,N,18.000,K*71
$GPGSA,A,1,,,,,,,,,,,,,0.0,0.0,0.0,1*2D
$GPZDA,000316.00,17,09,2021,-7,00*76
$GPGGA,000317,2300.00000,N,11300.27067,E,3,15,0.00,17.52,M,-7.52,M,,*5B
$GPRMC,000317,A,2300.00000,N,11300.27067,E,9.719,90.000,170921,0.000,E,A,V*51
$GPVTG,90.000,T,90.000,M,9.719,N,18.000,K*71
$GPGSA,A,1,,,,,,,,,,,,,0.0,0.0,0.0,1*2D
$GPZDA,000317.00,17,09,2021,-7,00*77
$GPGGA,000318,2300.00000,N,11300.27360,E,3,15,0.00,17.52,M,-7.52,M,,*50
$GPRMC,000318,A,2300.00000,N,11300.27360,E,9.719,90.000,170921,0.000,E,A,V*5A
$GPVTG,90.000,T,90.000,M,9.719,N,18.000,K*71
$GPGSA,A,1,,,,,,,,,,,,,0.0,0.0,0.0,1*2D
$GPZDA,000318.00,17,09,2021,-7,00*78
$GPGGA,000319,2300.00000,N,11300.27652,E,3,15,0.00,17.52,M,-7.52,M,,*55
$GPRMC,000319,A,2300.00000,N,11300.27652,E,9.719,90.000,170921,0.000,E,A,V*5F
$GPVTG,90.000,T,90.000,M,9.719,N,18.000,K*71
$GPGSA,A,1,,,,,,,,,,,,,0.0,0.0,0.0,1*2D
$GPZDA,000319.00,17,09,2021,-7,00*79
$GPGGA,000320,2300.00000,N,11300.27945,E,3,15,0.00,17.52,M,-7.52,M,,*56
$GPRMC,000320,A,2300.00000,N,11300.27945,E,9.719,90.000,170921,0.000,E,A,V*5C
$GPVTG,90.000,T,90.000,M,9.719,N,18.000,K*71
$GPGSA,A,1,,,,,,,,,,,,,0.0,0.0,0.0,1*2D
$GPZDA,000320.00,17,09,2021,-7,00*73
$GPGGA,000321,2300.00000,N,11300.28238,E,3,15,0.00,17.52,M,-7.52,M,,*59
$GPRMC,000321,A,2300.00000,N,11300.28238,E,9.719,90.000,170921,0.000,E,A,V*53
$GPVTG,90.000,T,90.000,M,9.719,N,18.000,K*71
$GPGSA,A,1,,,,,,,,,,,,,0.0,0.0,0.0,1*2D
$GPZDA,000321.00,17,09,2021,-7,00*72
$GPGGA,000322,2300.00000,N,11300.28530,E,3,14,0.00,17.52,M,-7.52,M,,*54
$GPRMC,000322,A,2300.00000,N,11300.28530,E,9.719,90.000,170921,0.000,E,A,V*5F
$GPVTG,90.000,T,90.000,M,9.719,N,18.000,K*71
$GPGSA,A,1,,,,,,,,,,,,,0.0,0.0,0.0,1*2D
$GPZDA,000322.00,17,09,2021,-7,00*71
$GPGGA,000323,2300.00000,N,11300.28823,E,3,14,0.00,17.52,M,-7.52,M,,*5A
$GPRMC,000323,A,2300.00000,N,11300.28823,E,9.719,90.000,170921,0.000,E,A,V*51
$GPVTG,90.000,T,90.000,M,9.719,N,18.000,K*71
$GPGSA,A,1,,,,,,,,,,,,,0.0,0.0,0.0,1*2D
$GPZDA,000323.00,17,09,2021,-7,00*70
$GPGGA,000324,2300.00000,N,11300.29115,E,3,14,0.00,17.52,M,-7.52,M,,*50
$GPRMC,000324,A,2300.00000,N,11300.29115,E,9.719,90.000,170921,0.000,E,A,V*5B
$GPVTG,90.000,T,90.000,M,9.719,N,18.000,K*71
$GPGSA,A,1,,,,,,,,,,,,,0.0,0.0,0.0,1*2D
$GPZDA,000324.00,17,09,2021,-7,00*77
$GPGGA,000325,2300.00000,N,11300.29408,E,3,14,0.00,17.52,M,-7.52,M,,*58
$GPRMC,000325,A,2300.00000,N,11300.29408,E,9.719,90.000,170921,0.000,E,A,V*53
$GPVTG,90.000,T,90.000,M,9.719,N,18.000,K*71
$GPGSA,A,1,,,,,,,,,,,,,0.0,0.0,0.0,1*2D
$GPZDA,000325.00,17,09,2021,-7,00*76
$GPGGA,000326,2300.00000,N,11300.29701,E,3,14,0.00,17.52,M,-7.52,M,,*51
$GPRMC,000326,A,2300.00000,N,11300.29701,E,9.719,90.000,170921,0.000,E,A,V*5A
$GPVTG,90.000,T,90.000,M,9.719,N,18.000,K*71
$GPGSA,A,1,,,,,,,,,,,,,0.0,0.0,0.0,1*2D
$GPZDA,000326.00,17,09,2021,-7,00*75
$GPGGA,000327,2300.00000,N,11300.29993,E,3,14,0.00,17.52,M,-7.52,M,,*55
$GPRMC,000327,A,2300.00000,N,11300.29993,E,9.719,90.000,170921,0.000,E,A,V*5E
$GPVTG,90.000,T,90.000,M,9.719,N,18.000,K*71
$GPGSA,A,1,,,,,,,,,,,,,0.0,0.0,0.0,1*2D
$GPZDA,000327.00,17,09,2021,-7,00*74
$GPGGA,000328,2300.00000,N,11300.30286,E,3,14,0.00,17.52,M,-7.52,M,,*5D
$GPRMC,000328,A,2300.00000,N,11300.30286,E,9.719,90.000,170921,0.000,E,A,V*56
$GPVTG,90.000,T,90.000,M,9.719,N,18.000,K*71
$GPGSA,A,1,,,,,,,,,,,,,0.0,0.0,0.0,1*2D
$GPZDA,000328.00,17,09,2021,-7,00*7B
$GPGGA,000329,2300.00000,N,11300.30579,E,3,14,0.00,17.52,M,-7.52,M,,*5B
$GPRMC,000329,A,2300.00000,N,11300.30579,E,9.719,90.000,170921,0.000,E,A,V*50
$GPVTG,90.000,T,90.000,M,9.719,N,18.000,K*71
$GPGSA,A,1,,,,,,,,,,,,,0.0,0.0,0.0,1*2D
$GPZDA,000329.00,17,09,2021,-7,00*7A
$GPGGA,000330,2300.00000,N,11300.30871,E,3,14,0.00,17.52,M,-7.52,M,,*56
$GPRMC,000330,A,2300.00000,N,11300.30871,E,9.719,90.000,170921,0.000,E,A,V*5D
$GPVTG,90.000,T,90.000,M,9.719,N,18.000,K*71
$GPGSA,A,1,,,,,,,,,,,,,0.0,0.0,0.0,1*2D
$GPZDA,000330.00,17,09,2021,-7,00*72
$GPGGA,000331,2300.00000,N,11300.31164,E,3,14,0.00,17.52,M,-7.52,M,,*5B
