$GNRMC,000038.00,A,2959.74714,N,12000.42011,E,75.589,249.45,230721,5.69,W,A,V*7C
$GNVTG,249.45,T,255.14,M,75.589,N,139.991,K,A*08
$GNGGA,000038.00,2959.74714,N,12000.42011,E,1,07,1.92,-7.7,M,7.0,M,,*5D
$GNGSA,A,3,,,,,,,,,,,,,5.04,1.92,4.66,1*0E
$GNGSA,A,3,,,,,,,,,,,,,5.04,1.92,4.66,3*0C
$GNGSA,A,3,04,09,01,06,12,02,13,,,,,,5.04,1.92,4.66,4*02
$GPGSV,4,1,13,01,00,121,,02,33,300,,04,52,247,,07,84,120,,0*6A
$GPGSV,4,2,13,08,47,207,,10,01,310,,13,50,031,,16,01,039,,0*64
$GPGSV,4,3,13,20,23,121,,23,28,057,,25,67,043,,27,18,219,,0*6F
$GPGSV,4,4,13,28,00,182,,0*56
$GAGSV,2,1,08,09,13,317,,10,64,334,,11,56,117,,12,07,130,,0*74
$GAGSV,2,2,08,17,31,040,,23,38,222,,24,86,022,,27,31,126,,0*7E
$GBGSV,3,1,09,01,38,122,46,02,50,173,47,04,36,126,46,06,37,216,46,0*77
$GBGSV,3,2,09,09,37,287,46,11,18,131,,12,10,061,46,13,49,203,47,0*7D
$GBGSV,3,3,09,14,09,165,,0*40
$GNGLL,2959.74714,N,12000.42011,E,000038.00,A,A*7F

$GNRMC,000039.00,A,2959.74054,N,12000.39717,E,75.577,253.91,230721,5.69,W,A,V*70
$GNVTG,253.91,T,259.60,M,75.577,N,139.968,K,A*02
$GNGGA,000039.00,2959.74054,N,12000.39717,E,1,07,1.91,-7.7,M,7.0,M,,*51
$GNGSA,A,3,,,,,,,,,,,,,5.04,1.91,4.66,1*0D
$GNGSA,A,3,,,,,,,,,,,,,5.04,1.91,4.66,3*0F
$GNGSA,A,3,04,09,01,06,12,02,13,,,,,,5.04,1.91,4.66,4*01
$GPGSV,4,1,13,01,00,121,,02,33,300,,04,52,247,,07,84,120,,0*6A
$GPGSV,4,2,13,08,47,207,,10,01,310,,13,50,031,,16,01,039,,0*64
$GPGSV,4,3,13,20,23,121,,23,28,057,,25,67,043,,27,18,219,,0*6F
$GPGSV,4,4,13,28,00,182,,0*56
$GAGSV,2,1,08,09,13,317,,10,64,334,,11,56,117,,12,07,130,,0*74
$GAGSV,2,2,08,17,31,040,,23,38,222,,24,86,022,,27,31,126,,0*7E
$GBGSV,3,1,09,01,38,122,46,02,50,173,47,04,36,126,46,06,37,216,46,0*77
$GBGSV,3,2,09,09,37,287,46,11,18,131,,12,10,061,46,13,49,203,47,0*7D
$GBGSV,3,3,09,14,09,165,,0*40
$GNGLL,2959.74054,N,12000.39717,E,000039.00,A,A*70

$GNRMC,000040.00,A,2959.73550,N,12000.37371,E,75.594,258.36,230721,5.69,W,A,V*79
$GNVTG,258.36,T,264.05,M,75.594,N,139.999,K,A*0A
$GNGGA,000040.00,2959.73550,N,12000.37371,E,1,07,1.91,-7.6,M,7.0,M,,*52
$GNGSA,A,3,,,,,,,,,,,,,5.04,1.91,4.66,1*0D
$GNGSA,A,3,,,,,,,,,,,,,5.04,1.91,4.66,3*0F
$GNGSA,A,3,04,09,01,06,12,02,13,,,,,,5.04,1.91,4.66,4*01
$GPGSV,4,1,13,01,00,121,,02,33,300,,04,52,247,,07,84,120,,0*6A
$GPGSV,4,2,13,08,47,207,,10,01,310,,13,50,031,,16,01,039,,0*64
$GPGSV,4,3,13,20,23,121,,23,28,057,,25,67,043,,27,18,219,,0*6F
$GPGSV,4,4,13,28,00,182,,0*56
$GAGSV,2,1,08,09,13,317,,10,64,334,,11,56,117,,12,07,130,,0*74
$GAGSV,2,2,08,17,31,040,,23,38,222,,24,86,022,,27,31,126,,0*7E
$GBGSV,3,1,09,01,38,122,46,02,50,173,47,04,36,126,46,06,37,216,46,0*77
$GBGSV,3,2,09,09,37,287,46,11,18,131,,12,10,061,46,13,49,203,47,0*7D
$GBGSV,3,3,09,14,09,165,,0*40
$GNGLL,2959.73550,N,12000.37371,E,000040.00,A,A*72

$GNRMC,000041.00,A,2959.73207,N,12000.34988,E,75.589,262.82,230721,5.69,W,A,V*78
$GNVTG,262.82,T,268.51,M,75.589,N,139.991,K,A*05
$GNGGA,000041.00,2959.73207,N,12000.34988,E,1,07,1.91,-7.6,M,7.0,M,,*59
$GNGSA,A,3,,,,,,,,,,,,,5.04,1.91,4.66,1*0D
$GNGSA,A,3,,,,,,,,,,,,,5.04,1.91,4.66,3*0F
$GNGSA,A,3,04,09,01,06,12,02,13,,,,,,5.04,1.91,4.66,4*01
$GPGSV,4,1,13,01,00,121,,02,33,300,,04,52,247,,07,84,120,,0*6A
$GPGSV,4,2,13,08,47,207,,10,01,310,,13,50,031,,16,01,039,,0*64
$GPGSV,4,3,13,20,23,121,,23,28,057,,25,67,043,,27,18,219,,0*6F
$GPGSV,4,4,13,28,00,182,,0*56
$GAGSV,2,1,08,09,13,317,,10,64,334,,11,56,117,,12,07,130,,0*74
$GAGSV,2,2,08,17,31,040,,23,38,222,,24,86,022,,27,31,126,,0*7E
$GBGSV,3,1,09,01,38,122,46,02,50,173,47,04,36,126,46,06,37,216,46,0*77
$GBGSV,3,2,09,09,37,287,46,11,18,131,,12,10,061,46,13,49,203,47,0*7D
$GBGSV,3,3,09,14,09,165,,0*40
$GNGLL,2959.73207,N,12000.34988,E,000041.00,A,A*79

$GNRMC,000042.00,A,2959.73026,N,12000.32581,E,75.587,267.27,230721,5.69,W,A,V*7D
$GNVTG,267.27,T,272.96,M,75.587,N,139.988,K,A*09
$GNGGA,000042.00,2959.73026,N,12000.32581,E,1,07,1.91,-7.5,M,7.0,M,,*5B
$GNGSA,A,3,,,,,,,,,,,,,5.04,1.91,4.66,1*0D
$GNGSA,A,3,,,,,,,,,,,,,5.04,1.91,4.66,3*0F
$GNGSA,A,3,04,09,01,06,12,02,13,,,,,,5.04,1.91,4.66,4*01
$GPGSV,4,1,13,01,00,121,,02,33,300,,04,52,247,,07,84,120,,0*6A
$GPGSV,4,2,13,08,47,207,,10,01,310,,13,50,031,,16,01,039,,0*64
$GPGSV,4,3,13,20,23,121,,23,28,057,,25,67,043,,27,18,219,,0*6F
$GPGSV,4,4,13,28,00,182,,0*56
$GAGSV,2,1,08,09,13,317,,10,64,334,,11,56,117,,12,07,130,,0*74
$GAGSV,2,2,08,17,31,040,,23,38,222,,24,86,022,,27,31,126,,0*7E
$GBGSV,3,1,09,01,38,122,46,02,50,173,47,04,36,126,46,06,37,216,46,0*77
$GBGSV,3,2,09,09,37,287,46,11,18,131,,12,10,061,46,13,49,203,47,0*7D
$GBGSV,3,3,09,14,09,165,,0*40
$GNGLL,2959.73026,N,12000.32581,E,000042.00,A,A*78

$GNRMC,000043.00,A,2959.73008,N,12000.30165,E,75.585,271.71,230721,5.69,W,A,V*7A
$GNVTG,271.71,T,277.40,M,75.585,N,139.983,K,A*0A
$GNGGA,000043.00,2959.73008,N,12000.30165,E,1,06,1.93,-7.5,M,7.0,M,,*59
$GNGSA,A,3,,,,,,,,,,,,,6.80,1.93,6.52,1*05
$GNGSA,A,3,,,,,,,,,,,,,6.80,1.93,6.52,3*07
$GNGSA,A,3,04,09,01,06,02,13,,,,,,,6.80,1.93,6.52,4*0A
$GPGSV,4,1,13,01,00,121,,02,33,300,,04,52,247,,07,84,120,,0*6A
$GPGSV,4,2,13,08,47,207,,10,01,310,,13,50,031,,16,01,039,,0*64
$GPGSV,4,3,13,20,23,121,,23,28,057,,25,67,043,,27,18,219,,0*6F
$GPGSV,4,4,13,28,00,182,,0*56
$GAGSV,2,1,08,09,13,317,,10,64,334,,11,56,117,,12,07,130,,0*74
$GAGSV,2,2,08,17,31,040,,23,38,222,,24,86,022,,27,31,126,,0*7E
$GBGSV,3,1,09,01,38,122,46,02,50,173,47,04,36,126,46,06,37,216,46,0*77
$GBGSV,3,2,09,09,37,287,46,11,18,131,,12,10,061,,13,49,203,47,0*7F
$GBGSV,3,3,09,14,09,165,,0*40
$GNGLL,2959.73008,N,12000.30165,E,000043.00,A,A*79

$GNRMC,000044.00,A,2959.73154,N,12000.27754,E,75.600,276.17,230721,5.69,W,A,V*7E
$GNVTG,276.17,T,281.86,M,75.600,N,140.012,K,A*0F
$GNGGA,000044.00,2959.73154,N,12000.27754,E,1,06,1.93,-7.4,M,7.0,M,,*55
$GNGSA,A,3,,,,,,,,,,,,,6.80,1.93,6.52,1*05
$GNGSA,A,3,,,,,,,,,,,,,6.80,1.93,6.52,3*07
$GNGSA,A,3,04,09,01,06,02,13,,,,,,,6.80,1.93,6.52,4*0A
$GPGSV,4,1,13,01,00,121,,02,33,300,,04,52,247,,07,84,120,,0*6A
$GPGSV,4,2,13,08,47,207,,10,01,310,,13,50,031,,16,01,039,,0*64
$GPGSV,4,3,13,20,23,121,,23,28,057,,25,67,043,,27,18,219,,0*6F
$GPGSV,4,4,13,28,00,182,,0*56
$GAGSV,2,1,08,09,13,317,,10,64,334,,11,56,117,,12,07,130,,0*74
$GAGSV,2,2,08,17,31,040,,23,38,222,,24,86,022,,27,31,126,,0*7E
$GBGSV,3,1,09,01,38,122,46,02,50,173,47,04,36,126,46,06,37,216,46,0*77
$GBGSV,3,2,09,09,37,287,46,11,18,131,,12,10,061,,13,49,203,47,0*7F
$GBGSV,3,3,09,14,09,165,,0*40
$GNGLL,2959.73154,N,12000.27754,E,000044.00,A,A*74

$GNRMC,000045.00,A,2959.73463,N,12000.25364,E,75.583,280.64,230721,5.69,W,A,V*7E
$GNVTG,280.64,T,286.32,M,75.583,N,139.980,K,A*0E
$GNGGA,000045.00,2959.73463,N,12000.25364,E,1,06,1.93,-7.3,M,7.0,M,,*57
$GNGSA,A,3,,,,,,,,,,,,,6.80,1.93,6.52,1*05
$GNGSA,A,3,,,,,,,,,,,,,6.80,1.93,6.52,3*07
$GNGSA,A,3,04,09,01,06,02,13,,,,,,,6.80,1.93,6.52,4*0A
$GPGSV,4,1,13,01,00,121,,02,33,300,,04,52,247,,07,84,120,,0*6A
$GPGSV,4,2,13,08,47,207,,10,01,310,,13,50,031,,16,01,039,,0*64
$GPGSV,4,3,13,20,23,121,,23,28,057,,25,67,043,,27,18,219,,0*6F
$GPGSV,4,4,13,28,00,182,,0*56
$GAGSV,2,1,08,09,13,317,,10,64,334,,11,56,117,,12,07,130,,0*74
$GAGSV,2,2,08,17,31,040,,23,38,222,,24,86,022,,27,31,126,,0*7E
$GBGSV,3,1,09,01,38,122,46,02,50,173,47,04,36,126,46,06,37,216,46,0*77
$GBGSV,3,2,09,09,37,287,46,11,18,131,,12,10,061,,13,49,203,47,0*7F
$GBGSV,3,3,09,14,09,165,,0*40
$GNGLL,2959.73463,N,12000.25364,E,000045.00,A,A*71

$GNRMC,000046.00,A,2959.73934,N,12000.23009,E,75.582,285.10,230721,5.69,W,A,V*7B
$GNVTG,285.10,T,290.78,M,75.582,N,139.977,K,A*08
$GNGGA,000046.00,2959.73934,N,12000.23009,E,1,07,1.74,-7.1,M,7.0,M,,*5F
$GNGSA,A,3,,,,,,,,,,,,,3.60,1.74,3.16,1*02
$GNGSA,A,3,,,,,,,,,,,,,3.60,1.74,3.16,3*00
$GNGSA,A,3,04,09,01,06,11,02,13,,,,,,3.60,1.74,3.16,4*0D
$GPGSV,4,1,13,01,00,121,,02,33,300,,04,52,247,,07,84,120,,0*6A
$GPGSV,4,2,13,08,47,207,,10,01,310,,13,50,031,,16,01,039,,0*64
$GPGSV,4,3,13,20,23,121,,23,28,057,,25,67,043,,27,18,219,,0*6F
$GPGSV,4,4,13,28,00,182,,0*56
$GAGSV,2,1,08,09,13,317,,10,64,334,,11,56,117,,12,07,130,,0*74
$GAGSV,2,2,08,17,31,040,,23,38,222,,24,86,022,,27,31,126,,0*7E
$GBGSV,3,1,09,01,38,122,46,02,50,173,47,04,36,126,46,06,37,216,46,0*77
$GBGSV,3,2,09,09,37,287,46,11,18,131,46,12,10,061,,13,49,203,47,0*7D
$GBGSV,3,3,09,14,09,165,,0*40
$GNGLL,2959.73934,N,12000.23009,E,000046.00,A,A*73

$GNRMC,000047.00,A,2959.74557,N,12000.20702,E,75.582,289.55,230721,5.69,W,A,V*76
$GNVTG,289.55,T,295.24,M,75.582,N,139.979,K,A*07
$GNGGA,000047.00,2959.74557,N,12000.20702,E,1,07,1.74,-7.3,M,7.0,M,,*5D
$GNGSA,A,3,,,,,,,,,,,,,3.60,1.74,3.16,1*02
$GNGSA,A,3,,,,,,,,,,,,,3.60,1.74,3.16,3*00
$GNGSA,A,3,04,09,01,06,11,02,13,,,,,,3.60,1.74,3.16,4*0D
$GPGSV,4,1,13,01,00,121,,02,33,300,,04,52,247,,07,84,120,,0*6A
$GPGSV,4,2,13,08,47,207,,10,01,310,,13,50,031,,16,01,039,,0*64
$GPGSV,4,3,13,20,23,121,,23,28,057,,25,67,043,,27,18,219,,0*6F
$GPGSV,4,4,13,28,00,182,,0*56
$GAGSV,2,1,08,09,13,317,,10,64,334,,11,56,117,,12,07,130,,0*74
$GAGSV,2,2,08,17,31,040,,23,38,222,,24,86,022,,27,31,126,,0*7E
$GBGSV,3,1,09,01,38,122,46,02,50,173,47,04,36,126,46,06,37,216,46,0*77
$GBGSV,3,2,09,09,37,287,46,11,18,131,46,12,10,061,,13,49,203,47,0*7D
$GBGSV,3,3,09,14,09,165,,0*40
$GNGLL,2959.74557,N,12000.20702,E,000047.00,A,A*73

$GNRMC,000048.00,A,2959.75339,N,12000.18458,E,75.570,293.98,230721,5.69,W,A,V*76
$GNVTG,293.98,T,299.67,M,75.570,N,139.956,K,A*06
$GNGGA,000048.00,2959.75339,N,12000.18458,E,1,07,1.74,-7.3,M,7.0,M,,*5A
$GNGSA,A,3,,,,,,,,,,,,,3.60,1.74,3.16,1*02
$GNGSA,A,3,,,,,,,,,,,,,3.60,1.74,3.16,3*00
$GNGSA,A,3,04,09,01,06,11,02,13,,,,,,3.60,1.74,3.16,4*0D
$GPGSV,4,1,13,01,00,121,,02,33,300,,04,52,247,,07,84,120,,0*6A
$GPGSV,4,2,13,08,47,207,,10,01,310,,13,50,031,,16,01,039,,0*64
$GPGSV,4,3,13,20,23,121,,23,28,057,,25,67,043,,27,18,219,,0*6F
$GPGSV,4,4,13,28,00,182,,0*56
$GAGSV,2,1,08,09,13,317,,10,64,334,,11,56,117,,12,07,130,,0*74
$GAGSV,2,2,08,17,31,040,,23,38,222,,24,86,022,,27,31,126,,0*7E
$GBGSV,3,1,09,01,38,122,46,02,50,173,47,04,36,126,46,06,37,216,46,0*77
$GBGSV,3,2,09,09,37,287,46,11,18,131,46,12,10,061,,13,49,203,47,0*7D
$GBGSV,3,3,09,14,09,165,,0*40
$GNGLL,2959.75339,N,12000.18458,E,000048.00,A,A*74

$GNRMC,000049.00,A,2959.76268,N,12000.16291,E,75.559,298.44,230721,5.69,W,A,V*7D
$GNVTG,298.44,T,304.12,M,75.559,N,139.935,K,A*05
$GNGGA,000049.00,2959.76268,N,12000.16291,E,1,07,1.74,-7.4,M,7.0,M,,*57
$GNGSA,A,3,,,,,,,,,,,,,3.61,1.74,3.16,1*03
$GNGSA,A,3,,,,,,,,,,,,,3.61,1.74,3.16,3*01
$GNGSA,A,3,04,09,01,06,11,02,13,,,,,,3.61,1.74,3.16,4*0C
$GPGSV,4,1,13,01,00,121,,02,33,300,,04,52,247,,07,84,120,,0*6A
$GPGSV,4,2,13,08,47,207,,10,01,310,,13,50,031,,16,01,039,,0*64
$GPGSV,4,3,13,20,23,121,,23,28,057,,25,67,043,,27,18,219,,0*6F
$GPGSV,4,4,13,28,00,182,,0*56
$GAGSV,2,1,08,09,13,317,,10,64,334,,11,56,117,,12,07,130,,0*74
$GAGSV,2,2,08,17,31,040,,23,38,222,,24,86,022,,27,31,126,,0*7E
$GBGSV,3,1,09,01,38,122,46,02,50,173,47,04,36,126,46,06,37,216,46,0*77
$GBGSV,3,2,09,09,37,287,46,11,18,131,46,12,10,061,,13,49,203,47,0*7D
$GBGSV,3,3,09,14,09,165,,0*40
$GNGLL,2959.76268,N,12000.16291,E,000049.00,A,A*7E

$GNRMC,000050.00,A,2959.77341,N,12000.14213,E,75.582,302.93,230721,5.69,W,A,V*78
$GNVTG,302.93,T,308.61,M,75.582,N,139.977,K,A*05
$GNGGA,000050.00,2959.77341,N,12000.14213,E,1,07,1.74,-7.4,M,7.0,M,,*5C
$GNGSA,A,3,,,,,,,,,,,,,3.61,1.74,3.16,1*03
$GNGSA,A,3,,,,,,,,,,,,,3.61,1.74,3.16,3*01
$GNGSA,A,3,04,09,01,06,11,02,13,,,,,,3.61,1.74,3.16,4*0C
$GPGSV,4,1,13,01,00,121,,02,33,300,,04,52,247,,07,84,120,,0*6A
$GPGSV,4,2,13,08,47,207,,10,01,310,,13,50,031,,16,01,039,,0*64
$GPGSV,4,3,13,20,23,121,,23,28,057,,25,67,043,,27,18,219,,0*6F
$GPGSV,4,4,13,28,00,182,,0*56
$GAGSV,2,1,08,09,13,317,,10,64,334,,11,56,117,,12,07,130,,0*74
$GAGSV,2,2,08,17,31,040,,23,38,222,,24,86,022,,27,31,126,,0*7E
$GBGSV,3,1,09,01,38,122,46,02,50,173,47,04,36,126,46,06,37,216,46,0*77
$GBGSV,3,2,09,09,37,287,46,11,18,131,46,12,10,061,,13,49,203,47,0*7D
$GBGSV,3,3,09,14,09,165,,0*40
$GNGLL,2959.77341,N,12000.14213,E,000050.00,A,A*75

$GNRMC,000051.00,A,2959.78551,N,12000.12237,E,75.585,307.37,230721,5.69,W,A,V*7D
$GNVTG,307.37,T,313.06,M,75.585,N,139.984,K,A*0E
$GNGGA,000051.00,2959.78551,N,12000.12237,E,1,07,1.74,-7.5,M,7.0,M,,*54
$GNGSA,A,3,,,,,,,,,,,,,3.61,1.74,3.16,1*03
$GNGSA,A,3,,,,,,,,,,,,,3.61,1.74,3.16,3*01
$GNGSA,A,3,04,09,01,06,11,02,13,,,,,,3.61,1.74,3.16,4*0C
$GPGSV,4,1,13,01,00,121,,02,33,300,,04,52,247,,07,84,120,,0*6A
$GPGSV,4,2,13,08,47,207,,10,01,310,,13,50,031,,16,01,039,,0*64
$GPGSV,4,3,13,20,23,121,,23,28,057,,25,67,043,,27,18,219,,0*6F
$GPGSV,4,4,13,28,00,182,,0*56
$GAGSV,2,1,08,09,13,317,,10,64,334,,11,56,117,,12,07,130,,0*74
$GAGSV,2,2,08,17,31,040,,23,38,222,,24,86,022,,27,31,126,,0*7E
$GBGSV,3,1,09,01,38,122,46,02,50,173,47,04,36,126,46,06,37,216,46,0*77
$GBGSV,3,2,09,09,37,287,46,11,18,131,46,12,10,061,,13,49,203,47,0*7D
$GBGSV,3,3,09,14,09,165,,0*40
$GNGLL,2959.78551,N,12000.12237,E,000051.00,A,A*7C

$GNRMC,000052.00,A,2959.79893,N,12000.10375,E,75.580,311.83,230721,5.69,W,A,V*74
$GNVTG,311.83,T,317.52,M,75.580,N,139.974,K,A*09
$GNGGA,000052.00,2959.79893,N,12000.10375,E,1,07,1.74,-7.4,M,7.0,M,,*51
$GNGSA,A,3,,,,,,,,,,,,,3.61,1.74,3.16,1*03
$GNGSA,A,3,,,,,,,,,,,,,3.61,1.74,3.16,3*01
$GNGSA,A,3,04,09,01,06,11,02,13,,,,,,3.61,1.74,3.16,4*0C
$GPGSV,4,1,13,01,00,121,,02,33,300,,04,52,247,,07,84,120,,0*6A
$GPGSV,4,2,13,08,47,207,,10,01,310,,13,50,031,,16,01,039,,0*64
$GPGSV,4,3,13,20,23,121,,23,28,057,,25,67,043,,27,18,219,,0*6F
$GPGSV,4,4,13,28,00,182,,0*56
$GAGSV,2,1,08,09,13,317,,10,64,334,,11,56,117,,12,07,130,,0*74
$GAGSV,2,2,08,17,31,040,,23,38,222,,24,86,022,,27,31,126,,0*7E
$GBGSV,3,1,09,01,38,122,46,02,50,173,47,04,36,126,46,06,37,216,46,0*77
$GBGSV,3,2,09,09,37,287,46,11,18,131,46,12,10,061,,13,49,203,47,0*7D
$GBGSV,3,3,09,14,09,165,,0*40
$GNGLL,2959.79893,N,12000.10375,E,000052.00,A,A*78

$GNRMC,000053.00,A,2959.81355,N,12000.08639,E,75.570,316.28,230721,5.69,W,A,V*7E
$GNVTG,316.28,T,321.97,M,75.570,N,139.955,K,A*0F
$GNGGA,000053.00,2959.81355,N,12000.08639,E,1,07,1.74,-7.5,M,7.0,M,,*53
$GNGSA,A,3,,,,,,,,,,,,,3.61,1.74,3.16,1*03
$GNGSA,A,3,,,,,,,,,,,,,3.61,1.74,3.16,3*01
$GNGSA,A,3,04,09,01,06,11,02,13,,,,,,3.61,1.74,3.16,4*0C
$GPGSV,4,1,13,01,00,121,,02,33,300,,04,52,247,,07,84,120,,0*6A
$GPGSV,4,2,13,08,47,207,,10,01,310,,13,50,031,,16,01,039,,0*64
$GPGSV,4,3,13,20,23,121,,23,28,057,,25,67,043,,27,18,219,,0*6F
$GPGSV,4,4,13,28,00,182,,0*56
$GAGSV,2,1,08,09,13,317,,10,64,334,,11,56,117,,12,07,130,,0*74
$GAGSV,2,2,08,17,31,040,,23,38,222,,24,86,022,,27,31,126,,0*7E
$GBGSV,3,1,09,01,38,122,46,02,50,173,47,04,36,126,46,06,37,216,46,0*77
$GBGSV,3,2,09,09,37,287,46,11,18,131,46,12,10,061,,13,49,203,47,0*7D
$GBGSV,3,3,09,14,09,165,46,0*42
$GNGLL,2959.81355,N,12000.08639,E,000053.00,A,A*7B

$GNRMC,000054.00,A,2959.82931,N,12000.07038,E,75.567,320.74,230721,5.69,W,A,V*70
$GNVTG,320.74,T,326.42,M,75.567,N,139.949,K,A*07
$GNGGA,000054.00,2959.82931,N,12000.07038,E,1,07,1.74,-7.5,M,7.0,M,,*57
$GNGSA,A,3,,,,,,,,,,,,,3.61,1.74,3.16,1*03
$GNGSA,A,3,,,,,,,,,,,,,3.61,1.74,3.16,3*01
$GNGSA,A,3,04,09,01,06,11,02,13,,,,,,3.61,1.74,3.16,4*0C
$GPGSV,4,1,13,01,00,121,,02,33,300,,04,52,247,,07,84,120,,0*6A
$GPGSV,4,2,13,08,47,207,,10,01,310,,13,50,031,,16,01,039,,0*64
$GPGSV,4,3,13,20,23,121,,23,28,057,,25,67,043,,27,18,219,,0*6F
$GPGSV,4,4,13,28,00,182,,0*56
$GAGSV,2,1,08,09,13,317,,10,64,334,,11,56,117,,12,07,130,,0*74
$GAGSV,2,2,08,17,31,040,,23,38,222,,24,86,022,,27,31,126,,0*7E
$GBGSV,3,1,09,01,38,122,46,02,50,173,47,04,36,126,46,06,37,216,46,0*77
$GBGSV,3,2,09,09,37,287,46,11,18,131,46,12,10,061,,13,49,203,47,0*7D
$GBGSV,3,3,09,14,09,165,46,0*42
$GNGLL,2959.82931,N,12000.07038,E,000054.00,A,A*7F

$GNRMC,000055.00,A,2959.84609,N,12000.05583,E,75.548,325.18,230721,5.69,W,A,V*76
$GNVTG,325.18,T,330.86,M,75.548,N,139.915,K,A*03
$GNGGA,000055.00,2959.84609,N,12000.05583,E,1,07,1.74,-7.6,M,7.0,M,,*50
$GNGSA,A,3,,,,,,,,,,,,,3.61,1.74,3.16,1*03
$GNGSA,A,3,,,,,,,,,,,,,3.61,1.74,3.16,3*01
$GNGSA,A,3,04,09,01,06,11,02,13,,,,,,3.61,1.74,3.16,4*0C
$GPGSV,4,1,13,01,00,121,,02,33,300,,04,52,247,,07,84,120,,0*6A
$GPGSV,4,2,13,08,47,207,,10,01,310,,13,50,031,,16,01,039,,0*64
$GPGSV,4,3,13,20,23,121,,23,28,057,,25,67,043,,27,18,219,,0*6F
$GPGSV,4,4,13,28,00,182,,0*56
$GAGSV,2,1,08,09,13,317,,10,64,334,,11,56,117,,12,07,130,,0*74
$GAGSV,2,2,08,17,31,040,,23,38,222,,24,86,022,,27,31,126,,0*7E
$GBGSV,3,1,09,01,38,122,46,02,50,173,47,04,36,126,46,06,37,216,46,0*77
$GBGSV,3,2,09,09,37,287,46,11,18,131,46,12,10,061,,13,49,203,47,0*7D
$GBGSV,3,3,09,14,09,165,46,0*42
$GNGLL,2959.84609,N,12000.05583,E,000055.00,A,A*7B

$GNRMC,000056.00,A,2959.86381,N,12000.04282,E,75.561,329.65,230721,5.69,W,A,V*78
$GNVTG,329.65,T,335.33,M,75.561,N,139.940,K,A*05
$GNGGA,000056.00,2959.86381,N,12000.04282,E,1,07,1.74,-7.6,M,7.0,M,,*53
$GNGSA,A,3,,,,,,,,,,,,,3.61,1.74,3.16,1*03
$GNGSA,A,3,,,,,,,,,,,,,3.61,1.74,3.16,3*01
$GNGSA,A,3,04,09,01,06,11,02,13,,,,,,3.61,1.74,3.16,4*0C
$GPGSV,4,1,13,01,00,121,,02,33,300,,04,52,247,,07,84,120,,0*6A
$GPGSV,4,2,13,08,47,207,,10,01,310,,13,50,031,,16,01,039,,0*64
$GPGSV,4,3,13,20,23,121,,23,28,057,,25,67,043,,27,18,219,,0*6F
$GPGSV,4,4,13,28,00,182,,0*56
$GAGSV,2,1,08,09,13,317,,10,64,334,,11,56,117,,12,07,130,,0*74
$GAGSV,2,2,08,17,31,040,,23,38,222,,24,86,022,,27,31,126,,0*7E
$GBGSV,3,1,09,01,38,122,46,02,50,173,47,04,36,126,46,06,37,216,46,0*77
$GBGSV,3,2,09,09,37,287,46,11,18,131,46,12,10,061,,13,49,203,47,0*7D
$GBGSV,3,3,09,14,09,165,46,0*42
$GNGLL,2959.86381,N,12000.04282,E,000056.00,A,A*78

$GNRMC,000057.00,A,2959.88236,N,12000.03144,E,75.566,334.12,230721,5.69,W,A,V*7F
$GNVTG,334.12,T,339.80,M,75.566,N,139.948,K,A*02
$GNGGA,000057.00,2959.88236,N,12000.03144,E,1,07,1.74,-7.6,M,7.0,M,,*5F
$GNGSA,A,3,,,,,,,,,,,,,3.61,1.74,3.16,1*03
$GNGSA,A,3,,,,,,,,,,,,,3.61,1.74,3.16,3*01
$GNGSA,A,3,04,09,01,06,11,02,13,,,,,,3.61,1.74,3.16,4*0C
$GPGSV,4,1,13,01,00,121,,02,33,300,,04,52,247,,07,84,120,,0*6A
$GPGSV,4,2,13,08,47,207,,10,01,310,,13,50,031,,16,01,039,,0*64
$GPGSV,4,3,13,20,23,121,,23,28,057,,25,67,043,,27,18,219,,0*6F
$GPGSV,4,4,13,28,00,182,,0*56
$GAGSV,2,1,08,09,14,317,,10,64,334,,11,56,117,,12,07,130,,0*73
$GAGSV,2,2,08,17,31,040,,23,38,222,,24,86,022,,27,31,126,,0*7E
$GBGSV,3,1,09,01,38,122,46,02,50,173,47,04,36,126,46,06,37,216,46,0*77
$GBGSV,3,2,09,09,37,287,46,11,18,131,46,12,10,061,,13,49,203,47,0*7D
$GBGSV,3,3,09,14,09,165,46,0*42
$GNGLL,2959.88236,N,12000.03144,E,000057.00,A,A*74

$GNRMC,000058.00,A,2959.90162,N,12000.02175,E,75.550,338.57,230721,5.69,W,A,V*70
$GNVTG,338.57,T,344.26,M,75.550,N,139.918,K,A*09
$GNGGA,000058.00,2959.90162,N,12000.02175,E,1,07,1.74,-7.6,M,7.0,M,,*58
$GNGSA,A,3,,,,,,,,,,,,,3.61,1.74,3.16,1*03
$GNGSA,A,3,,,,,,,,,,,,,3.61,1.74,3.16,3*01
$GNGSA,A,3,04,09,01,06,11,02,13,,,,,,3.61,1.74,3.16,4*0C
$GPGSV,4,1,13,01,00,121,,02,33,300,,04,52,247,,07,84,120,,0*6A
$GPGSV,4,2,13,08,47,207,,10,01,310,,13,50,031,,16,01,039,,0*64
$GPGSV,4,3,13,20,23,121,,23,28,057,,25,67,043,,27,18,219,,0*6F
$GPGSV,4,4,13,28,00,182,,0*56
$GAGSV,2,1,08,09,14,317,,10,64,334,,11,56,117,,12,07,130,,0*73
$GAGSV,2,2,08,17,31,040,,23,38,222,,24,86,022,,27,31,126,,0*7E
$GBGSV,3,1,09,01,38,122,46,02,50,173,47,04,36,126,46,06,37,216,46,0*77
$GBGSV,3,2,09,09,37,287,46,11,18,131,46,12,10,061,,13,49,203,47,0*7D
$GBGSV,3,3,09,14,09,165,46,0*42
$GNGLL,2959.90162,N,12000.02175,E,000058.00,A,A*73

$GNRMC,000059.00,A,2959.92149,N,12000.01380,E,75.538,343.02,230721,5.69,W,A,V*73
$GNVTG,343.02,T,348.71,M,75.538,N,139.897,K,A*03
$GNGGA,000059.00,2959.92149,N,12000.01380,E,1,06,1.92,-7.6,M,7.0,M,,*50
$GNGSA,A,3,,,,,,,,,,,,,6.80,1.92,6.52,1*04
$GNGSA,A,3,,,,,,,,,,,,,6.80,1.92,6.52,3*06
$GNGSA,A,3,04,09,01,06,02,13,,,,,,,6.80,1.92,6.52,4*0B
$GPGSV,4,1,13,01,00,121,,02,33,300,,04,52,247,,07,84,120,,0*6A
$GPGSV,4,2,13,08,47,207,,10,01,310,,13,50,031,,16,01,039,,0*64
$GPGSV,4,3,13,20,23,121,,23,28,057,,25,67,043,,27,18,219,,0*6F
$GPGSV,4,4,13,28,00,182,,0*56
$GAGSV,2,1,08,09,14,317,,10,64,334,,11,56,118,,12,07,130,,0*7C
$GAGSV,2,2,08,17,31,040,,23,38,222,,24,86,022,,27,31,126,,0*7E
$GBGSV,3,1,09,01,38,122,46,02,50,173,47,04,36,126,46,06,37,216,46,0*77
$GBGSV,3,2,09,09,37,287,46,11,18,131,12,12,10,061,,13,49,203,47,0*7C
$GBGSV,3,3,09,14,09,165,46,0*42
$GNGLL,2959.92149,N,12000.01380,E,000059.00,A,A*72

$GNRMC,000100.00,A,2959.94182,N,12000.00766,E,75.563,347.49,230721,5.69,W,A,V*77
$GNVTG,347.49,T,353.18,M,75.563,N,139.943,K,A*0B
$GNGGA,000100.00,2959.94182,N,12000.00766,E,1,06,1.92,-7.5,M,7.0,M,,*52
$GNGSA,A,3,,,,,,,,,,,,,6.80,1.92,6.52,1*04
$GNGSA,A,3,,,,,,,,,,,,,6.80,1.92,6.52,3*06
$GNGSA,A,3,04,09,01,06,02,13,,,,,,,6.80,1.92,6.52,4*0B
$GPGSV,4,1,13,01,00,121,,02,33,300,,04,52,247,,07,84,120,,0*6A
$GPGSV,4,2,13,08,47,207,,10,01,310,,13,50,031,,16,01,039,,0*64
$GPGSV,4,3,13,20,23,121,,23,28,057,,25,67,043,,27,18,219,,0*6F
$GPGSV,4,4,13,28,00,182,,0*56
$GAGSV,2,1,08,09,14,317,,10,64,334,,11,56,118,,12,07,130,,0*7C
$GAGSV,2,2,08,17,31,040,,23,38,222,,24,86,022,,27,31,126,,0*7E
$GBGSV,3,1,09,01,38,122,46,02,50,173,47,04,36,126,46,06,37,216,46,0*77
$GBGSV,3,2,09,09,37,287,46,11,18,131,,12,10,061,,13,49,203,47,0*7F
$GBGSV,3,3,09,14,09,165,46,0*42
$GNGLL,2959.94182,N,12000.00766,E,000100.00,A,A*73

$GNRMC,000101.00,A,2959.96252,N,12000.00335,E,75.559,351.95,230721,5.69,W,A,V*77
$GNVTG,351.95,T,357.63,M,75.559,N,139.936,K,A*0E
$GNGGA,000101.00,2959.96252,N,12000.00335,E,1,06,1.92,-7.5,M,7.0,M,,*5D
$GNGSA,A,3,,,,,,,,,,,,,6.80,1.92,6.52,1*04
$GNGSA,A,3,,,,,,,,,,,,,6.80,1.92,6.52,3*06
$GNGSA,A,3,04,09,01,06,02,13,,,,,,,6.80,1.92,6.52,4*0B
$GPGSV,4,1,13,01,00,121,,02,33,300,,04,52,247,,07,84,120,,0*6A
$GPGSV,4,2,13,08,47,207,,10,01,310,,13,50,031,,16,01,039,,0*64
$GPGSV,4,3,13,20,23,121,,23,28,057,,25,67,043,,27,18,219,,0*6F
$GPGSV,4,4,13,28,00,182,,0*56
$GAGSV,2,1,08,09,14,317,,10,64,334,,11,56,118,,12,07,130,,0*7C
$GAGSV,2,2,08,17,31,040,,23,38,222,,24,86,022,,27,31,126,,0*7E
$GBGSV,3,1,09,01,38,122,46,02,50,173,47,04,36,126,46,06,37,216,46,0*77
$GBGSV,3,2,09,09,37,287,46,11,18,131,,12,10,061,,13,49,203,47,0*7F
$GBGSV,3,3,09,14,09,165,46,0*42
$GNGLL,2959.96252,N,12000.00335,E,000101.00,A,A*7C

$GNRMC,000102.00,A,2959.98344,N,12000.00089,E,75.554,356.40,230721,5.69,W,A,V*7A
$GNVTG,356.40,T,2.09,M,75.554,N,139.926,K,A*02
$GNGGA,000102.00,2959.98344,N,12000.00089,E,1,06,1.92,-7.5,M,7.0,M,,*52
$GNGSA,A,3,,,,,,,,,,,,,6.80,1.92,6.52,1*04
$GNGSA,A,3,,,,,,,,,,,,,6.80,1.92,6.52,3*06
$GNGSA,A,3,04,09,01,06,02,13,,,,,,,6.80,1.92,6.52,4*0B
$GPGSV,4,1,13,01,00,121,,02,33,300,,04,52,247,,07,84,120,,0*6A
$GPGSV,4,2,13,08,47,207,,10,01,310,,13,50,031,,16,01,039,,0*64
$GPGSV,4,3,13,20,23,121,,23,28,057,,25,67,043,,27,18,219,,0*6F
$GPGSV,4,4,13,28,00,182,,0*56
$GAGSV,2,1,08,09,14,317,,10,64,334,,11,56,118,,12,07,130,,0*7C
$GAGSV,2,2,08,17,31,040,,23,38,222,,24,86,022,,27,31,126,,0*7E
$GBGSV,3,1,09,01,38,122,46,02,50,173,47,04,36,126,46,06,37,216,46,0*77
$GBGSV,3,2,09,09,37,287,46,11,18,131,,12,10,061,,13,49,203,47,0*7F
$GBGSV,3,3,09,14,09,165,46,0*42
$GNGLL,2959.98344,N,12000.00089,E,000102.00,A,A*73

$GNRMC,000103.00,A,3000.00446,N,12000.00031,E,75.566,0.86,230721,5.69,W,A,V*73
$GNVTG,0.86,T,6.55,M,75.566,N,139.949,K,A*0D
$GNGGA,000103.00,3000.00446,N,12000.00031,E,1,06,1.92,-7.5,M,7.0,M,,*50
$GNGSA,A,3,,,,,,,,,,,,,6.80,1.92,6.52,1*04
$GNGSA,A,3,,,,,,,,,,,,,6.80,1.92,6.52,3*06
$GNGSA,A,3,04,09,01,06,02,13,,,,,,,6.80,1.92,6.52,4*0B
$GPGSV,4,1,13,01,00,121,,02,33,300,,04,52,247,,07,84,120,,0*6A
$GPGSV,4,2,13,08,47,207,,10,01,310,,13,50,031,,16,01,039,,0*64
$GPGSV,4,3,13,20,23,121,,23,28,057,,25,67,043,,27,18,219,,0*6F
$GPGSV,4,4,13,28,00,182,,0*56
$GAGSV,2,1,08,09,14,317,,10,64,334,,11,56,118,,12,07,130,,0*7C
$GAGSV,2,2,08,17,31,040,,23,38,222,,24,86,022,,27,31,126,,0*7E
$GBGSV,3,1,09,01,38,122,46,02,50,173,47,04,36,126,46,06,37,216,46,0*77
$GBGSV,3,2,09,09,37,287,46,11,18,131,,12,10,061,,13,49,203,47,0*7F
$GBGSV,3,3,09,14,09,165,46,0*42
$GNGLL,3000.00446,N,12000.00031,E,000103.00,A,A*71

$GNRMC,000104.00,A,3000.02546,N,12000.00161,E,75.590,5.32,230721,5.69,W,A,V*70
$GNVTG,5.32,T,11.01,M,75.590,N,139.992,K,A*3F
$GNGGA,000104.00,3000.02546,N,12000.00161,E,1,06,1.92,-7.5,M,7.0,M,,*50
$GNGSA,A,3,,,,,,,,,,,,,6.80,1.92,6.52,1*04
$GNGSA,A,3,,,,,,,,,,,,,6.80,1.92,6.52,3*06
$GNGSA,A,3,04,09,01,06,02,13,,,,,,,6.80,1.92,6.52,4*0B
$GPGSV,4,1,13,01,00,121,,02,33,300,,04,52,247,,07,84,120,,0*6A
$GPGSV,4,2,13,08,47,207,,10,01,310,,13,50,031,,16,01,039,,0*64
$GPGSV,4,3,13,20,23,121,,23,28,057,,25,67,043,,27,18,219,,0*6F
$GPGSV,4,4,13,28,00,182,,0*56
$GAGSV,2,1,08,09,14,317,,10,64,334,,11,56,118,,12,07,130,,0*7C
$GAGSV,2,2,08,17,31,040,,23,38,222,,24,86,022,,27,31,126,,0*7E
$GBGSV,3,1,09,01,38,122,46,02,50,173,47,04,36,126,46,06,37,216,46,0*77
$GBGSV,3,2,09,09,37,287,46,11,18,131,,12,10,061,,13,49,203,47,0*7F
$GBGSV,3,3,09,14,09,165,46,0*42
$GNGLL,3000.02546,N,12000.00161,E,000104.00,A,A*71

$GNRMC,000105.00,A,3000.04631,N,12000.00478,E,75.602,9.78,230721,5.69,W,A,V*73
$GNVTG,9.78,T,15.47,M,75.602,N,140.015,K,A*3B
$GNGGA,000105.00,3000.04631,N,12000.00478,E,1,06,1.92,-7.5,M,7.0,M,,*59
$GNGSA,A,3,,,,,,,,,,,,,6.80,1.92,6.52,1*04
$GNGSA,A,3,,,,,,,,,,,,,6.80,1.92,6.52,3*06
$GNGSA,A,3,04,09,01,06,02,13,,,,,,,6.80,1.92,6.52,4*0B
$GPGSV,4,1,13,01,00,121,,02,33,300,,04,52,247,,07,84,120,,0*6A
$GPGSV,4,2,13,08,47,207,,10,01,310,,13,50,031,,16,01,039,,0*64
$GPGSV,4,3,13,20,23,121,,23,28,057,,25,67,043,,27,18,219,,0*6F
$GPGSV,4,4,13,28,00,182,,0*56
$GAGSV,2,1,08,09,14,317,,10,64,334,,11,56,118,,12,07,130,,0*7C
$GAGSV,2,2,08,17,31,040,,23,38,222,,24,86,022,,27,31,126,,0*7E
$GBGSV,3,1,09,01,38,122,46,02,50,173,47,04,36,126,46,06,37,216,46,0*77
$GBGSV,3,2,09,09,37,287,46,11,18,131,,12,10,061,,13,49,203,47,0*7F
$GBGSV,3,3,09,14,09,165,46,0*42
$GNGLL,3000.04631,N,12000.00478,E,000105.00,A,A*78

$GNRMC,000106.00,A,3000.06689,N,12000.00981,E,75.584,14.24,230721,5.69,W,A,V*42
$GNVTG,14.24,T,19.92,M,75.584,N,139.981,K,A*0D
$GNGGA,000106.00,3000.06689,N,12000.00981,E,1,06,1.92,-7.4,M,7.0,M,,*51
$GNGSA,A,3,,,,,,,,,,,,,6.80,1.92,6.52,1*04
$GNGSA,A,3,,,,,,,,,,,,,6.80,1.92,6.52,3*06
$GNGSA,A,3,04,09,01,06,02,13,,,,,,,6.80,1.92,6.52,4*0B
$GPGSV,4,1,13,01,00,121,,02,33,300,,04,52,247,,07,84,120,,0*6A
$GPGSV,4,2,13,08,47,207,,10,01,310,,13,50,031,,16,01,039,,0*64
$GPGSV,4,3,13,20,23,121,,23,28,057,,25,67,043,,27,18,219,,0*6F
$GPGSV,4,4,13,28,00,182,,0*56
$GAGSV,2,1,08,09,14,317,,10,64,334,,11,56,118,,12,07,130,,0*7C
$GAGSV,2,2,08,17,31,040,,23,38,222,,24,86,022,,27,31,126,,0*7E
$GBGSV,3,1,09,01,38,122,46,02,50,173,47,04,36,126,46,06,37,216,46,0*77
$GBGSV,3,2,09,09,37,287,46,11,18,131,,12,10,061,,13,49,203,47,0*7F
$GBGSV,3,3,09,14,09,165,46,0*42
$GNGLL,3000.06689,N,12000.00981,E,000106.00,A,A*71

$GNRMC,000107.00,A,3000.08706,N,12000.01665,E,75.608,18.69,230721,5.69,W,A,V*4D
$GNVTG,18.69,T,24.38,M,75.608,N,140.025,K,A*08
$GNGGA,000107.00,3000.08706,N,12000.01665,E,1,06,1.92,-7.4,M,7.0,M,,*5C
$GNGSA,A,3,,,,,,,,,,,,,6.80,1.92,6.52,1*04
$GNGSA,A,3,,,,,,,,,,,,,6.80,1.92,6.52,3*06
$GNGSA,A,3,04,09,01,06,02,13,,,,,,,6.80,1.92,6.52,4*0B
$GPGSV,4,1,13,01,00,121,,02,33,300,,04,52,247,,07,84,120,,0*6A
$GPGSV,4,2,13,08,47,207,,10,01,310,,13,50,031,,16,01,039,,0*64
$GPGSV,4,3,13,20,23,121,,23,28,057,,25,67,043,,27,18,219,,0*6F
$GPGSV,4,4,13,28,00,182,,0*56
$GAGSV,2,1,08,09,14,317,,10,64,334,,11,56,118,,12,07,130,,0*7C
$GAGSV,2,2,08,17,31,040,,23,38,222,,24,86,022,,27,31,126,,0*7E
$GBGSV,3,1,09,01,38,122,46,02,50,173,47,04,36,126,46,06,37,216,46,0*77
$GBGSV,3,2,09,09,37,287,46,11,18,131,,12,10,061,,13,49,203,47,0*7F
$GBGSV,3,3,09,14,09,165,,0*40
$GNGLL,3000.08706,N,12000.01665,E,000107.00,A,A*7C

$GNRMC,000108.00,A,3000.10671,N,12000.02528,E,75.655,23.14,230721,5.69,W,A,V*49
$GNVTG,23.14,T,28.83,M,75.655,N,140.112,K,A*0B
$GNGGA,000108.00,3000.10671,N,12000.02528,E,1,06,1.92,-7.4,M,7.0,M,,*52
$GNGSA,A,3,,,,,,,,,,,,,6.80,1.92,6.52,1*04
$GNGSA,A,3,,,,,,,,,,,,,6.80,1.92,6.52,3*06
$GNGSA,A,3,04,09,01,06,02,13,,,,,,,6.80,1.92,6.52,4*0B
$GPGSV,4,1,13,01,00,121,,02,33,300,,04,52,247,,07,84,120,,0*6A
$GPGSV,4,2,13,08,47,207,,10,01,310,,13,50,031,,16,01,039,,0*64
$GPGSV,4,3,13,20,23,121,,23,28,057,,25,67,043,,27,18,219,,0*6F
$GPGSV,4,4,13,28,00,182,,0*56
$GAGSV,2,1,08,09,14,317,,10,64,334,,11,56,118,,12,07,130,,0*7C
$GAGSV,2,2,08,17,31,040,,23,38,222,,24,86,022,,27,31,126,,0*7E
$GBGSV,3,1,09,01,38,122,46,02,50,173,47,04,36,126,46,06,37,216,46,0*77
$GBGSV,3,2,09,09,37,287,46,11,18,131,,12,10,061,,13,49,203,47,0*7F
$GBGSV,3,3,09,14,09,165,,0*40
$GNGLL,3000.10671,N,12000.02528,E,000108.00,A,A*72

$GNRMC,000109.00,A,3000.12572,N,12000.03564,E,75.600,27.61,230721,5.69,W,A,V*45
$GNVTG,27.61,T,33.30,M,75.600,N,140.011,K,A*0D
$GNGGA,000109.00,3000.12572,N,12000.03564,E,1,06,1.92,-7.4,M,7.0,M,,*58
$GNGSA,A,3,,,,,,,,,,,,,6.80,1.92,6.52,1*04
$GNGSA,A,3,,,,,,,,,,,,,6.80,1.92,6.52,3*06
$GNGSA,A,3,04,09,01,06,02,13,,,,,,,6.80,1.92,6.52,4*0B
$GPGSV,4,1,13,01,00,121,,02,33,300,,04,52,247,,07,84,120,,0*6A
$GPGSV,4,2,13,08,47,207,,10,01,310,,13,50,031,,16,01,039,,0*64
$GPGSV,4,3,13,20,23,121,,23,28,057,,25,67,043,,27,18,219,,0*6F
$GPGSV,4,4,13,28,00,182,,0*56
$GAGSV,2,1,08,09,14,317,,10,64,334,,11,56,118,,12,07,130,,0*7C
$GAGSV,2,2,08,17,31,040,,23,38,222,,24,86,022,,27,31,126,,0*7E
$GBGSV,3,1,09,01,38,122,46,02,50,173,47,04,36,126,46,06,37,216,47,0*76
$GBGSV,3,2,09,09,37,287,46,11,18,131,,12,10,061,,13,49,203,47,0*7F
$GBGSV,3,3,09,14,09,165,,0*40
$GNGLL,3000.12572,N,12000.03564,E,000109.00,A,A*78

$GNRMC,000110.00,A,3000.14397,N,12000.04766,E,75.584,32.06,230721,5.69,W,A,V*4B
$GNVTG,32.06,T,37.75,M,75.584,N,139.982,K,A*0F
$GNGGA,000110.00,3000.14397,N,12000.04766,E,1,07,1.90,-7.4,M,7.0,M,,*5F
$GNGSA,A,3,,,,,,,,,,,,,5.02,1.90,4.64,1*08
$GNGSA,A,3,,,,,,,,,,,,,5.02,1.90,4.64,3*0A
$GNGSA,A,3,04,09,01,06,12,02,13,,,,,,5.02,1.90,4.64,4*04
$GPGSV,4,1,13,01,00,121,,02,33,300,,04,52,247,,07,84,120,,0*6A
$GPGSV,4,2,13,08,47,207,,10,01,310,,13,50,031,,16,01,039,,0*64
$GPGSV,4,3,13,20,23,121,,23,28,057,,25,67,043,,27,18,219,,0*6F
$GPGSV,4,4,13,28,00,182,,0*56
$GAGSV,2,1,08,09,14,317,,10,64,334,,11,56,118,,12,07,130,,0*7C
$GAGSV,2,2,08,17,31,040,,23,38,222,,24,86,022,,27,31,126,,0*7E
$GBGSV,3,1,09,01,38,122,46,02,50,173,47,04,36,126,46,06,37,216,46,0*77
$GBGSV,3,2,09,09,37,287,46,11,18,131,,12,10,061,46,13,49,203,47,0*7D
$GBGSV,3,3,09,14,09,165,,0*40
$GNGLL,3000.14397,N,12000.04766,E,000110.00,A,A*7C

$GNRMC,000111.00,A,3000.16134,N,12000.06127,E,75.597,36.51,230721,5.69,W,A,V*46
$GNVTG,36.51,T,42.19,M,75.597,N,140.005,K,A*0B
$GNGGA,000111.00,3000.16134,N,12000.06127,E,1,07,1.90,-7.3,M,7.0,M,,*51
$GNGSA,A,3,,,,,,,,,,,,,5.02,1.90,4.64,1*08
$GNGSA,A,3,,,,,,,,,,,,,5.02,1.90,4.64,3*0A
$GNGSA,A,3,04,09,01,06,12,02,13,,,,,,5.02,1.90,4.64,4*04
$GPGSV,4,1,13,01,00,121,,02,33,300,,04,52,247,,07,84,120,,0*6A
$GPGSV,4,2,13,08,47,207,,10,01,310,,13,50,031,,16,01,039,,0*64
$GPGSV,4,3,13,20,23,121,,23,28,057,,25,67,043,,27,18,219,,0*6F
$GPGSV,4,4,13,28,00,182,,0*56
$GAGSV,2,1,08,09,14,317,,10,64,334,,11,56,118,,12,07,130,,0*7C
$GAGSV,2,2,08,17,31,040,,23,39,223,,24,86,022,,27,31,126,,0*7E
$GBGSV,3,1,09,01,38,122,46,02,50,173,47,04,36,126,46,06,37,216,46,0*77
$GBGSV,3,2,09,09,37,287,46,11,18,131,,12,10,061,46,13,49,203,47,0*7D
$GBGSV,3,3,09,14,09,165,,0*40
$GNGLL,3000.16134,N,12000.06127,E,000111.00,A,A*75

$GNRMC,000112.00,A,3000.17774,N,12000.07639,E,75.582,40.97,230721,5.69,W,A,V*40
$GNVTG,40.97,T,46.66,M,75.582,N,139.979,K,A*04
$GNGGA,000112.00,3000.17774,N,12000.07639,E,1,07,1.90,-7.3,M,7.0,M,,*58
$GNGSA,A,3,,,,,,,,,,,,,5.02,1.90,4.64,1*08
$GNGSA,A,3,,,,,,,,,,,,,5.02,1.90,4.64,3*0A
$GNGSA,A,3,04,09,01,06,12,02,13,,,,,,5.02,1.90,4.64,4*04
$GPGSV,4,1,13,01,00,121,,02,33,300,,04,52,247,,07,84,120,,0*6A
$GPGSV,4,2,13,08,47,207,,10,01,310,,13,50,031,,16,01,039,,0*64
$GPGSV,4,3,13,20,23,121,,23,28,057,,25,67,043,,27,18,219,,0*6F
$GPGSV,4,4,13,28,00,182,,0*56
$GAGSV,2,1,08,09,14,317,,10,64,334,,11,56,118,,12,07,130,,0*7C
$GAGSV,2,2,08,17,31,040,,23,39,223,,24,85,021,,27,31,126,,0*7E
$GBGSV,3,1,09,01,38,122,46,02,50,173,47,04,36,126,46,06,37,216,46,0*77
$GBGSV,3,2,09,09,37,287,46,11,18,131,,12,10,061,46,13,49,203,47,0*7D
$GBGSV,3,3,09,14,09,165,,0*40
$GNGLL,3000.17774,N,12000.07639,E,000112.00,A,A*7C

$GNRMC,000113.00,A,3000.19308,N,12000.09294,E,75.580,45.43,230721,5.69,W,A,V*43
$GNVTG,45.43,T,51.11,M,75.580,N,139.975,K,A*00
$GNGGA,000113.00,3000.19308,N,12000.09294,E,1,07,1.90,-7.3,M,7.0,M,,*55
$GNGSA,A,3,,,,,,,,,,,,,5.02,1.90,4.64,1*08
$GNGSA,A,3,,,,,,,,,,,,,5.02,1.90,4.64,3*0A
$GNGSA,A,3,04,09,01,06,12,02,13,,,,,,5.02,1.90,4.64,4*04
$GPGSV,4,1,13,01,00,121,,02,33,300,,04,52,247,,07,84,120,,0*6A
$GPGSV,4,2,13,08,47,207,,10,01,310,,13,50,031,,16,01,039,,0*64
$GPGSV,4,3,13,20,23,121,,23,28,057,,25,67,043,,27,18,219,,0*6F
$GPGSV,4,4,13,28,00,182,,0*56
$GAGSV,2,1,08,09,14,317,,10,64,334,,11,56,118,,12,07,130,,0*7C
$GAGSV,2,2,08,17,31,040,,23,39,223,,24,85,021,,27,31,126,,0*7E
$GBGSV,3,1,09,01,38,122,46,02,50,173,47,04,36,126,47,06,37,216,46,0*76
$GBGSV,3,2,09,09,37,287,46,11,18,131,,12,10,061,46,13,49,203,47,0*7D
$GBGSV,3,3,09,14,09,165,,0*40
$GNGLL,3000.19308,N,12000.09294,E,000113.00,A,A*71

$GNRMC,000114.00,A,3000.20723,N,12000.11079,E,75.585,49.89,230721,5.69,W,A,V*44
$GNVTG,49.89,T,55.58,M,75.585,N,139.983,K,A*0F
$GNGGA,000114.00,3000.20723,N,12000.11079,E,1,07,1.90,-7.3,M,7.0,M,,*5D
$GNGSA,A,3,,,,,,,,,,,,,5.02,1.90,4.64,1*08
$GNGSA,A,3,,,,,,,,,,,,,5.02,1.90,4.64,3*0A
$GNGSA,A,3,04,09,01,06,12,02,13,,,,,,5.02,1.90,4.64,4*04
$GPGSV,4,1,13,01,00,121,,02,33,300,,04,52,247,,07,84,120,,0*6A
$GPGSV,4,2,13,08,47,207,,10,01,310,,13,50,031,,16,01,039,,0*64
$GPGSV,4,3,13,20,23,121,,23,28,057,,25,67,043,,27,18,219,,0*6F
$GPGSV,4,4,13,28,00,182,,0*56
$GAGSV,2,1,08,09,14,317,,10,64,334,,11,56,118,,12,07,130,,0*7C
$GAGSV,2,2,08,17,31,040,,23,39,223,,24,85,021,,27,31,126,,0*7E
$GBGSV,3,1,09,01,38,122,46,02,50,173,47,04,36,126,47,06,37,216,46,0*76
$GBGSV,3,2,09,09,37,287,46,11,18,131,,12,10,061,46,13,49,203,47,0*7D
$GBGSV,3,3,09,14,09,165,,0*40
$GNGLL,3000.20723,N,12000.11079,E,000114.00,A,A*79

$GNRMC,000115.00,A,3000.22015,N,12000.12987,E,75.604,54.34,230721,5.69,W,A,V*4E
$GNVTG,54.34,T,60.03,M,75.604,N,140.018,K,A*02
$GNGGA,000115.00,3000.22015,N,12000.12987,E,1,07,1.90,-7.4,M,7.0,M,,*50
$GNGSA,A,3,,,,,,,,,,,,,5.01,1.90,4.64,1*0B
$GNGSA,A,3,,,,,,,,,,,,,5.01,1.90,4.64,3*09
$GNGSA,A,3,04,09,01,06,12,02,13,,,,,,5.01,1.90,4.64,4*07
$GPGSV,4,1,13,01,00,121,,02,33,300,,04,52,247,,07,84,120,,0*6A
$GPGSV,4,2,13,08,47,207,,10,01,310,,13,50,031,,16,01,039,,0*64
$GPGSV,4,3,13,20,23,121,,23,28,057,,25,67,043,,27,18,219,,0*6F
$GPGSV,4,4,13,28,00,182,,0*56
$GAGSV,2,1,08,09,14,317,,10,64,334,,11,56,118,,12,07,130,,0*7C
$GAGSV,2,2,08,17,31,040,,23,39,223,,24,85,021,,27,30,126,,0*7F
$GBGSV,3,1,09,01,38,122,46,02,50,173,47,04,36,126,46,06,37,216,46,0*77
$GBGSV,3,2,09,09,37,287,46,11,18,131,,12,10,061,46,13,49,203,47,0*7D
$GBGSV,3,3,09,14,09,165,,0*40
$GNGLL,3000.22015,N,12000.12987,E,000115.00,A,A*73

$GNRMC,000116.00,A,3000.23175,N,12000.15004,E,75.607,58.79,230721,5.69,W,A,V*48
$GNVTG,58.79,T,64.48,M,75.607,N,140.024,K,A*00
$GNGGA,000116.00,3000.23175,N,12000.15004,E,1,07,1.90,-7.4,M,7.0,M,,*50
$GNGSA,A,3,,,,,,,,,,,,,5.01,1.90,4.64,1*0B
$GNGSA,A,3,,,,,,,,,,,,,5.01,1.90,4.64,3*09
$GNGSA,A,3,04,09,01,06,12,02,13,,,,,,5.01,1.90,4.64,4*07
$GPGSV,4,1,13,01,00,121,,02,33,300,,04,52,247,,07,84,120,,0*6A
$GPGSV,4,2,13,08,47,207,,10,01,310,,13,50,031,,16,01,039,,0*64
$GPGSV,4,3,13,20,23,121,,23,28,057,,25,67,043,,27,18,219,,0*6F
$GPGSV,4,4,13,28,00,182,,0*56
$GAGSV,2,1,08,09,14,317,,10,64,334,,11,56,118,,12,07,130,,0*7C
$GAGSV,2,2,08,17,31,040,,23,39,223,,24,85,021,,27,30,126,,0*7F
$GBGSV,3,1,09,01,38,122,46,02,50,173,47,04,36,126,47,06,37,216,47,0*77
$GBGSV,3,2,09,09,37,287,46,11,18,131,,12,10,061,46,13,49,203,47,0*7D
$GBGSV,3,3,09,14,09,165,,0*40
$GNGLL,3000.23175,N,12000.15004,E,000116.00,A,A*73

$GNRMC,000117.00,A,3000.24193,N,12000.17118,E,75.588,63.25,230721,5.69,W,A,V*4D
$GNVTG,63.25,T,68.94,M,75.588,N,139.990,K,A*00
$GNGGA,000117.00,3000.24193,N,12000.17118,E,1,07,1.90,-7.5,M,7.0,M,,*51
$GNGSA,A,3,,,,,,,,,,,,,5.01,1.90,4.64,1*0B
$GNGSA,A,3,,,,,,,,,,,,,5.01,1.90,4.64,3*09
$GNGSA,A,3,04,09,01,06,12,02,13,,,,,,5.01,1.90,4.64,4*07
$GPGSV,4,1,13,01,00,121,,02,33,300,,04,52,247,,07,84,120,,0*6A
$GPGSV,4,2,13,08,47,207,,10,01,310,,13,50,031,,16,01,039,,0*64
$GPGSV,4,3,13,20,23,121,,23,28,057,,25,67,043,,27,18,219,,0*6F
$GPGSV,4,4,13,28,00,182,,0*56
$GAGSV,2,1,08,09,14,317,,10,64,334,,11,56,118,,12,07,130,,0*7C
$GAGSV,2,2,08,17,31,040,,23,39,223,,24,85,021,,27,30,126,,0*7F
$GBGSV,3,1,09,01,38,122,46,02,50,173,47,04,36,126,47,06,37,216,47,0*77
$GBGSV,3,2,09,09,37,287,47,11,18,131,,12,10,061,46,13,49,203,47,0*7C
$GBGSV,3,3,09,14,09,165,,0*40
$GNGLL,3000.24193,N,12000.17118,E,000117.00,A,A*73

$GNRMC,000118.00,A,3000.25067,N,12000.19317,E,75.592,67.71,230721,5.69,W,A,V*44
$GNVTG,67.71,T,73.39,M,75.592,N,139.997,K,A*04
$GNGGA,000118.00,3000.25067,N,12000.19317,E,1,07,1.90,-7.5,M,7.0,M,,*56
$GNGSA,A,3,,,,,,,,,,,,,5.01,1.90,4.64,1*0B
$GNGSA,A,3,,,,,,,,,,,,,5.01,1.90,4.64,3*09
$GNGSA,A,3,04,09,01,06,12,02,13,,,,,,5.01,1.90,4.64,4*07
$GPGSV,4,1,13,01,00,121,,02,33,300,,04,52,247,,07,84,120,,0*6A
$GPGSV,4,2,13,08,47,207,,10,01,310,,13,50,031,,16,01,039,,0*64
$GPGSV,4,3,13,20,23,121,,23,28,057,,25,67,043,,27,18,219,,0*6F
$GPGSV,4,4,13,28,00,182,,0*56
$GAGSV,2,1,08,09,14,317,,10,64,334,,11,56,118,,12,07,130,,0*7C
$GAGSV,2,2,08,17,31,040,,23,39,223,,24,85,021,,27,30,126,,0*7F
$GBGSV,3,1,09,01,38,122,46,02,50,173,47,04,36,126,46,06,37,216,47,0*76
$GBGSV,3,2,09,09,37,287,46,11,18,131,,12,10,061,46,13,49,203,47,0*7D
$GBGSV,3,3,09,14,09,165,,0*40
$GNGLL,3000.25067,N,12000.19317,E,000118.00,A,A*74

$GNRMC,000119.00,A,3000.25789,N,12000.21587,E,75.617,72.16,230721,5.69,W,A,V*4D
$GNVTG,72.16,T,77.85,M,75.617,N,140.043,K,A*02
$GNGGA,000119.00,3000.25789,N,12000.21587,E,1,07,1.90,-7.5,M,7.0,M,,*54
$GNGSA,A,3,,,,,,,,,,,,,5.01,1.90,4.64,1*0B
$GNGSA,A,3,,,,,,,,,,,,,5.01,1.90,4.64,3*09
$GNGSA,A,3,04,09,01,06,12,02,13,,,,,,5.01,1.90,4.64,4*07
$GPGSV,4,1,13,01,00,121,,02,33,300,,04,52,247,,07,84,120,,0*6A
$GPGSV,4,2,13,08,47,207,,10,01,310,,13,50,031,,16,01,039,,0*64
$GPGSV,4,3,13,20,23,121,,23,28,057,,25,67,043,,27,18,219,,0*6F
$GPGSV,4,4,13,28,00,182,,0*56
$GAGSV,2,1,08,09,14,317,,10,64,334,,11,56,118,,12,07,130,,0*7C
$GAGSV,2,2,08,17,31,040,,23,39,223,,24,85,021,,27,30,126,,0*7F
$GBGSV,3,1,09,01,38,122,46,02,50,173,47,04,36,126,47,06,37,216,46,0*76
$GBGSV,3,2,09,09,37,287,46,11,18,131,,12,10,061,46,13,49,203,47,0*7D
$GBGSV,3,3,09,14,09,165,,0*40
$GNGLL,3000.25789,N,12000.21587,E,000119.00,A,A*76

$GNRMC,000120.00,A,3000.26354,N,12000.23914,E,75.613,76.61,230721,5.69,W,A,V*44
$GNVTG,76.61,T,82.29,M,75.613,N,140.035,K,A*0F
$GNGGA,000120.00,3000.26354,N,12000.23914,E,1,07,1.90,-7.6,M,7.0,M,,*5E
$GNGSA,A,3,,,,,,,,,,,,,5.01,1.90,4.64,1*0B
$GNGSA,A,3,,,,,,,,,,,,,5.01,1.90,4.64,3*09
$GNGSA,A,3,04,09,01,06,12,02,13,,,,,,5.01,1.90,4.64,4*07
$GPGSV,4,1,13,01,00,121,,02,33,300,,04,52,247,,07,84,120,,0*6A
$GPGSV,4,2,13,08,47,207,,10,01,310,,13,50,031,,16,01,039,,0*64
$GPGSV,4,3,13,20,23,121,,23,28,057,,25,67,043,,27,18,219,,0*6F
$GPGSV,4,4,13,28,00,182,,0*56
$GAGSV,2,1,08,09,14,317,,10,64,334,,11,56,118,,12,07,130,,0*7C
$GAGSV,2,2,08,17,31,040,,23,39,223,,24,85,021,,27,30,126,,0*7F
$GBGSV,3,1,09,01,38,122,46,02,50,173,47,04,36,126,46,06,37,216,47,0*76
$GBGSV,3,2,09,09,37,287,47,11,18,131,,12,10,061,46,13,49,203,47,0*7C
$GBGSV,3,3,09,14,09,165,,0*40
$GNGLL,3000.26354,N,12000.23914,E,000120.00,A,A*7F

$GNRMC,000121.00,A,3000.26762,N,12000.26286,E,75.599,81.07,230721,5.69,W,A,V*48
$GNVTG,81.07,T,86.76,M,75.599,N,140.009,K,A*07
$GNGGA,000121.00,3000.26762,N,12000.26286,E,1,07,1.90,-7.6,M,7.0,M,,*5B
$GNGSA,A,3,,,,,,,,,,,,,5.01,1.90,4.64,1*0B
$GNGSA,A,3,,,,,,,,,,,,,5.01,1.90,4.64,3*09
$GNGSA,A,3,04,09,01,06,12,02,13,,,,,,5.01,1.90,4.64,4*07
$GPGSV,4,1,13,01,00,121,,02,33,300,,04,52,247,,07,84,120,,0*6A
$GPGSV,4,2,13,08,47,207,,10,01,310,,13,50,031,,16,01,039,,0*64
$GPGSV,4,3,13,20,23,121,,23,28,057,,25,67,043,,27,18,219,,0*6F
$GPGSV,4,4,13,28,00,182,,0*56
$GAGSV,2,1,08,09,14,317,,10,64,334,,11,56,118,,12,07,130,,0*7C
$GAGSV,2,2,08,17,31,040,,23,39,223,,24,85,021,,27,30,126,,0*7F
$GBGSV,3,1,09,01,38,122,47,02,50,173,47,04,36,126,47,06,37,216,46,0*77
$GBGSV,3,2,09,09,37,287,47,11,18,131,,12,10,061,46,13,49,203,47,0*7C
$GBGSV,3,3,09,14,09,165,,0*40
$GNGLL,3000.26762,N,12000.26286,E,000121.00,A,A*7A

$GNRMC,000122.00,A,3000.27008,N,12000.28686,E,75.594,85.53,230721,5.69,W,A,V*43
$GNVTG,85.53,T,91.22,M,75.594,N,140.001,K,A*00
$GNGGA,000122.00,3000.27008,N,12000.28686,E,1,07,1.90,-7.6,M,7.0,M,,*58
$GNGSA,A,3,,,,,,,,,,,,,5.01,1.90,4.64,1*0B
$GNGSA,A,3,,,,,,,,,,,,,5.01,1.90,4.64,3*09
$GNGSA,A,3,04,09,01,06,12,02,13,,,,,,5.01,1.90,4.64,4*07
$GPGSV,4,1,13,01,00,121,,02,33,300,,04,52,247,,07,84,120,,0*6A
$GPGSV,4,2,13,08,47,207,,10,01,310,,13,50,031,,16,01,039,,0*64
$GPGSV,4,3,13,20,23,121,,23,28,057,,25,67,043,,27,18,219,,0*6F
$GPGSV,4,4,13,28,00,182,,0*56
$GAGSV,2,1,08,09,14,317,,10,64,334,,11,56,118,,12,07,130,,0*7C
$GAGSV,2,2,08,17,31,040,,23,39,223,,24,85,021,,27,30,126,,0*7F
$GBGSV,3,1,09,01,38,122,46,02,50,173,47,04,36,126,46,06,37,216,46,0*77
$GBGSV,3,2,09,09,37,287,46,11,18,131,,12,10,061,46,13,49,203,47,0*7D
$GBGSV,3,3,09,14,09,165,,0*40
$GNGLL,3000.27008,N,12000.28686,E,000122.00,A,A*79

$GNRMC,000123.00,A,3000.27090,N,12000.31101,E,75.592,89.99,230721,5.69,W,A,V*4F
$GNVTG,89.99,T,95.68,M,75.592,N,139.996,K,A*0F
$GNGGA,000123.00,3000.27090,N,12000.31101,E,1,07,1.90,-7.6,M,7.0,M,,*58
$GNGSA,A,3,,,,,,,,,,,,,5.01,1.90,4.64,1*0B
$GNGSA,A,3,,,,,,,,,,,,,5.01,1.90,4.64,3*09
$GNGSA,A,3,04,09,01,06,12,02,13,,,,,,5.01,1.90,4.64,4*07
$GPGSV,4,1,13,01,00,121,,02,33,300,,04,52,247,,07,84,120,,0*6A
$GPGSV,4,2,13,08,47,207,,10,01,310,,13,50,031,,16,01,039,,0*64
$GPGSV,4,3,13,20,23,121,,23,28,057,,25,67,043,,27,18,219,,0*6F
$GPGSV,4,4,13,28,00,182,,0*56
$GAGSV,2,1,08,09,14,317,,10,64,334,,11,56,118,,12,07,130,,0*7C
$GAGSV,2,2,08,17,31,040,,23,39,223,,24,85,021,,27,30,126,,0*7F
$GBGSV,3,1,09,01,38,122,46,02,50,173,47,04,36,126,47,06,37,216,47,0*77
$GBGSV,3,2,09,09,37,287,46,11,18,131,,12,10,061,46,13,49,203,47,0*7D
$GBGSV,3,3,09,14,09,165,,0*40
$GNGLL,3000.27090,N,12000.31101,E,000123.00,A,A*79

$GNRMC,000124.00,A,3000.27009,N,12000.33516,E,75.602,94.42,230721,5.69,W,A,V*48
$GNVTG,94.42,T,100.11,M,75.602,N,140.015,K,A*30
$GNGGA,000124.00,3000.27009,N,12000.33516,E,1,06,1.92,-7.6,M,7.0,M,,*5C
$GNGSA,A,3,,,,,,,,,,,,,6.79,1.92,6.52,1*02
$GNGSA,A,3,,,,,,,,,,,,,6.79,1.92,6.52,3*00
$GNGSA,A,3,04,09,01,06,02,13,,,,,,,6.79,1.92,6.52,4*0D
$GPGSV,4,1,13,01,00,121,,02,33,300,,04,52,247,,07,84,120,,0*6A
$GPGSV,4,2,13,08,47,207,,10,01,310,,13,50,031,,16,01,039,,0*64
$GPGSV,4,3,13,20,23,121,,23,28,057,,25,67,043,,27,18,219,,0*6F
$GPGSV,4,4,13,28,00,182,,0*56
$GAGSV,2,1,08,09,14,317,,10,64,334,,11,56,118,,12,07,130,,0*7C
$GAGSV,2,2,08,17,31,040,,23,39,223,,24,85,021,,27,30,126,,0*7F
$GBGSV,3,1,09,01,38,122,46,02,50,173,47,04,36,126,46,06,37,216,46,0*77
$GBGSV,3,2,09,09,37,287,46,11,18,131,,12,10,061,,13,49,203,47,0*7F
$GBGSV,3,3,09,14,09,165,,0*40
$GNGLL,3000.27009,N,12000.33516,E,000124.00,A,A*7E

$GNRMC,000125.00,A,3000.26765,N,12000.35917,E,75.594,98.89,230721,5.69,W,A,V*49
$GNVTG,98.89,T,104.58,M,75.594,N,140.000,K,A*3A
$GNGGA,000125.00,3000.26765,N,12000.35917,E,1,06,1.91,-7.5,M,7.0,M,,*5A
$GNGSA,A,3,,,,,,,,,,,,,6.79,1.91,6.52,1*01
$GNGSA,A,3,,,,,,,,,,,,,6.79,1.91,6.52,3*03
$GNGSA,A,3,04,09,01,06,02,13,,,,,,,6.79,1.91,6.52,4*0E
$GPGSV,4,1,13,01,00,121,,02,33,300,,04,52,247,,07,84,120,,0*6A
$GPGSV,4,2,13,08,47,207,,10,01,310,,13,50,031,,16,01,039,,0*64
$GPGSV,4,3,13,20,23,121,,23,28,057,,25,67,043,,27,18,219,,0*6F
$GPGSV,4,4,13,28,00,182,,0*56
$GAGSV,2,1,08,09,14,317,,10,64,334,,11,56,118,,12,07,130,,0*7C
$GAGSV,2,2,08,17,31,040,,23,39,223,,24,85,021,,27,30,126,,0*7F
$GBGSV,3,1,09,01,38,122,46,02,50,173,47,04,36,126,46,06,37,216,46,0*77
$GBGSV,3,2,09,09,37,287,46,11,18,131,,12,10,061,,13,49,203,47,0*7F
$GBGSV,3,3,09,14,09,165,,0*40
$GNGLL,3000.26765,N,12000.35917,E,000125.00,A,A*78

$GNRMC,000126.00,A,3000.26360,N,12000.38288,E,75.592,103.32,230721,5.69,W,A,V*7E
$GNVTG,103.32,T,109.01,M,75.592,N,139.997,K,A*07
$GNGGA,000126.00,3000.26360,N,12000.38288,E,1,07,1.74,-7.4,M,7.0,M,,*53
$GNGSA,A,3,,,,,,,,,,,,,3.62,1.74,3.18,1*0E
$GNGSA,A,3,,,,,,,,,,,,,3.62,1.74,3.18,3*0C
$GNGSA,A,3,04,09,01,11,06,02,13,,,,,,3.62,1.74,3.18,4*01
$GPGSV,4,1,13,01,00,121,,02,33,300,,04,52,247,,07,84,120,,0*6A
$GPGSV,4,2,13,08,47,207,,10,01,310,,13,50,031,,16,01,039,,0*64
$GPGSV,4,3,13,20,23,121,,23,28,057,,25,67,043,,27,18,219,,0*6F
$GPGSV,4,4,13,28,00,182,,0*56
$GAGSV,2,1,08,09,14,317,,10,64,334,,11,56,118,,12,07,130,,0*7C
$GAGSV,2,2,08,17,31,040,,23,39,223,,24,85,021,,27,30,126,,0*7F
$GBGSV,3,1,09,01,38,122,46,02,50,173,47,04,36,126,46,06,37,216,46,0*77
$GBGSV,3,2,09,09,37,287,46,11,18,131,46,12,10,061,,13,49,203,47,0*7D
$GBGSV,3,3,09,14,09,165,,0*40
$GNGLL,3000.26360,N,12000.38288,E,000126.00,A,A*7A

$GNRMC,000127.00,A,3000.25795,N,12000.40616,E,75.594,107.78,230721,5.69,W,A,V*72
$GNVTG,107.78,T,113.47,M,75.594,N,140.001,K,A*0A
$GNGGA,000127.00,3000.25795,N,12000.40616,E,1,07,1.74,-7.4,M,7.0,M,,*53
$GNGSA,A,3,,,,,,,,,,,,,3.63,1.74,3.18,1*0F
$GNGSA,A,3,,,,,,,,,,,,,3.63,1.74,3.18,3*0D
$GNGSA,A,3,04,09,01,11,06,02,13,,,,,,3.63,1.74,3.18,4*00
$GPGSV,4,1,13,01,00,121,,02,33,300,,04,52,247,,07,84,120,,0*6A
$GPGSV,4,2,13,08,47,207,,10,01,310,,13,50,031,,16,01,039,,0*64
$GPGSV,4,3,13,20,23,121,,23,28,057,,25,67,043,,27,18,219,,0*6F
$GPGSV,4,4,13,28,00,182,,0*56
$GAGSV,2,1,08,09,14,317,,10,64,334,,11,56,118,,12,07,130,,0*7C
$GAGSV,2,2,08,17,31,040,,23,39,223,,24,85,021,,27,30,126,,0*7F
$GBGSV,3,1,09,01,38,122,46,02,50,173,47,04,36,126,46,06,37,216,47,0*76
$GBGSV,3,2,09,09,37,287,47,11,18,131,46,12,10,060,,13,49,203,47,0*7D
$GBGSV,3,3,09,14,09,165,,0*40
$GNGLL,3000.25795,N,12000.40616,E,000127.00,A,A*7A

$GNRMC,000128.00,A,3000.25077,N,12000.42886,E,75.591,112.25,230721,5.69,W,A,V*7A
$GNVTG,112.25,T,117.94,M,75.591,N,139.995,K,A*03
$GNGGA,000128.00,3000.25077,N,12000.42886,E,1,07,1.74,-7.2,M,7.0,M,,*54
$GNGSA,A,3,,,,,,,,,,,,,3.63,1.74,3.18,1*0F
$GNGSA,A,3,,,,,,,,,,,,,3.63,1.74,3.18,3*0D
$GNGSA,A,3,04,09,01,11,06,02,13,,,,,,3.63,1.74,3.18,4*00
$GPGSV,4,1,13,01,00,121,,02,33,300,,04,52,247,,07,84,120,,0*6A
$GPGSV,4,2,13,08,47,207,,10,01,310,,13,50,031,,16,01,039,,0*64
$GPGSV,4,3,13,20,23,121,,23,28,057,,25,67,043,,27,18,219,,0*6F
$GPGSV,4,4,13,28,00,182,,0*56
$GAGSV,2,1,08,09,14,317,,10,64,334,,11,56,118,,12,07,130,,0*7C
$GAGSV,2,2,08,17,31,040,,23,39,223,,24,85,021,,27,30,126,,0*7F
$GBGSV,3,1,09,01,38,122,46,02,50,173,47,04,36,126,46,06,37,216,46,0*77
$GBGSV,3,2,09,09,37,287,46,11,18,131,46,12,10,060,,13,48,202,47,0*7C
$GBGSV,3,3,09,14,09,165,,0*40
$GNGLL,3000.25077,N,12000.42886,E,000128.00,A,A*7B

$GNRMC,000129.00,A,3000.24206,N,12000.45086,E,75.609,116.73,230721,5.69,W,A,V*74
$GNVTG,116.73,T,122.41,M,75.609,N,140.028,K,A*09
$GNGGA,000129.00,3000.24206,N,12000.45086,E,1,07,1.74,-7.2,M,7.0,M,,*5F
$GNGSA,A,3,,,,,,,,,,,,,3.63,1.74,3.18,1*0F
$GNGSA,A,3,,,,,,,,,,,,,3.63,1.74,3.18,3*0D
$GNGSA,A,3,04,09,01,11,06,02,13,,,,,,3.63,1.74,3.18,4*00
$GPGSV,4,1,13,01,00,121,,02,33,300,,04,52,247,,07,84,120,,0*6A
$GPGSV,4,2,13,08,47,207,,10,01,310,,13,50,031,,16,01,039,,0*64
$GPGSV,4,3,13,20,23,121,,23,28,057,,25,67,043,,27,18,219,,0*6F
$GPGSV,4,4,13,28,00,182,,0*56
$GAGSV,2,1,08,09,14,317,,10,64,334,,11,56,118,,12,07,130,,0*7C
$GAGSV,2,2,08,17,31,040,,23,39,223,,24,85,021,,27,30,126,,0*7F
$GBGSV,3,1,09,01,38,122,46,02,50,173,47,04,36,126,46,06,37,216,46,0*77
$GBGSV,3,2,09,09,37,287,46,11,18,131,46,12,10,060,,13,48,202,47,0*7C
$GBGSV,3,3,09,14,09,165,,0*40
$GNGLL,3000.24206,N,12000.45086,E,000129.00,A,A*70

$GNRMC,000130.00,A,3000.23187,N,12000.47201,E,75.603,121.16,230721,5.69,W,A,V*73
$GNVTG,121.16,T,126.85,M,75.603,N,140.017,K,A*04
$GNGGA,000130.00,3000.23187,N,12000.47201,E,1,07,1.73,-7.2,M,7.0,M,,*52
$GNGSA,A,3,,,,,,,,,,,,,3.63,1.73,3.18,1*08
$GNGSA,A,3,,,,,,,,,,,,,3.63,1.73,3.18,3*0A
$GNGSA,A,3,04,09,01,11,06,02,13,,,,,,3.63,1.73,3.18,4*07
$GPGSV,4,1,13,01,00,121,,02,33,300,,04,52,247,,07,84,120,,0*6A
$GPGSV,4,2,13,08,47,207,,10,01,310,,13,50,031,,16,01,039,,0*64
$GPGSV,4,3,13,20,23,121,,23,28,057,,25,67,043,,27,18,219,,0*6F
$GPGSV,4,4,13,28,00,182,,0*56
$GAGSV,2,1,08,09,14,317,,10,64,334,,11,56,118,,12,07,130,,0*7C
$GAGSV,2,2,08,17,31,040,,23,39,223,,24,85,021,,27,30,126,,0*7F
$GBGSV,3,1,09,01,38,122,46,02,50,173,47,04,36,126,46,06,37,216,46,0*77
$GBGSV,3,2,09,09,37,287,46,11,18,131,46,12,10,060,,13,48,202,47,0*7C
$GBGSV,3,3,09,14,09,165,,0*40
$GNGLL,3000.23187,N,12000.47201,E,000130.00,A,A*7A

$GNRMC,000131.00,A,3000.22029,N,12000.49218,E,75.605,125.63,230721,5.69,W,A,V*70
$GNVTG,125.63,T,131.32,M,75.605,N,140.021,K,A*0B
$GNGGA,000131.00,3000.22029,N,12000.49218,E,1,07,1.73,-7.2,M,7.0,M,,*51
$GNGSA,A,3,,,,,,,,,,,,,3.63,1.73,3.19,1*09
$GNGSA,A,3,,,,,,,,,,,,,3.63,1.73,3.19,3*0B
$GNGSA,A,3,04,09,01,11,06,02,13,,,,,,3.63,1.73,3.19,4*06
$GPGSV,4,1,13,01,00,121,,02,33,300,,04,52,247,,07,84,120,,0*6A
$GPGSV,4,2,13,08,47,207,,10,01,310,,13,50,031,,16,01,039,,0*64
$GPGSV,4,3,13,20,23,121,,23,28,057,,25,67,043,,27,18,219,,0*6F
$GPGSV,4,4,13,28,00,182,,0*56
$GAGSV,2,1,08,09,14,317,,10,64,334,,11,56,118,,12,07,130,,0*7C
$GAGSV,2,2,08,17,31,040,,23,39,223,,24,85,021,,27,30,126,,0*7F
$GBGSV,3,1,09,01,38,122,46,02,50,173,47,04,36,126,47,06,37,216,46,0*76
$GBGSV,3,2,09,09,37,287,47,11,18,131,46,12,10,060,,13,48,202,47,0*7D
$GBGSV,3,3,09,14,09,165,,0*40
$GNGLL,3000.22029,N,12000.49218,E,000131.00,A,A*79

$GNRMC,000132.00,A,3000.20738,N,12000.51126,E,75.598,130.08,230721,5.69,W,A,V*7F
$GNVTG,130.08,T,135.77,M,75.598,N,140.007,K,A*04
$GNGGA,000132.00,3000.20738,N,12000.51126,E,1,07,1.73,-7.1,M,7.0,M,,*53
$GNGSA,A,3,,,,,,,,,,,,,3.63,1.73,3.19,1*09
$GNGSA,A,3,,,,,,,,,,,,,3.63,1.73,3.19,3*0B
$GNGSA,A,3,04,09,01,11,06,02,13,,,,,,3.63,1.73,3.19,4*06
$GPGSV,4,1,13,01,00,121,,02,33,300,,04,52,247,,07,84,120,,0*6A
$GPGSV,4,2,13,08,47,207,,10,01,310,,13,50,031,,16,01,039,,0*64
$GPGSV,4,3,13,20,23,121,,23,28,057,,25,67,043,,27,18,219,,0*6F
$GPGSV,4,4,13,28,00,182,,0*56
$GAGSV,2,1,08,09,14,317,,10,64,334,,11,56,118,,12,07,130,,0*7C
$GAGSV,2,2,08,17,31,040,,23,39,223,,24,85,021,,27,30,126,,0*7F
$GBGSV,3,1,09,01,38,122,46,02,50,173,47,04,36,126,46,06,37,216,46,0*77
$GBGSV,3,2,09,09,37,287,46,11,18,131,46,12,10,060,,13,48,202,47,0*7C
$GBGSV,3,3,09,14,09,165,,0*40
$GNGLL,3000.20738,N,12000.51126,E,000132.00,A,A*78

$GNRMC,000133.00,A,3000.19322,N,12000.52913,E,75.591,134.54,230721,5.69,W,A,V*72
$GNVTG,134.54,T,140.23,M,75.591,N,139.994,K,A*0E
$GNGGA,000133.00,3000.19322,N,12000.52913,E,1,07,1.73,-7.1,M,7.0,M,,*5A
$GNGSA,A,3,,,,,,,,,,,,,3.63,1.73,3.19,1*09
$GNGSA,A,3,,,,,,,,,,,,,3.63,1.73,3.19,3*0B
$GNGSA,A,3,04,09,01,11,06,02,13,,,,,,3.63,1.73,3.19,4*06
$GPGSV,4,1,13,01,00,121,,02,33,300,,04,52,247,,07,84,120,,0*6A
$GPGSV,4,2,13,08,47,207,,10,01,310,,13,50,031,,16,01,039,,0*64
$GPGSV,4,3,13,20,23,121,,23,28,057,,25,67,043,,27,18,219,,0*6F
$GPGSV,4,4,13,28,00,182,,0*56
$GAGSV,2,1,08,09,14,317,,10,64,334,,11,56,118,,12,07,130,,0*7C
$GAGSV,2,2,08,17,31,040,,23,39,223,,24,85,021,,27,30,126,,0*7F
$GBGSV,3,1,09,01,38,122,46,02,50,173,47,04,36,126,47,06,37,216,46,0*76
$GBGSV,3,2,09,09,37,287,46,11,18,131,46,12,10,060,,13,48,202,47,0*7C
$GBGSV,3,3,09,14,09,165,,0*40
$GNGLL,3000.19322,N,12000.52913,E,000133.00,A,A*71

$GNRMC,000134.00,A,3000.17789,N,12000.54568,E,75.583,138.98,230721,5.69,W,A,V*77
$GNVTG,138.98,T,144.67,M,75.583,N,139.979,K,A*06
$GNGGA,000134.00,3000.17789,N,12000.54568,E,1,07,1.73,-7.1,M,7.0,M,,*50
$GNGSA,A,3,,,,,,,,,,,,,3.63,1.73,3.19,1*09
$GNGSA,A,3,,,,,,,,,,,,,3.63,1.73,3.19,3*0B
$GNGSA,A,3,04,09,01,11,06,02,13,,,,,,3.63,1.73,3.19,4*06
$GPGSV,3,1,12,02,33,300,,04,52,247,,07,84,120,,08,47,207,,0*61
$GPGSV,3,2,12,10,01,310,,13,50,031,,16,01,039,,20,23,121,,0*6D
$GPGSV,3,3,12,23,28,057,,25,67,043,,27,18,219,,28,00,182,,0*69
$GAGSV,2,1,08,09,14,317,,10,64,334,,11,56,118,,12,07,130,,0*7C
$GAGSV,2,2,08,17,31,040,,23,39,223,,24,85,021,,27,30,126,,0*7F
$GBGSV,3,1,09,01,38,122,46,02,50,173,47,04,36,126,46,06,37,216,46,0*77
$GBGSV,3,2,09,09,37,287,46,11,18,131,46,12,10,060,,13,48,202,47,0*7C
$GBGSV,3,3,09,14,09,165,46,0*42
$GNGLL,3000.17789,N,12000.54568,E,000134.00,A,A*7B

$GNRMC,000135.00,A,3000.16148,N,12000.56081,E,75.576,143.44,230721,5.69,W,A,V*7B
$GNVTG,143.44,T,149.13,M,75.576,N,139.968,K,A*0F
$GNGGA,000135.00,3000.16148,N,12000.56081,E,1,07,1.73,-7.1,M,7.0,M,,*5B
$GNGSA,A,3,,,,,,,,,,,,,3.63,1.73,3.19,1*09
$GNGSA,A,3,,,,,,,,,,,,,3.63,1.73,3.19,3*0B
$GNGSA,A,3,04,09,01,11,06,02,13,,,,,,3.63,1.73,3.19,4*06
$GPGSV,3,1,12,02,33,299,,04,52,247,,07,84,120,,08,47,207,,0*60
$GPGSV,3,2,12,10,01,310,,13,50,031,,16,01,039,,20,23,121,,0*6D
$GPGSV,3,3,12,23,28,057,,25,67,043,,27,18,219,,28,00,182,,0*69
$GAGSV,2,1,08,09,14,317,,10,64,334,,11,56,118,,12,07,130,,0*7C
$GAGSV,2,2,08,17,31,040,,23,39,223,,24,85,021,,27,30,126,,0*7F
$GBGSV,3,1,09,01,38,122,46,02,50,173,47,04,36,126,46,06,37,216,46,0*77
$GBGSV,3,2,09,09,37,287,46,11,18,131,46,12,10,060,,13,48,202,47,0*7C
$GBGSV,3,3,09,14,09,165,46,0*42
$GNGLL,3000.16148,N,12000.56081,E,000135.00,A,A*70

$GNRMC,000136.00,A,3000.14410,N,12000.57443,E,75.567,147.90,230721,5.69,W,A,V*74
$GNVTG,147.90,T,153.59,M,75.567,N,139.949,K,A*04
$GNGGA,000136.00,3000.14410,N,12000.57443,E,1,07,1.73,-7.2,M,7.0,M,,*5A
$GNGSA,A,3,,,,,,,,,,,,,3.63,1.73,3.19,1*09
$GNGSA,A,3,,,,,,,,,,,,,3.63,1.73,3.19,3*0B
$GNGSA,A,3,04,09,01,11,06,02,13,,,,,,3.63,1.73,3.19,4*06
$GPGSV,3,1,12,02,33,299,,04,52,247,,07,84,120,,08,47,207,,0*60
$GPGSV,3,2,12,10,01,310,,13,50,031,,16,01,039,,20,23,121,,0*6D
$GPGSV,3,3,12,23,28,057,,25,67,043,,27,18,219,,28,00,182,,0*69
$GAGSV,2,1,08,09,14,317,,10,64,334,,11,56,118,,12,07,130,,0*7C
$GAGSV,2,2,08,17,31,040,,23,39,223,,24,85,021,,27,30,126,,0*7F
$GBGSV,3,1,09,01,38,122,46,02,50,173,47,04,36,126,46,06,37,216,46,0*77
$GBGSV,3,2,09,09,37,287,46,11,18,131,46,12,10,060,,13,48,202,47,0*7C
$GBGSV,3,3,09,14,09,165,46,0*42
$GNGLL,3000.14410,N,12000.57443,E,000136.00,A,A*72

$GNRMC,000137.00,A,3000.12584,N,12000.58646,E,75.507,152.32,230721,5.69,W,A,V*7D
$GNVTG,152.32,T,158.01,M,75.507,N,139.838,K,A*0F
$GNGGA,000137.00,3000.12584,N,12000.58646,E,1,07,1.73,-7.2,M,7.0,M,,*59
$GNGSA,A,3,,,,,,,,,,,,,3.63,1.73,3.19,1*09
$GNGSA,A,3,,,,,,,,,,,,,3.63,1.73,3.19,3*0B
$GNGSA,A,3,04,09,01,11,06,02,13,,,,,,3.63,1.73,3.19,4*06
$GPGSV,3,1,12,02,33,299,,04,51,246,,07,84,120,,08,47,207,,0*62
$GPGSV,3,2,12,10,01,310,,13,50,031,,16,01,039,,20,23,121,,0*6D
$GPGSV,3,3,12,23,28,057,,25,67,043,,27,18,219,,28,00,182,,0*69
$GAGSV,2,1,08,09,14,317,,10,64,334,,11,56,118,,12,07,130,,0*7C
$GAGSV,2,2,08,17,31,040,,23,39,223,,24,85,021,,27,30,126,,0*7F
$GBGSV,3,1,09,01,38,122,46,02,50,173,47,04,36,126,46,06,37,216,46,0*77
$GBGSV,3,2,09,09,37,287,46,11,18,131,46,12,10,060,,13,48,202,47,0*7C
$GBGSV,3,3,09,14,09,165,46,0*42
$GNGLL,3000.12584,N,12000.58646,E,000137.00,A,A*71

$GNRMC,000138.00,A,3000.10685,N,12000.59682,E,75.538,156.81,230721,5.69,W,A,V*7B
$GNVTG,156.81,T,162.50,M,75.538,N,139.897,K,A*07
$GNGGA,000138.00,3000.10685,N,12000.59682,E,1,07,1.73,-7.2,M,7.0,M,,*5F
$GNGSA,A,3,,,,,,,,,,,,,3.63,1.73,3.19,1*09
$GNGSA,A,3,,,,,,,,,,,,,3.63,1.73,3.19,3*0B
$GNGSA,A,3,04,09,01,11,06,02,13,,,,,,3.63,1.73,3.19,4*06
$GPGSV,3,1,12,02,33,299,,04,51,246,,07,84,120,,08,47,207,,0*62
$GPGSV,3,2,12,10,01,310,,13,50,031,,16,01,039,,20,23,121,,0*6D
$GPGSV,3,3,12,23,28,057,,25,67,043,,27,18,219,,28,00,182,,0*69
$GAGSV,2,1,08,09,14,317,,10,64,334,,11,56,118,,12,07,130,,0*7C
$GAGSV,2,2,08,17,31,040,,23,39,223,,24,85,021,,27,30,126,,0*7F
$GBGSV,3,1,09,01,38,122,46,02,50,173,47,04,36,126,46,06,37,216,46,0*77
$GBGSV,3,2,09,09,37,287,46,11,18,131,46,12,10,060,,13,48,202,47,0*7C
$GBGSV,3,3,09,14,09,165,46,0*42
$GNGLL,3000.10685,N,12000.59682,E,000138.00,A,A*77

$GNRMC,000139.00,A,3000.08721,N,12000.60546,E,75.589,161.28,230721,5.69,W,A,V*70
$GNVTG,161.28,T,166.97,M,75.589,N,139.992,K,A*01
$GNGGA,000139.00,3000.08721,N,12000.60546,E,1,07,1.73,-7.2,M,7.0,M,,*59
$GNGSA,A,3,,,,,,,,,,,,,3.63,1.73,3.19,1*09
$GNGSA,A,3,,,,,,,,,,,,,3.63,1.73,3.19,3*0B
$GNGSA,A,3,04,09,01,11,06,02,13,,,,,,3.63,1.73,3.19,4*06
$GPGSV,3,1,12,02,33,299,,04,51,246,,07,84,120,,08,47,207,,0*62
$GPGSV,3,2,12,10,01,310,,13,50,031,,16,01,039,,20,23,121,,0*6D
$GPGSV,3,3,12,23,28,057,,25,67,043,,27,18,219,,28,00,182,,0*69
$GAGSV,2,1,08,09,14,317,,10,64,334,,11,56,118,,12,07,130,,0*7C
$GAGSV,2,2,08,17,31,040,,23,39,223,,24,85,021,,27,30,126,,0*7F
$GBGSV,3,1,09,01,38,122,46,02,50,173,47,04,36,126,46,06,37,216,46,0*77
$GBGSV,3,2,09,09,37,287,46,11,18,131,37,12,10,060,,13,48,202,47,0*7A
$GBGSV,3,3,09,14,09,165,46,0*42
$GNGLL,3000.08721,N,12000.60546,E,000139.00,A,A*71

$GNRMC,000140.00,A,3000.06704,N,12000.61231,E,75.572,165.74,230721,5.69,W,A,V*78
$GNVTG,165.74,T,171.43,M,75.572,N,139.960,K,A*0A
$GNGGA,000140.00,3000.06704,N,12000.61231,E,1,07,1.73,-7.2,M,7.0,M,,*58
$GNGSA,A,3,,,,,,,,,,,,,3.63,1.73,3.19,1*09
$GNGSA,A,3,,,,,,,,,,,,,3.63,1.73,3.19,3*0B
$GNGSA,A,3,04,09,01,11,06,02,13,,,,,,3.63,1.73,3.19,4*06
$GPGSV,3,1,12,02,33,299,,04,51,246,,07,85,113,,08,47,207,,0*63
$GPGSV,3,2,12,10,01,310,,13,50,031,,16,01,039,,20,23,121,,0*6D
$GPGSV,3,3,12,23,28,057,,25,67,043,,27,18,219,,28,00,182,,0*69
$GAGSV,2,1,08,09,14,317,,10,64,334,,11,56,118,,12,07,130,,0*7C
$GAGSV,2,2,08,17,31,040,,23,39,223,,24,85,021,,27,30,126,,0*7F
$GBGSV,3,1,09,01,38,122,46,02,50,173,47,04,36,126,46,06,37,216,46,0*77
$GBGSV,3,2,09,09,37,287,46,11,18,131,21,12,10,060,,13,48,202,47,0*7D
$GBGSV,3,3,09,14,09,165,46,0*42
$GNGLL,3000.06704,N,12000.61231,E,000140.00,A,A*70

$GNRMC,000141.00,A,3000.04647,N,12000.61735,E,75.535,170.18,230721,5.69,W,A,V*71
$GNVTG,170.18,T,175.87,M,75.535,N,139.891,K,A*04
$GNGGA,000141.00,3000.04647,N,12000.61735,E,1,06,1.91,-7.1,M,7.0,M,,*52
$GNGSA,A,3,,,,,,,,,,,,,6.79,1.91,6.51,1*02
$GNGSA,A,3,,,,,,,,,,,,,6.79,1.91,6.51,3*00
$GNGSA,A,3,04,09,01,06,02,13,,,,,,,6.79,1.91,6.51,4*0D
$GPGSV,3,1,12,02,33,299,,04,51,246,,07,85,113,,08,48,207,,0*6C
$GPGSV,3,2,12,10,01,310,,13,50,031,,16,01,039,,20,23,121,,0*6D
$GPGSV,3,3,12,23,28,057,,25,67,043,,27,18,219,,28,00,182,,0*69
$GAGSV,2,1,08,09,14,317,,10,64,334,,11,56,118,,12,07,130,,0*7C
$GAGSV,2,2,08,17,31,040,,23,39,223,,24,85,021,,27,30,126,,0*7F
$GBGSV,3,1,09,01,38,122,46,02,50,173,47,04,36,126,46,06,37,216,46,0*77
$GBGSV,3,2,09,09,37,287,46,11,18,131,18,12,10,060,,13,48,202,47,0*77
$GBGSV,3,3,09,14,09,165,46,0*42
$GNGLL,3000.04647,N,12000.61735,E,000141.00,A,A*74

$GNRMC,000142.00,A,3000.02562,N,12000.62054,E,75.547,174.65,230721,5.69,W,A,V*78
$GNVTG,174.65,T,180.34,M,75.547,N,139.913,K,A*06
$GNGGA,000142.00,3000.02562,N,12000.62054,E,1,06,1.91,-7.1,M,7.0,M,,*50
$GNGSA,A,3,,,,,,,,,,,,,6.79,1.91,6.51,1*02
$GNGSA,A,3,,,,,,,,,,,,,6.79,1.91,6.51,3*00
$GNGSA,A,3,04,09,01,06,02,13,,,,,,,6.79,1.91,6.51,4*0D
$GPGSV,3,1,12,02,33,299,,04,51,246,,07,85,113,,08,48,207,,0*6C
$GPGSV,3,2,12,10,01,310,,13,50,031,,16,01,039,,20,23,121,,0*6D
$GPGSV,3,3,12,23,28,057,,25,67,043,,27,18,219,,28,00,182,,0*69
$GAGSV,2,1,08,09,14,317,,10,64,334,,11,56,118,,12,07,130,,0*7C
$GAGSV,2,2,08,17,31,040,,23,39,223,,24,85,021,,27,30,126,,0*7F
$GBGSV,3,1,09,01,38,122,46,02,50,173,47,04,36,126,46,06,37,216,46,0*77
$GBGSV,3,2,09,09,37,287,46,11,18,131,,12,10,060,,13,48,202,47,0*7E
$GBGSV,3,3,09,14,09,165,46,0*42
$GNGLL,3000.02562,N,12000.62054,E,000142.00,A,A*76

$GNRMC,000143.00,A,3000.00463,N,12000.62185,E,75.567,179.11,230721,5.69,W,A,V*7A
$GNVTG,179.11,T,184.80,M,75.567,N,139.950,K,A*06
$GNGGA,000143.00,3000.00463,N,12000.62185,E,1,06,1.91,-7.1,M,7.0,M,,*5E
$GNGSA,A,3,,,,,,,,,,,,,6.79,1.91,6.51,1*02
$GNGSA,A,3,,,,,,,,,,,,,6.79,1.91,6.51,3*00
$GNGSA,A,3,04,09,01,06,02,13,,,,,,,6.79,1.91,6.51,4*0D
$GPGSV,3,1,12,02,33,299,,04,51,246,,07,85,113,,08,48,207,,0*6C
$GPGSV,3,2,12,10,01,311,,13,50,031,,16,01,039,,20,23,121,,0*6C
$GPGSV,3,3,12,23,28,057,,25,67,043,,27,18,219,,28,00,182,,0*69
$GAGSV,2,1,08,09,14,317,,10,64,334,,11,56,118,,12,07,130,,0*7C
$GAGSV,2,2,08,17,31,040,,23,39,223,,24,85,021,,27,30,126,,0*7F
$GBGSV,3,1,09,01,38,122,46,02,50,173,47,04,36,126,46,06,37,216,46,0*77
$GBGSV,3,2,09,09,37,287,46,11,18,131,,12,10,060,,13,48,202,47,0*7E
$GBGSV,3,3,09,14,09,165,46,0*42
$GNGLL,3000.00463,N,12000.62185,E,000143.00,A,A*78

$GNRMC,000144.00,A,2959.98361,N,12000.62129,E,75.575,183.56,230721,5.69,W,A,V*7E
$GNVTG,183.56,T,189.25,M,75.575,N,139.965,K,A*07
$GNGGA,000144.00,2959.98361,N,12000.62129,E,1,06,1.91,-7.0,M,7.0,M,,*5E
