$GNRMC,000029.00,A,3000.00003,N,12000.00005,E,0.002,,230721,5.69,W,A,V*5D
$GNVTG,,T,,M,0.002,N,0.004,K,A*3B
$GNGGA,000029.00,3000.00003,N,12000.00005,E,1,08,1.39,-8.1,M,7.0,M,,*5F
$GNGSA,A,3,,,,,,,,,,,,,3.31,1.39,3.00,1*08
$GNGSA,A,3,,,,,,,,,,,,,3.31,1.39,3.00,3*0A
$GNGSA,A,3,04,09,12,01,06,11,13,02,,,,,3.31,1.39,3.00,4*04
$GPGSV,4,1,13,01,00,121,,02,33,300,,04,52,247,,07,84,120,,0*6A
$GPGSV,4,2,13,08,47,207,,10,01,310,,13,50,031,,16,01,039,,0*64
$GPGSV,4,3,13,20,23,121,,23,28,057,,25,67,043,,27,18,219,,0*6F
$GPGSV,4,4,13,28,00,182,,0*56
$GAGSV,2,1,08,09,13,317,,10,64,334,,11,56,117,,12,07,130,,0*74
$GAGSV,2,2,08,17,31,040,,23,38,222,,24,86,022,,27,31,126,,0*7E
$GBGSV,3,1,09,01,38,122,46,02,50,173,46,04,36,126,46,06,37,216,46,0*76
$GBGSV,3,2,09,09,37,287,46,11,18,131,46,12,10,061,46,13,49,203,47,0*7F
$GBGSV,3,3,09,14,09,165,46,0*42
$GNGLL,3000.00003,N,12000.00005,E,000029.00,A,A*7A

$GNRMC,000030.00,A,3000.00003,N,12000.00005,E,0.011,,230721,5.69,W,A,V*57
$GNVTG,,T,,M,0.011,N,0.021,K,A*3E
$GNGGA,000030.00,3000.00003,N,12000.00005,E,1,08,1.39,-8.1,M,7.0,M,,*57
$GNGSA,A,3,,,,,,,,,,,,,3.31,1.39,3.00,1*08
$GNGSA,A,3,,,,,,,,,,,,,3.31,1.39,3.00,3*0A
$GNGSA,A,3,04,09,12,01,06,11,13,02,,,,,3.31,1.39,3.00,4*04
$GPGSV,4,1,13,01,00,121,,02,33,300,,04,52,247,,07,84,120,,0*6A
$GPGSV,4,2,13,08,47,207,,10,01,310,,13,50,031,,16,01,039,,0*64
$GPGSV,4,3,13,20,23,121,,23,28,057,,25,67,043,,27,18,219,,0*6F
$GPGSV,4,4,13,28,00,182,,0*56
$GAGSV,2,1,08,09,13,317,,10,64,334,,11,56,117,,12,07,130,,0*74
$GAGSV,2,2,08,17,31,040,,23,38,222,,24,86,022,,27,31,126,,0*7E
$GBGSV,3,1,09,01,38,122,46,02,50,173,46,04,36,126,46,06,37,216,46,0*76
$GBGSV,3,2,09,09,37,287,46,11,18,131,46,12,10,061,46,13,49,203,47,0*7F
$GBGSV,3,3,09,14,09,165,46,0*42
$GNGLL,3000.00003,N,12000.00005,E,000030.00,A,A*72

$GNRMC,000031.00,A,3000.00003,N,12000.00006,E,0.006,,230721,5.69,W,A,V*53
$GNVTG,,T,,M,0.006,N,0.011,K,A*3B
$GNGGA,000031.00,3000.00003,N,12000.00006,E,1,08,1.39,-8.1,M,7.0,M,,*55
$GNGSA,A,3,,,,,,,,,,,,,3.31,1.39,3.00,1*08
$GNGSA,A,3,,,,,,,,,,,,,3.31,1.39,3.00,3*0A
$GNGSA,A,3,04,09,12,01,06,11,13,02,,,,,3.31,1.39,3.00,4*04
$GPGSV,4,1,13,01,00,121,,02,33,300,,04,52,247,,07,84,120,,0*6A
$GPGSV,4,2,13,08,47,207,,10,01,310,,13,50,031,,16,01,039,,0*64
$GPGSV,4,3,13,20,23,121,,23,28,057,,25,67,043,,27,18,219,,0*6F
$GPGSV,4,4,13,28,00,182,,0*56
$GAGSV,2,1,08,09,13,317,,10,64,334,,11,56,117,,12,07,130,,0*74
$GAGSV,2,2,08,17,31,040,,23,38,222,,24,86,022,,27,31,126,,0*7E
$GBGSV,3,1,09,01,38,122,46,02,50,173,47,04,36,126,46,06,37,216,46,0*77
$GBGSV,3,2,09,09,37,287,46,11,18,131,46,12,10,061,46,13,49,203,47,0*7F
$GBGSV,3,3,09,14,09,165,46,0*42
$GNGLL,3000.00003,N,12000.00006,E,000031.00,A,A*70

$GNRMC,000032.00,A,3000.00003,N,12000.00007,E,0.010,,230721,5.69,W,A,V*56
$GNVTG,,T,,M,0.010,N,0.019,K,A*34
$GNGGA,000032.00,3000.00003,N,12000.00007,E,1,08,1.39,-8.0,M,7.0,M,,*56
$GNGSA,A,3,,,,,,,,,,,,,3.31,1.39,3.00,1*08
$GNGSA,A,3,,,,,,,,,,,,,3.31,1.39,3.00,3*0A
$GNGSA,A,3,04,09,12,01,06,11,13,02,,,,,3.31,1.39,3.00,4*04
$GPGSV,4,1,13,01,00,121,,02,33,300,,04,52,247,,07,84,120,,0*6A
$GPGSV,4,2,13,08,47,207,,10,01,310,,13,50,031,,16,01,039,,0*64
$GPGSV,4,3,13,20,23,121,,23,28,057,,25,67,043,,27,18,219,,0*6F
$GPGSV,4,4,13,28,00,182,,0*56
$GAGSV,2,1,08,09,13,317,,10,64,334,,11,56,117,,12,07,130,,0*74
$GAGSV,2,2,08,17,31,040,,23,38,222,,24,86,022,,27,31,126,,0*7E
$GBGSV,3,1,09,01,38,122,46,02,50,173,47,04,36,126,46,06,37,216,46,0*77
$GBGSV,3,2,09,09,37,287,46,11,18,131,46,12,10,061,46,13,49,203,47,0*7F
$GBGSV,3,3,09,14,09,165,46,0*42
$GNGLL,3000.00003,N,12000.00007,E,000032.00,A,A*72

$GNRMC,000033.00,A,3000.00003,N,12000.00007,E,0.005,,230721,5.69,W,A,V*53
$GNVTG,,T,,M,0.005,N,0.009,K,A*31
$GNGGA,000033.00,3000.00003,N,12000.00007,E,1,08,1.39,-8.0,M,7.0,M,,*57
$GNGSA,A,3,,,,,,,,,,,,,3.31,1.39,3.00,1*08
$GNGSA,A,3,,,,,,,,,,,,,3.31,1.39,3.00,3*0A
$GNGSA,A,3,04,09,12,01,06,11,13,02,,,,,3.31,1.39,3.00,4*04
$GPGSV,4,1,13,01,00,121,,02,33,300,,04,52,247,,07,84,120,,0*6A
$GPGSV,4,2,13,08,47,207,,10,01,310,,13,50,031,,16,01,039,,0*64
$GPGSV,4,3,13,20,23,121,,23,28,057,,25,67,043,,27,18,219,,0*6F
$GPGSV,4,4,13,28,00,182,,0*56
$GAGSV,2,1,08,09,13,317,,10,64,334,,11,56,117,,12,07,130,,0*74
$GAGSV,2,2,08,17,31,040,,23,38,222,,24,86,022,,27,31,126,,0*7E
$GBGSV,3,1,09,01,38,122,46,02,50,173,46,04,36,126,46,06,37,216,46,0*76
$GBGSV,3,2,09,09,37,287,46,11,18,131,46,12,10,061,46,13,49,203,47,0*7F
$GBGSV,3,3,09,14,09,165,46,0*42
$GNGLL,3000.00003,N,12000.00007,E,000033.00,A,A*73

$GNRMC,000034.00,A,3000.00003,N,12000.00008,E,0.004,,230721,5.69,W,A,V*5A
$GNVTG,,T,,M,0.004,N,0.007,K,A*3E
$GNGGA,000034.00,3000.00003,N,12000.00008,E,1,08,1.39,-7.9,M,7.0,M,,*59
$GNGSA,A,3,,,,,,,,,,,,,3.31,1.39,3.00,1*08
$GNGSA,A,3,,,,,,,,,,,,,3.31,1.39,3.00,3*0A
$GNGSA,A,3,04,09,12,01,06,11,13,02,,,,,3.31,1.39,3.00,4*04
$GPGSV,4,1,13,01,00,121,,02,33,300,,04,52,247,,07,84,120,,0*6A
$GPGSV,4,2,13,08,47,207,,10,01,310,,13,50,031,,16,01,039,,0*64
$GPGSV,4,3,13,20,23,121,,23,28,057,,25,67,043,,27,18,219,,0*6F
$GPGSV,4,4,13,28,00,182,,0*56
$GAGSV,2,1,08,09,13,317,,10,64,334,,11,56,117,,12,07,130,,0*74
$GAGSV,2,2,08,17,31,040,,23,38,222,,24,86,022,,27,31,126,,0*7E
$GBGSV,3,1,09,01,38,122,46,02,50,173,46,04,36,126,46,06,37,216,46,0*76
$GBGSV,3,2,09,09,37,287,46,11,18,131,46,12,10,061,46,13,49,203,47,0*7F
$GBGSV,3,3,09,14,09,165,46,0*42
$GNGLL,3000.00003,N,12000.00008,E,000034.00,A,A*7B

$GNRMC,000035.00,A,3000.00003,N,12000.00008,E,0.003,,230721,5.69,W,A,V*5C
$GNVTG,,T,,M,0.003,N,0.005,K,A*3B
$GNGGA,000035.00,3000.00003,N,12000.00008,E,1,08,1.39,-7.9,M,7.0,M,,*58
$GNGSA,A,3,,,,,,,,,,,,,3.31,1.39,3.00,1*08
$GNGSA,A,3,,,,,,,,,,,,,3.31,1.39,3.00,3*0A
$GNGSA,A,3,04,09,12,01,06,11,13,02,,,,,3.31,1.39,3.00,4*04
$GPGSV,4,1,13,01,00,121,,02,33,300,,04,52,247,,07,84,120,,0*6A
$GPGSV,4,2,13,08,47,207,,10,01,310,,13,50,031,,16,01,039,,0*64
$GPGSV,4,3,13,20,23,121,,23,28,057,,25,67,043,,27,18,219,,0*6F
$GPGSV,4,4,13,28,00,182,,0*56
$GAGSV,2,1,08,09,13,317,,10,64,334,,11,56,117,,12,07,130,,0*74
$GAGSV,2,2,08,17,31,040,,23,38,222,,24,86,022,,27,31,126,,0*7E
$GBGSV,3,1,09,01,38,122,46,02,50,173,46,04,36,126,46,06,37,216,46,0*76
$GBGSV,3,2,09,09,37,287,46,11,18,131,46,12,10,061,46,13,49,203,47,0*7F
$GBGSV,3,3,09,14,09,165,46,0*42
$GNGLL,3000.00003,N,12000.00008,E,000035.00,A,A*7A

$GNRMC,000036.00,A,3000.00004,N,12000.00009,E,0.006,,230721,5.69,W,A,V*5C
$GNVTG,,T,,M,0.006,N,0.011,K,A*3B
$GNGGA,000036.00,3000.00004,N,12000.00009,E,1,08,1.39,-7.9,M,7.0,M,,*5D
$GNGSA,A,3,,,,,,,,,,,,,3.31,1.39,3.00,1*08
$GNGSA,A,3,,,,,,,,,,,,,3.31,1.39,3.00,3*0A
$GNGSA,A,3,04,09,12,01,06,11,13,02,,,,,3.31,1.39,3.00,4*04
$GPGSV,4,1,13,01,00,121,,02,33,300,,04,52,247,,07,84,120,,0*6A
$GPGSV,4,2,13,08,47,207,,10,01,310,,13,50,031,,16,01,039,,0*64
$GPGSV,4,3,13,20,23,121,,23,28,057,,25,67,043,,27,18,219,,0*6F
$GPGSV,4,4,13,28,00,182,,0*56
$GAGSV,2,1,08,09,13,317,,10,64,334,,11,56,117,,12,07,130,,0*74
$GAGSV,2,2,08,17,31,040,,23,38,222,,24,86,022,,27,31,126,,0*7E
$GBGSV,3,1,09,01,38,122,46,02,50,173,46,04,36,126,46,06,37,216,46,0*76
$GBGSV,3,2,09,09,37,287,46,11,18,131,46,12,10,061,46,13,49,203,47,0*7F
$GBGSV,3,3,09,14,09,165,46,0*42
$GNGLL,3000.00004,N,12000.00009,E,000036.00,A,A*7F

$GNRMC,000037.00,A,3000.00004,N,12000.00010,E,0.007,,230721,5.69,W,A,V*54
$GNVTG,,T,,M,0.007,N,0.013,K,A*38
$GNGGA,000037.00,3000.00004,N,12000.00010,E,1,08,1.39,-7.9,M,7.0,M,,*54
$GNGSA,A,3,,,,,,,,,,,,,3.31,1.39,3.00,1*08
$GNGSA,A,3,,,,,,,,,,,,,3.31,1.39,3.00,3*0A
$GNGSA,A,3,04,09,12,01,06,11,13,02,,,,,3.31,1.39,3.00,4*04
$GPGSV,4,1,13,01,00,121,,02,33,300,,04,52,247,,07,84,120,,0*6A
$GPGSV,4,2,13,08,47,207,,10,01,310,,13,50,031,,16,01,039,,0*64
$GPGSV,4,3,13,20,23,121,,23,28,057,,25,67,043,,27,18,219,,0*6F
$GPGSV,4,4,13,28,00,182,,0*56
$GAGSV,2,1,08,09,13,317,,10,64,334,,11,56,117,,12,07,130,,0*74
$GAGSV,2,2,08,17,31,040,,23,38,222,,24,86,022,,27,31,126,,0*7E
$GBGSV,3,1,09,01,38,122,46,02,50,173,46,04,36,126,46,06,37,216,46,0*76
$GBGSV,3,2,09,09,37,287,46,11,18,131,46,12,10,061,46,13,49,203,47,0*7F
$GBGSV,3,3,09,14,09,165,46,0*42
$GNGLL,3000.00004,N,12000.00010,E,000037.00,A,A*76

$GNRMC,000038.00,A,3000.00004,N,12000.00010,E,0.007,,230721,5.69,W,A,V*5B
$GNVTG,,T,,M,0.007,N,0.014,K,A*3F
$GNGGA,000038.00,3000.00004,N,12000.00010,E,1,08,1.39,-7.8,M,7.0,M,,*5A
$GNGSA,A,3,,,,,,,,,,,,,3.31,1.39,3.00,1*08
$GNGSA,A,3,,,,,,,,,,,,,3.31,1.39,3.00,3*0A
$GNGSA,A,3,04,09,12,01,06,11,13,02,,,,,3.31,1.39,3.00,4*04
$GPGSV,4,1,13,01,00,121,,02,33,300,,04,52,247,,07,84,120,,0*6A
$GPGSV,4,2,13,08,47,207,,10,01,310,,13,50,031,,16,01,039,,0*64
$GPGSV,4,3,13,20,23,121,,23,28,057,,25,67,043,,27,18,219,,0*6F
$GPGSV,4,4,13,28,00,182,,0*56
$GAGSV,2,1,08,09,13,317,,10,64,334,,11,56,117,,12,07,130,,0*74
$GAGSV,2,2,08,17,31,040,,23,38,222,,24,86,022,,27,31,126,,0*7E
$GBGSV,3,1,09,01,38,122,46,02,50,173,46,04,36,126,46,06,37,216,46,0*76
$GBGSV,3,2,09,09,37,287,46,11,18,131,46,12,10,061,46,13,49,203,47,0*7F
$GBGSV,3,3,09,14,09,165,46,0*42
$GNGLL,3000.00004,N,12000.00010,E,000038.00,A,A*79

$GNRMC,000039.00,A,3000.00004,N,12000.00010,E,0.003,,230721,5.69,W,A,V*5E
$GNVTG,,T,,M,0.003,N,0.006,K,A*38
$GNGGA,000039.00,3000.00004,N,12000.00010,E,1,08,1.39,-7.8,M,7.0,M,,*5B
$GNGSA,A,3,,,,,,,,,,,,,3.31,1.39,3.00,1*08
$GNGSA,A,3,,,,,,,,,,,,,3.31,1.39,3.00,3*0A
$GNGSA,A,3,04,09,12,01,06,11,13,02,,,,,3.31,1.39,3.00,4*04
$GPGSV,4,1,13,01,00,121,,02,33,300,,04,52,247,,07,84,120,,0*6A
$GPGSV,4,2,13,08,47,207,,10,01,310,,13,50,031,,16,01,039,,0*64
$GPGSV,4,3,13,20,23,121,,23,28,057,,25,67,043,,27,18,219,,0*6F
$GPGSV,4,4,13,28,00,182,,0*56
$GAGSV,2,1,08,09,13,317,,10,64,334,,11,56,117,,12,07,130,,0*74
$GAGSV,2,2,08,17,31,040,,23,38,222,,24,86,022,,27,31,126,,0*7E
$GBGSV,3,1,09,01,38,122,46,02,50,173,46,04,36,126,46,06,37,216,46,0*76
$GBGSV,3,2,09,09,37,287,46,11,18,131,46,12,10,061,46,13,49,203,47,0*7F
$GBGSV,3,3,09,14,09,165,46,0*42
$GNGLL,3000.00004,N,12000.00010,E,000039.00,A,A*78

$GNRMC,000040.00,A,3000.00004,N,12000.00011,E,0.009,,230721,5.69,W,A,V*5B
$GNVTG,,T,,M,0.009,N,0.018,K,A*3D
$GNGGA,000040.00,3000.00004,N,12000.00011,E,1,08,1.39,-7.8,M,7.0,M,,*54
$GNGSA,A,3,,,,,,,,,,,,,3.31,1.39,3.00,1*08
$GNGSA,A,3,,,,,,,,,,,,,3.31,1.39,3.00,3*0A
$GNGSA,A,3,04,09,12,01,06,11,13,02,,,,,3.31,1.39,3.00,4*04
$GPGSV,4,1,13,01,00,121,,02,33,300,,04,52,247,,07,84,120,,0*6A
$GPGSV,4,2,13,08,47,207,,10,01,310,,13,50,031,,16,01,039,,0*64
$GPGSV,4,3,13,20,23,121,,23,28,057,,25,67,043,,27,18,219,,0*6F
$GPGSV,4,4,13,28,00,182,,0*56
$GAGSV,2,1,08,09,13,317,,10,64,334,,11,56,117,,12,07,130,,0*74
$GAGSV,2,2,08,17,31,040,,23,38,222,,24,86,022,,27,31,126,,0*7E
$GBGSV,3,1,09,01,38,122,46,02,50,173,46,04,36,126,46,06,37,216,46,0*76
$GBGSV,3,2,09,09,37,287,46,11,18,131,46,12,10,061,46,13,49,203,47,0*7F
$GBGSV,3,3,09,14,09,165,46,0*42
$GNGLL,3000.00004,N,12000.00011,E,000040.00,A,A*77

$GNRMC,000041.00,A,3000.00004,N,12000.00011,E,0.015,,230721,5.69,W,A,V*57
$GNVTG,,T,,M,0.015,N,0.028,K,A*33
$GNGGA,000041.00,3000.00004,N,12000.00011,E,1,08,1.39,-7.8,M,7.0,M,,*55
$GNGSA,A,3,,,,,,,,,,,,,3.31,1.39,3.00,1*08
$GNGSA,A,3,,,,,,,,,,,,,3.31,1.39,3.00,3*0A
$GNGSA,A,3,04,09,12,01,06,11,13,02,,,,,3.31,1.39,3.00,4*04
$GPGSV,4,1,13,01,00,121,,02,33,300,,04,52,247,,07,84,120,,0*6A
$GPGSV,4,2,13,08,47,207,,10,01,310,,13,50,031,,16,01,039,,0*64
$GPGSV,4,3,13,20,23,121,,23,28,057,,25,67,043,,27,18,219,,0*6F
$GPGSV,4,4,13,28,00,182,,0*56
$GAGSV,2,1,08,09,13,317,,10,64,334,,11,56,117,,12,07,130,,0*74
$GAGSV,2,2,08,17,31,040,,23,38,222,,24,86,022,,27,31,126,,0*7E
$GBGSV,3,1,09,01,38,122,46,02,50,173,46,04,36,126,46,06,37,216,46,0*76
$GBGSV,3,2,09,09,37,287,46,11,18,131,46,12,10,061,46,13,49,203,47,0*7F
$GBGSV,3,3,09,14,09,165,46,0*42
$GNGLL,3000.00004,N,12000.00011,E,000041.00,A,A*76

$GNRMC,000042.00,A,3000.00004,N,12000.00012,E,0.016,,230721,5.69,W,A,V*54
$GNVTG,,T,,M,0.016,N,0.029,K,A*31
$GNGGA,000042.00,3000.00004,N,12000.00012,E,1,08,1.39,-7.7,M,7.0,M,,*5A
$GNGSA,A,3,,,,,,,,,,,,,3.31,1.39,3.01,1*09
$GNGSA,A,3,,,,,,,,,,,,,3.31,1.39,3.01,3*0B
$GNGSA,A,3,04,09,12,01,06,11,13,02,,,,,3.31,1.39,3.01,4*05
$GPGSV,4,1,13,01,00,121,,02,33,300,,04,52,247,,07,84,120,,0*6A
$GPGSV,4,2,13,08,47,207,,10,01,310,,13,50,031,,16,01,039,,0*64
$GPGSV,4,3,13,20,23,121,,23,28,057,,25,67,043,,27,18,219,,0*6F
$GPGSV,4,4,13,28,00,182,,0*56
$GAGSV,2,1,08,09,13,317,,10,64,334,,11,56,117,,12,07,130,,0*74
$GAGSV,2,2,08,17,31,040,,23,38,222,,24,86,022,,27,31,126,,0*7E
$GBGSV,3,1,09,01,38,122,46,02,50,173,46,04,36,126,46,06,37,216,46,0*76
$GBGSV,3,2,09,09,37,287,46,11,18,131,46,12,10,061,46,13,49,203,47,0*7F
$GBGSV,3,3,09,14,09,165,46,0*42
$GNGLL,3000.00004,N,12000.00012,E,000042.00,A,A*76

$GNRMC,000043.00,A,3000.00004,N,12000.00013,E,0.014,,230721,5.69,W,A,V*56
$GNVTG,,T,,M,0.014,N,0.027,K,A*3D
$GNGGA,000043.00,3000.00004,N,12000.00013,E,1,08,1.39,-7.7,M,7.0,M,,*5A
$GNGSA,A,3,,,,,,,,,,,,,3.31,1.39,3.01,1*09
$GNGSA,A,3,,,,,,,,,,,,,3.31,1.39,3.01,3*0B
$GNGSA,A,3,04,09,12,01,06,11,13,02,,,,,3.31,1.39,3.01,4*05
$GPGSV,4,1,13,01,00,121,,02,33,300,,04,52,247,,07,84,120,,0*6A
$GPGSV,4,2,13,08,47,207,,10,01,310,,13,50,031,,16,01,039,,0*64
$GPGSV,4,3,13,20,23,121,,23,28,057,,25,67,043,,27,18,219,,0*6F
$GPGSV,4,4,13,28,00,182,,0*56
$GAGSV,2,1,08,09,13,317,,10,64,334,,11,56,117,,12,07,130,,0*74
$GAGSV,2,2,08,17,31,040,,23,38,222,,24,86,022,,27,31,126,,0*7E
$GBGSV,3,1,09,01,38,122,46,02,50,173,46,04,36,126,46,06,37,216,46,0*76
$GBGSV,3,2,09,09,37,287,46,11,18,131,46,12,10,061,46,13,49,203,47,0*7F
$GBGSV,3,3,09,14,09,165,46,0*42
$GNGLL,3000.00004,N,12000.00013,E,000043.00,A,A*76

$GNRMC,000044.00,A,3000.00004,N,12000.00013,E,0.010,,230721,5.69,W,A,V*55
$GNVTG,,T,,M,0.010,N,0.018,K,A*35
$GNGGA,000044.00,3000.00004,N,12000.00013,E,1,08,1.39,-7.7,M,7.0,M,,*5D
$GNGSA,A,3,,,,,,,,,,,,,3.31,1.39,3.01,1*09
$GNGSA,A,3,,,,,,,,,,,,,3.31,1.39,3.01,3*0B
$GNGSA,A,3,04,09,12,01,06,11,13,02,,,,,3.31,1.39,3.01,4*05
$GPGSV,4,1,13,01,00,121,,02,33,300,,04,52,247,,07,84,120,,0*6A
$GPGSV,4,2,13,08,47,207,,10,01,310,,13,50,031,,16,01,039,,0*64
$GPGSV,4,3,13,20,23,121,,23,28,057,,25,67,043,,27,18,219,,0*6F
$GPGSV,4,4,13,28,00,182,,0*56
$GAGSV,2,1,08,09,13,317,,10,64,334,,11,56,117,,12,07,130,,0*74
$GAGSV,2,2,08,17,31,040,,23,38,222,,24,86,022,,27,31,126,,0*7E
$GBGSV,3,1,09,01,38,122,46,02,50,173,46,04,36,126,46,06,37,216,46,0*76
$GBGSV,3,2,09,09,37,287,46,11,18,131,46,12,10,061,46,13,49,203,47,0*7F
$GBGSV,3,3,09,14,09,165,46,0*42
$GNGLL,3000.00004,N,12000.00013,E,000044.00,A,A*71

$GNRMC,000045.00,A,3000.00004,N,12000.00013,E,0.013,,230721,5.69,W,A,V*57
$GNVTG,,T,,M,0.013,N,0.024,K,A*39
$GNGGA,000045.00,3000.00004,N,12000.00013,E,1,08,1.39,-7.7,M,7.0,M,,*5C
$GNGSA,A,3,,,,,,,,,,,,,3.31,1.39,3.01,1*09
$GNGSA,A,3,,,,,,,,,,,,,3.31,1.39,3.01,3*0B
$GNGSA,A,3,04,09,12,01,06,11,13,02,,,,,3.31,1.39,3.01,4*05
$GPGSV,4,1,13,01,00,121,,02,33,300,,04,52,247,,07,84,120,,0*6A
$GPGSV,4,2,13,08,47,207,,10,01,310,,13,50,031,,16,01,039,,0*64
$GPGSV,4,3,13,20,23,121,,23,28,057,,25,67,043,,27,18,219,,0*6F
$GPGSV,4,4,13,28,00,182,,0*56
$GAGSV,2,1,08,09,13,317,,10,64,334,,11,56,117,,12,07,130,,0*74
$GAGSV,2,2,08,17,31,040,,23,38,222,,24,86,022,,27,31,126,,0*7E
$GBGSV,3,1,09,01,38,122,46,02,50,173,46,04,36,126,46,06,37,216,46,0*76
$GBGSV,3,2,09,09,37,287,46,11,18,131,46,12,10,061,46,13,49,203,47,0*7F
$GBGSV,3,3,09,14,09,165,46,0*42
$GNGLL,3000.00004,N,12000.00013,E,000045.00,A,A*70

$GNRMC,000046.00,A,3000.00004,N,12000.00014,E,0.007,,230721,5.69,W,A,V*56
$GNVTG,,T,,M,0.007,N,0.014,K,A*3F
$GNGGA,000046.00,3000.00004,N,12000.00014,E,1,08,1.39,-7.7,M,7.0,M,,*58
$GNGSA,A,3,,,,,,,,,,,,,3.31,1.39,3.01,1*09
$GNGSA,A,3,,,,,,,,,,,,,3.31,1.39,3.01,3*0B
$GNGSA,A,3,04,09,12,01,06,11,13,02,,,,,3.31,1.39,3.01,4*05
$GPGSV,4,1,13,01,00,121,,02,33,300,,04,52,247,,07,84,120,,0*6A
$GPGSV,4,2,13,08,47,207,,10,01,310,,13,50,031,,16,01,039,,0*64
$GPGSV,4,3,13,20,23,121,,23,28,057,,25,67,043,,27,18,219,,0*6F
$GPGSV,4,4,13,28,00,182,,0*56
$GAGSV,2,1,08,09,13,317,,10,64,334,,11,56,117,,12,07,130,,0*74
$GAGSV,2,2,08,17,31,040,,23,38,222,,24,86,022,,27,31,126,,0*7E
$GBGSV,3,1,09,01,38,122,46,02,50,173,46,04,36,126,46,06,37,216,46,0*76
$GBGSV,3,2,09,09,37,287,46,11,18,131,46,12,10,061,46,13,49,203,47,0*7F
$GBGSV,3,3,09,14,09,165,46,0*42
$GNGLL,3000.00004,N,12000.00014,E,000046.00,A,A*74

$GNRMC,000047.00,A,3000.00004,N,12000.00014,E,0.005,,230721,5.69,W,A,V*55
$GNVTG,,T,,M,0.005,N,0.010,K,A*39
$GNGGA,000047.00,3000.00004,N,12000.00014,E,1,08,1.39,-7.6,M,7.0,M,,*58
$GNGSA,A,3,,,,,,,,,,,,,3.31,1.39,3.01,1*09
$GNGSA,A,3,,,,,,,,,,,,,3.31,1.39,3.01,3*0B
$GNGSA,A,3,04,09,12,01,06,11,13,02,,,,,3.31,1.39,3.01,4*05
$GPGSV,4,1,13,01,00,121,,02,33,300,,04,52,247,,07,84,120,,0*6A
$GPGSV,4,2,13,08,47,207,,10,01,310,,13,50,031,,16,01,039,,0*64
$GPGSV,4,3,13,20,23,121,,23,28,057,,25,67,043,,27,18,219,,0*6F
$GPGSV,4,4,13,28,00,182,,0*56
$GAGSV,2,1,08,09,13,317,,10,64,334,,11,56,117,,12,07,130,,0*74
$GAGSV,2,2,08,17,31,040,,23,38,222,,24,86,022,,27,31,126,,0*7E
$GBGSV,3,1,09,01,38,122,46,02,50,173,46,04,36,126,46,06,37,216,46,0*76
$GBGSV,3,2,09,09,37,287,46,11,18,131,46,12,10,061,46,13,49,203,47,0*7F
$GBGSV,3,3,09,14,09,165,46,0*42
$GNGLL,3000.00004,N,12000.00014,E,000047.00,A,A*75

$GNRMC,000048.00,A,3000.00004,N,12000.00014,E,0.009,,230721,5.69,W,A,V*56
$GNVTG,,T,,M,0.009,N,0.017,K,A*32
$GNGGA,000048.00,3000.00004,N,12000.00014,E,1,08,1.39,-7.6,M,7.0,M,,*57
$GNGSA,A,3,,,,,,,,,,,,,3.31,1.39,3.01,1*09
$GNGSA,A,3,,,,,,,,,,,,,3.31,1.39,3.01,3*0B
$GNGSA,A,3,04,09,12,01,06,11,13,02,,,,,3.31,1.39,3.01,4*05
$GPGSV,4,1,13,01,00,121,,02,33,300,,04,52,247,,07,84,120,,0*6A
$GPGSV,4,2,13,08,47,207,,10,01,310,,13,50,031,,16,01,039,,0*64
$GPGSV,4,3,13,20,23,121,,23,28,057,,25,67,043,,27,18,219,,0*6F
$GPGSV,4,4,13,28,00,182,,0*56
$GAGSV,2,1,08,09,13,317,,10,64,334,,11,56,117,,12,07,130,,0*74
$GAGSV,2,2,08,17,31,040,,23,38,222,,24,86,022,,27,31,126,,0*7E
$GBGSV,3,1,09,01,38,122,46,02,50,173,46,04,36,126,46,06,37,216,46,0*76
$GBGSV,3,2,09,09,37,287,46,11,18,131,46,12,10,061,46,13,49,203,47,0*7F
$GBGSV,3,3,09,14,09,165,46,0*42
$GNGLL,3000.00004,N,12000.00014,E,000048.00,A,A*7A

$GNRMC,000049.00,A,3000.00004,N,12000.00014,E,0.028,,230721,5.69,W,A,V*54
$GNVTG,,T,,M,0.028,N,0.051,K,A*33
$GNGGA,000049.00,3000.00004,N,12000.00014,E,1,08,1.39,-7.6,M,7.0,M,,*56
$GNGSA,A,3,,,,,,,,,,,,,3.31,1.39,3.01,1*09
$GNGSA,A,3,,,,,,,,,,,,,3.31,1.39,3.01,3*0B
$GNGSA,A,3,04,09,12,01,06,11,13,02,,,,,3.31,1.39,3.01,4*05
$GPGSV,4,1,13,01,00,121,,02,33,300,,04,52,247,,07,84,120,,0*6A
$GPGSV,4,2,13,08,47,207,,10,01,310,,13,50,031,,16,01,039,,0*64
$GPGSV,4,3,13,20,23,121,,23,28,057,,25,67,043,,27,18,219,,0*6F
$GPGSV,4,4,13,28,00,182,,0*56
$GAGSV,2,1,08,09,13,317,,10,64,334,,11,56,117,,12,07,130,,0*74
$GAGSV,2,2,08,17,31,040,,23,38,222,,24,86,022,,27,31,126,,0*7E
$GBGSV,3,1,09,01,38,122,46,02,50,173,46,04,36,126,46,06,37,216,46,0*76
$GBGSV,3,2,09,09,37,287,46,11,18,131,46,12,10,061,46,13,49,203,47,0*7F
$GBGSV,3,3,09,14,09,165,46,0*42
$GNGLL,3000.00004,N,12000.00014,E,000049.00,A,A*7B

$GNRMC,000050.00,A,3000.00004,N,12000.00014,E,0.025,,230721,5.69,W,A,V*51
$GNVTG,,T,,M,0.025,N,0.046,K,A*38
$GNGGA,000050.00,3000.00004,N,12000.00014,E,1,08,1.39,-7.6,M,7.0,M,,*5E
$GNGSA,A,3,,,,,,,,,,,,,3.32,1.39,3.01,1*0A
$GNGSA,A,3,,,,,,,,,,,,,3.32,1.39,3.01,3*08
$GNGSA,A,3,04,09,12,01,06,11,13,02,,,,,3.32,1.39,3.01,4*06
$GPGSV,4,1,13,01,00,121,,02,33,300,,04,52,247,,07,84,120,,0*6A
$GPGSV,4,2,13,08,47,207,,10,01,310,,13,50,031,,16,01,039,,0*64
$GPGSV,4,3,13,20,23,121,,23,28,057,,25,67,043,,27,18,219,,0*6F
$GPGSV,4,4,13,28,00,182,,0*56
$GAGSV,2,1,08,09,13,317,,10,64,334,,11,56,117,,12,07,130,,0*74
$GAGSV,2,2,08,17,31,040,,23,38,222,,24,86,022,,27,31,126,,0*7E
$GBGSV,3,1,09,01,38,122,46,02,50,173,46,04,36,126,46,06,37,216,46,0*76
$GBGSV,3,2,09,09,37,287,46,11,18,131,46,12,10,061,46,13,49,203,47,0*7F
$GBGSV,3,3,09,14,09,165,46,0*42
$GNGLL,3000.00004,N,12000.00014,E,000050.00,A,A*73

$GNRMC,000051.00,A,3000.00004,N,12000.00015,E,0.010,,230721,5.69,W,A,V*57
$GNVTG,,T,,M,0.010,N,0.019,K,A*34
$GNGGA,000051.00,3000.00004,N,12000.00015,E,1,08,1.39,-7.6,M,7.0,M,,*5E
$GNGSA,A,3,,,,,,,,,,,,,3.32,1.39,3.01,1*0A
$GNGSA,A,3,,,,,,,,,,,,,3.32,1.39,3.01,3*08
$GNGSA,A,3,04,09,12,01,06,11,13,02,,,,,3.32,1.39,3.01,4*06
$GPGSV,4,1,13,01,00,121,,02,33,300,,04,52,247,,07,84,120,,0*6A
$GPGSV,4,2,13,08,47,207,,10,01,310,,13,50,031,,16,01,039,,0*64
$GPGSV,4,3,13,20,23,121,,23,28,057,,25,67,043,,27,18,219,,0*6F
$GPGSV,4,4,13,28,00,182,,0*56
$GAGSV,2,1,08,09,13,317,,10,64,334,,11,56,117,,12,07,130,,0*74
$GAGSV,2,2,08,17,31,040,,23,38,222,,24,86,022,,27,31,126,,0*7E
$GBGSV,3,1,09,01,38,122,46,02,50,173,46,04,36,126,46,06,37,216,46,0*76
$GBGSV,3,2,09,09,37,287,46,11,18,131,46,12,10,061,46,13,49,203,47,0*7F
$GBGSV,3,3,09,14,09,165,46,0*42
$GNGLL,3000.00004,N,12000.00015,E,000051.00,A,A*73

$GNRMC,000052.00,A,3000.00004,N,12000.00015,E,0.015,,230721,5.69,W,A,V*51
$GNVTG,,T,,M,0.015,N,0.028,K,A*33
$GNGGA,000052.00,3000.00004,N,12000.00015,E,1,08,1.39,-7.6,M,7.0,M,,*5D
$GNGSA,A,3,,,,,,,,,,,,,3.32,1.39,3.01,1*0A
$GNGSA,A,3,,,,,,,,,,,,,3.32,1.39,3.01,3*08
$GNGSA,A,3,04,09,12,01,06,11,13,02,,,,,3.32,1.39,3.01,4*06
$GPGSV,4,1,13,01,00,121,,02,33,300,,04,52,247,,07,84,120,,0*6A
$GPGSV,4,2,13,08,47,207,,10,01,310,,13,50,031,,16,01,039,,0*64
$GPGSV,4,3,13,20,23,121,,23,28,057,,25,67,043,,27,18,219,,0*6F
$GPGSV,4,4,13,28,00,182,,0*56
$GAGSV,2,1,08,09,13,317,,10,64,334,,11,56,117,,12,07,130,,0*74
$GAGSV,2,2,08,17,31,040,,23,38,222,,24,86,022,,27,31,126,,0*7E
$GBGSV,3,1,09,01,38,122,46,02,50,173,46,04,36,126,46,06,37,216,46,0*76
$GBGSV,3,2,09,09,37,287,46,11,18,131,46,12,10,061,46,13,49,203,47,0*7F
$GBGSV,3,3,09,14,09,165,46,0*42
$GNGLL,3000.00004,N,12000.00015,E,000052.00,A,A*70

$GNRMC,000053.00,A,3000.00004,N,12000.00015,E,0.013,,230721,5.69,W,A,V*56
$GNVTG,,T,,M,0.013,N,0.025,K,A*38
$GNGGA,000053.00,3000.00004,N,12000.00015,E,1,08,1.39,-7.6,M,7.0,M,,*5C
$GNGSA,A,3,,,,,,,,,,,,,3.32,1.39,3.01,1*0A
$GNGSA,A,3,,,,,,,,,,,,,3.32,1.39,3.01,3*08
$GNGSA,A,3,04,09,12,01,06,11,13,02,,,,,3.32,1.39,3.01,4*06
$GPGSV,4,1,13,01,00,121,,02,33,300,,04,52,247,,07,84,120,,0*6A
$GPGSV,4,2,13,08,47,207,,10,01,310,,13,50,031,,16,01,039,,0*64
$GPGSV,4,3,13,20,23,121,,23,28,057,,25,67,043,,27,18,219,,0*6F
$GPGSV,4,4,13,28,00,182,,0*56
$GAGSV,2,1,08,09,13,317,,10,64,334,,11,56,117,,12,07,130,,0*74
$GAGSV,2,2,08,17,31,040,,23,38,222,,24,86,022,,27,31,126,,0*7E
$GBGSV,3,1,09,01,38,122,46,02,50,173,46,04,36,126,46,06,37,216,46,0*76
$GBGSV,3,2,09,09,37,287,46,11,18,131,46,12,10,061,46,13,49,203,47,0*7F
$GBGSV,3,3,09,14,09,165,46,0*42
$GNGLL,3000.00004,N,12000.00015,E,000053.00,A,A*71

$GNRMC,000054.00,A,3000.00004,N,12000.00015,E,0.005,,230721,5.69,W,A,V*56
$GNVTG,,T,,M,0.005,N,0.010,K,A*39
$GNGGA,000054.00,3000.00004,N,12000.00015,E,1,08,1.39,-7.6,M,7.0,M,,*5B
$GNGSA,A,3,,,,,,,,,,,,,3.32,1.39,3.01,1*0A
$GNGSA,A,3,,,,,,,,,,,,,3.32,1.39,3.01,3*08
$GNGSA,A,3,04,09,12,01,06,11,13,02,,,,,3.32,1.39,3.01,4*06
$GPGSV,4,1,13,01,00,121,,02,33,300,,04,52,247,,07,84,120,,0*6A
$GPGSV,4,2,13,08,47,207,,10,01,310,,13,50,031,,16,01,039,,0*64
$GPGSV,4,3,13,20,23,121,,23,28,057,,25,67,043,,27,18,219,,0*6F
$GPGSV,4,4,13,28,00,182,,0*56
$GAGSV,2,1,08,09,13,317,,10,64,334,,11,56,117,,12,07,130,,0*74
$GAGSV,2,2,08,17,31,040,,23,38,222,,24,86,022,,27,31,126,,0*7E
$GBGSV,3,1,09,01,38,122,46,02,50,173,46,04,36,126,46,06,37,216,46,0*76
$GBGSV,3,2,09,09,37,287,46,11,18,131,46,12,10,061,46,13,49,203,47,0*7F
$GBGSV,3,3,09,14,09,165,46,0*42
$GNGLL,3000.00004,N,12000.00015,E,000054.00,A,A*76

$GNRMC,000055.00,A,3000.00004,N,12000.00015,E,0.015,,230721,5.69,W,A,V*56
$GNVTG,,T,,M,0.015,N,0.028,K,A*33
$GNGGA,000055.00,3000.00004,N,12000.00015,E,1,08,1.39,-7.7,M,7.0,M,,*5B
$GNGSA,A,3,,,,,,,,,,,,,3.32,1.39,3.01,1*0A
$GNGSA,A,3,,,,,,,,,,,,,3.32,1.39,3.01,3*08
$GNGSA,A,3,04,09,12,01,06,11,13,02,,,,,3.32,1.39,3.01,4*06
$GPGSV,4,1,13,01,00,121,,02,33,300,,04,52,247,,07,84,120,,0*6A
$GPGSV,4,2,13,08,47,207,,10,01,310,,13,50,031,,16,01,039,,0*64
$GPGSV,4,3,13,20,23,121,,23,28,057,,25,67,043,,27,18,219,,0*6F
$GPGSV,4,4,13,28,00,182,,0*56
$GAGSV,2,1,08,09,13,317,,10,64,334,,11,56,117,,12,07,130,,0*74
$GAGSV,2,2,08,17,31,040,,23,38,222,,24,86,022,,27,31,126,,0*7E
$GBGSV,3,1,09,01,38,122,46,02,50,173,46,04,36,126,46,06,37,216,46,0*76
$GBGSV,3,2,09,09,37,287,46,11,18,131,46,12,10,061,46,13,49,203,47,0*7F
$GBGSV,3,3,09,14,09,165,46,0*42
$GNGLL,3000.00004,N,12000.00015,E,000055.00,A,A*77

$GNRMC,000056.00,A,3000.00003,N,12000.00015,E,0.009,,230721,5.69,W,A,V*5F
$GNVTG,,T,,M,0.009,N,0.017,K,A*32
$GNGGA,000056.00,3000.00003,N,12000.00015,E,1,08,1.39,-7.7,M,7.0,M,,*5F
$GNGSA,A,3,,,,,,,,,,,,,3.32,1.39,3.01,1*0A
$GNGSA,A,3,,,,,,,,,,,,,3.32,1.39,3.01,3*08
$GNGSA,A,3,04,09,12,01,06,11,13,02,,,,,3.32,1.39,3.01,4*06
$GPGSV,4,1,13,01,00,121,,02,33,300,,04,52,247,,07,84,120,,0*6A
$GPGSV,4,2,13,08,47,207,,10,01,310,,13,50,031,,16,01,039,,0*64
$GPGSV,4,3,13,20,23,121,,23,28,057,,25,67,043,,27,18,219,,0*6F
$GPGSV,4,4,13,28,00,182,,0*56
$GAGSV,2,1,08,09,13,317,,10,64,334,,11,56,117,,12,07,130,,0*74
$GAGSV,2,2,08,17,31,040,,23,38,222,,24,86,022,,27,31,126,,0*7E
$GBGSV,3,1,09,01,38,122,46,02,50,173,46,04,36,126,46,06,37,216,46,0*76
$GBGSV,3,2,09,09,37,287,46,11,18,131,46,12,10,061,46,13,49,203,47,0*7F
$GBGSV,3,3,09,14,09,165,46,0*42
$GNGLL,3000.00003,N,12000.00015,E,000056.00,A,A*73

$GNRMC,000057.00,A,3000.00003,N,12000.00015,E,0.002,,230721,5.69,W,A,V*55
$GNVTG,,T,,M,0.002,N,0.004,K,A*3B
$GNGGA,000057.00,3000.00003,N,12000.00015,E,1,08,1.39,-7.6,M,7.0,M,,*5F
$GNGSA,A,3,,,,,,,,,,,,,3.32,1.39,3.01,1*0A
$GNGSA,A,3,,,,,,,,,,,,,3.32,1.39,3.01,3*08
$GNGSA,A,3,04,09,12,01,06,11,13,02,,,,,3.32,1.39,3.01,4*06
$GPGSV,4,1,13,01,00,121,,02,33,300,,04,52,247,,07,84,120,,0*6A
$GPGSV,4,2,13,08,47,207,,10,01,310,,13,50,031,,16,01,039,,0*64
$GPGSV,4,3,13,20,23,121,,23,28,057,,25,67,043,,27,18,219,,0*6F
$GPGSV,4,4,13,28,00,182,,0*56
$GAGSV,2,1,08,09,13,317,,10,64,334,,11,56,117,,12,07,130,,0*74
$GAGSV,2,2,08,17,31,040,,23,38,222,,24,86,022,,27,31,126,,0*7E
$GBGSV,3,1,09,01,38,122,46,02,50,173,46,04,36,126,46,06,37,216,46,0*76
$GBGSV,3,2,09,09,37,287,46,11,18,131,46,12,10,061,46,13,49,203,47,0*7F
$GBGSV,3,3,09,14,09,165,46,0*42
$GNGLL,3000.00003,N,12000.00015,E,000057.00,A,A*72

$GNRMC,000058.00,A,3000.00003,N,12000.00015,E,0.003,,230721,5.69,W,A,V*5B
$GNVTG,,T,,M,0.003,N,0.006,K,A*38
$GNGGA,000058.00,3000.00003,N,12000.00015,E,1,08,1.39,-7.6,M,7.0,M,,*50
$GNGSA,A,3,,,,,,,,,,,,,3.32,1.39,3.01,1*0A
$GNGSA,A,3,,,,,,,,,,,,,3.32,1.39,3.01,3*08
$GNGSA,A,3,04,09,12,01,06,11,13,02,,,,,3.32,1.39,3.01,4*06
$GPGSV,4,1,13,01,00,121,,02,33,300,,04,52,247,,07,84,120,,0*6A
$GPGSV,4,2,13,08,47,207,,10,01,310,,13,50,031,,16,01,039,,0*64
$GPGSV,4,3,13,20,23,121,,23,28,057,,25,67,043,,27,18,219,,0*6F
$GPGSV,4,4,13,28,00,182,,0*56
$GAGSV,2,1,08,09,13,317,,10,64,334,,11,56,117,,12,07,130,,0*74
$GAGSV,2,2,08,17,31,040,,23,38,222,,24,86,022,,27,31,126,,0*7E
$GBGSV,3,1,09,01,38,122,46,02,50,173,46,04,36,126,46,06,37,216,46,0*76
$GBGSV,3,2,09,09,37,287,46,11,18,131,46,12,10,061,46,13,49,203,47,0*7F
$GBGSV,3,3,09,14,09,165,46,0*42
$GNGLL,3000.00003,N,12000.00015,E,000058.00,A,A*7D

$GNRMC,000059.00,A,3000.00003,N,12000.00015,E,0.005,,230721,5.69,W,A,V*5C
$GNVTG,,T,,M,0.005,N,0.008,K,A*30
$GNGGA,000059.00,3000.00003,N,12000.00015,E,1,08,1.39,-7.6,M,7.0,M,,*51
$GNGSA,A,3,,,,,,,,,,,,,3.32,1.39,3.01,1*0A
$GNGSA,A,3,,,,,,,,,,,,,3.32,1.39,3.01,3*08
$GNGSA,A,3,04,09,12,01,06,11,13,02,,,,,3.32,1.39,3.01,4*06
$GPGSV,4,1,13,01,00,121,,02,33,300,,04,52,247,,07,84,120,,0*6A
$GPGSV,4,2,13,08,47,207,,10,01,310,,13,50,031,,16,01,039,,0*64
$GPGSV,4,3,13,20,23,121,,23,28,057,,25,67,043,,27,18,219,,0*6F
$GPGSV,4,4,13,28,00,182,,0*56
$GAGSV,2,1,08,09,13,317,,10,64,334,,11,56,117,,12,07,130,,0*74
$GAGSV,2,2,08,17,31,040,,23,38,222,,24,86,022,,27,31,126,,0*7E
$GBGSV,3,1,09,01,38,122,46,02,50,173,46,04,36,126,46,06,37,216,46,0*76
$GBGSV,3,2,09,09,37,287,46,11,18,131,46,12,10,061,46,13,49,203,47,0*7F
$GBGSV,3,3,09,14,09,165,46,0*42
$GNGLL,3000.00003,N,12000.00015,E,000059.00,A,A*7C

$GNRMC,000100.00,A,3000.00003,N,12000.00015,E,0.008,,230721,5.69,W,A,V*5C
$GNVTG,,T,,M,0.008,N,0.014,K,A*30
$GNGGA,000100.00,3000.00003,N,12000.00015,E,1,08,1.39,-7.6,M,7.0,M,,*5C
$GNGSA,A,3,,,,,,,,,,,,,3.32,1.39,3.01,1*0A
$GNGSA,A,3,,,,,,,,,,,,,3.32,1.39,3.01,3*08
$GNGSA,A,3,04,09,12,01,06,11,13,02,,,,,3.32,1.39,3.01,4*06
$GPGSV,4,1,13,01,00,121,,02,33,300,,04,52,247,,07,84,120,,0*6A
$GPGSV,4,2,13,08,47,207,,10,01,310,,13,50,031,,16,01,039,,0*64
$GPGSV,4,3,13,20,23,121,,23,28,057,,25,67,043,,27,18,219,,0*6F
$GPGSV,4,4,13,28,00,182,,0*56
$GAGSV,2,1,08,09,13,317,,10,64,334,,11,56,117,,12,07,130,,0*74
$GAGSV,2,2,08,17,31,040,,23,38,222,,24,86,022,,27,31,126,,0*7E
$GBGSV,3,1,09,01,38,122,46,02,50,173,46,04,36,126,46,06,37,216,46,0*76
$GBGSV,3,2,09,09,37,287,46,11,18,131,46,12,10,061,46,13,49,203,47,0*7F
$GBGSV,3,3,09,14,09,165,46,0*42
$GNGLL,3000.00003,N,12000.00015,E,000100.00,A,A*71

$GNRMC,000101.00,A,3000.00003,N,12000.00014,E,0.014,,230721,5.69,W,A,V*51
$GNVTG,,T,,M,0.014,N,0.027,K,A*3D
$GNGGA,000101.00,3000.00003,N,12000.00014,E,1,08,1.39,-7.6,M,7.0,M,,*5C
$GNGSA,A,3,,,,,,,,,,,,,3.32,1.39,3.01,1*0A
$GNGSA,A,3,,,,,,,,,,,,,3.32,1.39,3.01,3*08
$GNGSA,A,3,04,09,12,01,06,11,13,02,,,,,3.32,1.39,3.01,4*06
$GPGSV,4,1,13,01,00,121,,02,33,300,,04,52,247,,07,84,120,,0*6A
$GPGSV,4,2,13,08,47,207,,10,01,310,,13,50,031,,16,01,039,,0*64
$GPGSV,4,3,13,20,23,121,,23,28,057,,25,67,043,,27,18,219,,0*6F
$GPGSV,4,4,13,28,00,182,,0*56
$GAGSV,2,1,08,09,13,317,,10,64,334,,11,56,117,,12,07,130,,0*74
$GAGSV,2,2,08,17,31,040,,23,38,222,,24,86,022,,27,31,126,,0*7E
$GBGSV,3,1,09,01,38,122,46,02,50,173,46,04,36,126,46,06,37,216,46,0*76
$GBGSV,3,2,09,09,37,287,46,11,18,131,46,12,10,061,46,13,49,203,47,0*7F
$GBGSV,3,3,09,14,09,165,46,0*42
$GNGLL,3000.00003,N,12000.00014,E,000101.00,A,A*71

$GNRMC,000102.00,A,3000.00003,N,12000.00014,E,0.011,,230721,5.69,W,A,V*57
$GNVTG,,T,,M,0.011,N,0.020,K,A*3F
$GNGGA,000102.00,3000.00003,N,12000.00014,E,1,08,1.39,-7.6,M,7.0,M,,*5F
$GNGSA,A,3,,,,,,,,,,,,,3.32,1.39,3.01,1*0A
$GNGSA,A,3,,,,,,,,,,,,,3.32,1.39,3.01,3*08
$GNGSA,A,3,04,09,12,01,06,11,13,02,,,,,3.32,1.39,3.01,4*06
$GPGSV,4,1,13,01,00,121,,02,33,300,,04,52,247,,07,84,120,,0*6A
$GPGSV,4,2,13,08,47,207,,10,01,310,,13,50,031,,16,01,039,,0*64
$GPGSV,4,3,13,20,23,121,,23,28,057,,25,67,043,,27,18,219,,0*6F
$GPGSV,4,4,13,28,00,182,,0*56
$GAGSV,2,1,08,09,13,317,,10,64,334,,11,56,117,,12,07,130,,0*74
$GAGSV,2,2,08,17,31,040,,23,38,222,,24,86,022,,27,31,126,,0*7E
$GBGSV,3,1,09,01,38,122,46,02,50,173,46,04,36,126,46,06,37,216,46,0*76
$GBGSV,3,2,09,09,37,287,46,11,18,131,46,12,10,061,46,13,49,203,47,0*7F
$GBGSV,3,3,09,14,09,165,46,0*42
$GNGLL,3000.00003,N,12000.00014,E,000102.00,A,A*72

$GNRMC,000103.00,A,3000.00003,N,12000.00014,E,0.007,,230721,5.69,W,A,V*51
$GNVTG,,T,,M,0.007,N,0.012,K,A*39
$GNGGA,000103.00,3000.00003,N,12000.00014,E,1,08,1.39,-7.6,M,7.0,M,,*5E
$GNGSA,A,3,,,,,,,,,,,,,3.32,1.39,3.02,1*09
$GNGSA,A,3,,,,,,,,,,,,,3.32,1.39,3.02,3*0B
$GNGSA,A,3,04,09,12,01,06,11,13,02,,,,,3.32,1.39,3.02,4*05
$GPGSV,4,1,13,01,00,121,,02,33,300,,04,52,247,,07,84,120,,0*6A
$GPGSV,4,2,13,08,47,207,,10,01,310,,13,50,031,,16,01,039,,0*64
$GPGSV,4,3,13,20,23,121,,23,28,057,,25,67,043,,27,18,219,,0*6F
$GPGSV,4,4,13,28,00,182,,0*56
$GAGSV,2,1,08,09,13,317,,10,64,334,,11,56,117,,12,07,130,,0*74
$GAGSV,2,2,08,17,31,040,,23,38,222,,24,86,022,,27,31,126,,0*7E
$GBGSV,3,1,09,01,38,122,46,02,50,173,46,04,36,126,46,06,37,216,46,0*76
$GBGSV,3,2,09,09,37,287,46,11,18,131,46,12,10,061,46,13,49,203,47,0*7F
$GBGSV,3,3,09,14,09,165,46,0*42
$GNGLL,3000.00003,N,12000.00014,E,000103.00,A,A*73

$GNRMC,000104.00,A,3000.00003,N,12000.00014,E,0.011,,230721,5.69,W,A,V*51
$GNVTG,,T,,M,0.011,N,0.021,K,A*3E
$GNGGA,000104.00,3000.00003,N,12000.00014,E,1,08,1.39,-7.6,M,7.0,M,,*59
$GNGSA,A,3,,,,,,,,,,,,,3.32,1.39,3.02,1*09
$GNGSA,A,3,,,,,,,,,,,,,3.32,1.39,3.02,3*0B
$GNGSA,A,3,04,09,12,01,06,11,13,02,,,,,3.32,1.39,3.02,4*05
$GPGSV,4,1,13,01,00,121,,02,33,300,,04,52,247,,07,84,120,,0*6A
$GPGSV,4,2,13,08,47,207,,10,01,310,,13,50,031,,16,01,039,,0*64
$GPGSV,4,3,13,20,23,121,,23,28,057,,25,67,043,,27,18,219,,0*6F
$GPGSV,4,4,13,28,00,182,,0*56
$GAGSV,2,1,08,09,13,317,,10,64,334,,11,56,117,,12,07,130,,0*74
$GAGSV,2,2,08,17,31,040,,23,38,222,,24,86,022,,27,31,126,,0*7E
$GBGSV,3,1,09,01,38,122,46,02,50,173,46,04,36,126,46,06,37,216,46,0*76
$GBGSV,3,2,09,09,37,287,46,11,18,131,46,12,10,061,46,13,49,203,47,0*7F
$GBGSV,3,3,09,14,09,165,46,0*42
$GNGLL,3000.00003,N,12000.00014,E,000104.00,A,A*74

$GNRMC,000105.00,A,3000.00000,N,12000.00010,E,0.006,,230721,5.69,W,A,V*51
$GNVTG,,T,,M,0.006,N,0.011,K,A*3B
$GNGGA,000105.00,3000.00000,N,12000.00010,E,1,08,1.39,-7.8,M,7.0,M,,*51
$GNGSA,A,3,,,,,,,,,,,,,3.32,1.39,3.02,1*09
$GNGSA,A,3,,,,,,,,,,,,,3.32,1.39,3.02,3*0B
$GNGSA,A,3,04,09,12,01,06,11,13,02,,,,,3.32,1.39,3.02,4*05
$GPGSV,4,1,13,01,00,121,,02,33,300,,04,52,247,,07,84,120,,0*6A
$GPGSV,4,2,13,08,47,207,,10,01,310,,13,50,031,,16,01,039,,0*64
$GPGSV,4,3,13,20,23,121,,23,28,057,,25,67,043,,27,18,219,,0*6F
$GPGSV,4,4,13,28,00,182,,0*56
$GAGSV,2,1,08,09,13,317,,10,64,334,,11,56,117,,12,07,130,,0*74
$GAGSV,2,2,08,17,31,040,,23,38,222,,24,86,022,,27,31,126,,0*7E
$GBGSV,3,1,09,01,38,122,46,02,50,173,46,04,36,126,46,06,37,216,46,0*76
$GBGSV,3,2,09,09,37,287,46,11,18,131,46,12,10,061,46,13,49,203,47,0*7F
$GBGSV,3,3,09,14,09,165,46,0*42
$GNGLL,3000.00000,N,12000.00010,E,000105.00,A,A*72

$GNRMC,000106.00,A,2959.99998,N,12000.00008,E,0.006,,230721,5.69,W,A,V*57
$GNVTG,,T,,M,0.006,N,0.010,K,A*3A
$GNGGA,000106.00,2959.99998,N,12000.00008,E,1,08,1.39,-7.8,M,7.0,M,,*57
$GNGSA,A,3,,,,,,,,,,,,,3.32,1.39,3.02,1*09
$GNGSA,A,3,,,,,,,,,,,,,3.32,1.39,3.02,3*0B
$GNGSA,A,3,04,09,12,01,06,11,13,02,,,,,3.32,1.39,3.02,4*05
$GPGSV,4,1,13,01,00,121,,02,33,300,,04,52,247,,07,84,120,,0*6A
$GPGSV,4,2,13,08,47,207,,10,01,310,,13,50,031,,16,01,039,,0*64
$GPGSV,4,3,13,20,23,121,,23,28,057,,25,67,043,,27,18,219,,0*6F
$GPGSV,4,4,13,28,00,182,,0*56
$GAGSV,2,1,08,09,14,317,,10,64,334,,11,56,117,,12,07,130,,0*73
$GAGSV,2,2,08,17,31,040,,23,38,222,,24,86,022,,27,31,126,,0*7E
$GBGSV,3,1,09,01,38,122,46,02,50,173,46,04,36,126,46,06,37,216,46,0*76
$GBGSV,3,2,09,09,37,287,46,11,18,131,46,12,10,061,46,13,49,203,47,0*7F
$GBGSV,3,3,09,14,09,165,46,0*42
$GNGLL,2959.99998,N,12000.00008,E,000106.00,A,A*74

$GNRMC,000107.00,A,2959.99997,N,12000.00007,E,0.013,,230721,5.69,W,A,V*52
$GNVTG,,T,,M,0.013,N,0.024,K,A*39
$GNGGA,000107.00,2959.99997,N,12000.00007,E,1,08,1.39,-7.8,M,7.0,M,,*56
$GNGSA,A,3,,,,,,,,,,,,,3.32,1.39,3.02,1*09
$GNGSA,A,3,,,,,,,,,,,,,3.32,1.39,3.02,3*0B
$GNGSA,A,3,04,09,12,01,06,11,13,02,,,,,3.32,1.39,3.02,4*05
$GPGSV,4,1,13,01,00,121,,02,33,300,,04,52,247,,07,84,120,,0*6A
$GPGSV,4,2,13,08,47,207,,10,01,310,,13,50,031,,16,01,039,,0*64
$GPGSV,4,3,13,20,23,121,,23,28,057,,25,67,043,,27,18,219,,0*6F
$GPGSV,4,4,13,28,00,182,,0*56
$GAGSV,2,1,08,09,14,317,,10,64,334,,11,56,117,,12,07,130,,0*73
$GAGSV,2,2,08,17,31,040,,23,38,222,,24,86,022,,27,31,126,,0*7E
$GBGSV,3,1,09,01,38,122,46,02,50,173,46,04,36,126,46,06,37,216,46,0*76
$GBGSV,3,2,09,09,37,287,46,11,18,131,46,12,10,061,46,13,49,203,47,0*7F
$GBGSV,3,3,09,14,09,165,46,0*42
$GNGLL,2959.99997,N,12000.00007,E,000107.00,A,A*75

$GNRMC,000108.00,A,2959.99996,N,12000.00005,E,0.008,,230721,5.69,W,A,V*54
$GNVTG,,T,,M,0.008,N,0.014,K,A*30
$GNGGA,000108.00,2959.99996,N,12000.00005,E,1,08,1.39,-7.8,M,7.0,M,,*5A
$GNGSA,A,3,,,,,,,,,,,,,3.32,1.39,3.02,1*09
$GNGSA,A,3,,,,,,,,,,,,,3.32,1.39,3.02,3*0B
$GNGSA,A,3,04,09,12,01,06,11,13,02,,,,,3.32,1.39,3.02,4*05
$GPGSV,4,1,13,01,00,121,,02,33,300,,04,52,247,,07,84,120,,0*6A
$GPGSV,4,2,13,08,47,207,,10,01,310,,13,50,031,,16,01,039,,0*64
$GPGSV,4,3,13,20,23,121,,23,28,057,,25,67,043,,27,18,219,,0*6F
$GPGSV,4,4,13,28,00,182,,0*56
$GAGSV,2,1,08,09,14,317,,10,64,334,,11,56,118,,12,07,130,,0*7C
$GAGSV,2,2,08,17,31,040,,23,38,222,,24,86,022,,27,31,126,,0*7E
$GBGSV,3,1,09,01,38,122,46,02,50,173,46,04,36,126,46,06,37,216,46,0*76
$GBGSV,3,2,09,09,37,287,46,11,18,131,46,12,10,061,46,13,49,203,47,0*7F
$GBGSV,3,3,09,14,09,165,46,0*42
$GNGLL,2959.99996,N,12000.00005,E,000108.00,A,A*79

$GNRMC,000109.00,A,2959.99996,N,12000.00005,E,0.003,,230721,5.69,W,A,V*5E
$GNVTG,,T,,M,0.003,N,0.005,K,A*3B
$GNGGA,000109.00,2959.99996,N,12000.00005,E,1,08,1.39,-7.8,M,7.0,M,,*5B
$GNGSA,A,3,,,,,,,,,,,,,3.32,1.39,3.02,1*09
$GNGSA,A,3,,,,,,,,,,,,,3.32,1.39,3.02,3*0B
$GNGSA,A,3,04,09,12,01,06,11,13,02,,,,,3.32,1.39,3.02,4*05
$GPGSV,4,1,13,01,00,121,,02,33,300,,04,52,247,,07,84,120,,0*6A
$GPGSV,4,2,13,08,47,207,,10,01,310,,13,50,031,,16,01,039,,0*64
$GPGSV,4,3,13,20,23,121,,23,28,057,,25,67,043,,27,18,219,,0*6F
$GPGSV,4,4,13,28,00,182,,0*56
$GAGSV,2,1,08,09,14,317,,10,64,334,,11,56,118,,12,07,130,,0*7C
$GAGSV,2,2,08,17,31,040,,23,38,222,,24,86,022,,27,31,126,,0*7E
$GBGSV,3,1,09,01,38,122,46,02,50,173,46,04,36,126,46,06,37,216,46,0*76
$GBGSV,3,2,09,09,37,287,46,11,18,131,46,12,10,061,46,13,49,203,47,0*7F
$GBGSV,3,3,09,14,09,165,46,0*42
$GNGLL,2959.99996,N,12000.00005,E,000109.00,A,A*78

$GNRMC,000110.00,A,2959.99997,N,12000.00004,E,0.009,,230721,5.69,W,A,V*5C
$GNVTG,,T,,M,0.009,N,0.018,K,A*3D
$GNGGA,000110.00,2959.99997,N,12000.00004,E,1,08,1.39,-7.7,M,7.0,M,,*5C
$GNGSA,A,3,,,,,,,,,,,,,3.32,1.39,3.02,1*09
$GNGSA,A,3,,,,,,,,,,,,,3.32,1.39,3.02,3*0B
$GNGSA,A,3,04,09,12,01,06,11,13,02,,,,,3.32,1.39,3.02,4*05
$GPGSV,4,1,13,01,00,121,,02,33,300,,04,52,247,,07,84,120,,0*6A
$GPGSV,4,2,13,08,47,207,,10,01,310,,13,50,031,,16,01,039,,0*64
$GPGSV,4,3,13,20,23,121,,23,28,057,,25,67,043,,27,18,219,,0*6F
$GPGSV,4,4,13,28,00,182,,0*56
$GAGSV,2,1,08,09,14,317,,10,64,334,,11,56,118,,12,07,130,,0*7C
$GAGSV,2,2,08,17,31,040,,23,38,222,,24,86,022,,27,31,126,,0*7E
$GBGSV,3,1,09,01,38,122,46,02,50,173,46,04,36,126,46,06,37,216,46,0*76
$GBGSV,3,2,09,09,37,287,46,11,18,131,46,12,10,061,46,13,49,203,47,0*7F
$GBGSV,3,3,09,14,09,165,46,0*42
$GNGLL,2959.99997,N,12000.00004,E,000110.00,A,A*70

$GNRMC,000111.00,A,2959.99997,N,12000.00003,E,0.008,,230721,5.69,W,A,V*5B
$GNVTG,,T,,M,0.008,N,0.015,K,A*31
$GNGGA,000111.00,2959.99997,N,12000.00003,E,1,08,1.39,-7.7,M,7.0,M,,*5A
$GNGSA,A,3,,,,,,,,,,,,,3.32,1.39,3.02,1*09
$GNGSA,A,3,,,,,,,,,,,,,3.32,1.39,3.02,3*0B
$GNGSA,A,3,04,09,12,01,06,11,13,02,,,,,3.32,1.39,3.02,4*05
$GPGSV,4,1,13,01,00,121,,02,33,300,,04,52,247,,07,84,120,,0*6A
$GPGSV,4,2,13,08,47,207,,10,01,310,,13,50,031,,16,01,039,,0*64
$GPGSV,4,3,13,20,23,121,,23,28,057,,25,67,043,,27,18,219,,0*6F
$GPGSV,4,4,13,28,00,182,,0*56
$GAGSV,2,1,08,09,14,317,,10,64,334,,11,56,118,,12,07,130,,0*7C
$GAGSV,2,2,08,17,31,040,,23,38,222,,24,86,022,,27,31,126,,0*7E
$GBGSV,3,1,09,01,38,122,46,02,50,173,46,04,36,126,46,06,37,216,46,0*76
$GBGSV,3,2,09,09,37,287,46,11,18,131,46,12,10,061,46,13,49,203,47,0*7F
$GBGSV,3,3,09,14,09,165,46,0*42
$GNGLL,2959.99997,N,12000.00003,E,000111.00,A,A*76

$GNRMC,000112.00,A,2959.99997,N,12000.00003,E,0.004,,230721,5.69,W,A,V*54
$GNVTG,,T,,M,0.004,N,0.008,K,A*31
$GNGGA,000112.00,2959.99997,N,12000.00003,E,1,08,1.39,-7.7,M,7.0,M,,*59
$GNGSA,A,3,,,,,,,,,,,,,3.32,1.39,3.02,1*09
$GNGSA,A,3,,,,,,,,,,,,,3.32,1.39,3.02,3*0B
$GNGSA,A,3,04,09,12,01,06,11,13,02,,,,,3.32,1.39,3.02,4*05
$GPGSV,4,1,13,01,00,121,,02,33,300,,04,52,247,,07,84,120,,0*6A
$GPGSV,4,2,13,08,47,207,,10,01,310,,13,50,031,,16,01,039,,0*64
$GPGSV,4,3,13,20,23,121,,23,28,057,,25,67,043,,27,18,219,,0*6F
$GPGSV,4,4,13,28,00,182,,0*56
$GAGSV,2,1,08,09,14,317,,10,64,334,,11,56,118,,12,07,130,,0*7C
$GAGSV,2,2,08,17,31,040,,23,38,222,,24,86,022,,27,31,126,,0*7E
$GBGSV,3,1,09,01,38,122,46,02,50,173,46,04,36,126,46,06,37,216,46,0*76
$GBGSV,3,2,09,09,37,287,46,11,18,131,46,12,10,061,46,13,49,203,47,0*7F
$GBGSV,3,3,09,14,09,165,46,0*42
$GNGLL,2959.99997,N,12000.00003,E,000112.00,A,A*75

$GNRMC,000113.00,A,2959.99997,N,12000.00004,E,0.010,,230721,5.69,W,A,V*57
$GNVTG,,T,,M,0.010,N,0.019,K,A*34
$GNGGA,000113.00,2959.99997,N,12000.00004,E,1,08,1.39,-7.6,M,7.0,M,,*5E
$GNGSA,A,3,,,,,,,,,,,,,3.33,1.39,3.02,1*08
$GNGSA,A,3,,,,,,,,,,,,,3.33,1.39,3.02,3*0A
$GNGSA,A,3,04,09,12,01,06,11,13,02,,,,,3.33,1.39,3.02,4*04
$GPGSV,4,1,13,01,00,121,,02,33,300,,04,52,247,,07,84,120,,0*6A
$GPGSV,4,2,13,08,47,207,,10,01,310,,13,50,031,,16,01,039,,0*64
$GPGSV,4,3,13,20,23,121,,23,28,057,,25,67,043,,27,18,219,,0*6F
$GPGSV,4,4,13,28,00,182,,0*56
$GAGSV,2,1,08,09,14,317,,10,64,334,,11,56,118,,12,07,130,,0*7C
$GAGSV,2,2,08,17,31,040,,23,38,222,,24,86,022,,27,31,126,,0*7E
$GBGSV,3,1,09,01,38,122,46,02,50,173,46,04,36,126,46,06,37,216,46,0*76
$GBGSV,3,2,09,09,37,287,46,11,18,131,46,12,10,061,46,13,49,203,47,0*7F
$GBGSV,3,3,09,14,09,165,46,0*42
$GNGLL,2959.99997,N,12000.00004,E,000113.00,A,A*73

$GNRMC,000114.00,A,2959.99997,N,12000.00005,E,0.013,,230721,5.69,W,A,V*52
$GNVTG,,T,,M,0.013,N,0.025,K,A*38
$GNGGA,000114.00,2959.99997,N,12000.00005,E,1,08,1.39,-7.6,M,7.0,M,,*58
$GNGSA,A,3,,,,,,,,,,,,,3.33,1.39,3.02,1*08
$GNGSA,A,3,,,,,,,,,,,,,3.33,1.39,3.02,3*0A
$GNGSA,A,3,04,09,12,01,06,11,13,02,,,,,3.33,1.39,3.02,4*04
$GPGSV,4,1,13,01,00,121,,02,33,300,,04,52,247,,07,84,120,,0*6A
$GPGSV,4,2,13,08,47,207,,10,01,310,,13,50,031,,16,01,039,,0*64
$GPGSV,4,3,13,20,23,121,,23,28,057,,25,67,043,,27,18,219,,0*6F
$GPGSV,4,4,13,28,00,182,,0*56
$GAGSV,2,1,08,09,14,317,,10,64,334,,11,56,118,,12,07,130,,0*7C
$GAGSV,2,2,08,17,31,040,,23,38,222,,24,86,022,,27,31,126,,0*7E
$GBGSV,3,1,09,01,38,122,46,02,50,173,46,04,36,126,46,06,37,216,46,0*76
$GBGSV,3,2,09,09,37,287,46,11,18,131,46,12,10,061,46,13,49,203,47,0*7F
$GBGSV,3,3,09,14,09,165,46,0*42
$GNGLL,2959.99997,N,12000.00005,E,000114.00,A,A*75

$GNRMC,000115.00,A,2959.99997,N,12000.00005,E,0.015,,230721,5.69,W,A,V*55
$GNVTG,,T,,M,0.015,N,0.028,K,A*33
$GNGGA,000115.00,2959.99997,N,12000.00005,E,1,08,1.39,-7.6,M,7.0,M,,*59
$GNGSA,A,3,,,,,,,,,,,,,3.33,1.39,3.02,1*08
$GNGSA,A,3,,,,,,,,,,,,,3.33,1.39,3.02,3*0A
$GNGSA,A,3,04,09,12,01,06,11,13,02,,,,,3.33,1.39,3.02,4*04
$GPGSV,4,1,13,01,00,121,,02,33,300,,04,52,247,,07,84,120,,0*6A
$GPGSV,4,2,13,08,47,207,,10,01,310,,13,50,031,,16,01,039,,0*64
$GPGSV,4,3,13,20,23,121,,23,28,057,,25,67,043,,27,18,219,,0*6F
$GPGSV,4,4,13,28,00,182,,0*56
$GAGSV,2,1,08,09,14,317,,10,64,334,,11,56,118,,12,07,130,,0*7C
$GAGSV,2,2,08,17,31,040,,23,38,222,,24,86,022,,27,31,126,,0*7E
$GBGSV,3,1,09,01,38,122,46,02,50,173,46,04,36,126,46,06,37,216,46,0*76
$GBGSV,3,2,09,09,37,287,46,11,18,131,46,12,10,061,46,13,49,203,47,0*7F
$GBGSV,3,3,09,14,09,165,46,0*42
$GNGLL,2959.99997,N,12000.00005,E,000115.00,A,A*74

$GNRMC,000116.00,A,2959.99997,N,12000.00006,E,0.014,,230721,5.69,W,A,V*54
$GNVTG,,T,,M,0.014,N,0.026,K,A*3C
$GNGGA,000116.00,2959.99997,N,12000.00006,E,1,08,1.39,-7.6,M,7.0,M,,*59
$GNGSA,A,3,,,,,,,,,,,,,3.33,1.39,3.02,1*08
$GNGSA,A,3,,,,,,,,,,,,,3.33,1.39,3.02,3*0A
$GNGSA,A,3,04,09,12,01,06,11,13,02,,,,,3.33,1.39,3.02,4*04
$GPGSV,4,1,13,01,00,121,,02,33,300,,04,52,247,,07,84,120,,0*6A
$GPGSV,4,2,13,08,47,207,,10,01,310,,13,50,031,,16,01,039,,0*64
$GPGSV,4,3,13,20,23,121,,23,28,057,,25,67,043,,27,18,219,,0*6F
$GPGSV,4,4,13,28,00,182,,0*56
$GAGSV,2,1,08,09,14,317,,10,64,334,,11,56,118,,12,07,130,,0*7C
$GAGSV,2,2,08,17,31,040,,23,38,222,,24,86,022,,27,31,126,,0*7E
$GBGSV,3,1,09,01,38,122,46,02,50,173,46,04,36,126,46,06,37,216,46,0*76
$GBGSV,3,2,09,09,37,287,46,11,18,131,46,12,10,061,46,13,49,203,47,0*7F
$GBGSV,3,3,09,14,09,165,46,0*42
$GNGLL,2959.99997,N,12000.00006,E,000116.00,A,A*74

$GNRMC,000117.00,A,2959.99997,N,12000.00007,E,0.008,,230721,5.69,W,A,V*59
$GNVTG,,T,,M,0.008,N,0.015,K,A*31
$GNGGA,000117.00,2959.99997,N,12000.00007,E,1,08,1.39,-7.6,M,7.0,M,,*59
$GNGSA,A,3,,,,,,,,,,,,,3.33,1.39,3.02,1*08
$GNGSA,A,3,,,,,,,,,,,,,3.33,1.39,3.02,3*0A
$GNGSA,A,3,04,09,12,01,06,11,13,02,,,,,3.33,1.39,3.02,4*04
$GPGSV,4,1,13,01,00,121,,02,33,300,,04,52,247,,07,84,120,,0*6A
$GPGSV,4,2,13,08,47,207,,10,01,310,,13,50,031,,16,01,039,,0*64
$GPGSV,4,3,13,20,23,121,,23,28,057,,25,67,043,,27,18,219,,0*6F
$GPGSV,4,4,13,28,00,182,,0*56
$GAGSV,2,1,08,09,14,317,,10,64,334,,11,56,118,,12,07,130,,0*7C
$GAGSV,2,2,08,17,31,040,,23,38,222,,24,86,022,,27,31,126,,0*7E
$GBGSV,3,1,09,01,38,122,46,02,50,173,46,04,36,126,46,06,37,216,46,0*76
$GBGSV,3,2,09,09,37,287,46,11,18,131,46,12,10,061,46,13,49,203,47,0*7F
$GBGSV,3,3,09,14,09,165,46,0*42
$GNGLL,2959.99997,N,12000.00007,E,000117.00,A,A*74

$GNRMC,000118.00,A,2959.99997,N,12000.00007,E,0.014,,230721,5.69,W,A,V*5B
$GNVTG,,T,,M,0.014,N,0.026,K,A*3C
$GNGGA,000118.00,2959.99997,N,12000.00007,E,1,08,1.39,-7.6,M,7.0,M,,*56
$GNGSA,A,3,,,,,,,,,,,,,3.33,1.39,3.02,1*08
$GNGSA,A,3,,,,,,,,,,,,,3.33,1.39,3.02,3*0A
$GNGSA,A,3,04,09,12,01,06,11,13,02,,,,,3.33,1.39,3.02,4*04
$GPGSV,4,1,13,01,00,121,,02,33,300,,04,52,247,,07,84,120,,0*6A
$GPGSV,4,2,13,08,47,207,,10,01,310,,13,50,031,,16,01,039,,0*64
$GPGSV,4,3,13,20,23,121,,23,28,057,,25,67,043,,27,18,219,,0*6F
$GPGSV,4,4,13,28,00,182,,0*56
$GAGSV,2,1,08,09,14,317,,10,64,334,,11,56,118,,12,07,130,,0*7C
$GAGSV,2,2,08,17,31,040,,23,38,222,,24,86,022,,27,31,126,,0*7E
$GBGSV,3,1,09,01,38,122,46,02,50,173,46,04,36,126,46,06,37,216,46,0*76
$GBGSV,3,2,09,09,37,287,46,11,18,131,46,12,10,061,46,13,49,203,47,0*7F
$GBGSV,3,3,09,14,09,165,46,0*42
$GNGLL,2959.99997,N,12000.00007,E,000118.00,A,A*7B

$GNRMC,000119.00,A,2959.99997,N,12000.00006,E,0.026,,230721,5.69,W,A,V*5A
$GNVTG,,T,,M,0.026,N,0.048,K,A*35
$GNGGA,000119.00,2959.99997,N,12000.00006,E,1,08,1.39,-7.7,M,7.0,M,,*57
$GNGSA,A,3,,,,,,,,,,,,,3.33,1.39,3.02,1*08
$GNGSA,A,3,,,,,,,,,,,,,3.33,1.39,3.02,3*0A
$GNGSA,A,3,04,09,12,01,06,11,13,02,,,,,3.33,1.39,3.02,4*04
$GPGSV,4,1,13,01,00,121,,02,33,300,,04,52,247,,07,84,120,,0*6A
$GPGSV,4,2,13,08,47,207,,10,01,310,,13,50,031,,16,01,039,,0*64
$GPGSV,4,3,13,20,23,121,,23,28,057,,25,67,043,,27,18,219,,0*6F
$GPGSV,4,4,13,28,00,182,,0*56
$GAGSV,2,1,08,09,14,317,,10,64,334,,11,56,118,,12,07,130,,0*7C
$GAGSV,2,2,08,17,31,040,,23,38,222,,24,86,022,,27,31,126,,0*7E
$GBGSV,3,1,09,01,38,122,46,02,50,173,46,04,36,126,46,06,37,216,46,0*76
$GBGSV,3,2,09,09,37,287,46,11,18,131,46,12,10,061,46,13,49,203,47,0*7F
$GBGSV,3,3,09,14,09,165,46,0*42
$GNGLL,2959.99997,N,12000.00006,E,000119.00,A,A*7B

$GNRMC,000120.00,A,2959.99997,N,12000.00006,E,0.024,,230721,5.69,W,A,V*52
$GNVTG,,T,,M,0.024,N,0.044,K,A*3B
$GNGGA,000120.00,2959.99997,N,12000.00006,E,1,08,1.39,-7.7,M,7.0,M,,*5D
$GNGSA,A,3,,,,,,,,,,,,,3.33,1.39,3.02,1*08
$GNGSA,A,3,,,,,,,,,,,,,3.33,1.39,3.02,3*0A
$GNGSA,A,3,04,09,12,01,06,11,13,02,,,,,3.33,1.39,3.02,4*04
$GPGSV,4,1,13,01,00,121,,02,33,300,,04,52,247,,07,84,120,,0*6A
$GPGSV,4,2,13,08,47,207,,10,01,310,,13,50,031,,16,01,039,,0*64
$GPGSV,4,3,13,20,23,121,,23,28,057,,25,67,043,,27,18,219,,0*6F
$GPGSV,4,4,13,28,00,182,,0*56
$GAGSV,2,1,08,09,14,317,,10,64,334,,11,56,118,,12,07,130,,0*7C
$GAGSV,2,2,08,17,31,040,,23,39,223,,24,86,022,,27,31,126,,0*7E
$GBGSV,3,1,09,01,38,122,46,02,50,173,46,04,36,126,46,06,37,216,46,0*76
$GBGSV,3,2,09,09,37,287,46,11,18,131,46,12,10,061,46,13,49,203,47,0*7F
$GBGSV,3,3,09,14,09,165,46,0*42
$GNGLL,2959.99997,N,12000.00006,E,000120.00,A,A*71

$GNRMC,000121.00,A,2959.99997,N,12000.00006,E,0.019,,230721,5.69,W,A,V*5D
$GNVTG,,T,,M,0.019,N,0.035,K,A*33
$GNGGA,000121.00,2959.99997,N,12000.00006,E,1,08,1.39,-7.7,M,7.0,M,,*5C
$GNGSA,A,3,,,,,,,,,,,,,3.33,1.39,3.02,1*08
$GNGSA,A,3,,,,,,,,,,,,,3.33,1.39,3.02,3*0A
$GNGSA,A,3,04,09,12,01,06,11,13,02,,,,,3.33,1.39,3.02,4*04
$GPGSV,4,1,13,01,00,121,,02,33,300,,04,52,247,,07,84,120,,0*6A
$GPGSV,4,2,13,08,47,207,,10,01,310,,13,50,031,,16,01,039,,0*64
$GPGSV,4,3,13,20,23,121,,23,28,057,,25,67,043,,27,18,219,,0*6F
$GPGSV,4,4,13,28,00,182,,0*56
$GAGSV,2,1,08,09,14,317,,10,64,334,,11,56,118,,12,07,130,,0*7C
$GAGSV,2,2,08,17,31,040,,23,39,223,,24,85,020,,27,31,126,,0*7F
$GBGSV,3,1,09,01,38,122,46,02,50,173,46,04,36,126,46,06,37,216,46,0*76
$GBGSV,3,2,09,09,37,287,46,11,18,131,46,12,10,061,46,13,49,203,47,0*7F
$GBGSV,3,3,09,14,09,165,46,0*42
$GNGLL,2959.99997,N,12000.00006,E,000121.00,A,A*70

$GNRMC,000122.00,A,2959.99997,N,12000.00005,E,0.009,,230721,5.69,W,A,V*5C
$GNVTG,,T,,M,0.009,N,0.017,K,A*32
$GNGGA,000122.00,2959.99997,N,12000.00005,E,1,08,1.39,-7.7,M,7.0,M,,*5C
$GNGSA,A,3,,,,,,,,,,,,,3.33,1.39,3.02,1*08
$GNGSA,A,3,,,,,,,,,,,,,3.33,1.39,3.02,3*0A
$GNGSA,A,3,04,09,12,01,06,11,13,02,,,,,3.33,1.39,3.02,4*04
$GPGSV,4,1,13,01,00,121,,02,33,300,,04,52,247,,07,84,120,,0*6A
$GPGSV,4,2,13,08,47,207,,10,01,310,,13,50,031,,16,01,039,,0*64
$GPGSV,4,3,13,20,23,121,,23,28,057,,25,67,043,,27,18,219,,0*6F
$GPGSV,4,4,13,28,00,182,,0*56
$GAGSV,2,1,08,09,14,317,,10,64,334,,11,56,118,,12,07,130,,0*7C
$GAGSV,2,2,08,17,31,040,,23,39,223,,24,85,020,,27,31,126,,0*7F
$GBGSV,3,1,09,01,38,122,46,02,50,173,46,04,36,126,46,06,37,216,46,0*76
$GBGSV,3,2,09,09,37,287,46,11,18,131,46,12,10,061,46,13,49,203,47,0*7F
$GBGSV,3,3,09,14,09,165,46,0*42
$GNGLL,2959.99997,N,12000.00005,E,000122.00,A,A*70

$GNRMC,000123.00,A,2959.99997,N,12000.00005,E,0.009,,230721,5.69,W,A,V*5D
$GNVTG,,T,,M,0.009,N,0.016,K,A*33
$GNGGA,000123.00,2959.99997,N,12000.00005,E,1,08,1.39,-7.7,M,7.0,M,,*5D
$GNGSA,A,3,,,,,,,,,,,,,3.33,1.39,3.02,1*08
$GNGSA,A,3,,,,,,,,,,,,,3.33,1.39,3.02,3*0A
$GNGSA,A,3,04,09,12,01,06,11,13,02,,,,,3.33,1.39,3.02,4*04
$GPGSV,4,1,13,01,00,121,,02,33,300,,04,52,247,,07,84,120,,0*6A
$GPGSV,4,2,13,08,47,207,,10,01,310,,13,50,031,,16,01,039,,0*64
$GPGSV,4,3,13,20,23,121,,23,28,057,,25,67,043,,27,18,219,,0*6F
$GPGSV,4,4,13,28,00,182,,0*56
$GAGSV,2,1,08,09,14,317,,10,64,334,,11,56,118,,12,07,130,,0*7C
$GAGSV,2,2,08,17,31,040,,23,39,223,,24,85,020,,27,31,126,,0*7F
$GBGSV,3,1,09,01,38,122,46,02,50,173,46,04,36,126,46,06,37,216,46,0*76
$GBGSV,3,2,09,09,37,287,46,11,18,131,46,12,10,061,46,13,49,203,47,0*7F
$GBGSV,3,3,09,14,09,165,46,0*42
$GNGLL,2959.99997,N,12000.00005,E,000123.00,A,A*71

$GNRMC,000124.00,A,2959.99998,N,12000.00005,E,0.011,,230721,5.69,W,A,V*5C
$GNVTG,,T,,M,0.011,N,0.021,K,A*3E
$GNGGA,000124.00,2959.99998,N,12000.00005,E,1,08,1.39,-7.7,M,7.0,M,,*55
$GNGSA,A,3,,,,,,,,,,,,,3.33,1.39,3.03,1*09
$GNGSA,A,3,,,,,,,,,,,,,3.33,1.39,3.03,3*0B
$GNGSA,A,3,04,09,12,01,06,11,13,02,,,,,3.33,1.39,3.03,4*05
$GPGSV,4,1,13,01,00,121,,02,33,300,,04,52,247,,07,84,120,,0*6A
$GPGSV,4,2,13,08,47,207,,10,01,310,,13,50,031,,16,01,039,,0*64
$GPGSV,4,3,13,20,23,121,,23,28,057,,25,67,043,,27,18,219,,0*6F
$GPGSV,4,4,13,28,00,182,,0*56
$GAGSV,2,1,08,09,14,317,,10,64,334,,11,56,118,,12,07,130,,0*7C
$GAGSV,2,2,08,17,31,040,,23,39,223,,24,85,020,,27,30,126,,0*7E
$GBGSV,3,1,09,01,38,122,46,02,50,173,46,04,36,126,46,06,37,216,46,0*76
$GBGSV,3,2,09,09,37,287,46,11,18,131,46,12,10,061,46,13,49,203,47,0*7F
$GBGSV,3,3,09,14,09,165,46,0*42
$GNGLL,2959.99998,N,12000.00005,E,000124.00,A,A*79

$GNRMC,000125.00,A,2959.99998,N,12000.00005,E,0.005,,230721,5.69,W,A,V*58
$GNVTG,,T,,M,0.005,N,0.010,K,A*39
$GNGGA,000125.00,2959.99998,N,12000.00005,E,1,08,1.39,-7.6,M,7.0,M,,*55
$GNGSA,A,3,,,,,,,,,,,,,3.33,1.39,3.03,1*09
$GNGSA,A,3,,,,,,,,,,,,,3.33,1.39,3.03,3*0B
$GNGSA,A,3,04,09,12,01,06,11,13,02,,,,,3.33,1.39,3.03,4*05
$GPGSV,4,1,13,01,00,121,,02,33,300,,04,52,247,,07,84,120,,0*6A
$GPGSV,4,2,13,08,47,207,,10,01,310,,13,50,031,,16,01,039,,0*64
$GPGSV,4,3,13,20,23,121,,23,28,057,,25,67,043,,27,18,219,,0*6F
$GPGSV,4,4,13,28,00,182,,0*56
$GAGSV,2,1,08,09,14,317,,10,64,334,,11,56,118,,12,07,130,,0*7C
$GAGSV,2,2,08,17,31,040,,23,39,223,,24,85,020,,27,30,126,,0*7E
$GBGSV,3,1,09,01,38,122,46,02,50,173,46,04,36,126,46,06,37,216,46,0*76
$GBGSV,3,2,09,09,37,287,46,11,18,131,46,12,10,061,46,13,49,203,47,0*7F
$GBGSV,3,3,09,14,09,165,46,0*42
$GNGLL,2959.99998,N,12000.00005,E,000125.00,A,A*78

$GNRMC,000126.00,A,2959.99999,N,12000.00006,E,0.014,,230721,5.69,W,A,V*59
$GNVTG,,T,,M,0.014,N,0.027,K,A*3D
$GNGGA,000126.00,2959.99999,N,12000.00006,E,1,08,1.39,-7.6,M,7.0,M,,*54
$GNGSA,A,3,,,,,,,,,,,,,3.33,1.39,3.03,1*09
$GNGSA,A,3,,,,,,,,,,,,,3.33,1.39,3.03,3*0B
$GNGSA,A,3,04,09,12,01,06,11,13,02,,,,,3.33,1.39,3.03,4*05
$GPGSV,4,1,13,01,00,121,,02,33,300,,04,52,247,,07,84,120,,0*6A
$GPGSV,4,2,13,08,47,207,,10,01,310,,13,50,031,,16,01,039,,0*64
$GPGSV,4,3,13,20,23,121,,23,28,057,,25,67,043,,27,18,219,,0*6F
$GPGSV,4,4,13,28,00,182,,0*56
$GAGSV,2,1,08,09,14,317,,10,64,334,,11,56,118,,12,07,130,,0*7C
$GAGSV,2,2,08,17,31,040,,23,39,223,,24,85,020,,27,30,126,,0*7E
$GBGSV,3,1,09,01,38,122,46,02,50,173,46,04,36,126,46,06,37,216,46,0*76
$GBGSV,3,2,09,09,37,287,46,11,18,131,46,12,10,061,46,13,49,203,47,0*7F
$GBGSV,3,3,09,14,09,165,46,0*42
$GNGLL,2959.99999,N,12000.00006,E,000126.00,A,A*79

$GNRMC,000127.00,A,3000.00000,N,12000.00006,E,0.022,,230721,5.69,W,A,V*50
$GNVTG,,T,,M,0.022,N,0.040,K,A*39
$GNGGA,000127.00,3000.00000,N,12000.00006,E,1,08,1.39,-7.6,M,7.0,M,,*58
$GNGSA,A,3,,,,,,,,,,,,,3.33,1.39,3.03,1*09
$GNGSA,A,3,,,,,,,,,,,,,3.33,1.39,3.03,3*0B
$GNGSA,A,3,04,09,12,01,06,11,13,02,,,,,3.33,1.39,3.03,4*05
$GPGSV,4,1,13,01,00,121,,02,33,300,,04,52,247,,07,84,120,,0*6A
$GPGSV,4,2,13,08,47,207,,10,01,310,,13,50,031,,16,01,039,,0*64
$GPGSV,4,3,13,20,23,121,,23,28,057,,25,67,043,,27,18,219,,0*6F
$GPGSV,4,4,13,28,00,182,,0*56
$GAGSV,2,1,08,09,14,317,,10,64,334,,11,56,118,,12,07,130,,0*7C
$GAGSV,2,2,08,17,31,040,,23,39,223,,24,85,020,,27,30,126,,0*7E
$GBGSV,3,1,09,01,38,122,46,02,50,173,46,04,36,126,46,06,37,216,46,0*76
$GBGSV,3,2,09,09,37,287,46,11,18,131,46,12,10,061,46,13,49,203,47,0*7F
$GBGSV,3,3,09,14,09,165,46,0*42
$GNGLL,3000.00000,N,12000.00006,E,000127.00,A,A*75

$GNRMC,000128.00,A,3000.00000,N,12000.00006,E,0.013,,230721,5.69,W,A,V*5D
$GNVTG,,T,,M,0.013,N,0.023,K,A*3E
$GNGGA,000128.00,3000.00000,N,12000.00006,E,1,08,1.39,-7.6,M,7.0,M,,*57
$GNGSA,A,3,,,,,,,,,,,,,3.33,1.39,3.03,1*09
$GNGSA,A,3,,,,,,,,,,,,,3.33,1.39,3.03,3*0B
$GNGSA,A,3,04,09,12,01,06,11,13,02,,,,,3.33,1.39,3.03,4*05
$GPGSV,4,1,13,01,00,121,,02,33,300,,04,52,247,,07,84,120,,0*6A
$GPGSV,4,2,13,08,47,207,,10,01,310,,13,50,031,,16,01,039,,0*64
$GPGSV,4,3,13,20,23,121,,23,28,057,,25,67,043,,27,18,219,,0*6F
$GPGSV,4,4,13,28,00,182,,0*56
$GAGSV,2,1,08,09,14,317,,10,64,334,,11,56,118,,12,07,130,,0*7C
$GAGSV,2,2,08,17,31,040,,23,39,223,,24,85,020,,27,30,126,,0*7E
$GBGSV,3,1,09,01,38,122,46,02,50,173,46,04,36,126,46,06,37,216,46,0*76
$GBGSV,3,2,09,09,37,287,46,11,18,131,46,12,10,061,46,13,49,203,47,0*7F
$GBGSV,3,3,09,14,09,165,46,0*42
$GNGLL,3000.00000,N,12000.00006,E,000128.00,A,A*7A

$GNRMC,000129.00,A,3000.00001,N,12000.00006,E,0.006,,230721,5.69,W,A,V*59
$GNVTG,,T,,M,0.006,N,0.011,K,A*3B
$GNGGA,000129.00,3000.00001,N,12000.00006,E,1,08,1.39,-7.6,M,7.0,M,,*57
$GNGSA,A,3,,,,,,,,,,,,,3.33,1.39,3.03,1*09
$GNGSA,A,3,,,,,,,,,,,,,3.33,1.39,3.03,3*0B
$GNGSA,A,3,04,09,12,01,06,11,13,02,,,,,3.33,1.39,3.03,4*05
$GPGSV,4,1,13,01,00,121,,02,33,300,,04,52,247,,07,84,120,,0*6A
$GPGSV,4,2,13,08,47,207,,10,01,310,,13,50,031,,16,01,039,,0*64
$GPGSV,4,3,13,20,23,121,,23,28,057,,25,67,043,,27,18,219,,0*6F
$GPGSV,4,4,13,28,00,182,,0*56
$GAGSV,2,1,08,09,14,317,,10,64,334,,11,56,118,,12,07,130,,0*7C
$GAGSV,2,2,08,17,31,040,,23,39,223,,24,85,020,,27,30,126,,0*7E
$GBGSV,3,1,09,01,38,122,46,02,50,173,46,04,36,126,46,06,37,216,46,0*76
$GBGSV,3,2,09,09,37,287,46,11,18,131,46,12,10,061,46,13,49,203,47,0*7F
$GBGSV,3,3,09,14,09,165,46,0*42
$GNGLL,3000.00001,N,12000.00006,E,000129.00,A,A*7A

$GNRMC,000130.00,A,3000.00001,N,12000.00006,E,0.008,,230721,5.69,W,A,V*5F
$GNVTG,,T,,M,0.008,N,0.015,K,A*31
$GNGGA,000130.00,3000.00001,N,12000.00006,E,1,08,1.39,-7.6,M,7.0,M,,*5F
$GNGSA,A,3,,,,,,,,,,,,,3.33,1.39,3.03,1*09
$GNGSA,A,3,,,,,,,,,,,,,3.33,1.39,3.03,3*0B
$GNGSA,A,3,04,09,12,01,06,11,13,02,,,,,3.33,1.39,3.03,4*05
$GPGSV,4,1,13,01,00,121,,02,33,300,,04,52,247,,07,84,120,,0*6A
$GPGSV,4,2,13,08,47,207,,10,01,310,,13,50,031,,16,01,039,,0*64
$GPGSV,4,3,13,20,23,121,,23,28,057,,25,67,043,,27,18,219,,0*6F
$GPGSV,4,4,13,28,00,182,,0*56
$GAGSV,2,1,08,09,14,317,,10,64,334,,11,56,118,,12,07,130,,0*7C
$GAGSV,2,2,08,17,31,040,,23,39,223,,24,85,020,,27,30,126,,0*7E
$GBGSV,3,1,09,01,38,122,46,02,50,173,46,04,36,126,46,06,37,216,46,0*76
$GBGSV,3,2,09,09,37,287,46,11,18,131,46,12,10,061,46,13,49,203,47,0*7F
$GBGSV,3,3,09,14,09,165,46,0*42
$GNGLL,3000.00001,N,12000.00006,E,000130.00,A,A*72

$GNRMC,000131.00,A,3000.00002,N,12000.00006,E,0.007,,230721,5.69,W,A,V*52
$GNVTG,,T,,M,0.007,N,0.013,K,A*38
$GNGGA,000131.00,3000.00002,N,12000.00006,E,1,08,1.39,-7.6,M,7.0,M,,*5D
$GNGSA,A,3,,,,,,,,,,,,,3.33,1.39,3.03,1*09
$GNGSA,A,3,,,,,,,,,,,,,3.33,1.39,3.03,3*0B
$GNGSA,A,3,04,09,12,01,06,11,13,02,,,,,3.33,1.39,3.03,4*05
$GPGSV,4,1,13,01,00,121,,02,33,300,,04,52,247,,07,84,120,,0*6A
$GPGSV,4,2,13,08,47,207,,10,01,310,,13,50,031,,16,01,039,,0*64
$GPGSV,4,3,13,20,23,121,,23,28,057,,25,67,043,,27,18,219,,0*6F
$GPGSV,4,4,13,28,00,182,,0*56
$GAGSV,2,1,08,09,14,317,,10,64,334,,11,56,118,,12,07,130,,0*7C
$GAGSV,2,2,08,17,31,040,,23,39,223,,24,85,020,,27,30,126,,0*7E
$GBGSV,3,1,09,01,38,122,46,02,50,173,46,04,36,126,46,06,37,216,46,0*76
$GBGSV,3,2,09,09,37,287,46,11,18,131,46,12,10,061,46,13,49,203,47,0*7F
$GBGSV,3,3,09,14,09,165,46,0*42
$GNGLL,3000.00002,N,12000.00006,E,000131.00,A,A*70

$GNRMC,000132.00,A,3000.00002,N,12000.00006,E,0.014,,230721,5.69,W,A,V*53
$GNVTG,,T,,M,0.014,N,0.026,K,A*3C
$GNGGA,000132.00,3000.00002,N,12000.00006,E,1,08,1.39,-7.6,M,7.0,M,,*5E
$GNGSA,A,3,,,,,,,,,,,,,3.33,1.39,3.03,1*09
$GNGSA,A,3,,,,,,,,,,,,,3.33,1.39,3.03,3*0B
$GNGSA,A,3,04,09,12,01,06,11,13,02,,,,,3.33,1.39,3.03,4*05
$GPGSV,4,1,13,01,00,121,,02,33,300,,04,52,247,,07,84,120,,0*6A
$GPGSV,4,2,13,08,47,207,,10,01,310,,13,50,031,,16,01,039,,0*64
$GPGSV,4,3,13,20,23,121,,23,28,057,,25,67,043,,27,18,219,,0*6F
$GPGSV,4,4,13,28,00,182,,0*56
$GAGSV,2,1,08,09,14,317,,10,64,334,,11,56,118,,12,07,130,,0*7C
$GAGSV,2,2,08,17,31,040,,23,39,223,,24,85,020,,27,30,126,,0*7E
$GBGSV,3,1,09,01,38,122,46,02,50,173,46,04,36,126,46,06,37,216,46,0*76
$GBGSV,3,2,09,09,37,287,46,11,18,131,46,12,10,061,46,13,49,203,47,0*7F
$GBGSV,3,3,09,14,09,165,46,0*42
$GNGLL,3000.00002,N,12000.00006,E,000132.00,A,A*73

$GNRMC,000133.00,A,3000.00002,N,12000.00006,E,0.006,,230721,5.69,W,A,V*51
$GNVTG,,T,,M,0.006,N,0.012,K,A*38
$GNGGA,000133.00,3000.00002,N,12000.00006,E,1,08,1.39,-7.6,M,7.0,M,,*5F
$GNGSA,A,3,,,,,,,,,,,,,3.33,1.39,3.03,1*09
$GNGSA,A,3,,,,,,,,,,,,,3.33,1.39,3.03,3*0B
$GNGSA,A,3,04,09,12,01,06,11,13,02,,,,,3.33,1.39,3.03,4*05
$GPGSV,4,1,13,01,00,121,,02,33,300,,04,52,247,,07,84,120,,0*6A
$GPGSV,4,2,13,08,47,207,,10,01,310,,13,50,031,,16,01,039,,0*64
$GPGSV,4,3,13,20,23,121,,23,28,057,,25,67,043,,27,18,219,,0*6F
$GPGSV,4,4,13,28,00,182,,0*56
$GAGSV,2,1,08,09,14,317,,10,64,334,,11,56,118,,12,07,130,,0*7C
$GAGSV,2,2,08,17,31,040,,23,39,223,,24,85,020,,27,30,126,,0*7E
$GBGSV,3,1,09,01,38,122,46,02,50,173,46,04,36,126,46,06,37,216,46,0*76
$GBGSV,3,2,09,09,37,287,46,11,18,131,46,12,10,061,46,13,49,203,47,0*7F
$GBGSV,3,3,09,14,09,165,46,0*42
$GNGLL,3000.00002,N,12000.00006,E,000133.00,A,A*72

$GNRMC,000134.00,A,3000.00002,N,12000.00007,E,0.003,,230721,5.69,W,A,V*52
$GNVTG,,T,,M,0.003,N,0.005,K,A*3B
$GNGGA,000134.00,3000.00002,N,12000.00007,E,1,08,1.39,-7.6,M,7.0,M,,*59
$GNGSA,A,3,,,,,,,,,,,,,3.33,1.39,3.03,1*09
$GNGSA,A,3,,,,,,,,,,,,,3.33,1.39,3.03,3*0B
$GNGSA,A,3,04,09,12,01,06,11,13,02,,,,,3.33,1.39,3.03,4*05
$GPGSV,4,1,13,01,00,121,,02,33,300,,04,52,247,,07,84,120,,0*6A
$GPGSV,4,2,13,08,47,207,,10,01,310,,13,50,031,,16,01,039,,0*64
$GPGSV,4,3,13,20,23,121,,23,28,057,,25,67,043,,27,18,219,,0*6F
$GPGSV,4,4,13,28,00,182,,0*56
$GAGSV,2,1,08,09,14,317,,10,64,334,,11,56,118,,12,07,130,,0*7C
$GAGSV,2,2,08,17,31,040,,23,39,223,,24,85,020,,27,30,126,,0*7E
$GBGSV,3,1,09,01,38,122,46,02,50,173,46,04,36,126,46,06,37,216,46,0*76
$GBGSV,3,2,09,09,37,287,46,11,18,131,46,12,10,061,46,13,49,203,47,0*7F
$GBGSV,3,3,09,14,09,165,46,0*42
$GNGLL,3000.00002,N,12000.00007,E,000134.00,A,A*74

$GNRMC,000135.00,A,3000.00002,N,12000.00007,E,0.008,,230721,5.69,W,A,V*58
$GNVTG,,T,,M,0.008,N,0.014,K,A*30
$GNGGA,000135.00,3000.00002,N,12000.00007,E,1,08,1.39,-7.6,M,7.0,M,,*58
$GNGSA,A,3,,,,,,,,,,,,,3.33,1.39,3.03,1*09
$GNGSA,A,3,,,,,,,,,,,,,3.33,1.39,3.03,3*0B
$GNGSA,A,3,04,09,12,01,06,11,13,02,,,,,3.33,1.39,3.03,4*05
$GPGSV,4,1,13,01,00,121,,02,33,300,,04,52,247,,07,84,120,,0*6A
$GPGSV,4,2,13,08,47,207,,10,01,310,,13,50,031,,16,01,039,,0*64
$GPGSV,4,3,13,20,23,121,,23,28,057,,25,67,043,,27,18,219,,0*6F
$GPGSV,4,4,13,28,00,182,,0*56
$GAGSV,2,1,08,09,14,317,,10,64,334,,11,56,118,,12,07,130,,0*7C
$GAGSV,2,2,08,17,31,040,,23,39,223,,24,85,020,,27,30,126,,0*7E
$GBGSV,3,1,09,01,38,122,46,02,50,173,46,04,36,126,46,06,37,216,46,0*76
$GBGSV,3,2,09,09,37,287,46,11,19,131,46,12,10,061,46,13,49,203,47,0*7E
$GBGSV,3,3,09,14,09,165,46,0*42
