$GNRMC,120038.00,A,2302.41773,N,11300.00023,E,161.989,0.00,010821,4.12,W,A,V*4F
$GNVTG,0.00,T,4.12,M,161.989,N,300.004,K,A*33
$GNGGA,120038.00,2302.41773,N,11300.00023,E,1,12,0.57,56.6,M,-6.4,M,,*66
$GNGSA,A,3,22,05,18,06,21,24,31,29,16,,,,1.33,0.57,1.19,1*0A
$GNGSA,A,3,01,14,08,13,07,15,18,,,,,,1.33,0.57,1.19,3*0D
$GNGSA,A,3,26,30,08,29,27,,,,,,,,1.33,0.57,1.19,4*0F
$GPGSV,4,1,13,03,07,280,40,05,12,128,40,06,19,286,40,12,01,126,,0*60
$GPGSV,4,2,13,14,01,197,,16,31,325,40,18,29,140,40,21,74,034,40,0*6F
$GPGSV,4,3,13,22,15,172,40,24,28,039,40,29,27,049,40,30,35,117,,0*63
$GPGSV,4,4,13,31,53,235,40,0*53
$GAGSV,3,1,11,01,29,054,40,07,21,291,40,08,49,348,41,13,24,171,40,0*7B
$GAGSV,3,2,11,14,41,111,41,15,19,055,41,17,43,272,40,18,37,201,41,0*71
$GAGSV,3,3,11,19,02,163,,24,10,317,,25,11,071,,0*49
$GBGSV,4,1,13,01,33,114,,02,65,149,34,04,36,112,,06,65,257,,0*79
$GBGSV,4,2,13,08,42,325,34,09,14,228,,13,36,039,,20,33,172,,0*71
$GBGSV,4,3,13,25,01,253,,26,38,325,34,27,51,296,34,29,49,306,34,0*73
$GBGSV,4,4,13,30,49,355,34,0*4F
$GNGLL,2302.41773,N,11300.00023,E,120038.00,A,A*78

$GNRMC,120039.00,A,2302.46288,N,11300.00024,E,161.992,0.00,010821,4.12,W,A,V*45
$GNVTG,0.00,T,4.12,M,161.992,N,300.008,K,A*35
$GNGGA,120039.00,2302.46288,N,11300.00024,E,1,12,0.57,56.7,M,-6.4,M,,*67
$GNGSA,A,3,22,05,18,06,21,24,31,29,16,,,,1.33,0.57,1.19,1*0A
$GNGSA,A,3,01,14,08,13,07,15,18,,,,,,1.33,0.57,1.19,3*0D
$GNGSA,A,3,26,30,08,29,27,,,,,,,,1.33,0.57,1.19,4*0F
$GPGSV,4,1,13,03,07,280,40,05,12,128,40,06,19,286,40,12,01,126,,0*60
$GPGSV,4,2,13,14,01,197,,16,31,325,40,18,29,140,40,21,74,034,40,0*6F
$GPGSV,4,3,13,22,15,172,40,24,28,039,40,29,27,049,40,30,35,117,,0*63
$GPGSV,4,4,13,31,53,235,40,0*53
$GAGSV,3,1,11,01,29,054,41,07,21,291,40,08,49,348,41,13,24,171,40,0*7A
$GAGSV,3,2,11,14,41,111,40,15,19,055,41,17,43,272,41,18,37,201,40,0*70
$GAGSV,3,3,11,19,02,163,,24,10,317,,25,11,071,,0*49
$GBGSV,4,1,13,01,33,114,,02,65,149,34,04,36,112,,06,65,257,,0*79
$GBGSV,4,2,13,08,42,325,34,09,14,228,,13,36,039,,20,33,172,,0*71
$GBGSV,4,3,13,25,01,253,,26,38,325,34,27,51,296,34,29,49,306,34,0*73
$GBGSV,4,4,13,30,49,355,34,0*4F
$GNGLL,2302.46288,N,11300.00024,E,120039.00,A,A*78

$GNRMC,120040.00,A,2302.50803,N,11300.00025,E,161.991,0.00,010821,4.12,W,A,V*47
$GNVTG,0.00,T,4.12,M,161.991,N,300.007,K,A*39
$GNGGA,120040.00,2302.50803,N,11300.00025,E,1,12,0.57,56.7,M,-6.4,M,,*66
$GNGSA,A,3,22,05,18,06,21,24,31,29,16,,,,1.33,0.57,1.19,1*0A
$GNGSA,A,3,01,14,08,13,07,15,18,,,,,,1.33,0.57,1.19,3*0D
$GNGSA,A,3,26,30,08,29,27,,,,,,,,1.33,0.57,1.19,4*0F
$GPGSV,4,1,13,03,07,280,40,05,12,128,40,06,19,286,40,12,01,126,,0*60
$GPGSV,4,2,13,14,01,197,,16,31,325,40,18,29,140,40,21,74,034,40,0*6F
$GPGSV,4,3,13,22,15,172,40,24,28,039,40,29,27,049,39,30,35,117,,0*6D
$GPGSV,4,4,13,31,53,235,40,0*53
$GAGSV,3,1,11,01,29,054,40,07,21,291,40,08,49,348,41,13,24,171,41,0*7A
$GAGSV,3,2,11,14,41,111,40,15,19,055,41,17,43,272,41,18,37,201,40,0*70
$GAGSV,3,3,11,19,02,163,,24,10,317,,25,11,071,,0*49
$GBGSV,4,1,13,01,33,114,,02,65,149,34,04,36,112,,06,65,257,,0*79
$GBGSV,4,2,13,08,42,325,34,09,14,228,,13,36,039,,20,33,172,,0*71
$GBGSV,4,3,13,25,01,253,,26,38,325,34,27,51,296,34,29,49,306,34,0*73
$GBGSV,4,4,13,30,49,355,34,0*4F
$GNGLL,2302.50803,N,11300.00025,E,120040.00,A,A*79

$GNRMC,120041.00,A,2302.55317,N,11300.00025,E,161.980,0.00,010821,4.12,W,A,V*4D
$GNVTG,0.00,T,4.12,M,161.980,N,299.987,K,A*39
$GNGGA,120041.00,2302.55317,N,11300.00025,E,1,12,0.57,56.7,M,-6.4,M,,*6C
$GNGSA,A,3,22,05,18,06,21,24,31,29,16,,,,1.33,0.57,1.19,1*0A
$GNGSA,A,3,01,14,08,13,07,15,18,,,,,,1.33,0.57,1.19,3*0D
$GNGSA,A,3,26,30,08,29,27,,,,,,,,1.33,0.57,1.19,4*0F
$GPGSV,4,1,13,03,07,280,40,05,12,128,40,06,19,286,40,12,01,126,,0*60
$GPGSV,4,2,13,14,01,197,,16,31,325,40,18,29,140,39,21,74,034,40,0*61
$GPGSV,4,3,13,22,15,172,40,24,28,039,40,29,27,049,40,30,35,117,,0*63
$GPGSV,4,4,13,31,53,235,40,0*53
$GAGSV,3,1,11,01,29,054,40,07,21,291,41,08,49,348,40,13,24,171,41,0*7A
$GAGSV,3,2,11,14,41,111,40,15,19,055,40,17,43,272,41,18,37,201,40,0*71
$GAGSV,3,3,11,19,02,163,,24,10,317,,25,11,071,,0*49
$GBGSV,4,1,13,01,33,114,,02,65,149,34,04,36,112,,06,65,257,,0*79
$GBGSV,4,2,13,08,42,325,34,09,14,228,,13,36,039,,20,33,172,,0*71
$GBGSV,4,3,13,25,01,253,,26,38,325,34,27,51,296,34,29,49,306,34,0*73
$GBGSV,4,4,13,30,49,355,34,0*4F
$GNGLL,2302.55317,N,11300.00025,E,120041.00,A,A*73

$GNRMC,120042.00,A,2302.59832,N,11300.00025,E,161.984,0.00,010821,4.12,W,A,V*4A
$GNVTG,0.00,T,4.12,M,161.984,N,299.994,K,A*3F
$GNGGA,120042.00,2302.59832,N,11300.00025,E,1,12,0.57,56.7,M,-6.4,M,,*6F
$GNGSA,A,3,22,05,18,06,21,24,31,29,16,,,,1.33,0.57,1.19,1*0A
$GNGSA,A,3,01,14,08,13,07,15,18,,,,,,1.33,0.57,1.19,3*0D
$GNGSA,A,3,26,30,08,29,27,,,,,,,,1.33,0.57,1.19,4*0F
$GPGSV,4,1,13,03,07,280,40,05,12,128,40,06,19,286,40,12,01,126,,0*60
$GPGSV,4,2,13,14,01,197,,16,31,325,40,18,29,140,40,21,74,034,40,0*6F
$GPGSV,4,3,13,22,15,172,40,24,28,039,39,29,27,049,40,30,35,117,,0*6D
$GPGSV,4,4,13,31,53,235,39,0*5D
$GAGSV,3,1,11,01,29,054,40,07,21,291,41,08,49,348,40,13,24,171,40,0*7B
$GAGSV,3,2,11,14,41,111,40,15,19,055,41,17,43,272,40,18,37,201,40,0*71
$GAGSV,3,3,11,19,02,163,,24,10,317,,25,11,071,,0*49
$GBGSV,4,1,13,01,33,114,,02,65,149,34,04,36,112,,06,65,257,,0*79
$GBGSV,4,2,13,08,42,325,34,09,14,228,,13,36,039,,20,33,172,,0*71
$GBGSV,4,3,13,25,01,253,,26,38,325,34,27,51,296,34,29,49,306,34,0*73
$GBGSV,4,4,13,30,49,355,34,0*4F
$GNGLL,2302.59832,N,11300.00025,E,120042.00,A,A*70

$GNRMC,120043.00,A,2302.64347,N,11300.00026,E,161.992,0.00,010821,4.12,W,A,V*48
$GNVTG,0.00,T,4.12,M,161.992,N,300.010,K,A*3C
$GNGGA,120043.00,2302.64347,N,11300.00026,E,1,12,0.57,56.7,M,-6.4,M,,*6A
$GNGSA,A,3,22,05,18,06,21,24,31,29,16,,,,1.33,0.57,1.19,1*0A
$GNGSA,A,3,01,14,08,13,07,15,18,,,,,,1.33,0.57,1.19,3*0D
$GNGSA,A,3,26,30,08,29,27,,,,,,,,1.33,0.57,1.19,4*0F
$GPGSV,4,1,13,03,07,280,40,05,12,128,40,06,19,286,40,12,01,126,,0*60
$GPGSV,4,2,13,14,01,197,,16,31,325,40,18,29,140,40,21,74,034,40,0*6F
$GPGSV,4,3,13,22,15,172,40,24,28,039,40,29,27,049,39,30,35,117,,0*6D
$GPGSV,4,4,13,31,53,235,40,0*53
$GAGSV,3,1,11,01,29,054,40,07,21,291,41,08,49,348,40,13,24,171,41,0*7A
$GAGSV,3,2,11,14,41,111,41,15,19,055,40,17,43,272,40,18,37,201,40,0*71
$GAGSV,3,3,11,19,02,163,,24,10,317,,25,11,071,,0*49
$GBGSV,4,1,13,01,33,114,,02,65,149,34,04,36,112,,06,65,257,,0*79
$GBGSV,4,2,13,08,42,325,34,09,14,228,,13,36,039,,20,33,172,,0*71
$GBGSV,4,3,13,25,01,253,,26,38,325,34,27,51,296,34,29,49,306,34,0*73
$GBGSV,4,4,13,30,49,355,34,0*4F
$GNGLL,2302.64347,N,11300.00026,E,120043.00,A,A*75

$GNRMC,120044.00,A,2302.68862,N,11300.00026,E,161.983,0.00,010821,4.12,W,A,V*4F
$GNVTG,0.00,T,4.12,M,161.983,N,299.993,K,A*3F
$GNGGA,120044.00,2302.68862,N,11300.00026,E,1,12,0.57,56.8,M,-6.4,M,,*62
$GNGSA,A,3,22,05,18,06,21,24,31,29,16,,,,1.33,0.57,1.19,1*0A
$GNGSA,A,3,01,14,08,13,07,15,18,,,,,,1.33,0.57,1.19,3*0D
$GNGSA,A,3,26,30,08,29,27,,,,,,,,1.33,0.57,1.19,4*0F
$GPGSV,4,1,13,03,07,280,40,05,12,128,39,06,19,286,40,12,01,126,,0*6E
$GPGSV,4,2,13,14,01,197,,16,31,325,39,18,29,140,39,21,74,034,40,0*6F
$GPGSV,4,3,13,22,15,172,40,24,28,039,40,29,27,049,40,30,35,117,,0*63
$GPGSV,4,4,13,31,53,235,40,0*53
$GAGSV,3,1,11,01,29,054,41,07,21,291,41,08,49,348,41,13,24,171,41,0*7A
$GAGSV,3,2,11,14,41,111,40,15,19,055,41,17,43,272,40,18,37,201,40,0*71
$GAGSV,3,3,11,19,02,163,,24,10,317,,25,11,071,,0*49
$GBGSV,4,1,13,01,33,114,,02,65,149,34,04,36,112,,06,65,257,,0*79
$GBGSV,4,2,13,08,42,325,34,09,14,228,,13,36,039,,20,33,172,,0*71
$GBGSV,4,3,13,25,01,253,,26,38,325,34,27,51,296,34,29,49,306,34,0*73
$GBGSV,4,4,13,30,49,355,34,0*4F
$GNGLL,2302.68862,N,11300.00026,E,120044.00,A,A*72

$GNRMC,120045.00,A,2302.73378,N,11300.00026,E,161.988,0.00,010821,4.12,W,A,V*4F
$GNVTG,0.00,T,4.12,M,161.988,N,300.001,K,A*37
$GNGGA,120045.00,2302.73378,N,11300.00026,E,1,12,0.57,56.7,M,-6.4,M,,*66
$GNGSA,A,3,22,05,18,06,21,24,31,29,16,,,,1.33,0.57,1.19,1*0A
$GNGSA,A,3,01,14,08,13,07,15,18,,,,,,1.33,0.57,1.19,3*0D
$GNGSA,A,3,26,30,08,29,27,,,,,,,,1.33,0.57,1.19,4*0F
$GPGSV,4,1,13,03,07,280,39,05,12,128,40,06,19,286,40,12,01,126,,0*6E
$GPGSV,4,2,13,14,01,197,,16,31,325,39,18,29,140,39,21,74,034,40,0*6F
$GPGSV,4,3,13,22,15,172,40,24,28,039,40,29,27,049,39,30,35,117,,0*6D
$GPGSV,4,4,13,31,53,235,40,0*53
$GAGSV,3,1,11,01,29,054,41,07,21,291,40,08,49,348,41,13,24,171,40,0*7A
$GAGSV,3,2,11,14,41,111,40,15,19,055,41,17,43,272,40,18,37,201,40,0*71
$GAGSV,3,3,11,19,02,163,,24,10,317,,25,11,071,,0*49
$GBGSV,4,1,13,01,33,114,,02,65,149,34,04,36,112,,06,65,257,,0*79
$GBGSV,4,2,13,08,42,325,34,09,14,228,,13,36,039,,20,33,172,,0*71
$GBGSV,4,3,13,25,01,253,,26,38,325,34,27,51,296,34,29,49,306,34,0*73

$GNTXT,01,01,00,txbuf alloc*61

$GNRMC,120046.00,A,2302.77893,N,11300.00026,E,161.984,0.00,010821,4.12,W,A,V*4A
$GNVTG,0.00,T,4.12,M,161.984,N,299.995,K,A*3E
$GNGGA,120046.00,2302.77893,N,11300.00026,E,1,12,0.57,56.7,M,-6.4,M,,*6F
$GNGSA,A,3,22,05,18,06,21,24,31,29,16,,,,1.33,0.57,1.19,1*0A
$GNGSA,A,3,01,14,08,13,07,15,18,,,,,,1.33,0.57,1.19,3*0D
$GNGSA,A,3,26,30,08,29,27,,,,,,,,1.33,0.57,1.19,4*0F
$GPGSV,4,1,13,03,07,280,40,05,12,128,40,06,20,286,40,12,01,126,,0*6A
$GPGSV,4,2,13,14,01,197,,16,31,325,39,18,29,140,40,21,74,034,40,0*61
$GPGSV,4,3,13,22,15,172,40,24,28,039,40,29,27,049,40,30,35,117,,0*63
$GPGSV,4,4,13,31,53,235,39,0*5D
$GAGSV,3,1,11,01,29,054,40,07,21,291,40,08,49,348,40,13,24,171,40,0*7A
$GAGSV,3,2,11,14,41,111,40,15,19,055,40,17,43,272,40,18,37,201,41,0*71
$GAGSV,3,3,11,19,02,163,,24,10,317,,25,11,071,,0*49
$GBGSV,4,1,13,01,33,114,,02,65,149,34,04,36,112,,06,65,257,,0*79
$GBGSV,4,2,13,08,42,325,34,09,14,228,,13,36,039,,20,33,172,,0*71
$GBGSV,4,3,13,25,01,253,,26,38,325,34,27,51,296,34,29,49,306,34,0*73
$GBGSV,4,4,13,30,49,355,34,0*4F

$GNRMC,120047.00,A,2302.82409,N,11300.00026,E,161.984,0.00,010821,4.12,W,A,V*4E
$GNVTG,0.00,T,4.12,M,161.984,N,299.993,K,A*38
$GNGGA,120047.00,2302.82409,N,11300.00026,E,1,12,0.57,56.7,M,-6.4,M,,*6B
$GNGSA,A,3,22,05,18,06,21,24,31,29,16,,,,1.33,0.57,1.19,1*0A
$GNGSA,A,3,01,14,08,13,07,15,18,,,,,,1.33,0.57,1.19,3*0D
$GNGSA,A,3,26,30,08,29,27,,,,,,,,1.33,0.57,1.19,4*0F
$GPGSV,4,1,13,03,07,280,40,05,12,128,40,06,20,286,40,12,01,126,,0*6A
$GPGSV,4,2,13,14,01,197,,16,31,325,39,18,29,140,40,21,74,034,40,0*61
$GPGSV,4,3,13,22,15,172,39,24,28,039,39,29,27,049,40,30,35,117,,0*63
$GPGSV,4,4,13,31,53,235,39,0*5D
$GAGSV,3,1,11,01,29,054,40,07,21,291,40,08,49,348,40,13,24,171,40,0*7A
$GAGSV,3,2,11,14,41,111,40,15,19,055,41,17,43,272,40,18,37,201,40,0*71
$GAGSV,3,3,11,19,02,163,,24,10,317,,25,11,071,,0*49
$GBGSV,4,1,13,01,33,114,,02,65,149,34,04,36,112,,06,65,257,,0*79
$GBGSV,4,2,13,08,42,325,34,09,14,228,,13,36,039,,20,33,172,,0*71
$GBGSV,4,3,13,25,01,253,,26,38,325,34,27,51,296,34,29,49,306,34,0*73

$GNRMC,120048.00,A,2302.86924,N,11300.00027,E,161.984,0.00,010821,4.12,W,A,V*46
$GNVTG,0.00,T,4.12,M,161.984,N,299.994,K,A*3F
$GNGGA,120048.00,2302.86924,N,11300.00027,E,1,12,0.56,56.7,M,-6.4,M,,*62
$GNGSA,A,3,22,05,18,06,21,24,31,29,16,,,,1.32,0.56,1.19,1*0A
$GNGSA,A,3,01,14,08,13,17,07,15,18,,,,,1.32,0.56,1.19,3*0B
$GNGSA,A,3,26,30,08,29,27,,,,,,,,1.32,0.56,1.19,4*0F
$GPGSV,4,1,13,03,07,280,40,05,12,128,40,06,20,286,40,12,01,126,,0*6A
$GPGSV,4,2,13,14,01,197,,16,31,325,40,18,29,140,39,21,74,034,40,0*61
$GPGSV,4,3,13,22,15,172,39,24,28,039,40,29,27,049,40,30,35,117,,0*6D
$GPGSV,4,4,13,31,53,235,40,0*53
$GAGSV,3,1,11,01,29,054,40,07,21,292,40,08,49,348,40,13,24,170,40,0*78
$GAGSV,3,2,11,14,41,111,40,15,19,055,40,17,43,272,40,18,37,200,40,0*71
$GAGSV,3,3,11,19,02,163,,24,10,317,,25,11,071,,0*49
$GBGSV,4,1,13,01,33,114,,02,65,149,34,04,36,112,,06,65,257,,0*79
$GBGSV,4,2,13,08,42,325,34,09,14,228,,13,36,039,,20,33,172,,0*71
$GBGSV,4,3,13,25,01,253,,26,38,325,34,27,51,296,34,29,49,306,34,0*73
$GBGSV,4,4,13,30,49,355,34,0*4F
$GNGLL,2302.86924,N,11300.00027,E,120048.00,A,A*7C

$GNRMC,120049.00,A,2302.91439,N,11300.00027,E,161.990,0.00,010821,4.12,W,A,V*45
$GNVTG,0.00,T,4.12,M,161.990,N,300.005,K,A*3A
$GNGGA,120049.00,2302.91439,N,11300.00027,E,1,12,0.56,56.8,M,-6.4,M,,*6B
$GNGSA,A,3,22,05,18,06,21,24,31,29,16,,,,1.32,0.56,1.19,1*0A
$GNGSA,A,3,01,14,08,13,17,07,15,18,,,,,1.32,0.56,1.19,3*0B
$GNGSA,A,3,26,30,08,29,27,,,,,,,,1.32,0.56,1.19,4*0F
$GPGSV,4,1,13,03,07,280,40,05,12,128,40,06,20,286,40,12,01,126,,0*6A
$GPGSV,4,2,13,14,01,197,,16,31,325,40,18,29,140,40,21,74,034,40,0*6F
$GPGSV,4,3,13,22,15,172,39,24,28,039,40,29,27,049,39,30,35,117,,0*63
$GPGSV,4,4,13,31,53,235,39,0*5D
$GAGSV,3,1,11,01,29,054,40,07,21,292,40,08,49,348,40,13,24,170,40,0*78
$GAGSV,3,2,11,14,41,111,40,15,19,055,40,17,43,272,40,18,37,200,41,0*70
$GAGSV,3,3,11,19,02,163,,24,10,317,,25,11,071,,0*49
$GBGSV,4,1,13,01,33,114,,02,65,149,34,04,36,112,,06,65,257,,0*79
$GBGSV,4,2,13,08,42,325,34,09,14,228,,13,36,039,,20,33,172,,0*71
$GBGSV,4,3,13,25,01,253,,26,38,325,34,27,51,296,34,29,49,306,34,0*73
$GBGSV,4,4,13,30,49,355,34,0*4F
$GNGLL,2302.91439,N,11300.00027,E,120049.00,A,A*7A

$GNTXT,01,01,00,txbuf alloc*61

$GNRMC,120050.00,A,2302.95954,N,11300.00028,E,161.986,0.00,010821,4.12,W,A,V*47
$GNVTG,0.00,T,4.12,M,161.986,N,299.997,K,A*3E
$GNGGA,120050.00,2302.95954,N,11300.00028,E,1,12,0.56,56.8,M,-6.4,M,,*6E
$GNGSA,A,3,22,05,18,06,21,24,31,29,16,,,,1.32,0.56,1.19,1*0A
$GNGSA,A,3,01,14,08,13,17,07,15,18,,,,,1.32,0.56,1.19,3*0B
$GNGSA,A,3,26,30,08,29,27,,,,,,,,1.32,0.56,1.19,4*0F
$GPGSV,4,1,13,03,07,280,40,05,12,128,40,06,20,286,39,12,01,126,,0*64
$GPGSV,4,2,13,14,01,197,,16,31,325,40,18,29,140,40,21,74,034,40,0*6F
$GPGSV,4,3,13,22,15,172,39,24,28,039,39,29,27,049,39,30,35,117,,0*6D
$GPGSV,4,4,13,31,53,235,39,0*5D
$GAGSV,3,1,11,01,29,054,40,07,21,292,40,08,49,348,40,13,24,170,40,0*78
$GAGSV,3,2,11,14,41,111,41,15,19,055,40,17,43,272,40,18,37,200,41,0*71
$GAGSV,3,3,11,19,02,163,,24,10,317,,25,11,071,,0*49
$GBGSV,4,1,13,01,33,114,,02,65,149,34,04,36,112,,06,65,257,,0*79
$GBGSV,4,2,13,08,42,325,34,09,14,228,,13,36,039,,20,33,172,,0*71
$GBGSV,4,3,13,25,01,253,,26,38,325,34,27,51,296,34,29,49,306,34,0*73

$GNRMC,120051.00,A,2303.00468,N,11300.00028,E,161.983,0.00,010821,4.12,W,A,V*4C
$GNVTG,0.00,T,4.12,M,161.983,N,299.993,K,A*3F
$GNGGA,120051.00,2303.00468,N,11300.00028,E,1,12,0.56,56.9,M,-6.4,M,,*61
$GNGSA,A,3,22,05,18,06,21,24,31,29,16,,,,1.32,0.56,1.19,1*0A
$GNGSA,A,3,01,14,08,13,17,07,15,18,,,,,1.32,0.56,1.19,3*0B
$GNGSA,A,3,26,30,08,29,27,,,,,,,,1.32,0.56,1.19,4*0F
$GPGSV,4,1,13,03,07,280,40,05,12,128,39,06,20,286,39,12,01,126,,0*6A
$GPGSV,4,2,13,14,01,197,,16,31,325,40,18,29,140,40,21,74,034,40,0*6F
$GPGSV,4,3,13,22,15,172,40,24,28,039,40,29,27,049,40,30,35,117,,0*63
$GPGSV,4,4,13,31,53,235,39,0*5D
$GAGSV,3,1,11,01,29,054,40,07,21,292,40,08,49,348,40,13,24,170,40,0*78
$GAGSV,3,2,11,14,41,111,40,15,19,055,40,17,43,272,40,18,37,200,40,0*71
$GAGSV,3,3,11,19,02,163,,24,10,317,,25,11,071,,0*49
$GBGSV,4,1,13,01,33,114,,02,65,149,34,04,36,112,,06,65,257,,0*79
$GBGSV,4,2,13,08,42,325,34,09,14,228,,13,36,039,,20,33,172,,0*71
$GBGSV,4,3,13,25,01,253,,26,38,325,34,27,51,296,34,29,49,306,34,0*73

$GNRMC,120052.00,A,2303.04983,N,11300.00029,E,161.987,0.00,010821,4.12,W,A,V*46
$GNVTG,0.00,T,4.12,M,161.987,N,300.001,K,A*38
$GNGGA,120052.00,2303.04983,N,11300.00029,E,1,12,0.56,56.9,M,-6.4,M,,*6F
$GNGSA,A,3,22,05,18,06,21,24,31,29,16,,,,1.32,0.56,1.19,1*0A
$GNGSA,A,3,01,14,08,13,17,07,15,18,,,,,1.32,0.56,1.19,3*0B
$GNGSA,A,3,26,30,08,29,27,,,,,,,,1.32,0.56,1.19,4*0F
$GPGSV,4,1,13,03,07,280,40,05,12,128,40,06,20,286,39,12,01,126,,0*64
$GPGSV,4,2,13,14,01,197,,16,31,325,40,18,29,140,39,21,74,034,39,0*6F
$GPGSV,4,3,13,22,15,172,39,24,28,039,40,29,27,049,40,30,35,117,,0*6D
$GPGSV,4,4,13,31,53,235,39,0*5D
$GAGSV,3,1,11,01,29,054,40,07,21,292,40,08,49,348,40,13,24,170,40,0*78
$GAGSV,3,2,11,14,41,111,40,15,19,055,40,17,43,272,40,18,37,200,40,0*71

$GNRMC,120053.00,A,2303.09499,N,11300.00029,E,161.993,0.00,010821,4.12,W,A,V*49
$GNVTG,0.00,T,4.12,M,161.993,N,300.011,K,A*3C
$GNGGA,120053.00,2303.09499,N,11300.00029,E,1,12,0.56,56.9,M,-6.4,M,,*65
$GNGSA,A,3,22,05,18,06,21,24,31,29,16,,,,1.32,0.56,1.19,1*0A
$GNGSA,A,3,01,14,08,13,17,07,15,18,,,,,1.32,0.56,1.19,3*0B
$GNGSA,A,3,26,30,08,29,27,,,,,,,,1.32,0.56,1.19,4*0F
$GPGSV,4,1,13,03,07,280,39,05,12,128,40,06,20,286,39,12,01,126,,0*6A
$GPGSV,4,2,13,14,01,197,,16,31,325,40,18,29,140,39,21,74,034,40,0*61
$GPGSV,4,3,13,22,15,172,39,24,28,039,40,29,27,049,39,30,35,117,,0*63
$GPGSV,4,4,13,31,53,235,39,0*5D
$GAGSV,3,1,11,01,29,054,40,07,21,292,40,08,49,348,41,13,24,170,40,0*79
$GAGSV,3,2,11,14,41,111,40,15,19,055,40,17,43,272,40,18,37,200,40,0*71
$GAGSV,3,3,11,19,02,163,,24,10,317,,25,11,071,,0*49

$GNRMC,120054.00,A,2303.14014,N,11300.00029,E,161.999,0.00,010821,4.12,W,A,V*49
$GNVTG,0.00,T,4.12,M,161.999,N,300.022,K,A*36
$GNGGA,120054.00,2303.14014,N,11300.00029,E,1,12,0.56,56.8,M,-6.4,M,,*6E
$GNGSA,A,3,22,05,18,06,21,24,31,29,16,,,,1.32,0.56,1.19,1*0A
$GNGSA,A,3,01,14,08,13,17,07,15,18,,,,,1.32,0.56,1.19,3*0B
$GNGSA,A,3,26,30,08,29,27,,,,,,,,1.32,0.56,1.19,4*0F
$GPGSV,4,1,13,03,07,280,39,05,12,128,40,06,20,286,40,12,01,126,,0*64
$GPGSV,4,2,13,14,01,197,,16,31,325,40,18,29,140,40,21,74,034,39,0*61
$GPGSV,4,3,13,22,15,172,40,24,28,039,40,29,27,049,39,30,35,117,,0*6D
$GPGSV,4,4,13,31,53,235,39,0*5D
$GAGSV,3,1,11,01,29,054,40,07,21,292,40,08,49,348,40,13,24,170,40,0*78
$GAGSV,3,2,11,14,41,111,40,15,19,055,40,17,43,272,40,18,37,200,40,0*71
$GAGSV,3,3,11,19,02,163,,24,10,317,,25,11,071,,0*49
$GBGSV,4,1,13,01,33,114,,02,65,149,34,04,36,112,,06,65,257,,0*79
$GBGSV,4,2,13,08,42,325,34,09,14,228,,13,36,039,,20,33,172,,0*71

$GNTXT,01,01,00,txbuf alloc*61

$GNRMC,120055.00,A,2303.18529,N,11300.00029,E,161.982,0.00,010821,4.12,W,A,V*45
$GNVTG,0.00,T,4.12,M,161.982,N,299.991,K,A*3C
$GNGGA,120055.00,2303.18529,N,11300.00029,E,1,12,0.56,56.8,M,-6.4,M,,*68
$GNGSA,A,3,22,05,18,06,21,24,31,29,16,,,,1.32,0.56,1.19,1*0A
$GNGSA,A,3,01,14,08,13,17,07,15,18,,,,,1.32,0.56,1.19,3*0B
$GNGSA,A,3,26,30,08,29,27,,,,,,,,1.32,0.56,1.19,4*0F
$GPGSV,4,1,13,03,07,280,40,05,12,128,40,06,20,286,39,12,01,126,,0*64
$GPGSV,4,2,13,14,01,197,,16,31,325,40,18,29,140,40,21,74,034,40,0*6F
$GPGSV,4,3,13,22,15,172,40,24,28,039,40,29,27,049,40,30,35,117,,0*63
$GPGSV,4,4,13,31,53,235,39,0*5D
$GAGSV,3,1,11,01,29,054,40,07,21,292,40,08,49,348,40,13,24,170,40,0*78
$GAGSV,3,2,11,14,41,111,40,15,19,055,40,17,43,272,40,18,37,200,40,0*71
$GAGSV,3,3,11,19,02,163,,24,10,317,,25,11,071,,0*49
$GBGSV,4,1,13,01,33,114,,02,65,149,34,04,36,112,,06,65,257,,0*79
$GBGSV,4,2,13,08,42,325,34,09,14,228,,13,36,039,,20,33,172,,0*71
$GBGSV,4,3,13,25,01,253,,26,38,325,34,27,51,296,34,29,49,306,34,0*73
$GBGSV,4,4,13,30,49,355,34,0*4F
$GNGLL,2303.18529,N,11300.00029,E,120055.00,A,A*79

$GNRMC,120056.00,A,2303.23044,N,11300.00029,E,161.969,0.00,010821,4.12,W,A,V*45
$GNVTG,0.00,T,4.12,M,161.969,N,299.967,K,A*30
$GNGGA,120056.00,2303.23044,N,11300.00029,E,1,12,0.56,56.8,M,-6.4,M,,*6D
$GNGSA,A,3,22,05,18,06,21,24,31,29,16,,,,1.32,0.56,1.19,1*0A
$GNGSA,A,3,01,14,08,13,17,07,15,18,,,,,1.32,0.56,1.19,3*0B
$GNGSA,A,3,26,30,08,29,27,,,,,,,,1.32,0.56,1.19,4*0F
$GPGSV,4,1,13,03,07,280,40,05,12,128,39,06,20,286,40,12,01,126,,0*64
$GPGSV,4,2,13,14,01,197,,16,31,325,39,18,29,140,40,21,74,034,39,0*6F
$GPGSV,4,3,13,22,15,172,39,24,28,039,39,29,27,049,39,30,35,117,,0*6D
$GPGSV,4,4,13,31,53,235,39,0*5D
$GAGSV,3,1,11,01,29,054,40,07,21,292,40,08,49,348,40,13,24,170,40,0*78
$GAGSV,3,2,11,14,41,111,40,15,19,055,40,17,43,272,40,18,37,200,40,0*71
$GAGSV,3,3,11,19,02,163,,24,10,317,,25,11,071,,0*49
$GBGSV,4,1,13,01,33,114,,02,65,149,34,04,36,112,,06,65,257,,0*79
$GBGSV,4,2,13,08,42,325,34,09,14,228,,13,36,039,,20,33,172,,0*71

$GNRMC,120057.00,A,2303.27559,N,11300.00029,E,161.990,0.00,010821,4.12,W,A,V*4F
$GNVTG,0.00,T,4.12,M,161.990,N,300.006,K,A*39
$GNGGA,120057.00,2303.27559,N,11300.00029,E,1,12,0.56,56.9,M,-6.4,M,,*60
$GNGSA,A,3,22,05,18,06,21,24,31,29,16,,,,1.32,0.56,1.19,1*0A
$GNGSA,A,3,01,14,08,13,17,07,15,18,,,,,1.32,0.56,1.19,3*0B
$GNGSA,A,3,26,30,08,29,27,,,,,,,,1.32,0.56,1.19,4*0F
$GPGSV,4,1,13,03,07,280,40,05,12,128,40,06,20,286,39,12,01,126,,0*64
$GPGSV,4,2,13,14,01,197,,16,31,325,40,18,29,140,39,21,74,034,39,0*6F
$GPGSV,4,3,13,22,15,172,39,24,28,039,40,29,27,049,40,30,35,117,,0*6D
$GPGSV,4,4,13,31,53,235,40,0*53
$GAGSV,3,1,11,01,29,054,40,07,21,292,40,08,49,348,41,13,24,170,40,0*79
$GAGSV,3,2,11,14,41,111,40,15,19,055,40,17,43,272,40,18,37,200,40,0*71
$GAGSV,3,3,11,19,02,163,,24,10,317,,25,11,071,,0*49
$GBGSV,4,1,13,01,33,114,,02,65,149,34,04,36,112,,06,65,257,,0*79
$GBGSV,4,2,13,08,42,325,34,09,14,228,,13,36,039,,20,33,172,,0*71

$GNRMC,120058.00,A,2303.32074,N,11300.00029,E,161.979,0.00,010821,4.12,W,A,V*49
$GNVTG,0.00,T,4.13,M,161.979,N,299.985,K,A*3C
$GNGGA,120058.00,2303.32074,N,11300.00029,E,1,12,0.56,56.9,M,-6.4,M,,*61
$GNGSA,A,3,22,05,18,06,21,24,31,29,16,,,,1.32,0.56,1.19,1*0A
$GNGSA,A,3,01,14,08,13,17,07,15,18,,,,,1.32,0.56,1.19,3*0B
$GNGSA,A,3,26,30,08,29,27,,,,,,,,1.32,0.56,1.19,4*0F
$GPGSV,4,1,13,03,07,280,39,05,12,128,40,06,20,286,39,12,01,126,,0*6A
$GPGSV,4,2,13,14,01,197,,16,31,325,40,18,29,139,40,21,74,034,40,0*61
$GPGSV,4,3,13,22,15,172,39,24,28,039,39,29,27,049,40,30,35,117,,0*63
$GPGSV,4,4,13,31,53,235,39,0*5D
$GAGSV,3,1,11,01,29,054,41,07,21,292,40,08,49,348,40,13,24,170,40,0*79
$GAGSV,3,2,11,14,41,111,40,15,19,055,40,17,43,272,40,18,37,200,40,0*71

$GNRMC,120059.00,A,2303.36589,N,11300.00030,E,161.976,0.00,010821,4.12,W,A,V*4C
$GNVTG,0.00,T,4.12,M,161.976,N,299.979,K,A*31
$GNGGA,120059.00,2303.36589,N,11300.00030,E,1,12,0.56,56.9,M,-6.4,M,,*6B
$GNGSA,A,3,22,05,18,06,21,24,31,29,16,,,,1.32,0.56,1.19,1*0A
$GNGSA,A,3,01,14,08,13,17,07,15,18,,,,,1.32,0.56,1.19,3*0B
$GNGSA,A,3,26,30,08,29,27,,,,,,,,1.32,0.56,1.19,4*0F
$GPGSV,4,1,13,03,07,280,40,05,12,128,39,06,20,286,40,12,01,126,,0*64
$GPGSV,4,2,13,14,01,197,,16,31,325,40,18,29,139,39,21,74,034,40,0*6F
$GPGSV,4,3,13,22,15,172,39,24,28,039,39,29,27,049,39,30,35,117,,0*6D
$GPGSV,4,4,13,31,53,235,40,0*53
$GAGSV,3,1,11,01,29,054,40,07,21,292,40,08,49,348,40,13,24,170,40,0*78
$GAGSV,3,2,11,14,41,111,40,15,19,055,40,17,43,272,40,18,37,200,40,0*71
$GAGSV,3,3,11,19,02,163,,24,10,317,,25,11,071,,0*49
$GBGSV,4,1,13,01,33,114,,02,65,149,34,04,36,112,,06,65,257,,0*79
$GBGSV,4,2,13,08,42,325,34,09,14,228,,13,36,039,,20,33,172,,0*71

$GNTXT,01,01,00,txbuf alloc*61

$GNRMC,120100.00,A,2303.41104,N,11300.00031,E,161.996,0.00,010821,4.12,W,A,V*4F
$GNVTG,0.00,T,4.12,M,161.996,N,300.017,K,A*3F
$GNGGA,120100.00,2303.41104,N,11300.00031,E,1,12,0.56,57.0,M,-6.4,M,,*6E
$GNGSA,A,3,22,05,18,06,21,24,31,29,16,,,,1.32,0.56,1.19,1*0A
$GNGSA,A,3,01,14,08,13,17,07,15,18,,,,,1.32,0.56,1.19,3*0B
$GNGSA,A,3,26,30,08,29,27,,,,,,,,1.32,0.56,1.19,4*0F
$GPGSV,4,1,13,03,07,280,39,05,12,128,40,06,20,286,40,12,01,126,,0*64
$GPGSV,4,2,13,14,01,197,,16,31,325,39,18,29,139,39,21,74,034,40,0*61
$GPGSV,4,3,13,22,15,172,40,24,28,039,39,29,27,049,40,30,35,117,,0*6D
$GPGSV,4,4,13,31,53,235,40,0*53
$GAGSV,3,1,11,01,29,054,40,07,21,292,40,08,49,348,40,13,24,170,40,0*78
$GAGSV,3,2,11,14,41,111,40,15,19,055,40,17,43,272,40,18,37,200,40,0*71
$GAGSV,3,3,11,19,02,163,,24,10,317,,25,11,071,,0*49
$GBGSV,4,1,13,01,33,114,,02,65,149,34,04,36,112,,06,65,257,,0*79
$GBGSV,4,2,13,08,42,325,34,09,14,228,,13,36,039,,20,33,172,,0*71
$GBGSV,4,3,13,25,01,253,,26,38,325,34,27,51,296,34,29,49,306,34,0*73
$GBGSV,4,4,13,30,49,355,34,0*4F
$GNGLL,2303.41104,N,11300.00031,E,120100.00,A,A*76

$GNRMC,120101.00,A,2303.45619,N,11300.00031,E,161.982,0.00,010821,4.12,W,A,V*44
$GNVTG,0.00,T,4.12,M,161.982,N,299.990,K,A*3D
$GNGGA,120101.00,2303.45619,N,11300.00031,E,1,12,0.56,57.0,M,-6.4,M,,*60
$GNGSA,A,3,22,05,18,06,21,24,31,29,16,,,,1.32,0.56,1.19,1*0A
$GNGSA,A,3,01,14,08,13,17,07,15,18,,,,,1.32,0.56,1.19,3*0B
$GNGSA,A,3,26,30,08,29,27,,,,,,,,1.32,0.56,1.19,4*0F
$GPGSV,4,1,13,03,07,280,40,05,12,128,40,06,20,286,40,12,01,126,,0*6A
$GPGSV,4,2,13,14,01,197,,16,31,325,40,18,29,139,39,21,73,034,40,0*68
$GPGSV,4,3,13,22,15,172,39,24,28,039,40,29,27,049,39,30,35,117,,0*63
$GPGSV,4,4,13,31,53,235,39,0*5D
$GAGSV,3,1,11,01,29,054,40,07,21,292,40,08,49,348,40,13,24,170,40,0*78
$GAGSV,3,2,11,14,41,111,41,15,19,055,40,17,43,272,40,18,37,200,40,0*70
$GAGSV,3,3,11,19,02,163,,24,10,317,,25,11,071,,0*49
$GBGSV,4,1,13,01,33,114,,02,65,149,34,04,36,112,,06,65,257,,0*79
$GBGSV,4,2,13,08,42,325,34,09,14,228,,13,36,039,,20,33,172,,0*71
$GBGSV,4,3,13,25,01,253,,26,38,325,34,27,51,296,34,29,49,306,34,0*73

$GNRMC,120102.00,A,2303.50134,N,11300.00032,E,161.990,0.00,010821,4.12,W,A,V*4B
$GNVTG,0.00,T,4.13,M,161.990,N,300.005,K,A*3B
$GNGGA,120102.00,2303.50134,N,11300.00032,E,1,12,0.56,57.0,M,-6.4,M,,*6C
$GNGSA,A,3,22,05,18,06,21,24,31,29,16,,,,1.32,0.56,1.19,1*0A
$GNGSA,A,3,01,14,08,13,17,07,15,18,,,,,1.32,0.56,1.19,3*0B
$GNGSA,A,3,26,30,08,29,27,,,,,,,,1.32,0.56,1.19,4*0F
$GPGSV,4,1,13,03,07,280,39,05,12,128,39,06,20,286,39,12,01,126,,0*64
$GPGSV,4,2,13,14,01,197,,16,31,325,39,18,29,139,39,21,73,034,40,0*66
$GPGSV,4,3,13,22,15,172,40,24,28,039,40,29,27,049,39,30,35,117,,0*6D
$GPGSV,4,4,13,31,53,235,39,0*5D
$GAGSV,3,1,11,01,29,054,40,07,21,292,41,08,49,348,41,13,24,170,40,0*78
$GAGSV,3,2,11,14,41,111,40,15,19,055,40,17,43,272,40,18,37,200,40,0*71
$GAGSV,3,3,11,19,02,163,,24,10,317,,25,11,071,,0*49
$GBGSV,4,1,13,01,33,114,,02,65,149,34,04,36,112,,06,65,257,,0*79
$GBGSV,4,2,13,08,42,325,34,09,14,228,,13,36,039,,20,33,172,,0*71
$GBGSV,4,3,13,25,01,253,,26,38,325,34,27,51,296,34,29,49,306,34,0*73
$GBGSV,4,4,13,30,49,355,34,0*4F
$GNGLL,2303.50134,N,11300.00032,E,120102.00,A,A*74

$GNRMC,120103.00,A,2303.54650,N,11300.00032,E,161.998,0.00,010821,4.12,W,A,V*43
$GNVTG,0.00,T,4.13,M,161.998,N,300.021,K,A*35
$GNGGA,120103.00,2303.54650,N,11300.00032,E,1,12,0.56,57.0,M,-6.4,M,,*6C
$GNGSA,A,3,22,05,18,06,21,24,31,29,16,,,,1.32,0.56,1.19,1*0A
$GNGSA,A,3,01,14,08,13,17,07,15,18,,,,,1.32,0.56,1.19,3*0B
$GNGSA,A,3,26,30,08,29,27,,,,,,,,1.32,0.56,1.19,4*0F
$GPGSV,4,1,13,03,07,280,40,05,12,128,39,06,20,286,39,12,01,126,,0*6A
$GPGSV,4,2,13,14,01,197,,16,31,325,40,18,29,139,39,21,73,034,39,0*66
$GPGSV,4,3,13,22,15,172,39,24,28,039,39,29,27,049,39,30,35,117,,0*6D
$GPGSV,4,4,13,31,53,235,39,0*5D
$GAGSV,3,1,11,01,29,054,40,07,21,292,40,08,49,348,40,13,24,170,40,0*78
$GAGSV,3,2,11,14,41,111,40,15,19,055,40,17,43,272,40,18,37,200,41,0*70
$GAGSV,3,3,11,19,02,163,,24,10,317,,25,11,071,,0*49
$GBGSV,4,1,13,01,33,114,,02,65,149,34,04,36,112,,06,65,257,,0*79
$GBGSV,4,2,13,08,42,325,34,09,14,228,,13,36,039,,20,33,172,,0*71

$GNRMC,120104.00,A,2303.59165,N,11300.00032,E,161.990,0.00,010821,4.12,W,A,V*40
$GNVTG,0.00,T,4.12,M,161.990,N,300.005,K,A*3A
$GNGGA,120104.00,2303.59165,N,11300.00032,E,1,12,0.56,57.0,M,-6.4,M,,*67
$GNGSA,A,3,22,05,18,06,21,24,31,29,16,,,,1.32,0.56,1.19,1*0A
$GNGSA,A,3,01,14,08,13,17,07,15,18,,,,,1.32,0.56,1.19,3*0B
$GNGSA,A,3,26,30,08,29,27,,,,,,,,1.32,0.56,1.19,4*0F
$GPGSV,4,1,13,03,07,280,39,05,12,128,39,06,20,286,39,12,01,126,,0*64
$GPGSV,4,2,13,14,01,197,,16,31,325,39,18,29,139,40,21,73,034,39,0*66
$GPGSV,4,3,13,22,15,172,39,24,28,039,40,29,27,049,40,30,35,117,,0*6D
$GPGSV,4,4,13,31,53,235,40,0*53
$GAGSV,3,1,11,01,29,054,40,07,21,292,40,08,49,348,40,13,24,170,40,0*78
$GAGSV,3,2,11,14,41,111,40,15,19,055,40,17,43,272,40,18,37,200,40,0*71
$GAGSV,3,3,11,19,02,163,,24,10,317,,25,11,071,,0*49
$GBGSV,4,1,13,01,33,114,,02,65,149,34,04,36,112,,06,65,257,,0*79
$GBGSV,4,2,13,08,42,325,34,09,14,228,,13,36,039,,20,33,172,,0*71

$GNTXT,01,01,00,txbuf alloc*61

$GNRMC,120105.00,A,2303.63680,N,11300.00032,E,161.989,0.00,010821,4.12,W,A,V*4C
$GNVTG,0.00,T,4.12,M,161.989,N,300.003,K,A*34
$GNGGA,120105.00,2303.63680,N,11300.00032,E,1,12,0.56,57.0,M,-6.4,M,,*63
$GNGSA,A,3,22,05,18,06,21,24,31,29,16,,,,1.32,0.56,1.19,1*0A
$GNGSA,A,3,01,14,08,13,17,07,15,18,,,,,1.32,0.56,1.19,3*0B
$GNGSA,A,3,26,30,08,29,27,,,,,,,,1.32,0.56,1.19,4*0F
$GPGSV,4,1,13,03,07,280,39,05,12,128,40,06,20,286,40,12,01,126,,0*64
$GPGSV,4,2,13,14,01,197,,16,31,325,40,18,29,139,40,21,73,034,39,0*68
$GPGSV,4,3,13,22,15,172,39,24,28,039,40,29,27,049,40,30,35,117,,0*6D
$GPGSV,4,4,13,31,53,235,39,0*5D
$GAGSV,3,1,11,01,29,054,40,07,21,292,40,08,49,348,40,13,24,170,40,0*78
$GAGSV,3,2,11,14,41,111,40,15,19,055,40,17,43,272,40,18,37,200,40,0*71
$GAGSV,3,3,11,19,02,163,,24,10,317,,25,11,071,,0*49
$GBGSV,4,1,13,01,33,114,,02,65,149,34,04,36,112,,06,65,257,,0*79
$GBGSV,4,2,13,08,42,325,34,09,14,228,,13,36,039,,20,33,172,,0*71

$GNRMC,120106.00,A,2303.68195,N,11300.00032,E,161.989,0.00,010821,4.12,W,A,V*47
$GNVTG,0.00,T,4.12,M,161.989,N,300.003,K,A*34
$GNGGA,120106.00,2303.68195,N,11300.00032,E,1,12,0.56,57.0,M,-6.4,M,,*68
$GNGSA,A,3,22,05,18,06,21,24,31,29,16,,,,1.32,0.56,1.19,1*0A
$GNGSA,A,3,01,14,08,13,17,07,15,18,,,,,1.32,0.56,1.19,3*0B
$GNGSA,A,3,26,30,08,29,27,,,,,,,,1.32,0.56,1.19,4*0F
$GPGSV,4,1,13,03,07,280,40,05,12,128,39,06,20,286,40,12,01,126,,0*64
$GPGSV,4,2,13,14,01,197,,16,31,325,39,18,29,139,39,21,73,034,40,0*66
$GPGSV,4,3,13,22,15,172,39,24,28,039,40,29,27,049,40,30,35,117,,0*6D
$GPGSV,4,4,13,31,53,235,39,0*5D
$GAGSV,3,1,11,01,29,054,40,07,21,292,40,08,49,348,40,13,24,170,40,0*78
$GAGSV,3,2,11,14,41,111,40,15,19,055,40,17,43,272,40,18,37,200,40,0*71
$GAGSV,3,3,11,19,02,163,,24,10,317,,25,11,071,,0*49
$GBGSV,4,1,13,01,33,114,,02,65,149,34,04,36,112,,06,65,257,,0*79

$GNRMC,120107.00,A,2303.72711,N,11300.00031,E,161.990,0.00,010821,4.12,W,A,V*4C
$GNVTG,0.00,T,4.13,M,161.990,N,300.005,K,A*3B
$GNGGA,120107.00,2303.72711,N,11300.00031,E,1,12,0.56,57.0,M,-6.4,M,,*6B
$GNGSA,A,3,22,05,18,06,21,24,31,29,16,,,,1.32,0.56,1.19,1*0A
$GNGSA,A,3,01,14,08,13,17,07,15,18,,,,,1.32,0.56,1.19,3*0B
$GNGSA,A,3,26,30,08,29,27,,,,,,,,1.32,0.56,1.19,4*0F
$GPGSV,4,1,13,03,07,280,39,05,12,128,39,06,20,286,39,12,01,126,,0*64
$GPGSV,4,2,13,14,01,197,,16,31,325,39,18,29,139,39,21,73,034,39,0*68
$GPGSV,4,3,13,22,15,172,39,24,28,039,40,29,27,049,39,30,35,117,,0*63
$GPGSV,4,4,13,31,53,235,39,0*5D
$GAGSV,3,1,11,01,29,054,40,07,21,292,40,08,49,348,40,13,24,170,40,0*78
$GAGSV,3,2,11,14,41,111,40,15,19,055,40,17,43,272,40,18,37,200,40,0*71
$GAGSV,3,3,11,19,02,163,,24,10,317,,25,11,071,,0*49
$GBGSV,4,1,13,01,33,114,,02,65,149,34,04,36,112,,06,65,257,,0*79
$GBGSV,4,2,13,08,42,325,34,09,14,228,,13,36,039,,20,33,172,,0*71
$GBGSV,4,3,13,25,01,253,,26,38,325,34,27,51,296,34,29,49,306,34,0*73

$GNRMC,120108.00,A,2303.77225,N,11300.00031,E,161.996,0.00,010821,4.12,W,A,V*42
$GNVTG,0.00,T,4.12,M,161.996,N,300.017,K,A*3F
$GNGGA,120108.00,2303.77225,N,11300.00031,E,1,12,0.56,57.0,M,-6.4,M,,*63
$GNGSA,A,3,22,05,18,06,21,24,31,29,16,,,,1.32,0.56,1.19,1*0A
$GNGSA,A,3,01,14,08,13,17,07,15,18,,,,,1.32,0.56,1.19,3*0B
$GNGSA,A,3,26,30,08,29,27,,,,,,,,1.32,0.56,1.19,4*0F
$GPGSV,4,1,13,03,07,280,39,05,12,128,39,06,20,286,39,12,01,126,,0*64
$GPGSV,4,2,13,14,01,197,,16,31,325,39,18,29,139,39,21,73,034,39,0*68
$GPGSV,4,3,13,22,15,172,40,24,28,039,39,29,27,049,39,30,35,117,,0*63
$GPGSV,4,4,13,31,53,235,39,0*5D
$GAGSV,3,1,11,01,29,054,40,07,21,292,40,08,49,348,40,13,24,170,41,0*79
$GAGSV,3,2,11,14,41,111,40,15,19,055,40,17,43,272,40,18,37,200,40,0*71
$GAGSV,3,3,11,19,02,163,,24,10,317,,25,11,071,,0*49

$GNRMC,120109.00,A,2303.81740,N,11300.00031,E,161.990,0.00,010821,4.12,W,A,V*4A
$GNVTG,0.00,T,4.12,M,161.990,N,300.006,K,A*39
$GNGGA,120109.00,2303.81740,N,11300.00031,E,1,12,0.56,57.0,M,-6.4,M,,*6D
$GNGSA,A,3,22,05,18,06,21,24,31,29,16,,,,1.32,0.56,1.19,1*0A
$GNGSA,A,3,01,14,08,13,17,07,15,18,,,,,1.32,0.56,1.19,3*0B
$GNGSA,A,3,26,30,08,29,27,,,,,,,,1.32,0.56,1.19,4*0F
$GPGSV,4,1,13,03,07,280,40,05,12,128,39,06,20,286,39,12,01,126,,0*6A
$GPGSV,4,2,13,14,01,197,,16,31,325,39,18,29,139,39,21,73,034,39,0*68
$GPGSV,4,3,13,22,15,172,39,24,28,039,39,29,27,049,39,30,35,117,,0*6D
$GPGSV,4,4,13,31,53,235,39,0*5D
$GAGSV,3,1,11,01,29,054,40,07,21,292,40,08,49,348,40,13,24,170,40,0*78
$GAGSV,3,2,11,14,41,111,40,15,19,055,40,17,43,272,40,18,37,200,40,0*71
$GAGSV,3,3,11,19,02,163,,24,10,317,,25,11,071,,0*49
$GBGSV,4,1,13,01,33,114,,02,65,149,34,04,36,112,,06,65,257,,0*79
$GBGSV,4,2,13,08,42,325,34,09,14,228,,13,36,039,,20,33,172,,0*71

$GNTXT,01,01,00,txbuf alloc*61

$GNRMC,120110.00,A,2303.86254,N,11300.00032,E,161.993,0.00,010821,4.12,W,A,V*45
$GNVTG,0.00,T,4.13,M,161.993,N,300.011,K,A*3D
$GNGGA,120110.00,2303.86254,N,11300.00032,E,1,12,0.56,57.0,M,-6.4,M,,*61
$GNGSA,A,3,22,05,18,06,21,24,31,29,16,,,,1.32,0.56,1.19,1*0A
$GNGSA,A,3,01,14,08,13,17,07,15,18,,,,,1.32,0.56,1.19,3*0B
$GNGSA,A,3,26,30,08,29,27,,,,,,,,1.32,0.56,1.19,4*0F
$GPGSV,4,1,13,03,07,280,40,05,12,128,39,06,20,286,40,12,01,126,,0*64
$GPGSV,4,2,13,14,01,197,,16,31,325,40,18,29,139,39,21,73,034,39,0*66
$GPGSV,4,3,13,22,15,172,39,24,28,039,39,29,27,049,39,30,34,118,,0*63
$GPGSV,4,4,13,31,53,235,40,0*53
$GAGSV,3,1,11,01,29,054,40,07,21,292,40,08,49,348,40,13,24,170,40,0*78
$GAGSV,3,2,11,14,41,111,40,15,19,055,40,17,43,272,40,18,37,200,40,0*71
$GAGSV,3,3,11,19,02,163,,24,10,317,,25,11,071,,0*49
$GBGSV,4,1,13,01,33,114,,02,65,149,34,04,36,112,,06,65,257,,0*79
$GBGSV,4,2,13,08,42,325,34,09,14,228,,13,36,039,,20,33,172,,0*71
$GBGSV,4,3,13,25,01,253,,26,38,325,34,27,51,296,34,29,49,306,34,0*73
$GBGSV,4,4,13,30,49,355,34,0*4F

$GNRMC,120111.00,A,2303.90769,N,11300.00032,E,161.987,0.00,010821,4.12,W,A,V*4D
$GNVTG,0.00,T,4.12,M,161.987,N,299.999,K,A*31
$GNGGA,120111.00,2303.90769,N,11300.00032,E,1,12,0.56,57.1,M,-6.4,M,,*6D
$GNGSA,A,3,22,05,18,06,21,24,31,29,16,,,,1.32,0.56,1.19,1*0A
$GNGSA,A,3,01,14,08,13,17,07,15,18,,,,,1.32,0.56,1.19,3*0B
$GNGSA,A,3,26,30,08,29,27,,,,,,,,1.32,0.56,1.19,4*0F
$GPGSV,4,1,13,03,07,280,40,05,12,128,39,06,20,286,40,12,01,126,,0*64
$GPGSV,4,2,13,14,01,197,,16,31,325,39,18,29,139,40,21,73,034,39,0*66
$GPGSV,4,3,13,22,15,172,39,24,28,039,39,29,27,049,39,30,34,118,,0*63
$GPGSV,4,4,13,31,52,235,39,0*5C
$GAGSV,3,1,11,01,29,054,40,07,21,292,40,08,49,348,40,13,24,170,40,0*78
$GAGSV,3,2,11,14,41,111,40,15,19,055,40,17,43,272,40,18,37,200,40,0*71
$GAGSV,3,3,11,19,02,163,,24,10,317,,25,11,071,,0*49
$GBGSV,4,1,13,01,33,114,,02,65,149,34,04,36,112,,06,65,257,,0*79
$GBGSV,4,2,13,08,42,325,34,09,14,228,,13,36,039,,20,33,172,,0*71

$GNRMC,120112.00,A,2303.95284,N,11300.00032,E,161.995,0.00,010821,4.12,W,A,V*4E
$GNVTG,0.00,T,4.13,M,161.995,N,300.015,K,A*3F
$GNGGA,120112.00,2303.95284,N,11300.00032,E,1,12,0.56,57.0,M,-6.4,M,,*6C
$GNGSA,A,3,22,05,18,06,21,24,31,29,16,,,,1.32,0.56,1.19,1*0A
$GNGSA,A,3,01,14,08,13,17,07,15,18,,,,,1.32,0.56,1.19,3*0B
$GNGSA,A,3,26,30,08,29,27,,,,,,,,1.32,0.56,1.19,4*0F
$GPGSV,4,1,13,03,07,280,39,05,12,128,39,06,20,286,40,12,01,126,,0*6A
$GPGSV,4,2,13,14,01,197,,16,31,325,40,18,29,139,39,21,73,034,39,0*66
$GPGSV,4,3,13,22,15,172,40,24,28,039,39,29,27,049,39,30,34,118,,0*6D
$GPGSV,4,4,13,31,52,235,39,0*5C
$GAGSV,3,1,11,01,29,054,40,07,21,292,40,08,49,348,40,13,24,170,40,0*78
$GAGSV,3,2,11,14,41,111,40,15,19,055,40,17,43,272,40,18,37,200,40,0*71
$GAGSV,3,3,11,19,02,163,,24,10,317,,25,11,071,,0*49
$GBGSV,4,1,13,01,33,114,,02,65,149,34,04,36,112,,06,65,257,,0*79
$GBGSV,4,2,13,08,42,325,34,09,14,228,,13,36,039,,20,33,172,,0*71

$GNRMC,120113.00,A,2303.99799,N,11300.00033,E,161.992,0.00,010821,4.12,W,A,V*4C
$GNVTG,0.00,T,4.12,M,161.992,N,300.010,K,A*3C
$GNGGA,120113.00,2303.99799,N,11300.00033,E,1,12,0.56,57.1,M,-6.4,M,,*68
$GNGSA,A,3,22,05,18,06,21,24,31,29,16,,,,1.32,0.56,1.19,1*0A
$GNGSA,A,3,01,14,08,13,17,07,15,18,,,,,1.32,0.56,1.19,3*0B
$GNGSA,A,3,26,30,08,29,27,,,,,,,,1.32,0.56,1.19,4*0F
$GPGSV,4,1,13,03,07,280,39,05,12,128,40,06,20,286,39,12,01,126,,0*6A
$GPGSV,4,2,13,14,01,197,,16,31,325,39,18,29,139,39,21,73,034,39,0*68
$GPGSV,4,3,13,22,15,172,39,24,28,039,39,29,27,049,40,30,34,118,,0*6D
$GPGSV,4,4,13,31,52,235,39,0*5C
$GAGSV,3,1,11,01,29,054,40,07,21,292,40,08,49,348,40,13,24,170,40,0*78
$GAGSV,3,2,11,14,41,111,40,15,19,055,40,17,43,272,40,18,37,200,40,0*71
$GAGSV,3,3,11,19,02,163,,24,10,317,,25,11,071,,0*49
$GBGSV,4,1,13,01,33,114,,02,65,149,34,04,36,112,,06,65,257,,0*79

$GNRMC,120114.00,A,2304.04315,N,11300.00033,E,161.992,0.00,010821,4.12,W,A,V*48
$GNVTG,0.00,T,4.12,M,161.992,N,300.009,K,A*34
$GNGGA,120114.00,2304.04315,N,11300.00033,E,1,12,0.56,57.1,M,-6.5,M,,*6D
$GNGSA,A,3,22,05,18,06,21,24,31,29,16,,,,1.32,0.56,1.19,1*0A
$GNGSA,A,3,01,14,08,13,17,07,15,18,,,,,1.32,0.56,1.19,3*0B
$GNGSA,A,3,26,30,08,29,27,,,,,,,,1.32,0.56,1.19,4*0F
$GPGSV,4,1,13,03,07,280,40,05,12,128,39,06,20,286,40,12,01,126,,0*64
$GPGSV,4,2,13,14,01,197,,16,31,325,40,18,29,139,39,21,73,034,40,0*68
$GPGSV,4,3,13,22,15,172,39,24,28,039,39,29,27,049,40,30,34,118,,0*6D
$GPGSV,4,4,13,31,52,235,39,0*5C
$GAGSV,3,1,11,01,29,054,40,07,21,292,40,08,49,348,40,13,24,170,40,0*78
$GAGSV,3,2,11,14,41,111,40,15,19,055,40,17,43,272,40,18,37,200,40,0*71
$GAGSV,3,3,11,19,02,163,,24,10,317,,25,11,071,,0*49
$GBGSV,4,1,13,01,33,114,,02,65,149,34,04,36,112,,06,65,257,,0*79
$GBGSV,4,2,13,08,42,325,34,09,14,228,,13,36,039,,20,33,172,,0*71

$GNTXT,01,01,00,txbuf alloc*61

$GNRMC,120115.00,A,2304.08830,N,11300.00034,E,161.988,0.00,010821,4.12,W,A,V*45
$GNVTG,0.00,T,4.12,M,161.988,N,300.002,K,A*34
$GNGGA,120115.00,2304.08830,N,11300.00034,E,1,12,0.56,57.1,M,-6.5,M,,*6B
$GNGSA,A,3,22,05,18,06,21,24,31,29,16,,,,1.32,0.56,1.19,1*0A
$GNGSA,A,3,01,14,08,13,17,07,15,18,,,,,1.32,0.56,1.19,3*0B
$GNGSA,A,3,26,30,08,29,27,,,,,,,,1.32,0.56,1.19,4*0F
$GPGSV,4,1,13,03,07,280,39,05,12,128,39,06,20,286,39,12,01,126,,0*64
$GPGSV,4,2,13,14,01,197,,16,31,325,39,18,29,139,39,21,73,034,39,0*68
$GPGSV,4,3,13,22,15,172,39,24,28,039,40,29,27,049,40,30,34,118,,0*63
$GPGSV,4,4,13,31,52,235,39,0*5C
$GAGSV,3,1,11,01,29,054,40,07,21,292,40,08,49,348,40,13,24,170,40,0*78
$GAGSV,3,2,11,14,41,111,40,15,19,055,40,17,43,272,40,18,37,200,40,0*71
$GAGSV,3,3,11,19,02,163,,24,10,317,,25,11,071,,0*49
$GBGSV,4,1,13,01,33,114,,02,65,149,34,04,36,112,,06,65,257,,0*79
$GBGSV,4,2,13,08,42,325,34,09,14,228,,13,36,039,,20,33,172,,0*71
$GBGSV,4,3,13,25,01,253,,26,38,325,34,27,51,296,34,29,49,306,34,0*73
$GBGSV,4,4,13,30,49,355,34,0*4F

$GNRMC,120116.00,A,2304.13345,N,11300.00035,E,161.987,0.00,010821,4.12,W,A,V*4B
$GNVTG,0.00,T,4.13,M,161.987,N,299.999,K,A*30
$GNGGA,120116.00,2304.13345,N,11300.00035,E,1,12,0.56,57.2,M,-6.5,M,,*69
$GNGSA,A,3,22,05,18,06,21,24,31,29,16,,,,1.32,0.56,1.19,1*0A
$GNGSA,A,3,01,14,08,13,17,07,15,18,,,,,1.32,0.56,1.19,3*0B
$GNGSA,A,3,26,30,08,29,27,,,,,,,,1.32,0.56,1.19,4*0F
$GPGSV,4,1,13,03,07,280,39,05,12,128,39,06,20,286,39,12,01,126,,0*64
$GPGSV,4,2,13,14,01,197,,16,31,325,39,18,29,139,39,21,73,034,39,0*68
$GPGSV,4,3,13,22,15,172,39,24,28,039,39,29,27,049,39,30,34,118,,0*63
$GPGSV,4,4,13,31,52,235,40,0*52
$GAGSV,3,1,11,01,29,054,40,07,21,292,40,08,49,348,40,13,24,170,40,0*78
$GAGSV,3,2,11,14,41,111,40,15,19,055,40,17,43,272,40,18,37,200,40,0*71
$GAGSV,3,3,11,19,02,163,,24,10,317,,25,11,071,,0*49
$GBGSV,4,1,13,01,33,114,,02,65,149,34,04,36,112,,06,65,257,,0*79
$GBGSV,4,2,13,08,42,325,34,09,14,228,,13,36,039,,20,33,172,,0*71

$GNRMC,120117.00,A,2304.17859,N,11300.00035,E,161.980,0.00,010821,4.12,W,A,V*4F
$GNVTG,0.00,T,4.12,M,161.980,N,299.986,K,A*38
$GNGGA,120117.00,2304.17859,N,11300.00035,E,1,12,0.56,57.2,M,-6.5,M,,*6A
$GNGSA,A,3,22,05,18,06,21,24,31,29,16,,,,1.32,0.56,1.19,1*0A
$GNGSA,A,3,01,14,08,13,17,07,15,18,,,,,1.32,0.56,1.19,3*0B
$GNGSA,A,3,26,30,08,29,27,,,,,,,,1.32,0.56,1.19,4*0F
$GPGSV,4,1,13,03,07,280,40,05,12,128,39,06,20,286,39,12,01,126,,0*6A
$GPGSV,4,2,13,14,01,197,,16,31,325,39,18,29,139,39,21,73,034,39,0*68
$GPGSV,4,3,13,22,15,172,39,24,28,039,39,29,27,049,39,30,34,118,,0*63
$GPGSV,4,4,13,31,52,235,39,0*5C
$GAGSV,3,1,11,01,29,054,40,07,21,292,40,08,49,348,40,13,24,170,40,0*78
$GAGSV,3,2,11,14,41,111,40,15,19,055,40,17,43,272,40,18,37,200,40,0*71
$GAGSV,3,3,11,19,02,163,,24,10,317,,25,11,071,,0*49
$GBGSV,4,1,13,01,33,114,,02,65,149,34,04,36,112,,06,65,257,,0*79
$GBGSV,4,2,13,08,42,325,34,09,14,228,,13,36,039,,20,33,172,,0*71

$GNRMC,120118.00,A,2304.22374,N,11300.00035,E,161.987,0.00,010821,4.12,W,A,V*45
$GNVTG,0.00,T,4.13,M,161.987,N,300.000,K,A*38
$GNGGA,120118.00,2304.22374,N,11300.00035,E,1,12,0.56,57.2,M,-6.5,M,,*67
$GNGSA,A,3,22,05,18,06,21,24,31,29,16,,,,1.32,0.56,1.19,1*0A
$GNGSA,A,3,01,14,08,13,17,07,15,18,,,,,1.32,0.56,1.19,3*0B
$GNGSA,A,3,26,30,08,29,27,,,,,,,,1.32,0.56,1.19,4*0F
$GPGSV,4,1,13,03,07,280,39,05,12,128,39,06,20,286,39,12,01,126,,0*64
$GPGSV,4,2,13,14,01,197,,16,31,325,39,18,29,139,39,21,73,034,39,0*68
$GPGSV,4,3,13,22,15,172,39,24,28,039,39,29,27,049,39,30,34,118,,0*63
$GPGSV,4,4,13,31,52,235,39,0*5C
$GAGSV,3,1,11,01,29,054,40,07,21,292,40,08,49,348,40,13,24,170,40,0*78
$GAGSV,3,2,11,14,41,111,40,15,19,055,40,17,43,272,40,18,37,200,40,0*71
$GAGSV,3,3,11,19,02,163,,24,10,317,,25,11,071,,0*49

$GNRMC,120119.00,A,2304.26889,N,11300.00036,E,161.988,0.00,010821,4.13,W,A,V*44
$GNVTG,0.00,T,4.13,M,161.988,N,300.002,K,A*35
$GNGGA,120119.00,2304.26889,N,11300.00036,E,1,12,0.56,57.3,M,-6.5,M,,*69
$GNGSA,A,3,22,05,18,06,21,24,31,29,16,,,,1.32,0.56,1.19,1*0A
$GNGSA,A,3,01,14,08,13,17,07,15,18,,,,,1.32,0.56,1.19,3*0B
$GNGSA,A,3,26,30,08,29,27,,,,,,,,1.32,0.56,1.19,4*0F
$GPGSV,4,1,13,03,07,280,39,05,12,128,39,06,20,286,39,12,01,126,,0*64
$GPGSV,4,2,13,14,01,197,,16,31,325,40,18,29,139,39,21,73,034,39,0*66
$GPGSV,4,3,13,22,15,172,40,24,28,039,39,29,27,049,39,30,34,118,,0*6D
$GPGSV,4,4,13,31,52,235,39,0*5C
$GAGSV,3,1,11,01,29,054,40,07,21,292,40,08,49,348,40,13,24,170,40,0*78
$GAGSV,3,2,11,14,41,111,40,15,19,055,40,17,43,272,40,18,37,200,40,0*71
$GAGSV,3,3,11,19,02,163,,24,10,317,,25,11,071,,0*49
$GBGSV,4,1,13,01,33,114,,02,65,149,34,04,36,112,,06,65,257,,0*79
$GBGSV,4,2,13,08,42,325,34,09,14,228,,13,36,039,,20,33,172,,0*71

$GNTXT,01,01,00,txbuf alloc*61

$GNRMC,120120.00,A,2304.31404,N,11300.00035,E,161.983,0.00,010821,4.13,W,A,V*49
$GNVTG,0.00,T,4.13,M,161.983,N,299.993,K,A*3E
$GNGGA,120120.00,2304.31404,N,11300.00035,E,1,12,0.56,57.3,M,-6.5,M,,*6F
$GNGSA,A,3,22,05,18,06,21,24,31,29,16,,,,1.32,0.56,1.19,1*0A
$GNGSA,A,3,01,14,08,13,17,07,15,18,,,,,1.32,0.56,1.19,3*0B
$GNGSA,A,3,26,30,08,29,27,,,,,,,,1.32,0.56,1.19,4*0F
$GPGSV,4,1,13,03,07,280,39,05,12,128,39,06,20,286,40,12,01,126,,0*6A
$GPGSV,4,2,13,14,01,197,,16,31,325,39,18,29,139,39,21,73,034,39,0*68
$GPGSV,4,3,13,22,15,172,39,24,28,039,39,29,27,049,39,30,34,118,,0*63
$GPGSV,4,4,13,31,52,235,39,0*5C
$GAGSV,3,1,11,01,29,054,40,07,21,292,40,08,49,348,40,13,24,170,40,0*78
$GAGSV,3,2,11,14,41,111,40,15,19,055,40,17,43,272,40,18,37,200,40,0*71
$GAGSV,3,3,11,19,02,163,,24,10,317,,25,11,071,,0*49
$GBGSV,4,1,13,01,33,114,,02,65,149,34,04,36,112,,06,65,257,,0*79
$GBGSV,4,2,13,08,42,325,34,09,14,228,,13,36,039,,20,33,172,,0*71
$GBGSV,4,3,13,25,01,253,,26,38,325,34,27,51,296,34,29,49,306,34,0*73
$GBGSV,4,4,13,30,49,355,34,0*4F
$GNGLL,2304.31404,N,11300.00035,E,120120.00,A,A*75

$GNRMC,120121.00,A,2304.35918,N,11300.00036,E,161.987,0.00,010821,4.13,W,A,V*4B
$GNVTG,0.00,T,4.12,M,161.987,N,300.000,K,A*39
$GNGGA,120121.00,2304.35918,N,11300.00036,E,1,12,0.56,57.4,M,-6.5,M,,*6E
$GNGSA,A,3,22,05,18,06,21,24,31,29,16,,,,1.32,0.56,1.19,1*0A
$GNGSA,A,3,01,14,08,13,17,07,15,18,,,,,1.32,0.56,1.19,3*0B
$GNGSA,A,3,26,30,08,29,27,,,,,,,,1.32,0.56,1.19,4*0F
$GPGSV,4,1,13,03,07,280,39,05,12,128,40,06,20,286,39,12,01,126,,0*6A
$GPGSV,4,2,13,14,01,197,,16,31,325,39,18,29,139,39,21,73,034,39,0*68
$GPGSV,4,3,13,22,15,172,40,24,28,039,39,29,27,049,39,30,34,118,,0*6D
$GPGSV,4,4,13,31,52,235,39,0*5C
$GAGSV,3,1,11,01,29,054,40,07,21,292,40,08,49,348,40,13,24,170,40,0*78
$GAGSV,3,2,11,14,41,111,40,15,19,055,40,17,43,272,40,18,37,200,40,0*71
$GAGSV,3,3,11,19,02,163,,24,10,317,,25,11,071,,0*49
$GBGSV,4,1,13,01,33,114,,02,65,149,34,04,36,112,,06,65,257,,0*79
$GBGSV,4,2,13,08,42,325,34,09,14,228,,13,36,039,,20,33,172,,0*71
$GBGSV,4,3,13,25,01,253,,26,38,325,34,27,51,296,34,29,49,306,34,0*73

$GNRMC,120122.00,A,2304.40433,N,11300.00035,E,161.987,0.00,010821,4.13,W,A,V*4D
$GNVTG,0.00,T,4.12,M,161.987,N,299.999,K,A*31
$GNGGA,120122.00,2304.40433,N,11300.00035,E,1,12,0.56,57.4,M,-6.5,M,,*68
$GNGSA,A,3,22,05,18,06,21,24,31,29,16,,,,1.32,0.56,1.19,1*0A
$GNGSA,A,3,01,14,08,13,17,07,15,18,,,,,1.32,0.56,1.19,3*0B
$GNGSA,A,3,26,30,08,29,27,,,,,,,,1.32,0.56,1.19,4*0F
$GPGSV,4,1,13,03,07,280,39,05,12,128,39,06,20,286,39,12,01,126,,0*64
$GPGSV,4,2,13,14,01,197,,16,31,325,40,18,29,139,39,21,73,034,39,0*66
$GPGSV,4,3,13,22,15,172,39,24,28,039,40,29,27,049,39,30,34,118,,0*6D
$GPGSV,4,4,13,31,52,235,39,0*5C
$GAGSV,3,1,11,01,29,054,40,07,21,292,40,08,49,348,40,13,24,170,40,0*78
$GAGSV,3,2,11,14,41,111,40,15,19,055,40,17,43,272,40,18,37,200,40,0*71
$GAGSV,3,3,11,19,02,163,,24,10,317,,25,11,071,,0*49
$GBGSV,4,1,13,01,33,114,,02,65,149,34,04,36,112,,06,65,257,,0*79
$GBGSV,4,2,13,08,42,325,34,09,14,228,,13,36,039,,20,33,172,,0*71

$GNRMC,120123.00,A,2304.44947,N,11300.00035,E,161.972,0.00,010821,4.13,W,A,V*4C
$GNVTG,0.00,T,4.12,M,161.972,N,299.973,K,A*3F
$GNGGA,120123.00,2304.44947,N,11300.00035,E,1,12,0.56,57.4,M,-6.5,M,,*63
$GNGSA,A,3,22,05,18,06,21,24,31,29,16,,,,1.32,0.56,1.19,1*0A
$GNGSA,A,3,01,14,08,13,17,07,15,18,,,,,1.32,0.56,1.19,3*0B
$GNGSA,A,3,26,30,08,29,27,,,,,,,,1.32,0.56,1.19,4*0F
$GPGSV,4,1,13,03,07,280,39,05,12,128,39,06,20,286,40,12,01,126,,0*6A
$GPGSV,4,2,13,14,01,197,,16,31,325,39,18,29,139,39,21,73,034,39,0*68
$GPGSV,4,3,13,22,15,172,39,24,28,039,39,29,27,049,40,30,34,118,,0*6D
$GPGSV,4,4,13,31,52,235,39,0*5C
$GAGSV,3,1,11,01,29,054,40,07,21,292,40,08,49,348,40,13,24,170,40,0*78
$GAGSV,3,2,11,14,41,111,40,15,19,055,40,17,43,272,40,18,37,200,40,0*71
$GAGSV,3,3,11,19,02,163,,24,10,317,,25,11,071,,0*49
$GBGSV,4,1,13,01,33,114,,02,65,149,34,04,36,112,,06,65,257,,0*79
$GBGSV,4,2,13,08,42,325,34,09,14,228,,13,36,039,,20,33,172,,0*71

$GNRMC,120124.00,A,2304.49461,N,11300.00035,E,161.981,0.00,010821,4.13,W,A,V*43
$GNVTG,0.00,T,4.12,M,161.981,N,299.989,K,A*36
$GNGGA,120124.00,2304.49461,N,11300.00035,E,1,12,0.56,57.5,M,-6.5,M,,*61
$GNGSA,A,3,22,05,18,06,21,24,31,29,16,,,,1.32,0.56,1.19,1*0A
$GNGSA,A,3,01,14,08,13,17,07,15,18,,,,,1.32,0.56,1.19,3*0B
$GNGSA,A,3,26,30,08,29,27,,,,,,,,1.32,0.56,1.19,4*0F
$GPGSV,4,1,13,03,07,280,39,05,12,128,39,06,20,286,39,12,01,126,,0*64
$GPGSV,4,2,13,14,01,197,,16,31,325,39,18,29,139,39,21,73,034,40,0*66
$GPGSV,4,3,13,22,15,172,39,24,28,039,39,29,27,049,39,30,34,118,,0*63
$GPGSV,4,4,13,31,52,235,39,0*5C
$GAGSV,3,1,11,01,29,054,40,07,21,292,40,08,49,348,40,13,24,170,40,0*78
$GAGSV,3,2,11,14,41,111,40,15,19,055,40,17,43,272,40,18,37,200,40,0*71
$GAGSV,3,3,11,19,02,163,,24,11,317,,25,11,071,,0*48
$GBGSV,4,1,13,01,33,114,,02,65,149,34,04,36,112,,06,65,257,,0*79
$GBGSV,4,2,13,08,42,325,34,09,14,228,,13,36,039,,20,33,172,,0*71

$GNTXT,01,01,00,txbuf alloc*61

$GNRMC,120125.00,A,2304.53975,N,11300.00036,E,161.989,0.00,010821,4.13,W,A,V*4A
$GNVTG,0.00,T,4.12,M,161.989,N,300.003,K,A*34
$GNGGA,120125.00,2304.53975,N,11300.00036,E,1,12,0.56,57.5,M,-6.5,M,,*60
$GNGSA,A,3,22,05,18,06,21,24,31,29,16,,,,1.32,0.56,1.19,1*0A
$GNGSA,A,3,01,14,08,13,17,07,15,18,,,,,1.32,0.56,1.19,3*0B
$GNGSA,A,3,26,30,08,29,27,,,,,,,,1.32,0.56,1.19,4*0F
$GPGSV,4,1,13,03,07,280,39,05,12,128,39,06,20,286,39,12,01,126,,0*64
$GPGSV,4,2,13,14,01,197,,16,31,325,39,18,29,139,39,21,73,034,40,0*66
$GPGSV,4,3,13,22,15,172,39,24,28,039,39,29,27,049,40,30,34,118,,0*6D
$GPGSV,4,4,13,31,52,235,39,0*5C
$GAGSV,3,1,11,01,29,054,40,07,21,292,40,08,49,348,40,13,24,170,40,0*78
$GAGSV,3,2,11,14,41,111,40,15,19,055,40,17,43,272,40,18,37,200,40,0*71
$GAGSV,3,3,11,19,02,163,,24,11,317,,25,11,071,,0*48
$GBGSV,4,1,13,01,33,114,,02,65,149,34,04,36,112,,06,65,257,,0*79
$GBGSV,4,2,13,08,42,325,34,09,14,228,,13,36,039,,20,33,172,,0*71
$GBGSV,4,3,13,25,01,253,,26,38,325,34,27,51,296,34,29,49,306,34,0*73
$GBGSV,4,4,13,30,49,355,34,0*4F
$GNGLL,2304.53975,N,11300.00036,E,120125.00,A,A*7C

$GNRMC,120126.00,A,2304.58490,N,11300.00036,E,161.992,0.00,010821,4.13,W,A,V*4E
$GNVTG,0.00,T,4.13,M,161.992,N,300.010,K,A*3D
$GNGGA,120126.00,2304.58490,N,11300.00036,E,1,12,0.56,57.5,M,-6.5,M,,*6E
$GNGSA,A,3,22,05,18,06,21,24,31,29,16,,,,1.32,0.56,1.19,1*0A
$GNGSA,A,3,01,14,08,13,17,07,15,18,,,,,1.32,0.56,1.19,3*0B
$GNGSA,A,3,26,30,08,29,27,,,,,,,,1.32,0.56,1.19,4*0F
$GPGSV,4,1,13,03,07,280,39,05,12,128,39,06,20,286,39,12,01,126,,0*64
$GPGSV,4,2,13,14,01,197,,16,31,325,39,18,29,139,39,21,73,034,40,0*66
$GPGSV,4,3,13,22,15,172,39,24,28,039,40,29,27,049,39,30,34,118,,0*6D
$GPGSV,4,4,13,31,52,235,39,0*5C
$GAGSV,3,1,11,01,29,054,40,07,21,292,40,08,49,348,40,13,24,170,40,0*78
$GAGSV,3,2,11,14,41,111,40,15,19,055,40,17,43,272,40,18,37,200,40,0*71
$GAGSV,3,3,11,19,02,163,,24,11,317,,25,11,071,,0*48
$GBGSV,4,1,13,01,33,114,,02,65,149,34,04,36,112,,06,65,257,,0*79
$GBGSV,4,2,13,08,42,325,34,09,14,228,,13,36,039,,20,33,172,,0*71
$GBGSV,4,3,13,25,01,253,,26,38,325,34,27,51,296,34,29,49,306,34,0*73

$GNRMC,120127.00,A,2304.63005,N,11300.00036,E,161.979,0.00,010821,4.13,W,A,V*4A
$GNVTG,0.00,T,4.13,M,161.979,N,299.985,K,A*3C
$GNGGA,120127.00,2304.63005,N,11300.00036,E,1,12,0.55,57.5,M,-6.5,M,,*6C
$GNGSA,A,3,22,05,18,06,21,24,31,29,16,,,,1.21,0.55,1.08,1*0B
$GNGSA,A,3,01,14,08,13,17,07,15,18,,,,,1.21,0.55,1.08,3*0A
$GNGSA,A,3,26,30,08,29,27,02,,,,,,,1.21,0.55,1.08,4*0C
$GPGSV,4,1,13,03,07,280,39,05,12,128,39,06,20,286,39,12,01,126,,0*64
$GPGSV,4,2,13,14,01,197,,16,31,325,39,18,29,139,39,21,73,034,39,0*68
$GPGSV,4,3,13,22,15,172,39,24,28,039,39,29,27,049,39,30,34,118,,0*63
$GPGSV,4,4,13,31,52,235,39,0*5C
$GAGSV,3,1,11,01,29,054,40,07,21,292,40,08,49,348,40,13,24,170,40,0*78
$GAGSV,3,2,11,14,41,111,40,15,19,055,40,17,43,272,40,18,37,200,40,0*71
$GAGSV,3,3,11,19,02,163,,24,11,317,,25,11,071,,0*48
$GBGSV,4,1,13,01,33,114,,02,65,150,34,04,36,112,,06,65,257,,0*71
$GBGSV,4,2,13,08,42,325,34,09,14,228,,13,36,039,,20,33,172,,0*71
$GBGSV,4,3,13,25,01,253,,26,38,325,34,27,51,296,34,29,49,306,34,0*73

$GNRMC,120128.00,A,2304.67520,N,11300.00036,E,161.981,0.00,010821,4.13,W,A,V*44
$GNVTG,0.00,T,4.13,M,161.981,N,299.990,K,A*3F
$GNGGA,120128.00,2304.67520,N,11300.00036,E,1,12,0.55,57.6,M,-6.5,M,,*66
$GNGSA,A,3,22,05,18,06,21,24,31,29,16,,,,1.21,0.55,1.08,1*0B
$GNGSA,A,3,01,14,08,13,17,07,15,18,,,,,1.21,0.55,1.08,3*0A
$GNGSA,A,3,26,30,08,29,27,02,,,,,,,1.21,0.55,1.08,4*0C
$GPGSV,4,1,13,03,07,280,39,05,12,128,39,06,20,286,39,12,01,126,,0*64
$GPGSV,4,2,13,14,01,197,,16,31,325,39,18,29,139,39,21,73,034,39,0*68
$GPGSV,4,3,13,22,15,172,39,24,28,039,39,29,27,049,39,30,34,118,,0*63
$GPGSV,4,4,13,31,52,235,39,0*5C
$GAGSV,3,1,11,01,29,054,40,07,21,292,40,08,49,348,40,13,24,170,40,0*78
$GAGSV,3,2,11,14,41,111,40,15,19,055,40,17,43,272,40,18,37,200,40,0*71
$GAGSV,3,3,11,19,02,163,,24,11,317,,25,11,071,,0*48
$GBGSV,4,1,13,01,33,114,,02,65,150,34,04,36,112,,06,65,257,,0*71

$GNRMC,120129.00,A,2304.72036,N,11300.00036,E,161.990,0.00,010821,4.13,W,A,V*43
$GNVTG,0.00,T,4.13,M,161.990,N,300.005,K,A*3B
$GNGGA,120129.00,2304.72036,N,11300.00036,E,1,12,0.55,57.6,M,-6.5,M,,*61
$GNGSA,A,3,22,05,18,06,21,24,31,29,16,,,,1.21,0.55,1.08,1*0B
$GNGSA,A,3,01,14,08,13,17,07,15,18,,,,,1.21,0.55,1.08,3*0A
$GNGSA,A,3,26,30,08,29,27,02,,,,,,,1.21,0.55,1.08,4*0C
$GPGSV,4,1,13,03,07,280,39,05,12,128,39,06,20,286,39,12,01,126,,0*64
$GPGSV,4,2,13,14,01,197,,16,31,325,39,18,29,139,39,21,73,034,39,0*68
$GPGSV,4,3,13,22,15,172,39,24,28,039,39,29,27,049,39,30,34,118,,0*63
$GPGSV,4,4,13,31,52,235,39,0*5C
$GAGSV,3,1,11,01,29,054,40,07,21,292,40,08,49,348,40,13,24,170,40,0*78
$GAGSV,3,2,11,14,41,111,40,15,19,055,40,17,43,272,40,18,37,200,40,0*71
$GAGSV,3,3,11,19,02,163,,24,11,317,,25,11,071,,0*48
$GBGSV,4,1,13,01,33,114,,02,65,150,34,04,36,112,,06,65,257,,0*71
$GBGSV,4,2,13,08,42,325,34,09,14,228,,13,36,039,,20,33,172,,0*71

$GNTXT,01,01,00,txbuf alloc*61

$GNRMC,120130.00,A,2304.76551,N,11300.00036,E,161.989,0.00,010821,4.13,W,A,V*43
$GNVTG,0.00,T,4.13,M,161.989,N,300.003,K,A*35
$GNGGA,120130.00,2304.76551,N,11300.00036,E,1,12,0.55,57.6,M,-6.5,M,,*69
$GNGSA,A,3,22,05,18,06,21,24,31,29,16,,,,1.21,0.55,1.08,1*0B
$GNGSA,A,3,01,14,08,13,17,07,15,18,,,,,1.21,0.55,1.08,3*0A
$GNGSA,A,3,26,30,08,29,27,02,,,,,,,1.21,0.55,1.08,4*0C
$GPGSV,4,1,13,03,07,280,39,05,12,128,39,06,20,286,39,12,01,126,,0*64
$GPGSV,4,2,13,14,01,197,,16,31,325,39,18,29,139,39,21,73,034,39,0*68
$GPGSV,4,3,13,22,15,172,39,24,28,039,39,29,27,049,39,30,34,118,,0*63
$GPGSV,4,4,13,31,52,235,39,0*5C
$GAGSV,3,1,11,01,29,054,40,07,21,292,40,08,49,348,40,13,24,170,40,0*78
$GAGSV,3,2,11,14,41,111,40,15,19,055,40,17,43,272,40,18,37,200,40,0*71
$GAGSV,3,3,11,19,02,163,,24,11,317,,25,11,071,,0*48
$GBGSV,4,1,13,01,33,114,,02,65,150,34,04,36,112,,06,65,257,,0*71
$GBGSV,4,2,13,08,42,325,34,09,14,228,,13,36,039,,20,33,172,,0*71

$GNRMC,120131.00,A,2304.81066,N,11300.00036,E,161.972,0.00,010821,4.13,W,A,V*4F
$GNVTG,0.00,T,4.12,M,161.972,N,299.972,K,A*3E
$GNGGA,120131.00,2304.81066,N,11300.00036,E,1,12,0.55,57.7,M,-6.5,M,,*60
$GNGSA,A,3,22,05,18,06,21,24,31,29,16,,,,1.21,0.55,1.08,1*0B
$GNGSA,A,3,01,14,08,13,17,07,15,18,,,,,1.21,0.55,1.08,3*0A
$GNGSA,A,3,26,30,08,29,27,02,,,,,,,1.21,0.55,1.08,4*0C
$GPGSV,4,1,13,03,07,280,39,05,12,128,40,06,20,286,39,12,01,126,,0*6A
$GPGSV,4,2,13,14,01,197,,16,31,325,39,18,29,139,39,21,73,034,40,0*66
$GPGSV,4,3,13,22,15,172,39,24,28,039,39,29,27,049,39,30,34,118,,0*63
$GPGSV,4,4,13,31,52,235,40,0*52
$GAGSV,3,1,11,01,29,054,40,07,21,292,40,08,49,348,40,13,24,170,40,0*78
$GAGSV,3,2,11,14,41,111,40,15,19,055,40,17,43,272,40,18,37,200,40,0*71
$GAGSV,3,3,11,19,02,163,,24,11,317,,25,11,071,,0*48
$GBGSV,4,1,13,01,33,114,,02,65,150,34,04,36,112,,06,65,257,,0*71
$GBGSV,4,2,13,08,42,325,34,09,14,228,,13,36,039,,20,33,172,,0*71
$GBGSV,4,3,13,25,01,253,,26,38,325,34,27,51,296,34,29,49,306,34,0*73
$GBGSV,4,4,13,30,49,355,34,0*4F

$GNRMC,120132.00,A,2304.85580,N,11300.00036,E,161.983,0.00,010821,4.13,W,A,V*4B
$GNVTG,0.00,T,4.13,M,161.983,N,299.992,K,A*3F
$GNGGA,120132.00,2304.85580,N,11300.00036,E,1,12,0.55,57.7,M,-6.5,M,,*6A
$GNGSA,A,3,22,05,18,06,21,24,31,29,16,,,,1.21,0.55,1.08,1*0B
$GNGSA,A,3,01,14,08,13,17,07,15,18,,,,,1.21,0.55,1.08,3*0A
$GNGSA,A,3,26,30,08,29,27,02,,,,,,,1.21,0.55,1.08,4*0C
$GPGSV,4,1,13,03,07,280,39,05,12,128,39,06,20,286,39,12,01,126,,0*64
$GPGSV,4,2,13,14,01,197,,16,31,325,39,18,29,139,39,21,73,034,39,0*68
$GPGSV,4,3,13,22,15,172,39,24,28,039,39,29,27,049,39,30,34,118,,0*63
$GPGSV,4,4,13,31,52,235,40,0*52
$GAGSV,3,1,11,01,29,054,40,07,21,292,40,08,49,348,40,13,24,170,40,0*78
$GAGSV,3,2,11,14,41,111,40,15,19,055,40,17,43,272,40,18,37,200,40,0*71
$GAGSV,3,3,11,19,02,163,,24,11,317,,25,11,071,,0*48
$GBGSV,4,1,13,01,33,114,,02,65,150,34,04,36,112,,06,65,257,,0*71
$GBGSV,4,2,13,08,42,325,34,09,14,228,,13,36,039,,20,33,172,,0*71

$GNRMC,120133.00,A,2304.90096,N,11300.00035,E,161.986,0.00,010821,4.13,W,A,V*4A
$GNVTG,0.00,T,4.13,M,161.986,N,299.997,K,A*3F
$GNGGA,120133.00,2304.90096,N,11300.00035,E,1,12,0.55,57.7,M,-6.5,M,,*6E
$GNGSA,A,3,22,05,18,06,21,24,31,29,16,,,,1.21,0.55,1.08,1*0B
$GNGSA,A,3,01,14,08,13,17,07,15,18,,,,,1.21,0.55,1.08,3*0A
$GNGSA,A,3,26,30,08,29,27,02,,,,,,,1.21,0.55,1.08,4*0C
$GPGSV,4,1,13,03,07,280,39,05,12,128,39,06,20,286,39,12,01,126,,0*64
$GPGSV,4,2,13,14,01,197,,16,31,325,40,18,29,139,39,21,73,034,39,0*66
$GPGSV,4,3,13,22,15,172,39,24,28,039,39,29,27,049,39,30,34,118,,0*63
$GPGSV,4,4,13,31,52,235,39,0*5C
$GAGSV,3,1,11,01,29,054,40,07,21,292,40,08,49,348,40,13,24,170,40,0*78
$GAGSV,3,2,11,14,41,111,40,15,19,055,40,17,43,272,40,18,37,200,40,0*71
$GAGSV,3,3,11,19,02,163,,24,11,317,,25,11,071,,0*48
$GBGSV,4,1,13,01,33,114,,02,65,150,34,04,36,112,,06,65,257,,0*71

$GNRMC,120134.00,A,2304.94611,N,11300.00035,E,161.977,0.00,010821,4.13,W,A,V*4E
$GNVTG,0.00,T,4.13,M,161.977,N,299.981,K,A*36
$GNGGA,120134.00,2304.94611,N,11300.00035,E,1,12,0.55,57.7,M,-6.5,M,,*64
$GNGSA,A,3,22,05,18,06,21,24,31,29,16,,,,1.21,0.55,1.08,1*0B
$GNGSA,A,3,01,14,08,13,17,07,15,18,,,,,1.21,0.55,1.08,3*0A
$GNGSA,A,3,26,30,08,29,27,02,,,,,,,1.21,0.55,1.08,4*0C
$GPGSV,4,1,13,03,07,280,39,05,12,128,39,06,20,286,39,12,01,126,,0*64
$GPGSV,4,2,13,14,01,197,,16,31,325,39,18,29,139,39,21,73,034,39,0*68
$GPGSV,4,3,13,22,15,172,39,24,28,039,40,29,27,049,39,30,34,118,,0*6D
$GPGSV,4,4,13,31,52,235,39,0*5C
$GAGSV,3,1,11,01,29,054,40,07,21,292,40,08,49,348,40,13,24,170,40,0*78
$GAGSV,3,2,11,14,41,111,40,15,19,055,40,17,43,272,40,18,37,200,40,0*71
$GAGSV,3,3,11,19,02,163,,24,11,317,,25,11,071,,0*48
$GBGSV,4,1,13,01,33,114,,02,65,150,34,04,36,112,,06,65,257,,0*71
$GBGSV,4,2,13,08,42,325,34,09,14,228,,13,36,039,,20,33,172,,0*71

$GNTXT,01,01,00,txbuf alloc*61

$GNRMC,120135.00,A,2304.99126,N,11300.00035,E,161.992,0.00,010821,4.13,W,A,V*4A
$GNVTG,0.00,T,4.12,M,161.992,N,300.010,K,A*3C
$GNGGA,120135.00,2304.99126,N,11300.00035,E,1,12,0.55,57.7,M,-6.5,M,,*6B
$GNGSA,A,3,22,05,18,06,21,24,31,29,16,,,,1.21,0.55,1.08,1*0B
$GNGSA,A,3,01,14,08,13,17,07,15,18,,,,,1.21,0.55,1.08,3*0A
$GNGSA,A,3,26,30,08,29,27,02,,,,,,,1.21,0.55,1.08,4*0C
$GPGSV,4,1,13,03,07,280,39,05,12,128,39,06,20,286,39,12,01,126,,0*64
$GPGSV,4,2,13,14,01,197,,16,31,325,39,18,29,139,39,21,73,034,39,0*68
$GPGSV,4,3,13,22,15,172,39,24,28,039,39,29,27,049,40,30,34,118,,0*6D
$GPGSV,4,4,13,31,52,235,39,0*5C
$GAGSV,3,1,11,01,29,054,40,07,21,292,40,08,49,348,40,13,24,170,40,0*78
$GAGSV,3,2,11,14,41,111,40,15,19,055,40,17,43,272,40,18,37,200,40,0*71
$GAGSV,3,3,11,19,02,163,,24,11,317,,25,11,071,,0*48
$GBGSV,4,1,13,01,33,114,,02,65,150,34,04,36,112,,06,65,257,,0*71
$GBGSV,4,2,13,08,42,325,34,09,14,228,,13,36,039,,20,33,172,,0*71

$GNRMC,120136.00,A,2305.03641,N,11300.00035,E,161.989,0.00,010821,4.13,W,A,V*47
$GNVTG,0.00,T,4.13,M,161.989,N,300.003,K,A*35
$GNGGA,120136.00,2305.03641,N,11300.00035,E,1,12,0.55,57.7,M,-6.5,M,,*6C
$GNGSA,A,3,22,05,18,06,21,24,31,29,16,,,,1.21,0.55,1.08,1*0B
$GNGSA,A,3,01,14,08,13,17,07,15,18,,,,,1.21,0.55,1.08,3*0A
$GNGSA,A,3,26,30,08,29,27,02,,,,,,,1.21,0.55,1.08,4*0C
$GPGSV,4,1,13,03,07,280,39,05,12,128,39,06,20,286,39,12,01,126,,0*64
$GPGSV,4,2,13,14,01,197,,16,31,325,39,18,29,139,39,21,73,034,39,0*68
$GPGSV,4,3,13,22,15,172,39,24,28,039,39,29,27,049,39,30,34,118,,0*63
$GPGSV,4,4,13,31,52,235,39,0*5C
$GAGSV,3,1,11,01,29,054,40,07,21,292,40,08,49,348,40,13,24,170,40,0*78
$GAGSV,3,2,11,14,41,110,40,15,19,055,40,17,43,272,40,18,37,200,40,0*70
$GAGSV,3,3,11,19,02,163,,24,11,317,,25,11,071,,0*48
$GBGSV,4,1,13,01,33,114,,02,65,150,34,04,36,112,,06,65,257,,0*71
$GBGSV,4,2,13,08,42,325,34,09,14,228,,13,36,039,,20,33,172,,0*71

$GNRMC,120137.00,A,2305.08156,N,11300.00035,E,161.988,0.00,010821,4.13,W,A,V*4D
$GNVTG,0.00,T,4.13,M,161.988,N,300.001,K,A*36
$GNGGA,120137.00,2305.08156,N,11300.00035,E,1,12,0.55,57.7,M,-6.5,M,,*67
$GNGSA,A,3,22,05,18,06,21,24,31,29,16,,,,1.21,0.55,1.08,1*0B
$GNGSA,A,3,01,14,08,13,17,07,15,18,,,,,1.21,0.55,1.08,3*0A
$GNGSA,A,3,26,30,08,29,27,02,,,,,,,1.21,0.55,1.08,4*0C
$GPGSV,4,1,13,03,07,280,39,05,12,128,39,06,20,286,39,12,01,126,,0*64
$GPGSV,4,2,13,14,01,197,,16,31,325,39,18,29,139,39,21,73,034,39,0*68
$GPGSV,4,3,13,22,15,172,39,24,28,039,40,29,27,049,39,30,34,118,,0*6D
$GPGSV,4,4,13,31,52,235,39,0*5C
$GAGSV,3,1,11,01,29,054,40,07,21,292,40,08,49,348,40,13,24,170,40,0*78
$GAGSV,3,2,11,14,41,110,40,15,19,055,40,17,43,272,40,18,37,200,40,0*70
$GAGSV,3,3,11,19,02,163,,24,11,317,,25,11,071,,0*48
$GBGSV,4,1,13,01,33,114,,02,65,150,34,04,36,112,,06,65,257,,0*71
$GBGSV,4,2,13,08,42,325,34,09,14,228,,13,36,039,,20,33,172,,0*71

$GNRMC,120138.00,A,2305.12671,N,11300.00035,E,161.980,0.00,010821,4.13,W,A,V*43
$GNVTG,0.00,T,4.13,M,161.980,N,299.987,K,A*38
$GNGGA,120138.00,2305.12671,N,11300.00035,E,1,12,0.55,57.6,M,-6.5,M,,*60
$GNGSA,A,3,22,05,18,06,21,24,31,29,16,,,,1.21,0.55,1.08,1*0B
$GNGSA,A,3,01,14,08,13,17,07,15,18,,,,,1.21,0.55,1.08,3*0A
$GNGSA,A,3,26,30,08,29,27,02,,,,,,,1.21,0.55,1.08,4*0C
$GPGSV,4,1,13,03,07,280,39,05,12,128,39,06,20,286,39,12,01,126,,0*64
$GPGSV,4,2,13,14,01,197,,16,31,325,39,18,29,139,39,21,73,034,39,0*68
$GPGSV,4,3,13,22,15,172,39,24,28,039,39,29,27,049,39,30,34,118,,0*63
$GPGSV,4,4,13,31,52,235,39,0*5C
$GAGSV,3,1,11,01,29,054,40,07,21,292,40,08,49,348,40,13,24,170,40,0*78
$GAGSV,3,2,11,14,41,110,40,15,19,055,40,17,43,272,40,18,37,200,40,0*70
$GAGSV,3,3,11,19,02,163,,24,11,317,,25,11,071,,0*48
$GBGSV,4,1,13,01,33,114,,02,65,150,34,04,36,112,,06,65,257,,0*71
$GBGSV,4,2,13,08,42,325,34,09,14,228,,13,36,039,,20,33,172,,0*71

$GNRMC,120139.00,A,2305.17185,N,11300.00036,E,161.992,0.00,010821,4.13,W,A,V*4B
$GNVTG,0.00,T,4.13,M,161.992,N,300.010,K,A*3D
$GNGGA,120139.00,2305.17185,N,11300.00036,E,1,12,0.55,57.6,M,-6.5,M,,*6B
$GNGSA,A,3,22,05,18,06,21,24,31,29,16,,,,1.21,0.55,1.08,1*0B
$GNGSA,A,3,01,14,08,13,17,07,15,18,,,,,1.21,0.55,1.08,3*0A
$GNGSA,A,3,26,30,08,29,27,02,,,,,,,1.21,0.55,1.08,4*0C
