$GNRMC,080154.00,A,3114.50895,N,12130.89938,E,16.226,111.03,200821,6.15,W,A,V*77
$GNVTG,111.03,T,117.18,M,16.226,N,30.050,K,A*36
$GNGGA,080154.00,3114.50895,N,12130.89938,E,1,11,1.06,39.1,M,9.9,M,,*42
$GNGSA,A,3,24,30,29,05,12,21,09,,,,,,2.10,1.06,1.81,1*0F
$GNGSA,A,3,24,06,17,23,,,,,,,,,2.10,1.06,1.81,3*08
$GNGSA,A,3,,,,,,,,,,,,,2.10,1.06,1.81,4*08
$GPGSV,2,1,08,05,59,053,40,09,30,154,40,12,49,065,40,14,24,261,,0*64
$GPGSV,2,2,08,21,13,191,40,24,44,157,40,29,66,273,40,30,60,355,40,0*6B
$GAGSV,1,1,04,06,49,268,41,17,34,160,40,23,33,315,40,24,74,240,41,0*74
$GBGSV,1,1,00,0*77
$GNGLL,3114.50895,N,12130.89938,E,080154.00,A,A*7B

$GNRMC,080155.00,A,3114.50654,N,12130.90368,E,16.187,134.98,200821,6.15,W,A,V*7F
$GNVTG,134.98,T,141.12,M,16.187,N,29.979,K,A*38
$GNGGA,080155.00,3114.50654,N,12130.90368,E,1,11,1.06,39.1,M,9.9,M,,*47
$GNGSA,A,3,24,30,29,05,12,21,09,,,,,,2.10,1.06,1.81,1*0F
$GNGSA,A,3,24,06,17,23,,,,,,,,,2.10,1.06,1.81,3*08
$GNGSA,A,3,,,,,,,,,,,,,2.10,1.06,1.81,4*08
$GPGSV,2,1,08,05,59,053,40,09,30,154,40,12,49,065,40,14,24,261,,0*64
$GPGSV,2,2,08,21,13,191,40,24,44,157,40,29,66,273,40,30,60,355,40,0*6B
$GAGSV,1,1,04,06,49,268,41,17,34,160,40,23,33,315,40,24,74,240,41,0*74
$GBGSV,1,1,00,0*77
$GNGLL,3114.50654,N,12130.90368,E,080155.00,A,A*7E

$GNRMC,080156.00,A,3114.50283,N,12130.90647,E,16.152,158.81,200821,6.15,W,A,V*70
$GNVTG,158.81,T,164.95,M,16.152,N,29.914,K,A*31
$GNGGA,080156.00,3114.50283,N,12130.90647,E,1,11,1.06,39.1,M,9.9,M,,*42
$GNGSA,A,3,24,30,29,05,12,21,09,,,,,,2.10,1.06,1.81,1*0F
$GNGSA,A,3,24,06,17,23,,,,,,,,,2.10,1.06,1.81,3*08
$GNGSA,A,3,,,,,,,,,,,,,2.10,1.06,1.81,4*08
$GPGSV,2,1,08,05,59,053,40,09,30,154,40,12,49,065,40,14,24,261,,0*64
$GPGSV,2,2,08,21,13,191,40,24,44,157,40,29,66,273,40,30,60,355,40,0*6B
$GAGSV,1,1,04,06,49,268,41,17,34,160,40,23,33,315,40,24,74,240,41,0*74
$GBGSV,1,1,00,0*77
$GNGLL,3114.50283,N,12130.90647,E,080156.00,A,A*7B

$GNRMC,080157.00,A,3114.49803,N,12130.90742,E,19.577,179.66,200821,6.15,W,A,V*79
$GNVTG,179.66,T,185.81,M,19.577,N,36.257,K,A*3F
$GNGGA,080157.00,3114.49803,N,12130.90742,E,1,11,1.06,39.0,M,9.9,M,,*4C
$GNGSA,A,3,24,30,29,05,12,21,09,,,,,,2.10,1.06,1.81,1*0F
$GNGSA,A,3,24,06,17,23,,,,,,,,,2.10,1.06,1.81,3*08
$GNGSA,A,3,,,,,,,,,,,,,2.10,1.06,1.81,4*08
$GPGSV,2,1,08,05,59,053,40,09,30,154,40,12,49,065,40,14,24,261,,0*64
$GPGSV,2,2,08,21,13,191,40,24,44,157,40,29,66,273,40,30,60,355,40,0*6B
$GAGSV,1,1,04,06,49,268,41,17,34,160,40,23,33,315,40,24,74,240,41,0*74
$GBGSV,1,1,00,0*77
$GNGLL,3114.49803,N,12130.90742,E,080157.00,A,A*74

$GNRMC,080158.00,A,3114.48889,N,12130.90743,E,46.003,179.96,200821,6.15,W,A,V*77
$GNVTG,179.96,T,186.10,M,46.003,N,85.198,K,A*3F
$GNGGA,080158.00,3114.48889,N,12130.90743,E,1,11,1.06,38.9,M,9.9,M,,*49
$GNGSA,A,3,24,30,29,05,12,21,09,,,,,,2.10,1.06,1.81,1*0F
$GNGSA,A,3,24,06,17,23,,,,,,,,,2.10,1.06,1.81,3*08
$GNGSA,A,3,,,,,,,,,,,,,2.10,1.06,1.81,4*08
$GPGSV,2,1,08,05,59,053,40,09,30,154,40,12,49,065,40,14,24,261,,0*64
$GPGSV,2,2,08,21,13,191,40,24,44,157,40,29,66,273,40,30,60,355,40,0*6B
$GAGSV,1,1,04,06,49,268,41,17,34,160,40,23,33,315,40,24,74,240,41,0*74
$GBGSV,1,1,00,0*77
$GNGLL,3114.48889,N,12130.90743,E,080158.00,A,A*79

$GNRMC,080159.00,A,3114.47234,N,12130.90744,E,72.744,179.96,200821,6.15,W,A,V*71
$GNVTG,179.96,T,186.11,M,72.744,N,134.723,K,A*00
$GNGGA,080159.00,3114.47234,N,12130.90744,E,1,11,1.06,38.9,M,9.9,M,,*4C
$GNGSA,A,3,24,30,29,05,12,21,09,,,,,,2.10,1.06,1.82,1*0C
$GNGSA,A,3,24,06,17,23,,,,,,,,,2.10,1.06,1.82,3*0B
$GNGSA,A,3,,,,,,,,,,,,,2.10,1.06,1.82,4*0B
$GPGSV,2,1,08,05,59,053,40,09,30,154,40,12,49,065,40,14,24,261,,0*64
$GPGSV,2,2,08,21,13,191,40,24,44,157,40,29,66,273,40,30,60,355,40,0*6B
$GAGSV,1,1,04,06,49,268,41,17,34,160,40,23,33,315,40,24,74,240,41,0*74
$GBGSV,1,1,00,0*77
$GNGLL,3114.47234,N,12130.90744,E,080159.00,A,A*7C

$GNRMC,080200.00,A,3114.44835,N,12130.90744,E,99.517,179.99,200821,6.15,W,A,V*78
$GNVTG,179.99,T,186.14,M,99.517,N,184.306,K,A*03
$GNGGA,080200.00,3114.44835,N,12130.90744,E,1,11,1.06,38.8,M,9.9,M,,*4A
$GNGSA,A,3,24,30,29,05,12,21,09,,,,,,2.10,1.06,1.82,1*0C
$GNGSA,A,3,24,06,17,23,,,,,,,,,2.10,1.06,1.82,3*0B
$GNGSA,A,3,,,,,,,,,,,,,2.10,1.06,1.82,4*0B
$GPGSV,2,1,08,05,59,053,40,09,30,154,40,12,49,065,40,14,24,261,,0*64
$GPGSV,2,2,08,21,13,191,40,24,44,157,40,29,66,273,40,30,60,355,40,0*6B
$GAGSV,1,1,04,06,49,268,40,17,34,160,40,23,33,315,40,24,74,240,41,0*75
$GBGSV,1,1,00,0*77
$GNGLL,3114.44835,N,12130.90744,E,080200.00,A,A*7B

$GNRMC,080201.00,A,3114.41689,N,12130.90744,E,126.261,179.99,200821,6.15,W,A,V*46
$GNVTG,179.99,T,186.14,M,126.261,N,233.835,K,A*34
$GNGGA,080201.00,3114.41689,N,12130.90744,E,1,11,1.06,38.8,M,9.9,M,,*47
$GNGSA,A,3,24,30,29,05,12,21,09,,,,,,2.10,1.06,1.82,1*0C
$GNGSA,A,3,24,06,17,23,,,,,,,,,2.10,1.06,1.82,3*0B
$GNGSA,A,3,,,,,,,,,,,,,2.10,1.06,1.82,4*0B
$GPGSV,2,1,08,05,59,053,40,09,30,154,40,12,49,065,40,14,24,261,,0*64
$GPGSV,2,2,08,21,13,191,40,24,44,157,40,29,66,273,40,30,60,355,40,0*6B
$GAGSV,1,1,04,06,49,268,41,17,34,160,40,23,33,315,40,24,74,240,41,0*74
$GBGSV,1,1,00,0*77
$GNGLL,3114.41689,N,12130.90744,E,080201.00,A,A*76

$GNRMC,080202.00,A,3114.37798,N,12130.90744,E,153.005,179.99,200821,6.15,W,A,V*47
$GNVTG,179.99,T,186.13,M,153.005,N,283.365,K,A*34
$GNGGA,080202.00,3114.37798,N,12130.90744,E,1,11,1.06,38.8,M,9.9,M,,*44
$GNGSA,A,3,24,30,29,05,12,21,09,,,,,,2.10,1.06,1.82,1*0C
$GNGSA,A,3,24,06,17,23,,,,,,,,,2.10,1.06,1.82,3*0B
$GNGSA,A,3,,,,,,,,,,,,,2.10,1.06,1.82,4*0B
$GPGSV,2,1,08,05,59,053,40,09,30,154,40,12,49,065,40,14,24,261,,0*64
$GPGSV,2,2,08,21,13,191,40,24,44,157,40,29,66,273,40,30,60,355,40,0*6B
$GAGSV,1,1,04,06,49,268,41,17,34,160,40,23,33,315,40,24,74,240,41,0*74
$GBGSV,1,1,00,0*77
$GNGLL,3114.37798,N,12130.90744,E,080202.00,A,A*75

$GNRMC,080203.00,A,3114.33409,N,12130.90744,E,161.925,180.01,200821,6.15,W,A,V*44
$GNVTG,180.01,T,186.15,M,161.925,N,299.885,K,A*31
$GNGGA,080203.00,3114.33409,N,12130.90744,E,1,11,1.06,38.8,M,9.9,M,,*4A
$GNGSA,A,3,24,30,29,05,12,21,09,,,,,,2.10,1.06,1.82,1*0C
$GNGSA,A,3,24,06,17,23,,,,,,,,,2.10,1.06,1.82,3*0B
$GNGSA,A,3,,,,,,,,,,,,,2.10,1.06,1.82,4*0B
$GPGSV,2,1,08,05,59,053,40,09,30,154,40,12,49,065,40,14,24,261,,0*64
$GPGSV,2,2,08,21,13,191,40,24,44,157,40,29,66,273,40,30,60,355,40,0*6B
$GAGSV,1,1,04,06,49,268,41,17,34,160,40,23,33,315,40,24,74,240,41,0*74
$GBGSV,1,1,00,0*77
$GNGLL,3114.33409,N,12130.90744,E,080203.00,A,A*7B

$GNRMC,080204.00,A,3114.28897,N,12130.90745,E,161.986,180.01,200821,6.15,W,A,V*4A
$GNVTG,180.01,T,186.15,M,161.986,N,299.999,K,A*34
$GNGGA,080204.00,3114.28897,N,12130.90745,E,1,11,1.06,38.8,M,9.9,M,,*4D
$GNGSA,A,3,24,30,29,05,12,21,09,,,,,,2.10,1.06,1.82,1*0C
$GNGSA,A,3,24,06,17,23,,,,,,,,,2.10,1.06,1.82,3*0B
$GNGSA,A,3,,,,,,,,,,,,,2.10,1.06,1.82,4*0B
$GPGSV,2,1,08,05,59,053,40,09,30,154,40,12,49,065,40,14,24,261,,0*64
$GPGSV,2,2,08,21,13,191,40,24,44,157,40,29,66,273,40,30,60,355,40,0*6B
$GAGSV,1,1,04,06,49,268,41,17,34,160,40,23,33,315,40,24,74,240,41,0*74
$GBGSV,1,1,00,0*77
$GNGLL,3114.28897,N,12130.90745,E,080204.00,A,A*7C

$GNRMC,080205.00,A,3114.24383,N,12130.90744,E,161.986,180.01,200821,6.14,W,A,V*49
$GNVTG,180.01,T,186.16,M,161.986,N,299.999,K,A*37
$GNGGA,080205.00,3114.24383,N,12130.90744,E,1,11,1.06,38.9,M,9.9,M,,*4E
$GNGSA,A,3,24,30,29,05,12,21,09,,,,,,2.10,1.06,1.82,1*0C
$GNGSA,A,3,24,06,17,23,,,,,,,,,2.10,1.06,1.82,3*0B
$GNGSA,A,3,,,,,,,,,,,,,2.10,1.06,1.82,4*0B
$GPGSV,2,1,08,05,59,053,40,09,30,154,40,12,49,065,40,14,24,261,,0*64
$GPGSV,2,2,08,21,13,191,40,24,44,157,40,29,66,273,40,30,60,355,40,0*6B
$GAGSV,1,1,04,06,49,268,41,17,34,160,40,23,33,315,40,24,74,240,41,0*74
$GBGSV,1,1,00,0*77
$GNGLL,3114.24383,N,12130.90744,E,080205.00,A,A*7E

$GNRMC,080206.00,A,3114.19869,N,12130.90743,E,161.972,180.01,200821,6.14,W,A,V*47
$GNVTG,180.01,T,186.15,M,161.972,N,299.971,K,A*39
$GNGGA,080206.00,3114.19869,N,12130.90743,E,1,11,1.06,39.0,M,9.9,M,,*43
$GNGSA,A,3,24,30,29,05,12,21,09,,,,,,2.10,1.06,1.82,1*0C
$GNGSA,A,3,24,06,17,23,,,,,,,,,2.10,1.06,1.82,3*0B
$GNGSA,A,3,,,,,,,,,,,,,2.10,1.06,1.82,4*0B
$GPGSV,2,1,08,05,59,053,40,09,30,154,40,12,49,065,40,14,24,261,,0*64
$GPGSV,2,2,08,21,13,191,40,24,44,157,40,29,66,273,40,30,60,355,40,0*6B
$GAGSV,1,1,04,06,49,268,41,17,34,160,40,23,33,315,40,24,74,240,41,0*74
$GBGSV,1,1,00,0*77
$GNGLL,3114.19869,N,12130.90743,E,080206.00,A,A*7B

$GNRMC,080207.00,A,3114.15357,N,12130.90742,E,161.953,180.01,200821,6.14,W,A,V*4E
$GNVTG,180.01,T,186.16,M,161.953,N,299.936,K,A*3A
$GNGGA,080207.00,3114.15357,N,12130.90742,E,1,11,1.06,39.0,M,9.9,M,,*49
$GNGSA,A,3,24,30,29,05,12,21,09,,,,,,2.10,1.06,1.82,1*0C
$GNGSA,A,3,24,06,17,23,,,,,,,,,2.10,1.06,1.82,3*0B
$GNGSA,A,3,,,,,,,,,,,,,2.10,1.06,1.82,4*0B
$GPGSV,2,1,08,05,59,053,40,09,30,154,40,12,49,065,40,14,24,261,,0*64
$GPGSV,2,2,08,21,13,191,40,24,44,157,40,29,66,273,40,30,60,355,40,0*6B
$GAGSV,1,1,04,06,49,268,41,17,34,160,40,23,33,315,40,24,74,240,41,0*74
$GBGSV,1,1,00,0*77
$GNGLL,3114.15357,N,12130.90742,E,080207.00,A,A*71

$GNRMC,080208.00,A,3114.11164,N,12130.90742,E,139.087,180.02,200821,6.14,W,A,V*49
$GNVTG,180.02,T,186.17,M,139.087,N,257.590,K,A*37
$GNGGA,080208.00,3114.11164,N,12130.90742,E,1,11,1.06,39.0,M,9.9,M,,*40
$GNGSA,A,3,24,30,29,05,12,21,09,,,,,,2.11,1.06,1.82,1*0D
$GNGSA,A,3,24,06,17,23,,,,,,,,,2.11,1.06,1.82,3*0A
$GNGSA,A,3,,,,,,,,,,,,,2.11,1.06,1.82,4*0A
$GPGSV,2,1,08,05,59,053,40,09,30,154,40,12,49,065,40,14,24,261,,0*64
$GPGSV,2,2,08,21,13,191,40,24,44,157,40,29,66,273,40,30,60,355,40,0*6B
$GAGSV,1,1,04,06,50,268,41,17,34,160,40,23,33,315,40,24,74,240,41,0*7C
$GBGSV,1,1,00,0*77
$GNGLL,3114.11164,N,12130.90742,E,080208.00,A,A*78

$GNRMC,080209.00,A,3114.07663,N,12130.90742,E,112.364,180.02,200821,6.14,W,A,V*48
$GNVTG,180.02,T,186.17,M,112.364,N,208.098,K,A*37
$GNGGA,080209.00,3114.07663,N,12130.90742,E,1,11,1.06,39.0,M,9.9,M,,*46
$GNGSA,A,3,24,30,29,05,12,21,09,,,,,,2.11,1.06,1.82,1*0D
$GNGSA,A,3,24,06,17,23,,,,,,,,,2.11,1.06,1.82,3*0A
$GNGSA,A,3,,,,,,,,,,,,,2.11,1.06,1.82,4*0A
$GPGSV,2,1,08,05,59,053,40,09,30,154,40,12,49,065,40,14,24,261,,0*64
$GPGSV,2,2,08,21,13,191,40,24,44,157,40,29,66,273,40,30,60,355,40,0*6B
$GAGSV,1,1,04,06,50,268,41,17,33,160,40,23,33,315,40,24,74,240,41,0*7B
$GBGSV,1,1,00,0*77
$GNGLL,3114.07663,N,12130.90742,E,080209.00,A,A*7E

$GNRMC,080210.00,A,3114.04908,N,12130.90742,E,85.619,180.05,200821,6.14,W,A,V*76
$GNVTG,180.05,T,186.19,M,85.619,N,158.567,K,A*0D
$GNGGA,080210.00,3114.04908,N,12130.90742,E,1,11,1.06,39.0,M,9.9,M,,*4F
$GNGSA,A,3,24,30,29,05,12,21,09,,,,,,2.11,1.06,1.82,1*0D
$GNGSA,A,3,24,06,17,23,,,,,,,,,2.11,1.06,1.82,3*0A
$GNGSA,A,3,,,,,,,,,,,,,2.11,1.06,1.82,4*0A
$GPGSV,2,1,08,05,59,053,40,09,30,154,40,12,49,065,40,14,24,261,,0*64
$GPGSV,2,2,08,21,13,191,40,24,44,157,40,29,66,273,40,30,60,355,40,0*6B
$GAGSV,1,1,04,06,50,268,41,17,33,160,40,23,33,315,40,24,74,240,41,0*7B
$GBGSV,1,1,00,0*77
$GNGLL,3114.04908,N,12130.90742,E,080210.00,A,A*77

$GNRMC,080211.00,A,3114.02897,N,12130.90742,E,58.864,180.04,200821,6.14,W,A,V*73
$GNVTG,180.04,T,186.18,M,58.864,N,109.016,K,A*0E
$GNGGA,080211.00,3114.02897,N,12130.90742,E,1,11,1.06,39.0,M,9.9,M,,*4F
$GNGSA,A,3,24,30,29,05,12,21,09,,,,,,2.11,1.06,1.82,1*0D
$GNGSA,A,3,24,06,17,23,,,,,,,,,2.11,1.06,1.82,3*0A
$GNGSA,A,3,,,,,,,,,,,,,2.11,1.06,1.82,4*0A
$GPGSV,2,1,08,05,59,053,40,09,30,154,40,12,49,065,40,14,24,261,,0*64
$GPGSV,2,2,08,21,13,191,40,24,44,157,40,29,66,273,40,30,60,355,40,0*6B
$GAGSV,1,1,04,06,50,268,41,17,33,160,40,23,33,315,40,24,74,240,41,0*7B
$GBGSV,1,1,00,0*77
$GNGLL,3114.02897,N,12130.90742,E,080211.00,A,A*77

$GNRMC,080212.00,A,3114.01631,N,12130.90742,E,32.109,180.10,200821,6.14,W,A,V*7A
$GNVTG,180.10,T,186.24,M,32.109,N,59.466,K,A*3D
$GNGGA,080212.00,3114.01631,N,12130.90742,E,1,11,1.06,39.0,M,9.9,M,,*4D
$GNGSA,A,3,24,30,29,05,12,21,09,,,,,,2.11,1.06,1.82,1*0D
$GNGSA,A,3,24,06,17,23,,,,,,,,,2.11,1.06,1.82,3*0A
$GNGSA,A,3,,,,,,,,,,,,,2.11,1.06,1.82,4*0A
$GPGSV,2,1,08,05,59,053,40,09,30,154,40,12,49,065,40,14,24,261,,0*64
$GPGSV,2,2,08,21,13,191,40,24,44,157,40,29,66,273,40,30,60,355,40,0*6B
$GAGSV,1,1,04,06,50,268,41,17,33,160,40,23,33,315,40,24,74,239,41,0*75
$GBGSV,1,1,00,0*77
$GNGLL,3114.01631,N,12130.90742,E,080212.00,A,A*75

$GNRMC,080213.00,A,3114.00965,N,12130.90698,E,16.281,189.77,200821,6.14,W,A,V*7F
$GNVTG,189.77,T,195.92,M,16.281,N,30.152,K,A*32
$GNGGA,080213.00,3114.00965,N,12130.90698,E,1,11,1.06,39.0,M,9.9,M,,*45
$GNGSA,A,3,24,30,29,05,12,21,09,,,,,,2.11,1.06,1.82,1*0D
$GNGSA,A,3,24,06,17,23,,,,,,,,,2.11,1.06,1.82,3*0A
$GNGSA,A,3,,,,,,,,,,,,,2.11,1.06,1.82,4*0A
$GPGSV,2,1,08,05,59,053,40,09,30,154,40,12,49,065,40,14,24,261,,0*64
$GPGSV,2,2,08,21,13,191,40,24,44,157,40,29,66,273,40,30,60,355,40,0*6B
$GAGSV,1,1,04,06,50,268,41,17,33,160,40,23,33,315,40,24,74,239,41,0*75
$GBGSV,1,1,00,0*77
$GNGLL,3114.00965,N,12130.90698,E,080213.00,A,A*7D

$GNRMC,080214.00,A,3114.00557,N,12130.90509,E,16.177,213.50,200821,6.14,W,A,V*71
$GNVTG,213.50,T,219.65,M,16.177,N,29.961,K,A*32
$GNGGA,080214.00,3114.00557,N,12130.90509,E,1,11,1.06,38.9,M,9.9,M,,*4C
$GNGSA,A,3,24,30,29,05,12,21,09,,,,,,2.11,1.06,1.82,1*0D
$GNGSA,A,3,24,06,17,23,,,,,,,,,2.11,1.06,1.82,3*0A
$GNGSA,A,3,,,,,,,,,,,,,2.11,1.06,1.82,4*0A
$GPGSV,2,1,08,05,59,053,40,09,30,154,40,12,49,065,40,14,24,261,,0*64
$GPGSV,2,2,08,21,13,191,40,24,44,157,40,29,66,273,40,30,60,355,40,0*6B
$GAGSV,1,1,04,06,50,268,41,17,33,160,40,23,33,315,40,24,74,239,41,0*75
$GBGSV,1,1,00,0*77
$GNGLL,3114.00557,N,12130.90509,E,080214.00,A,A*7C

$GNRMC,080215.00,A,3114.00250,N,12130.90143,E,16.164,237.45,200821,6.14,W,A,V*7A
$GNVTG,237.45,T,243.59,M,16.164,N,29.936,K,A*30
$GNGGA,080215.00,3114.00250,N,12130.90143,E,1,11,1.06,38.9,M,9.9,M,,*47
$GNGSA,A,3,24,30,29,05,12,21,09,,,,,,2.11,1.06,1.82,1*0D
$GNGSA,A,3,24,06,17,23,,,,,,,,,2.11,1.06,1.82,3*0A
$GNGSA,A,3,,,,,,,,,,,,,2.11,1.06,1.82,4*0A
$GPGSV,2,1,08,05,59,053,40,09,30,154,40,12,49,065,40,14,24,261,,0*64
$GPGSV,2,2,08,21,13,191,40,24,44,157,40,29,66,273,40,30,60,355,40,0*6B
$GAGSV,1,1,04,06,50,268,41,17,33,160,40,23,33,315,40,24,74,239,41,0*75
$GBGSV,1,1,00,0*77
$GNGLL,3114.00250,N,12130.90143,E,080215.00,A,A*77

$GNRMC,080216.00,A,3114.00097,N,12130.89663,E,16.187,261.31,200821,6.14,W,A,V*70
$GNVTG,261.31,T,267.46,M,16.187,N,29.979,K,A*3E
$GNGGA,080216.00,3114.00097,N,12130.89663,E,1,11,1.06,38.9,M,9.9,M,,*40
$GNGSA,A,3,24,30,29,05,12,21,09,,,,,,2.11,1.06,1.82,1*0D
$GNGSA,A,3,24,06,17,23,,,,,,,,,2.11,1.06,1.82,3*0A
$GNGSA,A,3,,,,,,,,,,,,,2.11,1.06,1.82,4*0A
$GPGSV,2,1,08,05,59,053,40,09,30,154,40,12,49,065,40,14,24,261,,0*64
$GPGSV,2,2,08,21,13,191,40,24,44,157,40,29,66,273,40,30,60,355,40,0*6B
$GAGSV,1,1,04,06,50,268,41,17,33,160,40,23,33,315,40,24,74,239,41,0*75
$GBGSV,1,1,00,0*77
$GNGLL,3114.00097,N,12130.89663,E,080216.00,A,A*70

$GNRMC,080217.00,A,3114.00065,N,12130.88867,E,33.220,270.04,200821,6.14,W,A,V*78
$GNVTG,270.04,T,276.18,M,33.220,N,61.524,K,A*32
$GNGGA,080217.00,3114.00065,N,12130.88867,E,1,11,1.06,38.9,M,9.9,M,,*47
$GNGSA,A,3,24,30,29,05,12,21,09,,,,,,2.11,1.06,1.82,1*0D
$GNGSA,A,3,24,06,17,23,,,,,,,,,2.11,1.06,1.82,3*0A
$GNGSA,A,3,,,,,,,,,,,,,2.11,1.06,1.82,4*0A
$GPGSV,2,1,08,05,59,053,40,09,30,154,40,12,49,065,40,14,24,261,,0*64
$GPGSV,2,2,08,21,13,191,40,24,44,157,40,29,66,273,40,30,60,355,40,0*6B
$GAGSV,1,1,04,06,50,268,41,17,33,160,40,23,33,315,40,24,74,239,41,0*75
$GBGSV,1,1,00,0*77
$GNGLL,3114.00065,N,12130.88867,E,080217.00,A,A*77

$GNRMC,080218.00,A,3114.00066,N,12130.87357,E,59.853,270.07,200821,6.14,W,A,V*72
$GNVTG,270.07,T,276.21,M,59.853,N,110.849,K,A*08
$GNGGA,080218.00,3114.00066,N,12130.87357,E,1,11,1.06,38.8,M,9.9,M,,*4D
$GNGSA,A,3,24,30,29,05,12,21,09,,,,,,2.11,1.06,1.82,1*0D
$GNGSA,A,3,24,06,17,23,,,,,,,,,2.11,1.06,1.82,3*0A
$GNGSA,A,3,,,,,,,,,,,,,2.11,1.06,1.82,4*0A
$GPGSV,2,1,08,05,59,053,40,09,30,154,40,12,49,065,40,14,24,261,,0*64
$GPGSV,2,2,08,21,13,191,40,24,44,157,40,29,66,273,40,30,60,355,40,0*6B
$GAGSV,1,1,04,06,50,268,41,17,33,160,40,23,33,315,40,24,74,239,41,0*75
$GBGSV,1,1,00,0*77
$GNGLL,3114.00066,N,12130.87357,E,080218.00,A,A*7C

$GNRMC,080219.00,A,3114.00068,N,12130.84982,E,86.618,270.03,200821,6.14,W,A,V*7B
$GNVTG,270.03,T,276.18,M,86.618,N,160.416,K,A*04
$GNGGA,080219.00,3114.00068,N,12130.84982,E,1,11,1.06,38.8,M,9.9,M,,*43
$GNGSA,A,3,24,30,29,05,12,21,09,,,,,,2.11,1.06,1.82,1*0D
$GNGSA,A,3,24,06,17,23,,,,,,,,,2.11,1.06,1.82,3*0A
$GNGSA,A,3,,,,,,,,,,,,,2.11,1.06,1.82,4*0A
$GPGSV,2,1,08,05,59,053,40,09,30,154,40,12,49,065,40,14,24,261,,0*64
$GPGSV,2,2,08,21,13,191,40,24,44,157,40,29,66,273,40,30,60,355,40,0*6B
$GAGSV,1,1,04,06,50,268,41,17,33,160,40,23,33,315,40,24,74,239,41,0*75
$GBGSV,1,1,00,0*77
$GNGLL,3114.00068,N,12130.84982,E,080219.00,A,A*72

$GNRMC,080220.00,A,3114.00070,N,12130.81741,E,113.380,270.01,200821,6.14,W,A,V*47
$GNVTG,270.01,T,276.15,M,113.380,N,209.979,K,A*3A
$GNGGA,080220.00,3114.00070,N,12130.81741,E,1,11,1.06,38.7,M,9.9,M,,*4B
$GNGSA,A,3,24,30,29,05,12,21,09,,,,,,2.11,1.06,1.82,1*0D
$GNGSA,A,3,24,06,17,23,,,,,,,,,2.11,1.06,1.82,3*0A
$GNGSA,A,3,,,,,,,,,,,,,2.11,1.06,1.82,4*0A
$GPGSV,2,1,08,05,59,053,40,09,30,154,40,12,49,065,40,14,24,261,,0*64
$GPGSV,2,2,08,21,13,191,40,24,44,157,40,29,66,273,40,30,60,355,40,0*6B
$GAGSV,1,1,04,06,50,268,41,17,33,160,40,23,33,315,40,24,74,239,41,0*75
$GBGSV,1,1,00,0*77
$GNGLL,3114.00070,N,12130.81741,E,080220.00,A,A*75

$GNRMC,080221.00,A,3114.00072,N,12130.77633,E,140.119,270.01,200821,6.14,W,A,V*4D
$GNVTG,270.01,T,276.15,M,140.119,N,259.500,K,A*39
$GNGGA,080221.00,3114.00072,N,12130.77633,E,1,11,1.06,38.7,M,9.9,M,,*45
$GNGSA,A,3,24,30,29,05,12,21,09,,,,,,2.11,1.06,1.82,1*0D
$GNGSA,A,3,24,06,17,23,,,,,,,,,2.11,1.06,1.82,3*0A
$GNGSA,A,3,,,,,,,,,,,,,2.11,1.06,1.82,4*0A
$GPGSV,2,1,08,05,59,053,40,09,30,154,40,12,49,065,40,14,24,261,,0*64
$GPGSV,2,2,08,21,13,191,40,24,44,157,40,29,66,273,40,30,60,355,40,0*6B
$GAGSV,1,1,04,06,50,268,41,17,33,160,40,23,33,315,40,24,74,239,41,0*75
$GBGSV,1,1,00,0*77
$GNGLL,3114.00072,N,12130.77633,E,080221.00,A,A*7B

$GNRMC,080222.00,A,3114.00073,N,12130.72737,E,161.825,270.01,200821,6.14,W,A,V*4A
$GNVTG,270.01,T,276.16,M,161.825,N,299.700,K,A*31
$GNGGA,080222.00,3114.00073,N,12130.72737,E,1,11,1.06,38.7,M,9.9,M,,*47
$GNGSA,A,3,24,30,29,05,12,21,09,,,,,,2.11,1.06,1.82,1*0D
$GNGSA,A,3,24,06,17,23,,,,,,,,,2.11,1.06,1.82,3*0A
$GNGSA,A,3,,,,,,,,,,,,,2.11,1.06,1.82,4*0A
$GPGSV,2,1,08,05,59,053,40,09,30,154,40,12,49,065,40,14,24,261,,0*64
$GPGSV,2,2,08,21,13,191,40,24,44,157,40,29,66,273,40,30,60,355,40,0*6B
$GAGSV,2,1,05,06,50,268,41,17,33,160,40,23,33,315,40,24,74,239,41,0*77
$GAGSV,2,2,05,26,26,253,,0*45
$GBGSV,1,1,00,0*77
$GNGLL,3114.00073,N,12130.72737,E,080222.00,A,A*79

$GNRMC,080223.00,A,3114.00074,N,12130.67493,E,161.982,270.00,200821,6.14,W,A,V*48
$GNVTG,270.00,T,276.14,M,161.982,N,299.991,K,A*38
$GNGGA,080223.00,3114.00074,N,12130.67493,E,1,11,1.06,38.7,M,9.9,M,,*48
$GNGSA,A,3,24,30,29,05,12,21,09,,,,,,2.11,1.06,1.82,1*0D
$GNGSA,A,3,24,06,17,23,,,,,,,,,2.11,1.06,1.82,3*0A
$GNGSA,A,3,,,,,,,,,,,,,2.11,1.06,1.82,4*0A
$GPGSV,2,1,08,05,59,053,40,09,30,154,40,12,49,065,40,14,24,261,,0*64
$GPGSV,2,2,08,21,13,191,40,24,44,157,40,29,66,273,40,30,60,355,40,0*6B
$GAGSV,2,1,05,06,50,268,41,17,33,160,40,23,33,315,40,24,74,239,41,0*77
$GAGSV,2,2,05,26,26,253,,0*45
$GBGSV,1,1,00,0*77
$GNGLL,3114.00074,N,12130.67493,E,080223.00,A,A*76

$GNRMC,080224.00,A,3114.00075,N,12130.62246,E,161.973,270.01,200821,6.14,W,A,V*4A
$GNVTG,270.01,T,276.15,M,161.973,N,299.974,K,A*3D
$GNGGA,080224.00,3114.00075,N,12130.62246,E,1,11,1.06,38.7,M,9.9,M,,*45
$GNGSA,A,3,24,30,29,05,12,21,09,,,,,,2.11,1.06,1.82,1*0D
$GNGSA,A,3,24,06,17,23,,,,,,,,,2.11,1.06,1.82,3*0A
$GNGSA,A,3,,,,,,,,,,,,,2.11,1.06,1.82,4*0A
$GPGSV,2,1,08,05,59,053,40,09,30,154,40,12,49,065,40,14,24,261,,0*64
$GPGSV,2,2,08,21,13,191,40,24,44,157,40,29,66,273,40,30,60,355,40,0*6B
$GAGSV,2,1,05,06,50,268,41,17,33,160,40,23,33,315,40,24,74,239,41,0*77
$GAGSV,2,2,05,26,26,253,,0*45
$GBGSV,1,1,00,0*77
$GNGLL,3114.00075,N,12130.62246,E,080224.00,A,A*7B

$GNRMC,080225.00,A,3114.00077,N,12130.56998,E,161.984,270.01,200821,6.14,W,A,V*4E
$GNVTG,270.01,T,276.16,M,161.984,N,299.994,K,A*38
$GNGGA,080225.00,3114.00077,N,12130.56998,E,1,11,1.06,38.7,M,9.9,M,,*49
$GNGSA,A,3,24,30,29,05,12,21,09,,,,,,2.11,1.06,1.82,1*0D
$GNGSA,A,3,24,06,17,23,,,,,,,,,2.11,1.06,1.82,3*0A
$GNGSA,A,3,,,,,,,,,,,,,2.11,1.06,1.82,4*0A
$GPGSV,2,1,08,05,59,053,40,09,30,154,40,12,49,065,40,14,24,261,,0*64
$GPGSV,2,2,08,21,13,191,40,24,44,157,40,29,66,273,40,30,60,355,40,0*6B
$GAGSV,2,1,05,06,50,268,41,17,33,160,40,23,33,315,40,24,74,239,41,0*77
$GAGSV,2,2,05,26,26,253,,0*45
$GBGSV,1,1,00,0*77
$GNGLL,3114.00077,N,12130.56998,E,080225.00,A,A*77

$GNRMC,080226.00,A,3114.00078,N,12130.51751,E,161.980,270.02,200821,6.14,W,A,V*49
$GNVTG,270.02,T,276.16,M,161.980,N,299.987,K,A*3D
$GNGGA,080226.00,3114.00078,N,12130.51751,E,1,11,1.06,38.7,M,9.9,M,,*49
$GNGSA,A,3,24,30,29,05,12,21,09,,,,,,2.11,1.06,1.82,1*0D
$GNGSA,A,3,24,06,17,23,,,,,,,,,2.11,1.06,1.82,3*0A
$GNGSA,A,3,,,,,,,,,,,,,2.11,1.06,1.82,4*0A
$GPGSV,2,1,08,05,59,053,40,09,30,154,40,12,49,065,40,14,24,261,,0*64
$GPGSV,2,2,08,21,13,191,40,24,44,156,40,29,66,273,40,30,60,355,40,0*6A
$GAGSV,2,1,05,06,50,268,41,17,33,160,40,23,33,315,40,24,74,239,41,0*77
$GAGSV,2,2,05,26,26,253,,0*45
$GBGSV,1,1,00,0*77
$GNGLL,3114.00078,N,12130.51751,E,080226.00,A,A*77

$GNRMC,080227.00,A,3114.00079,N,12130.46504,E,161.974,270.01,200821,6.14,W,A,V*45
$GNVTG,270.01,T,276.15,M,161.974,N,299.976,K,A*38
$GNGGA,080227.00,3114.00079,N,12130.46504,E,1,11,1.06,38.7,M,9.9,M,,*4D
$GNGSA,A,3,24,30,29,05,12,21,09,,,,,,2.11,1.06,1.82,1*0D
$GNGSA,A,3,24,06,17,23,,,,,,,,,2.11,1.06,1.82,3*0A
$GNGSA,A,3,,,,,,,,,,,,,2.11,1.06,1.82,4*0A
$GPGSV,2,1,08,05,59,053,40,09,30,154,40,12,49,065,40,14,24,261,,0*64
$GPGSV,2,2,08,21,13,191,40,24,44,156,40,29,66,274,40,30,60,355,40,0*6D
$GAGSV,2,1,05,06,50,268,41,17,33,160,40,23,33,315,40,24,74,239,41,0*77
$GAGSV,2,2,05,26,26,253,,0*45
$GBGSV,1,1,00,0*77
$GNGLL,3114.00079,N,12130.46504,E,080227.00,A,A*73

$GNRMC,080228.00,A,3114.00081,N,12130.41257,E,161.968,270.01,200821,6.14,W,A,V*46
$GNVTG,270.01,T,276.15,M,161.968,N,299.964,K,A*36
$GNGGA,080228.00,3114.00081,N,12130.41257,E,1,11,1.06,38.7,M,9.9,M,,*43
$GNGSA,A,3,24,30,29,05,12,21,09,,,,,,2.11,1.06,1.82,1*0D
$GNGSA,A,3,24,06,17,23,,,,,,,,,2.11,1.06,1.82,3*0A
$GNGSA,A,3,,,,,,,,,,,,,2.11,1.06,1.82,4*0A
$GPGSV,2,1,08,05,59,053,40,09,30,154,40,12,49,065,40,14,24,261,,0*64
$GPGSV,2,2,08,21,13,191,40,24,44,156,40,29,66,274,40,30,60,355,40,0*6D
$GAGSV,2,1,05,06,50,268,41,17,33,160,40,23,33,315,40,24,74,239,41,0*77
$GAGSV,2,2,05,26,26,253,,0*45
$GBGSV,1,1,00,0*77
$GNGLL,3114.00081,N,12130.41257,E,080228.00,A,A*7D

$GNRMC,080229.00,A,3114.00083,N,12130.36010,E,161.979,270.01,200821,6.14,W,A,V*44
$GNVTG,270.01,T,276.16,M,161.979,N,299.985,K,A*3A
$GNGGA,080229.00,3114.00083,N,12130.36010,E,1,11,1.06,38.7,M,9.9,M,,*41
$GNGSA,A,3,24,30,29,05,12,21,09,,,,,,2.11,1.06,1.82,1*0D
$GNGSA,A,3,24,06,17,23,,,,,,,,,2.11,1.06,1.82,3*0A
$GNGSA,A,3,,,,,,,,,,,,,2.11,1.06,1.82,4*0A
$GPGSV,2,1,08,05,59,053,40,09,30,154,40,12,49,065,40,14,24,261,,0*64
$GPGSV,2,2,08,21,13,191,40,24,44,156,40,29,66,274,40,30,60,355,40,0*6D
$GAGSV,2,1,05,06,50,268,41,17,33,160,40,23,33,315,40,24,74,239,41,0*77
$GAGSV,2,2,05,26,26,253,,0*45
$GBGSV,1,1,00,0*77
$GNGLL,3114.00083,N,12130.36010,E,080229.00,A,A*7F

$GNRMC,080230.00,A,3114.00085,N,12130.30763,E,161.992,270.01,200821,6.14,W,A,V*4A
$GNVTG,270.01,T,276.15,M,161.992,N,300.010,K,A*38
$GNGGA,080230.00,3114.00085,N,12130.30763,E,1,11,1.06,38.6,M,9.9,M,,*4B
$GNGSA,A,3,24,30,29,05,12,21,09,,,,,,2.11,1.06,1.82,1*0D
$GNGSA,A,3,24,06,17,23,,,,,,,,,2.11,1.06,1.82,3*0A
$GNGSA,A,3,,,,,,,,,,,,,2.11,1.06,1.82,4*0A
$GPGSV,2,1,08,05,59,053,40,09,30,154,40,12,49,065,40,14,24,261,,0*64
$GPGSV,2,2,08,21,13,191,40,24,44,156,40,29,66,274,40,30,60,355,40,0*6D
$GAGSV,2,1,05,06,50,268,41,17,33,160,40,23,33,315,40,24,74,239,41,0*77
$GAGSV,2,2,05,26,26,253,,0*45
$GBGSV,1,1,00,0*77
$GNGLL,3114.00085,N,12130.30763,E,080230.00,A,A*74

$GNRMC,080231.00,A,3114.00086,N,12130.25515,E,161.965,270.01,200821,6.14,W,A,V*47
$GNVTG,270.01,T,276.15,M,161.965,N,299.958,K,A*34
$GNGGA,080231.00,3114.00086,N,12130.25515,E,1,11,1.06,38.6,M,9.9,M,,*4E
$GNGSA,A,3,24,30,29,05,12,21,09,,,,,,2.11,1.06,1.82,1*0D
$GNGSA,A,3,24,06,17,23,,,,,,,,,2.11,1.06,1.82,3*0A
$GNGSA,A,3,,,,,,,,,,,,,2.11,1.06,1.82,4*0A
$GPGSV,2,1,08,05,59,053,40,09,30,154,40,12,49,065,40,14,24,261,,0*64
$GPGSV,2,2,08,21,13,191,40,24,44,156,40,29,66,274,40,30,60,355,40,0*6D
$GAGSV,2,1,05,06,50,268,41,17,33,160,40,23,33,315,40,24,74,239,41,0*77
$GAGSV,2,2,05,26,26,253,,0*45
$GBGSV,1,1,00,0*77
$GNGLL,3114.00086,N,12130.25515,E,080231.00,A,A*71

$GNRMC,080232.00,A,3114.00087,N,12130.20268,E,161.995,270.01,200821,6.14,W,A,V*42
$GNVTG,270.01,T,276.15,M,161.995,N,300.015,K,A*3A
$GNGGA,080232.00,3114.00087,N,12130.20268,E,1,11,1.06,38.6,M,9.9,M,,*44
$GNGSA,A,3,24,30,29,05,12,21,09,,,,,,2.11,1.06,1.82,1*0D
$GNGSA,A,3,24,06,17,23,,,,,,,,,2.11,1.06,1.82,3*0A
$GNGSA,A,3,,,,,,,,,,,,,2.11,1.06,1.82,4*0A
$GPGSV,2,1,08,05,59,053,40,09,30,154,40,12,49,065,40,14,24,261,,0*64
$GPGSV,2,2,08,21,13,191,40,24,44,156,40,29,66,274,40,30,60,355,40,0*6D
$GAGSV,2,1,05,06,50,268,41,17,33,160,40,23,33,315,40,24,74,239,41,0*77
$GAGSV,2,2,05,26,26,253,,0*45
$GBGSV,1,1,00,0*77
$GNGLL,3114.00087,N,12130.20268,E,080232.00,A,A*7B

$GNRMC,080233.00,A,3114.00087,N,12130.15181,E,151.847,270.00,200821,6.14,W,A,V*4D
$GNVTG,270.00,T,276.14,M,151.847,N,281.221,K,A*3A
$GNGGA,080233.00,3114.00087,N,12130.15181,E,1,11,1.06,38.6,M,9.9,M,,*47
$GNGSA,A,3,24,30,29,05,12,21,09,,,,,,2.11,1.06,1.82,1*0D
$GNGSA,A,3,24,06,17,23,,,,,,,,,2.11,1.06,1.82,3*0A
$GNGSA,A,3,,,,,,,,,,,,,2.11,1.06,1.82,4*0A
$GPGSV,2,1,08,05,59,053,40,09,30,154,40,12,49,065,40,14,24,261,,0*64
$GPGSV,2,2,08,21,13,191,40,24,44,156,40,29,66,274,40,30,60,355,40,0*6D
$GAGSV,2,1,05,06,50,268,41,17,33,160,40,23,33,315,40,24,74,239,41,0*77
$GAGSV,2,2,05,26,26,253,,0*45
$GBGSV,1,1,00,0*77
$GNGLL,3114.00087,N,12130.15181,E,080233.00,A,A*78

$GNRMC,080234.00,A,3114.00087,N,12130.10693,E,125.279,269.97,200821,6.14,W,A,V*49
$GNVTG,269.97,T,276.12,M,125.279,N,232.017,K,A*31
$GNGGA,080234.00,3114.00087,N,12130.10693,E,1,11,1.06,38.7,M,9.9,M,,*40
$GNGSA,A,3,24,30,29,05,12,21,09,,,,,,2.11,1.06,1.82,1*0D
$GNGSA,A,3,24,06,17,23,,,,,,,,,2.11,1.06,1.82,3*0A
$GNGSA,A,3,,,,,,,,,,,,,2.11,1.06,1.82,4*0A
$GPGSV,2,1,08,05,59,053,40,09,30,154,40,12,49,065,40,14,24,261,,0*64
$GPGSV,2,2,08,21,13,191,40,24,44,156,40,29,66,274,40,30,60,355,40,0*6D
$GAGSV,2,1,05,06,50,268,41,17,33,160,40,23,33,315,40,24,74,239,41,0*77
$GAGSV,2,2,05,26,26,253,,0*45
$GBGSV,1,1,00,0*77
$GNGLL,3114.00087,N,12130.10693,E,080234.00,A,A*7E

$GNRMC,080235.00,A,3114.00087,N,12130.07070,E,98.532,269.97,200821,6.14,W,A,V*7A
$GNVTG,269.97,T,276.11,M,98.532,N,182.482,K,A*0D
$GNGGA,080235.00,3114.00087,N,12130.07070,E,1,11,1.06,38.7,M,9.9,M,,*4C
$GNGSA,A,3,24,30,29,05,12,21,09,,,,,,2.11,1.06,1.82,1*0D
$GNGSA,A,3,24,06,17,23,,,,,,,,,2.11,1.06,1.82,3*0A
$GNGSA,A,3,,,,,,,,,,,,,2.11,1.06,1.82,4*0A
$GPGSV,2,1,08,05,59,053,40,09,30,154,40,12,49,065,40,14,24,261,,0*64
$GPGSV,2,2,08,21,13,191,40,24,44,156,40,29,66,274,40,30,60,355,40,0*6D
$GAGSV,2,1,05,06,50,268,41,17,33,160,40,23,33,315,40,24,74,239,41,0*77
$GAGSV,2,2,05,26,26,253,,0*45
$GBGSV,1,1,00,0*77
$GNGLL,3114.00087,N,12130.07070,E,080235.00,A,A*72

$GNRMC,080236.00,A,3114.00087,N,12130.04315,E,71.767,269.97,200821,6.14,W,A,V*7F
$GNVTG,269.97,T,276.11,M,71.767,N,132.913,K,A*06
$GNGGA,080236.00,3114.00087,N,12130.04315,E,1,11,1.06,38.7,M,9.9,M,,*4C
$GNGSA,A,3,24,30,29,05,12,21,09,,,,,,2.11,1.06,1.82,1*0D
$GNGSA,A,3,24,06,17,23,,,,,,,,,2.11,1.06,1.82,3*0A
$GNGSA,A,3,,,,,,,,,,,,,2.11,1.06,1.82,4*0A
$GPGSV,2,1,08,05,59,053,40,09,30,154,40,12,49,065,40,14,24,261,,0*64
$GPGSV,2,2,08,21,13,191,40,24,44,156,40,29,66,274,40,30,60,355,40,0*6D
$GAGSV,2,1,05,06,50,268,41,17,33,160,40,23,33,315,40,24,74,239,41,0*77
$GAGSV,2,2,05,26,26,253,,0*45
$GBGSV,1,1,00,0*77
$GNGLL,3114.00087,N,12130.04315,E,080236.00,A,A*72

$GNRMC,080237.00,A,3114.00087,N,12130.02427,E,45.033,269.97,200821,6.14,W,A,V*7F
$GNVTG,269.97,T,276.11,M,45.033,N,83.401,K,A*32
$GNGGA,080237.00,3114.00087,N,12130.02427,E,1,11,1.06,38.7,M,9.9,M,,*4D
$GNGSA,A,3,24,30,29,05,12,21,09,,,,,,2.11,1.06,1.82,1*0D
$GNGSA,A,3,24,06,17,23,,,,,,,,,2.11,1.06,1.82,3*0A
$GNGSA,A,3,,,,,,,,,,,,,2.11,1.06,1.82,4*0A
$GPGSV,2,1,08,05,59,053,40,09,30,154,40,12,49,065,40,14,24,261,,0*64
$GPGSV,2,2,08,21,13,191,40,24,44,156,40,29,66,274,40,30,60,355,40,0*6D
$GAGSV,2,1,05,06,50,268,41,17,33,160,40,23,33,315,40,24,74,239,41,0*77
$GAGSV,2,2,05,26,26,253,,0*45
$GBGSV,1,1,00,0*77
$GNGLL,3114.00087,N,12130.02427,E,080237.00,A,A*73

$GNRMC,080238.00,A,3114.00087,N,12130.01398,E,18.716,270.18,200821,6.14,W,A,V*77
$GNVTG,270.18,T,276.32,M,18.716,N,34.661,K,A*3C
$GNGGA,080238.00,3114.00087,N,12130.01398,E,1,11,1.06,38.7,M,9.9,M,,*42
$GNGSA,A,3,24,30,29,05,12,21,09,,,,,,2.11,1.06,1.82,1*0D
$GNGSA,A,3,24,06,17,23,,,,,,,,,2.11,1.06,1.82,3*0A
$GNGSA,A,3,,,,,,,,,,,,,2.11,1.06,1.82,4*0A
$GPGSV,2,1,08,05,59,053,40,09,30,154,40,12,49,065,40,14,24,261,,0*64
$GPGSV,2,2,08,21,13,191,40,24,44,156,40,29,66,274,40,30,60,355,40,0*6D
$GAGSV,2,1,05,06,50,268,41,17,33,160,40,23,33,315,40,24,74,239,41,0*77
$GAGSV,2,2,05,26,26,253,,0*45
$GBGSV,1,1,00,0*77
$GNGLL,3114.00087,N,12130.01398,E,080238.00,A,A*7C

$GNRMC,080239.00,A,3114.00174,N,12130.00852,E,16.186,292.09,200821,6.14,W,A,V*7A
$GNVTG,292.09,T,298.23,M,16.186,N,29.976,K,A*34
$GNGGA,080239.00,3114.00174,N,12130.00852,E,1,11,1.06,38.7,M,9.9,M,,*42
$GNGSA,A,3,24,30,29,05,12,21,09,,,,,,2.11,1.06,1.82,1*0D
$GNGSA,A,3,24,06,17,23,,,,,,,,,2.11,1.06,1.82,3*0A
$GNGSA,A,3,,,,,,,,,,,,,2.11,1.06,1.82,4*0A
$GPGSV,2,1,08,05,59,053,40,09,30,154,40,12,49,065,40,14,24,261,,0*64
$GPGSV,2,2,08,21,13,191,40,24,44,156,40,29,66,274,40,30,60,355,40,0*6D
$GAGSV,2,1,05,06,50,268,41,17,33,160,40,23,33,315,40,24,74,239,41,0*77
$GAGSV,2,2,05,26,26,253,,0*45
$GBGSV,1,1,00,0*77
$GNGLL,3114.00174,N,12130.00852,E,080239.00,A,A*7C

$GNRMC,080240.00,A,3114.00422,N,12130.00426,E,16.187,315.87,200821,6.14,W,A,V*74
$GNVTG,315.87,T,322.01,M,16.187,N,29.979,K,A*32
$GNGGA,080240.00,3114.00422,N,12130.00426,E,1,11,1.06,38.7,M,9.9,M,,*45
$GNGSA,A,3,24,30,29,05,12,21,09,,,,,,2.11,1.06,1.82,1*0D
$GNGSA,A,3,24,06,17,23,,,,,,,,,2.11,1.06,1.82,3*0A
$GNGSA,A,3,,,,,,,,,,,,,2.11,1.06,1.82,4*0A
$GPGSV,2,1,08,05,59,053,40,09,30,154,40,12,49,065,40,14,24,261,,0*64
$GPGSV,2,2,08,21,13,191,40,24,44,156,40,29,66,274,40,30,60,355,40,0*6D
$GAGSV,2,1,05,06,50,268,41,17,33,160,40,23,33,315,40,24,74,239,41,0*77
$GAGSV,2,2,05,26,26,253,,0*45
$GBGSV,1,1,00,0*77
$GNGLL,3114.00422,N,12130.00426,E,080240.00,A,A*7B

$GNRMC,080241.00,A,3114.00796,N,12130.00153,E,16.171,339.74,200821,6.14,W,A,V*75
$GNVTG,339.74,T,345.88,M,16.171,N,29.949,K,A*3A
$GNGGA,080241.00,3114.00796,N,12130.00153,E,1,11,1.06,38.6,M,9.9,M,,*4E
$GNGSA,A,3,24,30,29,05,12,21,09,,,,,,2.11,1.06,1.82,1*0D
$GNGSA,A,3,24,06,17,23,,,,,,,,,2.11,1.06,1.82,3*0A
$GNGSA,A,3,,,,,,,,,,,,,2.11,1.06,1.82,4*0A
$GPGSV,2,1,08,05,59,053,40,09,30,154,40,12,49,065,40,14,24,261,,0*64
$GPGSV,2,2,08,21,13,191,40,24,44,156,40,29,66,274,40,30,60,355,40,0*6D
$GAGSV,2,1,05,06,50,268,41,17,33,160,40,23,33,315,40,24,74,239,41,0*77
$GAGSV,2,2,05,26,26,253,,0*45
$GBGSV,1,1,00,0*77
$GNGLL,3114.00796,N,12130.00153,E,080241.00,A,A*71

$GNRMC,080242.00,A,3114.01292,N,12130.00062,E,20.517,359.80,200821,6.14,W,A,V*79
$GNVTG,359.80,T,5.95,M,20.517,N,37.998,K,A*3E
$GNGGA,080242.00,3114.01292,N,12130.00062,E,1,11,1.06,38.6,M,9.9,M,,*4E
$GNGSA,A,3,24,30,29,05,12,21,09,,,,,,2.11,1.06,1.82,1*0D
$GNGSA,A,3,24,06,17,23,,,,,,,,,2.11,1.06,1.82,3*0A
$GNGSA,A,3,,,,,,,,,,,,,2.11,1.06,1.82,4*0A
$GPGSV,2,1,08,05,59,053,40,09,30,154,40,12,49,065,40,14,24,261,,0*64
$GPGSV,2,2,08,21,13,191,40,24,44,156,40,29,66,274,40,30,60,355,40,0*6D
$GAGSV,2,1,05,06,50,268,41,17,33,160,40,23,33,315,40,24,74,239,41,0*77
$GAGSV,2,2,05,26,26,253,,0*45
$GBGSV,1,1,00,0*77
$GNGLL,3114.01292,N,12130.00062,E,080242.00,A,A*71

$GNRMC,080243.00,A,3114.02235,N,12130.00060,E,47.121,359.97,200821,6.14,W,A,V*72
$GNVTG,359.97,T,6.11,M,47.121,N,87.268,K,A*38
$GNGGA,080243.00,3114.02235,N,12130.00060,E,1,11,1.06,38.6,M,9.9,M,,*43
$GNGSA,A,3,24,30,29,05,12,21,09,,,,,,2.11,1.06,1.83,1*0C
$GNGSA,A,3,24,06,17,23,,,,,,,,,2.11,1.06,1.83,3*0B
$GNGSA,A,3,,,,,,,,,,,,,2.11,1.06,1.83,4*0B
$GPGSV,2,1,08,05,59,053,40,09,30,154,40,12,49,065,40,14,24,261,,0*64
$GPGSV,2,2,08,21,13,191,40,24,44,156,40,29,66,274,40,30,60,355,40,0*6D
$GAGSV,2,1,05,06,50,268,41,17,33,160,40,23,33,315,40,24,74,239,41,0*77
$GAGSV,2,2,05,26,26,253,,0*45
$GBGSV,1,1,00,0*77
$GNGLL,3114.02235,N,12130.00060,E,080243.00,A,A*7C

$GNRMC,080244.00,A,3114.03920,N,12130.00058,E,73.830,359.98,200821,6.14,W,A,V*71
$GNVTG,359.98,T,6.12,M,73.830,N,136.733,K,A*0A
$GNGGA,080244.00,3114.03920,N,12130.00058,E,1,11,1.06,38.7,M,9.9,M,,*40
$GNGSA,A,3,24,30,29,05,12,21,09,,,,,,2.11,1.06,1.83,1*0C
$GNGSA,A,3,24,06,17,23,,,,,,,,,2.11,1.06,1.83,3*0B
$GNGSA,A,3,,,,,,,,,,,,,2.11,1.06,1.83,4*0B
$GPGSV,2,1,08,05,59,053,40,09,30,154,40,12,49,065,40,14,24,261,,0*64
$GPGSV,2,2,08,21,13,191,40,24,44,156,40,29,66,274,40,30,60,355,40,0*6D
$GAGSV,2,1,05,06,50,268,41,17,33,160,40,23,33,315,40,24,74,239,40,0*76
$GAGSV,2,2,05,26,26,253,,0*45
$GBGSV,1,1,00,0*77
$GNGLL,3114.03920,N,12130.00058,E,080244.00,A,A*7E

$GNRMC,080245.00,A,3114.06351,N,12130.00057,E,100.568,359.97,200821,6.14,W,A,V*4C
$GNVTG,359.97,T,6.11,M,100.568,N,186.251,K,A*39
$GNGGA,080245.00,3114.06351,N,12130.00057,E,1,11,1.06,38.7,M,9.9,M,,*47
$GNGSA,A,3,24,30,29,05,12,21,09,,,,,,2.11,1.06,1.83,1*0C
$GNGSA,A,3,24,06,17,23,,,,,,,,,2.11,1.06,1.83,3*0B
$GNGSA,A,3,,,,,,,,,,,,,2.11,1.06,1.83,4*0B
$GPGSV,2,1,08,05,59,053,40,09,30,154,40,12,49,065,40,14,24,261,,0*64
$GPGSV,2,2,08,21,13,191,40,24,44,156,40,29,66,274,40,30,60,355,40,0*6D
$GAGSV,2,1,05,06,50,268,41,17,33,160,40,23,33,315,40,24,74,238,41,0*76
$GAGSV,2,2,05,26,26,253,,0*45
$GBGSV,1,1,00,0*77
$GNGLL,3114.06351,N,12130.00057,E,080245.00,A,A*79

$GNRMC,080246.00,A,3114.09526,N,12130.00054,E,127.343,359.98,200821,6.14,W,A,V*40
$GNVTG,359.98,T,6.12,M,127.343,N,235.840,K,A*3E
$GNGGA,080246.00,3114.09526,N,12130.00054,E,1,11,1.06,38.8,M,9.9,M,,*41
$GNGSA,A,3,24,30,29,05,12,21,09,,,,,,2.11,1.06,1.83,1*0C
$GNGSA,A,3,24,06,17,23,,,,,,,,,2.11,1.06,1.83,3*0B
$GNGSA,A,3,,,,,,,,,,,,,2.11,1.06,1.83,4*0B
$GPGSV,2,1,08,05,59,053,40,09,30,154,40,12,49,065,40,14,24,261,,0*64
$GPGSV,2,2,08,21,13,191,40,24,44,156,40,29,66,274,40,30,60,355,40,0*6D
$GAGSV,2,1,05,06,50,268,41,17,33,160,40,23,33,315,40,24,74,238,41,0*76
$GAGSV,2,2,05,26,26,253,,0*45
$GBGSV,1,1,00,0*77
$GNGLL,3114.09526,N,12130.00054,E,080246.00,A,A*70

$GNRMC,080247.00,A,3114.13446,N,12130.00052,E,154.077,359.98,200821,6.14,W,A,V*4B
$GNVTG,359.98,T,6.12,M,154.077,N,285.351,K,A*3E
$GNGGA,080247.00,3114.13446,N,12130.00052,E,1,11,1.06,38.8,M,9.9,M,,*4A
$GNGSA,A,3,24,30,29,05,12,21,09,,,,,,2.11,1.06,1.83,1*0C
$GNGSA,A,3,24,06,17,23,,,,,,,,,2.11,1.06,1.83,3*0B
$GNGSA,A,3,,,,,,,,,,,,,2.11,1.06,1.83,4*0B
$GPGSV,2,1,08,05,59,053,40,09,30,154,40,12,49,065,40,14,24,261,,0*64
$GPGSV,2,2,08,21,13,191,40,24,44,156,40,29,66,274,40,30,60,355,40,0*6D
$GAGSV,2,1,05,06,50,268,41,17,33,160,40,23,33,315,40,24,74,238,41,0*76
$GAGSV,2,2,05,26,26,253,,0*45
$GBGSV,1,1,00,0*77
$GNGLL,3114.13446,N,12130.00052,E,080247.00,A,A*7B

$GNRMC,080248.00,A,3114.17848,N,12130.00049,E,161.956,0.00,200821,6.14,W,A,V*4A
$GNVTG,0.00,T,6.14,M,161.956,N,299.942,K,A*3F
$GNGGA,080248.00,3114.17848,N,12130.00049,E,1,11,1.06,38.9,M,9.9,M,,*48
$GNGSA,A,3,24,30,29,05,12,21,09,,,,,,2.11,1.06,1.83,1*0C
$GNGSA,A,3,24,06,17,23,,,,,,,,,2.11,1.06,1.83,3*0B
$GNGSA,A,3,,,,,,,,,,,,,2.11,1.06,1.83,4*0B
$GPGSV,2,1,08,05,59,053,40,09,30,154,40,12,49,065,40,14,24,261,,0*64
$GPGSV,2,2,08,21,13,191,40,24,44,156,40,29,66,274,40,30,60,355,40,0*6D
$GAGSV,2,1,05,06,50,268,41,17,33,160,40,23,33,315,40,24,74,238,41,0*76
$GAGSV,2,2,05,26,26,253,,0*45
$GBGSV,1,1,00,0*77
$GNGLL,3114.17848,N,12130.00049,E,080248.00,A,A*78

$GNRMC,080249.00,A,3114.22360,N,12130.00047,E,161.957,359.99,200821,6.14,W,A,V*4C
$GNVTG,359.99,T,6.14,M,161.957,N,299.944,K,A*37
$GNGGA,080249.00,3114.22360,N,12130.00047,E,1,11,1.06,38.9,M,9.9,M,,*40
$GNGSA,A,3,24,30,29,05,12,21,09,,,,,,2.11,1.06,1.83,1*0C
$GNGSA,A,3,24,06,17,23,,,,,,,,,2.11,1.06,1.83,3*0B
$GNGSA,A,3,,,,,,,,,,,,,2.11,1.06,1.83,4*0B
$GPGSV,2,1,08,05,59,053,40,09,30,154,40,12,49,065,40,14,24,261,,0*64
$GPGSV,2,2,08,21,13,191,40,24,44,156,40,29,66,274,40,30,60,355,40,0*6D
$GAGSV,2,1,05,06,50,268,41,17,33,160,40,23,33,315,40,24,74,238,41,0*76
$GAGSV,2,2,05,26,26,253,,0*45
$GBGSV,1,1,00,0*77
$GNGLL,3114.22360,N,12130.00047,E,080249.00,A,A*70

$GNRMC,080250.00,A,3114.26872,N,12130.00046,E,161.946,0.00,200821,6.14,W,A,V*46
$GNVTG,0.00,T,6.14,M,161.946,N,299.924,K,A*3E
$GNGGA,080250.00,3114.26872,N,12130.00046,E,1,11,1.06,38.9,M,9.9,M,,*45
$GNGSA,A,3,24,30,29,05,12,21,09,,,,,,2.11,1.06,1.83,1*0C
$GNGSA,A,3,24,06,17,23,,,,,,,,,2.11,1.06,1.83,3*0B
$GNGSA,A,3,,,,,,,,,,,,,2.11,1.06,1.83,4*0B
$GPGSV,2,1,08,05,59,053,40,09,30,154,40,12,49,065,40,14,24,261,,0*64
$GPGSV,2,2,08,21,13,191,40,24,44,156,40,29,66,274,40,30,60,355,40,0*6D
$GAGSV,2,1,05,06,50,268,41,17,33,160,40,23,33,315,40,24,74,238,41,0*76
$GAGSV,2,2,05,26,26,253,,0*45
$GBGSV,1,1,00,0*77
$GNGLL,3114.26872,N,12130.00046,E,080250.00,A,A*75

$GNRMC,080251.00,A,3114.31383,N,12130.00044,E,161.953,0.00,200821,6.14,W,A,V*42
$GNVTG,0.00,T,6.14,M,161.953,N,299.938,K,A*37
$GNGGA,080251.00,3114.31383,N,12130.00044,E,1,11,1.06,38.9,M,9.9,M,,*45
$GNGSA,A,3,24,30,29,05,12,21,09,,,,,,2.11,1.06,1.83,1*0C
$GNGSA,A,3,24,06,17,23,,,,,,,,,2.11,1.06,1.83,3*0B
$GNGSA,A,3,,,,,,,,,,,,,2.11,1.06,1.83,4*0B
$GPGSV,2,1,08,05,59,053,40,09,30,154,40,12,49,065,40,14,24,261,,0*64
$GPGSV,2,2,08,21,13,191,40,24,44,156,40,29,66,274,40,30,60,355,40,0*6D
$GAGSV,2,1,05,06,50,268,41,17,33,160,40,23,33,315,40,24,74,238,41,0*76
$GAGSV,2,2,05,26,26,253,,0*45
$GBGSV,1,1,00,0*77
$GNGLL,3114.31383,N,12130.00044,E,080251.00,A,A*75

$GNRMC,080252.00,A,3114.35892,N,12130.00042,E,161.775,0.01,200821,6.14,W,A,V*43
$GNVTG,0.01,T,6.15,M,161.775,N,299.607,K,A*3E
$GNGGA,080252.00,3114.35892,N,12130.00042,E,1,11,1.06,38.9,M,9.9,M,,*4F
$GNGSA,A,3,24,30,29,05,12,21,09,,,,,,2.11,1.06,1.83,1*0C
$GNGSA,A,3,24,06,17,23,,,,,,,,,2.11,1.06,1.83,3*0B
$GNGSA,A,3,,,,,,,,,,,,,2.11,1.06,1.83,4*0B
$GPGSV,2,1,08,05,59,053,40,09,30,154,40,12,49,065,40,14,24,261,,0*64
$GPGSV,2,2,08,21,13,191,40,24,44,156,40,29,66,274,40,30,60,355,40,0*6D
$GAGSV,2,1,05,06,50,268,41,17,33,160,40,23,33,315,40,24,74,238,41,0*76
$GAGSV,2,2,05,26,26,253,,0*45
$GBGSV,1,1,00,0*77
$GNGLL,3114.35892,N,12130.00042,E,080252.00,A,A*7F

$GNRMC,080253.00,A,3114.40065,N,12130.00040,E,138.009,0.02,200821,6.14,W,A,V*41
$GNVTG,0.02,T,6.16,M,138.009,N,255.594,K,A*37
$GNGGA,080253.00,3114.40065,N,12130.00040,E,1,11,1.06,38.9,M,9.9,M,,*4E
$GNGSA,A,3,24,30,29,05,12,21,09,,,,,,2.11,1.06,1.83,1*0C
$GNGSA,A,3,24,06,17,23,,,,,,,,,2.11,1.06,1.83,3*0B
$GNGSA,A,3,,,,,,,,,,,,,2.11,1.06,1.83,4*0B
$GPGSV,2,1,08,05,59,053,40,09,30,154,40,12,49,065,40,14,24,261,,0*64
$GPGSV,2,2,08,21,13,191,40,24,44,156,40,29,66,274,40,30,60,355,40,0*6D
$GAGSV,2,1,05,06,50,268,41,17,33,160,40,23,33,315,40,24,74,238,41,0*76
$GAGSV,2,2,05,26,26,253,,0*45
$GBGSV,1,1,00,0*77
$GNGLL,3114.40065,N,12130.00040,E,080253.00,A,A*7E

$GNRMC,080254.00,A,3114.43536,N,12130.00039,E,111.281,0.01,200821,6.14,W,A,V*42
$GNVTG,0.01,T,6.16,M,111.281,N,206.093,K,A*39
$GNGGA,080254.00,3114.43536,N,12130.00039,E,1,11,1.06,38.9,M,9.9,M,,*47
$GNGSA,A,3,24,30,29,05,12,21,09,,,,,,2.11,1.06,1.83,1*0C
$GNGSA,A,3,24,06,17,23,,,,,,,,,2.11,1.06,1.83,3*0B
$GNGSA,A,3,,,,,,,,,,,,,2.11,1.06,1.83,4*0B
$GPGSV,2,1,08,05,59,053,40,09,30,154,40,12,49,065,40,14,24,261,,0*64
$GPGSV,2,2,08,21,13,191,40,24,44,156,40,29,66,274,40,30,60,355,40,0*6D
$GAGSV,2,1,05,06,50,268,41,17,33,160,40,23,33,315,40,24,74,238,41,0*76
$GAGSV,2,2,05,26,26,253,,0*45
$GBGSV,1,1,00,0*77
$GNGLL,3114.43536,N,12130.00039,E,080254.00,A,A*77

$GNRMC,080255.00,A,3114.46260,N,12130.00039,E,84.553,0.03,200821,6.14,W,A,V*75
$GNVTG,0.03,T,6.18,M,84.553,N,156.593,K,A*03
$GNGGA,080255.00,3114.46260,N,12130.00039,E,1,11,1.06,38.9,M,9.9,M,,*47
$GNGSA,A,3,24,30,29,05,12,21,09,,,,,,2.11,1.06,1.83,1*0C
$GNGSA,A,3,24,06,17,23,,,,,,,,,2.11,1.06,1.83,3*0B
$GNGSA,A,3,,,,,,,,,,,,,2.11,1.06,1.83,4*0B
$GPGSV,2,1,08,05,59,054,40,09,30,154,40,12,49,065,40,14,24,261,,0*63
$GPGSV,2,2,08,21,13,191,40,24,44,156,40,29,66,274,40,30,60,355,40,0*6D
$GAGSV,2,1,05,06,50,268,40,17,33,160,40,23,33,315,40,24,74,238,41,0*77
$GAGSV,2,2,05,26,26,253,,0*45
$GBGSV,1,1,00,0*77
$GNGLL,3114.46260,N,12130.00039,E,080255.00,A,A*77

$GNRMC,080256.00,A,3114.48240,N,12130.00039,E,57.824,0.05,200821,6.14,W,A,V*7F
$GNVTG,0.05,T,6.20,M,57.824,N,107.090,K,A*0F
$GNGGA,080256.00,3114.48240,N,12130.00039,E,1,11,1.06,38.9,M,9.9,M,,*48
$GNGSA,A,3,24,30,29,05,12,21,09,,,,,,2.12,1.06,1.83,1*0F
$GNGSA,A,3,24,06,17,23,,,,,,,,,2.12,1.06,1.83,3*08
$GNGSA,A,3,,,,,,,,,,,,,2.12,1.06,1.83,4*08
$GPGSV,2,1,08,05,59,054,40,09,30,154,40,12,49,065,40,14,24,261,,0*63
$GPGSV,2,2,08,21,13,191,40,24,44,156,40,29,66,274,40,30,60,355,40,0*6D
$GAGSV,2,1,05,06,50,268,41,17,33,160,40,23,33,315,40,24,74,238,41,0*76
$GAGSV,2,2,05,26,26,253,,0*45
$GBGSV,1,1,00,0*77
$GNGLL,3114.48240,N,12130.00039,E,080256.00,A,A*78

$GNRMC,080257.00,A,3114.49475,N,12130.00039,E,31.082,0.09,200821,6.14,W,A,V*77
$GNVTG,0.09,T,6.24,M,31.082,N,57.564,K,A*39
$GNGGA,080257.00,3114.49475,N,12130.00039,E,1,11,1.06,38.9,M,9.9,M,,*48
$GNGSA,A,3,24,30,29,05,12,21,09,,,,,,2.12,1.06,1.83,1*0F
$GNGSA,A,3,24,06,17,23,,,,,,,,,2.12,1.06,1.83,3*08
$GNGSA,A,3,,,,,,,,,,,,,2.12,1.06,1.83,4*08
$GPGSV,2,1,08,05,59,054,40,09,30,154,40,12,49,066,40,14,24,261,,0*60
$GPGSV,2,2,08,21,13,191,40,24,44,156,40,29,66,274,40,30,60,355,40,0*6D
$GAGSV,2,1,05,06,50,268,41,17,33,160,40,23,33,315,40,24,74,238,41,0*76
$GAGSV,2,2,05,26,26,253,,0*45
$GBGSV,1,1,00,0*77
$GNGLL,3114.49475,N,12130.00039,E,080257.00,A,A*78

$GNRMC,080258.00,A,3114.50125,N,12130.00087,E,16.268,10.64,200821,6.14,W,A,V*4C
$GNVTG,10.64,T,16.79,M,16.268,N,30.129,K,A*35
$GNGGA,080258.00,3114.50125,N,12130.00087,E,1,11,1.06,38.9,M,9.9,M,,*4A
$GNGSA,A,3,24,30,29,05,12,21,09,,,,,,2.12,1.06,1.83,1*0F
$GNGSA,A,3,24,06,17,23,,,,,,,,,2.12,1.06,1.83,3*08
$GNGSA,A,3,,,,,,,,,,,,,2.12,1.06,1.83,4*08
$GPGSV,2,1,08,05,59,054,40,09,30,154,40,12,49,066,40,14,24,261,,0*60
$GPGSV,2,2,08,21,13,191,40,24,44,156,40,29,66,274,40,30,60,355,40,0*6D
$GAGSV,2,1,05,06,50,268,40,17,33,160,40,23,33,315,40,24,74,238,41,0*77
$GAGSV,2,2,05,26,26,253,,0*45
$GBGSV,1,1,00,0*77
$GNGLL,3114.50125,N,12130.00087,E,080258.00,A,A*7A

$GNRMC,080259.00,A,3114.50531,N,12130.00283,E,16.187,34.46,200821,6.14,W,A,V*4E
$GNVTG,34.46,T,40.61,M,16.187,N,29.978,K,A*3F
$GNGGA,080259.00,3114.50531,N,12130.00283,E,1,11,1.06,38.8,M,9.9,M,,*4D
$GNGSA,A,3,24,30,29,05,12,21,09,,,,,,2.12,1.06,1.83,1*0F
$GNGSA,A,3,24,06,17,23,,,,,,,,,2.12,1.06,1.83,3*08
$GNGSA,A,3,,,,,,,,,,,,,2.12,1.06,1.83,4*08
$GPGSV,2,1,08,05,59,054,40,09,30,154,40,12,49,066,40,14,24,261,,0*60
$GPGSV,2,2,08,21,13,191,40,24,44,156,40,29,66,274,40,30,60,355,40,0*6D
$GAGSV,2,1,05,06,50,268,41,17,33,160,40,23,33,315,40,24,74,238,41,0*76
$GAGSV,2,2,05,26,26,253,,0*45
$GBGSV,1,1,00,0*77
$GNGLL,3114.50531,N,12130.00283,E,080259.00,A,A*7C

$GNRMC,080300.00,A,3114.50833,N,12130.00655,E,16.177,58.36,200821,6.14,W,A,V*41
$GNVTG,58.36,T,64.51,M,16.177,N,29.960,K,A*31
$GNGGA,080300.00,3114.50833,N,12130.00655,E,1,11,1.06,38.9,M,9.9,M,,*41
$GNGSA,A,3,24,30,29,05,12,21,09,,,,,,2.12,1.06,1.83,1*0F
$GNGSA,A,3,24,06,17,23,,,,,,,,,2.12,1.06,1.83,3*08
$GNGSA,A,3,,,,,,,,,,,,,2.12,1.06,1.83,4*08
$GPGSV,2,1,08,05,59,054,40,09,30,154,40,12,49,066,40,14,24,261,,0*60
$GPGSV,2,2,08,21,13,191,40,24,44,156,40,29,66,274,40,30,60,355,40,0*6D
$GAGSV,2,1,05,06,50,268,41,17,33,160,40,23,33,315,40,24,74,238,41,0*76
$GAGSV,2,2,05,26,26,253,,0*45
$GBGSV,1,1,00,0*77
$GNGLL,3114.50833,N,12130.00655,E,080300.00,A,A*71

$GNRMC,080301.00,A,3114.50980,N,12130.01137,E,16.164,82.23,200821,6.14,W,A,V*4A
$GNVTG,82.23,T,88.38,M,16.164,N,29.936,K,A*3E
$GNGGA,080301.00,3114.50980,N,12130.01137,E,1,11,1.06,38.9,M,9.9,M,,*4B
$GNGSA,A,3,24,30,29,05,12,21,09,,,,,,2.12,1.06,1.83,1*0F
$GNGSA,A,3,24,06,17,23,,,,,,,,,2.12,1.06,1.83,3*08
$GNGSA,A,3,,,,,,,,,,,,,2.12,1.06,1.83,4*08
$GPGSV,2,1,08,05,59,054,40,09,30,154,40,12,49,066,40,14,24,261,,0*60
$GPGSV,2,2,08,21,13,191,40,24,44,156,40,29,66,274,40,30,60,355,40,0*6D
$GAGSV,2,1,05,06,50,268,41,17,33,160,40,23,33,315,40,24,74,238,41,0*76
$GAGSV,2,2,05,26,26,253,,0*45
$GBGSV,1,1,00,0*77
$GNGLL,3114.50980,N,12130.01137,E,080301.00,A,A*7B

$GNRMC,080302.00,A,3114.51009,N,12130.01952,E,34.284,89.99,200821,6.14,W,A,V*4C
$GNVTG,89.99,T,96.13,M,34.284,N,63.494,K,A*34
$GNGGA,080302.00,3114.51009,N,12130.01952,E,1,11,1.06,38.9,M,9.9,M,,*4A
$GNGSA,A,3,24,30,29,05,12,21,09,,,,,,2.12,1.06,1.83,1*0F
$GNGSA,A,3,24,06,17,23,,,,,,,,,2.12,1.06,1.83,3*08
$GNGSA,A,3,,,,,,,,,,,,,2.12,1.06,1.83,4*08
$GPGSV,2,1,08,05,59,054,40,09,30,154,40,12,49,066,40,14,24,261,,0*60
$GPGSV,2,2,08,21,13,191,40,24,44,156,40,29,66,274,40,30,60,355,40,0*6D
$GAGSV,2,1,05,06,50,268,41,17,33,160,40,23,33,315,40,24,74,238,41,0*76
$GAGSV,2,2,05,26,26,253,,0*45
$GBGSV,1,1,00,0*77
$GNGLL,3114.51009,N,12130.01952,E,080302.00,A,A*7A

$GNRMC,080303.00,A,3114.51008,N,12130.03497,E,60.947,90.03,200821,6.14,W,A,V*44
$GNVTG,90.03,T,96.18,M,60.947,N,112.875,K,A*05
$GNGGA,080303.00,3114.51008,N,12130.03497,E,1,11,1.06,38.9,M,9.9,M,,*4C
$GNGSA,A,3,24,30,29,05,12,21,09,,,,,,2.12,1.06,1.83,1*0F
$GNGSA,A,3,24,06,17,23,,,,,,,,,2.12,1.06,1.83,3*08
$GNGSA,A,3,,,,,,,,,,,,,2.12,1.06,1.83,4*08
$GPGSV,2,1,08,05,59,054,40,09,30,154,40,12,49,066,40,14,24,261,,0*60
$GPGSV,2,2,08,21,13,191,40,24,44,156,40,29,66,275,40,30,60,355,40,0*6C
$GAGSV,2,1,05,06,50,268,41,17,33,160,40,23,33,315,40,24,74,238,41,0*76
$GAGSV,2,2,05,26,26,253,,0*45
$GBGSV,1,1,00,0*77
$GNGLL,3114.51008,N,12130.03497,E,080303.00,A,A*7C

$GNRMC,080304.00,A,3114.51007,N,12130.05907,E,87.693,90.04,200821,6.14,W,A,V*46
$GNVTG,90.04,T,96.18,M,87.693,N,162.408,K,A*0C
$GNGGA,080304.00,3114.51007,N,12130.05907,E,1,11,1.06,38.9,M,9.9,M,,*46
$GNGSA,A,3,24,30,29,05,12,21,09,,,,,,2.12,1.06,1.83,1*0F
$GNGSA,A,3,24,06,17,23,,,,,,,,,2.12,1.06,1.83,3*08
$GNGSA,A,3,,,,,,,,,,,,,2.12,1.06,1.83,4*08
$GPGSV,2,1,08,05,59,054,40,09,30,154,40,12,49,066,40,14,24,261,,0*60
$GPGSV,2,2,08,21,13,191,40,24,44,156,40,29,66,275,40,30,61,356,40,0*6E
$GAGSV,2,1,05,06,50,268,41,17,33,160,40,23,33,315,40,24,74,238,41,0*76
$GAGSV,2,2,05,26,26,253,,0*45
$GBGSV,1,1,00,0*77
$GNGLL,3114.51007,N,12130.05907,E,080304.00,A,A*76

$GNRMC,080305.00,A,3114.51006,N,12130.09185,E,114.457,90.02,200821,6.14,W,A,V*7F
$GNVTG,90.02,T,96.17,M,114.457,N,211.975,K,A*34
$GNGGA,080305.00,3114.51006,N,12130.09185,E,1,11,1.06,38.9,M,9.9,M,,*48
$GNGSA,A,3,24,30,29,05,12,21,09,,,,,,2.12,1.06,1.83,1*0F
$GNGSA,A,3,24,06,17,23,,,,,,,,,2.12,1.06,1.83,3*08
$GNGSA,A,3,,,,,,,,,,,,,2.12,1.06,1.83,4*08
$GPGSV,2,1,08,05,59,054,40,09,30,154,40,12,49,066,40,14,24,261,,0*60
$GPGSV,2,2,08,21,13,191,40,24,44,156,40,29,66,275,40,30,61,356,40,0*6E
$GAGSV,2,1,05,06,50,268,41,17,33,160,40,23,33,315,40,24,74,238,40,0*77
$GAGSV,2,2,05,26,26,253,,0*45
$GBGSV,1,1,00,0*77
$GNGLL,3114.51006,N,12130.09185,E,080305.00,A,A*78

$GNRMC,080306.00,A,3114.51005,N,12130.13329,E,141.209,90.02,200821,6.14,W,A,V*7D
$GNVTG,90.02,T,96.16,M,141.209,N,261.519,K,A*39
$GNGGA,080306.00,3114.51005,N,12130.13329,E,1,11,1.06,38.9,M,9.9,M,,*47
$GNGSA,A,3,24,30,29,05,12,21,09,,,,,,2.12,1.06,1.83,1*0F
$GNGSA,A,3,24,06,17,23,,,,,,,,,2.12,1.06,1.83,3*08
$GNGSA,A,3,,,,,,,,,,,,,2.12,1.06,1.83,4*08
$GPGSV,2,1,08,05,59,054,40,09,30,154,40,12,49,066,40,14,24,261,,0*60
$GPGSV,2,2,08,21,13,191,40,24,44,156,40,29,66,275,40,30,61,356,40,0*6E
$GAGSV,2,1,05,06,50,268,41,17,33,160,40,23,33,315,40,24,74,238,41,0*76
$GAGSV,2,2,05,26,26,253,,0*45
$GBGSV,1,1,00,0*77
$GNGLL,3114.51005,N,12130.13329,E,080306.00,A,A*77

$GNRMC,080307.00,A,3114.51004,N,12130.18244,E,161.815,90.01,200821,6.14,W,A,V*7A
$GNVTG,90.01,T,96.16,M,161.815,N,299.681,K,A*3A
$GNGGA,080307.00,3114.51004,N,12130.18244,E,1,11,1.06,38.9,M,9.9,M,,*46
$GNGSA,A,3,24,30,29,05,12,21,09,,,,,,2.12,1.06,1.83,1*0F
$GNGSA,A,3,24,06,17,23,,,,,,,,,2.12,1.06,1.83,3*08
$GNGSA,A,3,,,,,,,,,,,,,2.12,1.06,1.83,4*08
$GPGSV,2,1,08,05,59,054,40,09,30,154,40,12,49,066,40,14,24,261,,0*60
$GPGSV,2,2,08,21,13,191,40,24,44,156,40,29,66,275,40,30,61,356,40,0*6E
$GAGSV,2,1,05,06,50,268,41,17,33,160,40,23,33,315,40,24,74,238,41,0*76
$GAGSV,2,2,05,26,26,253,,0*45
$GBGSV,1,1,00,0*77
$GNGLL,3114.51004,N,12130.18244,E,080307.00,A,A*76

$GNRMC,080308.00,A,3114.51003,N,12130.23489,E,161.991,90.00,200821,6.14,W,A,V*71
$GNVTG,90.00,T,96.14,M,161.991,N,300.008,K,A*32
$GNGGA,080308.00,3114.51003,N,12130.23489,E,1,11,1.06,38.8,M,9.9,M,,*40
$GNGSA,A,3,24,30,29,05,12,21,09,,,,,,2.12,1.06,1.83,1*0F
$GNGSA,A,3,24,06,17,23,,,,,,,,,2.12,1.06,1.83,3*08
$GNGSA,A,3,,,,,,,,,,,,,2.12,1.06,1.83,4*08
$GPGSV,2,1,08,05,59,054,40,09,30,154,40,12,49,066,40,14,24,261,,0*60
$GPGSV,2,2,08,21,13,191,40,24,44,156,40,29,66,275,40,30,61,356,40,0*6E
$GAGSV,2,1,05,06,50,268,41,17,33,160,40,23,33,315,40,24,74,238,41,0*76
$GAGSV,2,2,05,26,26,253,,0*45
$GBGSV,1,1,00,0*77
$GNGLL,3114.51003,N,12130.23489,E,080308.00,A,A*71

$GNRMC,080309.00,A,3114.51002,N,12130.28736,E,161.994,90.00,200821,6.15,W,A,V*79
$GNVTG,90.00,T,96.14,M,161.994,N,300.012,K,A*3C
$GNGGA,080309.00,3114.51002,N,12130.28736,E,1,11,1.06,38.8,M,9.9,M,,*4C
$GNGSA,A,3,24,30,29,05,12,21,09,,,,,,2.12,1.06,1.83,1*0F
$GNGSA,A,3,24,06,17,23,,,,,,,,,2.12,1.06,1.83,3*08
$GNGSA,A,3,,,,,,,,,,,,,2.12,1.06,1.83,4*08
$GPGSV,2,1,08,05,59,054,40,09,30,154,40,12,49,066,40,14,24,261,,0*60
$GPGSV,2,2,08,21,13,191,40,24,44,156,40,29,66,275,40,30,61,356,40,0*6E
$GAGSV,2,1,05,06,50,268,41,17,33,160,40,23,33,315,40,24,74,238,41,0*76
$GAGSV,2,2,05,26,26,253,,0*45
$GBGSV,1,1,00,0*77
$GNGLL,3114.51002,N,12130.28736,E,080309.00,A,A*7D

$GNRMC,080310.00,A,3114.51000,N,12130.33984,E,161.982,90.01,200821,6.15,W,A,V*78
$GNVTG,90.01,T,96.15,M,161.982,N,299.991,K,A*38
$GNGGA,080310.00,3114.51000,N,12130.33984,E,1,11,1.06,38.8,M,9.9,M,,*4B
$GNGSA,A,3,24,30,29,05,12,21,09,,,,,,2.12,1.06,1.83,1*0F
$GNGSA,A,3,24,06,17,23,,,,,,,,,2.12,1.06,1.83,3*08
$GNGSA,A,3,,,,,,,,,,,,,2.12,1.06,1.83,4*08
$GPGSV,2,1,08,05,59,054,40,09,30,154,40,12,49,066,40,14,24,261,,0*60
$GPGSV,2,2,08,21,13,191,40,24,44,156,40,29,66,275,40,30,61,356,40,0*6E
$GAGSV,2,1,05,06,50,268,41,17,33,160,40,23,33,315,40,24,74,238,41,0*76
$GAGSV,2,2,05,26,26,253,,0*45
$GBGSV,1,1,00,0*77
$GNGLL,3114.51000,N,12130.33984,E,080310.00,A,A*7A

$GNRMC,080311.00,A,3114.50998,N,12130.39232,E,162.003,90.00,200821,6.15,W,A,V*7E
$GNVTG,90.00,T,96.14,M,162.003,N,300.030,K,A*38
$GNGGA,080311.00,3114.50998,N,12130.39232,E,1,11,1.06,38.8,M,9.9,M,,*4F
$GNGSA,A,3,24,30,29,05,12,21,09,,,,,,2.12,1.06,1.83,1*0F
$GNGSA,A,3,24,06,17,23,,,,,,,,,2.12,1.06,1.83,3*08
$GNGSA,A,3,,,,,,,,,,,,,2.12,1.06,1.83,4*08
$GPGSV,2,1,08,05,59,054,40,09,30,154,40,12,49,066,40,14,24,261,,0*60
$GPGSV,2,2,08,21,13,191,40,24,44,156,40,29,66,275,40,30,61,356,40,0*6E
$GAGSV,2,1,05,06,50,268,41,17,33,160,40,23,33,315,40,24,74,238,41,0*76
$GAGSV,2,2,05,26,26,253,,0*45
$GBGSV,1,1,00,0*77
$GNGLL,3114.50998,N,12130.39232,E,080311.00,A,A*7E

$GNRMC,080312.00,A,3114.50997,N,12130.44480,E,162.007,90.00,200821,6.15,W,A,V*73
$GNVTG,90.00,T,96.14,M,162.007,N,300.038,K,A*34
$GNGGA,080312.00,3114.50997,N,12130.44480,E,1,11,1.06,38.8,M,9.9,M,,*46
$GNGSA,A,3,24,30,29,05,12,21,09,,,,,,2.12,1.06,1.83,1*0F
$GNGSA,A,3,24,06,17,23,,,,,,,,,2.12,1.06,1.83,3*08
$GNGSA,A,3,,,,,,,,,,,,,2.12,1.06,1.83,4*08
$GPGSV,2,1,08,05,59,054,39,09,30,154,40,12,49,066,40,14,24,261,,0*6E
$GPGSV,2,2,08,21,13,191,40,24,44,156,40,29,66,275,40,30,61,356,39,0*60
$GAGSV,2,1,05,06,50,268,41,17,33,160,40,23,33,315,40,24,74,238,41,0*76
$GAGSV,2,2,05,26,26,253,,0*45
$GBGSV,1,1,00,0*77
$GNGLL,3114.50997,N,12130.44480,E,080312.00,A,A*77

$GNRMC,080313.00,A,3114.50995,N,12130.49728,E,161.988,90.00,200821,6.15,W,A,V*71
$GNVTG,90.00,T,96.14,M,161.988,N,300.002,K,A*30
$GNGGA,080313.00,3114.50995,N,12130.49728,E,1,11,1.06,38.9,M,9.9,M,,*48
$GNGSA,A,3,24,30,29,05,12,21,09,,,,,,2.12,1.06,1.83,1*0F
$GNGSA,A,3,24,06,17,23,,,,,,,,,2.12,1.06,1.83,3*08
$GNGSA,A,3,,,,,,,,,,,,,2.12,1.06,1.83,4*08
$GPGSV,2,1,08,05,59,054,40,09,30,154,40,12,49,066,40,14,24,261,,0*60
$GPGSV,2,2,08,21,13,191,40,24,44,156,40,29,66,275,40,30,61,356,40,0*6E
$GAGSV,2,1,05,06,50,268,41,17,33,160,40,23,33,315,40,24,74,238,41,0*76
$GAGSV,2,2,05,26,26,253,,0*45
$GBGSV,1,1,00,0*77
$GNGLL,3114.50995,N,12130.49728,E,080313.00,A,A*78

$GNRMC,080314.00,A,3114.50993,N,12130.54976,E,162.005,90.01,200821,6.15,W,A,V*77
$GNVTG,90.01,T,96.15,M,162.005,N,300.033,K,A*3D
$GNGGA,080314.00,3114.50993,N,12130.54976,E,1,11,1.06,38.9,M,9.9,M,,*40
$GNGSA,A,3,24,30,29,05,12,21,09,,,,,,2.12,1.06,1.83,1*0F
$GNGSA,A,3,24,06,17,23,,,,,,,,,2.12,1.06,1.83,3*08
$GNGSA,A,3,,,,,,,,,,,,,2.12,1.06,1.83,4*08
$GPGSV,2,1,08,05,59,054,40,09,30,154,40,12,49,066,40,14,24,261,,0*60
$GPGSV,2,2,08,21,13,191,40,24,44,156,40,29,66,275,40,30,61,356,40,0*6E
$GAGSV,2,1,05,06,50,268,41,17,33,160,40,23,33,315,40,24,74,238,41,0*76
$GAGSV,2,2,05,26,26,253,,0*45
$GBGSV,1,1,00,0*77
$GNGLL,3114.50993,N,12130.54976,E,080314.00,A,A*70

$GNRMC,080315.00,A,3114.50991,N,12130.60224,E,161.969,90.02,200821,6.15,W,A,V*7C
$GNVTG,90.02,T,96.16,M,161.969,N,299.966,K,A*35
$GNGGA,080315.00,3114.50991,N,12130.60224,E,1,11,1.06,38.9,M,9.9,M,,*48
$GNGSA,A,3,24,30,29,05,12,21,09,,,,,,2.12,1.06,1.83,1*0F
$GNGSA,A,3,24,06,17,23,,,,,,,,,2.12,1.06,1.83,3*08
$GNGSA,A,3,,,,,,,,,,,,,2.12,1.06,1.83,4*08
$GPGSV,2,1,08,05,59,054,40,09,30,154,40,12,49,066,40,14,24,261,,0*60
$GPGSV,2,2,08,21,13,191,40,24,44,156,40,29,66,275,40,30,61,356,40,0*6E
$GAGSV,2,1,05,06,50,268,41,17,33,160,40,23,33,315,40,24,74,238,41,0*76
$GAGSV,2,2,05,26,26,253,,0*45
$GBGSV,1,1,00,0*77
$GNGLL,3114.50991,N,12130.60224,E,080315.00,A,A*78

$GNRMC,080316.00,A,3114.50989,N,12130.65471,E,161.981,90.01,200821,6.15,W,A,V*70
$GNVTG,90.01,T,96.16,M,161.981,N,299.988,K,A*30
$GNGGA,080316.00,3114.50989,N,12130.65471,E,1,11,1.06,39.0,M,9.9,M,,*49
$GNGSA,A,3,24,30,29,05,12,21,09,,,,,,2.12,1.06,1.83,1*0F
$GNGSA,A,3,24,06,17,23,,,,,,,,,2.12,1.06,1.83,3*08
$GNGSA,A,3,,,,,,,,,,,,,2.12,1.06,1.83,4*08
$GPGSV,2,1,08,05,59,054,40,09,30,154,40,12,49,066,40,14,24,261,,0*60
$GPGSV,2,2,08,21,13,191,40,24,44,156,40,29,66,275,40,30,61,356,40,0*6E
$GAGSV,2,1,05,06,50,268,41,17,33,160,40,23,33,315,40,24,74,238,41,0*76
$GAGSV,2,2,05,26,26,253,,0*45
$GBGSV,1,1,00,0*77
$GNGLL,3114.50989,N,12130.65471,E,080316.00,A,A*71

$GNRMC,080317.00,A,3114.50986,N,12130.70718,E,161.982,90.01,200821,6.15,W,A,V*75
$GNVTG,90.01,T,96.15,M,161.982,N,299.991,K,A*38
$GNGGA,080317.00,3114.50986,N,12130.70718,E,1,11,1.06,39.1,M,9.9,M,,*4E
$GNGSA,A,3,24,30,29,05,12,21,09,,,,,,2.12,1.06,1.83,1*0F
$GNGSA,A,3,24,06,17,23,,,,,,,,,2.12,1.06,1.83,3*08
$GNGSA,A,3,,,,,,,,,,,,,2.12,1.06,1.83,4*08
$GPGSV,2,1,08,05,59,054,40,09,30,154,40,12,49,066,40,14,24,261,,0*60
$GPGSV,2,2,08,21,13,191,40,24,44,156,40,29,66,275,40,30,61,356,40,0*6E
$GAGSV,2,1,05,06,50,269,41,17,33,160,40,23,33,315,40,24,74,238,41,0*77
$GAGSV,2,2,05,26,26,253,,0*45
$GBGSV,1,1,00,0*77
$GNGLL,3114.50986,N,12130.70718,E,080317.00,A,A*77

$GNRMC,080318.00,A,3114.50985,N,12130.75787,E,150.852,89.99,200821,6.15,W,A,V*7D
$GNVTG,89.99,T,96.14,M,150.852,N,279.378,K,A*3D
$GNGGA,080318.00,3114.50985,N,12130.75787,E,1,11,1.06,39.1,M,9.9,M,,*41
$GNGSA,A,3,24,30,29,05,12,21,09,,,,,,2.12,1.06,1.83,1*0F
$GNGSA,A,3,24,06,17,23,,,,,,,,,2.12,1.06,1.83,3*08
$GNGSA,A,3,,,,,,,,,,,,,2.12,1.06,1.83,4*08
$GPGSV,2,1,08,05,59,054,40,09,30,154,40,12,49,066,40,14,24,261,,0*60
$GPGSV,2,2,08,21,13,191,40,24,44,156,40,29,66,275,40,30,61,356,40,0*6E
$GAGSV,2,1,05,06,50,269,41,17,33,161,40,23,33,315,40,24,74,238,41,0*76
$GAGSV,2,2,05,26,26,253,,0*45
$GBGSV,1,1,00,0*77
$GNGLL,3114.50985,N,12130.75787,E,080318.00,A,A*78

$GNRMC,080319.00,A,3114.50984,N,12130.80242,E,124.213,89.98,200821,6.15,W,A,V*76
$GNVTG,89.98,T,96.13,M,124.213,N,230.043,K,A*31
$GNGGA,080319.00,3114.50984,N,12130.80242,E,1,11,1.06,39.0,M,9.9,M,,*46
$GNGSA,A,3,24,30,29,05,12,21,09,,,,,,2.12,1.06,1.83,1*0F
$GNGSA,A,3,24,06,17,23,,,,,,,,,2.12,1.06,1.83,3*08
$GNGSA,A,3,,,,,,,,,,,,,2.12,1.06,1.83,4*08
$GPGSV,2,1,08,05,59,054,40,09,30,154,40,12,49,066,40,14,24,261,,0*60
$GPGSV,2,2,08,21,13,191,40,24,44,156,40,29,66,275,40,30,61,356,40,0*6E
$GAGSV,2,1,05,06,50,269,41,17,33,161,40,23,33,315,40,24,74,238,41,0*76
$GAGSV,2,2,05,26,26,253,,0*45
$GBGSV,1,1,00,0*77
$GNGLL,3114.50984,N,12130.80242,E,080319.00,A,A*7E

$GNRMC,080320.00,A,3114.50984,N,12130.83831,E,97.427,90.03,200821,6.15,W,A,V*43
$GNVTG,90.03,T,96.17,M,97.427,N,180.435,K,A*0A
$GNGGA,080320.00,3114.50984,N,12130.83831,E,1,11,1.06,39.0,M,9.9,M,,*41
$GNGSA,A,3,24,30,29,05,12,21,09,,,,,,2.12,1.06,1.83,1*0F
$GNGSA,A,3,24,06,17,23,,,,,,,,,2.12,1.06,1.83,3*08
$GNGSA,A,3,,,,,,,,,,,,,2.12,1.06,1.83,4*08
$GPGSV,2,1,08,05,59,054,40,09,30,154,40,12,49,066,40,14,24,261,,0*60
$GPGSV,2,2,08,21,13,191,40,24,44,156,40,29,66,275,40,30,61,356,40,0*6E
$GAGSV,2,1,05,06,50,269,41,17,33,161,40,23,33,315,40,24,74,238,41,0*76
$GAGSV,2,2,05,26,26,253,,0*45
$GBGSV,1,1,00,0*77
$GNGLL,3114.50984,N,12130.83831,E,080320.00,A,A*79

$GNRMC,080321.00,A,3114.50982,N,12130.86551,E,70.690,90.01,200821,6.15,W,A,V*4F
$GNVTG,90.01,T,96.16,M,70.690,N,130.918,K,A*07
$GNGGA,080321.00,3114.50982,N,12130.86551,E,1,11,1.06,39.1,M,9.9,M,,*49
$GNGSA,A,3,24,30,29,05,12,21,09,,,,,,2.12,1.06,1.83,1*0F
$GNGSA,A,3,24,06,17,23,,,,,,,,,2.12,1.06,1.83,3*08
$GNGSA,A,3,,,,,,,,,,,,,2.12,1.06,1.83,4*08
$GPGSV,2,1,08,05,59,054,40,09,30,154,40,12,49,066,40,14,24,261,,0*60
$GPGSV,2,2,08,21,13,191,40,24,44,156,40,29,66,275,40,30,61,356,40,0*6E
$GAGSV,2,1,06,06,50,269,41,07,,,41,17,33,161,40,23,33,315,40,0*4E
$GAGSV,2,2,06,24,73,237,41,26,26,253,,0*77
$GBGSV,1,1,00,0*77
$GNGLL,3114.50982,N,12130.86551,E,080321.00,A,A*70

$GNRMC,080322.00,A,3114.50981,N,12130.88405,E,43.935,89.98,200821,6.15,W,A,V*49
$GNVTG,89.98,T,96.13,M,43.935,N,81.368,K,A*3C
$GNGGA,080322.00,3114.50981,N,12130.88405,E,1,11,1.06,39.1,M,9.9,M,,*47
$GNGSA,A,3,24,30,29,05,12,21,09,,,,,,2.12,1.06,1.83,1*0F
$GNGSA,A,3,24,06,17,23,,,,,,,,,2.12,1.06,1.83,3*08
$GNGSA,A,3,,,,,,,,,,,,,2.12,1.06,1.83,4*08
$GPGSV,2,1,08,05,59,054,40,09,30,154,40,12,49,066,40,14,24,261,,0*60
$GPGSV,2,2,08,21,13,191,40,24,44,156,40,29,66,275,40,30,61,356,40,0*6E
$GAGSV,2,1,06,06,50,269,41,07,,,41,17,33,161,40,23,33,315,40,0*4E
$GAGSV,2,2,06,24,73,237,41,26,26,253,,0*77
$GBGSV,1,1,00,0*77
$GNGLL,3114.50981,N,12130.88405,E,080322.00,A,A*7E

$GNRMC,080323.00,A,3114.50977,N,12130.89405,E,18.073,90.65,200821,6.15,W,A,V*4F
$GNVTG,90.65,T,96.80,M,18.073,N,33.471,K,A*3F
$GNGGA,080323.00,3114.50977,N,12130.89405,E,1,11,1.06,39.1,M,9.9,M,,*4E
$GNGSA,A,3,24,30,29,05,12,21,09,,,,,,2.12,1.06,1.83,1*0F
$GNGSA,A,3,24,06,17,23,,,,,,,,,2.12,1.06,1.83,3*08
$GNGSA,A,3,,,,,,,,,,,,,2.12,1.06,1.83,4*08
$GPGSV,2,1,08,05,59,054,40,09,30,154,40,12,49,066,40,14,24,261,,0*60
$GPGSV,2,2,08,21,13,191,40,24,44,156,40,29,66,275,40,30,61,356,40,0*6E
$GAGSV,2,1,06,06,50,269,41,07,,,41,17,33,161,40,23,33,315,40,0*4E
$GAGSV,2,2,06,24,73,237,41,26,26,254,,0*70
$GBGSV,1,1,00,0*77
$GNGLL,3114.50977,N,12130.89405,E,080323.00,A,A*77

$GNRMC,080324.00,A,3114.50885,N,12130.89939,E,16.203,113.08,200821,6.15,W,A,V*7C
$GNVTG,113.08,T,119.23,M,16.203,N,30.007,K,A*3C
$GNGGA,080324.00,3114.50885,N,12130.89939,E,1,11,1.07,39.1,M,9.9,M,,*46
$GNGSA,A,3,24,30,29,05,12,21,09,,,,,,2.12,1.07,1.83,1*0E
$GNGSA,A,3,24,06,17,23,,,,,,,,,2.12,1.07,1.83,3*09
$GNGSA,A,3,,,,,,,,,,,,,2.12,1.07,1.83,4*09
$GPGSV,2,1,08,05,59,054,40,09,30,154,40,12,49,066,40,14,24,261,,0*60
$GPGSV,2,2,08,21,13,191,40,24,44,156,40,29,66,275,40,30,61,356,40,0*6E
$GAGSV,2,1,06,06,50,269,41,07,,,41,17,33,161,40,23,33,315,40,0*4E
$GAGSV,2,2,06,24,73,237,41,26,26,254,,0*70
$GBGSV,1,1,00,0*77
$GNGLL,3114.50885,N,12130.89939,E,080324.00,A,A*7E

$GNRMC,080325.00,A,3114.50631,N,12130.90360,E,16.176,136.82,200821,6.15,W,A,V*76
$GNVTG,136.82,T,142.97,M,16.176,N,29.958,K,A*32
$GNGGA,080325.00,3114.50631,N,12130.90360,E,1,11,1.07,39.2,M,9.9,M,,*4B
$GNGSA,A,3,24,30,29,05,12,21,09,,,,,,2.12,1.07,1.83,1*0E
$GNGSA,A,3,24,06,17,23,,,,,,,,,2.12,1.07,1.83,3*09
$GNGSA,A,3,,,,,,,,,,,,,2.12,1.07,1.83,4*09
