$GNRMC,140830.00,V,,,,,,,260721,5.69,W,N,V*54
$GNVTG,,,,,,,,,N*2E
$GNGGA,140830.00,,,,,0,00,99.99,,,,,,*76
$GNGSA,A,1,,,,,,,,,,,,,99.99,99.99,99.99,1*33
$GNGSA,A,1,,,,,,,,,,,,,99.99,99.99,99.99,3*31
$GNGSA,A,1,,,,,,,,,,,,,99.99,99.99,99.99,4*36
$GPGSV,4,1,13,03,31,314,,06,43,323,,10,,,39,16,73,273,,0*58
$GPGSV,4,2,13,18,57,092,,19,05,295,,21,39,039,39,22,52,157,,0*6F
$GPGSV,4,3,13,24,01,053,39,25,01,310,,29,13,097,,30,,,39,0*51
$GPGSV,4,4,13,31,07,200,39,0*5A
$GAGSV,3,1,11,01,56,341,,02,50,081,,03,05,110,,08,12,306,,0*74
$GAGSV,3,2,11,14,30,196,,15,69,127,,16,34,047,,17,03,308,,0*7F
$GAGSV,3,3,11,18,13,261,,19,08,212,,25,64,037,,0*4A
$GBGSV,2,1,08,01,35,126,,02,59,172,,04,37,126,,06,55,292,,0*7E
$GBGSV,2,2,08,08,51,296,,09,09,254,,13,65,011,,14,19,047,,0*72
$GNGLL,,,,,140830.00,V,N*5A

$GNRMC,140831.00,V,,,,,,,260721,5.69,W,N,V*55
$GNVTG,,,,,,,,,N*2E
$GNGGA,140831.00,,,,,0,00,99.99,,,,,,*77
$GNGSA,A,1,,,,,,,,,,,,,99.99,99.99,99.99,1*33
$GNGSA,A,1,,,,,,,,,,,,,99.99,99.99,99.99,3*31
$GNGSA,A,1,,,,,,,,,,,,,99.99,99.99,99.99,4*36
$GPGSV,4,1,13,03,31,314,,06,43,323,,10,,,40,16,73,273,,0*56
$GPGSV,4,2,13,18,57,092,,19,05,295,,21,39,039,39,22,52,157,,0*6F
$GPGSV,4,3,13,24,01,053,39,25,01,310,,29,13,097,,30,,,39,0*51
$GPGSV,4,4,13,31,07,200,39,0*5A
$GAGSV,3,1,11,01,56,341,,02,50,081,,03,05,110,,08,12,306,,0*74
$GAGSV,3,2,11,14,30,196,,15,69,127,,16,34,047,,17,03,308,,0*7F
$GAGSV,3,3,11,18,13,261,,19,08,212,,25,64,037,,0*4A
$GBGSV,2,1,08,01,35,126,,02,59,172,,04,37,126,,06,55,292,,0*7E
$GBGSV,2,2,08,08,51,296,,09,09,254,,13,65,011,,14,19,047,,0*72
$GNGLL,,,,,140831.00,V,N*5B

$GNRMC,140832.00,V,,,,,,,260721,5.69,W,N,V*56
$GNVTG,,,,,,,,,N*2E
$GNGGA,140832.00,,,,,0,00,99.99,,,,,,*74
$GNGSA,A,1,,,,,,,,,,,,,99.99,99.99,99.99,1*33
$GNGSA,A,1,,,,,,,,,,,,,99.99,99.99,99.99,3*31
$GNGSA,A,1,,,,,,,,,,,,,99.99,99.99,99.99,4*36
$GPGSV,4,1,13,03,31,314,,06,43,323,,10,,,39,16,73,273,,0*58
$GPGSV,4,2,13,18,57,092,,19,05,295,,21,39,039,40,22,52,157,,0*61
$GPGSV,4,3,13,24,01,053,39,25,01,310,,29,13,097,,30,,,39,0*51
$GPGSV,4,4,13,31,07,200,39,0*5A
$GAGSV,3,1,11,01,56,341,,02,50,081,,03,05,110,,08,12,306,,0*74
$GAGSV,3,2,11,14,30,196,,15,69,127,,16,34,047,,17,03,308,,0*7F
$GAGSV,3,3,11,18,13,261,,19,08,212,,25,64,037,,0*4A
$GBGSV,2,1,08,01,35,126,,02,59,172,,04,37,126,,06,55,292,,0*7E
$GBGSV,2,2,08,08,51,296,,09,09,254,,13,65,011,,14,19,047,,0*72
$GNGLL,,,,,140832.00,V,N*58

$GNRMC,140833.00,V,,,,,,,260721,5.69,W,N,V*57
$GNVTG,,,,,,,,,N*2E
$GNGGA,140833.00,,,,,0,00,99.99,,,,,,*75
$GNGSA,A,1,,,,,,,,,,,,,99.99,99.99,99.99,1*33
$GNGSA,A,1,,,,,,,,,,,,,99.99,99.99,99.99,3*31
$GNGSA,A,1,,,,,,,,,,,,,99.99,99.99,99.99,4*36
$GPGSV,4,1,13,03,31,314,,06,43,323,,10,,,39,16,73,273,,0*58
$GPGSV,4,2,13,18,57,092,,19,05,295,,21,39,039,40,22,52,157,,0*61
$GPGSV,4,3,13,24,01,053,39,25,01,310,,29,13,097,,30,,,39,0*51
$GPGSV,4,4,13,31,07,200,39,0*5A
$GAGSV,3,1,11,01,56,341,,02,50,081,,03,05,110,,08,12,306,,0*74
$GAGSV,3,2,11,14,30,196,,15,69,127,,16,34,047,,17,03,308,,0*7F
$GAGSV,3,3,11,18,13,261,,19,08,212,,25,64,037,,0*4A
$GBGSV,2,1,08,01,35,126,,02,59,172,,04,37,126,,06,55,292,,0*7E
$GBGSV,2,2,08,08,51,296,,09,09,254,,13,65,011,,14,19,047,,0*72
$GNGLL,,,,,140833.00,V,N*59

$GNRMC,140834.00,V,,,,,,,260721,5.69,W,N,V*50
$GNVTG,,,,,,,,,N*2E
$GNGGA,140834.00,,,,,0,00,99.99,,,,,,*72
$GNGSA,A,1,,,,,,,,,,,,,99.99,99.99,99.99,1*33
$GNGSA,A,1,,,,,,,,,,,,,99.99,99.99,99.99,3*31
$GNGSA,A,1,,,,,,,,,,,,,99.99,99.99,99.99,4*36
$GPGSV,4,1,13,03,31,314,,06,43,323,,10,,,39,16,73,273,,0*58
$GPGSV,4,2,13,18,57,092,,19,05,295,,21,39,039,39,22,52,157,,0*6F
$GPGSV,4,3,13,24,01,053,40,25,01,310,,29,13,097,,30,,,39,0*5F
$GPGSV,4,4,13,31,07,200,39,0*5A
$GAGSV,3,1,11,01,56,341,,02,50,081,,03,05,110,,08,12,306,,0*74
$GAGSV,3,2,11,14,30,196,,15,69,127,,16,34,047,,17,03,308,,0*7F
$GAGSV,3,3,11,18,13,261,,19,08,212,,25,64,037,,0*4A
$GBGSV,2,1,08,01,35,126,,02,59,172,,04,37,126,,06,55,292,,0*7E
$GBGSV,2,2,08,08,51,296,,09,09,254,,13,65,011,,14,19,047,,0*72
$GNGLL,,,,,140834.00,V,N*5E

$GNRMC,140835.00,V,,,,,,,260721,5.69,W,N,V*51
$GNVTG,,,,,,,,,N*2E
$GNGGA,140835.00,,,,,0,00,99.99,,,,,,*73
$GNGSA,A,1,,,,,,,,,,,,,99.99,99.99,99.99,1*33
$GNGSA,A,1,,,,,,,,,,,,,99.99,99.99,99.99,3*31
$GNGSA,A,1,,,,,,,,,,,,,99.99,99.99,99.99,4*36
$GPGSV,4,1,13,03,31,314,,06,43,323,,10,,,39,16,73,273,,0*58
$GPGSV,4,2,13,18,57,092,,19,05,295,,21,39,039,39,22,52,157,,0*6F
$GPGSV,4,3,13,24,01,053,39,25,01,310,,29,13,097,,30,,,39,0*51
$GPGSV,4,4,13,31,07,200,39,0*5A
$GAGSV,3,1,11,01,56,341,,02,50,081,,03,05,110,,08,12,306,,0*74
$GAGSV,3,2,11,14,30,196,,15,69,127,,16,34,047,,17,03,308,,0*7F
$GAGSV,3,3,11,18,13,261,,19,08,212,,25,64,037,,0*4A
$GBGSV,2,1,08,01,35,126,,02,59,172,,04,37,126,,06,55,292,,0*7E
$GBGSV,2,2,08,08,51,296,,09,09,254,,13,65,011,,14,19,047,,0*72
$GNGLL,,,,,140835.00,V,N*5F

$GNRMC,140836.00,V,,,,,,,260721,5.69,W,N,V*52
$GNVTG,,,,,,,,,N*2E
$GNGGA,140836.00,,,,,0,00,99.99,,,,,,*70
$GNGSA,A,1,,,,,,,,,,,,,99.99,99.99,99.99,1*33
$GNGSA,A,1,,,,,,,,,,,,,99.99,99.99,99.99,3*31
$GNGSA,A,1,,,,,,,,,,,,,99.99,99.99,99.99,4*36
$GPGSV,4,1,13,03,31,314,,06,43,323,,10,,,39,16,73,273,,0*58
$GPGSV,4,2,13,18,57,092,,19,05,295,,21,39,039,39,22,52,157,,0*6F
$GPGSV,4,3,13,24,01,053,39,25,01,310,,29,13,097,,30,,,39,0*51
$GPGSV,4,4,13,31,07,200,39,0*5A
$GAGSV,3,1,11,01,56,341,,02,50,081,,03,05,110,,08,12,306,,0*74
$GAGSV,3,2,11,14,30,196,,15,69,127,,16,34,047,,17,03,308,,0*7F
$GAGSV,3,3,11,18,13,261,,19,08,212,,25,64,037,,0*4A
$GBGSV,2,1,08,01,35,126,,02,59,172,,04,37,126,,06,54,292,,0*7F
$GBGSV,2,2,08,08,51,296,,09,09,254,,13,65,011,,14,19,047,,0*72
$GNGLL,,,,,140836.00,V,N*5C

$GNRMC,140837.00,V,,,,,,,260721,5.69,W,N,V*53
$GNVTG,,,,,,,,,N*2E
$GNGGA,140837.00,,,,,0,00,99.99,,,,,,*71
$GNGSA,A,1,,,,,,,,,,,,,99.99,99.99,99.99,1*33
$GNGSA,A,1,,,,,,,,,,,,,99.99,99.99,99.99,3*31
$GNGSA,A,1,,,,,,,,,,,,,99.99,99.99,99.99,4*36
$GPGSV,4,1,13,03,31,314,,06,43,323,,10,,,39,16,73,273,,0*58
$GPGSV,4,2,13,18,57,092,,19,05,295,,21,39,039,39,22,52,157,,0*6F
$GPGSV,4,3,13,24,01,053,39,25,01,310,,29,13,097,,30,,,39,0*51
$GPGSV,4,4,13,31,07,200,39,0*5A
$GAGSV,3,1,11,01,56,341,,02,50,081,,03,05,110,,08,12,306,,0*74
$GAGSV,3,2,11,14,30,196,,15,69,127,,16,34,047,,17,03,308,,0*7F
$GAGSV,3,3,11,18,13,261,,19,08,212,,25,64,037,,0*4A
$GBGSV,2,1,08,01,35,126,,02,59,172,,04,37,126,,06,54,292,,0*7F
$GBGSV,2,2,08,08,51,296,,09,09,254,,13,65,011,,14,19,047,,0*72
$GNGLL,,,,,140837.00,V,N*5D

$GNRMC,140838.00,V,,,,,,,260721,5.69,W,N,V*5C
$GNVTG,,,,,,,,,N*2E
$GNGGA,140838.00,,,,,0,00,99.99,,,,,,*7E
$GNGSA,A,1,,,,,,,,,,,,,99.99,99.99,99.99,1*33
$GNGSA,A,1,,,,,,,,,,,,,99.99,99.99,99.99,3*31
$GNGSA,A,1,,,,,,,,,,,,,99.99,99.99,99.99,4*36
$GPGSV,4,1,13,03,31,314,,06,43,323,,10,,,39,16,73,273,,0*58
$GPGSV,4,2,13,18,57,092,,19,05,295,,21,39,039,39,22,52,157,,0*6F
$GPGSV,4,3,13,24,01,053,40,25,01,310,,29,13,097,,30,,,39,0*5F
$GPGSV,4,4,13,31,07,200,39,0*5A
$GAGSV,3,1,11,01,56,341,,02,50,081,,03,05,110,,08,12,306,,0*74
$GAGSV,3,2,11,14,30,196,,15,69,127,,16,34,047,,17,03,308,,0*7F
$GAGSV,3,3,11,18,13,261,,19,08,212,,25,64,037,,0*4A
$GBGSV,2,1,08,01,35,126,,02,59,172,,04,37,126,,06,54,292,,0*7F
$GBGSV,2,2,08,08,51,296,,09,09,254,,13,65,011,,14,19,047,,0*72
$GNGLL,,,,,140838.00,V,N*52

$GNRMC,140839.00,V,,,,,,,260721,5.69,W,N,V*5D
$GNVTG,,,,,,,,,N*2E
$GNGGA,140839.00,,,,,0,00,99.99,,,,,,*7F
$GNGSA,A,1,,,,,,,,,,,,,99.99,99.99,99.99,1*33
$GNGSA,A,1,,,,,,,,,,,,,99.99,99.99,99.99,3*31
$GNGSA,A,1,,,,,,,,,,,,,99.99,99.99,99.99,4*36
$GPGSV,4,1,13,03,31,314,,06,43,323,,10,,,39,16,73,273,,0*58
$GPGSV,4,2,13,18,57,092,,19,05,295,,21,39,039,39,22,52,157,,0*6F
$GPGSV,4,3,13,24,01,053,39,25,01,310,,29,13,097,,30,,,39,0*51
$GPGSV,4,4,13,31,07,200,39,0*5A
$GAGSV,3,1,11,01,56,341,,02,50,081,,03,05,110,,08,12,306,,0*74
$GAGSV,3,2,11,14,30,196,,15,69,127,,16,34,047,,17,03,308,,0*7F
$GAGSV,3,3,11,18,13,261,,19,08,212,,25,64,037,,0*4A
$GBGSV,2,1,08,01,35,126,,02,59,172,,04,37,126,,06,54,292,,0*7F
$GBGSV,2,2,08,08,51,296,,09,10,254,,13,65,011,,14,19,047,,0*7A
$GNGLL,,,,,140839.00,V,N*53

$GNRMC,140840.00,V,,,,,,,260721,5.69,W,N,V*53
$GNVTG,,,,,,,,,N*2E
$GNGGA,140840.00,,,,,0,00,99.99,,,,,,*71
$GNGSA,A,1,,,,,,,,,,,,,99.99,99.99,99.99,1*33
$GNGSA,A,1,,,,,,,,,,,,,99.99,99.99,99.99,3*31
$GNGSA,A,1,,,,,,,,,,,,,99.99,99.99,99.99,4*36
$GPGSV,4,1,13,03,31,314,,06,43,323,,10,,,39,16,73,273,,0*58
$GPGSV,4,2,13,18,57,092,,19,05,295,,21,39,039,39,22,52,157,,0*6F
$GPGSV,4,3,13,24,01,053,39,25,01,310,,29,13,097,,30,,,40,0*5F
$GPGSV,4,4,13,31,07,200,39,0*5A
$GAGSV,3,1,11,01,56,341,,02,50,081,,03,05,110,,08,12,306,,0*74
$GAGSV,3,2,11,14,30,196,,15,69,127,,16,34,047,,17,03,308,,0*7F
$GAGSV,3,3,11,18,13,261,,19,08,212,,25,64,037,,0*4A
$GBGSV,2,1,08,01,35,126,,02,59,172,,04,37,126,,06,54,292,,0*7F
$GBGSV,2,2,08,08,51,296,,09,10,254,,13,65,011,,14,19,047,,0*7A
$GNGLL,,,,,140840.00,V,N*5D

$GNRMC,140841.00,V,,,,,,,260721,5.69,W,N,V*52
$GNVTG,,,,,,,,,N*2E
$GNGGA,140841.00,,,,,0,00,99.99,,,,,,*70
$GNGSA,A,1,,,,,,,,,,,,,99.99,99.99,99.99,1*33
$GNGSA,A,1,,,,,,,,,,,,,99.99,99.99,99.99,3*31
$GNGSA,A,1,,,,,,,,,,,,,99.99,99.99,99.99,4*36
$GPGSV,4,1,13,03,31,314,,06,43,323,,10,,,39,16,73,273,,0*58
$GPGSV,4,2,13,18,57,092,,19,05,295,,21,39,039,39,22,52,157,,0*6F
$GPGSV,4,3,13,24,01,053,40,25,01,310,,29,13,097,,30,,,40,0*51
$GPGSV,4,4,13,31,07,200,39,0*5A
$GAGSV,3,1,11,01,56,341,,02,50,081,,03,05,110,,08,12,306,,0*74
$GAGSV,3,2,11,14,30,196,,15,69,127,,16,34,047,,17,03,308,,0*7F
$GAGSV,3,3,11,18,13,261,,19,08,212,,25,64,037,,0*4A
$GBGSV,2,1,08,01,35,126,,02,59,172,,04,37,126,,06,54,292,,0*7F
$GBGSV,2,2,08,08,51,296,,09,10,254,,13,65,011,,14,19,047,,0*7A
$GNGLL,,,,,140841.00,V,N*5C

$GNRMC,140842.00,V,,,,,,,260721,5.69,W,N,V*51
$GNVTG,,,,,,,,,N*2E
$GNGGA,140842.00,,,,,0,00,99.99,,,,,,*73
$GNGSA,A,1,,,,,,,,,,,,,99.99,99.99,99.99,1*33
$GNGSA,A,1,,,,,,,,,,,,,99.99,99.99,99.99,3*31
$GNGSA,A,1,,,,,,,,,,,,,99.99,99.99,99.99,4*36
$GPGSV,4,1,13,03,31,314,,06,43,323,,10,,,39,16,73,273,,0*58
$GPGSV,4,2,13,18,57,092,,19,05,295,,21,39,039,39,22,52,157,,0*6F
$GPGSV,4,3,13,24,01,053,39,25,01,310,,29,13,097,,30,,,40,0*5F
$GPGSV,4,4,13,31,07,200,40,0*54
$GAGSV,3,1,11,01,56,341,,02,50,081,,03,05,110,,08,12,306,,0*74
$GAGSV,3,2,11,14,30,196,,15,69,127,,16,34,047,,17,03,308,,0*7F
$GAGSV,3,3,11,18,13,261,,19,08,212,,25,64,037,,0*4A
$GBGSV,2,1,08,01,35,126,,02,59,172,,04,37,126,,06,54,292,,0*7F
$GBGSV,2,2,08,08,51,296,,09,10,254,,13,65,011,,14,19,047,,0*7A
$GNGLL,,,,,140842.00,V,N*5F

$GNRMC,140843.00,V,,,,,,,260721,5.69,W,N,V*50
$GNVTG,,,,,,,,,N*2E
$GNGGA,140843.00,,,,,0,00,99.99,,,,,,*72
$GNGSA,A,1,,,,,,,,,,,,,99.99,99.99,99.99,1*33
$GNGSA,A,1,,,,,,,,,,,,,99.99,99.99,99.99,3*31
$GNGSA,A,1,,,,,,,,,,,,,99.99,99.99,99.99,4*36
$GPGSV,4,1,13,03,31,314,,06,43,323,,10,,,39,16,73,273,,0*58
$GPGSV,4,2,13,18,57,092,,19,05,295,,21,39,039,39,22,52,157,,0*6F
$GPGSV,4,3,13,24,01,053,39,25,01,310,,29,13,097,,30,,,39,0*51
$GPGSV,4,4,13,31,07,200,39,0*5A
$GAGSV,3,1,11,01,56,341,,02,50,081,,03,05,110,,08,12,306,,0*74
$GAGSV,3,2,11,14,30,196,,15,69,127,,16,34,047,,17,03,308,,0*7F
$GAGSV,3,3,11,18,13,261,,19,08,212,,25,64,037,,0*4A
$GBGSV,2,1,08,01,35,126,,02,59,172,,04,37,126,,06,54,292,,0*7F
$GBGSV,2,2,08,08,51,296,,09,10,254,,13,65,011,,14,19,047,,0*7A
$GNGLL,,,,,140843.00,V,N*5E

$GNRMC,140844.00,V,,,,,,,260721,5.69,W,N,V*57
$GNVTG,,,,,,,,,N*2E
$GNGGA,140844.00,,,,,0,00,99.99,,,,,,*75
$GNGSA,A,1,,,,,,,,,,,,,99.99,99.99,99.99,1*33
$GNGSA,A,1,,,,,,,,,,,,,99.99,99.99,99.99,3*31
$GNGSA,A,1,,,,,,,,,,,,,99.99,99.99,99.99,4*36
$GPGSV,4,1,13,03,31,314,,06,43,323,,10,,,39,16,73,273,,0*58
$GPGSV,4,2,13,18,57,092,,19,05,295,,21,39,039,39,22,52,157,,0*6F
$GPGSV,4,3,13,24,01,053,39,25,01,310,,29,13,097,,30,,,39,0*51
$GPGSV,4,4,13,31,07,200,39,0*5A
$GAGSV,3,1,11,01,56,341,,02,50,081,,03,05,110,,08,12,306,,0*74
$GAGSV,3,2,11,14,30,196,,15,69,127,,16,34,047,,17,03,308,,0*7F
$GAGSV,3,3,11,18,13,261,,19,08,212,,25,64,037,,0*4A
$GBGSV,2,1,08,01,35,126,,02,59,172,,04,37,126,,06,54,292,,0*7F
$GBGSV,2,2,08,08,51,296,,09,10,254,,13,65,011,,14,18,047,,0*7B
$GNGLL,,,,,140844.00,V,N*59

$GNRMC,140845.00,V,,,,,,,260721,5.69,W,N,V*56
$GNVTG,,,,,,,,,N*2E
$GNGGA,140845.00,,,,,0,00,99.99,,,,,,*74
$GNGSA,A,1,,,,,,,,,,,,,99.99,99.99,99.99,1*33
$GNGSA,A,1,,,,,,,,,,,,,99.99,99.99,99.99,3*31
$GNGSA,A,1,,,,,,,,,,,,,99.99,99.99,99.99,4*36
$GPGSV,4,1,13,03,31,314,,06,43,323,,10,,,39,16,73,273,,0*58
$GPGSV,4,2,13,18,57,092,,19,05,295,,21,39,039,39,22,52,157,,0*6F
$GPGSV,4,3,13,24,01,053,39,25,01,310,,29,13,097,,30,,,39,0*51
$GPGSV,4,4,13,31,07,200,39,0*5A
$GAGSV,3,1,11,01,56,341,,02,50,081,,03,05,110,,08,12,306,,0*74
$GAGSV,3,2,11,14,30,196,,15,69,127,,16,34,047,,17,03,308,,0*7F
$GAGSV,3,3,11,18,13,261,,19,08,212,,25,64,037,,0*4A
$GBGSV,2,1,08,01,35,126,,02,59,172,,04,37,126,,06,54,292,,0*7F
$GBGSV,2,2,08,08,51,296,,09,10,254,,13,65,011,,14,18,047,,0*7B
$GNGLL,,,,,140845.00,V,N*58

$GNRMC,140846.00,V,,,,,,,260721,5.69,W,N,V*55
$GNVTG,,,,,,,,,N*2E
$GNGGA,140846.00,,,,,0,00,99.99,,,,,,*77
$GNGSA,A,1,,,,,,,,,,,,,99.99,99.99,99.99,1*33
$GNGSA,A,1,,,,,,,,,,,,,99.99,99.99,99.99,3*31
$GNGSA,A,1,,,,,,,,,,,,,99.99,99.99,99.99,4*36
$GPGSV,4,1,13,03,31,314,,06,43,323,,10,,,39,16,73,273,,0*58
$GPGSV,4,2,13,18,57,092,,19,05,295,,21,39,039,39,22,52,157,,0*6F
$GPGSV,4,3,13,24,01,053,39,25,01,310,,29,13,097,,30,,,39,0*51
$GPGSV,4,4,13,31,07,200,39,0*5A
$GAGSV,3,1,11,01,56,341,,02,50,081,,03,05,110,,08,12,306,,0*74
$GAGSV,3,2,11,14,30,196,,15,69,127,,16,34,047,,17,03,308,,0*7F
$GAGSV,3,3,11,18,13,261,,19,08,212,,25,64,037,,0*4A
$GBGSV,2,1,08,01,35,126,,02,59,172,,04,37,126,,06,54,292,,0*7F
$GBGSV,2,2,08,08,51,296,,09,10,254,,13,65,011,,14,18,047,,0*7B
$GNGLL,,,,,140846.00,V,N*5B

$GNRMC,140847.00,V,,,,,,,260721,5.69,W,N,V*54
$GNVTG,,,,,,,,,N*2E
$GNGGA,140847.00,,,,,0,00,99.99,,,,,,*76
$GNGSA,A,1,,,,,,,,,,,,,99.99,99.99,99.99,1*33
$GNGSA,A,1,,,,,,,,,,,,,99.99,99.99,99.99,3*31
$GNGSA,A,1,,,,,,,,,,,,,99.99,99.99,99.99,4*36
$GPGSV,4,1,13,03,31,314,,06,43,323,,10,,,39,16,73,273,,0*58
$GPGSV,4,2,13,18,57,092,,19,05,295,,21,39,039,39,22,52,157,,0*6F
$GPGSV,4,3,13,24,01,053,40,25,01,310,,29,13,097,,30,,,39,0*5F
$GPGSV,4,4,13,31,07,200,39,0*5A
$GAGSV,3,1,11,01,56,341,,02,50,081,,03,05,110,,08,12,306,,0*74
$GAGSV,3,2,11,14,30,196,,15,69,127,,16,34,047,,17,03,308,,0*7F
$GAGSV,3,3,11,18,13,261,,19,08,212,,25,64,037,,0*4A
$GBGSV,2,1,08,01,35,126,,02,59,172,,04,37,126,,06,54,292,,0*7F
$GBGSV,2,2,08,08,51,296,,09,10,254,,13,65,011,,14,18,047,,0*7B
$GNGLL,,,,,140847.00,V,N*5A

$GNRMC,140848.00,V,,,,,,,260721,5.69,W,N,V*5B
$GNVTG,,,,,,,,,N*2E
$GNGGA,140848.00,,,,,0,00,99.99,,,,,,*79
$GNGSA,A,1,,,,,,,,,,,,,99.99,99.99,99.99,1*33
$GNGSA,A,1,,,,,,,,,,,,,99.99,99.99,99.99,3*31
$GNGSA,A,1,,,,,,,,,,,,,99.99,99.99,99.99,4*36
$GPGSV,4,1,13,03,31,314,,06,43,323,,10,,,39,16,73,273,,0*58
$GPGSV,4,2,13,18,57,092,,19,05,295,,21,39,039,39,22,52,157,,0*6F
$GPGSV,4,3,13,24,01,053,39,25,01,310,,29,13,097,,30,,,39,0*51
$GPGSV,4,4,13,31,07,200,39,0*5A
$GAGSV,3,1,11,01,56,341,,02,50,081,,03,05,110,,08,12,306,,0*74
$GAGSV,3,2,11,14,30,196,,15,69,127,,16,34,047,,17,03,308,,0*7F
$GAGSV,3,3,11,18,13,261,,19,08,212,,25,64,037,,0*4A
$GBGSV,2,1,08,01,35,126,,02,59,172,,04,37,126,,06,54,292,,0*7F
$GBGSV,2,2,08,08,51,296,,09,10,254,,13,65,011,,14,18,047,,0*7B
$GNGLL,,,,,140848.00,V,N*55

$GNRMC,140849.00,V,,,,,,,260721,5.69,W,N,V*5A
$GNVTG,,,,,,,,,N*2E
$GNGGA,140849.00,,,,,0,00,99.99,,,,,,*78
$GNGSA,A,1,,,,,,,,,,,,,99.99,99.99,99.99,1*33
$GNGSA,A,1,,,,,,,,,,,,,99.99,99.99,99.99,3*31
$GNGSA,A,1,,,,,,,,,,,,,99.99,99.99,99.99,4*36
$GPGSV,4,1,13,03,31,314,,06,43,323,,10,,,39,16,73,273,,0*58
$GPGSV,4,2,13,18,57,092,,19,05,295,,21,39,039,39,22,52,157,,0*6F
$GPGSV,4,3,13,24,01,053,39,25,01,310,,29,13,097,,30,,,39,0*51
$GPGSV,4,4,13,31,07,200,40,0*54
$GAGSV,3,1,11,01,56,341,,02,50,081,,03,05,110,,08,12,306,,0*74
$GAGSV,3,2,11,14,30,196,,15,69,127,,16,34,047,,17,03,308,,0*7F
$GAGSV,3,3,11,18,13,261,,19,08,212,,25,64,037,,0*4A
$GBGSV,2,1,08,01,35,126,,02,59,172,,04,37,126,,06,54,292,,0*7F
$GBGSV,2,2,08,08,51,296,,09,10,254,,13,65,011,,14,18,047,,0*7B
$GNGLL,,,,,140849.00,V,N*54

$GNRMC,140850.00,V,,,,,,,260721,5.69,W,N,V*52
$GNVTG,,,,,,,,,N*2E
$GNGGA,140850.00,,,,,0,00,99.99,,,,,,*70
$GNGSA,A,1,,,,,,,,,,,,,99.99,99.99,99.99,1*33
$GNGSA,A,1,,,,,,,,,,,,,99.99,99.99,99.99,3*31
$GNGSA,A,1,,,,,,,,,,,,,99.99,99.99,99.99,4*36
$GPGSV,4,1,13,03,31,314,,06,43,323,,10,,,39,16,73,273,,0*58
$GPGSV,4,2,13,18,57,092,,19,05,295,,21,39,039,39,22,52,157,,0*6F
$GPGSV,4,3,13,24,01,053,39,25,01,310,,29,13,097,,30,,,39,0*51
$GPGSV,4,4,13,31,07,200,40,0*54
$GAGSV,3,1,11,01,56,341,,02,50,081,,03,05,110,,08,12,306,,0*74
$GAGSV,3,2,11,14,30,196,,15,69,127,,16,34,047,,17,03,308,,0*7F
$GAGSV,3,3,11,18,13,261,,19,08,212,,25,64,037,,0*4A
$GBGSV,2,1,08,01,35,126,,02,59,172,,04,37,126,,06,54,292,,0*7F
$GBGSV,2,2,08,08,51,296,,09,10,254,,13,65,011,,14,18,047,,0*7B
$GNGLL,,,,,140850.00,V,N*5C

$GNRMC,140851.00,V,,,,,,,260721,5.69,W,N,V*53
$GNVTG,,,,,,,,,N*2E
$GNGGA,140851.00,,,,,0,00,99.99,,,,,,*71
$GNGSA,A,1,,,,,,,,,,,,,99.99,99.99,99.99,1*33
$GNGSA,A,1,,,,,,,,,,,,,99.99,99.99,99.99,3*31
$GNGSA,A,1,,,,,,,,,,,,,99.99,99.99,99.99,4*36
$GPGSV,4,1,13,03,31,315,,06,43,323,,10,,,39,16,73,273,,0*59
$GPGSV,4,2,13,18,57,092,,19,05,295,,21,39,039,39,22,52,157,,0*6F
$GPGSV,4,3,13,24,01,053,39,25,01,310,,29,13,097,,30,,,40,0*5F
$GPGSV,4,4,13,31,07,200,39,0*5A
$GAGSV,3,1,11,01,56,341,,02,50,081,,03,05,110,,08,12,306,,0*74
$GAGSV,3,2,11,14,30,196,,15,69,127,,16,34,047,,17,03,308,,0*7F
$GAGSV,3,3,11,18,13,261,,19,08,212,,25,64,037,,0*4A
$GBGSV,2,1,08,01,35,126,,02,59,172,,04,37,126,,06,54,292,,0*7F
$GBGSV,2,2,08,08,51,296,,09,10,254,,13,65,011,,14,18,047,,0*7B
$GNGLL,,,,,140851.00,V,N*5D

$GNRMC,140852.00,V,,,,,,,260721,5.69,W,N,V*50
$GNVTG,,,,,,,,,N*2E
$GNGGA,140852.00,,,,,0,00,99.99,,,,,,*72
$GNGSA,A,1,,,,,,,,,,,,,99.99,99.99,99.99,1*33
$GNGSA,A,1,,,,,,,,,,,,,99.99,99.99,99.99,3*31
$GNGSA,A,1,,,,,,,,,,,,,99.99,99.99,99.99,4*36
$GPGSV,4,1,13,03,31,315,,06,43,323,,10,,,40,16,73,273,,0*57
$GPGSV,4,2,13,18,57,092,,19,05,295,,21,39,039,39,22,52,157,,0*6F
$GPGSV,4,3,13,24,01,053,39,25,01,310,,29,13,097,,30,,,39,0*51
$GPGSV,4,4,13,31,07,200,39,0*5A
$GAGSV,3,1,11,01,56,341,,02,50,081,,03,05,110,,08,12,306,,0*74
$GAGSV,3,2,11,14,30,196,,15,69,127,,16,34,047,,17,03,308,,0*7F
$GAGSV,3,3,11,18,13,261,,19,08,212,,25,64,037,,0*4A
$GBGSV,2,1,08,01,35,126,,02,59,172,,04,37,126,,06,54,292,,0*7F
$GBGSV,2,2,08,08,51,296,,09,10,254,,13,65,011,,14,18,047,,0*7B
$GNGLL,,,,,140852.00,V,N*5E

$GNRMC,140853.00,V,,,,,,,260721,5.69,W,N,V*51
$GNVTG,,,,,,,,,N*2E
$GNGGA,140853.00,,,,,0,00,99.99,,,,,,*73
$GNGSA,A,1,,,,,,,,,,,,,99.99,99.99,99.99,1*33
$GNGSA,A,1,,,,,,,,,,,,,99.99,99.99,99.99,3*31
$GNGSA,A,1,,,,,,,,,,,,,99.99,99.99,99.99,4*36
$GPGSV,4,1,13,03,31,315,,06,43,323,,10,,,39,16,73,273,,0*59
$GPGSV,4,2,13,18,57,092,,19,05,295,,21,39,039,39,22,52,157,,0*6F
$GPGSV,4,3,13,24,01,053,39,25,01,310,,29,13,097,,30,,,39,0*51
$GPGSV,4,4,13,31,07,200,39,0*5A
$GAGSV,3,1,11,01,56,341,,02,50,081,,03,05,110,,08,12,306,,0*74
$GAGSV,3,2,11,14,30,196,,15,69,127,,16,34,047,,17,03,308,,0*7F
$GAGSV,3,3,11,18,13,261,,19,08,212,,25,64,037,,0*4A
$GBGSV,2,1,08,01,35,126,,02,59,172,,04,37,126,,06,54,292,,0*7F
$GBGSV,2,2,08,08,51,296,,09,10,254,,13,65,011,,14,18,047,,0*7B
$GNGLL,,,,,140853.00,V,N*5F

$GNRMC,140854.00,V,,,,,,,260721,5.69,W,N,V*56
$GNVTG,,,,,,,,,N*2E
$GNGGA,140854.00,,,,,0,00,99.99,,,,,,*74
$GNGSA,A,1,,,,,,,,,,,,,99.99,99.99,99.99,1*33
$GNGSA,A,1,,,,,,,,,,,,,99.99,99.99,99.99,3*31
$GNGSA,A,1,,,,,,,,,,,,,99.99,99.99,99.99,4*36
$GPGSV,4,1,13,03,31,315,,06,44,323,,10,,,39,16,73,273,,0*5E
$GPGSV,4,2,13,18,57,092,,19,05,295,,21,39,039,39,22,52,157,,0*6F
$GPGSV,4,3,13,24,01,053,39,25,01,310,,29,13,097,,30,,,39,0*51
$GPGSV,4,4,13,31,07,200,39,0*5A
$GAGSV,3,1,11,01,56,341,,02,50,081,,03,05,110,,08,12,306,,0*74
$GAGSV,3,2,11,14,30,196,,15,69,127,,16,34,047,,17,03,308,,0*7F
$GAGSV,3,3,11,18,13,261,,19,08,212,,25,64,037,,0*4A
$GBGSV,2,1,08,01,35,126,,02,59,172,,04,37,126,,06,54,292,,0*7F
$GBGSV,2,2,08,08,51,296,,09,10,254,,13,65,011,,14,18,047,,0*7B
$GNGLL,,,,,140854.00,V,N*58

$GNRMC,140855.00,V,,,,,,,260721,5.69,W,N,V*57
$GNVTG,,,,,,,,,N*2E
$GNGGA,140855.00,,,,,0,00,99.99,,,,,,*75
$GNGSA,A,1,,,,,,,,,,,,,99.99,99.99,99.99,1*33
$GNGSA,A,1,,,,,,,,,,,,,99.99,99.99,99.99,3*31
$GNGSA,A,1,,,,,,,,,,,,,99.99,99.99,99.99,4*36
$GPGSV,4,1,13,03,31,315,,06,44,323,,10,,,39,16,73,273,,0*5E
$GPGSV,4,2,13,18,57,092,,19,05,295,,21,39,039,40,22,52,157,,0*61
$GPGSV,4,3,13,24,01,053,40,25,01,310,,29,13,097,,30,,,39,0*5F
$GPGSV,4,4,13,31,07,200,39,0*5A
$GAGSV,3,1,11,01,56,341,,02,50,081,,03,05,110,,08,12,306,,0*74
$GAGSV,3,2,11,14,30,196,,15,69,127,,16,34,047,,17,03,308,,0*7F
$GAGSV,3,3,11,18,13,261,,19,08,212,,25,64,037,,0*4A
$GBGSV,2,1,08,01,35,126,,02,59,172,,04,37,126,,06,54,292,,0*7F
$GBGSV,2,2,08,08,51,296,,09,10,254,,13,65,011,,14,18,047,,0*7B
$GNGLL,,,,,140855.00,V,N*59

$GNRMC,140856.00,V,,,,,,,260721,5.69,W,N,V*54
$GNVTG,,,,,,,,,N*2E
$GNGGA,140856.00,,,,,0,00,99.99,,,,,,*76
$GNGSA,A,1,,,,,,,,,,,,,99.99,99.99,99.99,1*33
$GNGSA,A,1,,,,,,,,,,,,,99.99,99.99,99.99,3*31
$GNGSA,A,1,,,,,,,,,,,,,99.99,99.99,99.99,4*36
$GPGSV,4,1,13,03,31,315,,06,44,323,,10,,,39,16,73,273,,0*5E
$GPGSV,4,2,13,18,57,092,,19,05,295,,21,39,039,39,22,52,157,,0*6F
$GPGSV,4,3,13,24,01,053,40,25,01,310,,29,13,097,,30,,,39,0*5F
$GPGSV,4,4,13,31,07,200,40,0*54
$GAGSV,3,1,11,01,56,341,,02,50,081,,03,05,110,,08,12,306,,0*74
$GAGSV,3,2,11,14,30,196,,15,69,127,,16,34,047,,17,03,308,,0*7F
$GAGSV,3,3,11,18,13,261,,19,08,212,,25,64,037,,0*4A
$GBGSV,2,1,08,01,35,126,,02,59,172,,04,37,126,,06,54,292,,0*7F
$GBGSV,2,2,08,08,51,296,,09,10,254,,13,65,011,,14,18,047,,0*7B
$GNGLL,,,,,140856.00,V,N*5A

$GNRMC,140857.00,V,,,,,,,260721,5.69,W,N,V*55
$GNVTG,,,,,,,,,N*2E
$GNGGA,140857.00,,,,,0,00,99.99,,,,,,*77
$GNGSA,A,1,,,,,,,,,,,,,99.99,99.99,99.99,1*33
$GNGSA,A,1,,,,,,,,,,,,,99.99,99.99,99.99,3*31
$GNGSA,A,1,,,,,,,,,,,,,99.99,99.99,99.99,4*36
$GPGSV,4,1,13,03,31,315,,06,44,323,,10,,,39,16,73,273,,0*5E
$GPGSV,4,2,13,18,57,092,,19,05,295,,21,39,039,39,22,52,157,,0*6F
$GPGSV,4,3,13,24,01,053,39,25,01,310,,29,13,097,,30,,,39,0*51
$GPGSV,4,4,13,31,07,200,39,0*5A
$GAGSV,3,1,11,01,56,341,,02,50,081,,03,05,110,,08,12,306,,0*74
$GAGSV,3,2,11,14,30,196,,15,69,127,,16,34,047,,17,03,308,,0*7F
$GAGSV,3,3,11,18,13,261,,19,08,212,,25,64,037,,0*4A
$GBGSV,2,1,08,01,35,126,,02,59,172,,04,37,126,,06,54,292,,0*7F
$GBGSV,2,2,08,08,51,296,,09,10,254,,13,65,011,,14,18,047,,0*7B
$GNGLL,,,,,140857.00,V,N*5B

$GNRMC,140858.00,V,,,,,,,260721,5.69,W,N,V*5A
$GNVTG,,,,,,,,,N*2E
$GNGGA,140858.00,,,,,0,00,99.99,,,,,,*78
$GNGSA,A,1,,,,,,,,,,,,,99.99,99.99,99.99,1*33
$GNGSA,A,1,,,,,,,,,,,,,99.99,99.99,99.99,3*31
$GNGSA,A,1,,,,,,,,,,,,,99.99,99.99,99.99,4*36
$GPGSV,4,1,13,03,31,315,,06,44,323,,10,,,39,16,73,273,,0*5E
$GPGSV,4,2,13,18,57,092,,19,05,295,,21,39,039,39,22,52,157,,0*6F
$GPGSV,4,3,13,24,01,053,39,25,01,310,,29,13,097,,30,,,39,0*51
$GPGSV,4,4,13,31,07,200,40,0*54
$GAGSV,3,1,11,01,56,341,,02,50,081,,03,05,110,,08,12,306,,0*74
$GAGSV,3,2,11,14,30,196,,15,69,127,,16,34,047,,17,03,308,,0*7F
$GAGSV,3,3,11,18,13,261,,19,08,212,,25,64,037,,0*4A
$GBGSV,2,1,08,01,35,126,,02,59,172,,04,37,126,,06,54,292,,0*7F
$GBGSV,2,2,08,08,51,296,,09,10,254,,13,65,011,,14,18,047,,0*7B
$GNGLL,,,,,140858.00,V,N*54

$GNRMC,140859.00,V,,,,,,,260721,5.69,W,N,V*5B
$GNVTG,,,,,,,,,N*2E
$GNGGA,140859.00,,,,,0,00,99.99,,,,,,*79
$GNGSA,A,1,,,,,,,,,,,,,99.99,99.99,99.99,1*33
$GNGSA,A,1,,,,,,,,,,,,,99.99,99.99,99.99,3*31
$GNGSA,A,1,,,,,,,,,,,,,99.99,99.99,99.99,4*36
$GPGSV,4,1,13,03,31,315,,06,44,323,,10,,,39,16,73,273,,0*5E
$GPGSV,4,2,13,18,57,092,,19,05,295,,21,39,039,39,22,52,157,,0*6F
$GPGSV,4,3,13,24,01,053,39,25,01,310,,29,13,097,,30,,,39,0*51
$GPGSV,4,4,13,31,07,200,40,0*54
$GAGSV,3,1,11,01,56,341,,02,50,081,,03,05,110,,08,12,306,,0*74
$GAGSV,3,2,11,14,30,196,,15,69,127,,16,34,047,,17,03,308,,0*7F
$GAGSV,3,3,11,18,13,261,,19,08,212,,25,64,037,,0*4A
$GBGSV,2,1,08,01,35,126,,02,59,172,,04,37,126,,06,54,292,,0*7F
$GBGSV,2,2,08,08,51,296,,09,10,254,,13,65,011,,14,18,047,,0*7B
$GNGLL,,,,,140859.00,V,N*55

$GNRMC,141003.00,A,3114.00017,N,12130.13228,E,141.405,269.97,010620,6.14,W,A,V*4E
$GNVTG,269.97,T,276.11,M,141.405,N,261.882,K,A*3F
$GNGGA,141003.00,3114.00017,N,12130.13228,E,1,05,1.19,39.0,M,9.9,M,,*49
$GNGSA,A,3,24,31,21,10,30,,,,,,,,2.00,1.19,1.61,1*09
$GNGSA,A,3,,,,,,,,,,,,,2.00,1.19,1.61,3*0E
$GNGSA,A,3,,,,,,,,,,,,,2.00,1.19,1.61,4*09
$GPGSV,3,1,10,02,,,39,05,,,39,09,,,39,10,11,107,39,0*5F
$GPGSV,3,2,10,12,,,39,14,,,39,21,16,201,39,24,53,172,39,0*60
$GPGSV,3,3,10,30,63,349,39,31,20,317,39,0*69
$GAGSV,2,1,05,08,,,40,17,,,40,18,,,40,19,,,40,0*7D
$GAGSV,2,2,05,25,,,40,0*72
$GBGSV,1,1,00,0*77
$GNGLL,3114.00017,N,12130.13228,E,141003.00,A,A*7A

$GNRMC,141004.00,A,3114.00019,N,12130.09079,E,114.718,269.95,010620,6.14,W,A,V*47
$GNVTG,269.95,T,276.09,M,114.718,N,212.458,K,A*34
$GNGGA,141004.00,3114.00019,N,12130.09079,E,1,05,1.19,39.0,M,9.9,M,,*4D
$GNGSA,A,3,24,31,21,10,30,,,,,,,,2.00,1.19,1.61,1*09
$GNGSA,A,3,,,,,,,,,,,,,2.00,1.19,1.61,3*0E
$GNGSA,A,3,,,,,,,,,,,,,2.00,1.19,1.61,4*09
$GPGSV,3,1,10,02,,,39,05,,,39,09,,,39,10,11,107,39,0*5F
$GPGSV,3,2,10,12,,,39,14,,,39,21,16,201,39,24,53,172,39,0*60
$GPGSV,3,3,10,30,63,349,39,31,20,317,39,0*69
$GAGSV,2,1,05,08,,,40,17,,,40,18,,,40,19,,,40,0*7D
$GAGSV,2,2,05,25,,,40,0*72
$GBGSV,1,1,00,0*77
$GNGLL,3114.00019,N,12130.09079,E,141004.00,A,A*7E

$GNRMC,141005.00,A,3114.00021,N,12130.05802,E,87.945,269.95,010620,6.14,W,A,V*78
$GNVTG,269.95,T,276.09,M,87.945,N,162.873,K,A*08
$GNGGA,141005.00,3114.00021,N,12130.05802,E,1,05,1.19,39.0,M,9.9,M,,*4F
$GNGSA,A,3,24,31,21,10,30,,,,,,,,2.00,1.19,1.61,1*09
$GNGSA,A,3,,,,,,,,,,,,,2.00,1.19,1.61,3*0E
$GNGSA,A,3,,,,,,,,,,,,,2.00,1.19,1.61,4*09
$GPGSV,3,1,10,02,,,39,05,,,39,09,,,39,10,11,107,39,0*5F
$GPGSV,3,2,10,12,,,39,14,,,39,21,16,201,39,24,53,172,39,0*60
$GPGSV,3,3,10,30,63,349,39,31,20,317,39,0*69
$GAGSV,2,1,05,08,,,40,17,,,40,18,,,40,19,,,40,0*7D
$GAGSV,2,2,05,25,,,40,0*72
$GBGSV,1,1,00,0*77
$GNGLL,3114.00021,N,12130.05802,E,141005.00,A,A*7C

$GNRMC,141006.00,A,3114.00019,N,12130.03393,E,61.191,269.92,010620,6.14,W,A,V*7B
$GNVTG,269.92,T,276.06,M,61.191,N,113.326,K,A*04
$GNGGA,141006.00,3114.00019,N,12130.03393,E,1,05,1.19,38.9,M,9.9,M,,*4A
$GNGSA,A,3,24,31,21,10,30,,,,,,,,2.00,1.19,1.61,1*09
$GNGSA,A,3,,,,,,,,,,,,,2.00,1.19,1.61,3*0E
$GNGSA,A,3,,,,,,,,,,,,,2.00,1.19,1.61,4*09
$GPGSV,3,1,10,02,,,39,05,,,39,09,,,39,10,11,107,39,0*5F
$GPGSV,3,2,10,12,,,39,14,,,39,21,16,201,39,24,53,172,39,0*60
$GPGSV,3,3,10,30,63,349,39,31,20,317,39,0*69
$GAGSV,2,1,05,08,,,40,17,,,40,18,,,40,19,,,40,0*7D
$GAGSV,2,2,05,25,,,40,0*72
$GBGSV,1,1,00,0*77
$GNGLL,3114.00019,N,12130.03393,E,141006.00,A,A*71

$GNRMC,141007.00,A,3114.00017,N,12130.01851,E,34.446,269.87,010620,6.14,W,A,V*78
$GNVTG,269.87,T,276.01,M,34.446,N,63.794,K,A*33
$GNGGA,141007.00,3114.00017,N,12130.01851,E,1,05,1.19,38.9,M,9.9,M,,*42
$GNGSA,A,3,24,31,21,10,30,,,,,,,,2.00,1.19,1.61,1*09
$GNGSA,A,3,,,,,,,,,,,,,2.00,1.19,1.61,3*0E
$GNGSA,A,3,,,,,,,,,,,,,2.00,1.19,1.61,4*09
$GPGSV,3,1,10,02,,,39,05,,,39,09,,,39,10,11,107,39,0*5F
$GPGSV,3,2,10,12,,,39,14,,,39,21,16,201,39,24,53,172,39,0*60
$GPGSV,3,3,10,30,63,349,39,31,20,317,39,0*69
$GAGSV,2,1,05,08,,,40,17,,,40,18,,,40,19,,,40,0*7D
$GAGSV,2,2,05,25,,,40,0*72
$GBGSV,1,1,00,0*77
$GNGLL,3114.00017,N,12130.01851,E,141007.00,A,A*79

$GNRMC,141008.00,A,3114.00044,N,12130.01044,E,16.481,277.56,010620,6.14,W,A,V*75
$GNVTG,277.56,T,283.70,M,16.481,N,30.524,K,A*38
$GNGGA,141008.00,3114.00044,N,12130.01044,E,1,05,1.19,38.9,M,9.9,M,,*47
$GNGSA,A,3,24,31,21,10,30,,,,,,,,2.00,1.19,1.61,1*09
$GNGSA,A,3,,,,,,,,,,,,,2.00,1.19,1.61,3*0E
$GNGSA,A,3,,,,,,,,,,,,,2.00,1.19,1.61,4*09
$GPGSV,3,1,10,02,,,39,05,,,39,09,,,39,10,11,107,39,0*5F
$GPGSV,3,2,10,12,,,39,14,,,39,21,16,201,39,24,53,172,39,0*60
$GPGSV,3,3,10,30,63,349,39,31,20,317,39,0*69
$GAGSV,2,1,05,08,,,40,17,,,40,18,,,40,19,,,40,0*7D
$GAGSV,2,2,05,25,,,40,0*72
$GBGSV,1,1,00,0*77
$GNGLL,3114.00044,N,12130.01044,E,141008.00,A,A*7C

$GNRMC,141009.00,A,3114.00192,N,12130.00563,E,16.191,301.44,010620,6.14,W,A,V*78
$GNVTG,301.44,T,307.59,M,16.191,N,29.985,K,A*36
$GNGGA,141009.00,3114.00192,N,12130.00563,E,1,05,1.19,39.0,M,9.9,M,,*45
$GNGSA,A,3,24,31,21,10,30,,,,,,,,2.00,1.19,1.61,1*09
$GNGSA,A,3,,,,,,,,,,,,,2.00,1.19,1.61,3*0E
$GNGSA,A,3,,,,,,,,,,,,,2.00,1.19,1.61,4*09
$GPGSV,3,1,10,02,,,39,05,,,39,09,,,39,10,11,107,39,0*5F
$GPGSV,3,2,10,12,,,39,14,,,39,21,16,201,39,24,53,172,39,0*60
$GPGSV,3,3,10,30,63,349,39,31,20,317,39,0*69
$GAGSV,2,1,05,08,,,40,17,,,40,18,,,40,19,,,40,0*7D
$GAGSV,2,2,05,25,,,40,0*72
$GBGSV,1,1,00,0*77
$GNGLL,3114.00192,N,12130.00563,E,141009.00,A,A*76

$GNRMC,141010.00,A,3114.00495,N,12130.00197,E,16.177,325.28,010620,6.14,W,A,V*79
$GNVTG,325.28,T,331.42,M,16.177,N,29.959,K,A*3C
$GNGGA,141010.00,3114.00495,N,12130.00197,E,1,05,1.19,38.9,M,9.9,M,,*48
$GNGSA,A,3,24,31,21,10,30,,,,,,,,2.00,1.19,1.61,1*09
$GNGSA,A,3,,,,,,,,,,,,,2.00,1.19,1.61,3*0E
$GNGSA,A,3,,,,,,,,,,,,,2.00,1.19,1.61,4*09
$GPGSV,3,1,10,02,,,39,05,,,39,09,,,39,10,11,107,39,0*5F
$GPGSV,3,2,10,12,,,39,14,,,39,21,16,201,39,24,53,172,39,0*60
$GPGSV,3,3,10,30,63,349,39,31,20,317,39,0*69
$GAGSV,2,1,05,08,,,40,17,,,40,18,,,40,19,,,40,0*7D
$GAGSV,2,2,05,25,,,40,0*72
$GBGSV,1,1,00,0*77
$GNGLL,3114.00495,N,12130.00197,E,141010.00,A,A*73

$GNRMC,141011.00,A,3114.00901,N,12130.00004,E,16.144,349.15,010620,6.14,W,A,V*77
$GNVTG,349.15,T,355.30,M,16.144,N,29.899,K,A*32
$GNGGA,141011.00,3114.00901,N,12130.00004,E,1,05,1.19,39.0,M,9.9,M,,*4A
$GNGSA,A,3,24,31,21,10,30,,,,,,,,2.00,1.19,1.61,1*09
$GNGSA,A,3,,,,,,,,,,,,,2.00,1.19,1.61,3*0E
$GNGSA,A,3,,,,,,,,,,,,,2.00,1.19,1.61,4*09
$GPGSV,3,1,10,02,,,39,05,,,39,09,,,39,10,11,107,39,0*5F
$GPGSV,3,2,10,12,,,39,14,,,39,21,16,201,39,24,53,172,39,0*60
$GPGSV,3,3,10,30,63,349,39,31,20,317,39,0*69
$GAGSV,2,1,05,08,,,40,17,,,40,18,,,40,19,,,40,0*7D
$GAGSV,2,2,05,25,,,40,0*72
$GBGSV,1,1,00,0*77
$GNGLL,3114.00901,N,12130.00004,E,141011.00,A,A*79

$GNRMC,141012.00,A,3114.01549,N,12129.99962,E,31.013,359.89,010620,6.14,W,A,V*76
$GNVTG,359.89,T,6.03,M,31.013,N,57.436,K,A*35
$GNGGA,141012.00,3114.01549,N,12129.99962,E,1,05,1.19,39.0,M,9.9,M,,*49
$GNGSA,A,3,24,31,21,10,30,,,,,,,,2.00,1.19,1.61,1*09
$GNGSA,A,3,,,,,,,,,,,,,2.00,1.19,1.61,3*0E
$GNGSA,A,3,,,,,,,,,,,,,2.00,1.19,1.61,4*09
$GPGSV,3,1,10,02,,,39,05,,,39,09,,,39,10,11,107,39,0*5F
$GPGSV,3,2,10,12,,,39,14,,,39,21,16,201,39,24,53,172,39,0*60
$GPGSV,3,3,10,30,63,349,39,31,20,317,39,0*69
$GAGSV,2,1,05,08,,,40,17,,,40,18,,,40,19,,,40,0*7D
$GAGSV,2,2,05,25,,,40,0*72
$GBGSV,1,1,00,0*77
$GNGLL,3114.01549,N,12129.99962,E,141012.00,A,A*7A

$GNRMC,141013.00,A,3114.02782,N,12129.99966,E,57.639,359.91,010620,6.14,W,A,V*72
$GNVTG,359.91,T,6.05,M,57.639,N,106.748,K,A*0B
$GNGGA,141013.00,3114.02782,N,12129.99966,E,1,05,1.19,39.0,M,9.9,M,,*4A
$GNGSA,A,3,24,31,21,10,30,,,,,,,,2.00,1.19,1.61,1*09
$GNGSA,A,3,,,,,,,,,,,,,2.00,1.19,1.61,3*0E
$GNGSA,A,3,,,,,,,,,,,,,2.00,1.19,1.61,4*09
$GPGSV,3,1,10,02,,,39,05,,,39,09,,,39,10,11,107,39,0*5F
$GPGSV,3,2,10,12,,,39,14,,,39,21,16,201,39,24,53,172,39,0*60
$GPGSV,3,3,10,30,63,349,39,31,20,317,39,0*69
$GAGSV,2,1,05,08,,,40,17,,,40,18,,,40,19,,,40,0*7D
$GAGSV,2,2,05,25,,,40,0*72
$GBGSV,1,1,00,0*77
$GNGLL,3114.02782,N,12129.99966,E,141013.00,A,A*79

$GNRMC,141014.00,A,3114.04761,N,12129.99969,E,84.447,359.94,010620,6.14,W,A,V*71
$GNVTG,359.94,T,6.08,M,84.447,N,156.395,K,A*07
$GNGGA,141014.00,3114.04761,N,12129.99969,E,1,05,1.19,39.0,M,9.9,M,,*49
$GNGSA,A,3,24,31,21,10,30,,,,,,,,2.00,1.19,1.61,1*09
$GNGSA,A,3,,,,,,,,,,,,,2.00,1.19,1.61,3*0E
$GNGSA,A,3,,,,,,,,,,,,,2.00,1.19,1.61,4*09
$GPGSV,3,1,10,02,,,39,05,,,39,09,,,39,10,11,107,39,0*5F
$GPGSV,3,2,10,12,,,39,14,,,39,21,16,201,39,24,53,172,39,0*60
$GPGSV,3,3,10,30,63,349,39,31,20,317,39,0*69
$GAGSV,2,1,05,08,,,40,17,,,40,18,,,40,19,,,40,0*7D
$GAGSV,2,2,05,25,,,40,0*72
$GBGSV,1,1,00,0*77
$GNGLL,3114.04761,N,12129.99969,E,141014.00,A,A*7A

$GNRMC,141015.00,A,3114.07487,N,12129.99973,E,111.189,359.96,010620,6.14,W,A,V*4B
$GNVTG,359.96,T,6.10,M,111.189,N,205.923,K,A*34
$GNGGA,141015.00,3114.07487,N,12129.99973,E,1,05,1.19,39.0,M,9.9,M,,*4B
$GNGSA,A,3,24,31,21,10,30,,,,,,,,2.00,1.19,1.61,1*09
$GNGSA,A,3,,,,,,,,,,,,,2.00,1.19,1.61,3*0E
$GNGSA,A,3,,,,,,,,,,,,,2.00,1.19,1.61,4*09
$GPGSV,3,1,10,02,,,39,05,,,39,09,,,40,10,11,107,39,0*51
$GPGSV,3,2,10,12,,,39,14,,,39,21,16,201,39,24,53,172,39,0*60
$GPGSV,3,3,10,30,63,349,39,31,20,317,39,0*69
$GAGSV,2,1,05,08,,,40,17,,,40,18,,,40,19,,,40,0*7D
$GAGSV,2,2,05,25,,,40,0*72
$GBGSV,1,1,00,0*77
$GNGLL,3114.07487,N,12129.99973,E,141015.00,A,A*78

$GNRMC,141016.00,A,3114.10958,N,12129.99977,E,137.922,359.96,010620,6.14,W,A,V*48
$GNVTG,359.96,T,6.10,M,137.922,N,255.432,K,A*31
$GNGGA,141016.00,3114.10958,N,12129.99977,E,1,05,1.19,39.0,M,9.9,M,,*45
$GNGSA,A,3,24,31,21,10,30,,,,,,,,2.00,1.19,1.61,1*09
$GNGSA,A,3,,,,,,,,,,,,,2.00,1.19,1.61,3*0E
$GNGSA,A,3,,,,,,,,,,,,,2.00,1.19,1.61,4*09
$GPGSV,3,1,10,02,,,39,05,,,39,09,,,39,10,11,107,39,0*5F
$GPGSV,3,2,10,12,,,39,14,,,39,21,16,201,39,24,53,172,40,0*6E
$GPGSV,3,3,10,30,63,349,39,31,20,317,39,0*69
$GAGSV,2,1,05,08,,,40,17,,,40,18,,,40,19,,,40,0*7D
$GAGSV,2,2,05,25,,,40,0*72
$GBGSV,1,1,00,0*77
$GNGLL,3114.10958,N,12129.99977,E,141016.00,A,A*76

$GNRMC,141017.00,A,3114.15134,N,12130.00015,E,161.480,359.98,010620,6.14,W,A,V*43
$GNVTG,359.98,T,6.12,M,161.480,N,299.062,K,A*3A
$GNGGA,141017.00,3114.15134,N,12130.00015,E,1,05,1.19,39.0,M,9.9,M,,*46
$GNGSA,A,3,24,31,21,10,30,,,,,,,,2.00,1.19,1.61,1*09
$GNGSA,A,3,,,,,,,,,,,,,2.00,1.19,1.61,3*0E
$GNGSA,A,3,,,,,,,,,,,,,2.00,1.19,1.61,4*09
$GPGSV,3,1,10,02,,,39,05,,,39,09,,,39,10,11,107,39,0*5F
$GPGSV,3,2,10,12,,,39,14,,,39,21,16,201,39,24,53,172,39,0*60
$GPGSV,3,3,10,30,63,349,39,31,20,317,39,0*69
$GAGSV,2,1,05,08,,,40,17,,,40,18,,,40,19,,,40,0*7D
$GAGSV,2,2,05,25,,,40,0*72
$GBGSV,1,1,00,0*77
$GNGLL,3114.15134,N,12130.00015,E,141017.00,A,A*75

$GNRMC,141018.00,A,3114.19633,N,12130.00006,E,161.975,0.00,010620,6.14,W,A,V*4B
$GNVTG,0.00,T,6.15,M,161.975,N,299.978,K,A*36
$GNGGA,141018.00,3114.19633,N,12130.00006,E,1,10,0.88,39.1,M,9.9,M,,*4B
$GNGSA,A,3,24,31,21,10,30,,,,,,,,1.61,0.88,1.35,1*05
$GNGSA,A,3,18,17,08,19,25,,,,,,,,1.61,0.88,1.35,3*0A
$GNGSA,A,3,,,,,,,,,,,,,1.61,0.88,1.35,4*05
$GPGSV,3,1,10,02,,,39,05,,,39,09,,,39,10,11,107,39,0*5F
$GPGSV,3,2,10,12,,,39,14,,,39,21,16,201,39,24,53,172,39,0*60
$GPGSV,3,3,10,30,63,349,39,31,20,317,39,0*69
$GAGSV,2,1,05,08,56,302,40,17,46,297,40,18,55,205,40,19,14,165,40,0*71
$GAGSV,2,2,05,25,24,054,40,0*45
$GBGSV,1,1,00,0*77
$GNGLL,3114.19633,N,12130.00006,E,141018.00,A,A*74

$GNRMC,141019.00,A,3114.24136,N,12130.00006,E,161.995,0.01,010620,6.14,W,A,V*49
$GNVTG,0.01,T,6.15,M,161.995,N,300.014,K,A*3B
$GNGGA,141019.00,3114.24136,N,12130.00006,E,1,10,0.88,39.2,M,9.9,M,,*45
$GNGSA,A,3,24,31,21,10,30,,,,,,,,1.61,0.88,1.35,1*05
$GNGSA,A,3,18,17,08,19,25,,,,,,,,1.61,0.88,1.35,3*0A
$GNGSA,A,3,,,,,,,,,,,,,1.61,0.88,1.35,4*05
$GPGSV,3,1,10,02,,,39,05,,,39,09,,,39,10,11,107,39,0*5F
$GPGSV,3,2,10,12,,,39,14,,,40,21,16,201,39,24,53,172,39,0*6E
$GPGSV,3,3,10,30,63,349,39,31,20,317,39,0*69
$GAGSV,2,1,05,08,56,302,40,17,46,297,40,18,55,205,40,19,14,165,40,0*71
$GAGSV,2,2,05,25,24,054,40,0*45
$GBGSV,1,1,00,0*77
$GNGLL,3114.24136,N,12130.00006,E,141019.00,A,A*79

$GNRMC,141020.00,A,3114.28641,N,12130.00011,E,161.981,0.00,010620,6.14,W,A,V*4A
$GNVTG,0.00,T,6.14,M,161.981,N,299.989,K,A*32
$GNGGA,141020.00,3114.28641,N,12130.00011,E,1,10,0.88,39.2,M,9.9,M,,*42
$GNGSA,A,3,24,31,21,10,30,,,,,,,,1.61,0.88,1.35,1*05
$GNGSA,A,3,18,17,08,19,25,,,,,,,,1.61,0.88,1.35,3*0A
$GNGSA,A,3,,,,,,,,,,,,,1.61,0.88,1.35,4*05
$GPGSV,3,1,10,02,,,39,05,,,39,09,,,39,10,11,107,39,0*5F
$GPGSV,3,2,10,12,,,39,14,,,39,21,16,201,39,24,53,172,39,0*60
$GPGSV,3,3,10,30,63,349,39,31,20,317,39,0*69
$GAGSV,2,1,05,08,56,302,40,17,46,297,40,18,55,205,40,19,14,165,40,0*71
$GAGSV,2,2,05,25,24,054,40,0*45
$GBGSV,1,1,00,0*77
$GNGLL,3114.28641,N,12130.00011,E,141020.00,A,A*7E

$GNRMC,141021.00,A,3114.33145,N,12130.00011,E,161.989,0.00,010620,6.14,W,A,V*4A
$GNVTG,0.00,T,6.14,M,161.989,N,300.003,K,A*30
$GNGGA,141021.00,3114.33145,N,12130.00011,E,1,10,0.88,39.3,M,9.9,M,,*4B
$GNGSA,A,3,24,31,21,10,30,,,,,,,,1.61,0.88,1.35,1*05
$GNGSA,A,3,18,17,08,19,25,,,,,,,,1.61,0.88,1.35,3*0A
$GNGSA,A,3,,,,,,,,,,,,,1.61,0.88,1.35,4*05
$GPGSV,3,1,10,02,,,39,05,,,39,09,,,39,10,11,107,39,0*5F
$GPGSV,3,2,10,12,,,39,14,,,39,21,16,201,39,24,53,172,39,0*60
$GPGSV,3,3,10,30,63,349,39,31,20,317,39,0*69
$GAGSV,2,1,05,08,56,302,40,17,46,297,40,18,55,205,40,19,14,165,40,0*71
$GAGSV,2,2,05,25,24,054,40,0*45
$GBGSV,1,1,00,0*77
$GNGLL,3114.33145,N,12130.00011,E,141021.00,A,A*76

$GNRMC,141022.00,A,3114.37552,N,12130.00010,E,153.884,0.00,010620,6.14,W,A,V*43
$GNVTG,0.00,T,6.14,M,153.884,N,284.994,K,A*37
$GNGGA,141022.00,3114.37552,N,12130.00010,E,1,10,0.88,39.3,M,9.9,M,,*4F
$GNGSA,A,3,24,31,21,10,30,,,,,,,,1.61,0.88,1.35,1*05
$GNGSA,A,3,18,17,08,19,25,,,,,,,,1.61,0.88,1.35,3*0A
$GNGSA,A,3,,,,,,,,,,,,,1.61,0.88,1.35,4*05
$GPGSV,3,1,10,02,,,39,05,,,39,09,,,39,10,11,107,39,0*5F
$GPGSV,3,2,10,12,,,39,14,,,39,21,16,201,39,24,53,172,39,0*60
$GPGSV,3,3,10,30,63,349,39,31,20,317,40,0*67
$GAGSV,2,1,05,08,56,302,40,17,46,297,40,18,55,205,40,19,14,165,40,0*71
$GAGSV,2,2,05,25,24,054,40,0*45
$GBGSV,1,1,00,0*77
$GNGLL,3114.37552,N,12130.00010,E,141022.00,A,A*72

$GNRMC,141023.00,A,3114.41470,N,12130.00011,E,127.331,0.01,010620,6.14,W,A,V*44
$GNVTG,0.01,T,6.16,M,127.331,N,235.816,K,A*33
$GNGGA,141023.00,3114.41470,N,12130.00011,E,1,10,0.88,39.3,M,9.9,M,,*4F
$GNGSA,A,3,24,31,21,10,30,,,,,,,,1.61,0.88,1.35,1*05
$GNGSA,A,3,18,17,08,19,25,,,,,,,,1.61,0.88,1.35,3*0A
$GNGSA,A,3,,,,,,,,,,,,,1.61,0.88,1.35,4*05
$GPGSV,3,1,10,02,,,39,05,,,39,09,,,40,10,11,107,39,0*51
$GPGSV,3,2,10,12,,,39,14,,,39,21,16,201,39,24,53,172,39,0*60
$GPGSV,3,3,10,30,63,349,39,31,20,317,39,0*69
$GAGSV,2,1,05,08,56,302,40,17,46,297,40,18,55,205,40,19,14,165,40,0*71
$GAGSV,2,2,05,25,24,054,40,0*45
$GBGSV,1,1,00,0*77
$GNGLL,3114.41470,N,12130.00011,E,141023.00,A,A*72

$GNRMC,141024.00,A,3114.44644,N,12130.00013,E,100.595,0.01,010620,6.14,W,A,V*4C
$GNVTG,0.01,T,6.15,M,100.595,N,186.302,K,A*38
$GNGGA,141024.00,3114.44644,N,12130.00013,E,1,11,0.84,39.4,M,9.9,M,,*40
$GNGSA,A,3,24,31,21,10,30,05,,,,,,,1.46,0.84,1.20,1*0D
$GNGSA,A,3,18,17,08,19,25,,,,,,,,1.46,0.84,1.20,3*07
$GNGSA,A,3,,,,,,,,,,,,,1.46,0.84,1.20,4*08
$GPGSV,3,1,10,02,,,39,05,67,060,39,09,,,39,10,11,107,39,0*68
$GPGSV,3,2,10,12,,,39,14,,,39,21,16,201,39,24,53,172,39,0*60
$GPGSV,3,3,10,30,63,349,39,31,20,317,39,0*69
$GAGSV,2,1,06,08,56,302,40,15,19,084,,17,46,297,40,18,55,205,40,0*79
$GAGSV,2,2,06,19,14,165,40,25,24,054,40,0*7D
$GBGSV,1,1,00,0*77
$GNGLL,3114.44644,N,12130.00013,E,141024.00,A,A*77

$GNRMC,141025.00,A,3114.47072,N,12130.00016,E,73.839,0.00,010620,6.14,W,A,V*77
$GNVTG,0.00,T,6.15,M,73.839,N,136.750,K,A*0F
$GNGGA,141025.00,3114.47072,N,12130.00016,E,1,11,0.84,39.5,M,9.9,M,,*45
$GNGSA,A,3,24,31,21,10,30,05,,,,,,,1.46,0.84,1.20,1*0D
$GNGSA,A,3,18,17,08,19,25,,,,,,,,1.46,0.84,1.20,3*07
$GNGSA,A,3,,,,,,,,,,,,,1.46,0.84,1.20,4*08
$GPGSV,3,1,10,02,,,39,05,67,060,39,09,,,39,10,11,107,39,0*68
$GPGSV,3,2,10,12,,,39,14,,,39,21,16,201,39,24,53,172,39,0*60
$GPGSV,3,3,10,30,63,349,39,31,20,317,39,0*69
$GAGSV,2,1,06,08,56,302,40,15,19,084,40,17,46,297,40,18,55,205,40,0*7D
$GAGSV,2,2,06,19,14,165,40,25,24,054,40,0*7D
$GBGSV,1,1,00,0*77
$GNGLL,3114.47072,N,12130.00016,E,141025.00,A,A*73

$GNRMC,141026.00,A,3114.48756,N,12130.00019,E,47.086,0.03,010620,6.14,W,A,V*7D
$GNVTG,0.03,T,6.18,M,47.086,N,87.203,K,A*32
$GNGGA,141026.00,3114.48756,N,12130.00019,E,1,11,0.84,39.5,M,9.9,M,,*47
$GNGSA,A,3,24,31,21,10,30,05,,,,,,,1.46,0.84,1.20,1*0D
$GNGSA,A,3,18,17,08,19,25,,,,,,,,1.46,0.84,1.20,3*07
$GNGSA,A,3,,,,,,,,,,,,,1.46,0.84,1.20,4*08
$GPGSV,3,1,10,02,,,39,05,67,060,40,09,,,39,10,11,107,39,0*66
$GPGSV,3,2,10,12,,,39,14,,,39,21,16,201,39,24,53,172,39,0*60
$GPGSV,3,3,10,30,63,349,39,31,20,317,39,0*69
$GAGSV,2,1,06,08,56,302,40,15,19,084,40,17,46,297,40,18,55,205,40,0*7D
$GAGSV,2,2,06,19,14,165,40,25,24,054,40,0*7D
$GBGSV,1,1,00,0*77
$GNGLL,3114.48756,N,12130.00019,E,141026.00,A,A*71

$GNRMC,141027.00,A,3114.49695,N,12130.00021,E,20.318,0.07,010620,6.14,W,A,V*79
$GNVTG,0.07,T,6.22,M,20.318,N,37.629,K,A*3D
$GNGGA,141027.00,3114.49695,N,12130.00021,E,1,11,0.84,39.6,M,9.9,M,,*41
$GNGSA,A,3,24,31,21,10,30,05,,,,,,,1.46,0.84,1.20,1*0D
$GNGSA,A,3,18,17,08,19,25,,,,,,,,1.46,0.84,1.20,3*07
$GNGSA,A,3,,,,,,,,,,,,,1.46,0.84,1.20,4*08
$GPGSV,3,1,10,02,,,39,05,67,060,39,09,,,39,10,11,107,39,0*68
$GPGSV,3,2,10,12,,,39,14,,,39,21,16,201,39,24,53,172,39,0*60
$GPGSV,3,3,10,30,63,349,39,31,20,317,39,0*69
$GAGSV,2,1,06,08,56,302,40,15,19,084,40,17,46,297,40,18,55,205,40,0*7D
$GAGSV,2,2,06,19,14,165,40,25,24,054,40,0*7D
$GBGSV,1,1,00,0*77
$GNGLL,3114.49695,N,12130.00021,E,141027.00,A,A*74

$GNRMC,141028.00,A,3114.50188,N,12130.00114,E,16.184,20.21,010620,6.14,W,A,V*46
$GNVTG,20.21,T,26.35,M,16.184,N,29.972,K,A*33
$GNGGA,141028.00,3114.50188,N,12130.00114,E,1,11,0.84,39.6,M,9.9,M,,*4A
$GNGSA,A,3,24,31,21,10,30,05,,,,,,,1.46,0.84,1.20,1*0D
$GNGSA,A,3,18,17,08,19,25,,,,,,,,1.46,0.84,1.20,3*07
$GNGSA,A,3,,,,,,,,,,,,,1.46,0.84,1.20,4*08
$GPGSV,3,1,10,02,,,39,05,67,060,39,09,,,39,10,11,107,39,0*68
$GPGSV,3,2,10,12,,,39,14,,,39,21,16,201,39,24,53,172,39,0*60
$GPGSV,3,3,10,30,63,349,39,31,20,317,39,0*69
$GAGSV,2,1,07,07,,,40,08,56,302,40,15,19,084,40,17,46,297,40,0*45
$GAGSV,2,2,07,18,55,205,40,19,14,165,40,25,24,054,40,0*46
$GBGSV,1,1,00,0*77
$GNGLL,3114.50188,N,12130.00114,E,141028.00,A,A*7F

$GNRMC,141029.00,A,3114.50560,N,12130.00387,E,16.178,44.16,010620,6.14,W,A,V*48
$GNVTG,44.16,T,50.31,M,16.178,N,29.962,K,A*32
$GNGGA,141029.00,3114.50560,N,12130.00387,E,1,12,0.72,39.5,M,9.9,M,,*48
$GNGSA,A,3,24,31,21,10,12,30,09,14,05,,,,1.26,0.72,1.04,1*0B
$GNGSA,A,3,18,17,08,19,25,,,,,,,,1.26,0.72,1.04,3*0E
$GNGSA,A,3,,,,,,,,,,,,,1.26,0.72,1.04,4*01
$GPGSV,3,1,10,02,,,39,05,67,060,39,09,27,167,39,10,11,107,39,0*5D
$GPGSV,3,2,10,12,57,075,39,14,12,261,39,21,16,201,39,24,53,172,39,0*66
$GPGSV,3,3,10,30,63,349,39,31,20,317,39,0*69
$GAGSV,2,1,07,07,,,40,08,56,302,40,15,19,084,40,17,46,297,40,0*45
$GAGSV,2,2,07,18,55,205,40,19,14,165,40,25,24,054,40,0*46
$GBGSV,1,1,00,0*77
$GNGLL,3114.50560,N,12130.00387,E,141029.00,A,A*74

$GNRMC,141030.00,A,3114.50806,N,12130.00815,E,16.178,67.97,010620,6.14,W,A,V*45
$GNVTG,67.97,T,74.12,M,16.178,N,29.962,K,A*3D
$GNGGA,141030.00,3114.50806,N,12130.00815,E,1,12,0.68,39.5,M,9.9,M,,*46
$GNGSA,A,3,24,31,21,10,12,30,02,09,14,05,,,1.23,0.68,1.02,1*01
$GNGSA,A,3,18,17,08,19,25,,,,,,,,1.23,0.68,1.02,3*06
$GNGSA,A,3,,,,,,,,,,,,,1.23,0.68,1.02,4*09
$GPGSV,3,1,10,02,31,047,39,05,67,060,39,09,27,167,39,10,11,107,39,0*6C
$GPGSV,3,2,10,12,57,075,39,14,12,261,39,21,16,201,39,24,53,172,39,0*66
$GPGSV,3,3,10,30,63,349,39,31,20,317,39,0*69
$GAGSV,2,1,07,07,,,40,08,56,302,40,15,19,084,40,17,46,297,40,0*45
$GAGSV,2,2,07,18,55,205,40,19,14,165,40,25,24,054,40,0*46
$GBGSV,1,1,00,0*77
$GNGLL,3114.50806,N,12130.00815,E,141030.00,A,A*71

$GNRMC,141031.00,A,3114.50891,N,12130.01359,E,18.825,89.54,010620,6.14,W,A,V*48
$GNVTG,89.54,T,95.69,M,18.825,N,34.864,K,A*35
$GNGGA,141031.00,3114.50891,N,12130.01359,E,1,12,0.68,39.5,M,9.9,M,,*4B
$GNGSA,A,3,24,31,21,10,12,30,02,09,14,05,,,1.23,0.68,1.02,1*01
$GNGSA,A,3,18,17,08,19,25,,,,,,,,1.23,0.68,1.02,3*06
$GNGSA,A,3,,,,,,,,,,,,,1.23,0.68,1.02,4*09
$GPGSV,3,1,10,02,31,047,39,05,67,060,39,09,27,167,39,10,11,107,39,0*6C
$GPGSV,3,2,10,12,57,075,39,14,12,261,39,21,16,201,39,24,53,172,39,0*66
$GPGSV,3,3,10,30,63,349,39,31,20,317,39,0*69
$GAGSV,2,1,07,07,,,40,08,56,302,40,15,19,084,40,17,46,297,40,0*45
$GAGSV,2,2,07,18,55,205,40,19,14,165,40,25,24,054,40,0*46
$GBGSV,1,1,00,0*77
$GNGLL,3114.50891,N,12130.01359,E,141031.00,A,A*7C

$GNRMC,141032.00,A,3114.50892,N,12130.02392,E,45.000,89.99,010620,6.14,W,A,V*4A
$GNVTG,89.99,T,96.14,M,45.000,N,83.340,K,A*3B
$GNGGA,141032.00,3114.50892,N,12130.02392,E,1,12,0.68,39.5,M,9.9,M,,*4F
$GNGSA,A,3,24,31,21,10,12,30,02,09,14,05,,,1.23,0.68,1.02,1*01
$GNGSA,A,3,18,17,08,19,25,,,,,,,,1.23,0.68,1.02,3*06
$GNGSA,A,3,,,,,,,,,,,,,1.23,0.68,1.02,4*09
$GPGSV,3,1,10,02,31,047,39,05,67,060,39,09,27,167,39,10,11,107,39,0*6C
$GPGSV,3,2,10,12,57,075,39,14,12,261,39,21,16,201,40,24,53,172,40,0*66
$GPGSV,3,3,10,30,63,349,39,31,20,317,39,0*69
$GAGSV,2,1,07,07,,,40,08,56,302,40,15,19,084,40,17,46,297,40,0*45
$GAGSV,2,2,07,18,55,205,40,19,14,165,40,25,24,054,40,0*46
$GBGSV,1,1,00,0*77
$GNGLL,3114.50892,N,12130.02392,E,141032.00,A,A*78

$GNRMC,141033.00,A,3114.50892,N,12130.04282,E,71.753,90.01,010620,6.14,W,A,V*42
$GNVTG,90.01,T,96.15,M,71.753,N,132.886,K,A*0F
$GNGGA,141033.00,3114.50892,N,12130.04282,E,1,12,0.68,39.5,M,9.9,M,,*48
$GNGSA,A,3,24,31,21,10,12,30,02,09,14,05,,,1.23,0.68,1.02,1*01
$GNGSA,A,3,18,17,08,19,25,,,,,,,,1.23,0.68,1.02,3*06
$GNGSA,A,3,,,,,,,,,,,,,1.23,0.68,1.02,4*09
$GPGSV,3,1,10,02,31,047,39,05,67,060,39,09,27,167,39,10,11,107,39,0*6C
$GPGSV,3,2,10,12,57,075,39,14,12,261,39,21,16,201,39,24,53,172,39,0*66
$GPGSV,3,3,10,30,63,349,39,31,20,317,39,0*69
$GAGSV,2,1,07,07,,,40,08,56,302,40,15,19,084,40,17,46,297,40,0*45
$GAGSV,2,2,07,18,55,205,40,19,14,165,40,25,24,054,40,0*46
$GBGSV,1,1,00,0*77
$GNGLL,3114.50892,N,12130.04282,E,141033.00,A,A*7F

$GNRMC,141034.00,A,3114.50892,N,12130.07040,E,98.496,89.99,010620,6.14,W,A,V*4E
$GNVTG,89.99,T,96.13,M,98.496,N,182.415,K,A*00
$GNGGA,141034.00,3114.50892,N,12130.07040,E,1,12,0.68,39.5,M,9.9,M,,*40
$GNGSA,A,3,24,31,21,10,12,30,02,09,14,05,,,1.23,0.68,1.02,1*01
$GNGSA,A,3,18,17,08,19,25,,,,,,,,1.23,0.68,1.02,3*06
$GNGSA,A,3,,,,,,,,,,,,,1.23,0.68,1.02,4*09
$GPGSV,3,1,10,02,31,047,39,05,67,060,39,09,27,167,39,10,11,107,39,0*6C
$GPGSV,3,2,10,12,57,075,39,14,12,261,39,21,16,201,39,24,53,172,39,0*66
$GPGSV,3,3,10,30,63,349,39,31,20,317,39,0*69
$GAGSV,2,1,07,07,,,40,08,56,302,40,15,19,084,40,17,46,297,40,0*45
$GAGSV,2,2,07,18,55,205,40,19,14,165,40,25,24,054,40,0*46
$GBGSV,1,1,00,0*77
$GNGLL,3114.50892,N,12130.07040,E,141034.00,A,A*77

$GNRMC,141035.00,A,3114.50891,N,12130.10666,E,125.246,89.99,010620,6.14,W,A,V*74
$GNVTG,89.99,T,96.14,M,125.246,N,231.956,K,A*3A
$GNGGA,141035.00,3114.50891,N,12130.10666,E,1,12,0.68,39.5,M,9.9,M,,*46
$GNGSA,A,3,24,31,21,10,12,30,02,09,14,05,,,1.23,0.68,1.02,1*01
$GNGSA,A,3,18,17,08,19,25,,,,,,,,1.23,0.68,1.02,3*06
$GNGSA,A,3,,,,,,,,,,,,,1.23,0.68,1.02,4*09
$GPGSV,3,1,10,02,31,047,39,05,67,060,39,09,27,167,39,10,11,107,39,0*6C
$GPGSV,3,2,10,12,57,075,39,14,12,261,39,21,16,201,39,24,53,172,39,0*66
$GPGSV,3,3,10,30,63,349,39,31,20,317,39,0*69
$GAGSV,2,1,07,07,,,40,08,56,302,40,15,19,084,40,17,46,297,40,0*45
$GAGSV,2,2,07,18,55,205,40,19,14,165,40,25,24,054,40,0*46
$GBGSV,1,1,00,0*77
$GNGLL,3114.50891,N,12130.10666,E,141035.00,A,A*71

$GNRMC,141036.00,A,3114.50891,N,12130.15158,E,151.992,89.99,010620,6.14,W,A,V*79
$GNVTG,89.99,T,96.14,M,151.992,N,281.489,K,A*3F
$GNGGA,141036.00,3114.50891,N,12130.15158,E,1,12,0.68,39.5,M,9.9,M,,*4A
$GNGSA,A,3,24,31,21,10,12,30,02,09,14,05,,,1.23,0.68,1.02,1*01
$GNGSA,A,3,18,17,08,19,25,,,,,,,,1.23,0.68,1.02,3*06
$GNGSA,A,3,,,,,,,,,,,,,1.23,0.68,1.02,4*09
$GPGSV,3,1,10,02,31,047,39,05,67,060,39,09,27,167,39,10,11,107,39,0*6C
$GPGSV,3,2,10,12,57,075,39,14,12,261,39,21,16,201,39,24,53,172,39,0*66
$GPGSV,3,3,10,30,63,349,39,31,20,317,39,0*69
$GAGSV,2,1,07,07,,,40,08,56,302,40,15,19,084,40,17,46,297,40,0*45
$GAGSV,2,2,07,18,55,205,40,19,14,165,40,25,24,054,40,0*46
$GBGSV,1,1,00,0*77
$GNGLL,3114.50891,N,12130.15158,E,141036.00,A,A*7D

$GNRMC,141037.00,A,3114.50891,N,12130.20252,E,161.949,90.00,010620,6.14,W,A,V*7A
$GNVTG,90.00,T,96.14,M,161.949,N,299.930,K,A*34
$GNGGA,141037.00,3114.50891,N,12130.20252,E,1,12,0.68,39.5,M,9.9,M,,*44
$GNGSA,A,3,24,31,21,10,12,30,02,09,14,05,,,1.23,0.68,1.02,1*01
$GNGSA,A,3,18,17,08,19,25,,,,,,,,1.23,0.68,1.02,3*06
$GNGSA,A,3,,,,,,,,,,,,,1.23,0.68,1.02,4*09
$GPGSV,3,1,10,02,31,047,39,05,67,060,39,09,27,167,39,10,11,107,39,0*6C
$GPGSV,3,2,10,12,57,075,39,14,12,261,39,21,16,201,39,24,53,172,39,0*66
$GPGSV,3,3,10,30,63,349,39,31,20,317,39,0*69
$GAGSV,2,1,07,07,,,40,08,56,302,40,15,19,084,40,17,46,297,40,0*45
$GAGSV,2,2,07,18,55,205,40,19,14,165,40,25,24,054,40,0*46
$GBGSV,1,1,00,0*77
$GNGLL,3114.50891,N,12130.20252,E,141037.00,A,A*73

$GNRMC,141038.00,A,3114.50891,N,12130.25505,E,161.989,90.00,010620,6.14,W,A,V*79
$GNVTG,90.00,T,96.14,M,161.989,N,300.004,K,A*37
$GNGGA,141038.00,3114.50891,N,12130.25505,E,1,12,0.68,39.5,M,9.9,M,,*4B
$GNGSA,A,3,24,31,21,10,12,30,02,09,14,05,,,1.23,0.68,1.02,1*01
$GNGSA,A,3,18,17,08,19,25,,,,,,,,1.23,0.68,1.02,3*06
$GNGSA,A,3,,,,,,,,,,,,,1.23,0.68,1.02,4*09
$GPGSV,3,1,10,02,31,047,39,05,67,060,39,09,27,167,39,10,11,107,39,0*6C
$GPGSV,3,2,10,12,57,075,39,14,12,261,39,21,16,201,39,24,53,172,39,0*66
$GPGSV,3,3,10,30,63,349,39,31,20,317,39,0*69
$GAGSV,2,1,07,07,,,40,08,56,302,40,15,19,084,40,17,46,297,40,0*45
$GAGSV,2,2,07,18,55,205,40,19,14,165,40,25,24,054,40,0*46
$GBGSV,1,1,00,0*77
$GNGLL,3114.50891,N,12130.25505,E,141038.00,A,A*7C

$GNRMC,141039.00,A,3114.50891,N,12130.30759,E,161.992,90.00,010620,6.15,W,A,V*7C
$GNVTG,90.00,T,96.15,M,161.992,N,300.009,K,A*31
$GNGGA,141039.00,3114.50891,N,12130.30759,E,1,12,0.68,39.4,M,9.9,M,,*44
$GNGSA,A,3,24,31,21,10,12,30,02,09,14,05,,,1.23,0.68,1.02,1*01
$GNGSA,A,3,18,17,08,19,25,,,,,,,,1.23,0.68,1.02,3*06
$GNGSA,A,3,,,,,,,,,,,,,1.23,0.68,1.02,4*09
$GPGSV,3,1,10,02,31,047,39,05,67,060,39,09,27,167,39,10,11,107,39,0*6C
$GPGSV,3,2,10,12,57,075,39,14,12,261,39,21,16,201,39,24,53,172,39,0*66
$GPGSV,3,3,10,30,63,349,39,31,20,317,39,0*69
$GAGSV,2,1,07,07,,,40,08,56,302,40,15,19,084,40,17,46,297,40,0*45
$GAGSV,2,2,07,18,55,205,40,19,14,165,40,25,24,054,40,0*46
$GBGSV,1,1,00,0*77
$GNGLL,3114.50891,N,12130.30759,E,141039.00,A,A*72

$GNRMC,141040.00,A,3114.50890,N,12130.36012,E,161.999,90.00,010620,6.15,W,A,V*76
$GNVTG,90.00,T,96.15,M,161.999,N,300.021,K,A*30
$GNGGA,141040.00,3114.50890,N,12130.36012,E,1,12,0.68,39.4,M,9.9,M,,*45
$GNGSA,A,3,24,31,21,10,12,30,02,09,14,05,,,1.23,0.68,1.02,1*01
$GNGSA,A,3,18,17,08,19,25,,,,,,,,1.23,0.68,1.02,3*06
$GNGSA,A,3,,,,,,,,,,,,,1.23,0.68,1.02,4*09
$GPGSV,3,1,10,02,31,047,39,05,67,060,39,09,27,167,39,10,11,107,39,0*6C
$GPGSV,3,2,10,12,57,075,39,14,12,261,39,21,16,201,39,24,53,172,39,0*66
$GPGSV,3,3,10,30,63,349,39,31,20,317,39,0*69
$GAGSV,2,1,07,07,,,40,08,56,302,40,15,19,084,40,17,46,297,40,0*45
$GAGSV,2,2,07,18,55,205,40,19,14,165,40,25,24,054,40,0*46
$GBGSV,1,1,00,0*77
$GNGLL,3114.50890,N,12130.36012,E,141040.00,A,A*73

$GNRMC,141041.00,A,3114.50890,N,12130.41264,E,161.982,90.00,010620,6.15,W,A,V*7E
$GNVTG,90.00,T,96.15,M,161.982,N,299.991,K,A*39
$GNGGA,141041.00,3114.50890,N,12130.41264,E,1,12,0.68,39.4,M,9.9,M,,*47
$GNGSA,A,3,24,31,21,10,12,30,02,09,14,05,,,1.23,0.68,1.02,1*01
$GNGSA,A,3,18,17,08,19,25,,,,,,,,1.23,0.68,1.02,3*06
$GNGSA,A,3,,,,,,,,,,,,,1.23,0.68,1.02,4*09
$GPGSV,3,1,10,02,31,047,39,05,67,060,39,09,27,167,39,10,11,107,39,0*6C
$GPGSV,3,2,10,12,57,075,39,14,12,261,39,21,16,201,39,24,53,172,39,0*66
$GPGSV,3,3,10,30,63,349,39,31,20,317,39,0*69
$GAGSV,2,1,07,07,,,40,08,56,302,40,15,19,084,40,17,46,297,40,0*45
$GAGSV,2,2,07,18,55,205,40,19,14,165,40,25,24,054,40,0*46
$GBGSV,1,1,00,0*77
$GNGLL,3114.50890,N,12130.41264,E,141041.00,A,A*71

$GNRMC,141042.00,A,3114.50889,N,12130.46516,E,161.990,90.00,010620,6.15,W,A,V*73
$GNVTG,90.00,T,96.15,M,161.990,N,300.006,K,A*3C
$GNGGA,141042.00,3114.50889,N,12130.46516,E,1,12,0.68,39.5,M,9.9,M,,*48
$GNGSA,A,3,24,31,21,10,12,30,02,09,14,05,,,1.23,0.68,1.02,1*01
$GNGSA,A,3,18,17,08,19,25,,,,,,,,1.23,0.68,1.02,3*06
$GNGSA,A,3,,,,,,,,,,,,,1.23,0.68,1.02,4*09
$GPGSV,3,1,10,02,31,047,39,05,67,060,39,09,27,167,39,10,11,107,39,0*6C
$GPGSV,3,2,10,12,57,075,39,14,12,261,40,21,16,201,39,24,53,172,39,0*68
$GPGSV,3,3,10,30,63,349,39,31,20,317,39,0*69
$GAGSV,2,1,07,07,,,40,08,56,302,40,15,19,084,40,17,46,297,40,0*45
$GAGSV,2,2,07,18,54,205,40,19,14,165,40,25,24,054,40,0*47
$GBGSV,1,1,00,0*77
$GNGLL,3114.50889,N,12130.46516,E,141042.00,A,A*7F

$GNRMC,141043.00,A,3114.50888,N,12130.51767,E,161.994,90.01,010620,6.15,W,A,V*74
$GNVTG,90.01,T,96.15,M,161.994,N,300.013,K,A*3D
$GNGGA,141043.00,3114.50888,N,12130.51767,E,1,12,0.68,39.5,M,9.9,M,,*4A
$GNGSA,A,3,24,31,21,10,12,30,02,09,14,05,,,1.23,0.68,1.02,1*01
$GNGSA,A,3,18,17,08,19,25,,,,,,,,1.23,0.68,1.02,3*06
$GNGSA,A,3,,,,,,,,,,,,,1.23,0.68,1.02,4*09
$GPGSV,3,1,10,02,31,047,39,05,67,060,39,09,27,167,39,10,11,107,39,0*6C
$GPGSV,3,2,10,12,57,075,39,14,12,261,39,21,16,201,39,24,53,172,39,0*66
$GPGSV,3,3,10,30,63,349,39,31,20,317,39,0*69
$GAGSV,2,1,07,07,,,40,08,56,302,40,15,19,084,40,17,46,297,40,0*45
$GAGSV,2,2,07,18,54,205,40,19,14,165,40,25,24,054,40,0*47
$GBGSV,1,1,00,0*77
$GNGLL,3114.50888,N,12130.51767,E,141043.00,A,A*7D

$GNRMC,141044.00,A,3114.50886,N,12130.57019,E,162.005,90.01,010620,6.15,W,A,V*77
$GNVTG,90.01,T,96.15,M,162.005,N,300.033,K,A*3D
$GNGGA,141044.00,3114.50886,N,12130.57019,E,1,12,0.68,39.5,M,9.9,M,,*4B
$GNGSA,A,3,24,31,21,10,12,30,02,09,14,05,,,1.23,0.68,1.02,1*01
$GNGSA,A,3,18,17,08,19,25,,,,,,,,1.23,0.68,1.02,3*06
$GNGSA,A,3,,,,,,,,,,,,,1.23,0.68,1.02,4*09
$GPGSV,3,1,10,02,31,047,39,05,67,060,39,09,27,167,39,10,11,107,39,0*6C
$GPGSV,3,2,10,12,57,075,39,14,12,261,39,21,16,201,39,24,53,172,39,0*66
$GPGSV,3,3,10,30,63,349,39,31,20,317,39,0*69
$GAGSV,2,1,07,07,,,40,08,56,302,40,15,19,084,40,17,46,297,40,0*45
$GAGSV,2,2,07,18,54,205,40,19,14,165,40,25,24,054,40,0*47
$GBGSV,1,1,00,0*77
$GNGLL,3114.50886,N,12130.57019,E,141044.00,A,A*7C

$GNRMC,141045.00,A,3114.50885,N,12130.62269,E,161.992,90.01,010620,6.15,W,A,V*72
$GNVTG,90.01,T,96.15,M,161.992,N,300.009,K,A*30
$GNGGA,141045.00,3114.50885,N,12130.62269,E,1,12,0.68,39.5,M,9.9,M,,*4A
$GNGSA,A,3,24,31,21,10,12,30,02,09,14,05,,,1.23,0.68,1.02,1*01
$GNGSA,A,3,18,17,08,19,25,,,,,,,,1.23,0.68,1.02,3*06
$GNGSA,A,3,,,,,,,,,,,,,1.23,0.68,1.02,4*09
$GPGSV,3,1,10,02,31,047,39,05,67,060,39,09,27,167,39,10,11,107,39,0*6C
$GPGSV,3,2,10,12,57,075,39,14,12,261,39,21,16,201,40,24,53,172,39,0*68
$GPGSV,3,3,10,30,63,349,39,31,20,317,39,0*69
$GAGSV,2,1,07,07,,,40,08,56,302,40,15,19,084,40,17,46,297,40,0*45
$GAGSV,2,2,07,18,54,205,40,19,14,165,40,25,24,054,40,0*47
$GBGSV,1,1,00,0*77
$GNGLL,3114.50885,N,12130.62269,E,141045.00,A,A*7D

$GNRMC,141046.00,A,3114.50884,N,12130.67519,E,161.992,90.01,010620,6.15,W,A,V*75
$GNVTG,90.01,T,96.15,M,161.992,N,300.010,K,A*38
$GNGGA,141046.00,3114.50884,N,12130.67519,E,1,12,0.68,39.5,M,9.9,M,,*4D
$GNGSA,A,3,24,31,21,10,12,30,02,09,14,05,,,1.23,0.68,1.02,1*01
$GNGSA,A,3,18,17,08,19,25,,,,,,,,1.23,0.68,1.02,3*06
$GNGSA,A,3,,,,,,,,,,,,,1.23,0.68,1.02,4*09
$GPGSV,3,1,10,02,31,047,39,05,67,060,39,09,27,167,39,10,11,107,39,0*6C
$GPGSV,3,2,10,12,57,075,39,14,12,261,40,21,16,201,39,24,53,172,39,0*68
$GPGSV,3,3,10,30,63,349,39,31,20,317,39,0*69
$GAGSV,2,1,07,07,,,40,08,56,302,40,15,19,084,40,17,46,297,40,0*45
$GAGSV,2,2,07,18,54,205,40,19,14,165,40,25,24,054,40,0*47
$GBGSV,1,1,00,0*77
$GNGLL,3114.50884,N,12130.67519,E,141046.00,A,A*7A

$GNRMC,141047.00,A,3114.50884,N,12130.72769,E,161.996,90.01,010620,6.15,W,A,V*71
$GNVTG,90.01,T,96.15,M,161.996,N,300.017,K,A*3B
$GNGGA,141047.00,3114.50884,N,12130.72769,E,1,12,0.68,39.5,M,9.9,M,,*4D
$GNGSA,A,3,24,31,21,10,12,30,02,09,14,05,,,1.23,0.68,1.02,1*01
$GNGSA,A,3,18,17,08,19,25,,,,,,,,1.23,0.68,1.02,3*06
$GNGSA,A,3,,,,,,,,,,,,,1.23,0.68,1.02,4*09
$GPGSV,3,1,10,02,31,047,39,05,67,060,39,09,27,167,39,10,11,107,40,0*62
$GPGSV,3,2,10,12,57,075,39,14,12,261,39,21,16,201,39,24,53,172,40,0*68
$GPGSV,3,3,10,30,63,349,39,31,20,317,39,0*69
$GAGSV,2,1,08,01,,,40,07,,,40,08,56,302,40,15,19,084,40,0*73
$GAGSV,2,2,08,17,46,297,40,18,54,205,40,19,14,165,40,25,24,054,40,0*74
$GBGSV,1,1,00,0*77
$GNGLL,3114.50884,N,12130.72769,E,141047.00,A,A*7A

$GNRMC,141048.00,A,3114.50884,N,12130.77670,E,140.121,90.01,010620,6.15,W,A,V*75
$GNVTG,90.01,T,96.16,M,140.121,N,259.505,K,A*34
$GNGGA,141048.00,3114.50884,N,12130.77670,E,1,12,0.63,39.6,M,9.9,M,,*46
$GNGSA,A,3,24,31,21,10,12,30,02,09,14,05,,,1.14,0.63,0.95,1*01
$GNGSA,A,3,18,17,15,07,08,19,25,,,,,,1.14,0.63,0.95,3*05
$GNGSA,A,3,,,,,,,,,,,,,1.14,0.63,0.95,4*09
$GPGSV,3,1,10,02,31,047,39,05,67,060,39,09,27,167,39,10,11,107,39,0*6C
$GPGSV,3,2,10,12,57,075,39,14,12,261,39,21,16,201,39,24,53,172,39,0*66
$GPGSV,3,3,10,30,63,349,39,31,20,317,39,0*69
$GAGSV,2,1,08,01,,,40,07,15,262,40,08,56,302,40,15,19,084,40,0*41
$GAGSV,2,2,08,17,46,297,40,18,54,205,40,19,14,165,40,25,24,054,40,0*74
$GBGSV,1,1,00,0*77
$GNGLL,3114.50884,N,12130.77670,E,141048.00,A,A*79

$GNRMC,141049.00,A,3114.50884,N,12130.81781,E,113.375,90.01,010620,6.15,W,A,V*77
$GNVTG,90.01,T,96.16,M,113.375,N,209.971,K,A*3B
$GNGGA,141049.00,3114.50884,N,12130.81781,E,1,12,0.63,39.7,M,9.9,M,,*40
$GNGSA,A,3,24,31,21,10,12,30,02,09,14,05,,,1.14,0.63,0.95,1*01
$GNGSA,A,3,18,17,15,07,08,19,25,,,,,,1.14,0.63,0.95,3*05
$GNGSA,A,3,,,,,,,,,,,,,1.14,0.63,0.95,4*09
$GPGSV,3,1,10,02,31,047,39,05,67,060,39,09,27,167,39,10,11,107,39,0*6C
$GPGSV,3,2,10,12,57,075,39,14,12,261,39,21,16,201,39,24,53,172,39,0*66
$GPGSV,3,3,10,30,63,349,39,31,20,317,39,0*69
$GAGSV,2,1,08,01,,,40,07,15,262,40,08,56,302,40,15,19,084,40,0*41
$GAGSV,2,2,08,17,46,297,40,18,54,205,40,19,14,165,40,25,24,054,40,0*74
$GBGSV,1,1,00,0*77
$GNGLL,3114.50884,N,12130.81781,E,141049.00,A,A*7E

$GNRMC,141050.00,A,3114.50884,N,12130.85025,E,86.624,90.01,010620,6.15,W,A,V*4E
$GNVTG,90.01,T,96.15,M,86.624,N,160.428,K,A*09
$GNGGA,141050.00,3114.50884,N,12130.85025,E,1,12,0.63,39.7,M,9.9,M,,*45
$GNGSA,A,3,24,31,21,10,12,30,02,09,14,05,,,1.14,0.63,0.95,1*01
$GNGSA,A,3,18,17,15,07,08,19,25,,,,,,1.14,0.63,0.95,3*05
$GNGSA,A,3,,,,,,,,,,,,,1.14,0.63,0.95,4*09
$GPGSV,3,1,10,02,31,047,39,05,67,060,39,09,27,167,39,10,11,107,39,0*6C
$GPGSV,3,2,10,12,57,075,39,14,12,261,39,21,16,201,39,24,53,172,39,0*66
$GPGSV,3,3,10,30,63,349,39,31,20,317,39,0*69
$GAGSV,2,1,08,01,,,40,07,15,262,40,08,56,302,40,15,19,084,40,0*41
$GAGSV,2,2,08,17,46,297,40,18,54,205,40,19,14,165,40,25,24,054,40,0*74
$GBGSV,1,1,00,0*77
$GNGLL,3114.50884,N,12130.85025,E,141050.00,A,A*7B

$GNRMC,141051.00,A,3114.50885,N,12130.87401,E,59.866,90.01,010620,6.15,W,A,V*44
$GNVTG,90.01,T,96.16,M,59.866,N,110.872,K,A*04
$GNGGA,141051.00,3114.50885,N,12130.87401,E,1,12,0.63,39.7,M,9.9,M,,*45
$GNGSA,A,3,24,31,21,10,12,30,02,09,14,05,,,1.14,0.63,0.95,1*01
$GNGSA,A,3,18,17,15,07,08,19,25,,,,,,1.14,0.63,0.95,3*05
$GNGSA,A,3,,,,,,,,,,,,,1.14,0.63,0.95,4*09
$GPGSV,3,1,10,02,31,047,39,05,67,061,39,09,27,167,39,10,11,107,39,0*6D
$GPGSV,3,2,10,12,57,075,39,14,12,261,39,21,16,201,39,24,53,172,39,0*66
$GPGSV,3,3,10,30,63,349,39,31,20,317,39,0*69
$GAGSV,2,1,08,01,,,40,07,15,262,40,08,56,302,40,15,19,084,40,0*41
$GAGSV,2,2,08,17,46,297,40,18,54,205,40,19,14,165,40,25,24,054,40,0*74
$GBGSV,1,1,00,0*77
$GNGLL,3114.50885,N,12130.87401,E,141051.00,A,A*7B

$GNRMC,141052.00,A,3114.50885,N,12130.88910,E,33.120,90.01,010620,6.15,W,A,V*42
$GNVTG,90.01,T,96.16,M,33.120,N,61.338,K,A*31
$GNGGA,141052.00,3114.50885,N,12130.88910,E,1,12,0.63,39.7,M,9.9,M,,*44
$GNGSA,A,3,24,31,21,10,12,30,02,09,14,05,,,1.14,0.63,0.95,1*01
$GNGSA,A,3,18,17,15,07,08,19,25,,,,,,1.14,0.63,0.95,3*05
$GNGSA,A,3,,,,,,,,,,,,,1.14,0.63,0.95,4*09
$GPGSV,3,1,10,02,31,047,39,05,67,061,39,09,27,167,39,10,11,107,39,0*6D
$GPGSV,3,2,10,12,57,075,39,14,12,261,39,21,16,201,39,24,53,172,39,0*66
$GPGSV,3,3,10,30,63,349,39,31,20,317,39,0*69
$GAGSV,2,1,08,01,,,40,07,15,262,40,08,56,302,40,15,19,084,40,0*41
$GAGSV,2,2,08,17,46,297,40,18,54,205,40,19,14,165,40,25,24,054,40,0*74
$GBGSV,1,1,00,0*77
$GNGLL,3114.50885,N,12130.88910,E,141052.00,A,A*7A

$GNRMC,141053.00,A,3114.50851,N,12130.89701,E,16.289,98.76,010620,6.15,W,A,V*4A
$GNVTG,98.76,T,104.90,M,16.289,N,30.167,K,A*06
$GNGGA,141053.00,3114.50851,N,12130.89701,E,1,12,0.63,39.7,M,9.9,M,,*43
$GNGSA,A,3,24,31,21,10,12,30,02,09,14,05,,,1.14,0.63,0.95,1*01
$GNGSA,A,3,18,17,15,07,08,19,25,,,,,,1.14,0.63,0.95,3*05
$GNGSA,A,3,,,,,,,,,,,,,1.14,0.63,0.95,4*09
$GPGSV,3,1,10,02,31,047,39,05,67,061,39,09,27,167,39,10,12,107,39,0*6E
$GPGSV,3,2,10,12,57,075,39,14,12,261,39,21,16,201,39,24,53,172,39,0*66
$GPGSV,3,3,10,30,63,349,39,31,20,317,39,0*69
$GAGSV,2,1,08,01,,,40,07,15,262,40,08,56,302,40,15,19,084,40,0*41
$GAGSV,2,2,08,17,46,297,40,18,54,205,40,19,14,165,40,25,24,054,40,0*74
$GBGSV,1,1,00,0*77
$GNGLL,3114.50851,N,12130.89701,E,141053.00,A,A*7D

