$GNRMC,000337.00,A,2259.99992,N,11300.32893,E,9.753,90.00,170921,4.12,W,A,V*70
$GNVTG,90.00,T,94.12,M,9.753,N,18.063,K,A*0E
$GNGGA,000337.00,2259.99992,N,11300.32893,E,1,06,1.35,17.4,M,-6.4,M,,*67
$GNGSA,A,3,,,,,,,,,,,,,2.58,1.35,2.20,1*09
$GNGSA,A,3,,,,,,,,,,,,,2.58,1.35,2.20,3*0B
$GNGSA,A,3,19,01,30,20,08,02,,,,,,,2.58,1.35,2.20,4*0E
$GPGSV,1,1,00,0*65
$GAGSV,1,1,00,0*74
$GBGSV,3,1,11,01,36,108,34,02,57,155,34,04,37,110,34,06,05,198,33,0*7D
$GBGSV,3,2,11,08,22,220,34,09,,,33,11,05,037,,19,16,291,34,0*43
$GBGSV,3,3,11,20,46,214,34,23,05,043,,30,17,183,34,0*4C
$GNGLL,2259.99992,N,11300.32893,E,000337.00,A,A*7E

$GNRMC,000338.00,A,2259.99994,N,11300.33189,E,9.749,89.87,170921,4.12,W,A,V*76
$GNVTG,89.87,T,93.99,M,9.749,N,18.055,K,A*03
$GNGGA,000338.00,2259.99994,N,11300.33189,E,1,06,1.35,17.4,M,-6.4,M,,*6D
$GNGSA,A,3,,,,,,,,,,,,,2.58,1.35,2.20,1*09
$GNGSA,A,3,,,,,,,,,,,,,2.58,1.35,2.20,3*0B
$GNGSA,A,3,19,01,30,20,08,02,,,,,,,2.58,1.35,2.20,4*0E
$GPGSV,1,1,00,0*65
$GAGSV,1,1,00,0*74
$GBGSV,3,1,11,01,36,108,34,02,57,155,34,04,37,110,34,06,05,198,33,0*7D
$GBGSV,3,2,11,08,22,220,34,09,,,33,11,05,037,,19,16,291,34,0*43
$GBGSV,3,3,11,20,46,214,34,23,05,043,,30,17,183,34,0*4C
$GNGLL,2259.99994,N,11300.33189,E,000338.00,A,A*74

$GNRMC,000339.00,A,2259.99997,N,11300.33484,E,9.706,89.97,170921,4.12,W,A,V*76
$GNVTG,89.97,T,94.09,M,9.706,N,17.976,K,A*00
$GNGGA,000339.00,2259.99997,N,11300.33484,E,1,06,1.35,17.3,M,-6.4,M,,*60
$GNGSA,A,3,,,,,,,,,,,,,2.58,1.35,2.20,1*09
$GNGSA,A,3,,,,,,,,,,,,,2.58,1.35,2.20,3*0B
$GNGSA,A,3,19,01,30,20,08,02,,,,,,,2.58,1.35,2.20,4*0E
$GPGSV,1,1,00,0*65
$GAGSV,1,1,00,0*74
$GBGSV,3,1,11,01,36,108,34,02,57,155,34,04,37,110,34,06,05,198,33,0*7D
$GBGSV,3,2,11,08,22,220,34,09,,,33,11,05,037,,19,16,291,34,0*43
$GBGSV,3,3,11,20,46,214,34,23,05,043,,30,17,183,34,0*4C
$GNGLL,2259.99997,N,11300.33484,E,000339.00,A,A*7E

$GNRMC,000340.00,A,2259.99999,N,11300.33777,E,9.728,89.86,170921,4.12,W,A,V*75
$GNVTG,89.86,T,93.97,M,9.728,N,18.016,K,A*0C
$GNGGA,000340.00,2259.99999,N,11300.33777,E,1,06,1.35,17.3,M,-6.4,M,,*6F
$GNGSA,A,3,,,,,,,,,,,,,2.58,1.35,2.20,1*09
$GNGSA,A,3,,,,,,,,,,,,,2.58,1.35,2.20,3*0B
$GNGSA,A,3,19,01,30,20,08,02,,,,,,,2.58,1.35,2.20,4*0E
$GPGSV,1,1,00,0*65
$GAGSV,1,1,00,0*74
$GBGSV,3,1,11,01,36,108,34,02,57,155,34,04,37,110,34,06,05,198,33,0*7D
$GBGSV,3,2,11,08,22,220,34,09,,,34,11,05,037,,19,16,291,34,0*44
$GBGSV,3,3,11,20,46,214,34,23,05,043,,30,17,183,34,0*4C
$GNGLL,2259.99999,N,11300.33777,E,000340.00,A,A*71

$GNRMC,000341.00,A,2300.00001,N,11300.34072,E,9.902,89.16,170921,4.12,W,A,V*7B
$GNVTG,89.16,T,93.28,M,9.902,N,18.339,K,A*09
$GNGGA,000341.00,2300.00001,N,11300.34072,E,1,06,1.35,17.2,M,-6.4,M,,*6F
$GNGSA,A,3,,,,,,,,,,,,,2.58,1.35,2.20,1*09
$GNGSA,A,3,,,,,,,,,,,,,2.58,1.35,2.20,3*0B
$GNGSA,A,3,19,01,30,20,08,02,,,,,,,2.58,1.35,2.20,4*0E
$GPGSV,1,1,00,0*65
$GAGSV,1,1,00,0*74
$GBGSV,3,1,11,01,36,108,34,02,57,155,34,04,37,110,34,06,05,198,33,0*7D
$GBGSV,3,2,11,08,22,220,34,09,,,33,11,05,037,,19,16,291,34,0*43
$GBGSV,3,3,11,20,46,214,34,23,05,043,,30,17,183,34,0*4C
$GNGLL,2300.00001,N,11300.34072,E,000341.00,A,A*70

$GNRMC,000342.00,A,2300.00005,N,11300.34369,E,9.695,90.11,170921,4.12,W,A,V*7B
$GNVTG,90.11,T,94.23,M,9.695,N,17.956,K,A*07
$GNGGA,000342.00,2300.00005,N,11300.34369,E,1,06,1.35,17.1,M,-6.4,M,,*62
$GNGSA,A,3,,,,,,,,,,,,,2.58,1.35,2.20,1*09
$GNGSA,A,3,,,,,,,,,,,,,2.58,1.35,2.20,3*0B
$GNGSA,A,3,19,01,30,20,08,02,,,,,,,2.58,1.35,2.20,4*0E
$GPGSV,1,1,00,0*65
$GAGSV,1,1,00,0*74
$GBGSV,3,1,11,01,36,108,34,02,57,155,34,04,37,110,34,06,05,198,34,0*7A
$GBGSV,3,2,11,08,22,220,34,09,,,34,11,05,037,,19,16,291,34,0*44
$GBGSV,3,3,11,20,46,214,34,23,05,043,,30,17,183,34,0*4C
$GNGLL,2300.00005,N,11300.34369,E,000342.00,A,A*7E

$GNRMC,000343.00,A,2300.00005,N,11300.34662,E,9.699,90.35,170921,4.12,W,A,V*7E
$GNVTG,90.35,T,94.46,M,9.699,N,17.962,K,A*09
$GNGGA,000343.00,2300.00005,N,11300.34662,E,1,06,1.35,17.1,M,-6.4,M,,*6D
$GNGSA,A,3,,,,,,,,,,,,,2.58,1.35,2.20,1*09
$GNGSA,A,3,,,,,,,,,,,,,2.58,1.35,2.20,3*0B
$GNGSA,A,3,19,01,30,20,08,02,,,,,,,2.58,1.35,2.20,4*0E
$GPGSV,1,1,00,0*65
$GAGSV,1,1,00,0*74
$GBGSV,3,1,11,01,36,108,34,02,57,155,34,04,37,110,34,06,05,198,33,0*7D
$GBGSV,3,2,11,08,22,220,34,09,,,33,11,05,037,,19,16,291,34,0*43
$GBGSV,3,3,11,20,46,214,34,23,05,043,,30,17,183,34,0*4C
$GNGLL,2300.00005,N,11300.34662,E,000343.00,A,A*71

$GNRMC,000344.00,A,2300.00004,N,11300.34954,E,9.742,89.78,170921,4.12,W,A,V*74
$GNVTG,89.78,T,93.90,M,9.742,N,18.042,K,A*07
$GNGGA,000344.00,2300.00004,N,11300.34954,E,1,06,1.35,17.1,M,-6.4,M,,*61
$GNGSA,A,3,,,,,,,,,,,,,2.58,1.35,2.20,1*09
$GNGSA,A,3,,,,,,,,,,,,,2.58,1.35,2.20,3*0B
$GNGSA,A,3,19,01,30,20,08,02,,,,,,,2.58,1.35,2.20,4*0E
$GPGSV,1,1,00,0*65
$GAGSV,1,1,00,0*74
$GBGSV,3,1,11,01,36,108,34,02,57,155,34,04,37,110,34,06,05,198,33,0*7D
$GBGSV,3,2,11,08,22,220,34,09,,,33,11,05,037,,19,16,291,34,0*43
$GBGSV,3,3,11,20,46,214,34,23,05,043,,30,17,183,34,0*4C
$GNGLL,2300.00004,N,11300.34954,E,000344.00,A,A*7D

$GNRMC,000345.00,A,2300.00006,N,11300.35247,E,9.707,90.04,170921,4.12,W,A,V*7D
$GNVTG,90.04,T,94.15,M,9.707,N,17.977,K,A*0F
$GNGGA,000345.00,2300.00006,N,11300.35247,E,1,06,1.35,17.1,M,-6.4,M,,*6A
$GNGSA,A,3,,,,,,,,,,,,,2.59,1.35,2.20,1*08
$GNGSA,A,3,,,,,,,,,,,,,2.59,1.35,2.20,3*0A
$GNGSA,A,3,19,01,30,20,08,02,,,,,,,2.59,1.35,2.20,4*0F
$GPGSV,1,1,00,0*65
$GAGSV,1,1,00,0*74
$GBGSV,3,1,11,01,36,108,34,02,57,155,34,04,37,110,34,06,05,198,33,0*7D
$GBGSV,3,2,11,08,22,220,34,09,,,33,11,05,037,,19,16,291,34,0*43
$GBGSV,3,3,11,20,46,214,34,23,05,043,,30,17,183,34,0*4C
$GNGLL,2300.00006,N,11300.35247,E,000345.00,A,A*76

$GNRMC,000346.00,A,2300.00007,N,11300.35540,E,9.707,90.02,170921,4.12,W,A,V*79
$GNVTG,90.02,T,94.14,M,9.707,N,17.977,K,A*08
$GNGGA,000346.00,2300.00007,N,11300.35540,E,1,06,1.35,17.0,M,-6.4,M,,*69
$GNGSA,A,3,,,,,,,,,,,,,2.59,1.35,2.20,1*08
$GNGSA,A,3,,,,,,,,,,,,,2.59,1.35,2.20,3*0A
$GNGSA,A,3,19,01,30,20,08,02,,,,,,,2.59,1.35,2.20,4*0F
$GPGSV,1,1,00,0*65
$GAGSV,1,1,00,0*74
$GBGSV,3,1,11,01,36,108,34,02,57,155,34,04,37,110,34,06,05,198,33,0*7D
$GBGSV,3,2,11,08,22,220,34,09,,,34,11,05,037,,19,16,291,34,0*44
$GBGSV,3,3,11,20,46,214,34,23,05,043,,30,17,183,34,0*4C
$GNGLL,2300.00007,N,11300.35540,E,000346.00,A,A*74

$GNRMC,000347.00,A,2300.00009,N,11300.35835,E,9.684,90.19,170921,4.12,W,A,V*79
$GNVTG,90.19,T,94.31,M,9.684,N,17.936,K,A*0A
$GNGGA,000347.00,2300.00009,N,11300.35835,E,1,06,1.35,17.0,M,-6.4,M,,*69
$GNGSA,A,3,,,,,,,,,,,,,2.59,1.35,2.20,1*08
$GNGSA,A,3,,,,,,,,,,,,,2.59,1.35,2.20,3*0A
$GNGSA,A,3,19,01,30,20,08,02,,,,,,,2.59,1.35,2.20,4*0F
$GPGSV,1,1,00,0*65
$GAGSV,1,1,00,0*74
$GBGSV,3,1,11,01,36,108,34,02,57,155,34,04,37,110,34,06,05,198,33,0*7D
$GBGSV,3,2,11,08,22,220,34,09,,,34,11,05,037,,19,16,291,34,0*44
$GBGSV,3,3,11,20,46,214,34,23,05,043,,30,17,183,34,0*4C
$GNGLL,2300.00009,N,11300.35835,E,000347.00,A,A*74

$GNRMC,000348.00,A,2300.00008,N,11300.36127,E,9.729,90.09,170921,4.12,W,A,V*79
$GNVTG,90.09,T,94.20,M,9.729,N,18.017,K,A*08
$GNGGA,000348.00,2300.00008,N,11300.36127,E,1,06,1.35,17.0,M,-6.4,M,,*6E
$GNGSA,A,3,,,,,,,,,,,,,2.59,1.35,2.20,1*08
$GNGSA,A,3,,,,,,,,,,,,,2.59,1.35,2.20,3*0A
$GNGSA,A,3,19,01,30,20,08,02,,,,,,,2.59,1.35,2.20,4*0F
$GPGSV,1,1,00,0*65
$GAGSV,1,1,00,0*74
$GBGSV,3,1,11,01,36,108,34,02,57,155,34,04,37,110,34,06,05,198,33,0*7D
$GBGSV,3,2,11,08,22,220,34,09,,,33,11,05,037,,19,16,291,34,0*43
$GBGSV,3,3,11,20,46,214,34,23,05,043,,30,17,183,34,0*4C
$GNGLL,2300.00008,N,11300.36127,E,000348.00,A,A*73

$GNRMC,000349.00,A,2300.00009,N,11300.36422,E,9.727,90.18,170921,4.12,W,A,V*77
$GNVTG,90.18,T,94.29,M,9.727,N,18.014,K,A*0C
$GNGGA,000349.00,2300.00009,N,11300.36422,E,1,06,1.35,16.9,M,-6.3,M,,*61
$GNGSA,A,3,,,,,,,,,,,,,2.59,1.35,2.20,1*08
$GNGSA,A,3,,,,,,,,,,,,,2.59,1.35,2.20,3*0A
$GNGSA,A,3,19,01,30,20,08,02,,,,,,,2.59,1.35,2.20,4*0F
$GPGSV,1,1,00,0*65
$GAGSV,1,1,00,0*74
$GBGSV,3,1,11,01,36,108,34,02,57,155,34,04,37,110,34,06,05,198,33,0*7D
$GBGSV,3,2,11,08,22,220,34,09,,,33,11,05,037,,19,16,291,34,0*43
$GBGSV,3,3,11,20,46,214,34,23,05,043,,30,17,183,34,0*4C
$GNGLL,2300.00009,N,11300.36422,E,000349.00,A,A*73

$GNRMC,000350.00,A,2300.00008,N,11300.36715,E,9.720,90.13,170921,4.12,W,A,V*75
$GNVTG,90.13,T,94.25,M,9.720,N,18.002,K,A*0B
$GNGGA,000350.00,2300.00008,N,11300.36715,E,1,06,1.35,16.9,M,-6.3,M,,*6F
$GNGSA,A,3,,,,,,,,,,,,,2.59,1.35,2.20,1*08
$GNGSA,A,3,,,,,,,,,,,,,2.59,1.35,2.20,3*0A
$GNGSA,A,3,19,01,30,20,08,02,,,,,,,2.59,1.35,2.20,4*0F
$GPGSV,1,1,00,0*65
$GAGSV,1,1,00,0*74
$GBGSV,3,1,11,01,36,108,34,02,57,155,34,04,37,110,34,06,05,198,33,0*7D
$GBGSV,3,2,11,08,22,220,34,09,,,33,11,05,037,,19,16,291,34,0*43
$GBGSV,3,3,11,20,46,214,34,23,05,043,,30,17,183,34,0*4C
$GNGLL,2300.00008,N,11300.36715,E,000350.00,A,A*7D

$GNRMC,000351.00,A,2300.00005,N,11300.37006,E,9.819,89.19,170921,4.12,W,A,V*7A
$GNVTG,89.19,T,93.31,M,9.819,N,18.185,K,A*00
$GNGGA,000351.00,2300.00005,N,11300.37006,E,1,06,1.35,16.9,M,-6.3,M,,*67
$GNGSA,A,3,,,,,,,,,,,,,2.59,1.35,2.21,1*09
$GNGSA,A,3,,,,,,,,,,,,,2.59,1.35,2.21,3*0B
$GNGSA,A,3,19,01,30,20,08,02,,,,,,,2.59,1.35,2.21,4*0E
$GPGSV,1,1,00,0*65
$GAGSV,1,1,00,0*74
$GBGSV,3,1,11,01,36,108,34,02,57,155,34,04,37,110,34,06,05,198,33,0*7D
$GBGSV,3,2,11,08,22,220,34,09,,,33,11,05,037,,19,16,291,34,0*43
$GBGSV,3,3,11,20,46,214,34,23,05,043,,30,17,183,34,0*4C
$GNGLL,2300.00005,N,11300.37006,E,000351.00,A,A*75

$GNRMC,000352.00,A,2300.00006,N,11300.37299,E,9.763,89.15,170921,4.12,W,A,V*70
$GNVTG,89.15,T,93.26,M,9.763,N,18.082,K,A*0E
$GNGGA,000352.00,2300.00006,N,11300.37299,E,1,06,1.35,16.8,M,-6.3,M,,*62
$GNGSA,A,3,,,,,,,,,,,,,2.59,1.35,2.21,1*09
$GNGSA,A,3,,,,,,,,,,,,,2.59,1.35,2.21,3*0B
$GNGSA,A,3,19,01,30,20,08,02,,,,,,,2.59,1.35,2.21,4*0E
$GPGSV,1,1,00,0*65
$GAGSV,1,1,00,0*74
$GBGSV,3,1,11,01,36,108,34,02,57,155,34,04,37,110,34,06,05,198,33,0*7D
$GBGSV,3,2,11,08,22,220,34,09,,,33,11,05,037,,19,16,291,34,0*43
$GBGSV,3,3,11,20,46,214,34,23,05,043,,30,17,183,34,0*4C
$GNGLL,2300.00006,N,11300.37299,E,000352.00,A,A*71

$GNRMC,000353.00,A,2300.00008,N,11300.37592,E,9.722,89.61,170921,4.12,W,A,V*75
$GNVTG,89.61,T,93.73,M,9.722,N,18.005,K,A*07
$GNGGA,000353.00,2300.00008,N,11300.37592,E,1,06,1.35,16.7,M,-6.3,M,,*6E
$GNGSA,A,3,,,,,,,,,,,,,2.59,1.35,2.21,1*09
$GNGSA,A,3,,,,,,,,,,,,,2.59,1.35,2.21,3*0B
$GNGSA,A,3,19,01,30,20,08,02,,,,,,,2.59,1.35,2.21,4*0E
$GPGSV,1,1,00,0*65
$GAGSV,1,1,00,0*74
$GBGSV,3,1,11,01,36,108,34,02,57,155,34,04,37,110,34,06,05,198,34,0*7A
$GBGSV,3,2,11,08,22,220,34,09,,,33,11,05,037,,19,16,291,34,0*43
$GBGSV,3,3,11,20,46,214,34,23,05,043,,30,17,183,34,0*4C
$GNGLL,2300.00008,N,11300.37592,E,000353.00,A,A*72

$GNRMC,000354.00,A,2300.00008,N,11300.37886,E,9.709,90.00,170921,4.12,W,A,V*7C
$GNVTG,90.00,T,94.12,M,9.709,N,17.980,K,A*0A
$GNGGA,000354.00,2300.00008,N,11300.37886,E,1,06,1.35,16.5,M,-6.3,M,,*63
$GNGSA,A,3,,,,,,,,,,,,,2.59,1.35,2.21,1*09
$GNGSA,A,3,,,,,,,,,,,,,2.59,1.35,2.21,3*0B
$GNGSA,A,3,19,01,30,20,08,02,,,,,,,2.59,1.35,2.21,4*0E
$GPGSV,1,1,00,0*65
$GAGSV,1,1,00,0*74
$GBGSV,3,1,11,01,36,108,34,02,57,155,34,04,37,110,34,06,05,198,34,0*7A
$GBGSV,3,2,11,08,22,220,34,09,,,33,11,05,037,,19,16,291,34,0*43
$GBGSV,3,3,11,20,46,214,34,23,05,043,,30,17,183,34,0*4C
$GNGLL,2300.00008,N,11300.37886,E,000354.00,A,A*7D

$GNRMC,000355.00,A,2300.00008,N,11300.38180,E,9.722,90.04,170921,4.12,W,A,V*70
$GNVTG,90.04,T,94.16,M,9.722,N,18.005,K,A*08
$GNGGA,000355.00,2300.00008,N,11300.38180,E,1,06,1.35,16.4,M,-6.3,M,,*63
$GNGSA,A,3,,,,,,,,,,,,,2.59,1.35,2.21,1*09
$GNGSA,A,3,,,,,,,,,,,,,2.59,1.35,2.21,3*0B
$GNGSA,A,3,19,01,30,20,08,02,,,,,,,2.59,1.35,2.21,4*0E
$GPGSV,1,1,00,0*65
$GAGSV,1,1,00,0*74
$GBGSV,3,1,11,01,36,108,34,02,57,155,34,04,37,110,34,06,05,198,34,0*7A
$GBGSV,3,2,11,08,22,220,34,09,,,33,11,05,037,,19,16,291,34,0*43
$GBGSV,3,3,11,20,46,214,34,23,05,043,,30,17,183,34,0*4C
$GNGLL,2300.00008,N,11300.38180,E,000355.00,A,A*7C

$GNRMC,000356.00,A,2300.00009,N,11300.38473,E,9.627,90.54,170921,4.12,W,A,V*7A
$GNVTG,90.54,T,94.65,M,9.627,N,17.828,K,A*05
$GNGGA,000356.00,2300.00009,N,11300.38473,E,1,06,1.35,16.3,M,-6.3,M,,*6F
$GNGSA,A,3,,,,,,,,,,,,,2.59,1.35,2.21,1*09
$GNGSA,A,3,,,,,,,,,,,,,2.59,1.35,2.21,3*0B
$GNGSA,A,3,19,01,30,20,08,02,,,,,,,2.59,1.35,2.21,4*0E
$GPGSV,1,1,00,0*65
$GAGSV,1,1,00,0*74
$GBGSV,3,1,11,01,36,108,34,02,57,155,34,04,37,110,34,06,05,198,33,0*7D
$GBGSV,3,2,11,08,22,220,34,09,,,33,11,05,037,,19,16,291,34,0*43
$GBGSV,3,3,11,20,46,214,34,23,05,043,,30,17,183,34,0*4C
$GNGLL,2300.00009,N,11300.38473,E,000356.00,A,A*77

$GNRMC,000357.00,A,2300.00010,N,11300.38768,E,9.649,90.74,170921,4.12,W,A,V*70
$GNVTG,90.74,T,94.86,M,9.649,N,17.870,K,A*0F
$GNGGA,000357.00,2300.00010,N,11300.38768,E,1,06,1.35,16.1,M,-6.3,M,,*6D
$GNGSA,A,3,,,,,,,,,,,,,2.59,1.35,2.21,1*09
$GNGSA,A,3,,,,,,,,,,,,,2.59,1.35,2.21,3*0B
$GNGSA,A,3,19,01,30,20,08,02,,,,,,,2.59,1.35,2.21,4*0E
$GPGSV,1,1,00,0*65
$GAGSV,1,1,00,0*74
$GBGSV,3,1,11,01,36,108,34,02,57,155,34,04,37,110,34,06,05,198,33,0*7D
$GBGSV,3,2,11,08,22,220,34,09,,,34,11,05,037,,19,16,291,34,0*44
$GBGSV,3,3,11,20,46,214,34,23,05,043,,30,17,183,34,0*4C
$GNGLL,2300.00010,N,11300.38768,E,000357.00,A,A*77

$GNRMC,000358.00,A,2300.00008,N,11300.39060,E,9.649,90.42,170921,4.12,W,A,V*7D
$GNVTG,90.42,T,94.53,M,9.649,N,17.870,K,A*02
$GNGGA,000358.00,2300.00008,N,11300.39060,E,1,06,1.35,16.1,M,-6.3,M,,*65
$GNGSA,A,3,,,,,,,,,,,,,2.59,1.35,2.21,1*09
$GNGSA,A,3,,,,,,,,,,,,,2.59,1.35,2.21,3*0B
$GNGSA,A,3,19,01,30,20,08,02,,,,,,,2.59,1.35,2.21,4*0E
$GPGSV,1,1,00,0*65
$GAGSV,1,1,00,0*74
$GBGSV,3,1,11,01,36,108,34,02,57,155,34,04,37,110,34,06,05,198,33,0*7D
$GBGSV,3,2,11,08,22,220,34,09,,,33,11,05,037,,19,16,291,34,0*43
$GBGSV,3,3,11,20,46,214,34,23,05,043,,30,17,183,34,0*4C
$GNGLL,2300.00008,N,11300.39060,E,000358.00,A,A*7F

$GNRMC,000359.00,A,2300.00008,N,11300.39353,E,9.709,90.40,170921,4.12,W,A,V*78
$GNVTG,90.40,T,94.51,M,9.709,N,17.981,K,A*08
$GNGGA,000359.00,2300.00008,N,11300.39353,E,1,06,1.35,16.0,M,-6.3,M,,*66
$GNGSA,A,3,,,,,,,,,,,,,2.59,1.35,2.21,1*09
$GNGSA,A,3,,,,,,,,,,,,,2.59,1.35,2.21,3*0B
$GNGSA,A,3,19,01,30,20,08,02,,,,,,,2.59,1.35,2.21,4*0E
$GPGSV,1,1,00,0*65
$GAGSV,1,1,00,0*74
$GBGSV,3,1,11,01,36,108,34,02,57,155,34,04,37,110,34,06,05,198,33,0*7D
$GBGSV,3,2,11,08,22,220,34,09,,,33,11,05,037,,19,16,291,34,0*43
$GBGSV,3,3,11,20,46,214,34,23,05,043,,30,17,183,34,0*4C
$GNGLL,2300.00008,N,11300.39353,E,000359.00,A,A*7D

$GNRMC,000400.00,A,2300.00005,N,11300.39646,E,9.762,89.64,170921,4.12,W,A,V*7C
$GNVTG,89.64,T,93.76,M,9.762,N,18.079,K,A*08
$GNGGA,000400.00,2300.00005,N,11300.39646,E,1,06,1.36,15.9,M,-6.3,M,,*68
$GNGSA,A,3,,,,,,,,,,,,,2.59,1.36,2.21,1*0A
$GNGSA,A,3,,,,,,,,,,,,,2.59,1.36,2.21,3*08
$GNGSA,A,3,19,01,30,20,08,02,,,,,,,2.59,1.36,2.21,4*0D
$GPGSV,1,1,00,0*65
$GAGSV,1,1,00,0*74
$GBGSV,3,1,11,01,36,108,34,02,57,155,34,04,37,110,34,06,05,198,33,0*7D
$GBGSV,3,2,11,08,22,220,34,09,,,33,11,05,037,,19,16,291,34,0*43
$GBGSV,3,3,11,20,46,214,34,23,05,043,,30,17,183,34,0*4C
$GNGLL,2300.00005,N,11300.39646,E,000400.00,A,A*7A

$GNRMC,000401.00,A,2300.00004,N,11300.39939,E,9.781,89.40,170921,4.12,W,A,V*70
$GNVTG,89.40,T,93.51,M,9.781,N,18.114,K,A*0C
$GNGGA,000401.00,2300.00004,N,11300.39939,E,1,06,1.36,15.9,M,-6.3,M,,*6F
$GNGSA,A,3,,,,,,,,,,,,,2.59,1.36,2.21,1*0A
$GNGSA,A,3,,,,,,,,,,,,,2.59,1.36,2.21,3*08
$GNGSA,A,3,19,01,30,20,08,02,,,,,,,2.59,1.36,2.21,4*0D
$GPGSV,1,1,00,0*65
$GAGSV,1,1,00,0*74
$GBGSV,3,1,11,01,36,108,34,02,57,155,34,04,37,110,34,06,05,198,33,0*7D
$GBGSV,3,2,11,08,22,220,34,09,,,34,11,05,037,,19,16,291,34,0*44
$GBGSV,3,3,11,20,46,214,34,23,05,043,,30,17,183,34,0*4C
$GNGLL,2300.00004,N,11300.39939,E,000401.00,A,A*7D

$GNRMC,000402.00,A,2300.00005,N,11300.40233,E,9.707,90.26,170921,4.12,W,A,V*7B
$GNVTG,90.26,T,94.38,M,9.707,N,17.978,K,A*0F
$GNGGA,000402.00,2300.00005,N,11300.40233,E,1,06,1.36,15.8,M,-6.3,M,,*63
$GNGSA,A,3,,,,,,,,,,,,,2.59,1.36,2.21,1*0A
$GNGSA,A,3,,,,,,,,,,,,,2.59,1.36,2.21,3*08
$GNGSA,A,3,19,01,30,20,08,02,,,,,,,2.59,1.36,2.21,4*0D
$GPGSV,1,1,00,0*65
$GAGSV,1,1,00,0*74
$GBGSV,3,1,11,01,36,108,34,02,57,155,34,04,37,110,34,06,05,198,33,0*7D
$GBGSV,3,2,11,08,22,220,34,09,,,33,11,05,037,,19,16,291,34,0*43
$GBGSV,3,3,11,20,46,214,34,23,05,043,,30,17,183,34,0*4C
$GNGLL,2300.00005,N,11300.40233,E,000402.00,A,A*70

$GNRMC,000403.00,A,2300.00005,N,11300.40526,E,9.673,90.61,170921,4.12,W,A,V*78
$GNVTG,90.61,T,94.73,M,9.673,N,17.915,K,A*0A
$GNGGA,000403.00,2300.00005,N,11300.40526,E,1,06,1.36,15.7,M,-6.3,M,,*6E
$GNGSA,A,3,,,,,,,,,,,,,2.59,1.36,2.21,1*0A
$GNGSA,A,3,,,,,,,,,,,,,2.59,1.36,2.21,3*08
$GNGSA,A,3,19,01,30,20,08,02,,,,,,,2.59,1.36,2.21,4*0D
$GPGSV,1,1,00,0*65
$GAGSV,1,1,00,0*74
$GBGSV,3,1,11,01,36,108,34,02,57,155,34,04,37,110,34,06,05,198,34,0*7A
$GBGSV,3,2,11,08,22,220,34,09,,,33,11,05,037,,19,16,291,34,0*43
$GBGSV,3,3,11,20,46,214,34,23,05,043,,30,17,183,34,0*4C
$GNGLL,2300.00005,N,11300.40526,E,000403.00,A,A*72

$GNRMC,000404.00,A,2300.00003,N,11300.40818,E,9.702,90.27,170921,4.12,W,A,V*7C
$GNVTG,90.27,T,94.39,M,9.702,N,17.968,K,A*0B
$GNGGA,000404.00,2300.00003,N,11300.40818,E,1,06,1.36,15.7,M,-6.3,M,,*6F
$GNGSA,A,3,,,,,,,,,,,,,2.59,1.36,2.21,1*0A
$GNGSA,A,3,,,,,,,,,,,,,2.59,1.36,2.21,3*08
$GNGSA,A,3,19,01,30,20,08,02,,,,,,,2.59,1.36,2.21,4*0D
$GPGSV,1,1,00,0*65
$GAGSV,1,1,00,0*74
$GBGSV,3,1,11,01,36,108,34,02,57,155,34,04,37,110,34,06,05,198,34,0*7A
$GBGSV,3,2,11,08,22,220,34,09,,,34,11,05,037,,19,16,291,34,0*44
$GBGSV,3,3,11,20,46,214,34,23,05,043,,30,17,183,34,0*4C
$GNGLL,2300.00003,N,11300.40818,E,000404.00,A,A*73

$GNRMC,000405.00,A,2300.00003,N,11300.41110,E,9.702,90.17,170921,4.12,W,A,V*7E
$GNVTG,90.17,T,94.29,M,9.702,N,17.969,K,A*08
$GNGGA,000405.00,2300.00003,N,11300.41110,E,1,06,1.36,15.6,M,-6.3,M,,*6F
$GNGSA,A,3,,,,,,,,,,,,,2.59,1.36,2.21,1*0A
$GNGSA,A,3,,,,,,,,,,,,,2.59,1.36,2.21,3*08
$GNGSA,A,3,19,01,30,20,08,02,,,,,,,2.59,1.36,2.21,4*0D
$GPGSV,1,1,00,0*65
$GAGSV,1,1,00,0*74
$GBGSV,3,1,11,01,36,108,34,02,57,155,34,04,37,110,34,06,05,198,34,0*7A
$GBGSV,3,2,11,08,22,220,34,09,,,34,11,04,037,,19,16,291,34,0*45
$GBGSV,3,3,11,20,46,214,34,23,05,043,,30,17,183,34,0*4C
$GNGLL,2300.00003,N,11300.41110,E,000405.00,A,A*72

$GNRMC,000406.00,A,2300.00003,N,11300.41402,E,9.625,90.31,170921,4.12,W,A,V*7B
$GNVTG,90.31,T,94.43,M,9.625,N,17.826,K,A*0E
$GNGGA,000406.00,2300.00003,N,11300.41402,E,1,06,1.36,15.6,M,-6.3,M,,*6A
$GNGSA,A,3,,,,,,,,,,,,,2.59,1.36,2.21,1*0A
$GNGSA,A,3,,,,,,,,,,,,,2.59,1.36,2.21,3*08
$GNGSA,A,3,19,01,30,20,08,02,,,,,,,2.59,1.36,2.21,4*0D
$GPGSV,1,1,00,0*65
$GAGSV,1,1,00,0*74
$GBGSV,3,1,11,01,36,108,34,02,57,155,34,04,37,110,34,06,05,198,34,0*7A
$GBGSV,3,2,11,08,22,220,34,09,,,33,11,04,037,,19,16,291,34,0*42
$GBGSV,3,3,11,20,46,214,34,23,05,043,,30,17,183,34,0*4C
$GNGLL,2300.00003,N,11300.41402,E,000406.00,A,A*77

$GNRMC,000407.00,A,2300.00001,N,11300.41693,E,9.716,90.39,170921,4.12,W,A,V*7B
$GNVTG,90.39,T,94.50,M,9.716,N,17.993,K,A*0A
$GNGGA,000407.00,2300.00001,N,11300.41693,E,1,06,1.36,15.6,M,-6.3,M,,*63
$GNGSA,A,3,,,,,,,,,,,,,2.60,1.36,2.21,1*00
$GNGSA,A,3,,,,,,,,,,,,,2.60,1.36,2.21,3*02
$GNGSA,A,3,19,01,30,20,08,02,,,,,,,2.60,1.36,2.21,4*07
$GPGSV,1,1,00,0*65
$GAGSV,1,1,00,0*74
$GBGSV,3,1,11,01,36,108,34,02,57,155,34,04,37,110,34,06,05,198,34,0*7A
$GBGSV,3,2,11,08,22,220,34,09,,,33,11,04,037,,19,16,291,34,0*42
$GBGSV,3,3,11,20,46,214,34,23,05,043,,30,17,183,34,0*4C
$GNGLL,2300.00001,N,11300.41693,E,000407.00,A,A*7E

$GNRMC,000408.00,A,2300.00000,N,11300.41986,E,9.749,90.11,170921,4.12,W,A,V*7E
$GNVTG,90.11,T,94.23,M,9.749,N,18.056,K,A*01
$GNGGA,000408.00,2300.00000,N,11300.41986,E,1,06,1.36,15.6,M,-6.3,M,,*66
$GNGSA,A,3,,,,,,,,,,,,,2.60,1.36,2.21,1*00
$GNGSA,A,3,,,,,,,,,,,,,2.60,1.36,2.21,3*02
$GNGSA,A,3,19,01,30,20,08,02,,,,,,,2.60,1.36,2.21,4*07
$GPGSV,1,1,00,0*65
$GAGSV,1,1,00,0*74
$GBGSV,3,1,11,01,36,108,34,02,57,155,34,04,37,110,34,06,05,198,34,0*7A
$GBGSV,3,2,11,08,22,220,34,09,,,33,11,04,037,,19,16,291,34,0*42
$GBGSV,3,3,11,20,46,214,34,23,05,043,,30,17,183,34,0*4C
$GNGLL,2300.00000,N,11300.41986,E,000408.00,A,A*7B

$GNRMC,000409.00,A,2259.99999,N,11300.42279,E,9.774,89.71,170921,4.12,W,A,V*73
$GNVTG,89.71,T,93.83,M,9.774,N,18.101,K,A*0F
$GNGGA,000409.00,2259.99999,N,11300.42279,E,1,06,1.36,15.6,M,-6.3,M,,*6B
$GNGSA,A,3,,,,,,,,,,,,,2.60,1.36,2.21,1*00
$GNGSA,A,3,,,,,,,,,,,,,2.60,1.36,2.21,3*02
$GNGSA,A,3,19,01,30,20,08,02,,,,,,,2.60,1.36,2.21,4*07
$GPGSV,1,1,00,0*65
$GAGSV,1,1,00,0*74
$GBGSV,3,1,11,01,36,108,34,02,57,155,34,04,37,110,34,06,05,198,34,0*7A
$GBGSV,3,2,11,08,22,220,34,09,05,250,34,11,04,037,,19,16,291,34,0*77
$GBGSV,3,3,11,20,46,214,34,23,05,043,,30,17,183,34,0*4C
$GNGLL,2259.99999,N,11300.42279,E,000409.00,A,A*76

$GNRMC,000410.00,A,2259.99998,N,11300.42571,E,9.838,89.29,170921,4.12,W,A,V*7F
$GNVTG,89.29,T,93.41,M,9.838,N,18.219,K,A*01
$GNGGA,000410.00,2259.99998,N,11300.42571,E,1,06,1.36,15.6,M,-6.3,M,,*6D
$GNGSA,A,3,,,,,,,,,,,,,2.60,1.36,2.21,1*00
$GNGSA,A,3,,,,,,,,,,,,,2.60,1.36,2.21,3*02
$GNGSA,A,3,19,01,30,20,08,02,,,,,,,2.60,1.36,2.21,4*07
$GPGSV,1,1,00,0*65
$GAGSV,1,1,00,0*74
$GBGSV,3,1,11,01,36,108,34,02,57,155,34,04,37,110,34,06,05,198,34,0*7A
$GBGSV,3,2,11,08,22,220,34,09,05,250,34,11,04,037,,19,16,291,34,0*77
$GBGSV,3,3,11,20,46,214,34,23,05,043,,30,17,183,34,0*4C
$GNGLL,2259.99998,N,11300.42571,E,000410.00,A,A*70

$GNRMC,000411.00,A,2259.99994,N,11300.42858,E,9.805,89.13,170921,4.12,W,A,V*73
$GNVTG,89.13,T,93.25,M,9.805,N,18.158,K,A*02
$GNGGA,000411.00,2259.99994,N,11300.42858,E,1,06,1.36,15.5,M,-6.3,M,,*65
$GNGSA,A,3,,,,,,,,,,,,,2.60,1.36,2.21,1*00
$GNGSA,A,3,,,,,,,,,,,,,2.60,1.36,2.21,3*02
$GNGSA,A,3,19,01,30,20,08,02,,,,,,,2.60,1.36,2.21,4*07
$GPGSV,1,1,00,0*65
$GAGSV,1,1,00,0*74
$GBGSV,3,1,11,01,36,108,34,02,57,155,34,04,37,110,34,06,05,198,33,0*7D
$GBGSV,3,2,11,08,22,220,34,09,05,250,34,11,04,037,,19,16,291,34,0*77
$GBGSV,3,3,11,20,46,214,34,23,05,043,,30,17,183,34,0*4C
$GNGLL,2259.99994,N,11300.42858,E,000411.00,A,A*7B

$GNRMC,000412.00,A,2259.99996,N,11300.43153,E,9.838,89.42,170921,4.12,W,A,V*7B
$GNVTG,89.42,T,93.54,M,9.838,N,18.220,K,A*02
$GNGGA,000412.00,2259.99996,N,11300.43153,E,1,06,1.36,15.5,M,-6.3,M,,*67
$GNGSA,A,3,,,,,,,,,,,,,2.60,1.36,2.22,1*03
$GNGSA,A,3,,,,,,,,,,,,,2.60,1.36,2.22,3*01
$GNGSA,A,3,19,01,30,20,08,02,,,,,,,2.60,1.36,2.22,4*04
$GPGSV,1,1,00,0*65
$GAGSV,1,1,00,0*74
$GBGSV,3,1,11,01,36,108,34,02,57,155,34,04,37,110,34,06,05,198,33,0*7D
$GBGSV,3,2,11,08,22,220,34,09,05,250,34,11,04,037,,19,16,290,34,0*76
$GBGSV,3,3,11,20,46,214,34,23,05,043,,30,17,183,34,0*4C
$GNGLL,2259.99996,N,11300.43153,E,000412.00,A,A*79

$GNRMC,000413.00,A,2259.99996,N,11300.43447,E,9.776,89.72,170921,4.12,W,A,V*7C
$GNVTG,89.72,T,93.83,M,9.776,N,18.105,K,A*0A
$GNGGA,000413.00,2259.99996,N,11300.43447,E,1,06,1.36,15.4,M,-6.3,M,,*67
$GNGSA,A,3,,,,,,,,,,,,,2.60,1.36,2.22,1*03
$GNGSA,A,3,,,,,,,,,,,,,2.60,1.36,2.22,3*01
$GNGSA,A,3,19,01,30,20,08,02,,,,,,,2.60,1.36,2.22,4*04
$GPGSV,1,1,00,0*65
$GAGSV,1,1,00,0*74
$GBGSV,3,1,11,01,36,108,34,02,57,155,34,04,37,110,34,06,05,198,34,0*7A
$GBGSV,3,2,11,08,22,220,34,09,05,250,33,11,04,037,,19,16,290,34,0*71
$GBGSV,3,3,11,20,46,213,34,23,05,043,,30,17,183,34,0*4B
$GNGLL,2259.99996,N,11300.43447,E,000413.00,A,A*78

$GNRMC,000414.00,A,2259.99996,N,11300.43739,E,9.749,89.72,170921,4.12,W,A,V*7D
$GNVTG,89.72,T,93.83,M,9.749,N,18.056,K,A*01
$GNGGA,000414.00,2259.99996,N,11300.43739,E,1,06,1.36,15.4,M,-6.3,M,,*6A
$GNGSA,A,3,,,,,,,,,,,,,2.60,1.36,2.22,1*03
$GNGSA,A,3,,,,,,,,,,,,,2.60,1.36,2.22,3*01
$GNGSA,A,3,19,01,30,20,08,02,,,,,,,2.60,1.36,2.22,4*04
$GPGSV,1,1,00,0*65
$GAGSV,1,1,00,0*74
$GBGSV,3,1,11,01,36,108,34,02,57,155,34,04,37,110,34,06,05,198,34,0*7A
$GBGSV,3,2,11,08,22,220,34,09,05,250,33,11,04,037,,19,16,290,34,0*71
$GBGSV,3,3,11,20,46,213,34,23,05,043,,30,17,183,34,0*4B
$GNGLL,2259.99996,N,11300.43739,E,000414.00,A,A*75

$GNRMC,000415.00,A,2259.99997,N,11300.44032,E,9.665,90.37,170921,4.12,W,A,V*70
$GNVTG,90.37,T,94.48,M,9.665,N,17.899,K,A*03
$GNGGA,000415.00,2259.99997,N,11300.44032,E,1,06,1.36,15.4,M,-6.3,M,,*61
$GNGSA,A,3,,,,,,,,,,,,,2.60,1.36,2.22,1*03
$GNGSA,A,3,,,,,,,,,,,,,2.60,1.36,2.22,3*01
$GNGSA,A,3,19,01,30,20,08,02,,,,,,,2.60,1.36,2.22,4*04
$GPGSV,1,1,00,0*65
$GAGSV,1,1,00,0*74
$GBGSV,3,1,11,01,36,108,34,02,57,155,34,04,37,110,34,06,05,198,33,0*7D
$GBGSV,3,2,11,08,22,220,34,09,05,250,33,11,04,037,,19,16,290,34,0*71
$GBGSV,3,3,11,20,46,213,34,23,05,043,,30,17,183,34,0*4B
$GNGLL,2259.99997,N,11300.44032,E,000415.00,A,A*7E

$GNRMC,000416.00,A,2259.99996,N,11300.44324,E,9.702,90.36,170921,4.12,W,A,V*77
$GNVTG,90.36,T,94.47,M,9.702,N,17.969,K,A*03
$GNGGA,000416.00,2259.99996,N,11300.44324,E,1,06,1.36,15.4,M,-6.3,M,,*67
$GNGSA,A,3,,,,,,,,,,,,,2.60,1.36,2.22,1*03
$GNGSA,A,3,,,,,,,,,,,,,2.60,1.36,2.22,3*01
$GNGSA,A,3,19,01,30,20,08,02,,,,,,,2.60,1.36,2.22,4*04
$GPGSV,1,1,00,0*65
$GAGSV,1,1,00,0*74
$GBGSV,3,1,11,01,36,108,34,02,57,155,34,04,37,110,34,06,05,198,34,0*7A
$GBGSV,3,2,11,08,22,220,34,09,05,250,33,11,04,037,,19,16,290,34,0*71
$GBGSV,3,3,11,20,46,213,34,23,05,043,,30,17,183,34,0*4B
$GNGLL,2259.99996,N,11300.44324,E,000416.00,A,A*78

$GNRMC,000417.00,A,2259.99996,N,11300.44618,E,9.695,90.90,170921,4.12,W,A,V*7F
$GNVTG,90.90,T,95.02,M,9.695,N,17.956,K,A*0C
$GNGGA,000417.00,2259.99996,N,11300.44618,E,1,06,1.36,15.3,M,-6.3,M,,*6B
$GNGSA,A,3,,,,,,,,,,,,,2.60,1.36,2.22,1*03
$GNGSA,A,3,,,,,,,,,,,,,2.60,1.36,2.22,3*01
$GNGSA,A,3,19,01,30,20,08,02,,,,,,,2.60,1.36,2.22,4*04
$GPGSV,1,1,00,0*65
$GAGSV,1,1,00,0*74
$GBGSV,3,1,11,01,36,108,34,02,57,155,34,04,37,110,34,06,05,198,34,0*7A
$GBGSV,3,2,11,08,22,220,34,09,05,250,33,11,04,037,,19,16,290,34,0*71
$GBGSV,3,3,11,20,46,213,34,23,05,043,,30,17,183,34,0*4B
$GNGLL,2259.99996,N,11300.44618,E,000417.00,A,A*73

$GNRMC,000418.00,A,2259.99993,N,11300.44910,E,9.606,90.85,170921,4.12,W,A,V*7C
$GNVTG,90.85,T,94.96,M,9.606,N,17.789,K,A*02
$GNGGA,000418.00,2259.99993,N,11300.44910,E,1,06,1.36,15.3,M,-6.3,M,,*66
$GNGSA,A,3,,,,,,,,,,,,,2.60,1.36,2.22,1*03
$GNGSA,A,3,,,,,,,,,,,,,2.60,1.36,2.22,3*01
$GNGSA,A,3,19,01,30,20,08,02,,,,,,,2.60,1.36,2.22,4*04
$GPGSV,1,1,00,0*65
$GAGSV,1,1,00,0*74
$GBGSV,3,1,11,01,36,108,34,02,57,155,34,04,37,110,34,06,05,198,34,0*7A
$GBGSV,3,2,11,08,22,220,34,09,05,250,33,11,04,037,,19,16,290,34,0*71
$GBGSV,3,3,11,20,46,213,34,23,05,043,,30,17,183,34,0*4B
$GNGLL,2259.99993,N,11300.44910,E,000418.00,A,A*7E

$GNRMC,000419.00,A,2259.99992,N,11300.45202,E,9.718,90.12,170921,4.12,W,A,V*75
$GNVTG,90.12,T,94.24,M,9.718,N,17.999,K,A*04
$GNGGA,000419.00,2259.99992,N,11300.45202,E,1,06,1.36,15.3,M,-6.3,M,,*6F
$GNGSA,A,3,,,,,,,,,,,,,2.60,1.36,2.22,1*03
$GNGSA,A,3,,,,,,,,,,,,,2.60,1.36,2.22,3*01
$GNGSA,A,3,19,01,30,20,08,02,,,,,,,2.60,1.36,2.22,4*04
$GPGSV,1,1,00,0*65
$GAGSV,1,1,00,0*74
$GBGSV,3,1,11,01,36,108,34,02,57,155,34,04,37,110,34,06,05,198,33,0*7D
$GBGSV,3,2,11,08,22,220,34,09,05,250,34,11,04,037,,19,16,290,34,0*76
$GBGSV,3,3,11,20,46,213,34,23,05,043,,30,17,183,34,0*4B
$GNGLL,2259.99992,N,11300.45202,E,000419.00,A,A*77

$GNRMC,000420.00,A,2259.99988,N,11300.45493,E,9.844,88.74,170921,4.12,W,A,V*75
$GNVTG,88.74,T,92.86,M,9.844,N,18.232,K,A*00
$GNGGA,000420.00,2259.99988,N,11300.45493,E,1,06,1.36,15.3,M,-6.3,M,,*60
$GNGSA,A,3,,,,,,,,,,,,,2.60,1.36,2.22,1*03
$GNGSA,A,3,,,,,,,,,,,,,2.60,1.36,2.22,3*01
$GNGSA,A,3,19,01,30,20,08,02,,,,,,,2.60,1.36,2.22,4*04
$GPGSV,1,1,00,0*65
$GAGSV,1,1,00,0*74
$GBGSV,3,1,11,01,36,108,34,02,57,155,34,04,37,110,34,06,05,198,33,0*7D
$GBGSV,3,2,11,08,22,220,34,09,05,250,34,11,04,037,,19,16,290,34,0*76
$GBGSV,3,3,11,20,46,213,34,23,05,043,,30,17,183,34,0*4B
$GNGLL,2259.99988,N,11300.45493,E,000420.00,A,A*78

$GNRMC,000421.00,A,2259.99991,N,11300.45788,E,9.886,88.71,170921,4.12,W,A,V*7E
$GNVTG,88.71,T,92.83,M,9.886,N,18.309,K,A*07
$GNGGA,000421.00,2259.99991,N,11300.45788,E,1,06,1.36,15.2,M,-6.3,M,,*61
$GNGSA,A,3,,,,,,,,,,,,,2.60,1.36,2.22,1*03
$GNGSA,A,3,,,,,,,,,,,,,2.60,1.36,2.22,3*01
$GNGSA,A,3,19,01,30,20,08,02,,,,,,,2.60,1.36,2.22,4*04
$GPGSV,1,1,00,0*65
$GAGSV,1,1,00,0*74
$GBGSV,3,1,11,01,36,108,34,02,57,155,34,04,37,110,34,06,05,198,33,0*7D
$GBGSV,3,2,11,08,22,220,34,09,05,250,34,11,04,037,,19,16,290,34,0*76
$GBGSV,3,3,11,20,46,213,34,23,05,043,,30,17,183,34,0*4B
$GNGLL,2259.99991,N,11300.45788,E,000421.00,A,A*78

$GNRMC,000422.00,A,2259.99991,N,11300.46081,E,9.757,89.50,170921,4.12,W,A,V*71
$GNVTG,89.50,T,93.62,M,9.757,N,18.069,K,A*0D
$GNGGA,000422.00,2259.99991,N,11300.46081,E,1,06,1.36,15.3,M,-6.3,M,,*6E
$GNGSA,A,3,,,,,,,,,,,,,2.60,1.36,2.22,1*03
$GNGSA,A,3,,,,,,,,,,,,,2.60,1.36,2.22,3*01
$GNGSA,A,3,19,01,30,20,08,02,,,,,,,2.60,1.36,2.22,4*04
$GPGSV,1,1,00,0*65
$GAGSV,1,1,00,0*74
$GBGSV,3,1,11,01,36,108,34,02,57,155,34,04,37,110,34,06,05,198,34,0*7A
$GBGSV,3,2,11,08,22,220,34,09,05,250,34,11,04,037,,19,16,290,34,0*76
$GBGSV,3,3,11,20,46,213,34,23,05,043,,30,17,183,34,0*4B
$GNGLL,2259.99991,N,11300.46081,E,000422.00,A,A*76

$GNRMC,000423.00,A,2259.99991,N,11300.46375,E,9.757,89.66,170921,4.12,W,A,V*7D
$GNVTG,89.66,T,93.77,M,9.757,N,18.069,K,A*0C
$GNGGA,000423.00,2259.99991,N,11300.46375,E,1,06,1.36,15.2,M,-6.3,M,,*66
$GNGSA,A,3,,,,,,,,,,,,,2.60,1.36,2.22,1*03
$GNGSA,A,3,,,,,,,,,,,,,2.60,1.36,2.22,3*01
$GNGSA,A,3,19,01,30,20,08,02,,,,,,,2.60,1.36,2.22,4*04
$GPGSV,1,1,00,0*65
$GAGSV,1,1,00,0*74
$GBGSV,3,1,11,01,36,108,34,02,57,155,34,04,37,110,34,06,05,198,34,0*7A
$GBGSV,3,2,11,08,22,220,34,09,05,250,33,11,04,037,,19,16,290,34,0*71
$GBGSV,3,3,11,20,46,213,34,23,05,043,,30,17,183,34,0*4B
$GNGLL,2259.99991,N,11300.46375,E,000423.00,A,A*7F

$GNRMC,000424.00,A,2259.99991,N,11300.46669,E,9.743,90.05,170921,4.12,W,A,V*7A
$GNVTG,90.05,T,94.17,M,9.743,N,18.044,K,A*0A
$GNGGA,000424.00,2259.99991,N,11300.46669,E,1,06,1.36,15.2,M,-6.3,M,,*69
$GNGSA,A,3,,,,,,,,,,,,,2.60,1.36,2.22,1*03
$GNGSA,A,3,,,,,,,,,,,,,2.60,1.36,2.22,3*01
$GNGSA,A,3,19,01,30,20,08,02,,,,,,,2.60,1.36,2.22,4*04
$GPGSV,1,1,00,0*65
$GAGSV,1,1,00,0*74
$GBGSV,3,1,11,01,36,108,34,02,57,155,34,04,37,110,34,06,05,198,33,0*7D
$GBGSV,3,2,11,08,22,220,34,09,05,250,33,11,04,037,,19,16,290,34,0*71
$GBGSV,3,3,11,20,46,213,34,23,05,043,,30,17,183,34,0*4B
$GNGLL,2259.99991,N,11300.46669,E,000424.00,A,A*70

$GNRMC,000425.00,A,2259.99990,N,11300.46963,E,9.691,90.57,170921,4.12,W,A,V*76
$GNVTG,90.57,T,94.69,M,9.691,N,17.948,K,A*00
$GNGGA,000425.00,2259.99990,N,11300.46963,E,1,06,1.36,15.1,M,-6.3,M,,*6F
$GNGSA,A,3,,,,,,,,,,,,,2.60,1.36,2.22,1*03
$GNGSA,A,3,,,,,,,,,,,,,2.60,1.36,2.22,3*01
$GNGSA,A,3,19,01,30,20,08,02,,,,,,,2.60,1.36,2.22,4*04
$GPGSV,1,1,00,0*65
$GAGSV,1,1,00,0*74
$GBGSV,3,1,11,01,36,108,34,02,57,155,34,04,37,110,34,06,05,198,34,0*7A
$GBGSV,3,2,11,08,22,220,34,09,05,250,33,11,04,037,,19,16,290,34,0*71
$GBGSV,3,3,11,20,46,213,34,23,05,043,,30,17,183,34,0*4B
$GNGLL,2259.99990,N,11300.46963,E,000425.00,A,A*75

$GNRMC,000426.00,A,2259.99990,N,11300.47258,E,9.676,90.76,170921,4.12,W,A,V*7D
$GNVTG,90.76,T,94.88,M,9.676,N,17.920,K,A*0B
$GNGGA,000426.00,2259.99990,N,11300.47258,E,1,06,1.36,15.0,M,-6.3,M,,*6F
$GNGSA,A,3,,,,,,,,,,,,,2.60,1.36,2.22,1*03
$GNGSA,A,3,,,,,,,,,,,,,2.60,1.36,2.22,3*01
$GNGSA,A,3,19,01,30,20,08,02,,,,,,,2.60,1.36,2.22,4*04
$GPGSV,1,1,00,0*65
$GAGSV,1,1,00,0*74
$GBGSV,3,1,11,01,36,108,34,02,57,155,34,04,37,110,34,06,05,198,34,0*7A
$GBGSV,3,2,11,08,22,220,34,09,05,250,34,11,04,037,,19,16,290,34,0*76
$GBGSV,3,3,11,20,46,213,34,23,05,043,,30,17,183,34,0*4B
$GNGLL,2259.99990,N,11300.47258,E,000426.00,A,A*74

$GNRMC,000427.00,A,2259.99990,N,11300.47552,E,9.688,90.43,170921,4.12,W,A,V*76
$GNVTG,90.43,T,94.54,M,9.688,N,17.942,K,A*09
$GNGGA,000427.00,2259.99990,N,11300.47552,E,1,07,1.24,15.0,M,-6.3,M,,*61
$GNGSA,A,3,,,,,,,,,,,,,2.52,1.24,2.20,1*03
$GNGSA,A,3,,,,,,,,,,,,,2.52,1.24,2.20,3*01
$GNGSA,A,3,19,01,30,20,04,08,02,,,,,,2.52,1.24,2.20,4*00
$GPGSV,1,1,00,0*65
$GAGSV,1,1,00,0*74
$GBGSV,3,1,11,01,36,108,34,02,57,155,34,04,37,110,34,06,05,198,33,0*7D
$GBGSV,3,2,11,08,22,220,34,09,05,250,34,11,04,037,,19,16,290,34,0*76
$GBGSV,3,3,11,20,46,213,34,23,05,043,,30,17,183,34,0*4B
$GNGLL,2259.99990,N,11300.47552,E,000427.00,A,A*78

$GNRMC,000428.00,A,2259.99991,N,11300.47846,E,9.738,90.30,170921,4.12,W,A,V*7E
$GNVTG,90.30,T,94.41,M,9.738,N,18.035,K,A*05
$GNGGA,000428.00,2259.99991,N,11300.47846,E,1,07,1.24,14.9,M,-6.3,M,,*6F
$GNGSA,A,3,,,,,,,,,,,,,2.52,1.24,2.20,1*03
$GNGSA,A,3,,,,,,,,,,,,,2.52,1.24,2.20,3*01
$GNGSA,A,3,19,01,30,20,04,08,02,,,,,,2.52,1.24,2.20,4*00
$GPGSV,1,1,00,0*65
$GAGSV,1,1,00,0*74
$GBGSV,3,1,11,01,36,108,34,02,57,155,34,04,37,110,34,06,05,198,34,0*7A
$GBGSV,3,2,11,08,22,220,34,09,05,250,33,11,04,037,,19,16,290,34,0*71
$GBGSV,3,3,11,20,46,213,34,23,05,043,,30,17,183,34,0*4B
$GNGLL,2259.99991,N,11300.47846,E,000428.00,A,A*7E

$GNRMC,000429.00,A,2259.99989,N,11300.48140,E,9.793,89.21,170921,4.12,W,A,V*7F
$GNVTG,89.21,T,93.32,M,9.793,N,18.136,K,A*0D
$GNGGA,000429.00,2259.99989,N,11300.48140,E,1,07,1.24,14.9,M,-6.3,M,,*67
$GNGSA,A,3,,,,,,,,,,,,,2.52,1.24,2.20,1*03
$GNGSA,A,3,,,,,,,,,,,,,2.52,1.24,2.20,3*01
$GNGSA,A,3,19,01,30,20,04,08,02,,,,,,2.52,1.24,2.20,4*00
$GPGSV,1,1,00,0*65
$GAGSV,1,1,00,0*74
$GBGSV,3,1,11,01,36,108,34,02,57,155,34,04,37,110,34,06,05,198,34,0*7A
$GBGSV,3,2,11,08,22,220,34,09,05,250,33,11,04,037,,19,16,290,34,0*71
$GBGSV,3,3,11,20,46,213,34,23,05,043,,30,17,183,34,0*4B
$GNGLL,2259.99989,N,11300.48140,E,000429.00,A,A*76

$GNRMC,000430.00,A,2259.99990,N,11300.48434,E,9.759,89.53,170921,4.12,W,A,V*7A
$GNVTG,89.53,T,93.65,M,9.759,N,18.074,K,A*0B
$GNGGA,000430.00,2259.99990,N,11300.48434,E,1,07,1.24,14.9,M,-6.3,M,,*61
$GNGSA,A,3,,,,,,,,,,,,,2.52,1.24,2.20,1*03
$GNGSA,A,3,,,,,,,,,,,,,2.52,1.24,2.20,3*01
$GNGSA,A,3,19,01,30,20,04,08,02,,,,,,2.52,1.24,2.20,4*00
$GPGSV,1,1,00,0*65
$GAGSV,1,1,00,0*74
$GBGSV,3,1,11,01,36,108,34,02,57,155,34,04,37,110,34,06,05,198,33,0*7D
$GBGSV,3,2,11,08,22,220,34,09,05,250,34,11,04,037,,19,16,290,34,0*76
$GBGSV,3,3,11,20,46,213,34,23,05,043,,30,17,183,34,0*4B
$GNGLL,2259.99990,N,11300.48434,E,000430.00,A,A*70

$GNRMC,000431.00,A,2259.99991,N,11300.48727,E,9.736,89.99,170921,4.12,W,A,V*74
$GNVTG,89.99,T,94.11,M,9.736,N,18.030,K,A*00
$GNGGA,000431.00,2259.99991,N,11300.48727,E,1,07,1.24,14.9,M,-6.3,M,,*60
$GNGSA,A,3,,,,,,,,,,,,,2.52,1.24,2.20,1*03
$GNGSA,A,3,,,,,,,,,,,,,2.52,1.24,2.20,3*01
$GNGSA,A,3,19,01,30,20,04,08,02,,,,,,2.52,1.24,2.20,4*00
$GPGSV,1,1,00,0*65
$GAGSV,1,1,00,0*74
$GBGSV,3,1,11,01,36,108,34,02,57,155,34,04,37,110,34,06,05,198,34,0*7A
$GBGSV,3,2,11,08,22,220,34,09,05,250,34,11,04,037,,19,16,290,34,0*76
$GBGSV,3,3,11,20,46,213,34,23,05,043,,30,17,183,34,0*4B
$GNGLL,2259.99991,N,11300.48727,E,000431.00,A,A*71

$GNRMC,000432.00,A,2259.99990,N,11300.49018,E,9.724,89.70,170921,4.12,W,A,V*78
$GNVTG,89.70,T,93.82,M,9.724,N,18.008,K,A*02
$GNGGA,000432.00,2259.99990,N,11300.49018,E,1,07,1.24,15.0,M,-6.3,M,,*60
$GNGSA,A,3,,,,,,,,,,,,,2.52,1.24,2.20,1*03
$GNGSA,A,3,,,,,,,,,,,,,2.52,1.24,2.20,3*01
$GNGSA,A,3,19,01,30,20,04,08,02,,,,,,2.52,1.24,2.20,4*00
$GPGSV,1,1,00,0*65
$GAGSV,1,1,00,0*74
$GBGSV,3,1,11,01,36,108,34,02,57,155,34,04,37,110,34,06,05,198,34,0*7A
$GBGSV,3,2,11,08,22,220,34,09,05,250,33,11,04,037,,19,16,290,34,0*71
$GBGSV,3,3,11,20,46,213,34,23,05,043,,30,17,183,34,0*4B
$GNGLL,2259.99990,N,11300.49018,E,000432.00,A,A*79

$GNRMC,000433.00,A,2259.99991,N,11300.49311,E,9.699,90.43,170921,4.12,W,A,V*7D
$GNVTG,90.43,T,94.55,M,9.699,N,17.962,K,A*0A
$GNGGA,000433.00,2259.99991,N,11300.49311,E,1,07,1.24,15.0,M,-6.3,M,,*6A
$GNGSA,A,3,,,,,,,,,,,,,2.53,1.24,2.20,1*02
$GNGSA,A,3,,,,,,,,,,,,,2.53,1.24,2.20,3*00
$GNGSA,A,3,19,01,30,20,04,08,02,,,,,,2.53,1.24,2.20,4*01
$GPGSV,1,1,00,0*65
$GAGSV,1,1,00,0*74
$GBGSV,3,1,11,01,36,108,34,02,57,155,34,04,37,110,34,06,05,198,33,0*7D
$GBGSV,3,2,11,08,22,220,34,09,05,250,34,11,04,037,,19,16,290,34,0*76
$GBGSV,3,3,11,20,46,213,34,23,05,043,,30,17,183,34,0*4B
$GNGLL,2259.99991,N,11300.49311,E,000433.00,A,A*73

$GNRMC,000434.00,A,2259.99990,N,11300.49603,E,9.713,90.12,170921,4.12,W,A,V*7A
$GNVTG,90.12,T,94.24,M,9.713,N,17.989,K,A*0E
$GNGGA,000434.00,2259.99990,N,11300.49603,E,1,07,1.24,15.0,M,-6.3,M,,*6A
$GNGSA,A,3,,,,,,,,,,,,,2.53,1.24,2.20,1*02
$GNGSA,A,3,,,,,,,,,,,,,2.53,1.24,2.20,3*00
$GNGSA,A,3,19,01,30,20,04,08,02,,,,,,2.53,1.24,2.20,4*01
$GPGSV,1,1,00,0*65
$GAGSV,1,1,00,0*74
$GBGSV,3,1,11,01,36,108,34,02,57,155,34,04,37,110,34,06,05,198,34,0*7A
$GBGSV,3,2,11,08,22,220,34,09,05,250,34,11,04,037,,19,16,290,34,0*76
$GBGSV,3,3,11,20,46,213,34,23,05,043,,30,17,183,34,0*4B
$GNGLL,2259.99990,N,11300.49603,E,000434.00,A,A*73

$GNRMC,000435.00,A,2259.99989,N,11300.49895,E,9.739,89.92,170921,4.12,W,A,V*7A
$GNVTG,89.92,T,94.04,M,9.739,N,18.037,K,A*07
$GNGGA,000435.00,2259.99989,N,11300.49895,E,1,07,1.24,15.0,M,-6.3,M,,*62
$GNGSA,A,3,,,,,,,,,,,,,2.53,1.24,2.20,1*02
$GNGSA,A,3,,,,,,,,,,,,,2.53,1.24,2.20,3*00
$GNGSA,A,3,19,01,30,20,04,08,02,,,,,,2.53,1.24,2.20,4*01
$GPGSV,1,1,00,0*65
$GAGSV,1,1,00,0*74
$GBGSV,3,1,11,01,36,108,34,02,57,155,34,04,37,110,34,06,05,198,34,0*7A
$GBGSV,3,2,11,08,22,220,34,09,05,250,33,11,04,037,,19,16,290,34,0*71
$GBGSV,3,3,11,20,46,213,34,23,05,043,,30,17,183,34,0*4B
$GNGLL,2259.99989,N,11300.49895,E,000435.00,A,A*7B

$GNRMC,000436.00,A,2259.99991,N,11300.50188,E,9.653,90.69,170921,4.12,W,A,V*7C
$GNVTG,90.69,T,94.81,M,9.653,N,17.877,K,A*08
$GNGGA,000436.00,2259.99991,N,11300.50188,E,1,07,1.24,15.0,M,-6.3,M,,*65
$GNGSA,A,3,,,,,,,,,,,,,2.53,1.24,2.20,1*02
$GNGSA,A,3,,,,,,,,,,,,,2.53,1.24,2.20,3*00
$GNGSA,A,3,19,01,30,20,04,08,02,,,,,,2.53,1.24,2.20,4*01
$GPGSV,1,1,00,0*65
$GAGSV,1,1,00,0*74
$GBGSV,3,1,11,01,36,108,34,02,57,155,34,04,37,110,34,06,05,198,33,0*7D
$GBGSV,3,2,11,08,22,220,34,09,05,250,34,11,04,037,,19,16,290,34,0*76
$GBGSV,3,3,11,20,46,213,34,23,05,043,,30,17,183,34,0*4B
$GNGLL,2259.99991,N,11300.50188,E,000436.00,A,A*7C

$GNRMC,000437.00,A,2259.99991,N,11300.50481,E,9.668,90.67,170921,4.12,W,A,V*77
$GNVTG,90.67,T,94.79,M,9.668,N,17.905,K,A*0D
$GNGGA,000437.00,2259.99991,N,11300.50481,E,1,07,1.24,14.9,M,-6.3,M,,*60
$GNGSA,A,3,,,,,,,,,,,,,2.53,1.24,2.20,1*02
$GNGSA,A,3,,,,,,,,,,,,,2.53,1.24,2.20,3*00
$GNGSA,A,3,19,01,30,20,04,08,02,,,,,,2.53,1.24,2.20,4*01
$GPGSV,1,1,00,0*65
$GAGSV,1,1,00,0*74
$GBGSV,3,1,11,01,36,108,34,02,57,155,34,04,37,110,34,06,05,198,34,0*7A
$GBGSV,3,2,11,08,22,220,34,09,05,250,33,11,04,037,,19,16,290,34,0*71
$GBGSV,3,3,11,20,46,213,34,23,05,043,,30,17,183,34,0*4B
$GNGLL,2259.99991,N,11300.50481,E,000437.00,A,A*71

$GNRMC,000438.00,A,2259.99989,N,11300.50774,E,9.697,90.22,170921,4.12,W,A,V*79
$GNVTG,90.22,T,94.33,M,9.697,N,17.959,K,A*0B
$GNGGA,000438.00,2259.99989,N,11300.50774,E,1,07,1.24,14.9,M,-6.3,M,,*6F
$GNGSA,A,3,,,,,,,,,,,,,2.53,1.24,2.20,1*02
$GNGSA,A,3,,,,,,,,,,,,,2.53,1.24,2.20,3*00
$GNGSA,A,3,19,01,30,20,04,08,02,,,,,,2.53,1.24,2.20,4*01
$GPGSV,1,1,00,0*65
$GAGSV,1,1,00,0*74
$GBGSV,3,1,11,01,36,108,34,02,57,155,34,04,37,110,34,06,05,198,33,0*7D
$GBGSV,3,2,11,08,22,220,34,09,05,250,34,11,04,037,,19,16,290,34,0*76
$GBGSV,3,3,11,20,46,213,34,23,05,043,,30,17,183,34,0*4B
$GNGLL,2259.99989,N,11300.50774,E,000438.00,A,A*7E

$GNRMC,000439.00,A,2259.99987,N,11300.51066,E,9.726,89.97,170921,4.12,W,A,V*7E
$GNVTG,89.97,T,94.08,M,9.726,N,18.012,K,A*07
$GNGGA,000439.00,2259.99987,N,11300.51066,E,1,07,1.24,14.9,M,-6.3,M,,*65
$GNGSA,A,3,,,,,,,,,,,,,2.53,1.24,2.20,1*02
$GNGSA,A,3,,,,,,,,,,,,,2.53,1.24,2.20,3*00
$GNGSA,A,3,19,01,30,20,04,08,02,,,,,,2.53,1.24,2.20,4*01
$GPGSV,1,1,00,0*65
$GAGSV,1,1,00,0*74
$GBGSV,3,1,11,01,36,108,34,02,57,155,34,04,37,110,34,06,05,198,34,0*7A
$GBGSV,3,2,11,08,22,220,34,09,05,250,33,11,04,037,,19,16,290,34,0*71
$GBGSV,3,3,11,20,46,213,34,23,05,043,,30,17,183,34,0*4B
$GNGLL,2259.99987,N,11300.51066,E,000439.00,A,A*74

$GNRMC,000440.00,A,2259.99986,N,11300.51359,E,9.727,89.75,170921,4.12,W,A,V*73
$GNVTG,89.75,T,93.86,M,9.727,N,18.014,K,A*0D
$GNGGA,000440.00,2259.99986,N,11300.51359,E,1,07,1.24,14.9,M,-6.3,M,,*65
$GNGSA,A,3,,,,,,,,,,,,,2.53,1.24,2.20,1*02
$GNGSA,A,3,,,,,,,,,,,,,2.53,1.24,2.20,3*00
$GNGSA,A,3,19,01,30,20,04,08,02,,,,,,2.53,1.24,2.20,4*01
$GPGSV,1,1,00,0*65
$GAGSV,1,1,00,0*74
$GBGSV,3,1,11,01,36,108,34,02,57,155,34,04,37,110,34,06,05,198,34,0*7A
$GBGSV,3,2,11,08,22,220,34,09,05,250,33,11,04,037,,19,16,290,34,0*71
$GBGSV,3,3,11,20,46,213,34,23,05,043,,30,17,183,34,0*4B
$GNGLL,2259.99986,N,11300.51359,E,000440.00,A,A*74

$GNRMC,000441.00,A,2259.99986,N,11300.51652,E,9.728,89.59,170921,4.12,W,A,V*7D
$GNVTG,89.59,T,93.70,M,9.728,N,18.015,K,A*04
$GNGGA,000441.00,2259.99986,N,11300.51652,E,1,07,1.24,14.9,M,-6.3,M,,*6A
$GNGSA,A,3,,,,,,,,,,,,,2.53,1.24,2.20,1*02
$GNGSA,A,3,,,,,,,,,,,,,2.53,1.24,2.20,3*00
$GNGSA,A,3,19,01,30,20,04,08,02,,,,,,2.53,1.24,2.20,4*01
$GPGSV,1,1,00,0*65
$GAGSV,1,1,00,0*74
$GBGSV,3,1,11,01,36,108,34,02,57,155,34,04,37,110,34,06,05,198,34,0*7A
$GBGSV,3,2,11,08,22,220,34,09,05,250,33,11,04,037,,19,16,290,34,0*71
$GBGSV,3,3,11,20,46,213,34,23,05,043,,30,17,183,34,0*4B
$GNGLL,2259.99986,N,11300.51652,E,000441.00,A,A*7B

$GNRMC,000442.00,A,2259.99986,N,11300.51944,E,9.742,89.52,170921,4.12,W,A,V*71
$GNVTG,89.52,T,93.64,M,9.742,N,18.042,K,A*04
$GNGGA,000442.00,2259.99986,N,11300.51944,E,1,07,1.24,15.0,M,-6.3,M,,*69
$GNGSA,A,3,,,,,,,,,,,,,2.53,1.24,2.20,1*02
$GNGSA,A,3,,,,,,,,,,,,,2.53,1.24,2.20,3*00
$GNGSA,A,3,19,01,30,20,04,08,02,,,,,,2.53,1.24,2.20,4*01
$GPGSV,1,1,00,0*65
$GAGSV,1,1,00,0*74
$GBGSV,3,1,11,01,36,108,34,02,57,155,34,04,37,110,34,06,05,198,33,0*7D
$GBGSV,3,2,11,08,22,220,34,09,05,250,34,11,04,037,,19,16,290,34,0*76
$GBGSV,3,3,11,20,46,213,34,23,05,043,,30,17,183,34,0*4B
$GNGLL,2259.99986,N,11300.51944,E,000442.00,A,A*70

$GNRMC,000443.00,A,2259.99987,N,11300.52236,E,9.737,89.66,170921,4.12,W,A,V*79
$GNVTG,89.66,T,93.78,M,9.737,N,18.032,K,A*0B
$GNGGA,000443.00,2259.99987,N,11300.52236,E,1,07,1.24,15.0,M,-6.3,M,,*64
$GNGSA,A,3,,,,,,,,,,,,,2.53,1.24,2.20,1*02
$GNGSA,A,3,,,,,,,,,,,,,2.53,1.24,2.20,3*00
$GNGSA,A,3,19,01,30,20,04,08,02,,,,,,2.53,1.24,2.20,4*01
$GPGSV,1,1,00,0*65
$GAGSV,1,1,00,0*74
$GBGSV,3,1,11,01,36,108,34,02,57,155,34,04,37,110,34,06,05,198,33,0*7D
$GBGSV,3,2,11,08,22,220,34,09,05,250,34,11,04,037,,19,16,290,34,0*76
$GBGSV,3,3,11,20,46,213,34,23,05,043,,30,17,183,34,0*4B
$GNGLL,2259.99987,N,11300.52236,E,000443.00,A,A*7D

$GNRMC,000444.00,A,2259.99989,N,11300.52529,E,9.714,89.96,170921,4.12,W,A,V*77
$GNVTG,89.96,T,94.08,M,9.714,N,17.990,K,A*0B
$GNGGA,000444.00,2259.99989,N,11300.52529,E,1,07,1.24,15.0,M,-6.3,M,,*64
$GNGSA,A,3,,,,,,,,,,,,,2.53,1.24,2.21,1*03
$GNGSA,A,3,,,,,,,,,,,,,2.53,1.24,2.21,3*01
$GNGSA,A,3,19,01,30,20,04,08,02,,,,,,2.53,1.24,2.21,4*00
$GPGSV,1,1,00,0*65
$GAGSV,1,1,00,0*74
$GBGSV,3,1,12,01,36,108,34,02,57,155,34,04,37,110,34,06,05,198,34,0*79
$GBGSV,3,2,12,08,22,220,34,09,05,250,34,11,04,037,,19,16,290,34,0*75
$GBGSV,3,3,12,20,46,213,34,23,05,043,,26,02,198,,30,17,183,34,0*7E
$GNGLL,2259.99989,N,11300.52529,E,000444.00,A,A*7D

$GNRMC,000445.00,A,2259.99991,N,11300.52823,E,9.685,90.50,170921,4.12,W,A,V*73
$GNVTG,90.50,T,94.62,M,9.685,N,17.937,K,A*01
$GNGGA,000445.00,2259.99991,N,11300.52823,E,1,07,1.24,15.0,M,-6.3,M,,*6B
$GNGSA,A,3,,,,,,,,,,,,,2.53,1.24,2.21,1*03
$GNGSA,A,3,,,,,,,,,,,,,2.53,1.24,2.21,3*01
$GNGSA,A,3,19,01,30,20,04,08,02,,,,,,2.53,1.24,2.21,4*00
$GPGSV,1,1,00,0*65
$GAGSV,1,1,00,0*74
$GBGSV,3,1,12,01,36,108,34,02,57,155,34,04,37,110,34,06,05,198,34,0*79
$GBGSV,3,2,12,08,22,220,34,09,05,250,33,11,04,037,,19,16,290,34,0*72
$GBGSV,3,3,12,20,46,213,34,23,05,043,,26,02,198,,30,17,183,34,0*7E
$GNGLL,2259.99991,N,11300.52823,E,000445.00,A,A*72

$GNRMC,000446.00,A,2259.99991,N,11300.53115,E,9.718,90.34,170921,4.12,W,A,V*7A
$GNVTG,90.34,T,94.45,M,9.718,N,17.997,K,A*09
$GNGGA,000446.00,2259.99991,N,11300.53115,E,1,07,1.24,15.0,M,-6.3,M,,*65
$GNGSA,A,3,,,,,,,,,,,,,2.53,1.24,2.21,1*03
$GNGSA,A,3,,,,,,,,,,,,,2.53,1.24,2.21,3*01
$GNGSA,A,3,19,01,30,20,04,08,02,,,,,,2.53,1.24,2.21,4*00
$GPGSV,1,1,00,0*65
$GAGSV,1,1,00,0*74
$GBGSV,3,1,12,01,36,108,34,02,57,155,34,04,37,110,34,06,05,198,34,0*79
$GBGSV,3,2,12,08,22,220,34,09,05,250,34,11,04,037,,19,16,290,34,0*75
$GBGSV,3,3,12,20,46,213,34,23,05,043,,26,02,198,,30,17,183,34,0*7E
$GNGLL,2259.99991,N,11300.53115,E,000446.00,A,A*7C

$GNRMC,000447.00,A,2259.99989,N,11300.53407,E,9.724,90.06,170921,4.12,W,A,V*7A
$GNVTG,90.06,T,94.18,M,9.724,N,18.009,K,A*0E
$GNGGA,000447.00,2259.99989,N,11300.53407,E,1,07,1.24,15.1,M,-6.3,M,,*6A
$GNGSA,A,3,,,,,,,,,,,,,2.53,1.24,2.21,1*03
$GNGSA,A,3,,,,,,,,,,,,,2.53,1.24,2.21,3*01
$GNGSA,A,3,19,01,30,20,04,08,02,,,,,,2.53,1.24,2.21,4*00
$GPGSV,1,1,00,0*65
$GAGSV,1,1,00,0*74
$GBGSV,4,1,13,01,36,108,34,02,57,155,34,04,37,110,34,06,05,198,34,0*7F
$GBGSV,4,2,13,08,22,220,34,09,05,250,34,11,04,037,,19,16,290,34,0*73
$GBGSV,4,3,13,20,46,213,34,23,05,043,,26,02,198,,27,17,252,,0*76
$GBGSV,4,4,13,30,17,183,34,0*4D
$GNGLL,2259.99989,N,11300.53407,E,000447.00,A,A*72

$GNRMC,000448.00,A,2259.99989,N,11300.53700,E,9.711,90.28,170921,4.12,W,A,V*7B
$GNVTG,90.28,T,94.40,M,9.711,N,17.984,K,A*0A
$GNGGA,000448.00,2259.99989,N,11300.53700,E,1,07,1.24,15.1,M,-6.3,M,,*61
$GNGSA,A,3,,,,,,,,,,,,,2.53,1.24,2.21,1*03
$GNGSA,A,3,,,,,,,,,,,,,2.53,1.24,2.21,3*01
$GNGSA,A,3,19,01,30,20,04,08,02,,,,,,2.53,1.24,2.21,4*00
$GPGSV,1,1,00,0*65
$GAGSV,1,1,00,0*74
$GBGSV,4,1,13,01,36,108,34,02,57,155,34,04,37,110,34,06,05,198,34,0*7F
$GBGSV,4,2,13,08,22,220,34,09,05,250,33,11,04,037,,19,16,290,34,0*74
$GBGSV,4,3,13,20,46,213,34,23,05,043,,26,02,198,,27,17,252,34,0*71
$GBGSV,4,4,13,30,17,183,34,0*4D
$GNGLL,2259.99989,N,11300.53700,E,000448.00,A,A*79

$GNRMC,000449.00,A,2259.99990,N,11300.53993,E,9.684,90.25,170921,4.12,W,A,V*76
$GNVTG,90.25,T,94.37,M,9.684,N,17.934,K,A*01
$GNGGA,000449.00,2259.99990,N,11300.53993,E,1,07,1.24,15.1,M,-6.3,M,,*6C
$GNGSA,A,3,,,,,,,,,,,,,2.53,1.24,2.21,1*03
$GNGSA,A,3,,,,,,,,,,,,,2.53,1.24,2.21,3*01
$GNGSA,A,3,19,01,30,20,04,08,02,,,,,,2.53,1.24,2.21,4*00
$GPGSV,1,1,00,0*65
$GAGSV,1,1,00,0*74
$GBGSV,4,1,13,01,36,108,34,02,57,155,34,04,37,110,34,06,05,198,34,0*7F
$GBGSV,4,2,13,08,22,220,34,09,05,250,34,11,04,037,,19,16,290,34,0*73
$GBGSV,4,3,13,20,46,213,34,23,05,043,,26,02,198,,27,17,252,34,0*71
$GBGSV,4,4,13,30,17,183,34,0*4D
$GNGLL,2259.99990,N,11300.53993,E,000449.00,A,A*74

$GNRMC,000450.00,A,2259.99990,N,11300.54285,E,9.691,90.03,170921,4.12,W,A,V*75
$GNVTG,90.03,T,94.15,M,9.691,N,17.947,K,A*05
$GNGGA,000450.00,2259.99990,N,11300.54285,E,1,07,1.24,15.2,M,-6.3,M,,*6C
$GNGSA,A,3,,,,,,,,,,,,,2.53,1.24,2.21,1*03
$GNGSA,A,3,,,,,,,,,,,,,2.53,1.24,2.21,3*01
$GNGSA,A,3,19,01,30,20,04,08,02,,,,,,2.53,1.24,2.21,4*00
$GPGSV,1,1,00,0*65
$GAGSV,1,1,00,0*74
$GBGSV,4,1,13,01,36,108,34,02,57,155,34,04,37,110,34,06,05,198,34,0*7F
$GBGSV,4,2,13,08,22,220,34,09,05,250,34,11,04,037,,19,16,290,34,0*73
$GBGSV,4,3,13,20,46,213,34,23,05,043,,26,02,198,,27,17,252,34,0*71
$GBGSV,4,4,13,30,17,183,34,0*4D
$GNGLL,2259.99990,N,11300.54285,E,000450.00,A,A*77

$GNRMC,000451.00,A,2259.99988,N,11300.54577,E,9.738,89.53,170921,4.12,W,A,V*78
$GNVTG,89.53,T,93.65,M,9.738,N,18.034,K,A*08
$GNGGA,000451.00,2259.99988,N,11300.54577,E,1,07,1.24,15.2,M,-6.3,M,,*6E
$GNGSA,A,3,,,,,,,,,,,,,2.53,1.24,2.21,1*03
$GNGSA,A,3,,,,,,,,,,,,,2.53,1.24,2.21,3*01
$GNGSA,A,3,19,01,30,20,04,08,02,,,,,,2.53,1.24,2.21,4*00
$GPGSV,1,1,00,0*65
$GAGSV,1,1,00,0*74
$GBGSV,4,1,13,01,36,108,34,02,57,155,34,04,37,110,34,06,05,198,34,0*7F
$GBGSV,4,2,13,08,22,220,34,09,05,250,34,11,04,037,,19,16,290,34,0*73
$GBGSV,4,3,13,20,46,213,34,23,05,043,,26,02,198,,27,17,252,34,0*71
$GBGSV,4,4,13,30,17,183,34,0*4D
$GNGLL,2259.99988,N,11300.54577,E,000451.00,A,A*75

$GNRMC,000452.00,A,2259.99988,N,11300.54870,E,9.741,89.60,170921,4.12,W,A,V*7F
$GNVTG,89.60,T,93.72,M,9.741,N,18.040,K,A*03
$GNGGA,000452.00,2259.99988,N,11300.54870,E,1,07,1.24,15.2,M,-6.3,M,,*67
$GNGSA,A,3,,,,,,,,,,,,,2.53,1.24,2.21,1*03
$GNGSA,A,3,,,,,,,,,,,,,2.53,1.24,2.21,3*01
$GNGSA,A,3,19,01,30,20,04,08,02,,,,,,2.53,1.24,2.21,4*00
$GPGSV,1,1,00,0*65
$GAGSV,1,1,00,0*74
$GBGSV,4,1,13,01,36,108,34,02,57,155,34,04,37,110,34,06,05,198,34,0*7F
$GBGSV,4,2,13,08,22,220,34,09,05,250,33,11,04,037,,19,16,290,34,0*74
$GBGSV,4,3,13,20,46,213,34,23,05,043,,26,02,198,,27,17,252,34,0*71
$GBGSV,4,4,13,30,17,183,34,0*4D
$GNGLL,2259.99988,N,11300.54870,E,000452.00,A,A*7C

$GNRMC,000453.00,A,2259.99989,N,11300.55163,E,9.762,89.58,170921,4.12,W,A,V*7F
$GNVTG,89.58,T,93.70,M,9.762,N,18.079,K,A*01
$GNGGA,000453.00,2259.99989,N,11300.55163,E,1,07,1.24,15.3,M,-6.3,M,,*6C
$GNGSA,A,3,,,,,,,,,,,,,2.53,1.24,2.21,1*03
$GNGSA,A,3,,,,,,,,,,,,,2.53,1.24,2.21,3*01
$GNGSA,A,3,19,01,30,20,04,08,02,,,,,,2.53,1.24,2.21,4*00
$GPGSV,1,1,00,0*65
$GAGSV,1,1,00,0*74
$GBGSV,4,1,13,01,36,108,34,02,57,155,34,04,37,110,34,06,05,198,33,0*78
$GBGSV,4,2,13,08,22,220,34,09,05,250,33,11,04,037,,19,16,290,34,0*74
$GBGSV,4,3,13,20,46,213,34,23,05,043,,26,02,198,,27,17,252,34,0*71
$GBGSV,4,4,13,30,17,183,34,0*4D
$GNGLL,2259.99989,N,11300.55163,E,000453.00,A,A*76

$GNRMC,000454.00,A,2259.99989,N,11300.55456,E,9.747,89.65,170921,4.12,W,A,V*72
$GNVTG,89.65,T,93.77,M,9.747,N,18.051,K,A*05
$GNGGA,000454.00,2259.99989,N,11300.55456,E,1,07,1.24,15.3,M,-6.3,M,,*68
$GNGSA,A,3,,,,,,,,,,,,,2.53,1.24,2.21,1*03
$GNGSA,A,3,,,,,,,,,,,,,2.53,1.24,2.21,3*01
$GNGSA,A,3,19,01,30,20,04,08,02,,,,,,2.53,1.24,2.21,4*00
$GPGSV,1,1,00,0*65
$GAGSV,1,1,00,0*74
$GBGSV,4,1,13,01,36,108,34,02,57,155,34,04,37,110,34,06,05,198,33,0*78
$GBGSV,4,2,13,08,22,220,34,09,05,250,34,11,04,037,,19,16,290,34,0*73
$GBGSV,4,3,13,20,46,213,34,23,05,043,,26,02,198,,27,17,252,34,0*71
$GBGSV,4,4,13,30,17,183,34,0*4D
$GNGLL,2259.99989,N,11300.55456,E,000454.00,A,A*72

$GNRMC,000455.00,A,2259.99989,N,11300.55748,E,9.693,90.15,170921,4.12,W,A,V*78
$GNVTG,90.15,T,94.26,M,9.693,N,17.951,K,A*07
$GNGGA,000455.00,2259.99989,N,11300.55748,E,1,07,1.24,15.3,M,-6.3,M,,*65
$GNGSA,A,3,,,,,,,,,,,,,2.54,1.24,2.21,1*04
$GNGSA,A,3,,,,,,,,,,,,,2.54,1.24,2.21,3*06
$GNGSA,A,3,19,01,30,20,04,08,02,,,,,,2.54,1.24,2.21,4*07
$GPGSV,1,1,00,0*65
$GAGSV,1,1,00,0*74
$GBGSV,4,1,13,01,36,108,34,02,57,155,34,04,37,110,34,06,05,198,34,0*7F
$GBGSV,4,2,13,08,22,220,34,09,05,250,34,11,04,037,,19,16,290,34,0*73
$GBGSV,4,3,13,20,46,213,34,23,05,043,,26,02,198,,27,17,252,34,0*71
$GBGSV,4,4,13,30,17,183,34,0*4D
$GNGLL,2259.99989,N,11300.55748,E,000455.00,A,A*7F

$GNRMC,000456.00,A,2259.99990,N,11300.56041,E,9.677,90.77,170921,4.12,W,A,V*70
$GNVTG,90.77,T,94.89,M,9.677,N,17.921,K,A*0B
$GNGGA,000456.00,2259.99990,N,11300.56041,E,1,07,1.24,15.3,M,-6.3,M,,*63
$GNGSA,A,3,,,,,,,,,,,,,2.54,1.24,2.21,1*04
$GNGSA,A,3,,,,,,,,,,,,,2.54,1.24,2.21,3*06
$GNGSA,A,3,19,01,30,20,04,08,02,,,,,,2.54,1.24,2.21,4*07
$GPGSV,1,1,00,0*65
$GAGSV,1,1,00,0*74
$GBGSV,4,1,13,01,36,108,34,02,57,155,34,04,37,110,34,06,05,198,34,0*7F
$GBGSV,4,2,13,08,22,220,34,09,05,250,34,11,04,037,,19,16,290,34,0*73
$GBGSV,4,3,13,20,45,213,34,23,05,043,,26,02,198,,27,17,252,34,0*72
$GBGSV,4,4,13,30,17,183,34,0*4D
$GNGLL,2259.99990,N,11300.56041,E,000456.00,A,A*79

$GNRMC,000457.00,A,2259.99989,N,11300.56334,E,9.651,91.49,170921,4.12,W,A,V*70
$GNVTG,91.49,T,95.60,M,9.651,N,17.874,K,A*04
$GNGGA,000457.00,2259.99989,N,11300.56334,E,1,07,1.24,15.3,M,-6.3,M,,*6B
$GNGSA,A,3,,,,,,,,,,,,,2.54,1.24,2.21,1*04
$GNGSA,A,3,,,,,,,,,,,,,2.54,1.24,2.21,3*06
$GNGSA,A,3,19,01,30,20,04,08,02,,,,,,2.54,1.24,2.21,4*07
$GPGSV,1,1,00,0*65
$GAGSV,1,1,00,0*74
$GBGSV,4,1,13,01,36,108,34,02,57,155,34,04,37,110,34,06,05,198,33,0*78
$GBGSV,4,2,13,08,22,220,34,09,05,250,34,11,04,037,,19,16,290,34,0*73
$GBGSV,4,3,13,20,45,213,34,23,05,043,,26,02,198,,27,17,252,34,0*72
$GBGSV,4,4,13,30,17,183,34,0*4D
$GNGLL,2259.99989,N,11300.56334,E,000457.00,A,A*71

$GNRMC,000458.00,A,2259.99986,N,11300.56626,E,9.685,90.57,170921,4.12,W,A,V*71
$GNVTG,90.57,T,94.68,M,9.685,N,17.936,K,A*0D
$GNGGA,000458.00,2259.99986,N,11300.56626,E,1,07,1.24,15.3,M,-6.3,M,,*6D
$GNGSA,A,3,,,,,,,,,,,,,2.54,1.24,2.21,1*04
$GNGSA,A,3,,,,,,,,,,,,,2.54,1.24,2.21,3*06
$GNGSA,A,3,19,01,30,20,04,08,02,,,,,,2.54,1.24,2.21,4*07
$GPGSV,1,1,00,0*65
$GAGSV,1,1,00,0*74
$GBGSV,4,1,13,01,36,108,34,02,57,155,34,04,37,110,34,06,05,198,33,0*78
$GBGSV,4,2,13,08,22,220,34,09,05,250,34,11,04,037,,19,16,290,34,0*73
$GBGSV,4,3,13,20,45,213,34,23,05,043,,26,02,198,,27,17,252,34,0*72
$GBGSV,4,4,13,30,17,183,34,0*4D
$GNGLL,2259.99986,N,11300.56626,E,000458.00,A,A*77

$GNRMC,000459.00,A,2259.99983,N,11300.56918,E,9.779,89.66,170921,4.12,W,A,V*7F
$GNVTG,89.66,T,93.78,M,9.779,N,18.111,K,A*01
$GNGGA,000459.00,2259.99983,N,11300.56918,E,1,07,1.24,15.4,M,-6.3,M,,*6C
$GNGSA,A,3,,,,,,,,,,,,,2.54,1.24,2.21,1*04
$GNGSA,A,3,,,,,,,,,,,,,2.54,1.24,2.21,3*06
$GNGSA,A,3,19,01,30,20,04,08,02,,,,,,2.54,1.24,2.21,4*07
$GPGSV,1,1,00,0*65
$GAGSV,1,1,00,0*74
$GBGSV,4,1,13,01,36,108,34,02,57,155,34,04,37,110,34,06,05,198,34,0*7F
$GBGSV,4,2,13,08,22,220,34,09,05,250,34,11,04,037,,19,16,290,34,0*73
$GBGSV,4,3,13,20,45,213,34,23,04,043,,26,02,198,,27,17,252,34,0*73
$GBGSV,4,4,13,30,17,183,34,0*4D
$GNGLL,2259.99983,N,11300.56918,E,000459.00,A,A*71

$GNRMC,000500.00,A,2259.99982,N,11300.57211,E,9.743,89.42,170921,4.12,W,A,V*7F
$GNVTG,89.42,T,93.54,M,9.743,N,18.043,K,A*06
$GNGGA,000500.00,2259.99982,N,11300.57211,E,1,07,1.24,15.4,M,-6.3,M,,*63
$GNGSA,A,3,,,,,,,,,,,,,2.54,1.24,2.21,1*04
$GNGSA,A,3,,,,,,,,,,,,,2.54,1.24,2.21,3*06
$GNGSA,A,3,19,01,30,20,04,08,02,,,,,,2.54,1.24,2.21,4*07
$GPGSV,1,1,00,0*65
$GAGSV,1,1,00,0*74
$GBGSV,4,1,13,01,36,108,34,02,57,155,34,04,37,110,34,06,05,198,33,0*78
$GBGSV,4,2,13,08,22,220,34,09,05,250,34,11,04,037,,19,16,290,34,0*73
$GBGSV,4,3,13,20,45,213,34,23,04,043,,26,02,198,,27,17,252,34,0*73
$GBGSV,4,4,13,30,17,183,34,0*4D
$GNGLL,2259.99982,N,11300.57211,E,000500.00,A,A*7E

$GNRMC,000501.00,A,2259.99984,N,11300.57505,E,9.744,89.86,170921,4.12,W,A,V*75
$GNVTG,89.86,T,93.98,M,9.744,N,18.046,K,A*0C
$GNGGA,000501.00,2259.99984,N,11300.57505,E,1,07,1.24,15.3,M,-6.3,M,,*61
$GNGSA,A,3,,,,,,,,,,,,,2.54,1.24,2.21,1*04
$GNGSA,A,3,,,,,,,,,,,,,2.54,1.24,2.21,3*06
$GNGSA,A,3,19,01,30,20,04,08,02,,,,,,2.54,1.24,2.21,4*07
$GPGSV,1,1,00,0*65
$GAGSV,1,1,00,0*74
$GBGSV,4,1,13,01,36,108,34,02,57,155,34,04,37,110,34,06,05,198,33,0*78
$GBGSV,4,2,13,08,22,220,34,09,05,250,34,11,04,037,,19,16,290,34,0*73
$GBGSV,4,3,13,20,45,213,34,23,04,043,,26,02,198,,27,17,252,34,0*73
$GBGSV,4,4,13,30,17,183,34,0*4D
$GNGLL,2259.99984,N,11300.57505,E,000501.00,A,A*7B

$GNRMC,000502.00,A,2259.99983,N,11300.57797,E,9.725,90.09,170921,4.12,W,A,V*70
$GNVTG,90.09,T,94.21,M,9.725,N,18.010,K,A*02
$GNGGA,000502.00,2259.99983,N,11300.57797,E,1,07,1.24,15.4,M,-6.3,M,,*6B
$GNGSA,A,3,,,,,,,,,,,,,2.54,1.24,2.21,1*04
$GNGSA,A,3,,,,,,,,,,,,,2.54,1.24,2.21,3*06
$GNGSA,A,3,19,01,30,20,04,08,02,,,,,,2.54,1.24,2.21,4*07
$GPGSV,1,1,00,0*65
$GAGSV,1,1,00,0*74
$GBGSV,4,1,13,01,36,108,34,02,57,155,34,04,37,110,34,06,05,198,33,0*78
$GBGSV,4,2,13,08,22,220,34,09,05,250,34,11,04,037,,19,16,290,34,0*73
$GBGSV,4,3,13,20,45,213,34,23,04,043,,26,02,198,,27,17,252,34,0*73
$GBGSV,4,4,13,30,17,183,34,0*4D
$GNGLL,2259.99983,N,11300.57797,E,000502.00,A,A*76

$GNRMC,000503.00,A,2259.99983,N,11300.58089,E,9.712,90.26,170921,4.12,W,A,V*7F
$GNVTG,90.26,T,94.37,M,9.712,N,17.987,K,A*04
$GNGGA,000503.00,2259.99983,N,11300.58089,E,1,07,1.24,15.4,M,-6.3,M,,*6D
$GNGSA,A,3,,,,,,,,,,,,,2.54,1.24,2.21,1*04
$GNGSA,A,3,,,,,,,,,,,,,2.54,1.24,2.21,3*06
$GNGSA,A,3,19,01,30,20,04,08,02,,,,,,2.54,1.24,2.21,4*07
$GPGSV,1,1,00,0*65
$GAGSV,1,1,00,0*74
$GBGSV,4,1,13,01,36,108,34,02,57,155,34,04,37,110,34,06,05,198,34,0*7F
$GBGSV,4,2,13,08,22,220,34,09,05,250,34,11,04,037,,19,16,290,34,0*73
$GBGSV,4,3,13,20,45,213,34,23,04,043,,26,02,198,,27,17,252,34,0*73
$GBGSV,4,4,13,30,17,183,34,0*4D
$GNGLL,2259.99983,N,11300.58089,E,000503.00,A,A*70

$GNRMC,000504.00,A,2259.99983,N,11300.58381,E,9.699,90.32,170921,4.12,W,A,V*74
$GNVTG,90.32,T,94.43,M,9.699,N,17.962,K,A*0B
$GNGGA,000504.00,2259.99983,N,11300.58381,E,1,07,1.24,15.4,M,-6.3,M,,*61
$GNGSA,A,3,,,,,,,,,,,,,2.54,1.24,2.21,1*04
$GNGSA,A,3,,,,,,,,,,,,,2.54,1.24,2.21,3*06
$GNGSA,A,3,19,01,30,20,04,08,02,,,,,,2.54,1.24,2.21,4*07
$GPGSV,1,1,00,0*65
$GAGSV,1,1,00,0*74
$GBGSV,4,1,13,01,36,108,34,02,57,155,34,04,37,110,34,06,05,198,34,0*7F
$GBGSV,4,2,13,08,22,220,34,09,05,250,34,11,04,037,,19,16,290,34,0*73
$GBGSV,4,3,13,20,45,213,34,23,04,043,,26,02,198,,27,17,252,34,0*73
$GBGSV,4,4,13,30,17,183,34,0*4D
$GNGLL,2259.99983,N,11300.58381,E,000504.00,A,A*7C

$GNRMC,000505.00,A,2259.99982,N,11300.58673,E,9.665,90.17,170921,4.12,W,A,V*78
$GNVTG,90.17,T,94.29,M,9.665,N,17.899,K,A*06
$GNGGA,000505.00,2259.99982,N,11300.58673,E,1,07,1.24,15.4,M,-6.3,M,,*69
$GNGSA,A,3,,,,,,,,,,,,,2.54,1.24,2.22,1*07
$GNGSA,A,3,,,,,,,,,,,,,2.54,1.24,2.22,3*05
$GNGSA,A,3,19,01,30,20,04,08,02,,,,,,2.54,1.24,2.22,4*04
$GPGSV,1,1,00,0*65
$GAGSV,1,1,00,0*74
$GBGSV,4,1,13,01,36,108,34,02,57,155,34,04,37,110,34,06,05,198,34,0*7F
$GBGSV,4,2,13,08,22,220,34,09,05,250,33,11,04,037,,19,16,290,34,0*74
$GBGSV,4,3,13,20,45,213,34,23,04,043,,26,02,198,,27,17,252,34,0*73
$GBGSV,4,4,13,30,17,183,34,0*4D
$GNGLL,2259.99982,N,11300.58673,E,000505.00,A,A*74

$GNRMC,000506.00,A,2259.99983,N,11300.58963,E,9.667,90.58,170921,4.12,W,A,V*7D
$GNVTG,90.58,T,94.70,M,9.667,N,17.904,K,A*06
$GNGGA,000506.00,2259.99983,N,11300.58963,E,1,07,1.24,15.4,M,-6.3,M,,*65
$GNGSA,A,3,,,,,,,,,,,,,2.54,1.24,2.22,1*07
$GNGSA,A,3,,,,,,,,,,,,,2.54,1.24,2.22,3*05
$GNGSA,A,3,19,01,30,20,04,08,02,,,,,,2.54,1.24,2.22,4*04
$GPGSV,1,1,00,0*65
$GAGSV,1,1,00,0*74
$GBGSV,4,1,13,01,36,108,34,02,57,155,34,04,37,110,34,06,05,198,33,0*78
$GBGSV,4,2,13,08,22,220,34,09,05,250,33,11,04,037,,19,16,290,34,0*74
$GBGSV,4,3,13,20,45,213,34,23,04,043,,26,02,198,,27,17,252,34,0*73
$GBGSV,4,4,13,30,18,183,34,0*42
$GNGLL,2259.99983,N,11300.58963,E,000506.00,A,A*78

$GNRMC,000507.00,A,2259.99982,N,11300.59255,E,9.654,90.52,170921,4.12,W,A,V*78
$GNVTG,90.52,T,94.64,M,9.654,N,17.880,K,A*04
$GNGGA,000507.00,2259.99982,N,11300.59255,E,1,07,1.24,15.4,M,-6.3,M,,*6A
$GNGSA,A,3,,,,,,,,,,,,,2.54,1.24,2.22,1*07
$GNGSA,A,3,,,,,,,,,,,,,2.54,1.24,2.22,3*05
$GNGSA,A,3,19,01,30,20,04,08,02,,,,,,2.54,1.24,2.22,4*04
$GPGSV,1,1,00,0*65
$GAGSV,1,1,00,0*74
$GBGSV,4,1,13,01,36,108,34,02,57,155,34,04,37,110,34,06,05,198,33,0*78
$GBGSV,4,2,13,08,22,220,34,09,05,250,33,11,04,037,,19,16,290,34,0*74
$GBGSV,4,3,13,20,45,213,34,23,04,043,,26,02,198,,27,17,252,34,0*73
$GBGSV,4,4,13,30,18,183,34,0*42
$GNGLL,2259.99982,N,11300.59255,E,000507.00,A,A*77

$GNRMC,000508.00,A,2259.99982,N,11300.59547,E,9.674,90.59,170921,4.12,W,A,V*7A
$GNVTG,90.59,T,94.71,M,9.674,N,17.917,K,A*06
$GNGGA,000508.00,2259.99982,N,11300.59547,E,1,07,1.24,15.4,M,-6.3,M,,*61
$GNGSA,A,3,,,,,,,,,,,,,2.54,1.24,2.22,1*07
$GNGSA,A,3,,,,,,,,,,,,,2.54,1.24,2.22,3*05
$GNGSA,A,3,19,01,30,20,04,08,02,,,,,,2.54,1.24,2.22,4*04
$GPGSV,1,1,00,0*65
$GAGSV,1,1,00,0*74
$GBGSV,4,1,13,01,36,108,34,02,57,155,34,04,37,110,34,06,05,198,33,0*78
$GBGSV,4,2,13,08,22,220,34,09,05,250,34,11,04,037,,19,16,290,34,0*73
$GBGSV,4,3,13,20,45,213,34,23,04,043,,26,02,198,,27,17,252,34,0*73
$GBGSV,4,4,13,30,18,183,34,0*42
$GNGLL,2259.99982,N,11300.59547,E,000508.00,A,A*7C

$GNRMC,000509.00,A,2259.99981,N,11300.59839,E,9.709,90.43,170921,4.12,W,A,V*7C
$GNVTG,90.43,T,94.54,M,9.709,N,17.981,K,A*0E
$GNGGA,000509.00,2259.99981,N,11300.59839,E,1,07,1.24,15.4,M,-6.3,M,,*67
$GNGSA,A,3,,,,,,,,,,,,,2.54,1.24,2.22,1*07
$GNGSA,A,3,,,,,,,,,,,,,2.54,1.24,2.22,3*05
$GNGSA,A,3,19,01,30,20,04,08,02,,,,,,2.54,1.24,2.22,4*04
$GPGSV,1,1,00,0*65
$GAGSV,1,1,00,0*74
$GBGSV,4,1,13,01,36,108,34,02,57,155,34,04,37,110,34,06,05,198,33,0*78
$GBGSV,4,2,13,08,22,220,34,09,05,250,33,11,04,037,,19,16,290,34,0*74
$GBGSV,4,3,13,20,45,213,34,23,04,043,,26,02,198,,27,17,252,34,0*73
$GBGSV,4,4,13,30,18,183,34,0*42
$GNGLL,2259.99981,N,11300.59839,E,000509.00,A,A*7A

$GNRMC,000510.00,A,2259.99980,N,11300.60132,E,9.701,90.26,170921,4.12,W,A,V*76
$GNVTG,90.26,T,94.38,M,9.701,N,17.966,K,A*06
$GNGGA,000510.00,2259.99980,N,11300.60132,E,1,07,1.24,15.4,M,-6.3,M,,*66
$GNGSA,A,3,,,,,,,,,,,,,2.54,1.24,2.22,1*07
$GNGSA,A,3,,,,,,,,,,,,,2.54,1.24,2.22,3*05
$GNGSA,A,3,19,01,30,20,04,08,02,,,,,,2.54,1.24,2.22,4*04
$GPGSV,1,1,00,0*65
$GAGSV,1,1,00,0*74
$GBGSV,4,1,13,01,36,108,34,02,57,155,34,04,37,110,34,06,05,198,34,0*7F
$GBGSV,4,2,13,08,22,220,34,09,05,250,33,11,04,037,,19,16,290,34,0*74
$GBGSV,4,3,13,20,45,213,34,23,04,043,,26,02,198,,27,17,252,34,0*73
$GBGSV,4,4,13,30,18,183,34,0*42
$GNGLL,2259.99980,N,11300.60132,E,000510.00,A,A*7B

$GNRMC,000511.00,A,2259.99980,N,11300.60425,E,9.715,90.21,170921,4.12,W,A,V*76
$GNVTG,90.21,T,94.33,M,9.715,N,17.992,K,A*04
$GNGGA,000511.00,2259.99980,N,11300.60425,E,1,07,1.24,15.4,M,-6.3,M,,*64
$GNGSA,A,3,,,,,,,,,,,,,2.54,1.24,2.22,1*07
$GNGSA,A,3,,,,,,,,,,,,,2.54,1.24,2.22,3*05
$GNGSA,A,3,19,01,30,20,04,08,02,,,,,,2.54,1.24,2.22,4*04
