$GNRMC,000015.00,A,3000.14794,N,12000.57148,E,75.598,146.95,230721,5.69,W,A,V*71
$GNVTG,146.95,T,152.64,M,75.598,N,140.008,K,A*0D
$GNGGA,000015.00,3000.14794,N,12000.57148,E,1,08,1.39,-7.6,M,7.0,M,,*5E
$GNGSA,A,3,,,,,,,,,,,,,3.30,1.39,2.99,1*08
$GNGSA,A,3,,,,,,,,,,,,,3.30,1.39,2.99,3*0A
$GNGSA,A,3,01,13,11,04,02,06,12,09,,,,,3.30,1.39,2.99,4*04
$GPGSV,4,1,13,01,00,121,,02,32,300,,04,52,247,,07,84,122,,0*69
$GPGSV,4,2,13,08,47,207,,10,01,310,,13,50,030,,16,01,039,,0*65
$GPGSV,4,3,13,20,23,121,,23,28,057,,25,67,043,,27,18,219,,0*6F
$GPGSV,4,4,13,28,00,182,,0*56
$GAGSV,2,1,08,09,13,317,,10,64,334,,11,56,117,,12,07,130,,0*74
$GAGSV,2,2,08,17,31,040,,23,38,222,,24,86,021,,27,31,126,,0*7D
$GBGSV,3,1,09,01,38,122,46,02,50,173,46,04,36,126,46,06,37,216,46,0*76
$GBGSV,3,2,09,09,37,287,46,11,18,131,46,12,10,061,46,13,49,203,47,0*7F
$GBGSV,3,3,09,14,09,165,46,0*42
$GNGLL,3000.14794,N,12000.57148,E,000015.00,A,A*73

$GNRMC,000016.00,A,3000.12987,N,12000.58387,E,75.594,151.41,230721,5.69,W,A,V*75
$GNVTG,151.41,T,157.10,M,75.594,N,139.999,K,A*07
$GNGGA,000016.00,3000.12987,N,12000.58387,E,1,08,1.39,-7.6,M,7.0,M,,*59
$GNGSA,A,3,,,,,,,,,,,,,3.30,1.39,2.99,1*08
$GNGSA,A,3,,,,,,,,,,,,,3.30,1.39,2.99,3*0A
$GNGSA,A,3,01,13,11,04,02,06,12,09,,,,,3.30,1.39,2.99,4*04
$GPGSV,4,1,13,01,00,121,,02,32,300,,04,52,247,,07,84,122,,0*69
$GPGSV,4,2,13,08,47,207,,10,01,310,,13,50,030,,16,01,039,,0*65
$GPGSV,4,3,13,20,23,121,,23,28,057,,25,67,043,,27,18,219,,0*6F
$GPGSV,4,4,13,28,00,182,,0*56
$GAGSV,2,1,08,09,13,317,,10,64,334,,11,56,117,,12,07,130,,0*74
$GAGSV,2,2,08,17,31,040,,23,38,222,,24,86,021,,27,31,126,,0*7D
$GBGSV,3,1,09,01,38,122,46,02,50,173,46,04,36,126,46,06,37,216,46,0*76
$GBGSV,3,2,09,09,37,287,46,11,18,131,46,12,10,061,46,13,49,203,47,0*7F
$GBGSV,3,3,09,14,09,165,46,0*42
$GNGLL,3000.12987,N,12000.58387,E,000016.00,A,A*74

$GNRMC,000017.00,A,3000.11102,N,12000.59460,E,75.589,155.87,230721,5.69,W,A,V*7F
$GNVTG,155.87,T,161.56,M,75.589,N,139.992,K,A*09
$GNGGA,000017.00,3000.11102,N,12000.59460,E,1,08,1.39,-7.7,M,7.0,M,,*50
$GNGSA,A,3,,,,,,,,,,,,,3.30,1.39,2.99,1*08
$GNGSA,A,3,,,,,,,,,,,,,3.30,1.39,2.99,3*0A
$GNGSA,A,3,01,13,11,04,02,06,12,09,,,,,3.30,1.39,2.99,4*04
$GPGSV,4,1,13,01,00,121,,02,32,300,,04,52,247,,07,84,122,,0*69
$GPGSV,4,2,13,08,47,207,,10,01,310,,13,50,030,,16,01,039,,0*65
$GPGSV,4,3,13,20,23,121,,23,28,057,,25,67,043,,27,18,219,,0*6F
$GPGSV,4,4,13,28,00,182,,0*56
$GAGSV,2,1,08,09,13,317,,10,64,334,,11,56,117,,12,07,130,,0*74
$GAGSV,2,2,08,17,31,040,,23,38,222,,24,86,021,,27,31,126,,0*7D
$GBGSV,3,1,09,01,38,122,46,02,50,173,46,04,36,126,46,06,37,216,46,0*76
$GBGSV,3,2,09,09,37,287,46,11,18,131,46,12,10,061,46,13,49,203,47,0*7F
$GBGSV,3,3,09,14,09,165,46,0*42
$GNGLL,3000.11102,N,12000.59460,E,000017.00,A,A*7C

$GNRMC,000018.00,A,3000.09150,N,12000.60361,E,75.585,160.33,230721,5.69,W,A,V*77
$GNVTG,160.33,T,166.01,M,75.585,N,139.983,K,A*09
$GNGGA,000018.00,3000.09150,N,12000.60361,E,1,08,1.39,-7.7,M,7.0,M,,*5D
$GNGSA,A,3,,,,,,,,,,,,,3.30,1.39,2.99,1*08
$GNGSA,A,3,,,,,,,,,,,,,3.30,1.39,2.99,3*0A
$GNGSA,A,3,01,13,11,04,02,06,12,09,,,,,3.30,1.39,2.99,4*04
$GPGSV,4,1,13,01,00,121,,02,32,300,,04,52,247,,07,84,122,,0*69
$GPGSV,4,2,13,08,47,207,,10,01,310,,13,50,030,,16,01,039,,0*65
$GPGSV,4,3,13,20,23,121,,23,28,057,,25,67,043,,27,18,219,,0*6F
$GPGSV,4,4,13,28,00,182,,0*56
$GAGSV,2,1,08,09,13,317,,10,64,334,,11,56,117,,12,07,130,,0*74
$GAGSV,2,2,08,17,31,040,,23,38,222,,24,86,021,,27,31,126,,0*7D
$GBGSV,3,1,09,01,38,122,46,02,50,173,46,04,36,126,46,06,37,216,46,0*76
$GBGSV,3,2,09,09,37,287,46,11,18,131,46,12,10,061,46,13,49,203,47,0*7F
$GBGSV,3,3,09,14,09,165,46,0*42
$GNGLL,3000.09150,N,12000.60361,E,000018.00,A,A*71

$GNRMC,000019.00,A,3000.07144,N,12000.61086,E,75.590,164.78,230721,5.69,W,A,V*79
$GNVTG,164.78,T,170.47,M,75.590,N,139.994,K,A*05
$GNGGA,000019.00,3000.07144,N,12000.61086,E,1,08,1.39,-7.6,M,7.0,M,,*5D
$GNGSA,A,3,,,,,,,,,,,,,3.30,1.39,2.99,1*08
$GNGSA,A,3,,,,,,,,,,,,,3.30,1.39,2.99,3*0A
$GNGSA,A,3,01,13,11,04,02,06,12,09,,,,,3.30,1.39,2.99,4*04
$GPGSV,4,1,13,01,00,121,,02,32,300,,04,52,247,,07,84,122,,0*69
$GPGSV,4,2,13,08,47,207,,10,01,310,,13,50,030,,16,01,039,,0*65
$GPGSV,4,3,13,20,23,121,,23,28,057,,25,67,043,,27,18,219,,0*6F
$GPGSV,4,4,13,28,00,182,,0*56
$GAGSV,2,1,08,09,13,317,,10,64,334,,11,56,117,,12,07,130,,0*74
$GAGSV,2,2,08,17,31,040,,23,38,222,,24,86,021,,27,31,126,,0*7D
$GBGSV,3,1,09,01,38,122,46,02,50,173,46,04,36,126,46,06,37,216,46,0*76
$GBGSV,3,2,09,09,37,287,46,11,18,131,46,12,10,061,46,13,49,203,47,0*7F
$GBGSV,3,3,09,14,09,165,46,0*42
$GNGLL,3000.07144,N,12000.61086,E,000019.00,A,A*70

$GNRMC,000020.00,A,3000.05093,N,12000.61629,E,75.599,169.24,230721,5.69,W,A,V*74
$GNVTG,169.24,T,174.93,M,75.599,N,140.010,K,A*0E
$GNGGA,000020.00,3000.05093,N,12000.61629,E,1,08,1.39,-7.7,M,7.0,M,,*5C
$GNGSA,A,3,,,,,,,,,,,,,3.30,1.39,2.99,1*08
$GNGSA,A,3,,,,,,,,,,,,,3.30,1.39,2.99,3*0A
$GNGSA,A,3,01,13,11,04,02,06,12,09,,,,,3.30,1.39,2.99,4*04
$GPGSV,4,1,13,01,00,121,,02,32,300,,04,52,247,,07,84,122,,0*69
$GPGSV,4,2,13,08,47,207,,10,01,310,,13,50,030,,16,01,039,,0*65
$GPGSV,4,3,13,20,23,121,,23,28,057,,25,67,043,,27,18,219,,0*6F
$GPGSV,4,4,13,28,00,182,,0*56
$GAGSV,2,1,08,09,13,317,,10,64,334,,11,56,117,,12,07,130,,0*74
$GAGSV,2,2,08,17,31,040,,23,38,222,,24,86,021,,27,31,126,,0*7D
$GBGSV,3,1,09,01,38,122,46,02,50,173,46,04,36,126,46,06,37,216,46,0*76
$GBGSV,3,2,09,09,37,287,46,11,18,131,46,12,10,061,46,13,49,203,47,0*7F
$GBGSV,3,3,09,14,09,165,46,0*42
$GNGLL,3000.05093,N,12000.61629,E,000020.00,A,A*70

$GNRMC,000021.00,A,3000.03013,N,12000.61987,E,75.591,173.70,230721,5.69,W,A,V*72
$GNVTG,173.70,T,179.39,M,75.591,N,139.994,K,A*0A
$GNGGA,000021.00,3000.03013,N,12000.61987,E,1,08,1.39,-7.7,M,7.0,M,,*58
$GNGSA,A,3,,,,,,,,,,,,,3.30,1.39,3.00,1*09
$GNGSA,A,3,,,,,,,,,,,,,3.30,1.39,3.00,3*0B
$GNGSA,A,3,01,13,11,04,02,06,12,09,,,,,3.30,1.39,3.00,4*05
$GPGSV,4,1,13,01,00,121,,02,32,300,,04,52,247,,07,84,122,,0*69
$GPGSV,4,2,13,08,47,207,,10,01,310,,13,50,030,,16,01,039,,0*65
$GPGSV,4,3,13,20,23,121,,23,28,057,,25,67,043,,27,18,219,,0*6F
$GPGSV,4,4,13,28,00,182,,0*56
$GAGSV,2,1,08,09,13,317,,10,64,334,,11,56,117,,12,07,130,,0*74
$GAGSV,2,2,08,17,31,040,,23,38,222,,24,86,021,,27,31,126,,0*7D
$GBGSV,3,1,09,01,38,122,46,02,50,173,46,04,36,126,46,06,37,216,46,0*76
$GBGSV,3,2,09,09,37,287,46,11,18,131,46,12,10,061,46,13,48,202,47,0*7F
$GBGSV,3,3,09,14,09,165,46,0*42
$GNGLL,3000.03013,N,12000.61987,E,000021.00,A,A*74

$GNRMC,000022.00,A,3000.00914,N,12000.62158,E,75.590,178.15,230721,5.69,W,A,V*7C
$GNVTG,178.15,T,183.84,M,75.590,N,139.992,K,A*06
$GNGGA,000022.00,3000.00914,N,12000.62158,E,1,08,1.39,-7.8,M,7.0,M,,*50
$GNGSA,A,3,,,,,,,,,,,,,3.30,1.39,3.00,1*09
$GNGSA,A,3,,,,,,,,,,,,,3.30,1.39,3.00,3*0B
$GNGSA,A,3,01,13,11,04,02,06,12,09,,,,,3.30,1.39,3.00,4*05
$GPGSV,4,1,13,01,00,121,,02,32,300,,04,52,247,,07,84,122,,0*69
$GPGSV,4,2,13,08,47,207,,10,01,310,,13,50,030,,16,01,039,,0*65
$GPGSV,4,3,13,20,23,121,,23,28,057,,25,67,043,,27,18,219,,0*6F
$GPGSV,4,4,13,28,00,182,,0*56
$GAGSV,2,1,08,09,13,317,,10,64,334,,11,56,117,,12,07,130,,0*74
$GAGSV,2,2,08,17,31,040,,23,38,222,,24,86,021,,27,31,126,,0*7D
$GBGSV,3,1,09,01,38,122,46,02,50,173,46,04,36,126,46,06,37,216,46,0*76
$GBGSV,3,2,09,09,37,287,46,11,18,131,46,12,10,061,46,13,48,202,47,0*7F
$GBGSV,3,3,09,14,09,165,46,0*42
$GNGLL,3000.00914,N,12000.62158,E,000022.00,A,A*73

$GNRMC,000023.00,A,2959.98810,N,12000.62142,E,75.598,182.60,230721,5.69,W,A,V*79
$GNVTG,182.60,T,188.29,M,75.598,N,140.007,K,A*0E
$GNGGA,000023.00,2959.98810,N,12000.62142,E,1,08,1.39,-7.8,M,7.0,M,,*5A
$GNGSA,A,3,,,,,,,,,,,,,3.30,1.39,3.00,1*09
$GNGSA,A,3,,,,,,,,,,,,,3.30,1.39,3.00,3*0B
$GNGSA,A,3,01,13,11,04,02,06,12,09,,,,,3.30,1.39,3.00,4*05
$GPGSV,4,1,13,01,00,121,,02,32,300,,04,52,247,,07,84,122,,0*69
$GPGSV,4,2,13,08,47,207,,10,01,310,,13,50,030,,16,01,039,,0*65
$GPGSV,4,3,13,20,23,121,,23,28,057,,25,67,043,,27,18,219,,0*6F
$GPGSV,4,4,13,28,00,182,,0*56
$GAGSV,2,1,08,09,13,317,,10,64,334,,11,56,117,,12,07,130,,0*74
$GAGSV,2,2,08,17,31,040,,23,38,222,,24,86,021,,27,31,126,,0*7D
$GBGSV,3,1,09,01,38,122,46,02,50,173,46,04,36,126,46,06,37,216,46,0*76
$GBGSV,3,2,09,09,37,287,46,11,18,131,46,12,10,061,46,13,48,202,47,0*7F
$GBGSV,3,3,09,14,09,165,46,0*42
$GNGLL,2959.98810,N,12000.62142,E,000023.00,A,A*79

$GNRMC,000024.00,A,2959.96714,N,12000.61939,E,75.589,187.07,230721,5.69,W,A,V*78
$GNVTG,187.07,T,192.75,M,75.589,N,139.992,K,A*03
$GNGGA,000024.00,2959.96714,N,12000.61939,E,1,08,1.39,-7.8,M,7.0,M,,*5F
$GNGSA,A,3,,,,,,,,,,,,,3.30,1.39,3.00,1*09
$GNGSA,A,3,,,,,,,,,,,,,3.30,1.39,3.00,3*0B
$GNGSA,A,3,01,13,11,04,02,06,12,09,,,,,3.30,1.39,3.00,4*05
$GPGSV,4,1,13,01,00,121,,02,32,300,,04,52,247,,07,84,122,,0*69
$GPGSV,4,2,13,08,47,207,,10,01,310,,13,50,030,,16,01,039,,0*65
$GPGSV,4,3,13,20,23,121,,23,28,057,,25,67,043,,27,18,219,,0*6F
$GPGSV,4,4,13,28,00,182,,0*56
$GAGSV,2,1,08,09,13,317,,10,64,334,,11,56,117,,12,07,130,,0*74
$GAGSV,2,2,08,17,31,040,,23,38,222,,24,86,021,,27,31,126,,0*7D
$GBGSV,3,1,09,01,38,122,46,02,50,173,46,04,36,126,46,06,37,216,46,0*76
$GBGSV,3,2,09,09,37,287,46,11,18,131,46,12,10,061,46,13,48,202,47,0*7F
$GBGSV,3,3,09,14,09,165,46,0*42
$GNGLL,2959.96714,N,12000.61939,E,000024.00,A,A*7C

$GNRMC,000025.00,A,2959.94638,N,12000.61548,E,75.599,191.52,230721,5.69,W,A,V*78
$GNVTG,191.52,T,197.21,M,75.599,N,140.009,K,A*04
$GNGGA,000025.00,2959.94638,N,12000.61548,E,1,08,1.39,-7.8,M,7.0,M,,*59
$GNGSA,A,3,,,,,,,,,,,,,3.30,1.39,3.00,1*09
$GNGSA,A,3,,,,,,,,,,,,,3.30,1.39,3.00,3*0B
$GNGSA,A,3,01,13,11,04,02,06,12,09,,,,,3.30,1.39,3.00,4*05
$GPGSV,4,1,13,01,00,121,,02,32,300,,04,52,247,,07,84,122,,0*69
$GPGSV,4,2,13,08,47,207,,10,01,310,,13,50,030,,16,01,039,,0*65
$GPGSV,4,3,13,20,23,121,,23,28,057,,25,67,043,,27,18,219,,0*6F
$GPGSV,4,4,13,28,00,182,,0*56
$GAGSV,2,1,08,09,13,317,,10,64,334,,11,56,117,,12,07,130,,0*74
$GAGSV,2,2,08,17,31,040,,23,38,222,,24,86,021,,27,31,126,,0*7D
$GBGSV,3,1,09,01,38,122,46,02,50,173,46,04,36,126,46,06,37,216,46,0*76
$GBGSV,3,2,09,09,37,287,46,11,18,131,46,12,10,061,46,13,48,202,47,0*7F
$GBGSV,3,3,09,14,09,165,46,0*42
$GNGLL,2959.94638,N,12000.61548,E,000025.00,A,A*7A

$GNRMC,000026.00,A,2959.92594,N,12000.60973,E,75.586,195.98,230721,5.69,W,A,V*71
$GNVTG,195.98,T,201.66,M,75.586,N,139.985,K,A*04
$GNGGA,000026.00,2959.92594,N,12000.60973,E,1,08,1.39,-7.8,M,7.0,M,,*5C
$GNGSA,A,3,,,,,,,,,,,,,3.30,1.39,3.00,1*09
$GNGSA,A,3,,,,,,,,,,,,,3.30,1.39,3.00,3*0B
$GNGSA,A,3,01,13,11,04,02,06,12,09,,,,,3.30,1.39,3.00,4*05
$GPGSV,4,1,13,01,00,121,,02,32,300,,04,52,247,,07,84,122,,0*69
$GPGSV,4,2,13,08,47,207,,10,01,310,,13,50,030,,16,01,039,,0*65
$GPGSV,4,3,13,20,23,121,,23,28,057,,25,67,043,,27,18,219,,0*6F
$GPGSV,4,4,13,28,00,182,,0*56
$GAGSV,2,1,08,09,13,317,,10,64,334,,11,56,117,,12,07,130,,0*74
$GAGSV,2,2,08,17,31,040,,23,38,222,,24,86,021,,27,31,126,,0*7D
$GBGSV,3,1,09,01,38,122,46,02,50,173,46,04,36,126,46,06,37,216,46,0*76
$GBGSV,3,2,09,09,37,287,46,11,18,131,46,12,10,061,46,13,48,202,47,0*7F
$GBGSV,3,3,09,14,09,165,46,0*42
$GNGLL,2959.92594,N,12000.60973,E,000026.00,A,A*7F

$GNRMC,000027.00,A,2959.90596,N,12000.60219,E,75.597,200.43,230721,5.69,W,A,V*7E
$GNVTG,200.43,T,206.12,M,75.597,N,140.006,K,A*05
$GNGGA,000027.00,2959.90596,N,12000.60219,E,1,08,1.39,-7.7,M,7.0,M,,*55
$GNGSA,A,3,,,,,,,,,,,,,3.31,1.39,3.00,1*08
$GNGSA,A,3,,,,,,,,,,,,,3.31,1.39,3.00,3*0A
$GNGSA,A,3,01,13,11,04,02,06,12,09,,,,,3.31,1.39,3.00,4*04
$GPGSV,4,1,13,01,00,121,,02,32,300,,04,52,247,,07,84,122,,0*69
$GPGSV,4,2,13,08,47,207,,10,01,310,,13,50,030,,16,01,039,,0*65
$GPGSV,4,3,13,20,23,121,,23,28,057,,25,67,043,,27,18,219,,0*6F
$GPGSV,4,4,13,28,00,182,,0*56
$GAGSV,2,1,08,09,13,317,,10,64,334,,11,56,117,,12,07,130,,0*74
$GAGSV,2,2,08,17,31,040,,23,38,222,,24,86,021,,27,31,126,,0*7D
$GBGSV,3,1,09,01,38,122,46,02,50,173,46,04,36,126,46,06,37,216,46,0*76
$GBGSV,3,2,09,09,37,287,46,11,18,131,46,12,10,061,46,13,48,202,47,0*7F
$GBGSV,3,3,09,14,09,165,46,0*42
$GNGLL,2959.90596,N,12000.60219,E,000027.00,A,A*79

$GNRMC,000028.00,A,2959.88655,N,12000.59288,E,75.592,204.89,230721,5.69,W,A,V*71
$GNVTG,204.89,T,210.58,M,75.592,N,139.996,K,A*05
$GNGGA,000028.00,2959.88655,N,12000.59288,E,1,08,1.39,-7.7,M,7.0,M,,*5D
$GNGSA,A,3,,,,,,,,,,,,,3.31,1.39,3.00,1*08
$GNGSA,A,3,,,,,,,,,,,,,3.31,1.39,3.00,3*0A
$GNGSA,A,3,01,13,11,04,02,06,12,09,,,,,3.31,1.39,3.00,4*04
$GPGSV,4,1,13,01,00,121,,02,33,300,,04,52,247,,07,84,122,,0*68
$GPGSV,4,2,13,08,47,207,,10,01,310,,13,50,030,,16,01,039,,0*65
$GPGSV,4,3,13,20,23,121,,23,28,057,,25,67,043,,27,18,219,,0*6F
$GPGSV,4,4,13,28,00,182,,0*56
$GAGSV,2,1,08,09,13,317,,10,64,334,,11,56,117,,12,07,130,,0*74
$GAGSV,2,2,08,17,31,040,,23,38,222,,24,86,021,,27,31,126,,0*7D
$GBGSV,3,1,09,01,38,122,46,02,50,173,46,04,36,126,46,06,37,216,46,0*76
$GBGSV,3,2,09,09,37,287,46,11,18,131,46,12,10,061,46,13,48,202,47,0*7F
$GBGSV,3,3,09,14,09,165,46,0*42
$GNGLL,2959.88655,N,12000.59288,E,000028.00,A,A*71

$GNRMC,000029.00,A,2959.86783,N,12000.58186,E,75.603,209.35,230721,5.69,W,A,V*79
$GNVTG,209.35,T,215.04,M,75.603,N,140.018,K,A*09
$GNGGA,000029.00,2959.86783,N,12000.58186,E,1,08,1.39,-7.7,M,7.0,M,,*54
$GNGSA,A,3,,,,,,,,,,,,,3.31,1.39,3.00,1*08
$GNGSA,A,3,,,,,,,,,,,,,3.31,1.39,3.00,3*0A
$GNGSA,A,3,01,13,11,04,02,06,12,09,,,,,3.31,1.39,3.00,4*04
$GPGSV,4,1,13,01,00,121,,02,33,300,,04,52,247,,07,84,122,,0*68
$GPGSV,4,2,13,08,47,207,,10,01,310,,13,50,030,,16,01,039,,0*65
$GPGSV,4,3,13,20,23,121,,23,28,057,,25,67,043,,27,18,219,,0*6F
$GPGSV,4,4,13,28,00,182,,0*56
$GAGSV,2,1,08,09,13,317,,10,64,334,,11,56,117,,12,07,130,,0*74
$GAGSV,2,2,08,17,31,040,,23,38,222,,24,86,021,,27,31,126,,0*7D
$GBGSV,3,1,09,01,38,122,46,02,50,173,46,04,36,126,46,06,37,216,46,0*76
$GBGSV,3,2,09,09,37,287,46,11,18,131,46,12,10,061,46,13,48,202,47,0*7F
$GBGSV,3,3,09,14,09,165,46,0*42
$GNGLL,2959.86783,N,12000.58186,E,000029.00,A,A*78

$GNRMC,000030.00,A,2959.84992,N,12000.56921,E,75.589,213.80,230721,5.69,W,A,V*72
$GNVTG,213.80,T,219.49,M,75.589,N,139.992,K,A*0D
$GNGGA,000030.00,2959.84992,N,12000.56921,E,1,08,1.39,-7.7,M,7.0,M,,*5B
$GNGSA,A,3,,,,,,,,,,,,,3.31,1.39,3.00,1*08
$GNGSA,A,3,,,,,,,,,,,,,3.31,1.39,3.00,3*0A
$GNGSA,A,3,01,13,11,04,02,06,12,09,,,,,3.31,1.39,3.00,4*04
$GPGSV,4,1,13,01,00,121,,02,33,300,,04,52,247,,07,84,122,,0*68
$GPGSV,4,2,13,08,47,207,,10,01,310,,13,50,030,,16,01,039,,0*65
$GPGSV,4,3,13,20,23,121,,23,28,057,,25,67,043,,27,18,219,,0*6F
$GPGSV,4,4,13,28,00,182,,0*56
$GAGSV,2,1,08,09,13,317,,10,64,334,,11,56,117,,12,07,130,,0*74
$GAGSV,2,2,08,17,31,040,,23,38,222,,24,86,021,,27,31,126,,0*7D
$GBGSV,3,1,09,01,38,122,46,02,50,173,46,04,36,126,46,06,37,216,46,0*76
$GBGSV,3,2,09,09,37,287,46,11,18,131,46,12,10,061,46,13,48,202,47,0*7F
$GBGSV,3,3,09,14,09,165,46,0*42
$GNGLL,2959.84992,N,12000.56921,E,000030.00,A,A*77

$GNRMC,000031.00,A,2959.83291,N,12000.55500,E,75.579,218.25,230721,5.69,W,A,V*7B
$GNVTG,218.25,T,223.93,M,75.579,N,139.972,K,A*06
$GNGGA,000031.00,2959.83291,N,12000.55500,E,1,08,1.39,-7.7,M,7.0,M,,*59
$GNGSA,A,3,,,,,,,,,,,,,3.31,1.39,3.00,1*08
$GNGSA,A,3,,,,,,,,,,,,,3.31,1.39,3.00,3*0A
$GNGSA,A,3,01,13,11,04,02,06,12,09,,,,,3.31,1.39,3.00,4*04
$GPGSV,4,1,13,01,00,121,,02,33,300,,04,52,247,,07,84,122,,0*68
$GPGSV,4,2,13,08,47,207,,10,01,310,,13,50,030,,16,01,039,,0*65
$GPGSV,4,3,13,20,23,121,,23,28,057,,25,67,043,,27,18,219,,0*6F
$GPGSV,4,4,13,28,00,182,,0*56
$GAGSV,2,1,08,09,13,317,,10,64,334,,11,56,117,,12,07,130,,0*74
$GAGSV,2,2,08,17,31,040,,23,38,222,,24,86,021,,27,31,126,,0*7D
$GBGSV,3,1,09,01,38,122,46,02,50,173,46,04,36,126,46,06,37,216,46,0*76
$GBGSV,3,2,09,09,37,287,46,11,18,131,46,12,10,061,46,13,48,202,47,0*7F
$GBGSV,3,3,09,14,09,165,46,0*42
$GNGLL,2959.83291,N,12000.55500,E,000031.00,A,A*75

$GNRMC,000032.00,A,2959.81692,N,12000.53931,E,75.576,222.71,230721,5.69,W,A,V*72
$GNVTG,222.71,T,228.40,M,75.576,N,139.966,K,A*01
$GNGGA,000032.00,2959.81692,N,12000.53931,E,1,08,1.39,-7.7,M,7.0,M,,*57
$GNGSA,A,3,,,,,,,,,,,,,3.31,1.39,3.00,1*08
$GNGSA,A,3,,,,,,,,,,,,,3.31,1.39,3.00,3*0A
$GNGSA,A,3,01,13,11,04,02,06,12,09,,,,,3.31,1.39,3.00,4*04
$GPGSV,4,1,13,01,00,121,,02,33,300,,04,52,247,,07,84,122,,0*68
$GPGSV,4,2,13,08,47,207,,10,01,310,,13,50,030,,16,01,039,,0*65
$GPGSV,4,3,13,20,23,121,,23,28,057,,25,67,043,,27,18,219,,0*6F
$GPGSV,4,4,13,28,00,182,,0*56
$GAGSV,2,1,08,09,13,317,,10,64,334,,11,56,117,,12,07,130,,0*74
$GAGSV,2,2,08,17,31,040,,23,38,222,,24,86,021,,27,31,126,,0*7D
$GBGSV,3,1,09,01,38,122,46,02,50,173,46,04,36,126,46,06,37,216,46,0*76
$GBGSV,3,2,09,09,37,287,46,11,18,131,46,12,10,061,46,13,48,202,47,0*7F
$GBGSV,3,3,09,14,09,165,46,0*42
$GNGLL,2959.81692,N,12000.53931,E,000032.00,A,A*7B

$GNRMC,000033.00,A,2959.80204,N,12000.52224,E,75.582,227.17,230721,5.69,W,A,V*79
$GNVTG,227.17,T,232.85,M,75.582,N,139.979,K,A*03
$GNGGA,000033.00,2959.80204,N,12000.52224,E,1,08,1.39,-7.7,M,7.0,M,,*52
$GNGSA,A,3,,,,,,,,,,,,,3.31,1.39,3.00,1*08
$GNGSA,A,3,,,,,,,,,,,,,3.31,1.39,3.00,3*0A
$GNGSA,A,3,01,13,11,04,02,06,12,09,,,,,3.31,1.39,3.00,4*04
$GPGSV,4,1,13,01,00,121,,02,33,300,,04,52,247,,07,84,118,,0*61
$GPGSV,4,2,13,08,47,207,,10,01,310,,13,50,030,,16,01,039,,0*65
$GPGSV,4,3,13,20,23,121,,23,28,057,,25,67,043,,27,18,219,,0*6F
$GPGSV,4,4,13,28,00,182,,0*56
$GAGSV,2,1,08,09,13,317,,10,64,334,,11,56,117,,12,07,130,,0*74
$GAGSV,2,2,08,17,31,040,,23,38,222,,24,86,021,,27,31,126,,0*7D
$GBGSV,3,1,09,01,38,122,46,02,50,173,46,04,36,126,46,06,37,216,46,0*76
$GBGSV,3,2,09,09,37,287,46,11,18,131,46,12,10,061,46,13,48,202,47,0*7F
$GBGSV,3,3,09,14,09,165,46,0*42
$GNGLL,2959.80204,N,12000.52224,E,000033.00,A,A*7E

$GNRMC,000034.00,A,2959.78835,N,12000.50389,E,75.579,231.62,230721,5.69,W,A,V*74
$GNVTG,231.62,T,237.31,M,75.579,N,139.972,K,A*03
$GNGGA,000034.00,2959.78835,N,12000.50389,E,1,08,1.39,-7.7,M,7.0,M,,*5E
$GNGSA,A,3,,,,,,,,,,,,,3.31,1.39,3.00,1*08
$GNGSA,A,3,,,,,,,,,,,,,3.31,1.39,3.00,3*0A
$GNGSA,A,3,01,13,11,04,02,06,12,09,,,,,3.31,1.39,3.00,4*04
$GPGSV,4,1,13,01,00,121,,02,33,300,,04,52,247,,07,84,118,,0*61
$GPGSV,4,2,13,08,47,207,,10,01,310,,13,50,030,,16,01,039,,0*65
$GPGSV,4,3,13,20,23,121,,23,28,057,,25,67,043,,27,18,219,,0*6F
$GPGSV,4,4,13,28,00,182,,0*56
$GAGSV,2,1,08,09,13,317,,10,64,334,,11,56,117,,12,07,130,,0*74
$GAGSV,2,2,08,17,31,040,,23,38,222,,24,86,021,,27,31,126,,0*7D
$GBGSV,3,1,09,01,38,122,46,02,50,173,46,04,36,126,46,06,37,216,46,0*76
$GBGSV,3,2,09,09,37,287,46,11,18,131,46,12,10,061,46,13,48,202,47,0*7F
$GBGSV,3,3,09,14,09,165,46,0*42
$GNGLL,2959.78835,N,12000.50389,E,000034.00,A,A*72

$GNRMC,000035.00,A,2959.77594,N,12000.48438,E,75.582,236.07,230721,5.69,W,A,V*78
$GNVTG,236.07,T,241.76,M,75.582,N,139.977,K,A*04
$GNGGA,000035.00,2959.77594,N,12000.48438,E,1,08,1.39,-7.7,M,7.0,M,,*52
$GNGSA,A,3,,,,,,,,,,,,,3.31,1.39,3.00,1*08
$GNGSA,A,3,,,,,,,,,,,,,3.31,1.39,3.00,3*0A
$GNGSA,A,3,01,13,11,04,02,06,12,09,,,,,3.31,1.39,3.00,4*04
$GPGSV,4,1,13,01,00,121,,02,33,300,,04,52,247,,07,84,118,,0*61
$GPGSV,4,2,13,08,47,207,,10,01,310,,13,50,030,,16,01,039,,0*65
$GPGSV,4,3,13,20,23,121,,23,28,057,,25,67,043,,27,18,219,,0*6F
$GPGSV,4,4,13,28,00,182,,0*56
$GAGSV,2,1,08,09,13,317,,10,64,334,,11,56,117,,12,07,130,,0*74
$GAGSV,2,2,08,17,31,040,,23,38,222,,24,86,021,,27,31,126,,0*7D
$GBGSV,3,1,09,01,38,122,46,02,50,173,46,04,36,126,46,06,37,216,46,0*76
$GBGSV,3,2,09,09,37,287,46,11,18,131,46,12,10,061,46,13,48,202,47,0*7F
$GBGSV,3,3,09,14,09,165,46,0*42
$GNGLL,2959.77594,N,12000.48438,E,000035.00,A,A*7E

$GNRMC,000036.00,A,2959.76490,N,12000.46382,E,75.573,240.54,230721,5.69,W,A,V*7E
$GNVTG,240.54,T,246.22,M,75.573,N,139.962,K,A*0F
$GNGGA,000036.00,2959.76490,N,12000.46382,E,1,08,1.39,-7.7,M,7.0,M,,*5D
$GNGSA,A,3,,,,,,,,,,,,,3.31,1.39,3.00,1*08
$GNGSA,A,3,,,,,,,,,,,,,3.31,1.39,3.00,3*0A
$GNGSA,A,3,01,13,11,04,02,06,12,09,,,,,3.31,1.39,3.00,4*04
$GPGSV,4,1,13,01,00,121,,02,33,300,,04,52,247,,07,84,118,,0*61
$GPGSV,4,2,13,08,47,207,,10,01,310,,13,50,030,,16,01,039,,0*65
$GPGSV,4,3,13,20,23,121,,23,28,057,,25,67,043,,27,18,219,,0*6F
$GPGSV,4,4,13,28,00,182,,0*56
$GAGSV,2,1,08,09,13,317,,10,64,334,,11,56,117,,12,07,130,,0*74
$GAGSV,2,2,08,17,31,040,,23,38,222,,24,86,021,,27,31,126,,0*7D
$GBGSV,3,1,09,01,38,122,46,02,50,173,46,04,36,126,46,06,37,216,46,0*76
$GBGSV,3,2,09,09,37,287,46,11,18,131,46,12,10,061,46,13,48,202,47,0*7F
$GBGSV,3,3,09,14,09,165,46,0*42
$GNGLL,2959.76490,N,12000.46382,E,000036.00,A,A*71

$GNRMC,000037.00,A,2959.75527,N,12000.44234,E,75.592,244.99,230721,5.69,W,A,V*75
$GNVTG,244.99,T,250.67,M,75.592,N,139.995,K,A*0B
$GNGGA,000037.00,2959.75527,N,12000.44234,E,1,08,1.39,-7.7,M,7.0,M,,*5C
$GNGSA,A,3,,,,,,,,,,,,,3.31,1.39,3.00,1*08
$GNGSA,A,3,,,,,,,,,,,,,3.31,1.39,3.00,3*0A
$GNGSA,A,3,01,13,11,04,02,06,12,09,,,,,3.31,1.39,3.00,4*04
$GPGSV,4,1,13,01,00,121,,02,33,300,,04,52,247,,07,84,118,,0*61
$GPGSV,4,2,13,08,47,207,,10,01,310,,13,50,030,,16,01,039,,0*65
$GPGSV,4,3,13,20,23,121,,23,28,057,,25,67,043,,27,18,219,,0*6F
$GPGSV,4,4,13,28,00,182,,0*56
$GAGSV,2,1,08,09,13,317,,10,64,334,,11,56,117,,12,07,130,,0*74
$GAGSV,2,2,08,17,31,040,,23,38,222,,24,86,021,,27,31,126,,0*7D
$GBGSV,3,1,09,01,38,122,46,02,50,173,46,04,36,126,46,06,37,216,46,0*76
$GBGSV,3,2,09,09,37,287,46,11,18,131,46,12,10,061,46,13,48,202,47,0*7F
$GBGSV,3,3,09,14,09,165,46,0*42
$GNGLL,2959.75527,N,12000.44234,E,000037.00,A,A*70

$GNRMC,000038.00,A,2959.74712,N,12000.42006,E,75.589,249.44,230721,5.69,W,A,V*7D
$GNVTG,249.44,T,255.13,M,75.589,N,139.991,K,A*0E
$GNGGA,000038.00,2959.74712,N,12000.42006,E,1,08,1.39,-7.7,M,7.0,M,,*53
$GNGSA,A,3,,,,,,,,,,,,,3.31,1.39,3.00,1*08
$GNGSA,A,3,,,,,,,,,,,,,3.31,1.39,3.00,3*0A
$GNGSA,A,3,01,13,11,04,02,06,12,09,,,,,3.31,1.39,3.00,4*04
$GPGSV,4,1,13,01,00,121,,02,33,300,,04,52,247,,07,84,118,,0*61
$GPGSV,4,2,13,08,47,207,,10,01,310,,13,50,030,,16,01,039,,0*65
$GPGSV,4,3,13,20,23,121,,23,28,057,,25,67,043,,27,18,219,,0*6F
$GPGSV,4,4,13,28,00,182,,0*56
$GAGSV,2,1,08,09,13,317,,10,64,334,,11,56,117,,12,07,130,,0*74
$GAGSV,2,2,08,17,31,040,,23,38,222,,24,86,021,,27,31,126,,0*7D
$GBGSV,3,1,09,01,38,122,46,02,50,173,46,04,36,126,46,06,37,216,46,0*76
$GBGSV,3,2,09,09,37,287,46,11,18,131,46,12,10,061,46,13,48,202,47,0*7F
$GBGSV,3,3,09,14,09,165,46,0*42
$GNGLL,2959.74712,N,12000.42006,E,000038.00,A,A*7F

$GNRMC,000039.00,A,2959.74052,N,12000.39713,E,75.595,253.91,230721,5.69,W,A,V*7E
$GNVTG,253.91,T,259.59,M,75.595,N,140.002,K,A*0F
$GNGGA,000039.00,2959.74052,N,12000.39713,E,1,08,1.39,-7.7,M,7.0,M,,*5E
$GNGSA,A,3,,,,,,,,,,,,,3.31,1.39,3.00,1*08
$GNGSA,A,3,,,,,,,,,,,,,3.31,1.39,3.00,3*0A
$GNGSA,A,3,01,13,11,04,02,06,12,09,,,,,3.31,1.39,3.00,4*04
$GPGSV,4,1,13,01,00,121,,02,33,300,,04,52,247,,07,84,118,,0*61
$GPGSV,4,2,13,08,47,207,,10,01,310,,13,50,031,,16,01,039,,0*64
$GPGSV,4,3,13,20,23,121,,23,28,057,,25,67,043,,27,18,219,,0*6F
$GPGSV,4,4,13,28,00,182,,0*56
$GAGSV,2,1,08,09,13,317,,10,64,334,,11,56,117,,12,07,130,,0*74
$GAGSV,2,2,08,17,31,040,,23,38,222,,24,86,021,,27,31,126,,0*7D
$GBGSV,3,1,09,01,38,122,46,02,50,173,46,04,36,126,46,06,37,216,46,0*76
$GBGSV,3,2,09,09,37,287,46,11,18,131,46,12,10,061,46,13,48,202,47,0*7F
$GBGSV,3,3,09,14,09,165,46,0*42
$GNGLL,2959.74052,N,12000.39713,E,000039.00,A,A*72

$GNRMC,000040.00,A,2959.73547,N,12000.37367,E,75.590,258.35,230721,5.69,W,A,V*7F
$GNVTG,258.35,T,264.04,M,75.590,N,139.993,K,A*06
$GNGGA,000040.00,2959.73547,N,12000.37367,E,1,08,1.39,-7.7,M,7.0,M,,*5F
$GNGSA,A,3,,,,,,,,,,,,,3.31,1.39,3.00,1*08
$GNGSA,A,3,,,,,,,,,,,,,3.31,1.39,3.00,3*0A
$GNGSA,A,3,01,13,11,04,02,06,12,09,,,,,3.31,1.39,3.00,4*04
$GPGSV,4,1,13,01,00,121,,02,33,300,,04,52,247,,07,84,118,,0*61
$GPGSV,4,2,13,08,47,207,,10,01,310,,13,50,031,,16,01,039,,0*64
$GPGSV,4,3,13,20,23,121,,23,28,057,,25,67,043,,27,18,219,,0*6F
$GPGSV,4,4,13,28,00,182,,0*56
$GAGSV,2,1,08,09,13,317,,10,64,334,,11,56,117,,12,07,130,,0*74
$GAGSV,2,2,08,17,31,040,,23,38,222,,24,86,021,,27,31,126,,0*7D
$GBGSV,3,1,09,01,38,122,46,02,50,173,46,04,36,126,46,06,37,216,46,0*76
$GBGSV,3,2,09,09,37,287,46,11,18,131,46,12,10,061,46,13,48,202,47,0*7F
$GBGSV,3,3,09,14,09,165,46,0*42
$GNGLL,2959.73547,N,12000.37367,E,000040.00,A,A*73

$GNRMC,000041.00,A,2959.73203,N,12000.34983,E,75.593,262.82,230721,5.69,W,A,V*7C
$GNVTG,262.82,T,268.50,M,75.593,N,139.999,K,A*07
$GNGGA,000041.00,2959.73203,N,12000.34983,E,1,08,1.39,-7.7,M,7.0,M,,*5A
$GNGSA,A,3,,,,,,,,,,,,,3.31,1.39,3.00,1*08
$GNGSA,A,3,,,,,,,,,,,,,3.31,1.39,3.00,3*0A
$GNGSA,A,3,01,13,11,04,02,06,12,09,,,,,3.31,1.39,3.00,4*04
$GPGSV,4,1,13,01,00,121,,02,33,300,,04,52,247,,07,84,118,,0*61
$GPGSV,4,2,13,08,47,207,,10,01,310,,13,50,031,,16,01,039,,0*64
$GPGSV,4,3,13,20,23,121,,23,28,057,,25,67,043,,27,18,219,,0*6F
$GPGSV,4,4,13,28,00,182,,0*56
$GAGSV,2,1,08,09,13,317,,10,64,334,,11,56,117,,12,07,130,,0*74
$GAGSV,2,2,08,17,31,040,,23,38,222,,24,86,021,,27,31,126,,0*7D
$GBGSV,3,1,09,01,38,122,46,02,50,173,46,04,36,126,46,06,37,216,46,0*76
$GBGSV,3,2,09,09,37,287,46,11,18,131,46,12,10,061,46,13,48,202,47,0*7F
$GBGSV,3,3,09,14,09,165,46,0*42
$GNGLL,2959.73203,N,12000.34983,E,000041.00,A,A*76

$GNRMC,000042.00,A,2959.73021,N,12000.32576,E,75.588,267.26,230721,5.69,W,A,V*7C
$GNVTG,267.26,T,272.95,M,75.588,N,139.988,K,A*04
$GNGGA,000042.00,2959.73021,N,12000.32576,E,1,08,1.39,-7.7,M,7.0,M,,*5B
$GNGSA,A,3,,,,,,,,,,,,,3.31,1.39,3.01,1*09
$GNGSA,A,3,,,,,,,,,,,,,3.31,1.39,3.01,3*0B
$GNGSA,A,3,01,13,11,04,02,06,12,09,,,,,3.31,1.39,3.01,4*05
$GPGSV,4,1,13,01,00,121,,02,33,300,,04,52,247,,07,84,118,,0*61
$GPGSV,4,2,13,08,47,207,,10,01,310,,13,50,031,,16,01,039,,0*64
$GPGSV,4,3,13,20,23,121,,23,28,057,,25,67,043,,27,18,219,,0*6F
$GPGSV,4,4,13,28,00,182,,0*56
$GAGSV,2,1,08,09,13,317,,10,64,334,,11,56,117,,12,07,130,,0*74
$GAGSV,2,2,08,17,31,040,,23,38,222,,24,86,021,,27,31,126,,0*7D
$GBGSV,3,1,09,01,38,122,46,02,50,173,46,04,36,126,46,06,37,216,46,0*76
$GBGSV,3,2,09,09,37,287,46,11,18,131,46,12,10,061,46,13,48,202,47,0*7F
$GBGSV,3,3,09,14,09,165,46,0*42
$GNGLL,2959.73021,N,12000.32576,E,000042.00,A,A*77

$GNRMC,000043.00,A,2959.73003,N,12000.30159,E,75.577,271.72,230721,5.69,W,A,V*70
$GNVTG,271.72,T,277.41,M,75.577,N,139.968,K,A*00
$GNGGA,000043.00,2959.73003,N,12000.30159,E,1,08,1.39,-7.7,M,7.0,M,,*51
$GNGSA,A,3,,,,,,,,,,,,,3.31,1.39,3.01,1*09
$GNGSA,A,3,,,,,,,,,,,,,3.31,1.39,3.01,3*0B
$GNGSA,A,3,01,13,11,04,02,06,12,09,,,,,3.31,1.39,3.01,4*05
$GPGSV,4,1,13,01,00,121,,02,33,300,,04,52,247,,07,84,118,,0*61
$GPGSV,4,2,13,08,47,207,,10,01,310,,13,50,031,,16,01,039,,0*64
$GPGSV,4,3,13,20,23,121,,23,28,057,,25,67,043,,27,18,219,,0*6F
$GPGSV,4,4,13,28,00,182,,0*56
$GAGSV,2,1,08,09,13,317,,10,64,334,,11,56,117,,12,07,130,,0*74
$GAGSV,2,2,08,17,31,040,,23,38,222,,24,86,021,,27,31,126,,0*7D
$GBGSV,3,1,09,01,38,122,46,02,50,173,46,04,36,126,46,06,37,216,46,0*76
$GBGSV,3,2,09,09,37,287,46,11,18,131,46,12,10,061,46,13,48,202,47,0*7F
$GBGSV,3,3,09,14,09,165,46,0*42
$GNGLL,2959.73003,N,12000.30159,E,000043.00,A,A*7D

$GNRMC,000044.00,A,2959.73148,N,12000.27749,E,75.579,276.19,230721,5.69,W,A,V*7C
$GNVTG,276.19,T,281.87,M,75.579,N,139.973,K,A*0D
$GNGGA,000044.00,2959.73148,N,12000.27749,E,1,08,1.39,-7.7,M,7.0,M,,*59
$GNGSA,A,3,,,,,,,,,,,,,3.31,1.39,3.01,1*09
$GNGSA,A,3,,,,,,,,,,,,,3.31,1.39,3.01,3*0B
$GNGSA,A,3,01,13,11,04,02,06,12,09,,,,,3.31,1.39,3.01,4*05
$GPGSV,4,1,13,01,00,121,,02,33,300,,04,52,247,,07,84,118,,0*61
$GPGSV,4,2,13,08,47,207,,10,01,310,,13,50,031,,16,01,039,,0*64
$GPGSV,4,3,13,20,23,121,,23,28,057,,25,67,043,,27,18,219,,0*6F
$GPGSV,4,4,13,28,00,182,,0*56
$GAGSV,2,1,08,09,13,317,,10,64,334,,11,56,117,,12,07,130,,0*74
$GAGSV,2,2,08,17,31,040,,23,38,222,,24,86,021,,27,31,126,,0*7D
$GBGSV,3,1,09,01,38,122,46,02,50,173,46,04,36,126,46,06,37,216,46,0*76
$GBGSV,3,2,09,09,37,287,46,11,18,131,46,12,10,061,46,13,48,202,47,0*7F
$GBGSV,3,3,09,14,09,165,46,0*42
$GNGLL,2959.73148,N,12000.27749,E,000044.00,A,A*75

$GNRMC,000045.00,A,2959.73456,N,12000.25360,E,75.574,280.64,230721,5.69,W,A,V*74
$GNVTG,280.64,T,286.33,M,75.574,N,139.963,K,A*0A
$GNGGA,000045.00,2959.73456,N,12000.25360,E,1,08,1.39,-7.7,M,7.0,M,,*5F
$GNGSA,A,3,,,,,,,,,,,,,3.31,1.39,3.01,1*09
$GNGSA,A,3,,,,,,,,,,,,,3.31,1.39,3.01,3*0B
$GNGSA,A,3,01,13,11,04,02,06,12,09,,,,,3.31,1.39,3.01,4*05
$GPGSV,4,1,13,01,00,121,,02,33,300,,04,52,247,,07,84,118,,0*61
$GPGSV,4,2,13,08,47,207,,10,01,310,,13,50,031,,16,01,039,,0*64
$GPGSV,4,3,13,20,23,121,,23,28,057,,25,67,043,,27,18,219,,0*6F
$GPGSV,4,4,13,28,00,182,,0*56
$GAGSV,2,1,08,09,13,317,,10,64,334,,11,56,117,,12,07,130,,0*74
$GAGSV,2,2,08,17,31,040,,23,38,222,,24,86,021,,27,31,126,,0*7D
$GBGSV,3,1,09,01,38,122,46,02,50,173,46,04,36,126,46,06,37,216,46,0*76
$GBGSV,3,2,09,09,37,287,46,11,18,131,46,12,10,061,46,13,48,202,47,0*7F
$GBGSV,3,3,09,14,09,165,46,0*42
$GNGLL,2959.73456,N,12000.25360,E,000045.00,A,A*73

$GNRMC,000046.00,A,2959.73924,N,12000.23005,E,75.580,285.10,230721,5.69,W,A,V*74
$GNVTG,285.10,T,290.79,M,75.580,N,139.974,K,A*08
$GNGGA,000046.00,2959.73924,N,12000.23005,E,1,08,1.39,-7.7,M,7.0,M,,*52
$GNGSA,A,3,,,,,,,,,,,,,3.31,1.39,3.01,1*09
$GNGSA,A,3,,,,,,,,,,,,,3.31,1.39,3.01,3*0B
$GNGSA,A,3,01,13,11,04,02,06,12,09,,,,,3.31,1.39,3.01,4*05
$GPGSV,4,1,13,01,00,121,,02,33,300,,04,52,247,,07,84,118,,0*61
$GPGSV,4,2,13,08,47,207,,10,01,310,,13,50,031,,16,01,039,,0*64
$GPGSV,4,3,13,20,23,121,,23,28,057,,25,67,043,,27,18,219,,0*6F
$GPGSV,4,4,13,28,00,182,,0*56
$GAGSV,2,1,08,09,13,317,,10,64,334,,11,56,117,,12,07,130,,0*74
$GAGSV,2,2,08,17,31,040,,23,38,222,,24,86,021,,27,31,126,,0*7D
$GBGSV,3,1,09,01,38,122,46,02,50,173,46,04,36,126,46,06,37,216,46,0*76
$GBGSV,3,2,09,09,37,287,46,11,18,131,46,12,10,061,46,13,48,202,47,0*7F
$GBGSV,3,3,09,14,09,165,46,0*42
$GNGLL,2959.73924,N,12000.23005,E,000046.00,A,A*7E

$GNRMC,000047.00,A,2959.74551,N,12000.20698,E,75.582,289.56,230721,5.69,W,A,V*71
$GNVTG,289.56,T,295.24,M,75.582,N,139.978,K,A*05
$GNGGA,000047.00,2959.74551,N,12000.20698,E,1,08,1.39,-7.7,M,7.0,M,,*5B
$GNGSA,A,3,,,,,,,,,,,,,3.31,1.39,3.01,1*09
$GNGSA,A,3,,,,,,,,,,,,,3.31,1.39,3.01,3*0B
$GNGSA,A,3,01,13,11,04,02,06,12,09,,,,,3.31,1.39,3.01,4*05
$GPGSV,4,1,13,01,00,121,,02,33,300,,04,52,247,,07,84,118,,0*61
$GPGSV,4,2,13,08,47,207,,10,01,310,,13,50,031,,16,01,039,,0*64
$GPGSV,4,3,13,20,23,121,,23,28,057,,25,67,043,,27,18,219,,0*6F
$GPGSV,4,4,13,28,00,182,,0*56
$GAGSV,2,1,08,09,13,317,,10,64,334,,11,56,117,,12,07,130,,0*74
$GAGSV,2,2,08,17,31,040,,23,38,222,,24,86,021,,27,31,126,,0*7D
$GBGSV,3,1,09,01,38,122,46,02,50,173,47,04,36,126,46,06,37,216,46,0*77
$GBGSV,3,2,09,09,37,287,46,11,18,131,46,12,10,061,46,13,48,202,47,0*7F
$GBGSV,3,3,09,14,09,165,46,0*42
$GNGLL,2959.74551,N,12000.20698,E,000047.00,A,A*77

$GNRMC,000048.00,A,2959.75331,N,12000.18455,E,75.570,294.01,230721,5.69,W,A,V*74
$GNVTG,294.01,T,299.70,M,75.570,N,139.957,K,A*06
$GNGGA,000048.00,2959.75331,N,12000.18455,E,1,08,1.39,-7.7,M,7.0,M,,*5D
$GNGSA,A,3,,,,,,,,,,,,,3.31,1.39,3.01,1*09
$GNGSA,A,3,,,,,,,,,,,,,3.31,1.39,3.01,3*0B
$GNGSA,A,3,01,13,11,04,02,06,12,09,,,,,3.31,1.39,3.01,4*05
$GPGSV,4,1,13,01,00,121,,02,33,300,,04,52,247,,07,84,118,,0*61
$GPGSV,4,2,13,08,47,207,,10,01,310,,13,50,031,,16,01,039,,0*64
$GPGSV,4,3,13,20,23,121,,23,28,057,,25,67,043,,27,18,219,,0*6F
$GPGSV,4,4,13,28,00,182,,0*56
$GAGSV,2,1,08,09,13,317,,10,64,334,,11,56,117,,12,07,130,,0*74
$GAGSV,2,2,08,17,31,040,,23,38,222,,24,86,021,,27,31,126,,0*7D
$GBGSV,3,1,09,01,38,122,46,02,50,173,46,04,36,126,46,06,37,216,46,0*76
$GBGSV,3,2,09,09,37,287,46,11,18,131,46,12,10,061,46,13,48,202,47,0*7F
$GBGSV,3,3,09,14,09,165,46,0*42
$GNGLL,2959.75331,N,12000.18455,E,000048.00,A,A*71

$GNRMC,000049.00,A,2959.76261,N,12000.16287,E,75.586,298.47,230721,5.69,W,A,V*72
$GNVTG,298.47,T,304.15,M,75.586,N,139.985,K,A*08
$GNGGA,000049.00,2959.76261,N,12000.16287,E,1,08,1.39,-7.7,M,7.0,M,,*5C
$GNGSA,A,3,,,,,,,,,,,,,3.31,1.39,3.01,1*09
$GNGSA,A,3,,,,,,,,,,,,,3.31,1.39,3.01,3*0B
$GNGSA,A,3,01,13,11,04,02,06,12,09,,,,,3.31,1.39,3.01,4*05
$GPGSV,4,1,13,01,00,121,,02,33,300,,04,52,247,,07,84,118,,0*61
$GPGSV,4,2,13,08,47,207,,10,01,310,,13,50,031,,16,01,039,,0*64
$GPGSV,4,3,13,20,23,121,,23,27,057,,25,67,043,,27,18,219,,0*60
$GPGSV,4,4,13,28,00,182,,0*56
$GAGSV,2,1,08,09,13,317,,10,64,334,,11,56,117,,12,07,130,,0*74
$GAGSV,2,2,08,17,31,040,,23,38,222,,24,86,021,,27,31,126,,0*7D
$GBGSV,3,1,09,01,38,122,46,02,50,173,46,04,36,126,46,06,37,216,46,0*76
$GBGSV,3,2,09,09,37,287,46,11,18,131,46,12,10,061,46,13,48,202,47,0*7F
$GBGSV,3,3,09,14,09,165,46,0*42
$GNGLL,2959.76261,N,12000.16287,E,000049.00,A,A*70

$GNRMC,000050.00,A,2959.77334,N,12000.14209,E,75.590,302.92,230721,5.69,W,A,V*73
$GNVTG,302.92,T,308.61,M,75.590,N,139.993,K,A*0D
$GNGGA,000050.00,2959.77334,N,12000.14209,E,1,08,1.39,-7.7,M,7.0,M,,*50
$GNGSA,A,3,,,,,,,,,,,,,3.32,1.39,3.01,1*0A
$GNGSA,A,3,,,,,,,,,,,,,3.32,1.39,3.01,3*08
$GNGSA,A,3,01,13,11,04,02,06,12,09,,,,,3.32,1.39,3.01,4*06
$GPGSV,4,1,13,01,00,121,,02,33,300,,04,52,247,,07,84,118,,0*61
$GPGSV,4,2,13,08,47,207,,10,01,310,,13,50,031,,16,01,039,,0*64
$GPGSV,4,3,13,20,23,121,,23,27,057,,25,67,043,,27,18,219,,0*60
$GPGSV,4,4,13,28,00,182,,0*56
$GAGSV,2,1,08,09,13,317,,10,64,334,,11,56,117,,12,07,130,,0*74
$GAGSV,2,2,08,17,31,040,,23,38,222,,24,86,021,,27,31,126,,0*7D
$GBGSV,3,1,09,01,38,122,46,02,50,173,46,04,36,126,46,06,37,216,46,0*76
$GBGSV,3,2,09,09,37,287,46,11,18,131,46,12,10,061,46,13,48,202,47,0*7F
$GBGSV,3,3,09,14,09,165,46,0*42
$GNGLL,2959.77334,N,12000.14209,E,000050.00,A,A*7C

$GNRMC,000051.00,A,2959.78546,N,12000.12233,E,75.573,307.38,230721,5.69,W,A,V*79
$GNVTG,307.38,T,313.06,M,75.573,N,139.960,K,A*02
$GNGGA,000051.00,2959.78546,N,12000.12233,E,1,08,1.39,-7.7,M,7.0,M,,*52
$GNGSA,A,3,,,,,,,,,,,,,3.32,1.39,3.01,1*0A
$GNGSA,A,3,,,,,,,,,,,,,3.32,1.39,3.01,3*08
$GNGSA,A,3,01,13,11,04,02,06,12,09,,,,,3.32,1.39,3.01,4*06
$GPGSV,4,1,13,01,00,121,,02,33,300,,04,52,247,,07,84,118,,0*61
$GPGSV,4,2,13,08,47,207,,10,01,310,,13,50,031,,16,01,039,,0*64
$GPGSV,4,3,13,20,23,121,,23,27,057,,25,67,043,,27,18,219,,0*60
$GPGSV,4,4,13,28,00,182,,0*56
$GAGSV,2,1,08,09,13,317,,10,64,334,,11,56,117,,12,07,130,,0*74
$GAGSV,2,2,08,17,31,040,,23,38,222,,24,86,021,,27,31,126,,0*7D
$GBGSV,3,1,09,01,38,122,46,02,50,173,46,04,36,126,46,06,37,216,46,0*76
$GBGSV,3,2,09,09,37,287,46,11,18,131,46,12,10,061,46,13,48,202,47,0*7F
$GBGSV,3,3,09,14,09,165,46,0*42
$GNGLL,2959.78546,N,12000.12233,E,000051.00,A,A*7E

$GNRMC,000052.00,A,2959.79887,N,12000.10371,E,75.577,311.84,230721,5.69,W,A,V*7A
$GNVTG,311.84,T,317.52,M,75.577,N,139.968,K,A*0B
$GNGGA,000052.00,2959.79887,N,12000.10371,E,1,08,1.39,-7.7,M,7.0,M,,*55
$GNGSA,A,3,,,,,,,,,,,,,3.32,1.39,3.01,1*0A
$GNGSA,A,3,,,,,,,,,,,,,3.32,1.39,3.01,3*08
$GNGSA,A,3,01,13,11,04,02,06,12,09,,,,,3.32,1.39,3.01,4*06
$GPGSV,4,1,13,01,00,121,,02,33,300,,04,52,247,,07,84,118,,0*61
$GPGSV,4,2,13,08,47,207,,10,01,310,,13,50,031,,16,01,039,,0*64
$GPGSV,4,3,13,20,23,121,,23,27,057,,25,67,043,,27,18,219,,0*60
$GPGSV,4,4,13,28,00,182,,0*56
$GAGSV,2,1,08,09,13,317,,10,64,334,,11,56,117,,12,07,130,,0*74
$GAGSV,2,2,08,17,31,040,,23,38,222,,24,86,021,,27,31,126,,0*7D
$GBGSV,3,1,09,01,38,122,46,02,50,173,46,04,36,126,46,06,37,216,46,0*76
$GBGSV,3,2,09,09,37,287,46,11,18,131,46,12,10,061,46,13,48,202,47,0*7F
$GBGSV,3,3,09,14,09,165,46,0*42
$GNGLL,2959.79887,N,12000.10371,E,000052.00,A,A*79

$GNRMC,000053.00,A,2959.81350,N,12000.08634,E,75.560,316.30,230721,5.69,W,A,V*7E
$GNVTG,316.30,T,321.98,M,75.560,N,139.938,K,A*03
$GNGGA,000053.00,2959.81350,N,12000.08634,E,1,08,1.39,-7.7,M,7.0,M,,*5F
$GNGSA,A,3,,,,,,,,,,,,,3.32,1.39,3.01,1*0A
$GNGSA,A,3,,,,,,,,,,,,,3.32,1.39,3.01,3*08
$GNGSA,A,3,01,13,11,04,02,06,12,09,,,,,3.32,1.39,3.01,4*06
$GPGSV,4,1,13,01,00,121,,02,33,300,,04,52,247,,07,84,118,,0*61
$GPGSV,4,2,13,08,47,207,,10,01,310,,13,50,031,,16,01,039,,0*64
$GPGSV,4,3,13,20,23,121,,23,27,057,,25,67,043,,27,18,219,,0*60
$GPGSV,4,4,13,28,00,182,,0*56
$GAGSV,2,1,08,09,13,317,,10,64,334,,11,56,117,,12,07,130,,0*74
$GAGSV,2,2,08,17,31,040,,23,38,222,,24,86,021,,27,31,126,,0*7D
$GBGSV,3,1,09,01,38,122,46,02,50,173,46,04,36,126,46,06,37,216,46,0*76
$GBGSV,3,2,09,09,37,287,46,11,18,131,46,12,10,061,46,13,48,202,47,0*7F
$GBGSV,3,3,09,14,09,165,46,0*42
$GNGLL,2959.81350,N,12000.08634,E,000053.00,A,A*73

$GNRMC,000054.00,A,2959.82926,N,12000.07033,E,75.589,320.75,230721,5.69,W,A,V*7C
$GNVTG,320.75,T,326.44,M,75.589,N,139.991,K,A*05
$GNGGA,000054.00,2959.82926,N,12000.07033,E,1,08,1.39,-7.7,M,7.0,M,,*5E
$GNGSA,A,3,,,,,,,,,,,,,3.32,1.39,3.01,1*0A
$GNGSA,A,3,,,,,,,,,,,,,3.32,1.39,3.01,3*08
$GNGSA,A,3,01,13,11,04,02,06,12,09,,,,,3.32,1.39,3.01,4*06
$GPGSV,4,1,13,01,00,121,,02,33,300,,04,52,247,,07,84,118,,0*61
$GPGSV,4,2,13,08,47,207,,10,01,310,,13,50,031,,16,01,039,,0*64
$GPGSV,4,3,13,20,23,121,,23,27,057,,25,67,043,,27,18,219,,0*60
$GPGSV,4,4,13,28,00,182,,0*56
$GAGSV,2,1,08,09,13,317,,10,64,334,,11,56,117,,12,07,130,,0*74
$GAGSV,2,2,08,17,31,040,,23,38,222,,24,86,021,,27,31,126,,0*7D
$GBGSV,3,1,09,01,38,122,46,02,50,173,46,04,36,126,46,06,37,216,46,0*76
$GBGSV,3,2,09,09,37,287,46,11,18,131,46,12,10,061,46,13,48,202,47,0*7F
$GBGSV,3,3,09,14,09,165,46,0*42
$GNGLL,2959.82926,N,12000.07033,E,000054.00,A,A*72

$GNRMC,000055.00,A,2959.84605,N,12000.05578,E,75.580,325.20,230721,5.69,W,A,V*71
$GNVTG,325.20,T,330.89,M,75.580,N,139.974,K,A*04
$GNGGA,000055.00,2959.84605,N,12000.05578,E,1,08,1.39,-7.8,M,7.0,M,,*50
$GNGSA,A,3,,,,,,,,,,,,,3.32,1.39,3.01,1*0A
$GNGSA,A,3,,,,,,,,,,,,,3.32,1.39,3.01,3*08
$GNGSA,A,3,01,13,11,04,02,06,12,09,,,,,3.32,1.39,3.01,4*06
$GPGSV,4,1,13,01,00,121,,02,33,300,,04,52,247,,07,84,118,,0*61
$GPGSV,4,2,13,08,47,207,,10,01,310,,13,50,031,,16,01,039,,0*64
$GPGSV,4,3,13,20,23,121,,23,27,057,,25,67,043,,27,18,219,,0*60
$GPGSV,4,4,13,28,00,182,,0*56
$GAGSV,2,1,08,09,13,317,,10,64,334,,11,56,117,,12,07,130,,0*74
$GAGSV,2,2,08,17,31,040,,23,38,222,,24,86,021,,27,31,126,,0*7D
$GBGSV,3,1,09,01,38,122,46,02,50,173,46,04,36,126,46,06,37,216,46,0*76
$GBGSV,3,2,09,09,37,287,46,11,18,131,46,12,10,061,46,13,48,202,47,0*7F
$GBGSV,3,3,09,14,09,165,46,0*42
$GNGLL,2959.84605,N,12000.05578,E,000055.00,A,A*73

$GNRMC,000056.00,A,2959.86377,N,12000.04277,E,75.576,329.66,230721,5.69,W,A,V*7E
$GNVTG,329.66,T,335.35,M,75.576,N,139.967,K,A*03
$GNGGA,000056.00,2959.86377,N,12000.04277,E,1,08,1.39,-7.8,M,7.0,M,,*58
$GNGSA,A,3,,,,,,,,,,,,,3.32,1.39,3.01,1*0A
$GNGSA,A,3,,,,,,,,,,,,,3.32,1.39,3.01,3*08
$GNGSA,A,3,01,13,11,04,02,06,12,09,,,,,3.32,1.39,3.01,4*06
$GPGSV,4,1,13,01,00,121,,02,33,300,,04,52,247,,07,84,118,,0*61
$GPGSV,4,2,13,08,47,207,,10,01,310,,13,50,031,,16,01,039,,0*64
$GPGSV,4,3,13,20,23,121,,23,27,057,,25,67,043,,27,18,219,,0*60
$GPGSV,4,4,13,28,00,182,,0*56
$GAGSV,2,1,08,09,13,317,,10,64,334,,11,56,117,,12,07,130,,0*74
$GAGSV,2,2,08,17,31,040,,23,38,222,,24,86,021,,27,31,126,,0*7D
$GBGSV,3,1,09,01,38,122,46,02,50,173,46,04,36,126,46,06,37,216,46,0*76
$GBGSV,3,2,09,09,37,287,46,11,18,131,46,12,10,061,46,13,48,202,47,0*7F
$GBGSV,3,3,09,14,09,165,46,0*42
$GNGLL,2959.86377,N,12000.04277,E,000056.00,A,A*7B

$GNRMC,000057.00,A,2959.88233,N,12000.03139,E,75.584,334.11,230721,5.69,W,A,V*7F
$GNVTG,334.11,T,339.80,M,75.584,N,139.982,K,A*0B
$GNGGA,000057.00,2959.88233,N,12000.03139,E,1,08,1.39,-7.7,M,7.0,M,,*57
$GNGSA,A,3,,,,,,,,,,,,,3.32,1.39,3.01,1*0A
$GNGSA,A,3,,,,,,,,,,,,,3.32,1.39,3.01,3*08
$GNGSA,A,3,01,13,11,04,02,06,12,09,,,,,3.32,1.39,3.01,4*06
$GPGSV,4,1,13,01,00,121,,02,33,300,,04,52,247,,07,84,118,,0*61
$GPGSV,4,2,13,08,47,207,,10,01,310,,13,50,031,,16,01,039,,0*64
$GPGSV,4,3,13,20,23,121,,23,27,057,,25,67,043,,27,18,219,,0*60
$GPGSV,4,4,13,28,00,182,,0*56
$GAGSV,2,1,08,09,13,317,,10,64,334,,11,56,117,,12,07,130,,0*74
$GAGSV,2,2,08,17,31,040,,23,38,222,,24,86,021,,27,31,126,,0*7D
$GBGSV,3,1,09,01,38,122,46,02,50,173,46,04,36,126,46,06,37,216,46,0*76
$GBGSV,3,2,09,09,37,287,46,11,18,131,46,12,10,061,46,13,48,202,47,0*7F
$GBGSV,3,3,09,14,09,165,46,0*42
$GNGLL,2959.88233,N,12000.03139,E,000057.00,A,A*7B

$GNRMC,000058.00,A,2959.90159,N,12000.02169,E,75.576,338.58,230721,5.69,W,A,V*7E
$GNVTG,338.58,T,344.26,M,75.576,N,139.967,K,A*0A
$GNGGA,000058.00,2959.90159,N,12000.02169,E,1,08,1.39,-7.8,M,7.0,M,,*55
$GNGSA,A,3,,,,,,,,,,,,,3.32,1.39,3.01,1*0A
$GNGSA,A,3,,,,,,,,,,,,,3.32,1.39,3.01,3*08
$GNGSA,A,3,01,13,11,04,02,06,12,09,,,,,3.32,1.39,3.01,4*06
$GPGSV,4,1,13,01,00,121,,02,33,300,,04,52,247,,07,84,118,,0*61
$GPGSV,4,2,13,08,47,207,,10,01,310,,13,50,031,,16,01,039,,0*64
$GPGSV,4,3,13,20,23,121,,23,27,057,,25,67,043,,27,18,219,,0*60
$GPGSV,4,4,13,28,00,182,,0*56
$GAGSV,2,1,08,09,13,317,,10,64,334,,11,56,117,,12,07,130,,0*74
$GAGSV,2,2,08,17,31,040,,23,38,222,,24,86,021,,27,31,126,,0*7D
$GBGSV,3,1,09,01,38,122,46,02,50,173,46,04,36,126,46,06,37,216,46,0*76
$GBGSV,3,2,09,09,37,287,46,11,18,131,46,12,10,061,46,13,48,202,47,0*7F
$GBGSV,3,3,09,14,09,165,46,0*42
$GNGLL,2959.90159,N,12000.02169,E,000058.00,A,A*76

$GNRMC,000059.00,A,2959.92146,N,12000.01374,E,75.572,343.03,230721,5.69,W,A,V*78
$GNVTG,343.03,T,348.72,M,75.572,N,139.959,K,A*0C
$GNGGA,000059.00,2959.92146,N,12000.01374,E,1,08,1.39,-7.8,M,7.0,M,,*55
$GNGSA,A,3,,,,,,,,,,,,,3.32,1.39,3.01,1*0A
$GNGSA,A,3,,,,,,,,,,,,,3.32,1.39,3.01,3*08
$GNGSA,A,3,01,13,11,04,02,06,12,09,,,,,3.32,1.39,3.01,4*06
$GPGSV,4,1,13,01,00,121,,02,33,300,,04,52,247,,07,84,118,,0*61
$GPGSV,4,2,13,08,47,207,,10,01,310,,13,50,031,,16,01,039,,0*64
$GPGSV,4,3,13,20,23,121,,23,27,057,,25,67,043,,27,18,219,,0*60
$GPGSV,4,4,13,28,00,182,,0*56
$GAGSV,2,1,08,09,13,317,,10,64,334,,11,56,117,,12,07,130,,0*74
$GAGSV,2,2,08,17,31,040,,23,38,222,,24,86,021,,27,31,126,,0*7D
$GBGSV,3,1,09,01,38,122,46,02,50,173,46,04,36,126,46,06,37,216,46,0*76
$GBGSV,3,2,09,09,37,287,46,11,18,131,46,12,10,061,46,13,48,202,47,0*7F
$GBGSV,3,3,09,14,09,165,46,0*42
$GNGLL,2959.92146,N,12000.01374,E,000059.00,A,A*76

$GNRMC,000100.00,A,2959.94180,N,12000.00759,E,75.577,347.49,230721,5.69,W,A,V*7C
$GNVTG,347.49,T,353.18,M,75.577,N,139.969,K,A*06
$GNGGA,000100.00,2959.94180,N,12000.00759,E,1,08,1.39,-7.8,M,7.0,M,,*5E
$GNGSA,A,3,,,,,,,,,,,,,3.32,1.39,3.01,1*0A
$GNGSA,A,3,,,,,,,,,,,,,3.32,1.39,3.01,3*08
$GNGSA,A,3,01,13,11,04,02,06,12,09,,,,,3.32,1.39,3.01,4*06
$GPGSV,4,1,13,01,00,121,,02,33,300,,04,52,247,,07,84,118,,0*61
$GPGSV,4,2,13,08,47,207,,10,01,310,,13,50,031,,16,01,039,,0*64
$GPGSV,4,3,13,20,23,121,,23,27,057,,25,67,043,,27,18,219,,0*60
$GPGSV,4,4,13,28,00,182,,0*56
$GAGSV,2,1,08,09,13,317,,10,64,334,,11,56,117,,12,07,130,,0*74
$GAGSV,2,2,08,17,31,040,,23,38,222,,24,86,021,,27,31,126,,0*7D
$GBGSV,3,1,09,01,38,122,46,02,50,173,46,04,36,126,46,06,37,216,46,0*76
$GBGSV,3,2,09,09,37,287,46,11,18,131,46,12,10,061,46,13,48,202,47,0*7F
$GBGSV,3,3,09,14,09,165,46,0*42
$GNGLL,2959.94180,N,12000.00759,E,000100.00,A,A*7D

$GNRMC,000101.00,A,2959.96250,N,12000.00327,E,75.573,351.96,230721,5.69,W,A,V*7D
$GNVTG,351.96,T,357.64,M,75.573,N,139.961,K,A*00
$GNGGA,000101.00,2959.96250,N,12000.00327,E,1,08,1.39,-7.8,M,7.0,M,,*5E
$GNGSA,A,3,,,,,,,,,,,,,3.32,1.39,3.01,1*0A
$GNGSA,A,3,,,,,,,,,,,,,3.32,1.39,3.01,3*08
$GNGSA,A,3,01,13,11,04,02,06,12,09,,,,,3.32,1.39,3.01,4*06
$GPGSV,4,1,13,01,00,121,,02,33,300,,04,52,247,,07,84,118,,0*61
$GPGSV,4,2,13,08,47,207,,10,01,310,,13,50,031,,16,01,039,,0*64
$GPGSV,4,3,13,20,23,121,,23,27,057,,25,67,043,,27,18,219,,0*60
$GPGSV,4,4,13,28,00,182,,0*56
$GAGSV,2,1,08,09,13,317,,10,64,334,,11,56,117,,12,07,130,,0*74
$GAGSV,2,2,08,17,31,040,,23,38,222,,24,86,021,,27,31,126,,0*7D
$GBGSV,3,1,09,01,38,122,46,02,50,173,46,04,36,126,46,06,37,216,46,0*76
$GBGSV,3,2,09,09,37,287,46,11,18,131,46,12,10,061,46,13,48,202,47,0*7F
$GBGSV,3,3,09,14,09,165,46,0*42
$GNGLL,2959.96250,N,12000.00327,E,000101.00,A,A*7D

$GNRMC,000102.00,A,2959.98343,N,12000.00082,E,75.581,356.42,230721,5.69,W,A,V*7C
$GNVTG,356.42,T,2.11,M,75.581,N,139.975,K,A*07
$GNGGA,000102.00,2959.98343,N,12000.00082,E,1,08,1.39,-7.8,M,7.0,M,,*5C
$GNGSA,A,3,,,,,,,,,,,,,3.32,1.39,3.01,1*0A
$GNGSA,A,3,,,,,,,,,,,,,3.32,1.39,3.01,3*08
$GNGSA,A,3,01,13,11,04,02,06,12,09,,,,,3.32,1.39,3.01,4*06
$GPGSV,4,1,13,01,00,121,,02,33,300,,04,52,247,,07,84,118,,0*61
$GPGSV,4,2,13,08,47,207,,10,01,310,,13,50,031,,16,01,039,,0*64
$GPGSV,4,3,13,20,23,121,,23,27,057,,25,67,043,,27,18,219,,0*60
$GPGSV,4,4,13,28,00,182,,0*56
$GAGSV,2,1,08,09,13,317,,10,64,334,,11,56,117,,12,07,130,,0*74
$GAGSV,2,2,08,17,31,040,,23,38,222,,24,86,021,,27,31,126,,0*7D
$GBGSV,3,1,09,01,38,122,46,02,50,173,46,04,36,126,46,06,37,216,46,0*76
$GBGSV,3,2,09,09,37,287,46,11,18,131,46,12,10,061,46,13,48,202,47,0*7F
$GBGSV,3,3,09,14,09,165,46,0*42
$GNGLL,2959.98343,N,12000.00082,E,000102.00,A,A*7F

$GNRMC,000103.00,A,3000.00446,N,12000.00025,E,75.593,0.87,230721,5.69,W,A,V*7D
$GNVTG,0.87,T,6.56,M,75.593,N,139.998,K,A*09
$GNGGA,000103.00,3000.00446,N,12000.00025,E,1,08,1.39,-7.8,M,7.0,M,,*57
$GNGSA,A,3,,,,,,,,,,,,,3.32,1.39,3.02,1*09
$GNGSA,A,3,,,,,,,,,,,,,3.32,1.39,3.02,3*0B
$GNGSA,A,3,01,13,11,04,02,06,12,09,,,,,3.32,1.39,3.02,4*05
$GPGSV,4,1,13,01,00,121,,02,33,300,,04,52,247,,07,84,118,,0*61
$GPGSV,4,2,13,08,47,207,,10,01,310,,13,50,031,,16,01,039,,0*64
$GPGSV,4,3,13,20,23,121,,23,27,057,,25,67,043,,27,18,219,,0*60
$GPGSV,4,4,13,28,00,182,,0*56
$GAGSV,2,1,08,09,13,317,,10,64,334,,11,56,117,,12,07,130,,0*74
$GAGSV,2,2,08,17,31,040,,23,38,222,,24,86,021,,27,31,126,,0*7D
$GBGSV,3,1,09,01,38,122,46,02,50,173,46,04,36,126,46,06,37,216,46,0*76
$GBGSV,3,2,09,09,37,287,46,11,18,131,46,12,10,061,46,13,48,202,47,0*7F
$GBGSV,3,3,09,14,09,165,46,0*42
$GNGLL,3000.00446,N,12000.00025,E,000103.00,A,A*74

$GNRMC,000104.00,A,3000.02547,N,12000.00156,E,75.585,5.33,230721,5.69,W,A,V*70
$GNVTG,5.33,T,11.01,M,75.585,N,139.983,K,A*3A
$GNGGA,000104.00,3000.02547,N,12000.00156,E,1,08,1.39,-7.7,M,7.0,M,,*58
$GNGSA,A,3,,,,,,,,,,,,,3.32,1.39,3.02,1*09
$GNGSA,A,3,,,,,,,,,,,,,3.32,1.39,3.02,3*0B
$GNGSA,A,3,01,13,11,04,02,06,12,09,,,,,3.32,1.39,3.02,4*05
$GPGSV,4,1,13,01,00,121,,02,33,300,,04,52,247,,07,84,118,,0*61
$GPGSV,4,2,13,08,47,207,,10,01,310,,13,50,031,,16,01,039,,0*64
$GPGSV,4,3,13,20,23,121,,23,27,057,,25,67,043,,27,18,219,,0*60
$GPGSV,4,4,13,28,00,182,,0*56
$GAGSV,2,1,08,09,13,317,,10,64,334,,11,56,117,,12,07,130,,0*74
$GAGSV,2,2,08,17,31,040,,23,38,222,,24,86,021,,27,31,126,,0*7D
$GBGSV,3,1,09,01,38,122,46,02,50,173,46,04,36,126,46,06,37,216,46,0*76
$GBGSV,3,2,09,09,37,287,46,11,18,131,46,12,10,061,46,13,48,202,47,0*7F
$GBGSV,3,3,09,14,09,165,46,0*42
$GNGLL,3000.02547,N,12000.00156,E,000104.00,A,A*74

$GNRMC,000105.00,A,3000.04633,N,12000.00473,E,75.587,9.78,230721,5.69,W,A,V*74
$GNVTG,9.78,T,15.47,M,75.587,N,139.987,K,A*39
$GNGGA,000105.00,3000.04633,N,12000.00473,E,1,08,1.39,-7.7,M,7.0,M,,*5D
$GNGSA,A,3,,,,,,,,,,,,,3.32,1.39,3.02,1*09
$GNGSA,A,3,,,,,,,,,,,,,3.32,1.39,3.02,3*0B
$GNGSA,A,3,01,13,11,04,02,06,12,09,,,,,3.32,1.39,3.02,4*05
$GPGSV,4,1,13,01,00,121,,02,33,300,,04,52,247,,07,84,118,,0*61
$GPGSV,4,2,13,08,47,207,,10,01,310,,13,50,031,,16,01,039,,0*64
$GPGSV,4,3,13,20,23,121,,23,27,057,,25,67,043,,27,18,219,,0*60
$GPGSV,4,4,13,28,00,182,,0*56
$GAGSV,2,1,08,09,13,317,,10,64,334,,11,56,117,,12,07,130,,0*74
$GAGSV,2,2,08,17,31,040,,23,38,222,,24,86,021,,27,31,126,,0*7D
$GBGSV,3,1,09,01,38,122,46,02,50,173,46,04,36,126,46,06,37,216,46,0*76
$GBGSV,3,2,09,09,37,287,46,11,18,131,46,12,10,061,46,13,48,202,47,0*7F
$GBGSV,3,3,09,14,09,165,46,0*42
$GNGLL,3000.04633,N,12000.00473,E,000105.00,A,A*71

$GNRMC,000106.00,A,3000.06691,N,12000.00976,E,75.597,14.24,230721,5.69,W,A,V*41
$GNVTG,14.24,T,19.93,M,75.597,N,140.006,K,A*06
$GNGGA,000106.00,3000.06691,N,12000.00976,E,1,08,1.39,-7.7,M,7.0,M,,*5C
$GNGSA,A,3,,,,,,,,,,,,,3.32,1.39,3.02,1*09
$GNGSA,A,3,,,,,,,,,,,,,3.32,1.39,3.02,3*0B
$GNGSA,A,3,01,13,11,04,02,06,12,09,,,,,3.32,1.39,3.02,4*05
$GPGSV,4,1,13,01,00,121,,02,33,300,,04,52,247,,07,84,118,,0*61
$GPGSV,4,2,13,08,47,207,,10,01,310,,13,50,031,,16,01,039,,0*64
$GPGSV,4,3,13,20,23,121,,23,27,057,,25,67,043,,27,18,219,,0*60
$GPGSV,4,4,13,28,00,182,,0*56
$GAGSV,2,1,08,09,13,317,,10,64,334,,11,56,117,,12,07,130,,0*74
$GAGSV,2,2,08,17,31,040,,23,38,222,,24,86,021,,27,31,126,,0*7D
$GBGSV,3,1,09,01,38,122,46,02,50,173,46,04,36,126,46,06,37,216,46,0*76
$GBGSV,3,2,09,09,37,287,46,11,18,131,46,12,10,061,46,13,48,202,47,0*7F
$GBGSV,3,3,09,14,09,165,46,0*42
$GNGLL,3000.06691,N,12000.00976,E,000106.00,A,A*70

$GNRMC,000107.00,A,3000.08708,N,12000.01660,E,75.583,18.70,230721,5.69,W,A,V*4E
$GNVTG,18.70,T,24.39,M,75.583,N,139.980,K,A*09
$GNGGA,000107.00,3000.08708,N,12000.01660,E,1,08,1.39,-7.7,M,7.0,M,,*5B
$GNGSA,A,3,,,,,,,,,,,,,3.32,1.39,3.02,1*09
$GNGSA,A,3,,,,,,,,,,,,,3.32,1.39,3.02,3*0B
$GNGSA,A,3,01,13,11,04,02,06,12,09,,,,,3.32,1.39,3.02,4*05
$GPGSV,4,1,13,01,00,121,,02,33,300,,04,52,247,,07,84,118,,0*61
$GPGSV,4,2,13,08,47,207,,10,01,310,,13,50,031,,16,01,039,,0*64
$GPGSV,4,3,13,20,23,121,,23,27,057,,25,67,043,,27,18,219,,0*60
$GPGSV,4,4,13,28,00,182,,0*56
$GAGSV,2,1,08,09,13,317,,10,64,334,,11,56,117,,12,07,130,,0*74
$GAGSV,2,2,08,17,31,040,,23,38,222,,24,86,021,,27,31,126,,0*7D
$GBGSV,3,1,09,01,38,122,46,02,50,173,46,04,36,126,46,06,37,216,46,0*76
$GBGSV,3,2,09,09,37,287,46,11,18,131,46,12,10,061,46,13,48,202,47,0*7F
$GBGSV,3,3,09,14,09,165,46,0*42
$GNGLL,3000.08708,N,12000.01660,E,000107.00,A,A*77

$GNRMC,000108.00,A,3000.10673,N,12000.02523,E,75.584,23.15,230721,5.69,W,A,V*4E
$GNVTG,23.15,T,28.83,M,75.584,N,139.981,K,A*09
$GNGGA,000108.00,3000.10673,N,12000.02523,E,1,08,1.39,-7.7,M,7.0,M,,*57
$GNGSA,A,3,,,,,,,,,,,,,3.32,1.39,3.02,1*09
$GNGSA,A,3,,,,,,,,,,,,,3.32,1.39,3.02,3*0B
$GNGSA,A,3,01,13,11,04,02,06,12,09,,,,,3.32,1.39,3.02,4*05
$GPGSV,4,1,13,01,00,121,,02,33,300,,04,52,247,,07,84,118,,0*61
$GPGSV,4,2,13,08,47,207,,10,01,310,,13,50,031,,16,01,039,,0*64
$GPGSV,4,3,13,20,23,121,,23,27,057,,25,67,043,,27,18,219,,0*60
$GPGSV,4,4,13,28,00,182,,0*56
$GAGSV,2,1,08,09,13,317,,10,64,334,,11,56,117,,12,07,130,,0*74
$GAGSV,2,2,08,17,31,040,,23,38,222,,24,86,021,,27,31,126,,0*7D
$GBGSV,3,1,09,01,38,122,46,02,50,173,46,04,36,126,46,06,37,216,46,0*76
$GBGSV,3,2,09,09,37,287,46,11,18,131,46,12,10,061,46,13,48,202,47,0*7F
$GBGSV,3,3,09,14,09,165,46,0*42
$GNGLL,3000.10673,N,12000.02523,E,000108.00,A,A*7B

$GNRMC,000109.00,A,3000.12574,N,12000.03559,E,75.592,27.59,230721,5.69,W,A,V*4E
$GNVTG,27.59,T,33.28,M,75.592,N,139.996,K,A*0F
$GNGGA,000109.00,3000.12574,N,12000.03559,E,1,08,1.39,-7.7,M,7.0,M,,*5C
$GNGSA,A,3,,,,,,,,,,,,,3.32,1.39,3.02,1*09
$GNGSA,A,3,,,,,,,,,,,,,3.32,1.39,3.02,3*0B
$GNGSA,A,3,01,13,11,04,02,06,12,09,,,,,3.32,1.39,3.02,4*05
$GPGSV,4,1,13,01,00,121,,02,33,300,,04,52,247,,07,84,118,,0*61
$GPGSV,4,2,13,08,47,207,,10,01,310,,13,50,031,,16,01,039,,0*64
$GPGSV,4,3,13,20,23,121,,23,27,057,,25,67,043,,27,18,219,,0*60
$GPGSV,4,4,13,28,00,182,,0*56
$GAGSV,2,1,08,09,13,317,,10,64,334,,11,56,117,,12,07,130,,0*74
$GAGSV,2,2,08,17,31,040,,23,38,222,,24,86,021,,27,31,126,,0*7D
$GBGSV,3,1,09,01,38,122,46,02,50,173,46,04,36,126,46,06,37,216,46,0*76
$GBGSV,3,2,09,09,37,287,46,11,18,131,46,12,10,061,46,13,48,202,47,0*7F
$GBGSV,3,3,09,14,09,165,46,0*42
$GNGLL,3000.12574,N,12000.03559,E,000109.00,A,A*70

$GNRMC,000110.00,A,3000.14398,N,12000.04760,E,75.586,32.06,230721,5.69,W,A,V*40
$GNVTG,32.06,T,37.75,M,75.586,N,139.985,K,A*0A
$GNGGA,000110.00,3000.14398,N,12000.04760,E,1,08,1.39,-7.8,M,7.0,M,,*56
$GNGSA,A,3,,,,,,,,,,,,,3.32,1.39,3.02,1*09
$GNGSA,A,3,,,,,,,,,,,,,3.32,1.39,3.02,3*0B
$GNGSA,A,3,01,13,11,04,02,06,12,09,,,,,3.32,1.39,3.02,4*05
$GPGSV,4,1,13,01,00,121,,02,33,300,,04,52,247,,07,84,118,,0*61
$GPGSV,4,2,13,08,47,207,,10,01,310,,13,50,031,,16,01,039,,0*64
$GPGSV,4,3,13,20,23,121,,23,27,057,,25,67,043,,27,18,219,,0*60
$GPGSV,4,4,13,28,00,182,,0*56
$GAGSV,2,1,08,09,13,317,,10,64,334,,11,56,117,,12,07,130,,0*74
$GAGSV,2,2,08,17,31,040,,23,38,222,,24,86,021,,27,31,126,,0*7D
$GBGSV,3,1,09,01,38,122,46,02,50,173,46,04,36,126,46,06,37,216,46,0*76
$GBGSV,3,2,09,09,37,287,46,11,18,131,46,12,10,061,46,13,48,202,47,0*7F
$GBGSV,3,3,09,14,09,165,46,0*42
$GNGLL,3000.14398,N,12000.04760,E,000110.00,A,A*75

$GNRMC,000111.00,A,3000.16136,N,12000.06121,E,75.582,36.52,230721,5.69,W,A,V*45
$GNVTG,36.52,T,42.21,M,75.582,N,139.977,K,A*05
$GNGGA,000111.00,3000.16136,N,12000.06121,E,1,08,1.39,-7.8,M,7.0,M,,*52
$GNGSA,A,3,,,,,,,,,,,,,3.32,1.39,3.02,1*09
$GNGSA,A,3,,,,,,,,,,,,,3.32,1.39,3.02,3*0B
$GNGSA,A,3,01,13,11,04,02,06,12,09,,,,,3.32,1.39,3.02,4*05
$GPGSV,4,1,13,01,00,121,,02,33,300,,04,52,247,,07,84,118,,0*61
$GPGSV,4,2,13,08,47,207,,10,01,310,,13,50,031,,16,01,039,,0*64
$GPGSV,4,3,13,20,23,121,,23,27,057,,25,67,043,,27,18,219,,0*60
$GPGSV,4,4,13,28,00,182,,0*56
$GAGSV,2,1,08,09,13,317,,10,64,334,,11,56,117,,12,07,130,,0*74
$GAGSV,2,2,08,17,31,040,,23,38,222,,24,86,021,,27,31,126,,0*7D
$GBGSV,3,1,09,01,38,122,46,02,50,173,46,04,36,126,46,06,37,216,46,0*76
$GBGSV,3,2,09,09,37,287,46,11,18,131,46,12,10,061,46,13,48,202,47,0*7F
$GBGSV,3,3,09,14,09,165,46,0*42
$GNGLL,3000.16136,N,12000.06121,E,000111.00,A,A*71

$GNRMC,000112.00,A,3000.17777,N,12000.07634,E,75.590,40.98,230721,5.69,W,A,V*42
$GNVTG,40.98,T,46.66,M,75.590,N,139.993,K,A*0C
$GNGGA,000112.00,3000.17777,N,12000.07634,E,1,08,1.39,-7.8,M,7.0,M,,*51
$GNGSA,A,3,,,,,,,,,,,,,3.32,1.39,3.02,1*09
$GNGSA,A,3,,,,,,,,,,,,,3.32,1.39,3.02,3*0B
$GNGSA,A,3,01,13,11,04,02,06,12,09,,,,,3.32,1.39,3.02,4*05
$GPGSV,4,1,13,01,00,121,,02,33,300,,04,52,247,,07,84,118,,0*61
$GPGSV,4,2,13,08,47,207,,10,01,310,,13,50,031,,16,01,039,,0*64
$GPGSV,4,3,13,20,23,121,,23,27,057,,25,67,043,,27,18,219,,0*60
$GPGSV,4,4,13,28,00,182,,0*56
$GAGSV,2,1,08,09,13,317,,10,64,334,,11,56,117,,12,07,130,,0*74
$GAGSV,2,2,08,17,31,040,,23,38,222,,24,86,021,,27,31,126,,0*7D
$GBGSV,3,1,09,01,38,122,46,02,50,173,46,04,36,126,46,06,37,216,46,0*76
$GBGSV,3,2,09,09,37,287,46,11,18,131,46,12,10,061,46,13,48,202,47,0*7F
$GBGSV,3,3,09,14,09,165,46,0*42
$GNGLL,3000.17777,N,12000.07634,E,000112.00,A,A*72

$GNRMC,000113.00,A,3000.19310,N,12000.09288,E,75.587,45.43,230721,5.69,W,A,V*40
$GNVTG,45.43,T,51.12,M,75.587,N,139.988,K,A*06
$GNGGA,000113.00,3000.19310,N,12000.09288,E,1,08,1.39,-7.8,M,7.0,M,,*56
$GNGSA,A,3,,,,,,,,,,,,,3.33,1.39,3.02,1*08
$GNGSA,A,3,,,,,,,,,,,,,3.33,1.39,3.02,3*0A
$GNGSA,A,3,01,13,11,04,02,06,12,09,,,,,3.33,1.39,3.02,4*04
$GPGSV,4,1,13,01,00,121,,02,33,300,,04,52,247,,07,84,118,,0*61
$GPGSV,4,2,13,08,47,207,,10,01,310,,13,50,031,,16,01,039,,0*64
$GPGSV,4,3,13,20,23,121,,23,27,057,,25,67,043,,27,18,219,,0*60
$GPGSV,4,4,13,28,00,182,,0*56
$GAGSV,2,1,08,09,13,317,,10,64,334,,11,56,117,,12,07,130,,0*74
$GAGSV,2,2,08,17,31,040,,23,38,222,,24,86,021,,27,31,126,,0*7D
$GBGSV,3,1,09,01,38,122,46,02,50,173,46,04,36,126,46,06,37,216,46,0*76
$GBGSV,3,2,09,09,37,287,46,11,18,131,46,12,10,061,46,13,48,202,47,0*7F
$GBGSV,3,3,09,14,09,165,46,0*42
$GNGLL,3000.19310,N,12000.09288,E,000113.00,A,A*75

$GNRMC,000114.00,A,3000.20727,N,12000.11073,E,75.587,49.88,230721,5.69,W,A,V*49
$GNVTG,49.88,T,55.57,M,75.587,N,139.987,K,A*07
$GNGGA,000114.00,3000.20727,N,12000.11073,E,1,08,1.39,-7.9,M,7.0,M,,*55
$GNGSA,A,3,,,,,,,,,,,,,3.33,1.39,3.02,1*08
$GNGSA,A,3,,,,,,,,,,,,,3.33,1.39,3.02,3*0A
$GNGSA,A,3,01,13,11,04,02,06,12,09,,,,,3.33,1.39,3.02,4*04
$GPGSV,4,1,13,01,00,121,,02,33,300,,04,52,247,,07,84,118,,0*61
$GPGSV,4,2,13,08,47,207,,10,01,310,,13,50,031,,16,01,039,,0*64
$GPGSV,4,3,13,20,23,121,,23,27,057,,25,67,043,,27,18,219,,0*60
$GPGSV,4,4,13,28,00,182,,0*56
$GAGSV,2,1,08,09,13,317,,10,64,334,,11,56,117,,12,07,130,,0*74
$GAGSV,2,2,08,17,31,040,,23,38,222,,24,86,021,,27,31,126,,0*7D
$GBGSV,3,1,09,01,38,122,46,02,50,173,46,04,36,126,46,06,37,216,46,0*76
$GBGSV,3,2,09,09,37,287,46,11,18,131,46,12,10,061,46,13,48,202,47,0*7F
$GBGSV,3,3,09,14,09,165,46,0*42
$GNGLL,3000.20727,N,12000.11073,E,000114.00,A,A*77

$GNRMC,000115.00,A,3000.22019,N,12000.12980,E,75.594,54.34,230721,5.69,W,A,V*4F
$GNVTG,54.34,T,60.03,M,75.594,N,140.000,K,A*01
$GNGGA,000115.00,3000.22019,N,12000.12980,E,1,08,1.39,-7.9,M,7.0,M,,*5A
$GNGSA,A,3,,,,,,,,,,,,,3.33,1.39,3.02,1*08
$GNGSA,A,3,,,,,,,,,,,,,3.33,1.39,3.02,3*0A
$GNGSA,A,3,01,13,11,04,02,06,12,09,,,,,3.33,1.39,3.02,4*04
$GPGSV,4,1,13,01,00,121,,02,33,300,,04,52,247,,07,84,118,,0*61
$GPGSV,4,2,13,08,47,207,,10,01,310,,13,50,031,,16,01,039,,0*64
$GPGSV,4,3,13,20,23,121,,23,27,057,,25,67,043,,27,18,219,,0*60
$GPGSV,4,4,13,28,00,182,,0*56
$GAGSV,2,1,08,09,13,317,,10,64,334,,11,56,117,,12,07,130,,0*74
$GAGSV,2,2,08,17,31,040,,23,38,222,,24,86,021,,27,31,126,,0*7D
$GBGSV,3,1,09,01,38,122,46,02,50,173,46,04,36,126,46,06,37,216,46,0*76
$GBGSV,3,2,09,09,37,287,46,11,18,131,46,12,10,061,46,13,48,202,47,0*7F
$GBGSV,3,3,09,14,09,165,46,0*42
$GNGLL,3000.22019,N,12000.12980,E,000115.00,A,A*78

$GNRMC,000116.00,A,3000.23178,N,12000.14997,E,75.593,58.80,230721,5.69,W,A,V*4F
$GNVTG,58.80,T,64.48,M,75.593,N,139.998,K,A*08
$GNGGA,000116.00,3000.23178,N,12000.14997,E,1,08,1.39,-7.9,M,7.0,M,,*5E
$GNGSA,A,3,,,,,,,,,,,,,3.33,1.39,3.02,1*08
$GNGSA,A,3,,,,,,,,,,,,,3.33,1.39,3.02,3*0A
$GNGSA,A,3,01,13,11,04,02,06,12,09,,,,,3.33,1.39,3.02,4*04
$GPGSV,4,1,13,01,00,121,,02,33,300,,04,52,247,,07,84,118,,0*61
$GPGSV,4,2,13,08,47,207,,10,01,310,,13,50,031,,16,01,039,,0*64
$GPGSV,4,3,13,20,23,121,,23,27,057,,25,67,043,,27,18,219,,0*60
$GPGSV,4,4,13,28,00,182,,0*56
$GAGSV,2,1,08,09,13,317,,10,64,334,,11,56,117,,12,07,130,,0*74
$GAGSV,2,2,08,17,31,040,,23,38,222,,24,86,021,,27,31,126,,0*7D
$GBGSV,3,1,09,01,38,122,46,02,50,173,46,04,36,126,46,06,37,216,46,0*76
$GBGSV,3,2,09,09,37,287,46,11,18,131,46,12,10,061,46,13,48,202,47,0*7F
$GBGSV,3,3,09,14,09,165,46,0*42
$GNGLL,3000.23178,N,12000.14997,E,000116.00,A,A*7C

$GNRMC,000117.00,A,3000.24197,N,12000.17111,E,75.593,63.25,230721,5.69,W,A,V*4A
$GNVTG,63.25,T,68.94,M,75.593,N,139.998,K,A*02
$GNGGA,000117.00,3000.24197,N,12000.17111,E,1,08,1.39,-7.9,M,7.0,M,,*5C
$GNGSA,A,3,,,,,,,,,,,,,3.33,1.39,3.02,1*08
$GNGSA,A,3,,,,,,,,,,,,,3.33,1.39,3.02,3*0A
$GNGSA,A,3,01,13,11,04,02,06,12,09,,,,,3.33,1.39,3.02,4*04
$GPGSV,4,1,13,01,00,121,,02,33,300,,04,52,247,,07,84,118,,0*61
$GPGSV,4,2,13,08,47,207,,10,01,310,,13,50,031,,16,01,039,,0*64
$GPGSV,4,3,13,20,23,121,,23,27,057,,25,67,043,,27,18,219,,0*60
$GPGSV,4,4,13,28,00,182,,0*56
$GAGSV,2,1,08,09,13,317,,10,64,334,,11,56,117,,12,07,130,,0*74
$GAGSV,2,2,08,17,31,040,,23,38,222,,24,86,021,,27,31,126,,0*7D
$GBGSV,3,1,09,01,38,122,46,02,50,173,46,04,36,126,46,06,37,216,46,0*76
$GBGSV,3,2,09,09,37,287,46,11,18,131,46,12,10,061,46,13,48,202,47,0*7F
$GBGSV,3,3,09,14,09,165,46,0*42
$GNGLL,3000.24197,N,12000.17111,E,000117.00,A,A*7E

$GNRMC,000118.00,A,3000.25070,N,12000.19310,E,75.595,67.71,230721,5.69,W,A,V*42
$GNVTG,67.71,T,73.40,M,75.595,N,140.002,K,A*06
$GNGGA,000118.00,3000.25070,N,12000.19310,E,1,08,1.39,-7.9,M,7.0,M,,*57
$GNGSA,A,3,,,,,,,,,,,,,3.33,1.39,3.02,1*08
$GNGSA,A,3,,,,,,,,,,,,,3.33,1.39,3.02,3*0A
$GNGSA,A,3,01,13,11,04,02,06,12,09,,,,,3.33,1.39,3.02,4*04
$GPGSV,4,1,13,01,00,121,,02,33,300,,04,52,247,,07,84,118,,0*61
$GPGSV,4,2,13,08,47,207,,10,01,310,,13,50,031,,16,01,039,,0*64
$GPGSV,4,3,13,20,23,121,,23,27,057,,25,67,043,,27,18,219,,0*60
$GPGSV,4,4,13,28,00,182,,0*56
$GAGSV,2,1,08,09,14,317,,10,64,334,,11,56,117,,12,07,130,,0*73
$GAGSV,2,2,08,17,31,040,,23,38,222,,24,86,021,,27,31,126,,0*7D
$GBGSV,3,1,09,01,38,122,46,02,50,173,46,04,36,126,46,06,37,216,46,0*76
$GBGSV,3,2,09,09,37,287,46,11,18,131,46,12,10,061,46,13,48,202,47,0*7F
$GBGSV,3,3,09,14,09,165,46,0*42
$GNGLL,3000.25070,N,12000.19310,E,000118.00,A,A*75

$GNRMC,000119.00,A,3000.25791,N,12000.21581,E,75.590,72.17,230721,5.69,W,A,V*4F
$GNVTG,72.17,T,77.86,M,75.590,N,139.992,K,A*07
$GNGGA,000119.00,3000.25791,N,12000.21581,E,1,08,1.39,-7.9,M,7.0,M,,*5B
$GNGSA,A,3,,,,,,,,,,,,,3.33,1.39,3.02,1*08
$GNGSA,A,3,,,,,,,,,,,,,3.33,1.39,3.02,3*0A
$GNGSA,A,3,01,13,11,04,02,06,12,09,,,,,3.33,1.39,3.02,4*04
$GPGSV,4,1,13,01,00,121,,02,33,300,,04,52,247,,07,84,118,,0*61
$GPGSV,4,2,13,08,47,207,,10,01,310,,13,50,031,,16,01,039,,0*64
$GPGSV,4,3,13,20,23,121,,23,27,057,,25,67,043,,27,18,219,,0*60
$GPGSV,4,4,13,28,00,182,,0*56
$GAGSV,2,1,08,09,14,317,,10,64,334,,11,56,117,,12,07,130,,0*73
$GAGSV,2,2,08,17,31,040,,23,38,222,,24,86,021,,27,31,126,,0*7D
$GBGSV,3,1,09,01,38,122,46,02,50,173,46,04,36,126,46,06,37,216,46,0*76
$GBGSV,3,2,09,09,37,287,46,11,18,131,46,12,10,061,46,13,48,202,47,0*7F
$GBGSV,3,3,09,14,09,165,46,0*42
$GNGLL,3000.25791,N,12000.21581,E,000119.00,A,A*79

$GNRMC,000120.00,A,3000.26357,N,12000.23909,E,75.594,76.62,230721,5.69,W,A,V*44
$GNVTG,76.62,T,82.31,M,75.594,N,140.000,K,A*0F
$GNGGA,000120.00,3000.26357,N,12000.23909,E,1,08,1.39,-7.9,M,7.0,M,,*52
$GNGSA,A,3,,,,,,,,,,,,,3.33,1.39,3.02,1*08
$GNGSA,A,3,,,,,,,,,,,,,3.33,1.39,3.02,3*0A
$GNGSA,A,3,01,13,11,04,02,06,12,09,,,,,3.33,1.39,3.02,4*04
