
$´®¿Ú³õÊ¼»¯£º20210916 11:57:15$
.8,1.3,1*20
$GPZDA,115957.00,01,08,2021,-7,00*7A
$GPGGA,115958,2300.00000,N,11300.00000,E,3,44,0.76,17.53,M,-7.53,M,,*5E
$GPRMC,115958,A,2300.00000,N,11300.00000,E,0.000,90.000,010821,0.000,E,A,V*51
$GPVTG,90.000,T,90.000,M,0.000,N,0.000,K*4E
$GPGSV,11,1,11,3,7,280,60,5,12,128,60,6,19,286,61,16,31,325,61,1*55
$GPGSV,11,2,11,18,29,140,61,21,74,35,62,22,15,172,60,24,28,39,61,1*53
$GPGSV,11,3,11,29,27,49,61,30,35,117,0,31,53,236,62,3,7,280,60,5*5A
$GPGSV,11,4,11,5,12,128,60,6,19,286,61,16,31,325,61,18,29,140,61,5*5C
$GPGSV,11,5,11,21,74,35,62,22,15,172,60,24,28,39,61,29,27,49,61,5*64
$GPGSV,11,6,11,30,35,117,0,31,53,236,62,3,7,280,60,5,12,128,60,6*53
$GPGSV,11,7,11,6,19,286,61,16,31,325,61,18,29,140,61,21,74,35,62,6*55
$GPGSV,11,8,11,22,15,172,60,24,28,39,61,29,27,49,61,30,35,117,0,6*6A
$GPGSV,11,9,11,31,53,236,62,3,7,280,60,5,12,128,60,6,19,286,61,7*5A
$GPGSV,11,10,11,16,31,325,61,18,29,140,61,21,74,35,62,22,15,172,60,7*51
$GPGSV,11,11,11,24,28,39,61,29,27,49,61,30,35,117,0,31,53,236,62,7*52
$GPGSA,A,3,03,05,06,16,18,21,22,24,29,30,31,,1.5,0.8,1.3,1*20
$GPZDA,115958.00,01,08,2021,-7,00*75
$GPGGA,115959,2300.00000,N,11300.00000,E,3,44,0.76,17.53,M,-7.53,M,,*5F
$GPRMC,115959,A,2300.00000,N,11300.00000,E,0.000,90.000,010821,0.000,E,A,V*50
$GPVTG,90.000,T,90.000,M,0.000,N,0.000,K*4E
$GPGSV,11,1,11,3,7,280,60,5,12,128,60,6,19,286,61,16,31,325,61,1*55
$GPGSV,11,2,11,18,29,140,61,21,74,35,62,22,15,172,60,24,28,39,61,1*53
$GPGSV,11,3,11,29,27,49,61,30,35,117,0,31,53,236,62,3,7,280,60,5*5A
$GPGSV,11,4,11,5,12,128,60,6,19,286,61,16,31,325,61,18,29,140,61,5*5C
$GPGSV,11,5,11,21,74,35,62,22,15,172,60,24,28,39,61,29,27,49,61,5*64
$GPGSV,11,6,11,30,35,117,0,31,53,236,62,3,7,280,60,5,12,128,60,6*53
$GPGSV,11,7,11,6,19,286,61,16,31,325,61,18,29,140,61,21,74,35,62,6*55
$GPGSV,11,8,11,22,15,172,60,24,28,39,61,29,27,49,61,30,35,117,0,6*6A
$GPGSV,11,9,11,31,53,236,62,3,7,280,60,5,12,128,60,6,19,286,61,7*5A
$GPGSV,11,10,11,16,31,325,61,18,29,140,61,21,74,35,62,22,15,172,60,7*51
$GPGSV,11,11,11,24,28,39,61,29,27,49,61,30,35,117,0,31,53,236,62,7*52
$GPGSA,A,3,03,05,06,16,18,21,22,24,29,30,31,,1.5,0.8,1.3,1*20
$GPZDA,115959.00,01,08,2021,-7,00*74
$GPGGA,120000,2300.00000,N,11300.00000,E,3,44,0.76,17.53,M,-7.53,M,,*5C
$GPRMC,120000,A,2300.00000,N,11300.00000,E,0.000,90.000,010821,0.000,E,A,V*53
$GPVTG,90.000,T,90.000,M,0.000,N,0.000,K*4E
$GPGSV,11,1,11,3,7,280,60,5,12,128,60,6,19,286,61,16,31,325,61,1*55
$GPGSV,11,2,11,18,29,140,61,21,74,35,62,22,15,172,60,24,28,39,61,1*53
$GPGSV,11,3,11,29,27,49,61,30,35,117,0,31,53,236,62,3,7,280,60,5*5A
$GPGSV,11,4,11,5,12,128,60,6,19,286,61,16,31,325,61,18,29,140,61,5*5C
$GPGSV,11,5,11,21,74,35,62,22,15,172,60,24,28,39,61,29,27,49,61,5*64
$GPGSV,11,6,11,30,35,117,0,31,53,236,62,3,7,280,60,5,12,128,60,6*53
$GPGSV,11,7,11,6,19,286,61,16,31,325,61,18,29,140,61,21,74,35,62,6*55
$GPGSV,11,8,11,22,15,172,60,24,28,39,61,29,27,49,61,30,35,117,0,6*6A
$GPGSV,11,9,11,31,53,236,62,3,7,280,60,5,12,128,60,6,19,286,61,7*5A
$GPGSV,11,10,11,16,31,325,61,18,29,140,61,21,74,35,62,22,15,172,60,7*51
$GPGSV,11,11,11,24,28,39,61,29,27,49,61,30,35,117,0,31,53,236,62,7*52
$GPGSA,A,3,03,05,06,16,18,21,22,24,29,30,31,,1.5,0.8,1.3,1*20
$GPZDA,120000.00,01,08,2021,-7,00*77
$GPGGA,120001,2300.00000,N,11300.00000,E,3,44,0.76,17.53,M,-7.53,M,,*5D
$GPRMC,120001,A,2300.00000,N,11300.00000,E,0.000,90.000,010821,0.000,E,A,V*52
$GPVTG,90.000,T,90.000,M,0.000,N,0.000,K*4E
$GPGSV,11,1,11,3,7,280,60,5,12,128,60,6,19,286,61,16,31,325,61,1*55
$GPGSV,11,2,11,18,29,140,61,21,74,35,62,22,15,172,60,24,28,39,61,1*53
$GPGSV,11,3,11,29,27,49,61,30,35,117,0,31,53,236,62,3,7,280,60,5*5A
$GPGSV,11,4,11,5,12,128,60,6,19,286,61,16,31,325,61,18,29,140,61,5*5C
$GPGSV,11,5,11,21,74,35,62,22,15,172,60,24,28,39,61,29,27,49,61,5*64
$GPGSV,11,6,11,30,35,117,0,31,53,236,62,3,7,280,60,5,12,128,60,6*53
$GPGSV,11,7,11,6,19,286,61,16,31,325,61,18,29,140,61,21,74,35,62,6*55
$GPGSV,11,8,11,22,15,172,60,24,28,39,61,29,27,49,61,30,35,117,0,6*6A
$GPGSV,11,9,11,31,53,236,62,3,7,280,60,5,12,128,60,6,19,286,61,7*5A
$GPGSV,11,10,11,16,31,325,61,18,29,140,61,21,74,35,62,22,15,172,60,7*51
$GPGSV,11,11,11,24,28,39,61,29,27,49,61,30,35,117,0,31,53,236,62,7*52
$GPGSA,A,3,03,05,06,16,18,21,22,24,29,30,31,,1.5,0.8,1.3,1*20
$GPZDA,120001.00,01,08,2021,-7,00*76
$GPGGA,120002,2300.00000,N,11300.00000,E,3,44,0.76,17.53,M,-7.53,M,,*5E
$GPRMC,120002,A,2300.00000,N,11300.00000,E,0.000,90.000,010821,0.000,E,A,V*51
$GPVTG,90.000,T,90.000,M,0.000,N,0.000,K*4E
$GPGSV,11,1,11,3,7,280,60,5,12,128,60,6,19,286,61,16,31,325,61,1*55
$GPGSV,11,2,11,18,29,140,61,21,74,35,62,22,15,172,60,24,28,39,61,1*53
$GPGSV,11,3,11,29,27,49,61,30,35,117,0,31,53,236,62,3,7,280,60,5*5A
$GPGSV,11,4,11,5,12,128,60,6,19,286,61,16,31,325,61,18,29,140,61,5*5C
$GPGSV,11,5,11,21,74,35,62,22,15,172,60,24,28,39,61,29,27,49,61,5*64
$GPGSV,11,6,11,30,35,117,0,31,53,236,62,3,7,280,60,5,12,128,60,6*53
$GPGSV,11,7,11,6,19,286,61,16,31,325,61,18,29,140,61,21,74,35,62,6*55
$GPGSV,11,8,11,22,15,172,60,24,28,39,61,29,27,49,61,30,35,117,0,6*6A
$GPGSV,11,9,11,31,53,236,62,3,7,280,60,5,12,128,60,6,19,286,61,7*5A
$GPGSV,11,10,11,16,31,325,61,18,29,140,61,21,74,35,62,22,15,172,60,7*51
$GPGSV,11,11,11,24,28,39,61,29,27,49,61,30,35,117,0,31,53,236,62,7*52
$GPGSA,A,3,03,05,06,16,18,21,22,24,29,30,31,,1.5,0.8,1.3,1*20
$GPZDA,120002.00,01,08,2021,-7,00*75
$GPGGA,120003,2300.00000,N,11300.00000,E,3,44,0.76,17.53,M,-7.53,M,,*5F
$GPRMC,120003,A,2300.00000,N,11300.00000,E,0.000,90.000,010821,0.000,E,A,V*50
$GPVTG,90.000,T,90.000,M,0.000,N,0.000,K*4E
$GPGSV,11,1,11,3,7,280,60,5,12,128,60,6,19,286,61,16,31,325,61,1*55
$GPGSV,11,2,11,18,29,140,61,21,74,35,62,22,15,172,60,24,28,39,61,1*53
$GPGSV,11,3,11,29,27,49,61,30,35,117,0,31,53,236,62,3,7,280,60,5*5A
$GPGSV,11,4,11,5,12,128,60,6,19,286,61,16,31,325,61,18,29,140,61,5*5C
$GPGSV,11,5,11,21,74,35,62,22,15,172,60,24,28,39,61,29,27,49,61,5*64
$GPGSV,11,6,11,30,35,117,0,31,53,236,62,3,7,280,60,5,12,128,60,6*53
$GPGSV,11,7,11,6,19,286,61,16,31,325,61,18,29,140,61,21,74,35,62,6*55
$GPGSV,11,8,11,22,15,172,60,24,28,39,61,29,27,49,61,30,35,117,0,6*6A
$GPGSV,11,9,11,31,53,236,62,3,7,280,60,5,12,128,60,6,19,286,61,7*5A
$GPGSV,11,10,11,16,31,325,61,18,29,140,61,21,74,35,62,22,15,172,60,7*51
$GPGSV,11,11,11,24,28,39,61,29,27,49,61,30,35,117,0,31,53,236,62,7*52
$GPGSA,A,3,03,05,06,16,18,21,22,24,29,30,31,,1.5,0.8,1.3,1*20
$GPZDA,120003.00,01,08,2021,-7,00*74
$GPGGA,120004,2300.00000,N,11300.00000,E,3,44,0.76,17.53,M,-7.53,M,,*58
$GPRMC,120004,A,2300.00000,N,11300.00000,E,0.000,90.000,010821,0.000,E,A,V*57
$GPVTG,90.000,T,90.000,M,0.000,N,0.000,K*4E
$GPGSV,11,1,11,3,7,280,60,5,12,128,60,6,19,286,61,16,31,325,61,1*55
$GPGSV,11,2,11,18,29,140,61,21,74,35,62,22,15,172,60,24,28,39,61,1*53
$GPGSV,11,3,11,29,27,49,61,30,35,117,0,31,53,236,62,3,7,280,60,5*5A
$GPGSV,11,4,11,5,12,128,60,6,19,286,61,16,31,325,61,18,29,140,61,5*5C
$GPGSV,11,5,11,21,74,35,62,22,15,172,60,24,28,39,61,29,27,49,61,5*64
$GPGSV,11,6,11,30,35,117,0,31,53,236,62,3,7,280,60,5,12,128,60,6*53
$GPGSV,11,7,11,6,19,286,61,16,31,325,61,18,29,140,61,21,74,35,62,6*55
$GPGSV,11,8,11,22,15,172,60,24,28,39,61,29,27,49,61,30,35,117,0,6*6A
$GPGSV,11,9,11,31,53,236,62,3,7,280,60,5,12,128,60,6,19,286,61,7*5A
$GPGSV,11,10,11,16,31,325,61,18,29,140,61,21,74,35,62,22,15,172,60,7*51
$GPGSV,11,11,11,24,28,39,61,29,27,49,61,30,35,117,0,31,53,236,62,7*52
$GPGSA,A,3,03,05,06,16,18,21,22,24,29,30,31,,1.5,0.8,1.3,1*20
$GPZDA,120004.00,01,08,2021,-7,00*73
$GPGGA,120005,2300.00000,N,11300.00000,E,3,44,0.76,17.53,M,-7.53,M,,*59
$GPRMC,120005,A,2300.00000,N,11300.00000,E,0.000,90.000,010821,0.000,E,A,V*56
$GPVTG,90.000,T,90.000,M,0.000,N,0.000,K*4E
$GPGSV,11,1,11,3,7,280,60,5,12,128,60,6,19,286,61,16,31,325,61,1*55
$GPGSV,11,2,11,18,29,140,61,21,74,35,62,22,15,172,60,24,28,39,61,1*53
$GPGSV,11,3,11,29,27,49,61,30,35,117,0,31,53,236,62,3,7,280,60,5*5A
$GPGSV,11,4,11,5,12,128,60,6,19,286,61,16,31,325,61,18,29,140,61,5*5C
$GPGSV,11,5,11,21,74,35,62,22,15,172,60,24,28,39,61,29,27,49,61,5*64
$GPGSV,11,6,11,30,35,117,0,31,53,236,62,3,7,280,60,5,12,128,60,6*53
$GPGSV,11,7,11,6,19,286,61,16,31,325,61,18,29,140,61,21,74,35,62,6*55
$GPGSV,11,8,11,22,15,172,60,24,28,39,61,29,27,49,61,30,35,117,0,6*6A
$GPGSV,11,9,11,31,53,236,62,3,7,280,60,5,12,128,60,6,19,286,61,7*5A
$GPGSV,11,10,11,16,31,325,61,18,29,140,61,21,74,35,62,22,15,172,60,7*51
$GPGSV,11,11,11,24,28,39,61,29,27,49,61,30,35,117,0,31,53,236,62,7*52
$GPGSA,A,3,03,05,06,16,18,21,22,24,29,30,31,,1.5,0.8,1.3,1*20
$GPZDA,120005.00,01,08,2021,-7,00*72
$GPGGA,120006,2300.00000,N,11300.00000,E,3,44,0.76,17.53,M,-7.53,M,,*5A
$GPRMC,120006,A,2300.00000,N,11300.00000,E,0.000,90.000,010821,0.000,E,A,V*55
$GPVTG,90.000,T,90.000,M,0.000,N,0.000,K*4E
$GPGSV,11,1,11,3,7,280,60,5,12,128,60,6,19,286,61,16,31,325,61,1*55
$GPGSV,11,2,11,18,29,140,61,21,74,35,62,22,15,172,60,24,28,39,61,1*53
$GPGSV,11,3,11,29,27,49,61,30,35,117,0,31,53,236,62,3,7,280,60,5*5A
$GPGSV,11,4,11,5,12,128,60,6,19,286,61,16,31,325,61,18,29,140,61,5*5C
$GPGSV,11,5,11,21,74,35,62,22,15,172,60,24,28,39,61,29,27,49,61,5*64
$GPGSV,11,6,11,30,35,117,0,31,53,236,62,3,7,280,60,5,12,128,60,6*53
$GPGSV,11,7,11,6,19,286,61,16,31,325,61,18,29,140,61,21,74,35,62,6*55
$GPGSV,11,8,11,22,15,172,60,24,28,39,61,29,27,49,61,30,35,117,0,6*6A
$GPGSV,11,9,11,31,53,236,62,3,7,280,60,5,12,128,60,6,19,286,61,7*5A
$GPGSV,11,10,11,16,31,325,61,18,29,140,61,21,74,35,62,22,15,172,60,7*51
$GPGSV,11,11,11,24,28,39,61,29,27,49,61,30,35,117,0,31,53,236,62,7*52
$GPGSA,A,3,03,05,06,16,18,21,22,24,29,30,31,,1.5,0.8,1.3,1*20
$GPZDA,120006.00,01,08,2021,-7,00*71
$GPGGA,120007,2300.00000,N,11300.00000,E,3,44,0.76,17.53,M,-7.53,M,,*5B
$GPRMC,120007,A,2300.00000,N,11300.00000,E,0.000,90.000,010821,0.000,E,A,V*54
$GPVTG,90.000,T,90.000,M,0.000,N,0.000,K*4E
$GPGSV,11,1,11,3,7,280,60,5,12,128,60,6,19,286,61,16,31,325,61,1*55
$GPGSV,11,2,11,18,29,140,61,21,74,35,62,22,15,172,60,24,28,39,61,1*53
$GPGSV,11,3,11,29,27,49,61,30,35,117,0,31,53,236,62,3,7,280,60,5*5A
$GPGSV,11,4,11,5,12,128,60,6,19,286,61,16,31,325,61,18,29,140,61,5*5C
$GPGSV,11,5,11,21,74,35,62,22,15,172,60,24,28,39,61,29,27,49,61,5*64
$GPGSV,11,6,11,30,35,117,0,31,53,236,62,3,7,280,60,5,12,128,60,6*53
$GPGSV,11,7,11,6,19,286,61,16,31,325,61,18,29,140,61,21,74,35,62,6*55
$GPGSV,11,8,11,22,15,172,60,24,28,39,61,29,27,49,61,30,35,117,0,6*6A
$GPGSV,11,9,11,31,53,236,62,3,7,280,60,5,12,128,60,6,19,286,61,7*5A
$GPGSV,11,10,11,16,31,325,61,18,29,140,61,21,74,35,62,22,15,172,60,7*51
$GPGSV,11,11,11,24,28,39,61,29,27,49,61,30,35,117,0,31,53,236,62,7*52
$GPGSA,A,3,03,05,06,16,18,21,22,24,29,30,31,,1.5,0.8,1.3,1*20
$GPZDA,120007.00,01,08,2021,-7,00*70
$GPGGA,120008,2300.00000,N,11300.00000,E,3,44,0.76,17.53,M,-7.53,M,,*54
$GPRMC,120008,A,2300.00000,N,11300.00000,E,0.000,90.000,010821,0.000,E,A,V*5B
$GPVTG,90.000,T,90.000,M,0.000,N,0.000,K*4E
$GPGSV,11,1,11,3,7,280,60,5,12,128,60,6,19,286,61,16,31,325,61,1*55
$GPGSV,11,2,11,18,29,140,61,21,74,35,62,22,15,172,60,24,28,39,61,1*53
$GPGSV,11,3,11,29,27,49,61,30,35,117,0,31,53,236,62,3,7,280,60,5*5A
$GPGSV,11,4,11,5,12,128,60,6,19,286,61,16,31,325,61,18,29,140,61,5*5C
$GPGSV,11,5,11,21,74,35,62,22,15,172,60,24,28,39,61,29,27,49,61,5*64
$GPGSV,11,6,11,30,35,117,0,31,53,236,62,3,7,280,60,5,12,128,60,6*53
$GPGSV,11,7,11,6,19,286,61,16,31,325,61,18,29,140,61,21,74,35,62,6*55
$GPGSV,11,8,11,22,15,172,60,24,28,39,61,29,27,49,61,30,35,117,0,6*6A
$GPGSV,11,9,11,31,53,236,62,3,7,280,60,5,12,128,60,6,19,286,61,7*5A
$GPGSV,11,10,11,16,31,325,61,18,29,140,61,21,74,35,62,22,15,172,60,7*51
$GPGSV,11,11,11,24,28,39,61,29,27,49,61,30,35,117,0,31,53,236,62,7*52
$GPGSA,A,3,03,05,06,16,18,21,22,24,29,30,31,,1.5,0.8,1.3,1*20
$GPZDA,120008.00,01,08,2021,-7,00*7F
$GPGGA,120009,2300.00000,N,11300.00000,E,3,44,0.76,17.53,M,-7.53,M,,*55
$GPRMC,120009,A,2300.00000,N,11300.00000,E,0.000,90.000,010821,0.000,E,A,V*5A
$GPVTG,90.000,T,90.000,M,0.000,N,0.000,K*4E
$GPGSV,11,1,11,3,7,280,60,5,12,128,60,6,19,286,61,16,31,325,61,1*55
$GPGSV,11,2,11,18,29,140,61,21,74,35,62,22,15,172,60,24,28,39,61,1*53
$GPGSV,11,3,11,29,27,49,61,30,35,117,0,31,53,236,61,3,7,280,60,5*59
$GPGSV,11,4,11,5,12,128,60,6,19,286,61,16,31,325,61,18,29,140,61,5*5C
$GPGSV,11,5,11,21,74,35,62,22,15,172,60,24,28,39,61,29,27,49,61,5*64
$GPGSV,11,6,11,30,35,117,0,31,53,236,61,3,7,280,60,5,12,128,60,6*50
$GPGSV,11,7,11,6,19,286,61,16,31,325,61,18,29,140,61,21,74,35,62,6*55
$GPGSV,11,8,11,22,15,172,60,24,28,39,61,29,27,49,61,30,35,117,0,6*6A
$GPGSV,11,9,11,31,53,236,61,3,7,280,60,5,12,128,60,6,19,286,61,7*59
$GPGSV,11,10,11,16,31,325,61,18,29,140,61,21,74,35,62,22,15,172,60,7*51
$GPGSV,11,11,11,24,28,39,61,29,27,49,61,30,35,117,0,31,53,236,61,7*51
$GPGSA,A,3,03,05,06,16,18,21,22,24,29,30,31,,1.5,0.8,1.3,1*20
$GPZDA,120009.00,01,08,2021,-7,00*7E
$GPGGA,120010,2300.00000,N,11300.00000,E,3,44,0.76,17.53,M,-7.53,M,,*5D
$GPRMC,120010,A,2300.00000,N,11300.00000,E,0.000,90.000,010821,0.000,E,A,V*52
$GPVTG,90.000,T,90.000,M,0.000,N,0.000,K*4E
$GPGSV,11,1,11,3,7,280,60,5,12,128,60,6,19,286,61,16,31,325,61,1*55
$GPGSV,11,2,11,18,29,140,61,21,74,35,62,22,15,172,60,24,28,39,61,1*53
$GPGSV,11,3,11,29,27,49,61,30,35,117,0,31,53,236,61,3,7,280,60,5*59
$GPGSV,11,4,11,5,12,128,60,6,19,286,61,16,31,325,61,18,29,140,61,5*5C
$GPGSV,11,5,11,21,74,35,62,22,15,172,60,24,28,39,61,29,27,49,61,5*64
$GPGSV,11,6,11,30,35,117,0,31,53,236,61,3,7,280,60,5,12,128,60,6*50
$GPGSV,11,7,11,6,19,286,61,16,31,325,61,18,29,140,61,21,74,35,62,6*55
$GPGSV,11,8,11,22,15,172,60,24,28,39,61,29,27,49,61,30,35,117,0,6*6A
$GPGSV,11,9,11,31,53,236,61,3,7,280,60,5,12,128,60,6,19,286,61,7*59
$GPGSV,11,10,11,16,31,325,61,18,29,140,61,21,74,35,62,22,15,172,60,7*51
$GPGSV,11,11,11,24,28,39,61,29,27,49,61,30,35,117,0,31,53,236,61,7*51
$GPGSA,A,3,03,05,06,16,18,21,22,24,29,30,31,,1.5,0.8,1.3,1*20
$GPZDA,120010.00,01,08,2021,-7,00*76
$GPGGA,120011,2300.00000,N,11300.00000,E,3,44,0.76,17.53,M,-7.53,M,,*5C
$GPRMC,120011,A,2300.00000,N,11300.00000,E,0.000,90.000,010821,0.000,E,A,V*53
$GPVTG,90.000,T,90.000,M,0.000,N,0.000,K*4E
$GPGSV,11,1,11,3,7,280,60,5,12,128,60,6,19,286,61,16,31,325,61,1*55
$GPGSV,11,2,11,18,29,140,61,21,74,35,62,22,15,172,60,24,28,39,61,1*53
$GPGSV,11,3,11,29,27,49,61,30,35,117,0,31,53,236,61,3,7,280,60,5*59
$GPGSV,11,4,11,5,12,128,60,6,19,286,61,16,31,325,61,18,29,140,61,5*5C
$GPGSV,11,5,11,21,74,35,62,22,15,172,60,24,28,39,61,29,27,49,61,5*64
$GPGSV,11,6,11,30,35,117,0,31,53,236,61,3,7,280,60,5,12,128,60,6*50
$GPGSV,11,7,11,6,19,286,61,16,31,325,61,18,29,140,61,21,74,35,62,6*55
$GPGSV,11,8,11,22,15,172,60,24,28,39,61,29,27,49,61,30,35,117,0,6*6A
$GPGSV,11,9,11,31,53,236,61,3,7,280,60,5,12,128,60,6,19,286,61,7*59
$GPGSV,11,10,11,16,31,325,61,18,29,140,61,21,74,35,62,22,15,172,60,7*51
$GPGSV,11,11,11,24,28,39,61,29,27,49,61,30,35,117,0,31,53,236,61,7*51
$GPGSA,A,3,03,05,06,16,18,21,22,24,29,30,31,,1.5,0.8,1.3,1*20
$GPZDA,120011.00,01,08,2021,-7,00*77
$GPGGA,120012,2300.00000,N,11300.00000,E,3,44,0.76,17.53,M,-7.53,M,,*5F
$GPRMC,120012,A,2300.00000,N,11300.00000,E,0.000,90.000,010821,0.000,E,A,V*50
$GPVTG,90.000,T,90.000,M,0.000,N,0.000,K*4E
$GPGSV,11,1,11,3,7,280,60,5,12,128,60,6,19,286,61,16,31,325,61,1*55
$GPGSV,11,2,11,18,29,140,61,21,74,35,62,22,15,172,60,24,28,39,61,1*53
$GPGSV,11,3,11,29,27,49,61,30,35,117,0,31,53,236,61,3,7,280,60,5*59
$GPGSV,11,4,11,5,12,128,60,6,19,286,61,16,31,325,61,18,29,140,61,5*5C
$GPGSV,11,5,11,21,74,35,62,22,15,172,60,24,28,39,61,29,27,49,61,5*64
$GPGSV,11,6,11,30,35,117,0,31,53,236,61,3,7,280,60,5,12,128,60,6*50
$GPGSV,11,7,11,6,19,286,61,16,31,325,61,18,29,140,61,21,74,35,62,6*55
$GPGSV,11,8,11,22,15,172,60,24,28,39,61,29,27,49,61,30,35,117,0,6*6A
$GPGSV,11,9,11,31,53,236,61,3,7,280,60,5,12,128,60,6,19,286,61,7*59
$GPGSV,11,10,11,16,31,325,61,18,29,140,61,21,74,35,62,22,15,172,60,7*51
$GPGSV,11,11,11,24,28,39,61,29,27,49,61,30,35,117,0,31,53,236,61,7*51
$GPGSA,A,3,03,05,06,16,18,21,22,24,29,30,31,,1.5,0.8,1.3,1*20
$GPZDA,120012.00,01,08,2021,-7,00*74
$GPGGA,120013,2300.00000,N,11300.00000,E,3,44,0.76,17.53,M,-7.53,M,,*5E
$GPRMC,120013,A,2300.00000,N,11300.00000,E,0.000,90.000,010821,0.000,E,A,V*51
$GPVTG,90.000,T,90.000,M,0.000,N,0.000,K*4E
$GPGSV,11,1,11,3,7,280,60,5,12,128,60,6,19,286,61,16,31,325,61,1*55
$GPGSV,11,2,11,18,29,140,61,21,74,35,62,22,15,172,60,24,28,39,61,1*53
$GPGSV,11,3,11,29,27,49,61,30,35,117,0,31,53,236,61,3,7,280,60,5*59
$GPGSV,11,4,11,5,12,128,60,6,19,286,61,16,31,325,61,18,29,140,61,5*5C
$GPGSV,11,5,11,21,74,35,62,22,15,172,60,24,28,39,61,29,27,49,61,5*64
$GPGSV,11,6,11,30,35,117,0,31,53,236,61,3,7,280,60,5,12,128,60,6*50
$GPGSV,11,7,11,6,19,286,61,16,31,325,61,18,29,140,61,21,74,35,62,6*55
$GPGSV,11,8,11,22,15,172,60,24,28,39,61,29,27,49,61,30,35,117,0,6*6A
$GPGSV,11,9,11,31,53,236,61,3,7,280,60,5,12,128,60,6,19,286,61,7*59
$GPGSV,11,10,11,16,31,325,61,18,29,140,61,21,74,35,62,22,15,172,60,7*51
$GPGSV,11,11,11,24,28,39,61,29,27,49,61,30,35,117,0,31,53,236,61,7*51
$GPGSA,A,3,03,05,06,16,18,21,22,24,29,30,31,,1.5,0.8,1.3,1*20
$GPZDA,120013.00,01,08,2021,-7,00*75
$GPGGA,120014,2300.00000,N,11300.00000,E,3,44,0.76,17.53,M,-7.53,M,,*59
$GPRMC,120014,A,2300.00000,N,11300.00000,E,0.000,90.000,010821,0.000,E,A,V*56
$GPVTG,90.000,T,90.000,M,0.000,N,0.000,K*4E
$GPGSV,11,1,11,3,7,280,60,5,12,128,60,6,19,286,61,16,31,325,61,1*55
$GPGSV,11,2,11,18,29,140,61,21,74,35,62,22,15,172,60,24,28,39,61,1*53
$GPGSV,11,3,11,29,27,49,61,30,35,117,0,31,53,236,61,3,7,280,60,5*59
$GPGSV,11,4,11,5,12,128,60,6,19,286,61,16,31,325,61,18,29,140,61,5*5C
$GPGSV,11,5,11,21,74,35,62,22,15,172,60,24,28,39,61,29,27,49,61,5*64
$GPGSV,11,6,11,30,35,117,0,31,53,236,61,3,7,280,60,5,12,128,60,6*50
$GPGSV,11,7,11,6,19,286,61,16,31,325,61,18,29,140,61,21,74,35,62,6*55
$GPGSV,11,8,11,22,15,172,60,24,28,39,61,29,27,49,61,30,35,117,0,6*6A
$GPGSV,11,9,11,31,53,236,61,3,7,280,60,5,12,128,60,6,19,286,61,7*59
$GPGSV,11,10,11,16,31,325,61,18,29,140,61,21,74,35,62,22,15,172,60,7*51
$GPGSV,11,11,11,24,28,39,61,29,27,49,61,30,35,117,0,31,53,236,61,7*51
$GPGSA,A,3,03,05,06,16,18,21,22,24,29,30,31,,1.5,0.8,1.3,1*20
$GPZDA,120014.00,01,08,2021,-7,00*72
$GPGGA,120015,2300.00000,N,11300.00000,E,3,44,0.76,17.53,M,-7.53,M,,*58
$GPRMC,120015,A,2300.00000,N,11300.00000,E,0.000,90.000,010821,0.000,E,A,V*57
$GPVTG,90.000,T,90.000,M,0.000,N,0.000,K*4E
$GPGSV,11,1,11,3,7,280,60,5,12,128,60,6,19,286,61,16,31,325,61,1*55
$GPGSV,11,2,11,18,29,140,61,21,74,35,62,22,15,172,60,24,28,39,61,1*53
$GPGSV,11,3,11,29,27,49,61,30,35,117,0,31,53,236,61,3,7,280,60,5*59
$GPGSV,11,4,11,5,12,128,60,6,19,286,61,16,31,325,61,18,29,140,61,5*5C
$GPGSV,11,5,11,21,74,35,62,22,15,172,60,24,28,39,61,29,27,49,61,5*64
$GPGSV,11,6,11,30,35,117,0,31,53,236,61,3,7,280,60,5,12,128,60,6*50
$GPGSV,11,7,11,6,19,286,61,16,31,325,61,18,29,140,61,21,74,35,62,6*55
$GPGSV,11,8,11,22,15,172,60,24,28,39,61,29,27,49,61,30,35,117,0,6*6A
$GPGSV,11,9,11,31,53,236,61,3,7,280,60,5,12,128,60,6,19,286,61,7*59
$GPGSV,11,10,11,16,31,325,61,18,29,140,61,21,74,35,62,22,15,172,60,7*51
$GPGSV,11,11,11,24,28,39,61,29,27,49,61,30,35,117,0,31,53,236,61,7*51
$GPGSA,A,3,03,05,06,16,18,21,22,24,29,30,31,,1.5,0.8,1.3,1*20
$GPZDA,120015.00,01,08,2021,-7,00*73
$GPGGA,120016,2300.00000,N,11300.00000,E,3,44,0.76,17.53,M,-7.53,M,,*5B
$GPRMC,120016,A,2300.00000,N,11300.00000,E,0.000,90.000,010821,0.000,E,A,V*54
$GPVTG,90.000,T,90.000,M,0.000,N,0.000,K*4E
$GPGSV,11,1,11,3,7,280,60,5,12,128,60,6,19,286,61,16,31,325,61,1*55
$GPGSV,11,2,11,18,29,140,61,21,74,35,62,22,15,172,60,24,28,39,61,1*53
$GPGSV,11,3,11,29,27,49,61,30,35,117,0,31,53,236,61,3,7,280,60,5*59
$GPGSV,11,4,11,5,12,128,60,6,19,286,61,16,31,325,61,18,29,140,61,5*5C
$GPGSV,11,5,11,21,74,35,62,22,15,172,60,24,28,39,61,29,27,49,61,5*64
$GPGSV,11,6,11,30,35,117,0,31,53,236,61,3,7,280,60,5,12,128,60,6*50
$GPGSV,11,7,11,6,19,286,61,16,31,325,61,18,29,140,61,21,74,35,62,6*55
$GPGSV,11,8,11,22,15,172,60,24,28,39,61,29,27,49,61,30,35,117,0,6*6A
$GPGSV,11,9,11,31,53,236,61,3,7,280,60,5,12,128,60,6,19,286,61,7*59
$GPGSV,11,10,11,16,31,325,61,18,29,140,61,21,74,35,62,22,15,172,60,7*51
$GPGSV,11,11,11,24,28,39,61,29,27,49,61,30,35,117,0,31,53,236,61,7*51
$GPGSA,A,3,03,05,06,16,18,21,22,24,29,30,31,,1.5,0.8,1.3,1*20
$GPZDA,120016.00,01,08,2021,-7,00*70
$GPGGA,120017,2300.00000,N,11300.00000,E,3,44,0.76,17.53,M,-7.53,M,,*5A
$GPRMC,120017,A,2300.00000,N,11300.00000,E,0.000,90.000,010821,0.000,E,A,V*55
$GPVTG,90.000,T,90.000,M,0.000,N,0.000,K*4E
$GPGSV,11,1,11,3,7,280,60,5,12,128,60,6,19,286,61,16,31,325,61,1*55
$GPGSV,11,2,11,18,29,140,61,21,74,35,62,22,15,172,60,24,28,39,61,1*53
$GPGSV,11,3,11,29,27,49,61,30,35,117,0,31,53,236,61,3,7,280,60,5*59
$GPGSV,11,4,11,5,12,128,60,6,19,286,61,16,31,325,61,18,29,140,61,5*5C
$GPGSV,11,5,11,21,74,35,62,22,15,172,60,24,28,39,61,29,27,49,61,5*64
$GPGSV,11,6,11,30,35,117,0,31,53,236,61,3,7,280,60,5,12,128,60,6*50
$GPGSV,11,7,11,6,19,286,61,16,31,325,61,18,29,140,61,21,74,35,62,6*55
$GPGSV,11,8,11,22,15,172,60,24,28,39,61,29,27,49,61,30,35,117,0,6*6A
$GPGSV,11,9,11,31,53,236,61,3,7,280,60,5,12,128,60,6,19,286,61,7*59
$GPGSV,11,10,11,16,31,325,61,18,29,140,61,21,74,35,62,22,15,172,60,7*51
$GPGSV,11,11,11,24,28,39,61,29,27,49,61,30,35,117,0,31,53,236,61,7*51
$GPGSA,A,3,03,05,06,16,18,21,22,24,29,30,31,,1.5,0.8,1.3,1*20
$GPZDA,120017.00,01,08,2021,-7,00*71
$GPGGA,120018,2300.00000,N,11300.00000,E,3,44,0.76,17.53,M,-7.53,M,,*55
$GPRMC,120018,A,2300.00000,N,11300.00000,E,0.000,90.000,010821,0.000,E,A,V*5A
$GPVTG,90.000,T,90.000,M,0.000,N,0.000,K*4E
$GPGSV,11,1,11,3,7,280,60,5,12,128,60,6,19,286,61,16,31,325,61,1*55
$GPGSV,11,2,11,18,29,140,61,21,74,34,62,22,15,172,60,24,28,39,61,1*52
$GPGSV,11,3,11,29,27,49,61,30,35,117,0,31,53,236,61,3,7,280,60,5*59
$GPGSV,11,4,11,5,12,128,60,6,19,286,61,16,31,325,61,18,29,140,61,5*5C
$GPGSV,11,5,11,21,74,34,62,22,15,172,60,24,28,39,61,29,27,49,61,5*65
$GPGSV,11,6,11,30,35,117,0,31,53,236,61,3,7,280,60,5,12,128,60,6*50
$GPGSV,11,7,11,6,19,286,61,16,31,325,61,18,29,140,61,21,74,34,62,6*54
$GPGSV,11,8,11,22,15,172,60,24,28,39,61,29,27,49,61,30,35,117,0,6*6A
$GPGSV,11,9,11,31,53,236,61,3,7,280,60,5,12,128,60,6,19,286,61,7*59
$GPGSV,11,10,11,16,31,325,61,18,29,140,61,21,74,34,62,22,15,172,60,7*50
$GPGSV,11,11,11,24,28,39,61,29,27,49,61,30,35,117,0,31,53,236,61,7*51
$GPGSA,A,3,03,05,06,16,18,21,22,24,29,30,31,,1.5,0.8,1.3,1*20
$GPZDA,120018.00,01,08,2021,-7,00*7E
$GPGGA,120019,2300.00000,N,11300.00000,E,3,44,0.76,17.53,M,-7.53,M,,*54
$GPRMC,120019,A,2300.00000,N,11300.00000,E,0.000,90.000,010821,0.000,E,A,V*5B
$GPVTG,90.000,T,90.000,M,0.000,N,0.000,K*4E
$GPGSV,11,1,11,3,7,280,60,5,12,128,60,6,19,286,61,16,31,325,61,1*55
$GPGSV,11,2,11,18,29,140,61,21,74,34,62,22,15,172,60,24,28,39,61,1*52
$GPGSV,11,3,11,29,27,49,61,30,35,117,0,31,53,236,61,3,7,280,60,5*59
$GPGSV,11,4,11,5,12,128,60,6,19,286,61,16,31,325,61,18,29,140,61,5*5C
$GPGSV,11,5,11,21,74,34,62,22,15,172,60,24,28,39,61,29,27,49,61,5*65
$GPGSV,11,6,11,30,35,117,0,31,53,236,61,3,7,280,60,5,12,128,60,6*50
$GPGSV,11,7,11,6,19,286,61,16,31,325,61,18,29,140,61,21,74,34,62,6*54
$GPGSV,11,8,11,22,15,172,60,24,28,39,61,29,27,49,61,30,35,117,0,6*6A
$GPGSV,11,9,11,31,53,236,61,3,7,280,60,5,12,128,60,6,19,286,61,7*59
$GPGSV,11,10,11,16,31,325,61,18,29,140,61,21,74,34,62,22,15,172,60,7*50
$GPGSV,11,11,11,24,28,39,61,29,27,49,61,30,35,117,0,31,53,236,61,7*51
$GPGSA,A,3,03,05,06,16,18,21,22,24,29,30,31,,1.5,0.8,1.3,1*20
$GPZDA,120019.00,01,08,2021,-7,00*7F
$GPGGA,120020,2300.00000,N,11300.00000,E,3,44,0.76,17.53,M,-7.53,M,,*5E
$GPRMC,120020,A,2300.00000,N,11300.00000,E,0.000,90.000,010821,0.000,E,A,V*51
$GPVTG,90.000,T,90.000,M,0.000,N,0.000,K*4E
$GPGSV,11,1,11,3,7,280,60,5,12,128,60,6,19,286,61,16,31,325,61,1*55
$GPGSV,11,2,11,18,29,140,61,21,74,34,62,22,15,172,60,24,28,39,61,1*52
$GPGSV,11,3,11,29,27,49,61,30,35,117,0,31,53,236,61,3,7,280,60,5*59
$GPGSV,11,4,11,5,12,128,60,6,19,286,61,16,31,325,61,18,29,140,61,5*5C
$GPGSV,11,5,11,21,74,34,62,22,15,172,60,24,28,39,61,29,27,49,61,5*65
$GPGSV,11,6,11,30,35,117,0,31,53,236,61,3,7,280,60,5,12,128,60,6*50
$GPGSV,11,7,11,6,19,286,61,16,31,325,61,18,29,140,61,21,74,34,62,6*54
$GPGSV,11,8,11,22,15,172,60,24,28,39,61,29,27,49,61,30,35,117,0,6*6A
$GPGSV,11,9,11,31,53,236,61,3,7,280,60,5,12,128,60,6,19,286,61,7*59
$GPGSV,11,10,11,16,31,325,61,18,29,140,61,21,74,34,62,22,15,172,60,7*50
$GPGSV,11,11,11,24,28,39,61,29,27,49,61,30,35,117,0,31,53,236,61,7*51
$GPGSA,A,3,03,05,06,16,18,21,22,24,29,30,31,,1.5,0.8,1.3,1*20
$GPZDA,120020.00,01,08,2021,-7,00*75
$GPGGA,120021,2300.00000,N,11300.00000,E,3,44,0.76,17.53,M,-7.53,M,,*5F
$GPRMC,120021,A,2300.00000,N,11300.00000,E,0.000,90.000,010821,0.000,E,A,V*50
$GPVTG,90.000,T,90.000,M,0.000,N,0.000,K*4E
$GPGSV,11,1,11,3,7,280,60,5,12,128,60,6,19,286,61,16,31,325,61,1*55
$GPGSV,11,2,11,18,29,140,61,21,74,34,62,22,15,172,60,24,28,39,61,1*52
$GPGSV,11,3,11,29,27,49,61,30,35,117,0,31,53,236,61,3,7,280,60,5*59
$GPGSV,11,4,11,5,12,128,60,6,19,286,61,16,31,325,61,18,29,140,61,5*5C
$GPGSV,11,5,11,21,74,34,62,22,15,172,60,24,28,39,61,29,27,49,61,5*65
$GPGSV,11,6,11,30,35,117,0,31,53,236,61,3,7,280,60,5,12,128,60,6*50
$GPGSV,11,7,11,6,19,286,61,16,31,325,61,18,29,140,61,21,74,34,62,6*54
$GPGSV,11,8,11,22,15,172,60,24,28,39,61,29,27,49,61,30,35,117,0,6*6A
$GPGSV,11,9,11,31,53,236,61,3,7,280,60,5,12,128,60,6,19,286,61,7*59
$GPGSV,11,10,11,16,31,325,61,18,29,140,61,21,74,34,62,22,15,172,60,7*50
$GPGSV,11,11,11,24,28,39,61,29,27,49,61,30,35,117,0,31,53,236,61,7*51
$GPGSA,A,3,03,05,06,16,18,21,22,24,29,30,31,,1.5,0.8,1.3,1*20
$GPZDA,120021.00,01,08,2021,-7,00*74
$GPGGA,120022,2300.00000,N,11300.00000,E,3,44,0.76,17.53,M,-7.53,M,,*5C
$GPRMC,120022,A,2300.00000,N,11300.00000,E,0.000,90.000,010821,0.000,E,A,V*53
$GPVTG,90.000,T,90.000,M,0.000,N,0.000,K*4E
$GPGSV,11,1,11,3,7,280,60,5,12,128,60,6,19,286,61,16,31,325,61,1*55
$GPGSV,11,2,11,18,29,140,61,21,74,34,62,22,15,172,60,24,28,39,61,1*52
$GPGSV,11,3,11,29,27,49,61,30,35,117,0,31,53,236,61,3,7,280,60,5*59
$GPGSV,11,4,11,5,12,128,60,6,19,286,61,16,31,325,61,18,29,140,61,5*5C
$GPGSV,11,5,11,21,74,34,62,22,15,172,60,24,28,39,61,29,27,49,61,5*65
$GPGSV,11,6,11,30,35,117,0,31,53,236,61,3,7,280,60,5,12,128,60,6*50
$GPGSV,11,7,11,6,19,286,61,16,31,325,61,18,29,140,61,21,74,34,62,6*54
$GPGSV,11,8,11,22,15,172,60,24,28,39,61,29,27,49,61,30,35,117,0,6*6A
$GPGSV,11,9,11,31,53,236,61,3,7,280,60,5,12,128,60,6,19,286,61,7*59
$GPGSV,11,10,11,16,31,325,61,18,29,140,61,21,74,34,62,22,15,172,60,7*50
$GPGSV,11,11,11,24,28,39,61,29,27,49,61,30,35,117,0,31,53,236,61,7*51
$GPGSA,A,3,03,05,06,16,18,21,22,24,29,30,31,,1.5,0.8,1.3,1*20
$GPZDA,120022.00,01,08,2021,-7,00*77
$GPGGA,120023,2300.00000,N,11300.00000,E,3,44,0.76,17.53,M,-7.53,M,,*5D
$GPRMC,120023,A,2300.00000,N,11300.00000,E,0.000,90.000,010821,0.000,E,A,V*52
$GPVTG,90.000,T,90.000,M,0.000,N,0.000,K*4E
$GPGSV,11,1,11,3,7,280,60,5,12,128,60,6,19,286,61,16,31,325,61,1*55
$GPGSV,11,2,11,18,29,140,61,21,74,34,62,22,15,172,60,24,28,39,61,1*52
$GPGSV,11,3,11,29,27,49,61,30,35,117,0,31,53,236,61,3,7,280,60,5*59
$GPGSV,11,4,11,5,12,128,60,6,19,286,61,16,31,325,61,18,29,140,61,5*5C
$GPGSV,11,5,11,21,74,34,62,22,15,172,60,24,28,39,61,29,27,49,61,5*65
$GPGSV,11,6,11,30,35,117,0,31,53,236,61,3,7,280,60,5,12,128,60,6*50
$GPGSV,11,7,11,6,19,286,61,16,31,325,61,18,29,140,61,21,74,34,62,6*54
$GPGSV,11,8,11,22,15,172,60,24,28,39,61,29,27,49,61,30,35,117,0,6*6A
$GPGSV,11,9,11,31,53,236,61,3,7,280,60,5,12,128,60,6,19,286,61,7*59
$GPGSV,11,10,11,16,31,325,61,18,29,140,61,21,74,34,62,22,15,172,60,7*50
$GPGSV,11,11,11,24,28,39,61,29,27,49,61,30,35,117,0,31,53,236,61,7*51
$GPGSA,A,3,03,05,06,16,18,21,22,24,29,30,31,,1.5,0.8,1.3,1*20
$GPZDA,120023.00,01,08,2021,-7,00*76
$GPGGA,120024,2300.00000,N,11300.00000,E,3,44,0.76,17.53,M,-7.53,M,,*5A
$GPRMC,120024,A,2300.00000,N,11300.00000,E,0.000,90.000,010821,0.000,E,A,V*55
$GPVTG,90.000,T,90.000,M,0.000,N,0.000,K*4E
$GPGSV,11,1,11,3,7,280,60,5,12,128,60,6,19,286,61,16,31,325,61,1*55
$GPGSV,11,2,11,18,29,140,61,21,74,34,62,22,15,172,60,24,28,39,61,1*52
$GPGSV,11,3,11,29,27,49,61,30,35,117,0,31,53,235,61,3,7,280,60,5*5A
$GPGSV,11,4,11,5,12,128,60,6,19,286,61,16,31,325,61,18,29,140,61,5*5C
$GPGSV,11,5,11,21,74,34,62,22,15,172,60,24,28,39,61,29,27,49,61,5*65
$GPGSV,11,6,11,30,35,117,0,31,53,235,61,3,7,280,60,5,12,128,60,6*53
$GPGSV,11,7,11,6,19,286,61,16,31,325,61,18,29,140,61,21,74,34,62,6*54
$GPGSV,11,8,11,22,15,172,60,24,28,39,61,29,27,49,61,30,35,117,0,6*6A
$GPGSV,11,9,11,31,53,235,61,3,7,280,60,5,12,128,60,6,19,286,61,7*5A
$GPGSV,11,10,11,16,31,325,61,18,29,140,61,21,74,34,62,22,15,172,60,7*50
$GPGSV,11,11,11,24,28,39,61,29,27,49,61,30,35,117,0,31,53,235,61,7*52
$GPGSA,A,3,03,05,06,16,18,21,22,24,29,30,31,,1.5,0.8,1.3,1*20
$GPZDA,120024.00,01,08,2021,-7,00*71
$GPGGA,120025,2300.00000,N,11300.00000,E,3,44,0.76,17.53,M,-7.53,M,,*5B
$GPRMC,120025,A,2300.00000,N,11300.00000,E,0.000,90.000,010821,0.000,E,A,V*54
$GPVTG,90.000,T,90.000,M,0.000,N,0.000,K*4E
$GPGSV,11,1,11,3,7,280,60,5,12,128,60,6,19,286,61,16,31,325,61,1*55
$GPGSV,11,2,11,18,29,140,61,21,74,34,62,22,15,172,60,24,28,39,61,1*52
$GPGSV,11,3,11,29,27,49,61,30,35,117,0,31,53,235,61,3,7,280,60,5*5A
$GPGSV,11,4,11,5,12,128,60,6,19,286,61,16,31,325,61,18,29,140,61,5*5C
$GPGSV,11,5,11,21,74,34,62,22,15,172,60,24,28,39,61,29,27,49,61,5*65
$GPGSV,11,6,11,30,35,117,0,31,53,235,61,3,7,280,60,5,12,128,60,6*53
$GPGSV,11,7,11,6,19,286,61,16,31,325,61,18,29,140,61,21,74,34,62,6*54
$GPGSV,11,8,11,22,15,172,60,24,28,39,61,29,27,49,61,30,35,117,0,6*6A
$GPGSV,11,9,11,31,53,235,61,3,7,280,60,5,12,128,60,6,19,286,61,7*5A
$GPGSV,11,10,11,16,31,325,61,18,29,140,61,21,74,34,62,22,15,172,60,7*50
$GPGSV,11,11,11,24,28,39,61,29,27,49,61,30,35,117,0,31,53,235,61,7*52
$GPGSA,A,3,03,05,06,16,18,21,22,24,29,30,31,,1.5,0.8,1.3,1*20
$GPZDA,120025.00,01,08,2021,-7,00*70
$GPGGA,120026,2300.00000,N,11300.00000,E,3,44,0.76,17.53,M,-7.53,M,,*58
$GPRMC,120026,A,2300.00000,N,11300.00000,E,0.000,90.000,010821,0.000,E,A,V*57
$GPVTG,90.000,T,90.000,M,0.000,N,0.000,K*4E
$GPGSV,11,1,11,3,7,280,60,5,12,128,60,6,19,286,61,16,31,325,61,1*55
$GPGSV,11,2,11,18,29,140,61,21,74,34,62,22,15,172,60,24,28,39,61,1*52
$GPGSV,11,3,11,29,27,49,61,30,35,117,0,31,53,235,61,3,7,280,60,5*5A
$GPGSV,11,4,11,5,12,128,60,6,19,286,61,16,31,325,61,18,29,140,61,5*5C
$GPGSV,11,5,11,21,74,34,62,22,15,172,60,24,28,39,61,29,27,49,61,5*65
$GPGSV,11,6,11,30,35,117,0,31,53,235,61,3,7,280,60,5,12,128,60,6*53
$GPGSV,11,7,11,6,19,286,61,16,31,325,61,18,29,140,61,21,74,34,62,6*54
$GPGSV,11,8,11,22,15,172,60,24,28,39,61,29,27,49,61,30,35,117,0,6*6A
$GPGSV,11,9,11,31,53,235,61,3,7,280,60,5,12,128,60,6,19,286,61,7*5A
$GPGSV,11,10,11,16,31,325,61,18,29,140,61,21,74,34,62,22,15,172,60,7*50
$GPGSV,11,11,11,24,28,39,61,29,27,49,61,30,35,117,0,31,53,235,61,7*52
$GPGSA,A,3,03,05,06,16,18,21,22,24,29,30,31,,1.5,0.8,1.3,1*20
$GPZDA,120026.00,01,08,2021,-7,00*73
$GPGGA,120027,2300.00000,N,11300.00000,E,3,44,0.76,17.53,M,-7.53,M,,*59
$GPRMC,120027,A,2300.00000,N,11300.00000,E,0.000,90.000,010821,0.000,E,A,V*56
$GPVTG,90.000,T,90.000,M,0.000,N,0.000,K*4E
$GPGSV,11,1,11,3,7,280,60,5,12,128,60,6,19,286,61,16,31,325,61,1*55
$GPGSV,11,2,11,18,29,140,61,21,74,34,62,22,15,172,60,24,28,39,61,1*52
$GPGSV,11,3,11,29,27,49,61,30,35,117,0,31,53,235,61,3,7,280,60,5*5A
$GPGSV,11,4,11,5,12,128,60,6,19,286,61,16,31,325,61,18,29,140,61,5*5C
$GPGSV,11,5,11,21,74,34,62,22,15,172,60,24,28,39,61,29,27,49,61,5*65
$GPGSV,11,6,11,30,35,117,0,31,53,235,61,3,7,280,60,5,12,128,60,6*53
$GPGSV,11,7,11,6,19,286,61,16,31,325,61,18,29,140,61,21,74,34,62,6*54
$GPGSV,11,8,11,22,15,172,60,24,28,39,61,29,27,49,61,30,35,117,0,6*6A
$GPGSV,11,9,11,31,53,235,61,3,7,280,60,5,12,128,60,6,19,286,61,7*5A
$GPGSV,11,10,11,16,31,325,61,18,29,140,61,21,74,34,62,22,15,172,60,7*50
$GPGSV,11,11,11,24,28,39,61,29,27,49,61,30,35,117,0,31,53,235,61,7*52
$GPGSA,A,3,03,05,06,16,18,21,22,24,29,30,31,,1.5,0.8,1.3,1*20
$GPZDA,120027.00,01,08,2021,-7,00*72
$GPGGA,120028,2300.00000,N,11300.00000,E,3,44,0.76,17.53,M,-7.53,M,,*56
$GPRMC,120028,A,2300.00000,N,11300.00000,E,0.000,90.000,010821,0.000,E,A,V*59
$GPVTG,90.000,T,90.000,M,0.000,N,0.000,K*4E
$GPGSV,11,1,11,3,7,280,60,5,12,128,60,6,19,286,61,16,31,325,61,1*55
$GPGSV,11,2,11,18,29,140,61,21,74,34,62,22,15,172,60,24,28,39,61,1*52
$GPGSV,11,3,11,29,27,49,61,30,35,117,0,31,53,235,61,3,7,280,60,5*5A
$GPGSV,11,4,11,5,12,128,60,6,19,286,61,16,31,325,61,18,29,140,61,5*5C
$GPGSV,11,5,11,21,74,34,62,22,15,172,60,24,28,39,61,29,27,49,61,5*65
$GPGSV,11,6,11,30,35,117,0,31,53,235,61,3,7,280,60,5,12,128,60,6*53
$GPGSV,11,7,11,6,19,286,61,16,31,325,61,18,29,140,61,21,74,34,62,6*54
$GPGSV,11,8,11,22,15,172,60,24,28,39,61,29,27,49,61,30,35,117,0,6*6A
$GPGSV,11,9,11,31,53,235,61,3,7,280,60,5,12,128,60,6,19,286,61,7*5A
$GPGSV,11,10,11,16,31,325,61,18,29,140,61,21,74,34,62,22,15,172,60,7*50
$GPGSV,11,11,11,24,28,39,61,29,27,49,61,30,35,117,0,31,53,235,61,7*52
$GPGSA,A,3,03,05,06,16,18,21,22,24,29,30,31,,1.5,0.8,1.3,1*20
$GPZDA,120028.00,01,08,2021,-7,00*7D
$GPGGA,120029,2300.00000,N,11300.00000,E,3,44,0.76,17.53,M,-7.53,M,,*57
$GPRMC,120029,A,2300.00000,N,11300.00000,E,0.000,90.000,010821,0.000,E,A,V*58
$GPVTG,90.000,T,90.000,M,0.000,N,0.000,K*4E
$GPGSV,11,1,11,3,7,280,60,5,12,128,60,6,19,286,61,16,31,325,61,1*55
$GPGSV,11,2,11,18,29,140,61,21,74,34,62,22,15,172,60,24,28,39,61,1*52
$GPGSV,11,3,11,29,27,49,61,30,35,117,0,31,53,235,61,3,7,280,60,5*5A
$GPGSV,11,4,11,5,12,128,60,6,19,286,61,16,31,325,61,18,29,140,61,5*5C
$GPGSV,11,5,11,21,74,34,62,22,15,172,60,24,28,39,61,29,27,49,61,5*65
$GPGSV,11,6,11,30,35,117,0,31,53,235,61,3,7,280,60,5,12,128,60,6*53
$GPGSV,11,7,11,6,19,286,61,16,31,325,61,18,29,140,61,21,74,34,62,6*54
$GPGSV,11,8,11,22,15,172,60,24,28,39,61,29,27,49,61,30,35,117,0,6*6A
$GPGSV,11,9,11,31,53,235,61,3,7,280,60,5,12,128,60,6,19,286,61,7*5A
$GPGSV,11,10,11,16,31,325,61,18,29,140,61,21,74,34,62,22,15,172,60,7*50
$GPGSV,11,11,11,24,28,39,61,29,27,49,61,30,35,117,0,31,53,235,61,7*52
$GPGSA,A,3,03,05,06,16,18,21,22,24,29,30,31,,1.5,0.8,1.3,1*20
$GPZDA,120029.00,01,08,2021,-7,00*7C
$GPGGA,120030,2300.00000,N,11300.00000,E,3,44,0.76,17.53,M,-7.53,M,,*5F
$GPRMC,120030,A,2300.00000,N,11300.00000,E,0.000,90.000,010821,0.000,E,A,V*50
$GPVTG,90.000,T,90.000,M,0.000,N,0.000,K*4E
$GPGSV,11,1,11,3,7,280,60,5,12,128,60,6,19,286,61,16,31,325,61,1*55
$GPGSV,11,2,11,18,29,139,61,21,74,34,62,22,15,172,60,24,28,39,61,1*5C
$GPGSV,11,3,11,29,27,49,61,30,35,117,0,31,53,235,61,3,7,280,60,5*5A
$GPGSV,11,4,11,5,12,128,60,6,19,286,61,16,31,325,61,18,29,139,61,5*52
$GPGSV,11,5,11,21,74,34,62,22,15,172,60,24,28,39,61,29,27,49,61,5*65
$GPGSV,11,6,11,30,35,117,0,31,53,235,61,3,7,280,60,5,12,128,60,6*53
$GPGSV,11,7,11,6,19,286,61,16,31,325,61,18,29,139,61,21,74,34,62,6*5A
$GPGSV,11,8,11,22,15,172,60,24,28,39,61,29,27,49,61,30,35,117,0,6*6A
$GPGSV,11,9,11,31,53,235,61,3,7,280,60,5,12,128,60,6,19,286,61,7*5A
$GPGSV,11,10,11,16,31,325,61,18,29,139,61,21,74,34,62,22,15,172,60,7*5E
$GPGSV,11,11,11,24,28,39,61,29,27,49,61,30,35,117,0,31,53,235,61,7*52
$GPGSA,A,3,03,05,06,16,18,21,22,24,29,30,31,,1.5,0.8,1.3,1*20
$GPZDA,120030.00,01,08,2021,-7,00*74
$GPGGA,120031,2300.00000,N,11300.00000,E,3,44,0.76,17.53,M,-7.53,M,,*5E
$GPRMC,120031,A,2300.00000,N,11300.00000,E,0.000,90.000,010821,0.000,E,A,V*51
$GPVTG,90.000,T,90.000,M,0.000,N,0.000,K*4E
$GPGSV,11,1,11,3,7,280,60,5,12,128,60,6,19,286,61,16,31,325,61,1*55
$GPGSV,11,2,11,18,29,139,61,21,74,34,62,22,15,172,60,24,28,39,61,1*5C
$GPGSV,11,3,11,29,27,49,61,30,35,117,0,31,53,235,61,3,7,280,60,5*5A
$GPGSV,11,4,11,5,12,128,60,6,19,286,61,16,31,325,61,18,29,139,61,5*52
$GPGSV,11,5,11,21,74,34,62,22,15,172,60,24,28,39,61,29,27,49,61,5*65
$GPGSV,11,6,11,30,35,117,0,31,53,235,61,3,7,280,60,5,12,128,60,6*53
$GPGSV,11,7,11,6,19,286,61,16,31,325,61,18,29,139,61,21,74,34,62,6*5A
$GPGSV,11,8,11,22,15,172,60,24,28,39,61,29,27,49,61,30,35,117,0,6*6A
$GPGSV,11,9,11,31,53,235,61,3,7,280,60,5,12,128,60,6,19,286,61,7*5A
$GPGSV,11,10,11,16,31,325,61,18,29,139,61,21,74,34,62,22,15,172,60,7*5E
$GPGSV,11,11,11,24,28,39,61,29,27,49,61,30,35,117,0,31,53,235,61,7*52
$GPGSA,A,3,03,05,06,16,18,21,22,24,29,30,31,,1.5,0.8,1.3,1*20
$GPZDA,120031.00,01,08,2021,-7,00*75
$GPGGA,120032,2300.00000,N,11300.00000,E,3,44,0.76,17.53,M,-7.53,M,,*5D
$GPRMC,120032,A,2300.00000,N,11300.00000,E,0.000,90.000,010821,0.000,E,A,V*52
$GPVTG,90.000,T,90.000,M,0.000,N,0.000,K*4E
$GPGSV,11,1,11,3,7,280,60,5,12,128,60,6,19,286,61,16,31,325,61,1*55
$GPGSV,11,2,11,18,29,139,61,21,74,34,62,22,15,172,60,24,28,39,61,1*5C
$GPGSV,11,3,11,29,27,49,61,30,35,117,0,31,53,235,61,3,7,280,60,5*5A
$GPGSV,11,4,11,5,12,128,60,6,19,286,61,16,31,325,61,18,29,139,61,5*52
$GPGSV,11,5,11,21,74,34,62,22,15,172,60,24,28,39,61,29,27,49,61,5*65
$GPGSV,11,6,11,30,35,117,0,31,53,235,61,3,7,280,60,5,12,128,60,6*53
$GPGSV,11,7,11,6,19,286,61,16,31,325,61,18,29,139,61,21,74,34,62,6*5A
$GPGSV,11,8,11,22,15,172,60,24,28,39,61,29,27,49,61,30,35,117,0,6*6A
$GPGSV,11,9,11,31,53,235,61,3,7,280,60,5,12,128,60,6,19,286,61,7*5A
$GPGSV,11,10,11,16,31,325,61,18,29,139,61,21,74,34,62,22,15,172,60,7*5E
$GPGSV,11,11,11,24,28,39,61,29,27,49,61,30,35,117,0,31,53,235,61,7*52
$GPGSA,A,3,03,05,06,16,18,21,22,24,29,30,31,,1.5,0.8,1.3,1*20
$GPZDA,120032.00,01,08,2021,-7,00*76
$GPGGA,120033,2300.00000,N,11300.00000,E,3,44,0.76,17.53,M,-7.53,M,,*5C
$GPRMC,120033,A,2300.00000,N,11300.00000,E,0.000,90.000,010821,0.000,E,A,V*53
$GPVTG,90.000,T,90.000,M,0.000,N,0.000,K*4E
$GPGSV,11,1,11,3,7,280,60,5,12,128,60,6,19,286,61,16,31,325,61,1*55
$GPGSV,11,2,11,18,29,139,61,21,74,34,62,22,15,172,60,24,28,39,61,1*5C
$GPGSV,11,3,11,29,27,49,61,30,35,117,0,31,53,235,61,3,7,280,60,5*5A
$GPGSV,11,4,11,5,12,128,60,6,19,286,61,16,31,325,61,18,29,139,61,5*52
$GPGSV,11,5,11,21,74,34,62,22,15,172,60,24,28,39,61,29,27,49,61,5*65
$GPGSV,11,6,11,30,35,117,0,31,53,235,61,3,7,280,60,5,12,128,60,6*53
$GPGSV,11,7,11,6,19,286,61,16,31,325,61,18,29,139,61,21,74,34,62,6*5A
$GPGSV,11,8,11,22,15,172,60,24,28,39,61,29,27,49,61,30,35,117,0,6*6A
$GPGSV,11,9,11,31,53,235,61,3,7,280,60,5,12,128,60,6,19,286,61,7*5A
$GPGSV,11,10,11,16,31,325,61,18,29,139,61,21,74,34,62,22,15,172,60,7*5E
$GPGSV,11,11,11,24,28,39,61,29,27,49,61,30,35,117,0,31,53,235,61,7*52
$GPGSA,A,3,03,05,06,16,18,21,22,24,29,30,31,,1.5,0.8,1.3,1*20
$GPZDA,120033.00,01,08,2021,-7,00*77
$GPGGA,120034,2300.00000,N,11300.00000,E,3,44,0.76,17.53,M,-7.53,M,,*5B
$GPRMC,120034,A,2300.00000,N,11300.00000,E,0.000,90.000,010821,0.000,E,A,V*54
$GPVTG,90.000,T,90.000,M,0.000,N,0.000,K*4E
$GPGSV,11,1,11,3,7,280,60,5,12,128,60,6,19,286,61,16,31,325,61,1*55
$GPGSV,11,2,11,18,29,139,61,21,74,34,62,22,15,172,60,24,28,39,61,1*5C
$GPGSV,11,3,11,29,27,49,61,30,35,117,0,31,53,235,61,3,7,280,60,5*5A
$GPGSV,11,4,11,5,12,128,60,6,19,286,61,16,31,325,61,18,29,139,61,5*52
$GPGSV,11,5,11,21,74,34,62,22,15,172,60,24,28,39,61,29,27,49,61,5*65
$GPGSV,11,6,11,30,35,117,0,31,53,235,61,3,7,280,60,5,12,128,60,6*53
$GPGSV,11,7,11,6,19,286,61,16,31,325,61,18,29,139,61,21,74,34,62,6*5A
$GPGSV,11,8,11,22,15,172,60,24,28,39,61,29,27,49,61,30,35,117,0,6*6A
$GPGSV,11,9,11,31,53,235,61,3,7,280,60,5,12,128,60,6,19,286,61,7*5A
$GPGSV,11,10,11,16,31,325,61,18,29,139,61,21,74,34,62,22,15,172,60,7*5E
$GPGSV,11,11,11,24,28,39,61,29,27,49,61,30,35,117,0,31,53,235,61,7*52
$GPGSA,A,3,03,05,06,16,18,21,22,24,29,30,31,,1.5,0.8,1.3,1*20
$GPZDA,120034.00,01,08,2021,-7,00*70
$GPGGA,120035,2300.00000,N,11300.00000,E,3,44,0.76,17.53,M,-7.53,M,,*5A
$GPRMC,120035,A,2300.00000,N,11300.00000,E,0.000,90.000,010821,0.000,E,A,V*55
$GPVTG,90.000,T,90.000,M,0.000,N,0.000,K*4E
$GPGSV,11,1,11,3,7,280,60,5,12,128,60,6,19,286,61,16,31,325,61,1*55
$GPGSV,11,2,11,18,29,139,61,21,74,34,62,22,15,172,60,24,28,39,61,1*5C
$GPGSV,11,3,11,29,27,49,61,30,35,117,0,31,53,235,61,3,7,280,60,5*5A
$GPGSV,11,4,11,5,12,128,60,6,19,286,61,16,31,325,61,18,29,139,61,5*52
$GPGSV,11,5,11,21,74,34,62,22,15,172,60,24,28,39,61,29,27,49,61,5*65
$GPGSV,11,6,11,30,35,117,0,31,53,235,61,3,7,280,60,5,12,128,60,6*53
$GPGSV,11,7,11,6,19,286,61,16,31,325,61,18,29,139,61,21,74,34,62,6*5A
$GPGSV,11,8,11,22,15,172,60,24,28,39,61,29,27,49,61,30,35,117,0,6*6A
$GPGSV,11,9,11,31,53,235,61,3,7,280,60,5,12,128,60,6,19,286,61,7*5A
$GPGSV,11,10,11,16,31,325,61,18,29,139,61,21,74,34,62,22,15,172,60,7*5E
$GPGSV,11,11,11,24,28,39,61,29,27,49,61,30,35,117,0,31,53,235,61,7*52
$GPGSA,A,3,03,05,06,16,18,21,22,24,29,30,31,,1.5,0.8,1.3,1*20
$GPZDA,120035.00,01,08,2021,-7,00*71
$GPGGA,120036,2300.00000,N,11300.00000,E,3,44,0.76,17.53,M,-7.53,M,,*59
$GPRMC,120036,A,2300.00000,N,11300.00000,E,0.000,90.000,010821,0.000,E,A,V*56
$GPVTG,90.000,T,90.000,M,0.000,N,0.000,K*4E
$GPGSV,11,1,11,3,7,280,60,5,12,128,60,6,19,286,61,16,31,325,61,1*55
$GPGSV,11,2,11,18,29,139,61,21,74,34,62,22,15,172,60,24,28,39,61,1*5C
$GPGSV,11,3,11,29,27,49,61,30,34,117,0,31,53,235,61,3,7,280,60,5*5B
$GPGSV,11,4,11,5,12,128,60,6,19,286,61,16,31,325,61,18,29,139,61,5*52
$GPGSV,11,5,11,21,74,34,62,22,15,172,60,24,28,39,61,29,27,49,61,5*65
$GPGSV,11,6,11,30,34,117,0,31,53,235,61,3,7,280,60,5,12,128,60,6*52
$GPGSV,11,7,11,6,19,286,61,16,31,325,61,18,29,139,61,21,74,34,62,6*5A
$GPGSV,11,8,11,22,15,172,60,24,28,39,61,29,27,49,61,30,34,117,0,6*6B
$GPGSV,11,9,11,31,53,235,61,3,7,280,60,5,12,128,60,6,19,286,61,7*5A
$GPGSV,11,10,11,16,31,325,61,18,29,139,61,21,74,34,62,22,15,172,60,7*5E
$GPGSV,11,11,11,24,28,39,61,29,27,49,61,30,34,117,0,31,53,235,61,7*53
$GPGSA,A,3,03,05,06,16,18,21,22,24,29,30,31,,1.5,0.8,1.3,1*20
$GPZDA,120036.00,01,08,2021,-7,00*72
$GPGGA,120037,2300.00000,N,11300.00000,E,3,44,0.76,17.53,M,-7.53,M,,*58
$GPRMC,120037,A,2300.00000,N,11300.00000,E,0.000,90.000,010821,0.000,E,A,V*57
$GPVTG,90.000,T,90.000,M,0.000,N,0.000,K*4E
$GPGSV,11,1,11,3,7,280,60,5,12,128,60,6,19,286,61,16,31,325,61,1*55
$GPGSV,11,2,11,18,29,139,61,21,74,34,62,22,15,172,60,24,28,39,61,1*5C
$GPGSV,11,3,11,29,27,49,61,30,34,117,0,31,53,235,61,3,7,280,60,5*5B
$GPGSV,11,4,11,5,12,128,60,6,19,286,61,16,31,325,61,18,29,139,61,5*52
$GPGSV,11,5,11,21,74,34,62,22,15,172,60,24,28,39,61,29,27,49,61,5*65
$GPGSV,11,6,11,30,34,117,0,31,53,235,61,3,7,280,60,5,12,128,60,6*52
$GPGSV,11,7,11,6,19,286,61,16,31,325,61,18,29,139,61,21,74,34,62,6*5A
$GPGSV,11,8,11,22,15,172,60,24,28,39,61,29,27,49,61,30,34,117,0,6*6B
$GPGSV,11,9,11,31,53,235,61,3,7,280,60,5,12,128,60,6,19,286,61,7*5A
$GPGSV,11,10,11,16,31,325,61,18,29,139,61,21,74,34,62,22,15,172,60,7*5E
$GPGSV,11,11,11,24,28,39,61,29,27,49,61,30,34,117,0,31,53,235,61,7*53
$GPGSA,A,3,03,05,06,16,18,21,22,24,29,30,31,,1.5,0.8,1.3,1*20
$GPZDA,120037.00,01,08,2021,-7,00*73
$GPGGA,120038,2300.00000,N,11300.00000,E,3,44,0.76,17.53,M,-7.53,M,,*57
$GPRMC,120038,A,2300.00000,N,11300.00000,E,0.000,90.000,010821,0.000,E,A,V*58
$GPVTG,90.000,T,90.000,M,0.000,N,0.000,K*4E
$GPGSV,11,1,11,3,7,280,60,5,12,128,60,6,19,286,61,16,31,325,61,1*55
$GPGSV,11,2,11,18,29,139,61,21,74,34,62,22,15,172,60,24,28,39,61,1*5C
$GPGSV,11,3,11,29,27,49,61,30,34,117,0,31,53,235,61,3,7,280,60,5*5B
$GPGSV,11,4,11,5,12,128,60,6,19,286,61,16,31,325,61,18,29,139,61,5*52
$GPGSV,11,5,11,21,74,34,62,22,15,172,60,24,28,39,61,29,27,49,61,5*65
$GPGSV,11,6,11,30,34,117,0,31,53,235,61,3,7,280,60,5,12,128,60,6*52
$GPGSV,11,7,11,6,19,286,61,16,31,325,61,18,29,139,61,21,74,34,62,6*5A
$GPGSV,11,8,11,22,15,172,60,24,28,39,61,29,27,49,61,30,34,117,0,6*6B
$GPGSV,11,9,11,31,53,235,61,3,7,280,60,5,12,128,60,6,19,286,61,7*5A
$GPGSV,11,10,11,16,31,325,61,18,29,139,61,21,74,34,62,22,15,172,60,7*5E
$GPGSV,11,11,11,24,28,39,61,29,27,49,61,30,34,117,0,31,53,235,61,7*53
$GPGSA,A,3,03,05,06,16,18,21,22,24,29,30,31,,1.5,0.8,1.3,1*20
$GPZDA,120038.00,01,08,2021,-7,00*7C
$GPGGA,120039,2300.00000,N,11300.00000,E,3,44,0.76,17.53,M,-7.53,M,,*56
$GPRMC,120039,A,2300.00000,N,11300.00000,E,0.000,90.000,010821,0.000,E,A,V*59
$GPVTG,90.000,T,90.000,M,0.000,N,0.000,K*4E
$GPGSV,11,1,11,3,7,280,60,5,12,128,60,6,19,286,61,16,31,325,61,1*55
$GPGSV,11,2,11,18,29,139,61,21,74,34,62,22,15,172,60,24,28,39,61,1*5C
$GPGSV,11,3,11,29,27,49,61,30,34,117,0,31,53,235,61,3,7,280,60,5*5B
$GPGSV,11,4,11,5,12,128,60,6,19,286,61,16,31,325,61,18,29,139,61,5*52
$GPGSV,11,5,11,21,74,34,62,22,15,172,60,24,28,39,61,29,27,49,61,5*65
$GPGSV,11,6,11,30,34,117,0,31,53,235,61,3,7,280,60,5,12,128,60,6*52
$GPGSV,11,7,11,6,19,286,61,16,31,325,61,18,29,139,61,21,74,34,62,6*5A
$GPGSV,11,8,11,22,15,172,60,24,28,39,61,29,27,49,61,30,34,117,0,6*6B
$GPGSV,11,9,11,31,53,235,61,3,7,280,60,5,12,128,60,6,19,286,61,7*5A
$GPGSV,11,10,11,16,31,325,61,18,29,139,61,21,74,34,62,22,15,172,60,7*5E
$GPGSV,11,11,11,24,28,39,61,29,27,49,61,30,34,117,0,31,53,235,61,7*53
$GPGSA,A,3,03,05,06,16,18,21,22,24,29,30,31,,1.5,0.8,1.3,1*20
$GPZDA,120039.00,01,08,2021,-7,00*7D
$GPGGA,120040,2300.00000,N,11300.00000,E,3,44,0.76,17.53,M,-7.53,M,,*58
$GPRMC,120040,A,2300.00000,N,11300.00000,E,0.000,90.000,010821,0.000,E,A,V*57
$GPVTG,90.000,T,90.000,M,0.000,N,0.000,K*4E
$GPGSV,11,1,11,3,7,280,60,5,12,128,60,6,19,286,61,16,31,325,61,1*55
$GPGSV,11,2,11,18,29,139,61,21,74,34,62,22,15,172,60,24,28,39,61,1*5C
$GPGSV,11,3,11,29,27,49,61,30,34,117,0,31,53,235,61,3,7,280,60,5*5B
$GPGSV,11,4,11,5,12,128,60,6,19,286,61,16,31,325,61,18,29,139,61,5*52
$GPGSV,11,5,11,21,74,34,62,22,15,172,60,24,28,39,61,29,27,49,61,5*65
$GPGSV,11,6,11,30,34,117,0,31,53,235,61,3,7,280,60,5,12,128,60,6*52
$GPGSV,11,7,11,6,19,286,61,16,31,325,61,18,29,139,61,21,74,34,62,6*5A
$GPGSV,11,8,11,22,15,172,60,24,28,39,61,29,27,49,61,30,34,117,0,6*6B
$GPGSV,11,9,11,31,53,235,61,3,7,280,60,5,12,128,60,6,19,286,61,7*5A
$GPGSV,11,10,11,16,31,325,61,18,29,139,61,21,74,34,62,22,15,172,60,7*5E
$GPGSV,11,11,11,24,28,39,61,29,27,49,61,30,34,117,0,31,53,235,61,7*53
$GPGSA,A,3,03,05,06,16,18,21,22,24,29,30,31,,1.5,0.8,1.3,1*20
$GPZDA,120040.00,01,08,2021,-7,00*73
$GPGGA,120041,2300.00000,N,11300.00000,E,3,44,0.76,17.53,M,-7.53,M,,*59
$GPRMC,120041,A,2300.00000,N,11300.00000,E,0.000,90.000,010821,0.000,E,A,V*56
$GPVTG,90.000,T,90.000,M,0.000,N,0.000,K*4E
$GPGSV,11,1,11,3,7,280,60,5,12,128,60,6,19,286,61,16,31,325,61,1*55
$GPGSV,11,2,11,18,29,139,61,21,74,34,62,22,15,172,60,24,28,39,61,1*5C
$GPGSV,11,3,11,29,27,49,61,30,34,117,0,31,53,235,61,3,7,280,60,5*5B
$GPGSV,11,4,11,5,12,128,60,6,19,286,61,16,31,325,61,18,29,139,61,5*52
$GPGSV,11,5,11,21,74,34,62,22,15,172,60,24,28,39,61,29,27,49,61,5*65
$GPGSV,11,6,11,30,34,117,0,31,53,235,61,3,7,280,60,5,12,128,60,6*52
$GPGSV,11,7,11,6,19,286,61,16,31,325,61,18,29,139,61,21,74,34,62,6*5A
$GPGSV,11,8,11,22,15,172,60,24,28,39,61,29,27,49,61,30,34,117,0,6*6B
$GPGSV,11,9,11,31,53,235,61,3,7,280,60,5,12,128,60,6,19,286,61,7*5A
$GPGSV,11,10,11,16,31,325,61,18,29,139,61,21,74,34,62,22,15,172,60,7*5E
$GPGSV,11,11,11,24,28,39,61,29,27,49,61,30,34,117,0,31,53,235,61,7*53
$GPGSA,A,3,03,05,06,16,18,21,22,24,29,30,31,,1.5,0.8,1.3,1*20
$GPZDA,120041.00,01,08,2021,-7,00*72
$GPGGA,120042,2300.00000,N,11300.00000,E,3,44,0.76,17.53,M,-7.53,M,,*5A
$GPRMC,120042,A,2300.00000,N,11300.00000,E,0.000,90.000,010821,0.000,E,A,V*55
$GPVTG,90.000,T,90.000,M,0.000,N,0.000,K*4E
$GPGSV,11,1,11,3,7,280,60,5,12,128,60,6,19,286,61,16,31,325,61,1*55
$GPGSV,11,2,11,18,29,139,61,21,74,34,62,22,15,172,60,24,28,39,61,1*5C
$GPGSV,11,3,11,29,27,49,61,30,34,117,0,31,53,235,61,3,7,280,60,5*5B
$GPGSV,11,4,11,5,12,128,60,6,19,286,61,16,31,325,61,18,29,139,61,5*52
$GPGSV,11,5,11,21,74,34,62,22,15,172,60,24,28,39,61,29,27,49,61,5*65
$GPGSV,11,6,11,30,34,117,0,31,53,235,61,3,7,280,60,5,12,128,60,6*52
$GPGSV,11,7,11,6,19,286,61,16,31,325,61,18,29,139,61,21,74,34,62,6*5A
$GPGSV,11,8,11,22,15,172,60,24,28,39,61,29,27,49,61,30,34,117,0,6*6B
$GPGSV,11,9,11,31,53,235,61,3,7,280,60,5,12,128,60,6,19,286,61,7*5A
$GPGSV,11,10,11,16,31,325,61,18,29,139,61,21,74,34,62,22,15,172,60,7*5E
$GPGSV,11,11,11,24,28,39,61,29,27,49,61,30,34,117,0,31,53,235,61,7*53
$GPGSA,A,3,03,05,06,16,18,21,22,24,29,30,31,,1.5,0.8,1.3,1*20
$GPZDA,120042.00,01,08,2021,-7,00*71
$GPGGA,120043,2300.00000,N,11300.00000,E,3,44,0.76,17.53,M,-7.53,M,,*5B
$GPRMC,120043,A,2300.00000,N,11300.00000,E,0.000,90.000,010821,0.000,E,A,V*54
$GPVTG,90.000,T,90.000,M,0.000,N,0.000,K*4E
$GPGSV,11,1,11,3,7,280,60,5,12,128,60,6,19,286,61,16,31,325,61,1*55
$GPGSV,11,2,11,18,29,139,61,21,74,34,62,22,15,172,60,24,28,39,61,1*5C
$GPGSV,11,3,11,29,27,49,61,30,34,117,0,31,53,235,61,3,7,280,60,5*5B
$GPGSV,11,4,11,5,12,128,60,6,19,286,61,16,31,325,61,18,29,139,61,5*52
$GPGSV,11,5,11,21,74,34,62,22,15,172,60,24,28,39,61,29,27,49,61,5*65
$GPGSV,11,6,11,30,34,117,0,31,53,235,61,3,7,280,60,5,12,128,60,6*52
$GPGSV,11,7,11,6,19,286,61,16,31,325,61,18,29,139,61,21,74,34,62,6*5A
$GPGSV,11,8,11,22,15,172,60,24,28,39,61,29,27,49,61,30,34,117,0,6*6B
$GPGSV,11,9,11,31,53,235,61,3,7,280,60,5,12,128,60,6,19,286,61,7*5A
$GPGSV,11,10,11,16,31,325,61,18,29,139,61,21,74,34,62,22,15,172,60,7*5E
$GPGSV,11,11,11,24,28,39,61,29,27,49,61,30,34,117,0,31,53,235,61,7*53
$GPGSA,A,3,03,05,06,16,18,21,22,24,29,30,31,,1.5,0.8,1.3,1*20
$GPZDA,120043.00,01,08,2021,-7,00*70
$GPGGA,120044,2300.00000,N,11300.00000,E,3,44,0.76,17.53,M,-7.53,M,,*5C
$GPRMC,120044,A,2300.00000,N,11300.00000,E,0.000,90.000,010821,0.000,E,A,V*53
$GPVTG,90.000,T,90.000,M,0.000,N,0.000,K*4E
$GPGSV,11,1,11,3,7,280,60,5,12,128,60,6,19,286,61,16,31,325,61,1*55
$GPGSV,11,2,11,18,29,139,61,21,74,34,62,22,15,172,60,24,28,39,61,1*5C
$GPGSV,11,3,11,29,27,49,61,30,34,117,0,31,53,235,61,3,7,280,60,5*5B
$GPGSV,11,4,11,5,12,128,60,6,19,286,61,16,31,325,61,18,29,139,61,5*52
$GPGSV,11,5,11,21,74,34,62,22,15,172,60,24,28,39,61,29,27,49,61,5*65
$GPGSV,11,6,11,30,34,117,0,31,53,235,61,3,7,280,60,5,12,128,60,6*52
$GPGSV,11,7,11,6,19,286,61,16,31,325,61,18,29,139,61,21,74,34,62,6*5A
$GPGSV,11,8,11,22,15,172,60,24,28,39,61,29,27,49,61,30,34,117,0,6*6B
$GPGSV,11,9,11,31,53,235,61,3,7,280,60,5,12,128,60,6,19,286,61,7*5A
$GPGSV,11,10,11,16,31,325,61,18,29,139,61,21,74,34,62,22,15,172,60,7*5E
$GPGSV,11,11,11,24,28,39,61,29,27,49,61,30,34,117,0,31,53,235,61,7*53
$GPGSA,A,3,03,05,06,16,18,21,22,24,29,30,31,,1.5,0.8,1.3,1*20
$GPZDA,120044.00,01,08,2021,-7,00*77
$GPGGA,120045,2300.00000,N,11300.00000,E,3,44,0.76,17.53,M,-7.53,M,,*5D
$GPRMC,120045,A,2300.00000,N,11300.00000,E,0.000,90.000,010821,0.000,E,A,V*52
$GPVTG,90.000,T,90.000,M,0.000,N,0.000,K*4E
$GPGSV,11,1,11,3,7,280,60,5,12,128,60,6,19,286,61,16,31,325,61,1*55
$GPGSV,11,2,11,18,29,139,61,21,74,34,62,22,15,172,60,24,28,39,61,1*5C
$GPGSV,11,3,11,29,27,49,61,30,34,117,0,31,53,235,61,3,7,280,60,5*5B
$GPGSV,11,4,11,5,12,128,60,6,19,286,61,16,31,325,61,18,29,139,61,5*52
$GPGSV,11,5,11,21,74,34,62,22,15,172,60,24,28,39,61,29,27,49,61,5*65
$GPGSV,11,6,11,30,34,117,0,31,53,235,61,3,7,280,60,5,12,128,60,6*52
$GPGSV,11,7,11,6,19,286,61,16,31,325,61,18,29,139,61,21,74,34,62,6*5A
$GPGSV,11,8,11,22,15,172,60,24,28,39,61,29,27,49,61,30,34,117,0,6*6B
$GPGSV,11,9,11,31,53,235,61,3,7,280,60,5,12,128,60,6,19,286,61,7*5A
$GPGSV,11,10,11,16,31,325,61,18,29,139,61,21,74,34,62,22,15,172,60,7*5E
$GPGSV,11,11,11,24,28,39,61,29,27,49,61,30,34,117,0,31,53,235,61,7*53
$GPGSA,A,3,03,05,06,16,18,21,22,24,29,30,31,,1.5,0.8,1.3,1*20
$GPZDA,120045.00,01,08,2021,-7,00*76
$GPGGA,120046,2300.00000,N,11300.00000,E,3,44,0.76,17.53,M,-7.53,M,,*5E
$GPRMC,120046,A,2300.00000,N,11300.00000,E,0.000,90.000,010821,0.000,E,A,V*51
$GPVTG,90.000,T,90.000,M,0.000,N,0.000,K*4E
$GPGSV,11,1,11,3,7,280,60,5,12,128,60,6,19,286,61,16,31,325,61,1*55
$GPGSV,11,2,11,18,29,139,61,21,74,34,62,22,15,172,60,24,28,39,61,1*5C
$GPGSV,11,3,11,29,27,49,61,30,34,117,0,31,53,235,61,3,7,280,60,5*5B
$GPGSV,11,4,11,5,12,128,60,6,19,286,61,16,31,325,61,18,29,139,61,5*52
$GPGSV,11,5,11,21,74,34,62,22,15,172,60,24,28,39,61,29,27,49,61,5*65
$GPGSV,11,6,11,30,34,117,0,31,53,235,61,3,7,280,60,5,12,128,60,6*52
$GPGSV,11,7,11,6,19,286,61,16,31,325,61,18,29,139,61,21,74,34,62,6*5A
$GPGSV,11,8,11,22,15,172,60,24,28,39,61,29,27,49,61,30,34,117,0,6*6B
$GPGSV,11,9,11,31,53,235,61,3,7,280,60,5,12,128,60,6,19,286,61,7*5A
$GPGSV,11,10,11,16,31,325,61,18,29,139,61,21,74,34,62,22,15,172,60,7*5E
$GPGSV,11,11,11,24,28,39,61,29,27,49,61,30,34,117,0,31,53,235,61,7*53
$GPGSA,A,3,03,05,06,16,18,21,22,24,29,30,31,,1.5,0.8,1.3,1*20
$GPZDA,120046.00,01,08,2021,-7,00*75
$GPGGA,120047,2300.00000,N,11300.00000,E,3,44,0.76,17.53,M,-7.53,M,,*5F
$GPRMC,120047,A,2300.00000,N,11300.00000,E,0.000,90.000,010821,0.000,E,A,V*50
$GPVTG,90.000,T,90.000,M,0.000,N,0.000,K*4E
$GPGSV,11,1,11,3,7,280,60,5,12,128,60,6,19,286,61,16,31,325,61,1*55
$GPGSV,11,2,11,18,29,139,61,21,74,34,62,22,15,172,60,24,28,39,61,1*5C
$GPGSV,11,3,11,29,27,49,61,30,34,117,0,31,53,235,61,3,7,280,60,5*5B
$GPGSV,11,4,11,5,12,128,60,6,19,286,61,16,31,325,61,18,29,139,61,5*52
$GPGSV,11,5,11,21,74,34,62,22,15,172,60,24,28,39,61,29,27,49,61,5*65
$GPGSV,11,6,11,30,34,117,0,31,53,235,61,3,7,280,60,5,12,128,60,6*52
$GPGSV,11,7,11,6,19,286,61,16,31,325,61,18,29,139,61,21,74,34,62,6*5A
$GPGSV,11,8,11,22,15,172,60,24,28,39,61,29,27,49,61,30,34,117,0,6*6B
$GPGSV,11,9,11,31,53,235,61,3,7,280,60,5,12,128,60,6,19,286,61,7*5A
$GPGSV,11,10,11,16,31,325,61,18,29,139,61,21,74,34,62,22,15,172,60,7*5E
$GPGSV,11,11,11,24,28,39,61,29,27,49,61,30,34,117,0,31,53,235,61,7*53
$GPGSA,A,3,03,05,06,16,18,21,22,24,29,30,31,,1.5,0.8,1.3,1*20
$GPZDA,120047.00,01,08,2021,-7,00*74
$GPGGA,120048,2300.00000,N,11300.00000,E,3,44,0.76,17.53,M,-7.53,M,,*50
$GPRMC,120048,A,2300.00000,N,11300.00000,E,0.000,90.000,010821,0.000,E,A,V*5F
$GPVTG,90.000,T,90.000,M,0.000,N,0.000,K*4E
$GPGSV,11,1,11,3,7,280,60,5,12,128,60,6,20,286,61,16,31,325,61,1*5F
$GPGSV,11,2,11,18,29,139,61,21,73,34,62,22,15,172,60,24,28,39,61,1*5B
$GPGSV,11,3,11,29,27,49,61,30,34,117,0,31,53,235,61,3,7,280,60,5*5B
$GPGSV,11,4,11,5,12,128,60,6,20,286,61,16,31,325,61,18,29,139,61,5*58
$GPGSV,11,5,11,21,73,34,62,22,15,172,60,24,28,39,61,29,27,49,61,5*62
$GPGSV,11,6,11,30,34,117,0,31,53,235,61,3,7,280,60,5,12,128,60,6*52
$GPGSV,11,7,11,6,20,286,61,16,31,325,61,18,29,139,61,21,73,34,62,6*57
$GPGSV,11,8,11,22,15,172,60,24,28,39,61,29,27,49,61,30,34,117,0,6*6B
$GPGSV,11,9,11,31,53,235,61,3,7,280,60,5,12,128,60,6,20,286,61,7*50
$GPGSV,11,10,11,16,31,325,61,18,29,139,61,21,73,34,62,22,15,172,60,7*59
$GPGSV,11,11,11,24,28,39,61,29,27,49,61,30,34,117,0,31,53,235,61,7*53
$GPGSA,A,3,03,05,06,16,18,21,22,24,29,30,31,,1.5,0.8,1.3,1*20
$GPZDA,120048.00,01,08,2021,-7,00*7B
$GPGGA,120049,2300.00000,N,11300.00000,E,3,44,0.76,17.53,M,-7.53,M,,*51
$GPRMC,120049,A,2300.00000,N,11300.00000,E,0.000,90.000,010821,0.000,E,A,V*5E
$GPVTG,90.000,T,90.000,M,0.000,N,0.000,K*4E
$GPGSV,11,1,11,3,7,280,60,5,12,128,60,6,20,286,61,16,31,325,61,1*5F
$GPGSV,11,2,11,18,29,139,61,21,73,34,62,22,15,172,60,24,28,39,61,1*5B
$GPGSV,11,3,11,29,27,49,61,30,34,117,0,31,53,235,61,3,7,280,60,5*5B
$GPGSV,11,4,11,5,12,128,60,6,20,286,61,16,31,325,61,18,29,139,61,5*58
$GPGSV,11,5,11,21,73,34,62,22,15,172,60,24,28,39,61,29,27,49,61,5*62
$GPGSV,11,6,11,30,34,117,0,31,53,235,61,3,7,280,60,5,12,128,60,6*52
$GPGSV,11,7,11,6,20,286,61,16,31,325,61,18,29,139,61,21,73,34,62,6*57
$GPGSV,11,8,11,22,15,172,60,24,28,39,61,29,27,49,61,30,34,117,0,6*6B
$GPGSV,11,9,11,31,53,235,61,3,7,280,60,5,12,128,60,6,20,286,61,7*50
$GPGSV,11,10,11,16,31,325,61,18,29,139,61,21,73,34,62,22,15,172,60,7*59
$GPGSV,11,11,11,24,28,39,61,29,27,49,61,30,34,117,0,31,53,235,61,7*53
$GPGSA,A,3,03,05,06,16,18,21,22,24,29,30,31,,1.5,0.8,1.3,1*20
$GPZDA,120049.00,01,08,2021,-7,00*7A
$GPGGA,120050,2300.00000,N,11300.00000,E,3,44,0.76,17.53,M,-7.53,M,,*59
$GPRMC,120050,A,2300.00000,N,11300.00000,E,0.000,90.000,010821,0.000,E,A,V*56
$GPVTG,90.000,T,90.000,M,0.000,N,0.000,K*4E
$GPGSV,11,1,11,3,7,280,60,5,12,128,60,6,20,286,61,16,31,325,61,1*5F
$GPGSV,11,2,11,18,29,139,61,21,73,34,62,22,15,172,60,24,28,39,61,1*5B
$GPGSV,11,3,11,29,27,49,61,30,34,117,0,31,53,235,61,3,7,280,60,5*5B
$GPGSV,11,4,11,5,12,128,60,6,20,286,61,16,31,325,61,18,29,139,61,5*58
$GPGSV,11,5,11,21,73,34,62,22,15,172,60,24,28,39,61,29,27,49,61,5*62
$GPGSV,11,6,11,30,34,117,0,31,53,235,61,3,7,280,60,5,12,128,60,6*52
$GPGSV,11,7,11,6,20,286,61,16,31,325,61,18,29,139,61,21,73,34,62,6*57
$GPGSV,11,8,11,22,15,172,60,24,28,39,61,29,27,49,61,30,34,117,0,6*6B
$GPGSV,11,9,11,31,53,235,61,3,7,280,60,5,12,128,60,6,20,286,61,7*50
$GPGSV,11,10,11,16,31,325,61,18,29,139,61,21,73,34,62,22,15,172,60,7*59
$GPGSV,11,11,11,24,28,39,61,29,27,49,61,30,34,117,0,31,53,235,61,7*53
$GPGSA,A,3,03,05,06,16,18,21,22,24,29,30,31,,1.5,0.8,1.3,1*20
$GPZDA,120050.00,01,08,2021,-7,00*72
$GPGGA,120051,2300.00000,N,11300.00000,E,3,44,0.76,17.53,M,-7.53,M,,*58
$GPRMC,120051,A,2300.00000,N,11300.00000,E,0.000,90.000,010821,0.000,E,A,V*57
$GPVTG,90.000,T,90.000,M,0.000,N,0.000,K*4E
$GPGSV,11,1,11,3,7,280,60,5,12,128,60,6,20,286,61,16,31,325,61,1*5F
$GPGSV,11,2,11,18,29,139,61,21,73,34,62,22,15,172,60,24,28,39,61,1*5B
$GPGSV,11,3,11,29,27,49,61,30,34,117,0,31,53,235,61,3,7,280,60,5*5B
$GPGSV,11,4,11,5,12,128,60,6,20,286,61,16,31,325,61,18,29,139,61,5*58
$GPGSV,11,5,11,21,73,34,62,22,15,172,60,24,28,39,61,29,27,49,61,5*62
$GPGSV,11,6,11,30,34,117,0,31,53,235,61,3,7,280,60,5,12,128,60,6*52
$GPGSV,11,7,11,6,20,286,61,16,31,325,61,18,29,139,61,21,73,34,62,6*57
$GPGSV,11,8,11,22,15,172,60,24,28,39,61,29,27,49,61,30,34,117,0,6*6B
$GPGSV,11,9,11,31,53,235,61,3,7,280,60,5,12,128,60,6,20,286,61,7*50
$GPGSV,11,10,11,16,31,325,61,18,29,139,61,21,73,34,62,22,15,172,60,7*59
$GPGSV,11,11,11,24,28,39,61,29,27,49,61,30,34,117,0,31,53,235,61,7*53
$GPGSA,A,3,03,05,06,16,18,21,22,24,29,30,31,,1.5,0.8,1.3,1*20
$GPZDA,120051.00,01,08,2021,-7,00*73
$GPGGA,120052,2300.00000,N,11300.00000,E,3,44,0.76,17.53,M,-7.53,M,,*5B
$GPRMC,120052,A,2300.00000,N,11300.00000,E,0.000,90.000,010821,0.000,E,A,V*54
$GPVTG,90.000,T,90.000,M,0.000,N,0.000,K*4E
$GPGSV,11,1,11,3,7,280,60,5,12,128,60,6,20,286,61,16,31,325,61,1*5F
$GPGSV,11,2,11,18,29,139,61,21,73,34,62,22,15,172,60,24,28,39,61,1*5B
$GPGSV,11,3,11,29,27,49,61,30,34,117,0,31,53,235,61,3,7,280,60,5*5B
$GPGSV,11,4,11,5,12,128,60,6,20,286,61,16,31,325,61,18,29,139,61,5*58
$GPGSV,11,5,11,21,73,34,62,22,15,172,60,24,28,39,61,29,27,49,61,5*62
$GPGSV,11,6,11,30,34,117,0,31,53,235,61,3,7,280,60,5,12,128,60,6*52
$GPGSV,11,7,11,6,20,286,61,16,31,325,61,18,29,139,61,21,73,34,62,6*57
$GPGSV,11,8,11,22,15,172,60,24,28,39,61,29,27,49,61,30,34,117,0,6*6B
$GPGSV,11,9,11,31,53,235,61,3,7,280,60,5,12,128,60,6,20,286,61,7*50
$GPGSV,11,10,11,16,31,325,61,18,29,139,61,21,73,34,62,22,15,172,60,7*59
$GPGSV,11,11,11,24,28,39,61,29,27,49,61,30,34,117,0,31,53,235,61,7*53
$GPGSA,A,3,03,05,06,16,18,21,22,24,29,30,31,,1.5,0.8,1.3,1*20
$GPZDA,120052.00,01,08,2021,-7,00*70
$GPGGA,120053,2300.00000,N,11300.00000,E,3,44,0.76,17.53,M,-7.53,M,,*5A
$GPRMC,120053,A,2300.00000,N,11300.00000,E,0.000,90.000,010821,0.000,E,A,V*55
$GPVTG,90.000,T,90.000,M,0.000,N,0.000,K*4E
$GPGSV,11,1,11,3,7,280,60,5,12,128,60,6,20,286,61,16,31,325,61,1*5F
$GPGSV,11,2,11,18,29,139,61,21,73,34,62,22,15,172,60,24,28,39,61,1*5B
$GPGSV,11,3,11,29,27,49,61,30,34,117,0,31,53,235,61,3,7,280,60,5*5B
$GPGSV,11,4,11,5,12,128,60,6,20,286,61,16,31,325,61,18,29,139,61,5*58
$GPGSV,11,5,11,21,73,34,62,22,15,172,60,24,28,39,61,29,27,49,61,5*62
$GPGSV,11,6,11,30,34,117,0,31,53,235,61,3,7,280,60,5,12,128,60,6*52
$GPGSV,11,7,11,6,20,286,61,16,31,325,61,18,29,139,61,21,73,34,62,6*57
$GPGSV,11,8,11,22,15,172,60,24,28,39,61,29,27,49,61,30,34,117,0,6*6B
$GPGSV,11,9,11,31,53,235,61,3,7,280,60,5,12,128,60,6,20,286,61,7*50
$GPGSV,11,10,11,16,31,325,61,18,29,139,61,21,73,34,62,22,15,172,60,7*59
$GPGSV,11,11,11,24,28,39,61,29,27,49,61,30,34,117,0,31,53,235,61,7*53
$GPGSA,A,3,03,05,06,16,18,21,22,24,29,30,31,,1.5,0.8,1.3,1*20
$GPZDA,120053.00,01,08,2021,-7,00*71
$GPGGA,120054,2300.00000,N,11300.00000,E,3,44,0.76,17.53,M,-7.53,M,,*5D
$GPRMC,120054,A,2300.00000,N,11300.00000,E,0.000,90.000,010821,0.000,E,A,V*52
$GPVTG,90.000,T,90.000,M,0.000,N,0.000,K*4E
$GPGSV,11,1,11,3,7,281,60,5,11,128,60,6,20,286,61,16,31,325,61,1*5D
$GPGSV,11,2,11,18,29,139,61,21,73,34,62,22,15,172,60,24,28,39,61,1*5B
$GPGSV,11,3,11,29,27,49,61,30,34,117,0,31,53,235,61,3,7,281,60,5*5A
$GPGSV,11,4,11,5,11,128,60,6,20,286,61,16,31,325,61,18,29,139,61,5*5B
$GPGSV,11,5,11,21,73,34,62,22,15,172,60,24,28,39,61,29,27,49,61,5*62
$GPGSV,11,6,11,30,34,117,0,31,53,235,61,3,7,281,60,5,11,128,60,6*50
$GPGSV,11,7,11,6,20,286,61,16,31,325,61,18,29,139,61,21,73,34,62,6*57
$GPGSV,11,8,11,22,15,172,60,24,28,39,61,29,27,49,61,30,34,117,0,6*6B
$GPGSV,11,9,11,31,53,235,61,3,7,281,60,5,11,128,60,6,20,286,61,7*52
