$GNRMC,080501.00,A,3114.40997,N,12130.90679,E,130.243,180.09,200821,6.15,W,A,V*47
$GNVTG,180.09,T,186.24,M,130.243,N,241.211,K,A*36
$GNGGA,080501.00,3114.40997,N,12130.90679,E,1,10,1.24,39.4,M,9.9,M,,*42
$GNGSA,A,3,,,,,,,,,,,,,2.41,1.24,2.07,1*04
$GNGSA,A,3,,,,,,,,,,,,,2.41,1.24,2.07,3*06
$GNGSA,A,3,04,29,15,26,25,06,02,27,01,19,,,2.41,1.24,2.07,4*01
$GPGSV,3,1,11,02,28,051,,05,59,054,,09,29,154,,10,00,105,,0*64
$GPGSV,3,2,11,12,49,066,,14,24,261,,21,14,191,,24,44,156,,0*67
$GPGSV,3,3,11,29,66,276,,30,61,356,,31,22,318,,0*51
$GAGSV,3,1,11,05,04,245,,06,50,269,,07,60,017,,08,14,051,,0*74
$GAGSV,3,2,11,12,03,149,,13,09,102,,14,02,055,,17,33,161,,0*76
$GAGSV,3,3,11,23,34,315,,24,73,236,,26,27,254,,0*42
$GBGSV,4,1,13,01,37,125,34,02,57,175,34,04,41,124,34,06,33,198,34,0*70
$GBGSV,4,2,13,08,26,308,,15,36,218,34,19,12,177,34,20,17,110,,0*70
$GBGSV,4,3,13,25,56,232,34,26,45,043,34,27,56,137,34,29,49,038,34,0*79
$GNTXT,01,01,00,txbuf alloc*61

$GNRMC,080502.00,A,3114.37018,N,12130.90677,E,157.049,180.08,200821,6.15,W,A,V*4C
$GNVTG,180.08,T,186.22,M,157.049,N,290.855,K,A*3E
$GNGGA,080502.00,3114.37018,N,12130.90677,E,1,10,1.24,39.4,M,9.9,M,,*41
$GNGSA,A,3,,,,,,,,,,,,,2.41,1.24,2.07,1*04
$GNGSA,A,3,,,,,,,,,,,,,2.41,1.24,2.07,3*06
$GNGSA,A,3,04,29,15,26,25,06,02,27,01,19,,,2.41,1.24,2.07,4*01
$GPGSV,3,1,11,02,27,050,,05,59,054,,09,29,154,,10,00,105,,0*6A
$GPGSV,3,2,11,12,49,066,,14,24,261,,21,14,191,,24,44,156,,0*67
$GPGSV,3,3,11,29,66,276,,30,61,356,,31,22,318,,0*51
$GAGSV,3,1,11,05,04,245,,06,50,269,,07,60,017,,08,14,051,,0*74
$GAGSV,3,2,11,12,03,149,,13,09,102,,14,02,055,,17,33,161,,0*76
$GAGSV,3,3,11,23,34,315,,24,73,236,,26,27,254,,0*42
$GBGSV,4,1,13,01,37,125,34,02,57,175,34,04,41,124,34,06,33,198,34,0*70
$GBGSV,4,2,13,08,26,308,,15,36,218,34,19,12,177,34,20,17,110,,0*70
$GBGSV,4,3,13,25,56,232,34,26,45,043,34,27,56,137,34,29,49,038,34,0*79
$GBGSV,4,4,13,30,25,057,,0*43

$GNRMC,080503.00,A,3114.32564,N,12130.90672,E,161.895,180.02,200821,6.15,W,A,V*45
$GNVTG,180.02,T,186.16,M,161.895,N,299.829,K,A*3D
$GNGGA,080503.00,3114.32564,N,12130.90672,E,1,10,1.24,39.5,M,9.9,M,,*4F
$GNGSA,A,3,,,,,,,,,,,,,2.41,1.24,2.07,1*04
$GNGSA,A,3,,,,,,,,,,,,,2.41,1.24,2.07,3*06
$GNGSA,A,3,04,29,15,26,25,06,02,27,01,19,,,2.41,1.24,2.07,4*01
$GPGSV,3,1,11,02,27,050,,05,59,054,,09,29,154,,10,00,105,,0*6A
$GPGSV,3,2,11,12,49,066,,14,24,261,,21,14,191,,24,44,156,,0*67
$GPGSV,3,3,11,29,66,276,,30,61,356,,31,22,318,,0*51
$GAGSV,3,1,11,05,04,245,,06,50,269,,07,60,017,,08,14,051,,0*74
$GAGSV,3,2,11,12,03,149,,13,09,102,,14,02,055,,17,33,161,,0*76
$GAGSV,3,3,11,23,34,315,,24,73,236,,26,27,254,,0*42
$GBGSV,4,1,13,01,37,125,34,02,57,175,34,04,41,124,34,06,33,198,34,0*70
$GBGSV,4,2,13,08,26,308,,15,36,218,34,19,12,177,34,20,17,110,,0*70
$GBGSV,4,3,13,25,56,232,34,26,45,043,34,27,56,137,34,29,49,038,34,0*79
$GBGSV,4,4,13,30,25,057,,0*43

$GNRMC,080504.00,A,3114.28050,N,12130.90671,E,161.915,180.01,200821,6.15,W,A,V*42
$GNVTG,180.01,T,186.16,M,161.915,N,299.866,K,A*3C
$GNGGA,080504.00,3114.28050,N,12130.90671,E,1,10,1.24,39.5,M,9.9,M,,*42
$GNGSA,A,3,,,,,,,,,,,,,2.41,1.24,2.07,1*04
$GNGSA,A,3,,,,,,,,,,,,,2.41,1.24,2.07,3*06
$GNGSA,A,3,04,29,15,26,25,06,02,27,01,19,,,2.41,1.24,2.07,4*01
$GPGSV,3,1,11,02,27,050,,05,59,054,,09,29,154,,10,00,105,,0*6A
$GPGSV,3,2,11,12,49,066,,14,24,261,,21,14,191,,24,44,156,,0*67
$GPGSV,3,3,11,29,66,276,,30,61,356,,31,22,318,,0*51
$GAGSV,3,1,11,05,04,245,,06,50,269,,07,60,017,,08,14,051,,0*74
$GAGSV,3,2,11,12,03,149,,13,09,102,,14,02,055,,17,33,161,,0*76
$GAGSV,3,3,11,23,34,315,,24,73,236,,26,27,254,,0*42
$GBGSV,4,1,13,01,37,125,34,02,57,175,34,04,41,124,34,06,33,198,34,0*70
$GBGSV,4,2,13,08,26,308,,15,36,218,34,19,12,177,34,20,17,110,,0*70
$GBGSV,4,3,13,25,56,232,34,26,45,043,34,27,56,137,34,29,49,038,34,0*79
$GBGSV,4,4,13,30,25,057,,0*43

$GNRMC,080505.00,A,3114.23538,N,12130.90670,E,161.990,180.00,200821,6.14,W,A,V*4F
$GNVTG,180.00,T,186.15,M,161.990,N,300.006,K,A*3C
$GNGGA,080505.00,3114.23538,N,12130.90670,E,1,10,1.24,39.5,M,9.9,M,,*42
$GNGSA,A,3,,,,,,,,,,,,,2.41,1.24,2.07,1*04
$GNGSA,A,3,,,,,,,,,,,,,2.41,1.24,2.07,3*06
$GNGSA,A,3,04,29,15,26,25,06,02,27,01,19,,,2.41,1.24,2.07,4*01
$GPGSV,3,1,11,02,27,050,,05,59,056,,09,29,154,,10,00,105,,0*68
$GPGSV,3,2,11,12,49,066,,14,24,261,,21,14,191,,24,44,156,,0*67
$GPGSV,3,3,11,29,66,276,,30,61,356,,31,22,318,,0*51
$GAGSV,3,1,11,05,04,245,,06,50,269,,07,60,017,,08,14,051,,0*74
$GAGSV,3,2,11,12,03,149,,13,09,102,,14,02,055,,17,33,161,,0*76
$GAGSV,3,3,11,23,34,315,,24,73,236,,26,27,254,,0*42
$GBGSV,4,1,13,01,37,125,34,02,57,175,34,04,41,124,34,06,33,198,34,0*70
$GBGSV,4,2,13,08,26,308,,15,36,218,34,19,12,177,34,20,17,110,,0*70
$GBGSV,4,3,13,25,56,232,34,26,45,043,34,27,56,137,34,29,49,038,34,0*79

$GNRMC,080506.00,A,3114.19026,N,12130.90669,E,161.996,179.99,200821,6.14,W,A,V*47
$GNVTG,179.99,T,186.14,M,161.996,N,300.017,K,A*3D
$GNGGA,080506.00,3114.19026,N,12130.90669,E,1,10,1.24,39.5,M,9.9,M,,*4A
$GNGSA,A,3,,,,,,,,,,,,,2.41,1.24,2.07,1*04
$GNGSA,A,3,,,,,,,,,,,,,2.41,1.24,2.07,3*06
$GNGSA,A,3,04,29,15,26,25,06,02,27,01,19,,,2.41,1.24,2.07,4*01
$GPGSV,3,1,11,02,27,050,,05,59,056,,09,29,154,,10,00,105,,0*68
$GPGSV,3,2,11,12,49,066,,14,24,261,,21,14,191,,24,44,156,,0*67
$GPGSV,3,3,11,29,66,276,,30,61,356,,31,22,318,,0*51
$GAGSV,3,1,11,05,04,245,,06,50,269,,07,60,017,,08,14,051,,0*74
$GAGSV,3,2,11,12,03,149,,13,09,102,,14,02,055,,17,33,161,,0*76
$GAGSV,3,3,11,23,34,315,,24,73,236,,26,27,254,,0*42
$GBGSV,4,1,13,01,37,125,34,02,57,175,34,04,41,124,34,06,33,198,34,0*70
$GBGSV,4,2,13,08,26,308,,15,36,218,34,19,12,177,34,20,17,110,,0*70
$GBGSV,4,3,13,25,56,232,34,26,45,043,34,27,56,137,34,29,49,038,34,0*79
$GBGSV,4,4,13,30,25,057,,0*43
$GNTXT,01,01,00,txbuf alloc*61

$GNRMC,080507.00,A,3114.14533,N,12130.90669,E,160.401,180.00,200821,6.14,W,A,V*4E
$GNVTG,180.00,T,186.15,M,160.401,N,297.063,K,A*34
$GNGGA,080507.00,3114.14533,N,12130.90669,E,1,10,1.24,39.5,M,9.9,M,,*47
$GNGSA,A,3,,,,,,,,,,,,,2.41,1.24,2.07,1*04
$GNGSA,A,3,,,,,,,,,,,,,2.41,1.24,2.07,3*06
$GNGSA,A,3,04,29,15,26,25,06,02,27,01,19,,,2.41,1.24,2.07,4*01
$GPGSV,3,1,11,02,27,050,,05,59,056,,09,29,154,,10,00,105,,0*68
$GPGSV,3,2,11,12,49,066,,14,24,261,,21,14,191,,24,44,156,,0*67
$GPGSV,3,3,11,29,66,276,,30,61,356,,31,22,318,,0*51
$GAGSV,3,1,11,05,04,245,,06,50,269,,07,60,017,,08,14,051,,0*74
$GAGSV,3,2,11,12,03,149,,13,09,102,,14,02,055,,17,33,161,,0*76
$GAGSV,3,3,11,23,34,315,,24,73,236,,26,27,254,,0*42
$GBGSV,4,1,13,01,37,125,34,02,57,175,34,04,41,124,34,06,33,198,34,0*70
$GBGSV,4,2,13,08,26,308,,15,36,218,34,19,12,177,34,20,17,110,,0*70
$GBGSV,4,3,13,25,56,232,35,26,45,043,34,27,56,137,34,29,49,038,34,0*78
$GBGSV,4,4,13,30,25,057,,0*43

$GNRMC,080508.00,A,3114.10425,N,12130.90667,E,134.959,179.98,200821,6.14,W,A,V*4B
$GNVTG,179.98,T,186.12,M,134.959,N,249.944,K,A*3A
$GNGGA,080508.00,3114.10425,N,12130.90667,E,1,10,1.24,39.5,M,9.9,M,,*44
$GNGSA,A,3,,,,,,,,,,,,,2.41,1.24,2.07,1*04
$GNGSA,A,3,,,,,,,,,,,,,2.41,1.24,2.07,3*06
$GNGSA,A,3,04,29,15,26,25,06,02,27,01,19,,,2.41,1.24,2.07,4*01
$GPGSV,3,1,11,02,27,050,,05,59,056,,09,29,154,,10,00,105,,0*68
$GPGSV,3,2,11,12,49,066,,14,24,261,,21,14,191,,24,44,156,06,0*61
$GPGSV,3,3,11,29,66,276,,30,61,356,,31,22,318,,0*51
$GAGSV,3,1,11,05,04,245,,06,50,269,,07,60,017,,08,14,051,,0*74
$GAGSV,3,2,11,12,03,149,,13,09,102,,14,02,055,,17,33,161,,0*76
$GAGSV,3,3,11,23,34,315,,24,73,236,,26,27,254,,0*42
$GBGSV,4,1,13,01,37,125,34,02,57,175,34,04,41,124,34,06,33,198,34,0*70
$GBGSV,4,2,13,08,26,308,,15,36,218,34,19,12,177,34,20,17,110,,0*70
$GBGSV,4,3,13,25,56,232,34,26,45,043,34,27,56,137,34,29,49,038,34,0*79
$GBGSV,4,4,13,30,25,057,,0*43

$GNRMC,080509.00,A,3114.07043,N,12130.90667,E,108.216,179.96,200821,6.14,W,A,V*49
$GNVTG,179.96,T,186.10,M,108.216,N,200.416,K,A*3E
$GNGGA,080509.00,3114.07043,N,12130.90667,E,1,10,1.23,39.4,M,9.9,M,,*41
$GNGSA,A,3,,,,,,,,,,,,,2.41,1.23,2.07,1*03
$GNGSA,A,3,,,,,,,,,,,,,2.41,1.23,2.07,3*01
$GNGSA,A,3,04,29,15,26,25,06,02,27,01,19,,,2.41,1.23,2.07,4*06
$GPGSV,3,1,11,02,27,050,,05,59,056,,09,29,154,,10,00,105,,0*68
$GPGSV,3,2,11,12,49,066,,14,24,261,,21,14,191,,24,44,156,07,0*60
$GPGSV,3,3,11,29,66,276,,30,61,356,,31,22,318,,0*51
$GAGSV,3,1,11,05,04,245,,06,50,269,,07,60,017,,08,14,051,,0*74
$GAGSV,3,2,11,12,03,149,,13,09,102,,14,02,055,,17,33,161,,0*76
$GAGSV,3,3,11,23,34,315,,24,73,236,,26,27,254,,0*42
$GBGSV,4,1,13,01,37,125,34,02,57,175,34,04,41,124,34,06,33,198,34,0*70
$GBGSV,4,2,13,08,26,308,,15,36,218,34,19,12,177,34,20,17,110,,0*70
$GBGSV,4,3,13,25,56,232,34,26,45,043,35,27,56,137,34,29,49,038,34,0*78

$GNRMC,080510.00,A,3114.04408,N,12130.90666,E,81.473,179.96,200821,6.14,W,A,V*7D
$GNVTG,179.96,T,186.10,M,81.473,N,150.887,K,A*09
$GNGGA,080510.00,3114.04408,N,12130.90666,E,1,10,1.23,39.4,M,9.9,M,,*40
$GNGSA,A,3,,,,,,,,,,,,,2.41,1.23,2.07,1*03
$GNGSA,A,3,,,,,,,,,,,,,2.41,1.23,2.07,3*01
$GNGSA,A,3,04,29,15,26,25,06,02,27,01,19,,,2.41,1.23,2.07,4*06
$GPGSV,3,1,11,02,27,050,,05,59,056,,09,29,154,,10,01,105,,0*69
$GPGSV,3,2,11,12,49,066,,14,24,261,,21,14,191,,24,44,156,,0*67
$GPGSV,3,3,11,29,66,276,,30,61,356,,31,22,318,,0*51
$GAGSV,3,1,11,05,04,245,,06,50,269,,07,60,017,,08,14,051,,0*74
$GAGSV,3,2,11,12,03,149,,13,09,102,,14,02,055,,17,33,161,,0*76
$GAGSV,3,3,11,23,34,315,,24,73,236,,26,27,254,,0*42
$GBGSV,4,1,13,01,37,125,34,02,57,175,34,04,41,124,34,06,33,198,34,0*70
$GBGSV,4,2,13,08,26,308,,15,36,218,34,19,12,177,34,20,17,110,,0*70
$GBGSV,4,3,13,25,56,232,34,26,45,043,34,27,56,137,34,29,49,038,34,0*79
$GBGSV,4,4,13,30,25,057,,0*43

$GNRMC,080511.00,A,3114.02517,N,12130.90666,E,54.825,179.83,200821,6.14,W,A,V*76
$GNVTG,179.83,T,185.97,M,54.825,N,101.536,K,A*05
$GNGGA,080511.00,3114.02517,N,12130.90666,E,1,10,1.23,39.5,M,9.9,M,,*49
$GNGSA,A,3,,,,,,,,,,,,,2.41,1.23,2.07,1*03
$GNGSA,A,3,,,,,,,,,,,,,2.41,1.23,2.07,3*01
$GNGSA,A,3,04,29,15,26,25,06,02,27,01,19,,,2.41,1.23,2.07,4*06
$GPGSV,3,1,11,02,27,050,,05,59,056,,09,29,154,,10,01,105,,0*69
$GPGSV,3,2,11,12,49,066,,14,24,261,,21,14,191,,24,44,156,,0*67
$GPGSV,3,3,11,29,66,276,,30,61,356,,31,22,318,,0*51
$GAGSV,3,1,11,05,04,245,,06,50,269,,07,60,017,,08,14,051,,0*74
$GAGSV,3,2,11,12,03,149,,13,09,102,,14,02,055,,17,33,161,,0*76
$GAGSV,3,3,11,23,34,315,,24,73,236,,26,27,254,,0*42
$GBGSV,4,1,13,01,37,125,34,02,57,175,34,04,41,124,34,06,33,198,35,0*71
$GBGSV,4,2,13,08,26,308,,15,36,218,34,19,12,177,34,20,17,110,,0*70
$GBGSV,4,3,13,25,56,232,34,26,45,043,34,27,56,137,34,29,49,038,34,0*79
$GNTXT,01,01,00,txbuf alloc*61

$GNRMC,080512.00,A,3114.01372,N,12130.90667,E,28.191,179.37,200821,6.14,W,A,V*70
$GNVTG,179.37,T,185.51,M,28.191,N,52.210,K,A*39
$GNGGA,080512.00,3114.01372,N,12130.90667,E,1,10,1.23,39.5,M,9.9,M,,*4D
$GNGSA,A,3,,,,,,,,,,,,,2.41,1.23,2.07,1*03
$GNGSA,A,3,,,,,,,,,,,,,2.41,1.23,2.07,3*01
$GNGSA,A,3,04,29,15,26,25,06,02,27,01,19,,,2.41,1.23,2.07,4*06
$GPGSV,3,1,11,02,27,050,,05,59,056,,09,29,154,,10,01,105,,0*69
$GPGSV,3,2,11,12,48,067,,14,24,261,,21,14,191,,24,44,156,,0*67
$GPGSV,3,3,11,29,66,276,,30,61,356,,31,22,318,,0*51
$GAGSV,3,1,11,05,04,245,,06,50,269,,07,60,017,,08,14,051,,0*74
$GAGSV,3,2,11,12,03,149,,13,09,102,,14,02,055,,17,33,161,,0*76
$GAGSV,3,3,11,23,34,315,,24,73,236,,26,27,254,,0*42
$GBGSV,4,1,13,01,37,125,34,02,57,175,34,04,41,124,34,06,33,198,34,0*70
$GBGSV,4,2,13,08,26,308,,15,36,218,34,19,12,177,34,20,17,110,,0*70
$GBGSV,4,3,13,25,56,232,34,26,45,043,34,27,56,137,34,29,49,038,34,0*79
$GBGSV,4,4,13,30,25,057,,0*43
$GNGLL,3114.01372,N,12130.90667,E,080512.00,A,A*76

$GNRMC,080513.00,A,3114.00772,N,12130.90607,E,16.505,192.03,200821,6.14,W,A,V*74
$GNVTG,192.03,T,198.18,M,16.505,N,30.567,K,A*3D
$GNGGA,080513.00,3114.00772,N,12130.90607,E,1,10,1.23,39.5,M,9.9,M,,*4F
$GNGSA,A,3,,,,,,,,,,,,,2.41,1.23,2.07,1*03
$GNGSA,A,3,,,,,,,,,,,,,2.41,1.23,2.07,3*01
$GNGSA,A,3,04,29,15,26,25,06,02,27,01,19,,,2.41,1.23,2.07,4*06
$GPGSV,3,1,11,02,27,050,,05,59,056,,09,29,154,,10,01,105,,0*69
$GPGSV,3,2,11,12,48,067,,14,24,261,,21,14,191,,24,44,156,,0*67
$GPGSV,3,3,11,29,66,276,,30,61,356,,31,22,318,,0*51
$GAGSV,3,1,11,05,04,245,,06,50,269,,07,60,017,,08,14,051,,0*74
$GAGSV,3,2,11,12,03,149,,13,09,102,,14,02,055,,17,33,161,,0*76
$GAGSV,3,3,11,23,34,315,,24,73,236,,26,27,254,,0*42
$GBGSV,4,1,13,01,37,125,34,02,57,175,34,04,41,124,34,06,33,198,34,0*70
$GBGSV,4,2,13,08,26,308,,15,36,218,34,19,12,177,34,20,17,110,,0*70
$GBGSV,4,3,13,25,56,232,34,26,45,043,34,27,56,137,34,29,49,038,34,0*79
$GBGSV,4,4,13,30,25,057,,0*43

$GNRMC,080514.00,A,3114.00377,N,12130.90391,E,16.197,216.37,200821,6.14,W,A,V*7F
$GNVTG,216.37,T,222.51,M,16.197,N,29.997,K,A*3E
$GNGGA,080514.00,3114.00377,N,12130.90391,E,1,10,1.23,39.5,M,9.9,M,,*43
$GNGSA,A,3,,,,,,,,,,,,,2.41,1.23,2.07,1*03
$GNGSA,A,3,,,,,,,,,,,,,2.41,1.23,2.07,3*01
$GNGSA,A,3,04,29,15,26,25,06,02,27,01,19,,,2.41,1.23,2.07,4*06
$GPGSV,3,1,11,02,27,050,,05,59,056,,09,29,154,,10,01,105,,0*69
$GPGSV,3,2,11,12,48,067,,14,24,260,,21,14,191,,24,44,156,,0*66
$GPGSV,3,3,11,29,66,276,,30,61,356,,31,22,318,,0*51
$GAGSV,3,1,11,05,04,245,,06,50,269,,07,60,017,,08,14,051,,0*74
$GAGSV,3,2,11,12,03,149,,13,09,102,,14,02,055,,17,33,161,,0*76
$GAGSV,3,3,11,23,34,315,,24,73,236,,26,27,254,,0*42
$GBGSV,4,1,13,01,37,125,34,02,57,175,34,04,41,124,34,06,33,198,34,0*70
$GBGSV,4,2,13,08,26,308,,15,36,218,34,19,12,177,34,20,17,110,,0*70
$GBGSV,4,3,13,25,56,232,35,26,45,043,34,27,56,137,34,29,49,038,34,0*78

$GNRMC,080515.00,A,3114.00092,N,12130.90005,E,16.108,240.74,200821,6.14,W,A,V*7A
$GNVTG,240.74,T,246.88,M,16.108,N,29.831,K,A*37
$GNGGA,080515.00,3114.00092,N,12130.90005,E,1,10,1.23,39.5,M,9.9,M,,*44
$GNGSA,A,3,,,,,,,,,,,,,2.41,1.23,2.07,1*03
$GNGSA,A,3,,,,,,,,,,,,,2.41,1.23,2.07,3*01
$GNGSA,A,3,04,29,15,26,25,06,02,27,01,19,,,2.41,1.23,2.07,4*06
$GPGSV,3,1,11,02,27,050,,05,59,056,,09,29,154,,10,01,105,,0*69
$GPGSV,3,2,11,12,48,067,,14,24,260,,21,14,191,,24,44,156,,0*66
$GPGSV,3,3,11,29,66,276,,30,61,356,,31,22,318,,0*51
$GAGSV,3,1,11,05,04,245,,06,50,269,,07,60,017,,08,14,051,,0*74
$GAGSV,3,2,11,12,03,149,,13,09,102,,14,02,055,,17,33,161,,0*76
$GAGSV,3,3,11,23,34,315,,24,73,236,,26,27,254,,0*42
$GBGSV,4,1,13,01,37,125,34,02,57,175,34,04,41,124,34,06,33,198,34,0*70
$GBGSV,4,2,13,08,26,308,,15,36,218,34,19,12,177,34,20,17,110,,0*70
$GBGSV,4,3,13,25,56,232,34,26,45,043,34,27,56,137,34,29,49,038,34,0*79
$GBGSV,4,4,13,30,25,057,,0*43

$GNTXT,01,01,00,txbuf alloc*61
$GNRMC,080516.00,A,3113.99968,N,12130.89517,E,16.089,264.69,200821,6.14,W,A,V*7E
$GNVTG,264.69,T,270.83,M,16.089,N,29.797,K,A*38
$GNGGA,080516.00,3113.99968,N,12130.89517,E,1,10,1.23,39.5,M,9.9,M,,*42
$GNGSA,A,3,,,,,,,,,,,,,2.41,1.23,2.07,1*03
$GNGSA,A,3,,,,,,,,,,,,,2.41,1.23,2.07,3*01
$GNGSA,A,3,04,29,15,26,25,06,02,27,01,19,,,2.41,1.23,2.07,4*06
$GPGSV,3,1,11,02,27,050,,05,59,056,,09,29,154,,10,01,105,,0*69
$GPGSV,3,2,11,12,48,067,,14,24,260,,21,14,191,,24,44,156,,0*66
$GPGSV,3,3,11,29,66,276,,30,61,356,,31,22,318,,0*51
$GAGSV,3,1,11,05,04,245,,06,50,269,,07,60,017,,08,14,051,,0*74
$GAGSV,3,2,11,12,03,149,,13,09,102,,14,02,055,,17,33,161,,0*76
$GAGSV,3,3,11,23,34,315,,24,73,236,,26,27,254,,0*42
$GBGSV,4,1,13,01,37,125,34,02,57,175,34,04,41,124,34,06,33,198,34,0*70
$GBGSV,4,2,13,08,26,308,,15,36,218,34,19,12,177,34,20,17,110,,0*70
$GBGSV,4,3,13,25,56,232,34,26,45,043,34,27,56,137,34,29,49,038,34,0*79

$GNRMC,080517.00,A,3113.99955,N,12130.88644,E,37.160,269.68,200821,6.14,W,A,V*7C
$GNVTG,269.68,T,275.82,M,37.160,N,68.820,K,A*33
$GNGGA,080517.00,3113.99955,N,12130.88644,E,1,10,1.23,39.5,M,9.9,M,,*49
$GNGSA,A,3,,,,,,,,,,,,,2.41,1.23,2.07,1*03
$GNGSA,A,3,,,,,,,,,,,,,2.41,1.23,2.07,3*01
$GNGSA,A,3,04,29,15,26,25,06,02,27,01,19,,,2.41,1.23,2.07,4*06
$GPGSV,3,1,11,02,27,050,,05,59,056,,09,29,154,,10,01,105,,0*69
$GPGSV,3,2,11,12,48,067,,14,24,260,,21,14,191,,24,44,156,,0*66
$GPGSV,3,3,11,29,66,276,,30,61,356,,31,22,318,,0*51
$GAGSV,3,1,11,05,04,245,,06,50,269,,07,60,017,,08,14,051,,0*74
$GAGSV,3,2,11,12,03,149,,13,09,102,,14,02,055,,17,33,161,,0*76
$GAGSV,3,3,11,23,34,315,,24,73,236,,26,27,254,,0*42
$GBGSV,4,1,13,01,37,125,34,02,57,175,34,04,41,124,34,06,33,198,34,0*70
$GBGSV,4,2,13,08,26,308,,15,36,218,34,19,12,177,34,20,17,110,,0*70
$GBGSV,4,3,13,25,56,232,34,26,45,043,34,27,56,137,34,29,49,038,34,0*79
$GBGSV,4,4,13,30,25,057,,0*43

$GNRMC,080518.00,A,3113.99957,N,12130.86998,E,63.717,269.81,200821,6.14,W,A,V*71
$GNVTG,269.81,T,275.95,M,63.717,N,118.004,K,A*0D
$GNGGA,080518.00,3113.99957,N,12130.86998,E,1,10,1.23,39.5,M,9.9,M,,*44
$GNGSA,A,3,,,,,,,,,,,,,2.41,1.23,2.07,1*03
$GNGSA,A,3,,,,,,,,,,,,,2.41,1.23,2.07,3*01
$GNGSA,A,3,04,29,15,26,25,06,02,27,01,19,,,2.41,1.23,2.07,4*06
$GPGSV,3,1,11,02,27,050,,05,59,056,,09,29,154,,10,01,105,,0*69
$GPGSV,3,2,11,12,48,067,,14,24,260,,21,14,191,,24,44,156,,0*66
$GPGSV,3,3,11,29,66,276,,30,61,356,,31,22,318,,0*51
$GAGSV,3,1,11,05,04,245,,06,50,269,,07,60,017,,08,14,051,,0*74
$GAGSV,3,2,11,12,03,149,,13,09,102,,14,02,055,,17,33,161,,0*76
$GAGSV,3,3,11,23,34,315,,24,73,236,,26,27,254,,0*42
$GBGSV,4,1,13,01,37,125,34,02,57,175,34,04,41,124,34,06,33,198,34,0*70
$GBGSV,4,2,13,08,26,308,,15,36,218,34,19,12,177,34,20,17,110,,0*70
$GBGSV,4,3,13,25,56,232,34,26,45,043,34,27,56,137,34,29,49,038,34,0*79
$GBGSV,4,4,13,30,25,057,,0*43

$GNRMC,080519.00,A,3113.99960,N,12130.84483,E,90.650,269.96,200821,6.14,W,A,V*79
$GNVTG,269.96,T,276.10,M,90.650,N,167.883,K,A*04
$GNGGA,080519.00,3113.99960,N,12130.84483,E,1,10,1.23,39.6,M,9.9,M,,*47
$GNGSA,A,3,,,,,,,,,,,,,2.41,1.23,2.07,1*03
$GNGSA,A,3,,,,,,,,,,,,,2.41,1.23,2.07,3*01
$GNGSA,A,3,04,29,15,26,25,06,02,27,01,19,,,2.41,1.23,2.07,4*06
$GPGSV,3,1,11,02,27,050,,05,59,056,,09,29,154,,10,01,105,,0*69
$GPGSV,3,2,11,12,48,067,,14,24,260,,21,14,191,,24,44,156,,0*66
$GPGSV,3,3,11,29,66,276,,30,61,356,,31,22,318,,0*51
$GAGSV,3,1,11,05,04,245,,06,50,269,,07,60,017,,08,14,051,,0*74
$GAGSV,3,2,11,12,03,149,,13,09,102,,14,02,055,,17,33,161,,0*76
$GAGSV,3,3,11,23,34,315,,24,73,236,,26,27,254,,0*42
$GBGSV,4,1,13,01,37,125,34,02,57,175,34,04,41,124,34,06,33,198,34,0*70
$GBGSV,4,2,13,08,26,308,,15,36,218,34,19,12,177,34,20,17,110,,0*70
$GBGSV,4,3,13,25,56,232,34,26,45,043,34,27,56,137,34,29,49,038,34,0*79

$GNTXT,01,01,00,txbuf alloc*61
$GNRMC,080520.00,A,3113.99963,N,12130.81100,E,117.329,269.91,200821,6.14,W,A,V*49
$GNVTG,269.91,T,276.06,M,117.329,N,217.293,K,A*3E
$GNGGA,080520.00,3113.99963,N,12130.81100,E,1,10,1.23,39.6,M,9.9,M,,*45
$GNGSA,A,3,,,,,,,,,,,,,2.41,1.23,2.07,1*03
$GNGSA,A,3,,,,,,,,,,,,,2.41,1.23,2.07,3*01
$GNGSA,A,3,04,29,15,26,25,06,02,27,01,19,,,2.41,1.23,2.07,4*06
$GPGSV,3,1,11,02,27,050,,05,59,056,,09,29,154,,10,01,105,,0*69
$GPGSV,3,2,11,12,48,067,,14,24,260,,21,14,191,,24,44,156,,0*66
$GPGSV,3,3,11,29,66,276,,30,61,356,,31,22,318,,0*51
$GAGSV,3,1,11,05,04,245,,06,50,269,,07,60,017,,08,14,051,,0*74
$GAGSV,3,2,11,12,03,149,,13,09,102,,14,02,055,,17,33,161,,0*76
$GAGSV,3,3,11,23,34,315,,24,73,236,,26,27,254,,0*42
$GBGSV,4,1,13,01,37,125,34,02,57,175,34,04,41,124,34,06,33,198,34,0*70
$GBGSV,4,2,13,08,26,308,,15,36,218,34,19,12,177,34,20,17,110,,0*70
$GBGSV,4,3,13,25,56,232,34,26,45,043,34,27,56,137,34,29,49,038,34,0*79
$GBGSV,4,4,13,30,25,057,,0*43

$GNRMC,080521.00,A,3113.99964,N,12130.76853,E,144.020,269.93,200821,6.14,W,A,V*46
$GNVTG,269.93,T,276.08,M,144.020,N,266.725,K,A*30
$GNGGA,080521.00,3113.99964,N,12130.76853,E,1,10,1.23,39.7,M,9.9,M,,*45
$GNGSA,A,3,,,,,,,,,,,,,2.41,1.23,2.07,1*03
$GNGSA,A,3,,,,,,,,,,,,,2.41,1.23,2.07,3*01
$GNGSA,A,3,04,29,15,26,25,06,02,27,01,19,,,2.41,1.23,2.07,4*06
$GPGSV,3,1,11,02,27,050,,05,59,056,,09,29,154,,10,01,105,,0*69
$GPGSV,3,2,11,12,48,067,,14,24,260,,21,14,191,,24,44,156,,0*66
$GPGSV,3,3,11,29,66,276,,30,61,356,,31,22,318,,0*51
$GAGSV,3,1,11,05,04,245,,06,50,269,,07,60,017,,08,14,051,,0*74
$GAGSV,3,2,11,12,03,149,,13,09,102,,14,02,055,,17,33,161,,0*76
$GAGSV,3,3,11,23,34,315,,24,73,236,,26,27,254,,0*42
$GBGSV,4,1,13,01,37,125,34,02,57,175,34,04,41,124,34,06,33,198,34,0*70
$GBGSV,4,2,13,08,26,308,,15,36,218,34,19,12,177,34,20,17,110,,0*70
$GBGSV,4,3,13,25,56,232,34,26,45,043,34,27,56,137,34,29,49,038,34,0*79

$GNRMC,080522.00,A,3113.99966,N,12130.71888,E,161.522,269.96,200821,6.14,W,A,V*43
$GNVTG,269.96,T,276.10,M,161.522,N,299.138,K,A*36
$GNGGA,080522.00,3113.99966,N,12130.71888,E,1,10,1.23,39.6,M,9.9,M,,*44
$GNGSA,A,3,,,,,,,,,,,,,2.41,1.23,2.07,1*03
$GNGSA,A,3,,,,,,,,,,,,,2.41,1.23,2.07,3*01
$GNGSA,A,3,04,29,15,26,25,06,02,27,01,19,,,2.41,1.23,2.07,4*06
$GPGSV,3,1,11,02,27,050,,05,59,056,,09,29,154,,10,01,105,,0*69
$GPGSV,3,2,11,12,48,067,,14,24,260,,21,14,191,,24,44,156,,0*66
$GPGSV,3,3,11,29,66,276,,30,61,356,,31,22,318,,0*51
$GAGSV,3,1,11,05,04,245,,06,50,269,,07,60,017,,08,14,051,,0*74
$GAGSV,3,2,11,12,03,149,,13,09,102,,14,02,055,,17,33,161,,0*76
$GAGSV,3,3,11,23,34,315,,24,73,236,,26,27,254,,0*42
$GBGSV,4,1,13,01,37,125,34,02,57,175,34,04,41,124,34,06,33,198,34,0*70
$GBGSV,4,2,13,08,26,308,,15,36,218,34,19,12,177,34,20,17,110,,0*70
$GBGSV,4,3,13,25,56,232,34,26,45,043,34,27,56,137,34,29,49,038,34,0*79
$GBGSV,4,4,13,30,25,057,,0*43

$GNRMC,080523.00,A,3113.99966,N,12130.66644,E,161.968,269.98,200821,6.14,W,A,V*46
$GNVTG,269.98,T,276.12,M,161.968,N,299.965,K,A*38
$GNGGA,080523.00,3113.99966,N,12130.66644,E,1,10,1.23,39.6,M,9.9,M,,*4D
$GNGSA,A,3,,,,,,,,,,,,,2.41,1.23,2.07,1*03
$GNGSA,A,3,,,,,,,,,,,,,2.41,1.23,2.07,3*01
$GNGSA,A,3,04,29,15,26,25,06,02,27,01,19,,,2.41,1.23,2.07,4*06
$GPGSV,3,1,11,02,27,050,,05,59,056,,09,29,154,,10,01,105,,0*69
$GPGSV,3,2,11,12,48,067,,14,24,260,,21,14,191,,24,44,156,,0*66
$GPGSV,3,3,11,29,66,276,,30,61,356,,31,22,318,,0*51
$GAGSV,3,1,11,05,04,245,,06,50,269,,07,60,017,,08,14,051,,0*74
$GAGSV,3,2,11,12,03,149,,13,09,102,,14,02,055,,17,33,161,,0*76
$GAGSV,3,3,11,23,34,315,,24,73,236,,26,27,254,,0*42
$GBGSV,4,1,13,01,37,125,34,02,57,175,34,04,41,124,34,06,33,198,34,0*70
$GBGSV,4,2,13,08,26,308,,15,36,218,34,19,12,177,34,20,17,110,,0*70
$GBGSV,4,3,13,25,56,232,34,26,45,043,34,27,56,137,34,29,49,038,34,0*79
$GBGSV,4,4,13,30,25,057,,0*43

$GNRMC,080524.00,A,3113.99967,N,12130.61396,E,161.950,270.00,200821,6.14,W,A,V*4F
$GNVTG,270.00,T,276.14,M,161.950,N,299.931,K,A*3D
$GNGGA,080524.00,3113.99967,N,12130.61396,E,1,10,1.23,39.6,M,9.9,M,,*46
$GNGSA,A,3,,,,,,,,,,,,,2.41,1.23,2.08,1*0C
$GNGSA,A,3,,,,,,,,,,,,,2.41,1.23,2.08,3*0E
$GNGSA,A,3,04,29,15,26,25,06,02,27,01,19,,,2.41,1.23,2.08,4*09
$GPGSV,3,1,11,02,27,050,,05,59,056,,09,29,154,,10,01,105,,0*69
$GPGSV,3,2,11,12,48,067,,14,24,260,,21,14,191,,24,45,156,,0*67
$GPGSV,3,3,11,29,66,276,,30,61,356,,31,22,318,,0*51
$GAGSV,3,1,11,05,04,245,,06,50,269,,07,60,017,,08,14,051,,0*74
$GAGSV,3,2,11,12,03,149,,13,09,102,,14,02,055,,17,33,161,,0*76
$GAGSV,3,3,11,23,34,315,,24,73,236,,26,27,254,,0*42
$GBGSV,4,1,13,01,37,125,34,02,57,175,34,04,41,124,34,06,33,198,34,0*70
$GBGSV,4,2,13,08,26,308,,15,36,218,34,19,12,177,34,20,17,110,,0*70
$GBGSV,4,3,13,25,56,232,34,26,45,043,34,27,56,137,34,29,49,038,34,0*79
$GNTXT,01,01,00,txbuf alloc*61

$GNRMC,080525.00,A,3113.99969,N,12130.56147,E,162.014,270.01,200821,6.14,W,A,V*41
$GNVTG,270.01,T,276.15,M,162.014,N,300.049,K,A*30
$GNGGA,080525.00,3113.99969,N,12130.56147,E,1,10,1.23,39.6,M,9.9,M,,*43
$GNGSA,A,3,,,,,,,,,,,,,2.41,1.23,2.08,1*0C
$GNGSA,A,3,,,,,,,,,,,,,2.41,1.23,2.08,3*0E
$GNGSA,A,3,04,29,15,26,25,06,02,27,01,19,,,2.41,1.23,2.08,4*09
$GPGSV,3,1,11,02,27,050,,05,59,056,,09,29,154,,10,01,105,,0*69
$GPGSV,3,2,11,12,48,067,,14,24,260,,21,14,191,,24,45,156,,0*67
$GPGSV,3,3,11,29,66,276,,30,61,356,,31,22,318,,0*51
$GAGSV,3,1,11,05,04,245,,06,50,269,,07,60,017,,08,14,051,,0*74
$GAGSV,3,2,11,12,03,149,,13,09,102,,14,02,055,,17,33,161,,0*76
$GAGSV,3,3,11,23,34,315,,24,73,236,,26,27,254,,0*42
$GBGSV,4,1,13,01,37,125,34,02,57,175,34,04,41,124,35,06,33,198,34,0*71
$GBGSV,4,2,13,08,26,308,,15,36,218,34,19,12,177,34,20,17,110,,0*70
$GBGSV,4,3,13,25,56,232,34,26,45,043,34,27,56,137,34,29,49,038,34,0*79
$GBGSV,4,4,13,30,25,057,,0*43

$GNRMC,080526.00,A,3113.99971,N,12130.50898,E,161.994,270.00,200821,6.14,W,A,V*45
$GNVTG,270.00,T,276.14,M,161.994,N,300.014,K,A*3A
$GNGGA,080526.00,3113.99971,N,12130.50898,E,1,10,1.23,39.5,M,9.9,M,,*47
$GNGSA,A,3,,,,,,,,,,,,,2.41,1.23,2.08,1*0C
$GNGSA,A,3,,,,,,,,,,,,,2.41,1.23,2.08,3*0E
$GNGSA,A,3,04,29,15,26,25,06,02,27,01,19,,,2.41,1.23,2.08,4*09
$GPGSV,3,1,11,02,27,050,,05,59,056,,09,29,154,,10,01,105,,0*69
$GPGSV,3,2,11,12,48,067,,14,24,260,,21,14,191,,24,45,156,,0*67
$GPGSV,3,3,11,29,66,276,,30,61,356,,31,22,318,,0*51
$GAGSV,3,1,11,05,04,245,,06,50,269,,07,60,017,,08,14,051,,0*74
$GAGSV,3,2,11,12,03,149,,13,09,102,,14,02,055,,17,33,161,,0*76
$GAGSV,3,3,11,23,34,315,,24,73,236,,26,27,254,,0*42
$GBGSV,4,1,13,01,37,125,34,02,57,175,34,04,41,124,34,06,33,198,34,0*70
$GBGSV,4,2,13,08,26,308,,15,36,218,34,19,12,177,34,20,17,110,,0*70
$GBGSV,4,3,13,25,56,232,34,26,45,043,34,27,56,137,34,29,49,038,34,0*79
$GBGSV,4,4,13,30,25,057,,0*43

$GNRMC,080527.00,A,3113.99972,N,12130.45649,E,161.967,270.00,200821,6.14,W,A,V*4D
$GNVTG,270.00,T,276.14,M,161.967,N,299.962,K,A*3F
$GNGGA,080527.00,3113.99972,N,12130.45649,E,1,10,1.23,39.5,M,9.9,M,,*43
$GNGSA,A,3,,,,,,,,,,,,,2.41,1.23,2.08,1*0C
$GNGSA,A,3,,,,,,,,,,,,,2.41,1.23,2.08,3*0E
$GNGSA,A,3,04,29,15,26,25,06,02,27,01,19,,,2.41,1.23,2.08,4*09
$GPGSV,3,1,11,02,27,050,,05,59,056,,09,29,154,,10,01,105,,0*69
$GPGSV,3,2,11,12,48,067,,14,24,260,,21,14,191,,24,45,156,,0*67
$GPGSV,3,3,11,29,66,276,,30,61,356,,31,22,318,,0*51
$GAGSV,3,1,11,05,04,245,,06,50,269,,07,60,017,,08,14,051,,0*74
$GAGSV,3,2,11,12,03,149,,13,09,102,,14,02,055,,17,33,161,,0*76
$GAGSV,3,3,11,23,34,315,,24,73,236,,26,27,254,,0*42
$GBGSV,4,1,13,01,37,125,34,02,57,175,34,04,41,124,34,06,33,198,34,0*70
$GBGSV,4,2,13,08,26,308,,15,36,218,34,19,12,177,34,20,17,110,,0*70
$GBGSV,4,3,13,25,56,232,34,26,45,043,34,27,56,137,34,29,49,038,34,0*79

$GNRMC,080528.00,A,3113.99973,N,12130.40400,E,162.048,270.01,200821,6.14,W,A,V*4F
$GNVTG,270.01,T,276.16,M,162.048,N,300.114,K,A*33
$GNGGA,080528.00,3113.99973,N,12130.40400,E,1,10,1.23,39.5,M,9.9,M,,*47
$GNGSA,A,3,,,,,,,,,,,,,2.42,1.23,2.08,1*0F
$GNGSA,A,3,,,,,,,,,,,,,2.42,1.23,2.08,3*0D
$GNGSA,A,3,04,29,15,26,25,06,02,27,01,19,,,2.42,1.23,2.08,4*0A
$GPGSV,3,1,11,02,27,050,,05,59,056,,09,29,154,,10,01,105,,0*69
$GPGSV,3,2,11,12,48,067,,14,24,260,,21,14,191,,24,45,156,,0*67
$GPGSV,3,3,11,29,66,276,,30,61,356,,31,22,318,,0*51
$GAGSV,3,1,11,05,04,245,,06,50,269,,07,60,017,,08,14,051,,0*74
$GAGSV,3,2,11,12,03,149,,13,09,102,,14,02,055,,17,33,161,,0*76
$GAGSV,3,3,11,23,34,315,,24,73,236,,26,27,254,,0*42
$GBGSV,4,1,13,01,37,125,34,02,57,175,34,04,41,124,34,06,33,198,34,0*70
$GBGSV,4,2,13,08,26,308,,15,36,218,34,19,12,177,34,20,17,110,,0*70
$GBGSV,4,3,13,25,56,232,34,26,45,043,34,27,56,137,34,29,49,038,34,0*79
$GBGSV,4,4,13,30,25,057,,0*43
$GNGLL,3113.99973,N,12130.40400,E,080528.00,A,A*7C

$GNRMC,080529.00,A,3113.99974,N,12130.35152,E,162.076,270.04,200821,6.14,W,A,V*41
$GNVTG,270.04,T,276.18,M,162.076,N,300.165,K,A*33
$GNGGA,080529.00,3113.99974,N,12130.35152,E,1,10,1.23,39.5,M,9.9,M,,*41
$GNGSA,A,3,,,,,,,,,,,,,2.42,1.23,2.08,1*0F
$GNGSA,A,3,,,,,,,,,,,,,2.42,1.23,2.08,3*0D
$GNGSA,A,3,04,29,15,26,25,06,02,27,01,19,,,2.42,1.23,2.08,4*0A
$GPGSV,3,1,11,02,27,050,,05,59,056,,09,29,154,,10,01,105,,0*69
$GPGSV,3,2,11,12,48,067,,14,24,260,,21,14,191,,24,45,156,,0*67
$GPGSV,3,3,11,29,67,277,,30,61,356,,31,22,318,,0*51
$GAGSV,3,1,11,05,04,245,,06,50,269,,07,60,017,,08,14,051,,0*74
$GAGSV,3,2,11,12,03,149,,13,09,102,,14,02,055,,17,33,161,,0*76
$GAGSV,3,3,11,23,34,315,,24,73,236,,26,27,254,,0*42
$GBGSV,4,1,13,01,37,125,34,02,57,175,34,04,41,124,34,06,33,198,34,0*70
$GBGSV,4,2,13,08,26,308,,15,36,218,34,19,12,177,34,20,17,110,,0*70
$GNTXT,01,01,00,txbuf alloc*61

$GNRMC,080530.00,A,3113.99976,N,12130.29903,E,162.057,270.03,200821,6.14,W,A,V*4E
$GNVTG,270.03,T,276.18,M,162.057,N,300.130,K,A*37
$GNGGA,080530.00,3113.99976,N,12130.29903,E,1,10,1.23,39.5,M,9.9,M,,*4A
$GNGSA,A,3,,,,,,,,,,,,,2.42,1.23,2.08,1*0F
$GNGSA,A,3,,,,,,,,,,,,,2.42,1.23,2.08,3*0D
$GNGSA,A,3,04,29,15,26,25,06,02,27,01,19,,,2.42,1.23,2.08,4*0A
$GPGSV,3,1,11,02,27,050,,05,59,056,,09,29,154,,10,01,105,,0*69
$GPGSV,3,2,11,12,48,067,,14,24,260,,21,14,191,,24,45,156,,0*67
$GPGSV,3,3,11,29,67,277,,30,61,358,,31,22,318,,0*5F
$GAGSV,3,1,11,05,04,245,,06,50,269,,07,60,017,,08,14,051,,0*74
$GAGSV,3,2,11,12,03,149,,13,09,102,,14,02,055,,17,33,161,,0*76
$GAGSV,3,3,11,23,34,315,,24,73,236,,26,27,254,,0*42
$GBGSV,4,1,13,01,37,125,34,02,57,175,35,04,41,124,34,06,33,198,34,0*71
$GBGSV,4,2,13,08,26,308,,15,36,218,34,19,12,177,34,20,17,110,,0*70
$GBGSV,4,3,13,25,56,232,34,26,45,043,34,27,56,137,34,29,49,038,34,0*79
$GBGSV,4,4,13,30,25,057,,0*43

$GNRMC,080531.00,A,3113.99978,N,12130.24653,E,162.059,270.03,200821,6.14,W,A,V*48
$GNVTG,270.03,T,276.18,M,162.059,N,300.133,K,A*3A
$GNGGA,080531.00,3113.99978,N,12130.24653,E,1,10,1.23,39.4,M,9.9,M,,*43
$GNGSA,A,3,,,,,,,,,,,,,2.42,1.23,2.08,1*0F
$GNGSA,A,3,,,,,,,,,,,,,2.42,1.23,2.08,3*0D
$GNGSA,A,3,04,29,15,26,25,06,02,27,01,19,,,2.42,1.23,2.08,4*0A
$GPGSV,3,1,11,02,27,050,,05,59,056,,09,29,154,,10,01,105,,0*69
$GPGSV,3,2,11,12,48,067,,14,24,260,,21,14,191,,24,45,156,,0*67
$GPGSV,3,3,11,29,67,277,,30,61,358,,31,23,318,,0*5E
$GAGSV,3,1,11,05,04,245,,06,50,269,,07,60,017,,08,14,051,,0*74
$GAGSV,3,2,11,12,03,149,,13,09,102,,14,02,055,,17,33,161,,0*76
$GAGSV,3,3,11,23,34,315,,24,73,236,,26,27,254,,0*42
$GBGSV,4,1,13,01,37,125,34,02,57,175,34,04,41,124,34,06,33,198,34,0*70
$GBGSV,4,2,13,08,26,308,,15,36,218,34,19,12,177,34,20,17,110,,0*70
$GBGSV,4,3,13,25,56,232,34,26,45,043,34,27,56,137,34,29,49,038,34,0*79
$GBGSV,4,4,13,30,25,057,,0*43

$GNRMC,080532.00,A,3113.99979,N,12130.19405,E,161.983,270.01,200821,6.14,W,A,V*4A
$GNVTG,270.01,T,276.15,M,161.983,N,299.992,K,A*3A
$GNGGA,080532.00,3113.99979,N,12130.19405,E,1,10,1.23,39.4,M,9.9,M,,*4E
$GNGSA,A,3,,,,,,,,,,,,,2.42,1.23,2.08,1*0F
$GNGSA,A,3,,,,,,,,,,,,,2.42,1.23,2.08,3*0D
$GNGSA,A,3,04,29,15,26,25,06,02,27,01,19,,,2.42,1.23,2.08,4*0A
$GPGSV,3,1,11,02,27,050,,05,59,056,,09,29,154,,10,01,105,,0*69
$GPGSV,3,2,11,12,48,067,,14,24,260,,21,14,191,,24,45,156,,0*67
$GPGSV,3,3,11,29,67,277,,30,61,358,,31,23,318,,0*5E
$GAGSV,3,1,11,05,04,245,,06,50,269,,07,60,017,,08,14,051,,0*74
$GAGSV,3,2,11,12,03,149,,13,09,102,,14,02,055,,17,33,161,,0*76
$GAGSV,3,3,11,23,34,315,,24,73,236,,26,27,254,,0*42
$GBGSV,4,1,13,01,37,125,34,02,57,175,34,04,41,124,34,06,33,198,34,0*70
$GBGSV,4,2,13,08,26,308,,15,36,218,34,19,12,177,34,20,17,110,,0*70
$GBGSV,4,3,13,25,56,232,34,26,45,043,34,27,56,137,34,29,49,038,34,0*79
$GBGSV,4,4,13,30,25,057,,0*43

$GNRMC,080533.00,A,3113.99981,N,12130.14390,E,147.899,270.04,200821,6.14,W,A,V*41
$GNVTG,270.04,T,276.18,M,147.899,N,273.909,K,A*3A
$GNGGA,080533.00,3113.99981,N,12130.14390,E,1,10,1.23,39.4,M,9.9,M,,*4E
$GNGSA,A,3,,,,,,,,,,,,,2.42,1.23,2.08,1*0F
$GNGSA,A,3,,,,,,,,,,,,,2.42,1.23,2.08,3*0D
$GNGSA,A,3,04,29,15,26,25,06,02,27,01,19,,,2.42,1.23,2.08,4*0A
$GPGSV,3,1,11,02,27,050,,05,59,056,,09,29,154,,10,01,105,,0*69
$GPGSV,3,2,11,12,48,067,,14,24,260,,21,14,191,,24,45,156,,0*67
$GPGSV,3,3,11,29,67,277,,30,61,358,,31,23,318,,0*5E
$GAGSV,3,1,11,05,04,245,,06,50,269,,07,60,017,,08,14,051,,0*74
$GAGSV,3,2,11,12,03,149,,13,09,102,,14,02,055,,17,33,161,,0*76
$GAGSV,3,3,11,23,34,315,,24,73,236,,26,27,254,,0*42
$GBGSV,4,1,13,01,37,125,34,02,57,175,34,04,41,124,34,06,33,198,35,0*71
$GBGSV,4,2,13,08,26,308,,15,36,218,34,19,12,177,34,20,17,110,,0*70
$GBGSV,4,3,13,25,56,232,34,26,45,043,34,27,56,137,34,29,49,038,34,0*79
$GBGSV,4,4,13,30,25,057,,0*43

$GNRMC,080534.00,A,3113.99979,N,12130.10047,E,121.407,270.10,200821,6.14,W,A,V*42
$GNVTG,270.10,T,276.24,M,121.407,N,224.846,K,A*33
$GNGGA,080534.00,3113.99979,N,12130.10047,E,1,10,1.23,39.4,M,9.9,M,,*43
$GNGSA,A,3,,,,,,,,,,,,,2.42,1.23,2.08,1*0F
$GNGSA,A,3,,,,,,,,,,,,,2.42,1.23,2.08,3*0D
$GNGSA,A,3,04,29,15,26,25,06,02,27,01,19,,,2.42,1.23,2.08,4*0A
$GPGSV,3,1,11,02,27,050,,05,59,056,,09,29,154,,10,01,105,,0*69
$GPGSV,3,2,11,12,48,067,,14,24,260,,21,14,191,,24,45,156,,0*67
$GPGSV,3,3,11,29,67,277,,30,61,358,,31,23,318,,0*5E
$GAGSV,3,1,11,05,04,245,,06,50,269,,07,60,017,,08,14,051,,0*74
$GAGSV,3,2,11,12,03,149,,13,09,102,,14,02,055,,17,33,161,,0*76
$GAGSV,3,3,11,23,34,315,,24,73,236,,26,27,254,,0*42
$GBGSV,4,1,13,01,37,125,34,02,57,175,34,04,41,124,34,06,33,198,34,0*70
$GBGSV,4,2,13,08,26,308,,15,36,218,34,19,12,177,34,20,17,110,,0*70
$GBGSV,4,3,13,25,56,232,34,26,45,043,34,27,56,137,34,29,49,038,35,0*78
$GNTXT,01,01,00,txbuf alloc*61

$GNRMC,080535.00,A,3113.99978,N,12130.06566,E,94.581,270.11,200821,6.14,W,A,V*72
$GNVTG,270.11,T,276.25,M,94.581,N,175.164,K,A*0D
$GNGGA,080535.00,3113.99978,N,12130.06566,E,1,10,1.23,39.4,M,9.9,M,,*42
$GNGSA,A,3,,,,,,,,,,,,,2.42,1.23,2.08,1*0F
$GNGSA,A,3,,,,,,,,,,,,,2.42,1.23,2.08,3*0D
$GNGSA,A,3,04,29,15,26,25,06,02,27,01,19,,,2.42,1.23,2.08,4*0A
$GPGSV,3,1,11,02,27,050,,05,59,056,,09,29,154,,10,01,105,,0*69
$GPGSV,3,2,11,12,48,067,,14,24,260,,21,14,191,,24,45,156,,0*67
$GPGSV,3,3,11,29,67,277,,30,61,358,,31,23,318,,0*5E
$GAGSV,3,1,11,05,04,245,,06,50,269,,07,60,017,,08,14,051,,0*74
$GAGSV,3,2,11,12,03,149,,13,09,102,,14,02,055,,17,33,161,,0*76
$GAGSV,3,3,11,23,34,315,,24,73,236,,26,27,254,,0*42
$GBGSV,4,1,13,01,37,125,34,02,57,175,34,04,41,124,34,06,33,198,34,0*70
$GBGSV,4,2,13,08,26,308,,15,36,218,34,19,12,177,34,20,17,110,,0*70
$GBGSV,4,3,13,25,56,232,34,26,45,043,34,27,56,137,34,29,49,038,34,0*79
$GBGSV,4,4,13,30,25,057,,0*43

$GNRMC,080536.00,A,3113.99979,N,12130.03949,E,67.833,270.16,200821,6.14,W,A,V*7B
$GNVTG,270.16,T,276.31,M,67.833,N,125.627,K,A*02
$GNGGA,080536.00,3113.99979,N,12130.03949,E,1,10,1.23,39.4,M,9.9,M,,*44
$GNGSA,A,3,,,,,,,,,,,,,2.42,1.23,2.08,1*0F
$GNGSA,A,3,,,,,,,,,,,,,2.42,1.23,2.08,3*0D
$GNGSA,A,3,04,29,15,26,25,06,02,27,01,19,,,2.42,1.23,2.08,4*0A
$GPGSV,3,1,11,02,27,050,,05,59,056,,09,29,154,,10,01,105,,0*69
$GPGSV,3,2,11,12,48,067,,14,24,260,,21,14,191,,24,45,156,,0*67
$GPGSV,3,3,11,29,67,277,,30,61,358,,31,23,318,,0*5E
$GAGSV,3,1,11,05,04,245,,06,50,269,,07,60,017,,08,14,051,,0*74
$GAGSV,3,2,11,12,03,149,,13,09,102,,14,02,055,,17,33,161,,0*76
$GAGSV,3,3,11,23,34,315,,24,73,236,,26,27,254,,0*42
$GBGSV,4,1,13,01,37,125,34,02,57,175,34,04,41,124,34,06,33,198,34,0*70
$GBGSV,4,2,13,08,26,308,,15,36,218,34,19,12,177,35,20,17,110,,0*71
$GBGSV,4,3,13,25,56,232,34,26,45,043,34,27,56,137,34,29,49,038,34,0*79
$GBGSV,4,4,13,30,25,057,,0*43

$GNRMC,080537.00,A,3113.99980,N,12130.02198,E,41.078,270.19,200821,6.14,W,A,V*75
$GNVTG,270.19,T,276.33,M,41.078,N,76.077,K,A*38
$GNGGA,080537.00,3113.99980,N,12130.02198,E,1,10,1.23,39.4,M,9.9,M,,*46
$GNGSA,A,3,,,,,,,,,,,,,2.42,1.23,2.08,1*0F
$GNGSA,A,3,,,,,,,,,,,,,2.42,1.23,2.08,3*0D
$GNGSA,A,3,04,29,15,26,25,06,02,27,01,19,,,2.42,1.23,2.08,4*0A
$GPGSV,3,1,11,02,27,050,,05,59,056,,09,29,154,,10,01,105,,0*69
$GPGSV,3,2,11,12,48,067,,14,24,260,,21,14,191,,24,45,156,,0*67
$GPGSV,3,3,11,29,67,277,,30,61,358,,31,23,318,,0*5E
$GAGSV,3,1,11,05,04,245,,06,50,269,,07,60,017,,08,14,051,,0*74
$GAGSV,3,2,11,12,03,149,,13,09,102,,14,02,055,,17,33,161,,0*76
$GAGSV,3,3,11,23,34,315,,24,73,236,,26,27,254,,0*42
$GBGSV,4,1,13,01,37,125,34,02,57,175,34,04,41,124,34,06,33,198,34,0*70
$GBGSV,4,2,13,08,26,308,,15,36,218,34,19,12,177,34,20,17,110,,0*70
$GBGSV,4,3,13,25,56,232,34,26,45,043,34,27,56,137,34,29,49,038,34,0*79
$GBGSV,4,4,13,30,25,057,,0*43

$GNRMC,080538.00,A,3113.99991,N,12130.01269,E,17.196,273.08,200821,6.14,W,A,V*75
$GNVTG,273.08,T,279.22,M,17.196,N,31.848,K,A*31
$GNGGA,080538.00,3113.99991,N,12130.01269,E,1,10,1.23,39.4,M,9.9,M,,*47
$GNGSA,A,3,,,,,,,,,,,,,2.42,1.23,2.08,1*0F
$GNGSA,A,3,,,,,,,,,,,,,2.42,1.23,2.08,3*0D
$GNGSA,A,3,04,29,15,26,25,06,02,27,01,19,,,2.42,1.23,2.08,4*0A
$GPGSV,3,1,11,02,27,050,,05,59,056,,09,29,154,,10,01,105,,0*69
$GPGSV,3,2,11,12,48,067,,14,24,260,,21,14,191,,24,45,156,,0*67
$GPGSV,3,3,11,29,67,277,,30,61,358,,31,23,318,,0*5E
$GAGSV,3,1,11,05,04,245,,06,50,269,,07,60,017,,08,14,051,,0*74
$GAGSV,3,2,11,12,03,149,,13,09,102,,14,02,055,,17,33,161,,0*76
$GAGSV,3,3,11,23,34,315,,24,73,236,,26,27,254,,0*42
$GBGSV,4,1,13,01,37,125,34,02,57,175,34,04,41,124,34,06,33,198,34,0*70
$GBGSV,4,2,13,08,26,308,,15,36,218,34,19,12,177,34,20,17,110,,0*70
$GBGSV,4,3,13,25,56,232,34,26,45,043,34,27,56,137,34,29,49,038,34,0*79
$GBGSV,4,4,13,30,25,057,,0*43
$GNGLL,3113.99991,N,12130.01269,E,080538.00,A,A*7D

$GNTXT,01,01,00,txbuf alloc*61
$GNRMC,080539.00,A,3114.00104,N,12130.00756,E,16.097,295.78,200821,6.14,W,A,V*71
$GNVTG,295.78,T,301.93,M,16.097,N,29.812,K,A*3D
$GNGGA,080539.00,3114.00104,N,12130.00756,E,1,10,1.23,39.4,M,9.9,M,,*4D
$GNGSA,A,3,,,,,,,,,,,,,2.42,1.23,2.08,1*0F
$GNGSA,A,3,,,,,,,,,,,,,2.42,1.23,2.08,3*0D
$GNGSA,A,3,04,29,15,26,25,06,02,27,01,19,,,2.42,1.23,2.08,4*0A
$GPGSV,3,1,11,02,27,050,,05,59,056,,09,29,154,,10,01,105,,0*69
$GPGSV,3,2,11,12,48,067,,14,24,260,,21,14,191,,24,45,156,,0*67
$GPGSV,3,3,11,29,67,277,,30,61,358,,31,23,318,,0*5E
$GAGSV,3,1,11,05,04,245,,06,50,269,,07,60,017,,08,14,051,,0*74
$GAGSV,3,2,11,12,03,149,,13,09,102,,14,02,055,,17,33,161,,0*76
$GAGSV,3,3,11,23,34,315,,24,73,236,,26,27,254,,0*42
$GBGSV,4,1,13,01,37,125,34,02,57,175,34,04,41,124,34,06,33,198,34,0*70
$GBGSV,4,2,13,08,26,308,,15,36,218,34,19,12,177,34,20,17,110,,0*70

$GNRMC,080540.00,A,3114.00376,N,12130.00351,E,15.982,319.57,200821,6.14,W,A,V*7D
$GNVTG,319.57,T,325.71,M,15.982,N,29.599,K,A*3F
$GNGGA,080540.00,3114.00376,N,12130.00351,E,1,10,1.23,39.4,M,9.9,M,,*47
$GNGSA,A,3,,,,,,,,,,,,,2.42,1.23,2.08,1*0F
$GNGSA,A,3,,,,,,,,,,,,,2.42,1.23,2.08,3*0D
$GNGSA,A,3,04,29,15,26,25,06,02,27,01,19,,,2.42,1.23,2.08,4*0A
$GPGSV,3,1,11,02,27,050,,05,59,056,,09,29,154,,10,01,105,,0*69
$GPGSV,3,2,11,12,48,067,,14,24,260,,21,14,191,,24,45,156,,0*67
$GPGSV,3,3,11,29,67,277,,30,61,358,,31,23,318,,0*5E
$GAGSV,3,1,11,05,04,245,,06,50,269,,07,60,017,,08,14,051,,0*74
$GAGSV,3,2,11,12,03,149,,13,09,102,,14,02,055,,17,33,161,,0*76
$GAGSV,3,3,11,23,34,315,,24,73,236,,26,27,254,,0*42
$GBGSV,4,1,13,01,37,125,34,02,57,175,34,04,41,124,34,06,33,198,34,0*70
$GBGSV,4,2,13,08,26,308,,15,36,218,34,19,12,177,34,20,17,110,,0*70
$GBGSV,4,3,13,25,56,232,34,26,45,043,34,27,56,137,34,29,49,038,34,0*79
$GBGSV,4,4,13,30,25,057,,0*43

$GNRMC,080541.00,A,3114.00763,N,12130.00110,E,16.109,343.56,200821,6.14,W,A,V*7D
$GNVTG,343.56,T,349.71,M,16.109,N,29.834,K,A*39
$GNGGA,080541.00,3114.00763,N,12130.00110,E,1,10,1.23,39.3,M,9.9,M,,*46
$GNGSA,A,3,,,,,,,,,,,,,2.42,1.23,2.08,1*0F
$GNGSA,A,3,,,,,,,,,,,,,2.42,1.23,2.08,3*0D
$GNGSA,A,3,04,29,15,26,25,06,02,27,01,19,,,2.42,1.23,2.08,4*0A
$GPGSV,3,1,11,02,27,050,,05,59,056,,09,29,154,,10,01,105,,0*69
$GPGSV,3,2,11,12,48,067,,14,24,260,,21,14,191,,24,45,156,,0*67
$GPGSV,3,3,11,29,67,277,,30,61,358,,31,23,318,,0*5E
$GAGSV,3,1,11,05,04,245,,06,50,269,,07,60,017,,08,14,051,,0*74
$GAGSV,3,2,11,12,03,149,,13,09,102,,14,02,055,,17,33,161,,0*76
$GAGSV,3,3,11,23,34,315,,24,73,236,,26,27,254,,0*42
$GBGSV,4,1,13,01,37,125,34,02,57,175,34,04,41,124,34,06,33,198,34,0*70
$GBGSV,4,2,13,08,26,308,,15,36,218,34,19,12,177,34,20,17,110,,0*70
$GBGSV,4,3,13,25,56,232,34,26,45,043,34,27,56,137,34,29,49,038,34,0*79
$GBGSV,4,4,13,30,25,057,,0*43

$GNRMC,080542.00,A,3114.01324,N,12130.00036,E,24.742,359.79,200821,6.14,W,A,V*73
$GNVTG,359.79,T,5.93,M,24.742,N,45.823,K,A*3C
$GNGGA,080542.00,3114.01324,N,12130.00036,E,1,10,1.23,39.3,M,9.9,M,,*46
$GNGSA,A,3,,,,,,,,,,,,,2.42,1.23,2.08,1*0F
$GNGSA,A,3,,,,,,,,,,,,,2.42,1.23,2.08,3*0D
$GNGSA,A,3,04,29,15,26,25,06,02,27,01,19,,,2.42,1.23,2.08,4*0A
$GPGSV,3,1,11,02,27,050,,05,59,056,,09,29,154,,10,01,105,,0*69
$GPGSV,3,2,11,12,48,067,,14,24,260,,21,14,191,,24,45,156,,0*67
$GPGSV,3,3,11,29,67,277,,30,61,358,,31,23,318,,0*5E
$GAGSV,3,1,11,05,04,245,,06,50,269,,07,60,017,,08,14,051,,0*74
$GAGSV,3,2,11,12,03,149,,13,09,102,,14,02,055,,17,33,161,,0*76
$GAGSV,3,3,11,23,34,315,,24,73,236,,26,27,254,,0*42
$GBGSV,4,1,13,01,37,125,34,02,57,175,34,04,41,124,34,06,33,198,34,0*70
$GBGSV,4,2,13,08,26,308,,15,36,218,34,19,12,177,34,20,17,110,,0*70
$GBGSV,4,3,13,25,56,232,34,26,45,043,34,27,56,137,34,29,49,038,34,0*79
$GBGSV,4,4,13,30,25,057,,0*43

$GNRMC,080543.00,A,3114.02388,N,12130.00033,E,51.186,0.15,200821,6.14,W,A,V*7B
$GNVTG,0.15,T,6.29,M,51.186,N,94.797,K,A*3B
$GNGGA,080543.00,3114.02388,N,12130.00033,E,1,10,1.23,39.3,M,9.9,M,,*47
$GNGSA,A,3,,,,,,,,,,,,,2.42,1.23,2.08,1*0F
$GNGSA,A,3,,,,,,,,,,,,,2.42,1.23,2.08,3*0D
$GNGSA,A,3,04,29,15,26,25,06,02,27,01,19,,,2.42,1.23,2.08,4*0A
$GPGSV,3,1,11,02,27,050,,05,59,056,,09,29,154,,10,01,105,,0*69
$GPGSV,3,2,11,12,48,067,,14,24,260,,21,14,191,,24,45,156,,0*67
$GPGSV,3,3,11,29,67,277,,30,61,358,,31,23,318,,0*5E
$GAGSV,3,1,11,05,04,245,,06,50,269,,07,60,017,,08,14,051,,0*74
$GAGSV,3,2,11,12,03,149,,13,09,102,,14,02,055,,17,33,161,,0*76
$GAGSV,3,3,11,23,34,315,,24,73,236,,26,27,254,,0*42
$GBGSV,4,1,13,01,37,125,34,02,57,175,34,04,41,124,34,06,33,198,34,0*70
$GBGSV,4,2,13,08,26,308,,15,36,218,34,19,12,177,34,20,17,110,,0*70
$GBGSV,4,3,13,25,56,232,34,26,45,043,34,27,56,137,34,29,49,038,34,0*79
$GBGSV,4,4,13,30,25,057,,0*43

$GNGGA,080544.00,3114.04192,N,12130.00035,E,1,10,1.23,39.4,M,9.9,M,,*4E
$GNGSA,A,3,,,,,,,,,,,,,2.42,1.23,2.08,1*0F
$GNGSA,A,3,,,,,,,,,,,,,2.42,1.23,2.08,3*0D
$GNGSA,A,3,04,29,15,26,25,06,02,27,01,19,,,2.42,1.23,2.08,4*0A
$GPGSV,3,1,11,02,27,050,,05,59,056,,09,29,154,,10,01,105,,0*69
$GPGSV,3,2,11,12,48,067,,14,24,260,,21,14,191,,24,45,156,,0*67
$GPGSV,3,3,11,29,67,277,,30,61,358,,31,23,318,,0*5E
$GAGSV,3,1,11,05,04,245,,06,50,269,,07,60,017,,08,14,051,,0*74
$GAGSV,3,2,11,12,03,149,,13,09,102,,14,02,055,,17,33,161,,0*76
$GAGSV,3,3,11,23,34,315,,24,73,236,,26,27,254,,0*42
$GBGSV,4,1,13,01,37,125,34,02,57,175,34,04,41,124,34,06,33,198,34,0*70
$GBGSV,4,2,13,08,26,308,,15,36,218,34,19,12,177,34,20,17,110,,0*70
$GBGSV,4,3,13,25,56,232,34,26,45,043,34,27,56,137,34,29,49,038,34,0*79

$GNRMC,080545.00,A,3114.06711,N,12130.00038,E,104.542,0.17,200821,6.14,W,A,V*49
$GNVTG,0.17,T,6.31,M,104.542,N,193.612,K,A*37
$GNGGA,080545.00,3114.06711,N,12130.00038,E,1,10,1.23,39.3,M,9.9,M,,*4A
$GNGSA,A,3,,,,,,,,,,,,,2.42,1.23,2.08,1*0F
$GNGSA,A,3,,,,,,,,,,,,,2.42,1.23,2.08,3*0D
$GNGSA,A,3,04,29,15,26,25,06,02,27,01,19,,,2.42,1.23,2.08,4*0A
$GPGSV,3,1,11,02,27,050,,05,59,056,,09,29,154,,10,01,105,,0*69
$GPGSV,3,2,11,12,48,067,,14,24,260,,21,14,191,,24,45,156,,0*67
$GPGSV,3,3,11,29,67,277,,30,61,358,,31,23,318,,0*5E
$GAGSV,3,1,11,05,04,245,,06,50,269,,07,60,017,,08,14,051,,0*74
$GAGSV,3,2,11,12,03,149,,13,09,102,,14,02,055,,17,33,161,,0*76
$GAGSV,3,3,11,23,34,315,,24,73,236,,26,27,254,,0*42
$GBGSV,4,1,13,01,37,125,34,02,57,175,34,04,41,124,34,06,33,198,34,0*70
$GBGSV,4,2,13,08,26,308,,15,36,218,34,19,12,177,34,20,17,110,,0*70
$GBGSV,4,3,13,25,56,232,34,26,45,043,34,27,56,137,34,29,49,038,34,0*79
$GBGSV,4,4,13,30,25,057,,0*43
$GNGLL,3114.06711,N,12130.00038,E,080545.00,A,A*77

$GNRMC,080546.00,A,3114.10005,N,12130.00037,E,131.279,0.12,200821,6.14,W,A,V*4C
$GNVTG,0.12,T,6.26,M,131.279,N,243.129,K,A*3C
$GNGGA,080546.00,3114.10005,N,12130.00037,E,1,10,1.23,39.3,M,9.9,M,,*43
$GNGSA,A,3,,,,,,,,,,,,,2.42,1.23,2.08,1*0F
$GNGSA,A,3,,,,,,,,,,,,,2.42,1.23,2.08,3*0D
$GNGSA,A,3,04,29,15,26,25,06,02,27,01,19,,,2.42,1.23,2.08,4*0A
$GPGSV,3,1,11,02,27,050,,05,59,056,,09,29,154,,10,01,105,,0*69
$GPGSV,3,2,11,12,48,067,,14,24,260,,21,14,191,,24,45,156,,0*67
$GPGSV,3,3,11,29,67,277,,30,61,358,,31,23,318,,0*5E
$GAGSV,3,1,11,05,04,245,,06,50,269,,07,60,017,,08,14,051,,0*74
$GAGSV,3,2,11,12,03,149,,13,09,102,,14,02,055,,17,33,161,,0*76
$GAGSV,3,3,11,23,34,315,,24,73,236,,26,27,254,,0*42
$GBGSV,4,1,13,01,37,125,34,02,57,175,34,04,41,124,34,06,33,198,34,0*70
$GBGSV,4,2,13,08,26,308,,15,36,218,34,19,12,177,34,20,17,110,,0*70
$GBGSV,4,3,13,25,56,232,34,26,45,043,34,27,56,137,34,29,49,038,34,0*79

$GNRMC,080547.00,A,3114.14042,N,12130.00039,E,157.955,0.10,200821,6.14,W,A,V*43
$GNVTG,0.10,T,6.24,M,157.955,N,292.532,K,A*3B
$GNGGA,080547.00,3114.14042,N,12130.00039,E,1,10,1.23,39.3,M,9.9,M,,*4B
$GNGSA,A,3,,,,,,,,,,,,,2.42,1.23,2.08,1*0F
$GNGSA,A,3,,,,,,,,,,,,,2.42,1.23,2.08,3*0D
$GNGSA,A,3,04,29,15,26,25,06,02,27,01,19,,,2.42,1.23,2.08,4*0A
$GPGSV,3,1,11,02,27,050,,05,59,056,,09,29,154,,10,01,105,,0*69
$GPGSV,3,2,11,12,48,067,,14,24,260,,21,14,191,,24,45,156,,0*67
$GPGSV,3,3,11,29,67,277,,30,61,358,,31,23,318,,0*5E
$GAGSV,3,1,11,05,04,245,,06,50,269,,07,60,017,,08,14,051,,0*74
$GAGSV,3,2,11,12,03,149,,13,09,102,,14,02,055,,17,33,161,,0*76
$GAGSV,3,3,11,23,34,315,,24,73,236,,26,27,254,,0*42
$GBGSV,4,1,13,01,37,125,34,02,57,175,34,04,41,124,34,06,33,198,34,0*70
$GBGSV,4,2,13,08,26,308,,15,36,218,34,19,12,177,34,20,17,110,,0*70
$GBGSV,4,3,13,25,56,232,34,26,45,043,34,27,56,137,34,29,49,038,34,0*79
$GBGSV,4,4,13,30,25,057,,0*43

$GNRMC,080548.00,A,3114.18503,N,12130.00044,E,161.837,0.03,200821,6.14,W,A,V*48
$GNVTG,0.03,T,6.17,M,161.837,N,299.722,K,A*31
$GNGGA,080548.00,3114.18503,N,12130.00044,E,1,10,1.23,39.3,M,9.9,M,,*42
$GNGSA,A,3,,,,,,,,,,,,,2.42,1.23,2.08,1*0F
$GNGSA,A,3,,,,,,,,,,,,,2.42,1.23,2.08,3*0D
$GNGSA,A,3,04,29,15,26,25,06,02,27,01,19,,,2.42,1.23,2.08,4*0A
$GPGSV,3,1,11,02,27,050,,05,59,056,,09,29,154,,10,01,105,,0*69
$GPGSV,3,2,11,12,48,067,,14,24,260,,21,14,191,,24,45,156,,0*67
$GPGSV,3,3,11,29,67,277,,30,61,358,,31,23,318,,0*5E
$GAGSV,3,1,11,05,04,246,,06,50,269,,07,60,017,,08,14,051,,0*77
$GAGSV,3,2,11,12,03,149,,13,09,102,,14,02,055,,17,33,161,,0*76
$GAGSV,3,3,11,23,34,315,,24,73,236,,26,27,254,,0*42
$GBGSV,4,1,13,01,37,125,34,02,57,175,34,04,41,124,34,06,33,198,34,0*70
$GBGSV,4,2,13,08,26,308,,15,36,218,34,19,12,177,34,20,17,110,,0*70
$GBGSV,4,3,13,25,56,232,34,26,45,043,34,27,56,137,34,29,49,038,34,0*79
$GNTXT,01,01,00,txbuf alloc*61

$GNRMC,080549.00,A,3114.23014,N,12130.00045,E,162.128,359.95,200821,6.14,W,A,V*47
$GNVTG,359.95,T,6.09,M,162.128,N,300.262,K,A*3A
$GNGGA,080549.00,3114.23014,N,12130.00045,E,1,10,1.23,39.4,M,9.9,M,,*4E
$GNGSA,A,3,,,,,,,,,,,,,2.42,1.23,2.08,1*0F
$GNGSA,A,3,,,,,,,,,,,,,2.42,1.23,2.08,3*0D
$GNGSA,A,3,04,29,15,26,25,06,02,27,01,19,,,2.42,1.23,2.08,4*0A
$GPGSV,3,1,11,02,27,050,,05,59,056,,09,29,154,,10,01,105,,0*69
$GPGSV,3,2,11,12,48,067,,14,24,260,,21,14,191,,24,45,156,,0*67
$GPGSV,3,3,11,29,67,277,,30,61,358,,31,23,318,,0*5E
$GAGSV,3,1,11,05,04,246,,06,50,270,,07,60,017,,08,14,051,,0*7F
$GAGSV,3,2,11,12,03,149,,13,09,102,,14,02,055,,17,33,161,,0*76
$GAGSV,3,3,11,23,34,315,,24,73,236,,26,27,254,,0*42
$GBGSV,4,1,13,01,37,125,34,02,57,175,34,04,41,124,34,06,33,198,34,0*70
$GBGSV,4,2,13,08,26,308,,15,36,218,34,19,12,177,34,20,17,110,,0*70
$GBGSV,4,3,13,25,56,232,34,26,45,043,34,27,56,137,34,29,49,038,34,0*79
$GBGSV,4,4,13,30,25,057,,0*43

$GNRMC,080550.00,A,3114.27527,N,12130.00043,E,162.126,359.96,200821,6.14,W,A,V*45
$GNVTG,359.96,T,6.10,M,162.126,N,300.257,K,A*39
$GNGGA,080550.00,3114.27527,N,12130.00043,E,1,10,1.23,39.4,M,9.9,M,,*41
$GNGSA,A,3,,,,,,,,,,,,,2.42,1.23,2.08,1*0F
$GNGSA,A,3,,,,,,,,,,,,,2.42,1.23,2.08,3*0D
$GNGSA,A,3,04,29,15,26,25,06,02,27,01,19,,,2.42,1.23,2.08,4*0A
$GPGSV,3,1,11,02,27,050,,05,59,056,,09,29,154,,10,01,105,,0*69
$GPGSV,3,2,11,12,48,067,,14,24,260,,21,14,191,,24,45,156,,0*67
$GPGSV,3,3,11,29,67,277,,30,61,358,,31,23,318,,0*5E
$GAGSV,3,1,11,05,04,246,,06,50,270,,07,59,018,,08,14,051,,0*7A
$GAGSV,3,2,11,12,03,149,,13,09,102,,14,02,055,,17,33,161,,0*76
$GAGSV,3,3,11,23,34,315,,24,73,236,,26,27,254,,0*42
$GBGSV,4,1,13,01,37,125,34,02,57,175,34,04,41,124,34,06,33,198,34,0*70
$GBGSV,4,2,13,08,26,308,,15,36,218,34,19,12,177,34,20,17,110,,0*70
$GBGSV,4,3,13,25,56,232,34,26,45,043,34,27,56,137,34,29,49,038,34,0*79
$GBGSV,4,4,13,30,25,057,,0*43

$GNRMC,080551.00,A,3114.32040,N,12130.00038,E,162.024,0.00,200821,6.14,W,A,V*4B
$GNVTG,0.00,T,6.14,M,162.024,N,300.068,K,A*30
$GNGGA,080551.00,3114.32040,N,12130.00038,E,1,10,1.23,39.4,M,9.9,M,,*4C
$GNGSA,A,3,,,,,,,,,,,,,2.42,1.23,2.08,1*0F
$GNGSA,A,3,,,,,,,,,,,,,2.42,1.23,2.08,3*0D
$GNGSA,A,3,04,29,15,26,25,06,02,27,01,19,,,2.42,1.23,2.08,4*0A
$GPGSV,3,1,11,02,27,050,,05,59,056,,09,29,154,,10,01,105,,0*69
$GPGSV,3,2,11,12,48,067,,14,24,260,,21,14,191,,24,45,156,,0*67
$GPGSV,3,3,11,29,67,277,,30,61,358,,31,23,318,,0*5E
$GAGSV,3,1,11,05,04,246,,06,50,270,,07,59,018,,08,14,052,,0*79
$GAGSV,3,2,11,12,03,149,,13,09,102,,14,02,055,,17,33,161,,0*76
$GAGSV,3,3,11,23,34,315,,24,73,236,,26,27,254,,0*42
$GBGSV,4,1,13,01,37,125,34,02,57,175,34,04,41,124,34,06,33,198,34,0*70
$GBGSV,4,2,13,08,26,308,,15,36,218,34,19,12,177,34,20,17,110,,0*70
$GBGSV,4,3,13,25,56,232,34,26,45,043,34,27,56,137,34,29,49,038,34,0*79
$GBGSV,4,4,13,30,25,057,,0*43

$GNRMC,080552.00,A,3114.36523,N,12130.00034,E,159.776,359.99,200821,6.14,W,A,V*47
$GNVTG,359.99,T,6.13,M,159.776,N,295.906,K,A*3C
$GNGGA,080552.00,3114.36523,N,12130.00034,E,1,10,1.23,39.4,M,9.9,M,,*47
$GNGSA,A,3,,,,,,,,,,,,,2.42,1.23,2.08,1*0F
$GNGSA,A,3,,,,,,,,,,,,,2.42,1.23,2.08,3*0D
$GNGSA,A,3,04,29,15,26,25,06,02,27,01,19,,,2.42,1.23,2.08,4*0A
$GPGSV,3,1,11,02,27,050,,05,59,056,,09,29,154,,10,01,105,,0*69
$GPGSV,3,2,11,12,48,067,,14,24,260,,21,14,191,,24,45,156,,0*67
$GPGSV,3,3,11,29,67,277,,30,61,358,,31,23,318,,0*5E
$GAGSV,3,1,11,05,04,246,,06,50,270,,07,59,018,,08,14,052,,0*79
$GAGSV,3,2,11,12,03,149,,13,09,102,,14,02,055,,17,33,161,,0*76
$GAGSV,3,3,11,23,34,315,,24,73,236,,26,27,254,,0*42
$GBGSV,4,1,13,01,37,125,34,02,57,175,34,04,41,124,34,06,33,198,34,0*70
$GBGSV,4,2,13,08,26,308,,15,36,218,34,19,12,177,34,20,17,110,,0*70
$GBGSV,4,3,13,25,56,232,34,26,45,043,34,27,56,137,34,29,49,038,34,0*79
$GBGSV,4,4,13,30,25,057,,0*43

$GNRMC,080553.00,A,3114.40609,N,12130.00031,E,133.958,359.92,200821,6.14,W,A,V*4C
$GNVTG,359.92,T,6.07,M,133.958,N,248.091,K,A*3B
$GNGGA,080553.00,3114.40609,N,12130.00031,E,1,10,1.23,39.4,M,9.9,M,,*49
$GNGSA,A,3,,,,,,,,,,,,,2.42,1.23,2.08,1*0F
$GNGSA,A,3,,,,,,,,,,,,,2.42,1.23,2.08,3*0D
$GNGSA,A,3,04,29,15,26,25,06,02,27,01,19,,,2.42,1.23,2.08,4*0A
$GPGSV,3,1,11,02,27,050,,05,59,056,,09,29,154,,10,01,105,,0*69
$GPGSV,3,2,11,12,48,067,,14,24,260,,21,14,191,,24,45,156,,0*67
$GPGSV,3,3,11,29,67,277,,30,61,358,,31,23,318,,0*5E
$GAGSV,3,1,11,05,04,246,,06,50,270,,07,59,018,,08,14,052,,0*79
$GAGSV,3,2,11,12,03,149,,13,09,102,,14,02,055,,17,33,161,,0*76
$GAGSV,3,3,11,23,34,315,,24,73,236,,26,27,254,,0*42
$GBGSV,4,1,13,01,37,125,34,02,57,175,34,04,41,124,34,06,33,198,34,0*70
$GBGSV,4,2,13,08,26,308,,15,36,218,34,19,12,177,34,20,17,110,,0*70
$GBGSV,4,3,13,25,56,232,34,26,45,043,34,27,56,137,34,29,49,038,34,0*79
$GNTXT,01,01,00,txbuf alloc*61

$GNRMC,080554.00,A,3114.43959,N,12130.00029,E,107.214,359.92,200821,6.14,W,A,V*4F
$GNVTG,359.92,T,6.07,M,107.214,N,198.561,K,A*3B
$GNGGA,080554.00,3114.43959,N,12130.00029,E,1,10,1.23,39.4,M,9.9,M,,*4E
$GNGSA,A,3,,,,,,,,,,,,,2.42,1.23,2.08,1*0F
$GNGSA,A,3,,,,,,,,,,,,,2.42,1.23,2.08,3*0D
$GNGSA,A,3,04,29,15,26,25,06,02,27,01,19,,,2.42,1.23,2.08,4*0A
$GPGSV,3,1,11,02,27,050,,05,59,056,,09,29,154,,10,01,105,,0*69
$GPGSV,3,2,11,12,48,067,,14,24,260,,21,14,191,,24,45,156,,0*67
$GPGSV,3,3,11,29,67,277,,30,61,358,,31,23,318,,0*5E
$GAGSV,3,1,11,05,04,246,,06,50,270,,07,59,018,,08,14,052,,0*79
$GAGSV,3,2,11,12,03,149,,13,09,102,,14,02,055,,17,33,161,,0*76
$GAGSV,3,3,11,23,34,315,,24,73,236,,26,27,254,,0*42
$GBGSV,4,1,13,01,37,125,34,02,57,175,34,04,41,124,34,06,33,198,34,0*70
$GBGSV,4,2,13,08,26,308,,15,36,218,34,19,12,177,34,20,17,110,,0*70
$GBGSV,4,3,13,25,56,232,34,26,45,043,34,27,56,137,34,29,49,038,34,0*79
$GBGSV,4,4,13,30,25,057,,0*43

$GNRMC,080555.00,A,3114.46563,N,12130.00027,E,80.547,359.85,200821,6.14,W,A,V*79
$GNVTG,359.85,T,5.99,M,80.547,N,149.174,K,A*0A
$GNGGA,080555.00,3114.46563,N,12130.00027,E,1,10,1.23,39.4,M,9.9,M,,*41
$GNGSA,A,3,,,,,,,,,,,,,2.42,1.23,2.08,1*0F
$GNGSA,A,3,,,,,,,,,,,,,2.42,1.23,2.08,3*0D
$GNGSA,A,3,04,29,15,26,25,06,02,27,01,19,,,2.42,1.23,2.08,4*0A
$GPGSV,3,1,11,02,27,050,,05,59,056,,09,29,154,,10,01,105,,0*69
$GPGSV,3,2,11,12,48,067,,14,24,260,,21,14,191,,24,45,156,,0*67
$GPGSV,3,3,11,29,67,277,,30,61,358,,31,23,318,,0*5E
$GAGSV,3,1,11,05,04,246,,06,50,270,,07,59,018,,08,14,052,,0*79
$GAGSV,3,2,11,12,03,149,,13,09,102,,14,02,055,,17,33,161,,0*76
$GAGSV,3,3,11,23,34,315,,24,73,236,,26,27,254,,0*42
$GBGSV,4,1,13,01,37,125,34,02,57,175,34,04,41,124,34,06,33,198,34,0*70
$GBGSV,4,2,13,08,26,308,,15,36,218,34,19,12,177,34,20,17,110,,0*70
$GBGSV,4,3,13,25,56,232,34,26,45,043,34,27,56,137,34,29,49,038,34,0*79
$GBGSV,4,4,13,30,25,057,,0*43

$GNRMC,080556.00,A,3114.48425,N,12130.00024,E,53.844,359.73,200821,6.14,W,A,V*7D
$GNVTG,359.73,T,5.87,M,53.844,N,99.719,K,A*3D
$GNGGA,080556.00,3114.48425,N,12130.00024,E,1,10,1.23,39.4,M,9.9,M,,*4C
$GNGSA,A,3,,,,,,,,,,,,,2.42,1.23,2.08,1*0F
$GNGSA,A,3,,,,,,,,,,,,,2.42,1.23,2.08,3*0D
$GNGSA,A,3,04,29,15,26,25,06,02,27,01,19,,,2.42,1.23,2.08,4*0A
$GPGSV,3,1,11,02,27,050,,05,59,056,,09,29,154,,10,01,105,,0*69
$GPGSV,3,2,11,12,48,067,,14,24,260,,21,14,191,,24,45,156,,0*67
$GPGSV,3,3,11,29,67,277,,30,61,358,,31,23,318,,0*5E
$GAGSV,3,1,11,05,04,246,,06,50,270,,07,59,018,,08,14,052,,0*79
$GAGSV,3,2,11,12,03,149,,13,09,101,,14,02,055,,17,33,161,,0*75
$GAGSV,3,3,11,23,34,315,,24,73,236,,26,27,254,,0*42
$GBGSV,4,1,13,01,37,125,34,02,57,175,34,04,41,124,34,06,33,198,34,0*70
$GBGSV,4,2,13,08,26,308,,15,36,218,34,19,12,177,34,20,17,110,,0*70
$GBGSV,4,3,13,25,56,232,34,26,45,043,34,27,56,137,34,29,49,038,34,0*79
$GBGSV,4,4,13,30,25,057,,0*43

$GNRMC,080557.00,A,3114.49539,N,12130.00023,E,27.083,359.53,200821,6.14,W,A,V*74
$GNVTG,359.53,T,5.68,M,27.083,N,50.159,K,A*39
$GNGGA,080557.00,3114.49539,N,12130.00023,E,1,10,1.23,39.4,M,9.9,M,,*47
$GNGSA,A,3,,,,,,,,,,,,,2.42,1.23,2.08,1*0F
$GNGSA,A,3,,,,,,,,,,,,,2.42,1.23,2.08,3*0D
$GNGSA,A,3,04,29,15,26,25,06,02,27,01,19,,,2.42,1.23,2.08,4*0A
$GPGSV,3,1,11,02,27,050,,05,59,056,,09,29,154,,10,01,105,,0*69
$GPGSV,3,2,11,12,48,067,,14,24,260,,21,14,191,,24,45,156,,0*67
$GPGSV,3,3,11,29,67,277,,30,61,358,,31,23,318,,0*5E
$GAGSV,3,1,11,05,04,246,,06,50,270,,07,59,018,,08,14,052,,0*79
$GAGSV,3,2,11,12,03,149,,13,09,101,,14,02,055,,17,33,161,,0*75
$GAGSV,3,3,11,23,34,315,,24,73,236,,26,27,254,,0*42
$GBGSV,4,1,13,01,37,125,34,02,57,175,34,04,41,124,34,06,33,198,34,0*70
$GBGSV,4,2,13,08,26,308,,15,36,218,34,19,12,177,34,20,17,110,,0*70
$GBGSV,4,3,13,25,56,232,34,26,45,043,34,27,56,137,34,29,49,038,34,0*79
$GBGSV,4,4,13,30,25,057,,0*43

$GNRMC,080558.00,A,3114.50126,N,12130.00085,E,16.372,13.71,200821,6.14,W,A,V*47
$GNVTG,13.71,T,19.85,M,16.372,N,30.321,K,A*3E
$GNGGA,080558.00,3114.50126,N,12130.00085,E,1,10,1.23,39.4,M,9.9,M,,*46
$GNGSA,A,3,,,,,,,,,,,,,2.42,1.23,2.08,1*0F
$GNGSA,A,3,,,,,,,,,,,,,2.42,1.23,2.08,3*0D
$GNGSA,A,3,04,29,15,26,25,06,02,27,01,19,,,2.42,1.23,2.08,4*0A
$GPGSV,3,1,11,02,27,050,,05,59,056,,09,29,154,,10,01,105,,0*69
$GPGSV,3,2,11,12,48,067,,14,24,260,,21,14,191,,24,45,156,,0*67
$GPGSV,3,3,11,29,67,277,,30,61,358,,31,23,318,,0*5E
$GAGSV,3,1,11,05,04,246,,06,50,270,,07,59,018,,08,14,052,,0*79
$GAGSV,3,2,11,12,03,149,,13,09,101,,14,02,055,,17,33,161,,0*75
$GAGSV,3,3,11,23,34,315,,24,73,236,,26,27,254,,0*42
$GBGSV,4,1,13,01,37,125,34,02,57,175,34,04,41,124,34,06,33,198,34,0*70
$GBGSV,4,2,13,08,26,308,,15,36,218,34,19,12,177,34,20,17,110,,0*70
$GBGSV,4,3,13,25,56,232,34,26,45,043,34,27,56,137,34,29,49,038,34,0*79
$GNTXT,01,01,00,txbuf alloc*61

$GNRMC,080559.00,A,3114.50517,N,12130.00313,E,16.221,37.45,200821,6.14,W,A,V*4A
$GNVTG,37.45,T,43.60,M,16.221,N,30.042,K,A*3A
$GNGGA,080559.00,3114.50517,N,12130.00313,E,1,10,1.23,39.5,M,9.9,M,,*4C
$GNGSA,A,3,,,,,,,,,,,,,2.42,1.23,2.08,1*0F
$GNGSA,A,3,,,,,,,,,,,,,2.42,1.23,2.08,3*0D
$GNGSA,A,3,04,29,15,26,25,06,02,27,01,19,,,2.42,1.23,2.08,4*0A
$GPGSV,3,1,11,02,27,050,,05,59,056,,09,29,154,,10,01,105,,0*69
$GPGSV,3,2,11,12,48,067,,14,24,260,,21,14,191,,24,45,156,,0*67
$GPGSV,3,3,11,29,67,277,,30,61,358,,31,23,318,,0*5E
$GAGSV,3,1,11,05,04,246,,06,50,270,,07,59,018,,08,14,052,,0*79
$GAGSV,3,2,11,12,03,149,,13,09,101,,14,02,055,,17,33,161,,0*75
$GAGSV,3,3,11,23,34,315,,24,73,236,,26,27,254,,0*42
$GBGSV,4,1,13,01,37,125,34,02,57,175,34,04,41,124,34,06,33,198,34,0*70
$GBGSV,4,2,13,08,26,308,,15,36,218,34,19,12,177,34,20,17,110,,0*70
$GBGSV,4,3,13,25,56,232,34,26,45,043,34,27,56,137,34,29,49,038,34,0*79
$GBGSV,4,4,13,30,25,057,,0*43

$GNRMC,080600.00,A,3114.50796,N,12130.00707,E,16.109,61.20,200821,6.14,W,A,V*46
$GNVTG,61.20,T,67.35,M,16.109,N,29.834,K,A*34
$GNGGA,080600.00,3114.50796,N,12130.00707,E,1,10,1.23,39.4,M,9.9,M,,*48
$GNGSA,A,3,,,,,,,,,,,,,2.42,1.23,2.08,1*0F
$GNGSA,A,3,,,,,,,,,,,,,2.42,1.23,2.08,3*0D
$GNGSA,A,3,04,29,15,26,25,06,02,27,01,19,,,2.42,1.23,2.08,4*0A
$GPGSV,3,1,11,02,27,050,,05,59,056,,09,29,154,,10,01,105,,0*69
$GPGSV,3,2,11,12,48,067,,14,24,260,,21,14,191,,24,45,156,,0*67
$GPGSV,3,3,11,29,67,277,,30,61,358,,31,23,318,,0*5E
$GAGSV,3,1,11,05,04,246,,06,50,270,,07,59,018,,08,14,052,,0*79
$GAGSV,3,2,11,12,03,149,,13,09,101,,14,02,055,,17,32,161,,0*74
$GAGSV,3,3,11,23,34,315,,24,73,236,,26,27,254,,0*42
$GBGSV,4,1,13,01,37,125,34,02,57,175,34,04,41,124,34,06,33,198,34,0*70
$GBGSV,4,2,13,08,26,308,,15,36,218,34,19,12,177,34,20,17,110,,0*70
$GBGSV,4,3,13,25,56,232,34,26,45,043,34,27,56,137,34,29,49,038,34,0*79
$GBGSV,4,4,13,30,25,057,,0*43

$GNRMC,080601.00,A,3114.50915,N,12130.01198,E,16.059,85.39,200821,6.14,W,A,V*45
$GNVTG,85.39,T,91.53,M,16.059,N,29.742,K,A*35
$GNGGA,080601.00,3114.50915,N,12130.01198,E,1,10,1.23,39.4,M,9.9,M,,*4D
$GNGSA,A,3,,,,,,,,,,,,,2.42,1.23,2.08,1*0F
$GNGSA,A,3,,,,,,,,,,,,,2.42,1.23,2.08,3*0D
$GNGSA,A,3,04,29,15,26,25,06,02,27,01,19,,,2.42,1.23,2.08,4*0A
$GPGSV,3,1,11,02,27,050,,05,59,056,,09,29,154,,10,01,105,,0*69
$GPGSV,3,2,11,12,48,067,,14,24,260,,21,14,191,,24,45,156,,0*67
$GPGSV,3,3,11,29,67,277,,30,61,358,,31,23,318,,0*5E
$GAGSV,3,1,11,05,04,246,,06,50,270,,07,59,018,,08,14,052,,0*79
$GAGSV,3,2,11,12,03,149,,13,09,101,,14,02,055,,17,32,161,,0*74
$GAGSV,3,3,11,23,34,315,,24,73,236,,26,27,254,,0*42
$GBGSV,4,1,13,01,37,125,34,02,57,175,34,04,41,124,34,06,33,198,34,0*70
$GBGSV,4,2,13,08,26,308,,15,36,218,34,19,12,177,34,20,17,110,,0*70
$GBGSV,4,3,13,25,56,232,34,26,45,043,34,27,56,137,34,29,49,038,34,0*79
$GBGSV,4,4,13,30,25,057,,0*43

$GNRMC,080602.00,A,3114.50926,N,12130.02090,E,38.256,89.76,200821,6.14,W,A,V*4A
$GNVTG,89.76,T,95.90,M,38.256,N,70.850,K,A*38
$GNGGA,080602.00,3114.50926,N,12130.02090,E,1,10,1.23,39.4,M,9.9,M,,*44
$GNGSA,A,3,,,,,,,,,,,,,2.42,1.23,2.08,1*0F
$GNGSA,A,3,,,,,,,,,,,,,2.42,1.23,2.08,3*0D
$GNGSA,A,3,04,29,15,26,25,06,02,27,01,19,,,2.42,1.23,2.08,4*0A
$GPGSV,3,1,11,02,27,050,,05,59,056,,09,29,154,,10,01,105,,0*69
$GPGSV,3,2,11,12,48,067,,14,24,260,,21,14,191,,24,45,156,,0*67
$GPGSV,3,3,11,29,67,277,,30,61,358,,31,23,318,,0*5E
$GAGSV,3,1,11,05,04,246,,06,50,270,,07,59,018,,08,14,052,,0*79
$GAGSV,3,2,11,12,03,149,,13,09,101,,14,02,055,,17,32,161,,0*74
$GAGSV,3,3,11,23,34,315,,24,73,236,,26,27,254,,0*42
$GBGSV,4,1,13,01,37,125,34,02,57,175,35,04,41,124,34,06,33,198,34,0*71
$GBGSV,4,2,13,08,26,308,,15,36,218,34,19,12,177,34,20,17,110,,0*70
$GBGSV,4,3,13,25,56,232,34,26,45,043,34,27,56,137,34,29,49,038,34,0*79
$GBGSV,4,4,13,30,25,057,,0*43

$GNRMC,080603.00,A,3114.50925,N,12130.03774,E,64.930,89.87,200821,6.14,W,A,V*48
$GNVTG,89.87,T,96.02,M,64.930,N,120.250,K,A*02
$GNGGA,080603.00,3114.50925,N,12130.03774,E,1,10,1.23,39.3,M,9.9,M,,*4D
$GNGSA,A,3,,,,,,,,,,,,,2.42,1.23,2.08,1*0F
$GNGSA,A,3,,,,,,,,,,,,,2.42,1.23,2.08,3*0D
$GNGSA,A,3,04,29,15,26,25,06,02,27,01,19,,,2.42,1.23,2.08,4*0A
$GPGSV,3,1,11,02,27,050,,05,59,056,,09,29,154,,10,01,105,,0*69
$GPGSV,3,2,11,12,48,067,,14,24,260,,21,14,191,,24,45,156,,0*67
$GPGSV,3,3,11,29,67,277,,30,61,358,,31,23,318,,0*5E
$GAGSV,3,1,11,05,04,246,,06,50,270,,07,59,018,,08,14,052,,0*79
$GAGSV,3,2,11,12,03,149,,13,09,101,,14,02,055,,17,32,161,,0*74
$GAGSV,3,3,11,23,34,315,,24,73,236,,26,27,254,,0*42
$GBGSV,4,1,13,01,37,125,34,02,57,175,34,04,41,124,35,06,33,198,34,0*71
$GBGSV,4,2,13,08,26,308,,15,36,218,34,19,12,177,35,20,17,110,,0*71
$GBGSV,4,3,13,25,56,232,34,26,45,043,34,27,56,137,34,29,49,038,34,0*79
$GNTXT,01,01,00,txbuf alloc*61

$GNRMC,080604.00,A,3114.50922,N,12130.06324,E,91.674,89.90,200821,6.14,W,A,V*4F
$GNVTG,89.90,T,96.05,M,91.674,N,169.781,K,A*02
$GNGGA,080604.00,3114.50922,N,12130.06324,E,1,10,1.23,39.3,M,9.9,M,,*49
$GNGSA,A,3,,,,,,,,,,,,,2.42,1.23,2.09,1*0E
$GNGSA,A,3,,,,,,,,,,,,,2.42,1.23,2.09,3*0C
$GNGSA,A,3,04,29,15,26,25,06,02,27,01,19,,,2.42,1.23,2.09,4*0B
$GPGSV,3,1,11,02,27,050,,05,59,056,,09,29,154,,10,01,105,,0*69
$GPGSV,3,2,11,12,48,067,,14,24,260,,21,14,191,,24,45,156,,0*67
$GPGSV,3,3,11,29,67,277,,30,61,358,,31,23,318,,0*5E
$GAGSV,3,1,11,05,04,246,,06,50,270,,07,59,018,,08,14,052,,0*79
