,23,259,,21,14,190,,24,45,155,,29,66,277,,0*6D
$GPGSV,4,3,14,30,60,357,,31,22,317,,42,48,147,,50,45,139,,0*63
$GPGSV,4,4,14,40,11,257,,41,34,237,,0*60
$GBGSV,3,1,12,01,37,125,35,02,56,174,35,04,40,123,34,06,33,197,35,0*7E
$GBGSV,3,2,12,15,36,218,35,19,11,176,35,25,55,232,35,26,44,043,35,0*70
$GBGSV,3,3,12,27,55,136,35,29,48,037,35,08,26,308,,20,16,109,,0*7C
$GAGSV,3,1,11,05,04,245,,06,50,270,,07,59,017,,08,14,051,,0*76
$GAGSV,3,2,11,12,03,148,,13,09,101,,14,01,054,,17,32,160,,0*76
$GAGSV,3,3,11,23,33,314,,24,73,235,,26,26,254,,0*46

*06
$GNGSA,A,3,,,,,,,,,,,,,2.41,1.23,2.07,3*01
$GPGSV,4,1,14,02,27,050,,05,58,055,,09,28,153,,12,48,066,,0*64
$GPGSV,4,2,14,14,23,259,,21,14,190,,24,45,155,,29,66,277,,0*6D
$GPGSV,4,3,14,30,60,357,,31,22,317,,42,48,147,,50,45,139,,0*63
$GPGSV,4,4,14,40,11,257,,41,34,237,,0*60
$GBGSV,3,1,12,01,37,125,35,02,56,174,35,04,40,123,35,06,33,197,35,0*7F
$G
BGSV,3,2,12,15,36,218,35,19,11,176,35,25,55,232,35,26,44,043,35,0*70
$GBGSV,3,3,12,27,55,136,35,29,48,037,35,08,26,308,,20,16,109,,0*7C
$GAGSV,3,1,11,05,04,245,,06,50,270,,07,59,017,,08,14,051,,0*76
$GAGSV,3,2,11,12,03,148,,13,09,101,,14,01,054,,17,32,160,,0*76
$GAGSV,3,3,11,23,33,314,,24,73,235,,26,26,254,,0*46

$GNRMC,080520.00,A,3113.99885,N,12130.81328,E,117.149,270.34,200821,,,A,V*01
$GNGGA,080520.00,3113.99885,N,12130.81328,E,1,10,1.23,52.0,M,,M,,*61
$GNGSA,A,3,,,,,,,,,,,,,2.41,1.23,2.07,1*03
$GNGSA,A,3,19,25,26,27,29,06,15,01,04,02,,,2.41,1.23,2.07,4*06
$GNGSA,A,3,,,,,,,,,,,,,2.41,1.23,2.07,3*01
$GPGSV,4,1,14,02,27,050,,05,58,055,,09,28,153,,12,48,066,,0*64
$GPGSV,4,2,14,14,23,259,,21,14,190,,24,45,155,,29,66,277,,0*6D

$GPGSV,4,3,14,30,60,357,,31,22,317,,42,48,147,,50,45,139,,0*63
$GPGSV,4,4,14,40,11,257,,41,34,237,,0*60
$GBGSV,3,1,12,01,37,125,35,02,56,174,35,04,40,123,35,06,33,197,35,0*7F
$GBGSV,3,2,12,15,36,218,34,19,11,176,35,25,55,232,35,26,44,043,35,0*71
$GBGSV,3,3,12,27,55,136,35,29,48,037,35,08,26,308,,20,16,109,,0*7C
$GAGSV,3,1,11,05,04,245,,06,50,270,,07,59,017,,08,14,051,,0*76
$GAGSV,3,2,11,12,03,148,,13,09,101,,14,01,054,,17,32,160,,0*76
$GAGSV,3,3,11,23,33,314,,24,73,235,,26,26,254,,0*46

$GNRMC,080521.00,A,3113.99920,N,12130.77052,E,144.125,269.93,200821,,,A,V*00
$GNGGA,080521.00,3113.99920,N,12130.77052,E,1,10,1.23,51.7,M,,M,,*6D
$GNGSA,A,3,,,,,,,,,,,,,2.41,1.23,2.07,1*03
$GNGSA,A,3,19,25,26,27,29,06,15,01,04,02,,,2.41,1.23,2.07,4*06
$GNGSA,A,3,,,,,,,,,,,,,2.41,1.23,2.07,3*01
$GPGSV,4,1,14,02,27,050,,05,58,055,,09,28,153,,1
2,48,066,,0*64
$GPGSV,4,2,14,14,23,259,,21,14,190,,24,45,155,,29,66,277,,0*6D
$GPGSV,4,3,14,30,60,357,,31,22,317,,42,48,147,,50,45,139,,0*63
$GPGSV,4,4,14,40,11,257,,41,34,237,,0*60
$GBGSV,3,1,12,01,37,125,36,02,56,174,35,04,40,123,35,06,33,197,35,0*7C
$GBGSV,3,2,12,15,36,218,35,19,11,176,35,25,55,232,35,26,44,043,35,0*70
$GBGSV,3,3,12,27,55,136,35,29,48,037,35,08,26,308,,20,16,109,,0*7C
$GAGSV,3,1,11,05,04,245,,06,50,270,,07,59,017,,08,13,051,,0*71
$GAGSV,3,2,11,12,03,148,,13,09,101,,14,01,054,,17,32,160,,0*76
$GAGSV,3,3,11,23,33,314,,24,73,235,,26,26,254,,0*46

$GNRMC,080522.00,A,3113.99917,N,12130.72003,E,166.267,269.83,200821,,,A,V*02
$GNGGA,080522.00,3113.99917,N,12130.72003,E,1,10,1.23,51.9,M,,M,,*65
$GNGSA,A,3,,,,,,,,,,,,,2.41,1.23,2.07,1*03
$GNGSA,A,3,19,25,26,27,29,06,15,01,04,02,,,2.41,1.23,2.07,4*06
$GNGSA,A,3,,,,,,,,,,,,,2.41,1.23,2.07,3*01
$GPGSV,4,1,14,02,27,050,,05,58,055,,09,28,153,,12
,48,066,,0*64
$GPGSV,4,2,14,14,23,259,,21,14,190,,24,45,155,,29,66,277,,0*6D
$GPGSV,4,3,14,30,60,357,,31,22,317,,42,48,147,,50,45,139,,0*63
$GPGSV,4,4,14,40,11,257,,41,34,237,,0*60
$GBGSV,3,1,12,01,37,125,36,02,56,174,35,04,40,123,36,06,33,197,35,0*7F
$GBGSV,3,2,12,15,36,218,35,19,11,176,35,25,55,232,35,26,44,043,35,0*70
$GBGSV,3,3,12,27,55,136,35,29,48,037,35,08,26,308,,20,16,109,,0*7C
$GAGSV,3,1,11,05,04,245,,06,50,270,,07,59,017,,08,13,051,,0*71
$GAGSV,3,2,11,12,03,148,,13,09,101,,14,01,054,,17,32,160,,0*76
$GAGSV,3,3,11,23,33,314,,24,73,235,,26,26,254,,0*46

$GNRMC,080523.00,A,3113.99892,N,12130.66658,E,169.706,270.76,200821,,,A,V*0D
$GNGGA,080523.00,3113.99892,N,12130.66658,E,1,10,1.23,55.7,M,,M,,*6F
$GNGSA,A,3,,,,,,,,,,,,,2.41,1.23,2.07,1*03
$GNGSA,A,3,19,25,26,27,29,06,15,01,04,02,,,2.41,1.23,2.07,4*06
$GNGSA,A,3,,,,,,,,,,,,,2.41,1.23,2.07,3*01
$GPGSV,4,1,14,02,27,050,,05,58,055,,09,28,153,,12,48,066,,0*64
$GPGSV,4,2,14,14,
23,259,,21,14,190,,24,45,155,,29,66,277,,0*6D
$GPGSV,4,3,14,30,60,357,,31,22,317,,42,48,147,,50,45,139,,0*63
$GPGSV,4,4,14,40,11,257,,41,34,237,,0*60
$GBGSV,3,1,12,01,37,125,35,02,56,174,36,04,40,123,35,06,33,197,35,0*7C
$GBGSV,3,2,12,15,36,218,35,19,11,176,35,25,55,232,35,26,44,043,35,0*70
$GBGSV,3,3,12,27,55,136,35,29,48,037,35,08,26,308,,20,16,109,,0*7C
$GAGSV,3,1,11,05,04,245,,06,50,270,,07,59,017,,08,13,051,,0*71
$GAGSV,3,2,11,12,03,148,,13,09,101,,14,01,054,,17,32,160,,0*76
$GAGSV,3,3,11,23,33,314,,24,73,235,,26,26,254,,0*46

$GNRMC,080524.00,A,3114.00014,N,12130.61171,E,172.353,272.42,200821,,,A,V*0B
$GNGGA,080524.00,3114.00014,N,12130.61171,E,1,10,1.23,57.6,M,,M,,*61
$GNGSA,A,3,,,,,,,,,,,,,2.41,1.23,2.08,1*0C
$GNGSA,A,3,19,25,26,27,29,06,15,01,04,02,,,2.41,1.23,2.08,4*09
$GNGSA,A,3,,,,,,,,,,,,,2.41,1.23,2.08,3*0E
$GPGSV,4,1,14,02,27,050,,05,58,055,,09,28,154,,12,48,066,,0*63
$GPGSV,4
,2,14,14,23,259,,21,14,190,,24,45,155,,29,66,277,,0*6D
$GPGSV,4,3,14,30,60,357,,31,22,317,,42,48,147,,50,45,139,,0*63
$GPGSV,4,4,14,40,11,257,,41,34,237,,0*60
$GBGSV,3,1,12,01,37,125,35,02,56,174,35,04,40,123,35,06,33,197,35,0*7F
$GBGSV,3,2,12,15,36,218,35,19,11,176,35,25,55,232,35,26,44,043,35,0*70
$GBGSV,3,3,12,27,55,136,35,29,48,037,35,08,26,308,,20,16,109,,0*7C
$GAGSV,3,1,11,05,04,245,,06,50,270,,07,59,017,,08,13,051,,0*71
$GAGSV,3,2,11,12,03,148,,13,09,101,,14,01,054,,17,32,160,,0*76
$GAGSV,3,3,11,23,33,314,,24,73,235,,26,26,254,,0*46

$GNRMC,080525.00,A,3114.00005,N,12130.55951,E,164.779,270.80,200821,,,A,V*00
$GNGGA,080525.00,3114.00005,N,12130.55951,E,1,10,1.23,59.9,M,,M,,*6C
$GNGSA,A,3,,,,,,,,,,,,,2.41,1.23,2.08,1*0C
$GNGSA,A,3,19,25,26,27,29,06,15,01,04,02,,,2.41,1.23,2.08,4*09
$GNGSA,A,3,,,,,,,,,,,,,2.41,1.23,2.08,3*0E
$GPGSV,4,1,14,02,27,050,,05,58,055,,09,28,154,,12,48,066,,0*63
$GPGSV,4,2,14,14,23,259,,21,14,190,,24,45,155,,29,66,277,,
0*6D
$GPGSV,4,3,14,30,60,357,,31,22,317,,42,48,147,,50,45,139,,0*63
$GPGSV,4,4,14,40,11,257,,41,34,237,,0*60
$GBGSV,3,1,12,01,37,125,35,02,56,174,35,04,40,123,35,06,33,197,35,0*7F
$GBGSV,3,2,12,15,36,218,35,19,11,176,35,25,55,232,35,26,44,043,35,0*70
$GBGSV,3,3,12,27,55,136,35,29,48,037,35,08,26,308,,20,16,109,,0*7C
$GAGSV,3,1,11,05,04,245,,06,50,270,,07,59,017,,08,13,051,,0*71
$GAGSV,3,2,11,12,03,148,,13,09,101,,14,01,054,,17,32,160,,0*76
$GAGSV,3,3,11,23,33,314,,24,73,235,,26,26,254,,0*46

$GNRMC,080526.00,A,3114.00002,N,12130.50720,E,162.642,269.99,200821,,,A,V*06
$GNGGA,080526.00,3114.00002,N,12130.50720,E,1,10,1.23,59.2,M,,M,,*6E
$GNGSA,A,3,,,,,,,,,,,,,2.41,1.23,2.08,1*0C
$GNGSA,A,3,19,25,26,27,29,06,15,01,04,02,,,2.41,1.23,2.08,4*09
$GNGSA,A,3,,,,,,,,,,,,,2.41,1.23,2.08,3*0E
$GPGSV,4,1,14,02,27,050,,05,58,055,,09,28,154,,12,48,066,,0*63
$GPGSV,4,2,14,
14,23,259,,21,14,190,,24,45,155,,29,66,277,,0*6D
$GPGSV,4,3,14,30,60,357,,31,22,317,,42,48,147,,50,45,139,,0*63
$GPGSV,4,4,14,40,11,257,,41,34,237,,0*60
$GBGSV,3,1,12,01,37,125,35,02,56,174,35,04,40,123,35,06,33,197,35,0*7F
$GBGSV,3,2,12,15,36,218,35,19,11,176,35,25,55,232,35,26,44,043,35,0*70
$GBGSV,3,3,12,27,55,136,35,29,48,037,35,08,26,308,,20,16,109,,0*7C
$GAGSV,3,1,11,05,04,245,,06,50,270,,07,59,017,,08,13,051,,0*71
$GAGSV,3,2,11,12,03,148,,13,09,101,,14,01,054,,17,32,160,,0*76
$GAGSV,3,3,11,23,33,314,,24,73,235,,26,26,254,,0*46

$GNRMC,080527.00,A,3113.99985,N,12130.45501,E,161.724,269.81,200821,,,A,V*08
$GNGGA,080527.00,3113.99985,N,12130.45501,E,1,10,1.23,57.7,M,,M,,*60
$GNGSA,A,3,,,,,,,,,,,,,2.41,1.23,2.08,1*0C
$GNGSA,A,3,19,25,26,27,29,06,15,01,04,02,,,2.41,1.23,2.08,4*09
$GNGSA,A,3,,,,,,,,,,,,,2.41,1.23,2.08,3*0E
$GPGSV,4,1,14,02,27,050,,05,58,055,,09,28,154,,12,48
,066,,0*63
$GPGSV,4,2,14,14,23,259,,21,14,190,,24,45,155,,29,66,277,,0*6D
$GPGSV,4,3,14,30,60,357,,31,22,317,,42,48,147,,50,45,139,,0*63
$GPGSV,4,4,14,40,11,257,,41,34,237,,0*60
$GBGSV,3,1,12,01,37,125,35,02,56,174,35,04,40,123,35,06,33,197,35,0*7F
$GBGSV,3,2,12,15,36,218,35,19,11,176,35,25,55,232,35,26,44,043,35,0*70
$GBGSV,3,3,12,27,55,136,35,29,48,037,35,08,26,308,,20,16,109,,0*7C
$GAGSV,3,1,11,05,04,245,,06,50,270,,07,59,017,,08,13,051,,0*71
$GAGSV,3,2,11,12,03,148,,13,09,101,,14,01,054,,17,32,160,,0*76
$GAGSV,3,3,11,23,33,314,,24,73,235,,26,26,254,,0*46

V,4,1,14,02,27,050,,05,58,055,,09,28,154,,12,48,066,,0*63
$GPGSV,4,2,14,14,23,259,,21,14,190,,24,45,155,,29,66,277,,0*6D
$GPGSV,4,3,14,30,60,357,,31,22,317,,42,48,147,,50,45,139,,0*63
$GPGSV,4,4,14,40,11,257,,41,34,237,,0*60
$GBGSV,3,1,12,01,37,125,35,02,56,174,35,04,40,123,35,06,33,197,35,0*7F
$GBGSV,3,2,12,15,36,218,35,19,11,176,35,25,55,232,35,26,4
4,043,35,0*70
$GBGSV,3,3,12,27,55,136,35,29,48,037,35,08,26,308,,20,16,109,,0*7C
$GAGSV,3,1,11,05,04,245,,06,50,270,,07,59,017,,08,13,051,,0*71
$GAGSV,3,2,11,12,03,148,,13,09,101,,14,01,054,,17,32,160,,0*76
$GAGSV,3,3,11,23,33,314,,24,73,235,,26,26,254,,0*46

$GNRMC,080529.00,A,3113.99955,N,12130.35057,E,161.854,269.80,200821,,,A,V*03
$GNGGA,080529.00,3113.99955,N,12130.35057,E,1,10,1.23,56.8,M,,M,,*6C
$GNGSA,A,3,,,,,,,,,,,,,2.42,1.23,2.08,1*0F
$GNGSA,A,3,19,25,26,27,29,06,15,01,04,02,,,2.42,1.23,2.08,4*0A
$GNGSA,A,3,,,,,,,,,,,,,2.42,1.23,2.08,3*0D
$GPGSV,4,1,14,02,27,0
50,,05,58,055,,09,28,154,,12,48,066,,0*63
$GPGSV,4,2,14,14,23,259,,21,14,190,,24,45,155,,29,66,277,,0*6D
$GPGSV,4,3,14,30,60,357,,31,22,317,,42,48,147,,50,45,139,,0*63
$GPGSV,4,4,14,40,11,257,,41,34,237,,0*60
$GBGSV,3,1,12,01,37,125,35,02,56,174,35,04,40,123,35,06,33,197,35,0*7F
$GBGSV,3,2,12,15,36,218,35,19,11,176,35,25,55,232,35,26,44,043,35,0*70
$GBGSV,3,3,12,27,55,136,35,29,48,037,35,08,26,308,,20,16,109,,0*7C
$GAGSV,3,1,11,05,04,245,,06,50,270,,07,59,017,,08,13,051,,0*71
$GAGSV,3,2,11,12,03,148,,13,09,101,,14,01,054,,17,32,160,,0*76
$GAGSV,3,3,11,23,33,314,,24,73,235,,26,26,254,,0*46

3*0D
$GPGSV,4,1,14,02,27,050,,05,58,055,,09,28,154,,12,48,066,,0*63
$GPGSV,4,2,14,14,23,259,,21,14,190,,24,45,155,,29,66,277,,0*6D
$GPGSV,4,3,14,30,60,357,,31,22,317,,42,48,147,,50,45,139,,0*63
$GPGSV,4,4,14,40,11,257,,41,34,237,,0*60
$GBGSV,3,1,12,01,37,125,35,02,56,174,36,04,40,123,35,06,33,197,35,0*7C
$GBGSV,3,2,12,15,36,218,35,19,12,176,35,25,56,232,35,26,44,
043,35,0*70
$GBGSV,3,3,12,27,55,136,35,29,48,037,35,08,26,308,,20,16,109,,0*7C
$GAGSV,3,1,11,05,04,245,,06,50,270,,07,59,017,,08,13,051,,0*71
$GAGSV,3,2,11,12,03,148,,13,09,101,,14,01,054,,17,32,160,,0*76
$GAGSV,3,3,11,23,33,314,,24,73,235,,26,26,254,,0*46

$GNRMC,080531.00,A,3113.99957,N,12130.24599,E,162.243,270.06,200821,,,A,V*06
$GNGGA,080531.00,3113.99957,N,12130.24599,E,1,10,1.23,55.4,M,,M,,*6F
$GNGSA,A,3,,,,,,,,,,,,,2.42,1.23,2.08,1*0F
$GNGSA,A,3,19,25,26,27,29,06,15,01,04,02,,,2.42,1.23,2.08,4*0A
$GNGSA,A,3,,,,,,,,,,,,,2.42,1.23,2.08,3*0D
$GPGSV,4,1,14,02,26,050,,05,58,055,,09,28,154,,12,48,066,,0*62
$GPGSV,4,2,14,
14,23,259,,21,14,190,,24,45,155,,29,66,277,,0*6D
$GPGSV,4,3,14,30,60,357,,31,22,317,,42,48,147,,50,45,139,,0*63
$GPGSV,4,4,14,40,11,257,,41,34,237,,0*60
$GBGSV,3,1,12,01,37,125,36,02,56,174,36,04,40,123,35,06,33,197,35,0*7F
$GBGSV,3,2,12,15,36,218,35,19,12,176,35,25,56,232,35,26,44,043,35,0*70
$GBGSV,3,3,12,27,55,136,35,29,48,037,35,08,26,308,,20,16,109,,0*7C
$GAGSV,3,1,11,05,04,245,,06,50,270,,07,59,017,,08,13,051,,0*71
$GAGSV,3,2,11,12,03,148,,13,09,101,,14,01,054,,17,32,160,,0*76
$GAGSV,3,3,11,23,33,314,,24,73,235,,26,26,254,,0*46

0D
$GPGSV,4,1,14,02,26,050,,05,58,055,,09,28,154,,12,48,066,,0*62
$GPGSV,4,2,14,14,23,259,,21,14,190,,24,45,155,,29,66,277,,0*6D
$GPGSV,4,3,14,30,60,357,,31,22,317,,42,48,147,,50,45,139,,0*63
$GPGSV,4,4,14,40,11,257,,41,34,237,,0*60
$GBGSV,3,1,12,01,37,125,35,02,56,174,36,04,40,123,35,06,33,197,35,0*7C
$GBGSV,3,2,12,15,36,218,35,19,12,176,35,25,56,232,35,26,
44,043,35,0*70
$GBGSV,3,3,12,27,55,136,35,29,48,037,35,08,26,308,,20,16,109,,0*7C
$GAGSV,3,1,11,05,04,245,,06,50,270,,07,59,017,,08,13,051,,0*71
$GAGSV,3,2,11,12,03,148,,13,09,101,,14,01,054,,17,32,160,,0*76
$GAGSV,3,3,11,23,33,314,,24,73,235,,26,26,254,,0*46

$GNRMC,080533.00,A,3113.99960,N,12130.14153,E,159.355,270.19,200821,,,A,V*01
$GNGGA,080533.00,3113.99960,N,12130.14153,E,1,10,1.23,56.2,M,,M,,*6D
$GNGSA,A,3,,,,,,,,,,,,,2.42,1.23,2.08,1*0F
$GNGSA,A,3,19,25,26,27,29,06,15,01,04,02,,,2.42,1.23,2.08,4*0A
$GNGSA,A,3,,,,,,,,,,,,,2.42,1.23,2.08,3*0D
$GPGSV,4,1,14,02,26,050,,05,58,056,,09,28,154,,12,48,067,,0*60
$GPGSV,4,2,14,14,23,259,,21,14,190,,24,45,
155,,29,66,277,,0*6D
$GPGSV,4,3,14,30,60,358,,31,22,317,,42,48,147,,50,45,139,,0*6C
$GPGSV,4,4,14,40,11,257,,41,34,237,,0*60
$GBGSV,3,1,12,01,37,125,35,02,56,174,35,04,40,123,36,06,33,197,35,0*7C
$GBGSV,3,2,12,15,36,218,35,19,12,176,35,25,56,232,35,26,44,043,34,0*71
$GBGSV,3,3,12,27,55,136,35,29,48,037,34,08,26,308,,20,16,109,,0*7D
$GAGSV,3,1,11,05,04,245,,06,50,270,,07,59,017,,08,13,051,,0*71
$GAGSV,3,2,11,12,03,148,,13,09,101,,14,01,054,,17,32,160,,0*76
$GAGSV,3,3,11,23,33,314,,24,73,235,,26,26,254,,0*46

$GNRMC,080534.00,A,3114.00125,N,12130.09339,E,145.731,274.14,200821,,,A,V*08
$GNGGA,080534.00,3114.00125,N,12130.09339,E,1,10,1.23,55.9,M,,M,,*6E
$GNGSA,A,3,,,,,,,,,,,,,2.42,1.23,2.08,1*0F
$GNGSA,A,3,19,25,26,27,29,06,15,01,04,02,,,2.42,1.23,2.08,4*0A
$GNGSA,A,3,,,,,,,,,,,,,2.42,1.23,2.08,3*0D
$GPGSV,4,1,14,02,26,050,,05,58,056,,09,28,154,,12,48,067,,0*60
$GPGSV,4,2,14,14,23,259,,21,14,190,,24,45,155,,29,66,27
7,,0*6D
$GPGSV,4,3,14,30,60,358,,31,22,317,,42,48,147,,50,45,139,,0*6C
$GPGSV,4,4,14,40,11,257,,41,34,237,,0*60
$GBGSV,3,1,12,01,37,125,35,02,56,174,35,04,40,123,35,06,33,197,35,0*7F
$GBGSV,3,2,12,15,36,218,35,19,12,176,35,25,56,232,35,26,44,043,35,0*70
$GBGSV,3,3,12,27,55,136,35,29,48,037,35,08,26,308,,20,16,109,,0*7C
$GAGSV,3,1,11,05,04,245,,06,50,270,,07,59,017,,08,13,051,,0*71
$GAGSV,3,2,11,12,03,148,,13,09,101,,14,01,054,,17,32,160,,0*76
$GAGSV,3,3,11,23,33,314,,24,73,235,,26,26,254,,0*46

$GNRMC,080535.00,A,3114.00225,N,12130.05785,E,106.980,274.70,200821,,,A,V*04
$GNGGA,080535.00,3114.00225,N,12130.05785,E,1,10,1.23,53.6,M,,M,,*6A
$GNGSA,A,3,,,,,,,,,,,,,2.42,1.23,2.08,1*0F
$GNGSA,A,3,19,25,26,27,29,06,15,01,04,02,,,2.42,1.23,2.08,4*0A
$GNGSA,A,3,,,,,,,,,,,,,2.42,1.23,2.08,3*0D
$GPGSV,4,1,14,02,26,050,,05,58,056,,09,28,154,,12,48,067,,0*60
$GPGSV,4,2,14,14,23,259,,21,14,190,,24,45,
155,,29,66,277,,0*6D
$GPGSV,4,3,14,30,60,358,,31,22,317,,42,48,147,,50,45,139,,0*6C
$GPGSV,4,4,14,40,11,257,,41,34,237,,0*60
$GBGSV,3,1,12,01,37,125,35,02,56,174,35,04,40,123,35,06,33,197,35,0*7F
$GBGSV,3,2,12,15,36,218,35,19,12,176,35,25,56,232,35,26,44,043,35,0*70
$GBGSV,3,3,12,27,55,136,35,29,48,037,35,08,26,308,,20,16,109,,0*7C
$GAGSV,3,1,11,05,04,245,,06,50,270,,07,59,017,,08,13,051,,0*71
$GAGSV,3,2,11,12,03,148,,13,09,101,,14,01,054,,17,32,160,,0*76
$GAGSV,3,3,11,23,33,314,,24,73,235,,26,26,254,,0*46

3,2.08,3*0D
$GPGSV,4,1,14,02,26,050,,05,58,056,,09,28,154,,12,48,067,,0*60
$GPGSV,4,2,14,14,23,259,,21,14,190,,24,45,155,,29,66,278,,0*62
$GPGSV,4,3,14,30,60,358,,31,22,317,,42,48,147,,50,45,139,,0*6C
$GPGSV,4,4,14,40,11,257,,41,34,237,,0*60
$GBGSV,3,1,12,01,37,125,36,02,56,174,35,04,40,123,35,06,33,197,35,0*7C
$GBGSV,3,2,12,15,36,218,35,19,12,176,35,2
5,56,232,35,26,44,043,35,0*70
$GBGSV,3,3,12,27,55,137,36,29,48,037,35,08,26,308,,20,16,109,,0*7E
$GAGSV,3,1,11,05,04,245,,06,50,270,,07,59,017,,08,13,051,,0*71
$GAGSV,3,2,11,12,03,148,,13,09,101,,14,01,054,,17,32,160,,0*76
$GAGSV,3,3,11,23,33,314,,24,73,235,,26,27,254,,0*47

$GNRMC,080537.00,A,3114.00232,N,12130.01406,E,41.349,270.22,200821,,,A,V*32
$GNGGA,080537.00,3114.00232,N,12130.01406,E,1,10,1.23,53.3,M,,M,,*67
$GNGSA,A,3,,,,,,,,,,,,,2.42,1.23,2.08,1*0F
$GNGSA,A,3,19,25,26,27,29,06,15,01,04,02,,,2.42,1.23,2.08,4*0A
$GNGSA,A,3,,,,,,,,,,,,,2.42,1.23,2.08,3*0D
$GPGSV,4,1,14,02,26,050,,05,58,056,,09,28,154,,12,48,067,,0*60
$GPGSV,4,2,14,14,23,259,,21,1
4,190,,24,45,155,,29,66,278,,0*62
$GPGSV,4,3,14,30,60,358,,31,23,317,,42,48,147,,50,45,139,,0*6D
$GPGSV,4,4,14,40,11,257,,41,34,237,,0*60
$GBGSV,3,1,12,01,37,125,35,02,56,174,36,04,40,123,35,06,33,197,35,0*7C
$GBGSV,3,2,12,15,36,218,35,19,12,176,35,25,56,232,35,26,44,043,35,0*70
$GBGSV,3,3,12,27,55,137,35,29,48,037,35,08,26,308,,20,16,109,,0*7D
$GAGSV,3,1,11,05,04,245,,06,50,270,,07,59,017,,08,13,051,,0*71
$GAGSV,3,2,11,12,03,148,,13,09,101,,14,01,054,,17,32,160,,0*76
$GAGSV,3,3,11,23,33,314,,24,73,235,,26,27,254,,0*47

$GNRMC,080538.00,A,3114.00192,N,12130.00588,E,15.636,272.60,200821,,,A,V*3A
$GNGGA,080538.00,3114.00192,N,12130.00588,E,1,10,1.23,53.1,M,,M,,*65
$GNGSA,A,3,,,,,,,,,,,,,2.42,1.23,2.08,1*0F
$GNGSA,A,3,19,25,26,27,29,06,15,01,04,02,,,2.42,1.23,2.08,4*0A
$GNGSA,A,3,,,,,,,,,,,,,2.42,1.23,2.08,3*0D
$GPGSV,4,1,14,02,26,050,,05,58,056,,09,28,154,,12,48,067,,0*60
$GPGSV,4,2,14,14,23,259,,21,14,190,,24,45,155,,29,66,278,,0*62
$GPGSV,
4,3,14,30,60,358,,31,23,317,,42,48,147,,50,45,139,,0*6D
$GPGSV,4,4,14,40,11,257,,41,34,237,,0*60
$GBGSV,3,1,12,01,37,125,35,02,56,174,35,04,40,123,34,06,33,197,35,0*7E
$GBGSV,3,2,12,15,36,218,35,19,12,176,35,25,56,232,35,26,44,043,35,0*70
$GBGSV,3,3,12,27,55,137,35,29,48,037,35,08,26,308,,20,16,109,,0*7D
$GAGSV,3,1,11,05,04,245,,06,50,270,,07,59,017,,08,13,051,,0*71
$GAGSV,3,2,11,12,03,148,,13,09,101,,14,01,054,,17,32,160,,0*76
$GAGSV,3,3,11,23,33,314,,24,72,235,,26,27,254,,0*46

$GNRMC,080539.00,A,3114.00152,N,12130.00475,E,6.899,,200821,,,A,V*12
$GNGGA,080539.00,3114.00152,N,12130.00475,E,1,10,1.23,52.9,M,,M,,*62
$GNGSA,A,3,,,,,,,,,,,,,2.42,1.23,2.08,1*0F
$GNGSA,A,3,19,25,26,27,29,06,15,01,04,02,,,2.42,1.23,2.08,4*0A
$GNGSA,A,3,,,,,,,,,,,,,2.42,1.23,2.08,3*0D
$GPGSV,4,1,14,02,26,050,,05,58,056,,09,28,154,,12,48,067,,0*60
$GPGSV,4,2,14,14,23,259,,21,14,190,,24,45,155,,
29,66,278,,0*62
$GPGSV,4,3,14,30,60,358,,31,23,317,,42,48,147,,50,45,139,,0*6D
$GPGSV,4,4,14,40,11,257,,41,34,237,,0*60
$GBGSV,3,1,12,01,37,125,35,02,56,174,35,04,40,123,35,06,33,197,35,0*7F
$GBGSV,3,2,12,15,36,218,35,19,12,176,35,25,56,232,35,26,44,043,35,0*70
$GBGSV,3,3,12,27,55,137,35,29,48,037,35,08,26,308,,20,16,109,,0*7D
$GAGSV,3,1,11,05,04,245,,06,50,270,,07,59,017,,08,13,051,,0*71
$GAGSV,3,2,11,12,03,148,,13,09,101,,14,01,054,,17,32,160,,0*76
$GAGSV,3,3,11,23,33,314,,24,72,235,,26,27,254,,0*46

$GNRMC,080540.00,A,3114.00130,N,12130.00687,E,16.197,98.77,200821,,,A,V*0E
$GNGGA,080540.00,3114.00130,N,12130.00687,E,1,10,1.23,53.1,M,,M,,*6E
$GNGSA,A,3,,,,,,,,,,,,,2.42,1.23,2.08,1*0F
$GNGSA,A,3,19,25,26,27,29,06,15,01,04,02,,,2.42,1.23,2.08,4*0A
$GNGSA,A,3,,,,,,,,,,,,,2.42,1.23,2.08,3*0D
$GPGSV,4,1,14,02,26,050,,05,58,056,,09,28,154,,12,48,067,,0*60
$GPGSV,4,2,14,14,23,259,,21,14,190,,24,45,155,,29,66,278,,0*62
$GPGSV
,4,3,14,30,60,358,,31,23,317,,42,48,147,,50,45,139,,0*6D
$GPGSV,4,4,14,40,11,257,,41,34,237,,0*60
$GBGSV,3,1,12,01,37,125,35,02,56,174,36,04,40,123,35,06,33,197,35,0*7C
$GBGSV,3,2,12,15,36,218,35,19,12,176,35,25,56,232,35,26,44,043,35,0*70
$GBGSV,3,3,12,27,55,137,35,29,48,037,35,08,26,308,,20,16,109,,0*7D
$GAGSV,3,1,11,05,04,245,,06,50,270,,07,59,017,,08,13,051,,0*71
$GAGSV,3,2,11,12,03,148,,13,09,101,,14,01,054,,17,32,160,,0*76
$GAGSV,3,3,11,23,33,314,,24,72,234,,26,27,254,,0*47

3*0D
$GPGSV,4,1,14,02,26,050,,05,58,056,,09,28,154,,12,48,067,,0*60
$GPGSV,4,2,14,14,23,259,,21,14,190,,24,45,155,,29,66,278,,0*62
$GPGSV,4,3,14,30,60,358,,31,23,317,,42,48,147,,50,45,139,,0*6D
$GPGSV,4,4,14,40,11,257,,41,34,237,,0*60
$GBGSV,3,1,12,01,37,125,35,02,56,174,35,04,40,123,35,06,33,197,35,0*7F
$GBGSV,3,2,12,15,36,218,35
,19,12,176,35,25,56,232,35,26,44,043,35,0*70
$GBGSV,3,3,12,27,55,137,35,29,48,037,35,08,26,308,,20,16,109,,0*7D
$GAGSV,3,1,11,05,04,245,,06,50,270,,07,59,017,,08,13,051,,0*71
$GAGSV,3,2,11,12,03,148,,13,09,101,,14,01,054,,17,32,160,,0*76
$GAGSV,3,3,11,23,33,314,,24,72,234,,26,27,254,,0*47

$GNRMC,080542.00,A,3114.00931,N,12130.00612,E,17.877,21.65,200821,,,A,V*0E
$GNGGA,080542.00,3114.00931,N,12130.00612,E,1,10,1.23,52.8,M,,M,,*61
$GNGSA,A,3,,,,,,,,,,,,,2.42,1.23,2.08,1*0F
$GNGSA,A,3,19,25,26,27,29,06,15,01,04,02,,,2.42,1.23,2.08,4*0A
$GNGSA,A,3,,,,,,,,,,,,,2.42,1.23,2.08,3*0D
$GPGSV,4,1,14,02,26,050,,05,58,056,,09,28,154,,12,48,067,,0*60
$GPGSV,4,2,14,14,23,259,,21,14,190,,24,45,155,,29,66,278,,0*62

$GPGSV,4,3,14,30,60,358,,31,23,317,,42,48,147,,50,45,139,,0*6D
$GPGSV,4,4,14,40,11,257,,41,34,237,,0*60
$GBGSV,3,1,12,01,37,125,35,02,56,174,35,04,40,123,35,06,33,197,34,0*7E
$GBGSV,3,2,12,15,36,218,34,19,12,176,33,25,56,232,35,26,44,043,35,0*77
$GBGSV,3,3,12,27,55,137,35,29,48,037,35,08,26,308,,20,16,109,,0*7D
$GAGSV,3,1,11,05,04,245,,06,50,270,,07,59,017,,08,13,051,,0*71
$GAGSV,3,2,11,12,03,148,,13,09,101,,14,01,054,,17,32,160,,0*76
$GAGSV,3,3,11,23,33,314,,24,72,234,,26,27,254,,0*47

$GNRMC,080543.00,A,3114.01948,N,12130.00495,E,43.717,8.35,200821,,,A,V*3B
$GNGGA,080543.00,3114.01948,N,12130.00495,E,1,08,1.61,54.5,M,,M,,*66
$GNGSA,A,3,,,,,,,,,,,,,2.65,1.61,2.10,1*05
$GNGSA,A,3,19,25,26,27,29,06,15,02,,,,,2.65,1.61,2.10,4*05
$GNGSA,A,3,,,,,,,,,,,,,2.65,1.61,2.10,3*07
$GPGSV,4,1,14,02,26,050,,05,58
,056,,09,28,154,,12,48,067,,0*60
$GPGSV,4,2,14,14,23,259,,21,14,190,,24,45,155,,29,66,278,,0*62
$GPGSV,4,3,14,30,60,358,,31,23,317,,42,48,147,,50,45,139,,0*6D
$GPGSV,4,4,14,40,11,257,,41,34,237,,0*60
$GBGSV,3,1,12,02,56,174,35,06,33,197,33,15,36,218,35,19,12,176,32,0*7C
$GBGSV,3,2,12,25,56,233,35,26,44,043,34,27,55,137,34,29,48,037,34,0*72
$GBGSV,3,3,12,01,37,125,,04,40,123,,08,26,308,,20,16,109,,0*7D
$GAGSV,3,1,11,05,04,245,,06,50,270,,07,59,017,,08,13,051,,0*71
$GAGSV,3,2,11,12,03,148,,13,09,101,,14,01,054,,17,32,160,,0*76
$GAGSV,3,3,11,23,33,314,,24,72,234,,26,27,254,,0*47

SV,4,1,14,02,26,049,,05,58,056,,09,28,154,,12,48,067,,0*68
$GPGSV,4,2,14,14,23,259,,21,14,190,,24,45,155,,29,66,278,,0*62
$GPGSV,4,3,14,30,60,358,,31,23,317,,42,48,147,,50,45,139,,0*6D
$GPGSV,4,4,14,40,11,257,,41,34,237,,0*60
$GBGSV,3,1,12,01,37,125,33,02,56,174,35,04,40,123,35,06,33,197,34,0*78
$GBGSV,3,2,12,15,36,218,35,19,12,176,32,25,56,233,35,26,4
4,043,35,0*76
$GBGSV,3,3,12,27,55,137,35,29,48,037,35,08,26,308,,20,16,109,,0*7D
$GAGSV,3,1,11,05,04,245,,06,50,270,,07,59,017,,08,13,051,,0*71
$GAGSV,3,2,11,12,03,148,,13,09,101,,14,01,054,,17,32,160,,0*76
$GAGSV,3,3,11,23,33,314,,24,72,234,,26,27,254,,0*47

$GNRMC,080545.00,A,3114.05978,N,12130.00809,E,97.815,4.21,200821,,,A,V*3E
$GNGGA,080545.00,3114.05978,N,12130.00809,E,1,10,1.23,56.2,M,,M,,*64
$GNGSA,A,3,,,,,,,,,,,,,2.42,1.23,2.08,1*0F
$GNGSA,A,3,19,25,26,27,29,06,15,01,04,02,,,2.42,1.23,2.08,4*0A
$GNGSA,A,3,,,,,,,,,,,,,2.42,1.23,2.08,3*0D
$GPGSV,4,1,14,02,26,049,,05,58,056,,09,28,154,,12,48,067,,0*68
$GPGSV,4,2,14,14,23,259,,21,14,190,,24,45,155,,29,66,278,,0*62

$GPGSV,4,3,14,30,60,358,,31,23,317,,42,48,147,,50,45,139,,0*6D
$GPGSV,4,4,14,40,11,257,,41,34,237,,0*60
$GBGSV,3,1,12,01,37,125,34,02,56,174,36,04,40,123,35,06,33,197,33,0*7B
$GBGSV,3,2,12,15,36,218,35,19,12,176,31,25,56,233,35,26,44,043,35,0*75
$GBGSV,3,3,12,27,55,137,35,29,48,037,35,08,26,308,,20,16,109,,0*7D
$GAGSV,3,1,11,05,04,245,,06,50,270,,07,59,017,,08,13,051,,0*71
$GAGSV,3,2,11,12,03,148,,13,09,101,,14,01,054,,17,32,160,,0*76
$GAGSV,3,3,11,23,33,314,,24,72,234,,26,27,254,,0*47

,,,,2.42,1.23,2.08,3*0D
$GPGSV,4,1,14,02,26,049,,05,58,056,,09,28,154,,12,48,067,,0*68
$GPGSV,4,2,14,14,23,259,,21,14,190,,24,45,155,,29,66,278,,0*62
$GPGSV,4,3,14,30,60,358,,31,23,317,,42,48,147,,50,45,139,,0*6D
$GPGSV,4,4,14,40,11,257,,41,34,237,,0*60
$GBGSV,3,1,12,01,37,125,35,02,56,174,36,04,40,123,35,06,33,197,34,0*7D
$GBGSV,3,2,12,15,36,218,35,19,12,176,32,25,56,233,35,
26,44,043,35,0*76
$GBGSV,3,3,12,27,55,137,35,29,48,037,35,08,26,308,,20,16,109,,0*7D
$GAGSV,3,1,11,05,04,245,,06,50,270,,07,59,017,,08,13,051,,0*71
$GAGSV,3,2,11,12,03,148,,13,09,101,,14,01,054,,17,32,160,,0*76
$GAGSV,3,3,11,23,33,314,,24,72,234,,26,27,254,,0*47

0A
$GNGSA,A,3,,,,,,,,,,,,,2.42,1.23,2.08,3*0D
$GPGSV,4,1,14,02,26,049,,05,58,056,,09,28,154,,12,48,067,,0*68
$GPGSV,4,2,14,14,23,259,,21,14,190,,24,45,155,,29,66,278,,0*62
$GPGSV,4,3,14,30,60,358,,31,23,317,,42,48,147,,50,45,139,,0*6D
$GPGSV,4,4,14,40,11,257,,41,34,237,,0*60
$GBGSV,3,1,12,01,37,125,35,02,56,174,35,04,40,123,35,06,33,197,34,0*7E
$GBGSV,3,2,12,15,36,218,35,19,12
,176,32,25,56,233,35,26,44,043,35,0*76
$GBGSV,3,3,12,27,55,137,35,29,48,037,35,08,26,308,,20,16,109,,0*7D
$GAGSV,3,1,11,05,04,245,,06,50,270,,07,59,017,,08,13,051,,0*71
$GAGSV,3,2,11,12,03,148,,13,09,101,,14,01,054,,17,32,160,,0*76
$GAGSV,3,3,11,23,33,314,,24,72,234,,26,27,254,,0*47

$GNRMC,080548.00,A,3114.17668,N,12130.00816,E,166.404,359.31,200821,,,A,V*09
$GNGGA,080548.00,3114.17668,N,12130.00816,E,1,10,1.23,52.8,M,,M,,*64
$GNGSA,A,3,,,,,,,,,,,,,2.42,1.23,2.08,1*0F
$GNGSA,A,3,19,25,26,27,29,06,15,01,04,02,,,2.42,1.23,2.08,4*0A
$GNGSA,A,3,,,,,,,,,,,,,2.42,1.23,2.08,3*0D
$GPGSV,4,1,14,02,26,049,,05,58,056,,09,28,154,,12,48,067,,0*68
$GPGSV,4,2,14,14,23,259,,21,14,190,,24,45,155,,29,66,278
,,0*62
$GPGSV,4,3,14,30,60,358,,31,23,317,,42,48,147,,50,45,139,,0*6D
$GPGSV,4,4,14,40,11,257,,41,34,237,,0*60
$GBGSV,3,1,12,01,37,125,24,02,56,174,35,04,40,123,34,06,33,197,34,0*7F
$GBGSV,3,2,12,15,36,218,35,19,12,176,34,25,56,233,35,26,44,043,34,0*71
$GBGSV,3,3,12,27,55,137,35,29,48,037,34,08,26,308,,20,16,109,,0*7C
$GAGSV,3,1,11,05,04,245,,06,50,270,,07,59,017,,08,13,051,,0*71
$GAGSV,3,2,11,12,03,148,,13,09,101,,14,01,054,,17,32,160,,0*76
$GAGSV,3,3,11,23,33,314,,24,72,234,,26,27,254,,0*47

$GNRMC,080549.00,A,3114.22295,N,12130.00699,E,166.116,358.54,200821,,,A,V*05
$GNGGA,080549.00,3114.22295,N,12130.00699,E,1,10,1.23,52.2,M,,M,,*66
$GNGSA,A,3,,,,,,,,,,,,,2.42,1.23,2.08,1*0F
$GNGSA,A,3,19,25,26,27,29,06,15,01,04,02,,,2.42,1.23,2.08,4*0A
$GNGSA,A,3,,,,,,,,,,,,,2.42,1.23,2.08,3*0D
$GPGSV,4,1,14,02,26,049,,05,58,056,,09,28,154,,12,48,067,,0*68
$GPGSV,4,2,14,14,23,259,,21,
14,190,,24,45,155,,29,66,278,,0*62
$GPGSV,4,3,14,30,60,358,,31,23,317,,42,48,147,,50,45,139,,0*6D
$GPGSV,4,4,14,40,11,257,,41,34,237,,0*60
$GBGSV,3,1,12,01,37,125,28,02,56,174,35,04,40,123,35,06,33,197,35,0*73
$GBGSV,3,2,12,15,36,218,35,19,12,176,34,25,56,233,36,26,44,043,35,0*73
$GBGSV,3,3,12,27,55,137,35,29,48,037,35,08,26,308,,20,16,109,,0*7D
$GAGSV,3,1,11,05,04,245,,06,50,270,,07,59,017,,08,13,051,,0*71
$GAGSV,3,2,11,12,03,148,,13,09,101,,14,01,054,,17,32,160,,0*76
$GAGSV,3,3,11,23,33,314,,24,72,234,,26,27,254,,0*47

$GNRMC,080550.00,A,3114.26892,N,12130.00597,E,163.460,359.32,200821,,,A,V*09
$GNGGA,080550.00,3114.26892,N,12130.00597,E,1,10,1.23,51.8,M,,M,,*63
$GNGSA,A,3,,,,,,,,,,,,,2.42,1.23,2.08,1*0F
$GNGSA,A,3,19,25,26,27,29,06,15,01,04,02,,,2.42,1.23,2.08,4*0A
$GNGSA,A,3,,,,,,,,,,,,,2.42,1.23,2.08,3*0D
$GPGSV,4,1,14,02,26,049,,05,58,056,,09,28,154,,12,48,067,,0*68
$GPGSV,4,2,14,14,23,259,,21,
14,190,,24,45,155,,29,66,278,,0*62
$GPGSV,4,3,14,30,60,358,,31,23,317,,42,48,147,,50,45,139,,0*6D
$GPGSV,4,4,14,40,11,257,,41,34,237,,0*60
$GBGSV,3,1,12,01,37,125,31,02,56,174,35,04,40,123,36,06,33,197,35,0*78
$GBGSV,3,2,12,15,36,218,35,19,12,176,35,25,56,233,35,26,44,043,35,0*71
$GBGSV,3,3,12,27,55,137,35,29,48,037,35,08,26,308,,20,16,109,,0*7D
$GAGSV,3,1,11,05,04,245,,06,50,270,,07,59,017,,08,13,051,,0*71
$GAGSV,3,2,11,12,03,148,,13,09,101,,14,01,054,,17,32,160,,0*76
$GAGSV,3,3,11,23,33,314,,24,72,234,,26,27,254,,0*47

$GNRMC,080551.00,A,3114.31491,N,12130.00479,E,162.866,359.66,200821,,,A,V*0A
$GNGGA,080551.00,3114.31491,N,12130.00479,E,1,10,1.23,51.1,M,,M,,*63
$GNGSA,A,3,,,,,,,,,,,,,2.42,1.23,2.08,1*0F
$GNGSA,A,3,19,25,26,27,29,06,15,01,04,02,,,2.42,1.23,2.08,4*0A
$GNGSA,A,3,,,,,,,,,,,,,2.42,1.23,2.08,3*0D
$GPGSV,4,1,14,02,26,049,,05,58,056,,09,28,154,,12,48,0
67,,0*68
$GPGSV,4,2,14,14,23,259,,21,14,190,,24,45,155,,29,66,278,,0*62
$GPGSV,4,3,14,30,60,358,,31,23,317,,42,48,147,,50,45,139,,0*6D
$GPGSV,4,4,14,40,11,257,,41,34,237,,0*60
$GBGSV,3,1,12,01,37,125,32,02,56,174,35,04,40,123,35,06,33,197,35,0*78
$GBGSV,3,2,12,15,36,218,36,19,12,176,36,25,56,233,35,26,44,043,35,0*71
$GBGSV,3,3,12,27,55,137,35,29,48,037,35,08,26,308,,20,16,109,,0*7D
$GAGSV,3,1,11,05,04,245,,06,50,270,,07,59,017,,08,13,051,,0*71
$GAGSV,3,2,11,12,03,148,,13,09,101,,14,01,054,,17,32,160,,0*76
$GAGSV,3,3,11,23,33,314,,24,72,234,,26,27,254,,0*47

$GNRMC,080552.00,A,3114.36044,N,12130.00436,E,162.529,360.00,200821,,,A,V*05
$GNGGA,080552.00,3114.36044,N,12130.00436,E,1,10,1.23,50.5,M,,M,,*65
$GNGSA,A,3,,,,,,,,,,,,,2.42,1.23,2.08,1*0F
$GNGSA,A,3,19,25,26,27,29,06,15,01,04,02,,,2.42,1.23,2.08,4*0A
$GNGSA,A,3,,,,,,,,,,,,,2.42,1.23,2.08,3*0D
$GPGSV,4,1,14,02,26,04
9,,05,58,056,,09,28,154,,12,48,067,,0*68
$GPGSV,4,2,14,14,23,259,,21,14,190,,24,45,155,,29,66,278,,0*62
$GPGSV,4,3,14,30,60,358,,31,23,317,,42,48,147,,50,45,139,,0*6D
$GPGSV,4,4,14,40,11,257,,41,34,237,,0*60
$GBGSV,3,1,12,01,37,125,33,02,56,174,35,04,40,123,35,06,33,197,35,0*79
$GBGSV,3,2,12,15,36,218,35,19,12,176,35,25,56,233,35,26,44,043,35,0*71
$GBGSV,3,3,12,27,55,137,35,29,48,037,35,08,26,308,,20,16,109,,0*7D
$GAGSV,3,1,11,05,04,245,,06,50,270,,07,59,017,,08,13,051,,0*71
$GAGSV,3,2,11,12,03,148,,13,09,101,,14,01,054,,17,32,160,,0*76
$GAGSV,3,3,11,23,33,314,,24,72,234,,26,27,254,,0*47

$GNRMC,080553.00,A,3114.40359,N,12130.00249,E,144.931,356.91,200821,,,A,V*08
$GNGGA,080553.00,3114.40359,N,12130.00249,E,1,10,1.23,48.0,M,,M,,*68
$GNGSA,A,3,,,,,,,,,,,,,2.42,1.23,2.08,1*0F
$GNGSA,A,3,19,25,26,27,29,06,15,01,04,02,,,2.42,1.23,2.08,4*0A
$GNGSA,A,3,,,,,,,,,,,,,2.42,1.23,2.08,3*0D
$GPGSV,4,1,14,02,26,049,,05,58,056,,09,2
8,154,,12,48,067,,0*68
$GPGSV,4,2,14,14,23,259,,21,14,190,,24,45,155,,29,66,278,,0*62
$GPGSV,4,3,14,30,61,358,,31,23,317,,42,48,147,,50,45,139,,0*6C
$GPGSV,4,4,14,40,11,257,,41,34,237,,0*60
$GBGSV,3,1,12,01,37,125,34,02,56,174,36,04,40,123,35,06,33,197,32,0*7A
$GBGSV,3,2,12,15,36,218,34,19,12,176,31,25,56,233,35,26,44,043,35,0*74
$GBGSV,3,3,12,27,55,137,35,29,48,037,35,08,26,308,,20,16,109,,0*7D
$GAGSV,3,1,11,05,04,245,,06,50,270,,07,59,017,,08,13,051,,0*71
$GAGSV,3,2,11,12,03,148,,13,09,101,,14,01,054,,17,32,160,,0*76
$GAGSV,3,3,11,23,33,314,,24,72,234,,26,27,254,,0*47

,3,,,,,,,,,,,,,2.42,1.23,2.08,3*0D
$GPGSV,4,1,14,02,26,049,,05,58,056,,09,28,154,,12,48,067,,0*68
$GPGSV,4,2,14,14,23,259,,21,14,190,,24,45,155,,29,66,278,,0*62
$GPGSV,4,3,14,30,61,358,,31,23,317,,42,48,147,,50,45,139,,0*6C
$GPGSV,4,4,14,40,11,257,,41,34,237,,0*60
$GBGSV,3,1,12,01,37,125,34,02,56,174,35,04,40,123,35,06,33,197,33,0*78
$GBGSV,3,2,12,15,36,218,3
4,19,12,176,31,25,56,233,35,26,44,043,35,0*74
$GBGSV,3,3,12,27,55,137,35,29,48,037,35,08,26,308,,20,16,109,,0*7D
$GAGSV,3,1,11,05,04,245,,06,50,270,,07,59,017,,08,13,051,,0*71
$GAGSV,3,2,11,12,03,148,,13,09,101,,14,01,054,,17,32,160,,0*76
$GAGSV,3,3,11,23,33,314,,24,72,234,,26,27,254,,0*47

$GNRMC,080555.00,A,3114.46729,N,12129.99853,E,88.774,355.18,200821,,,A,V*3E
$GNGGA,080555.00,3114.46729,N,12129.99853,E,1,10,1.23,44.8,M,,M,,*66
$GNGSA,A,3,,,,,,,,,,,,,2.42,1.23,2.08,1*0F
$GNGSA,A,3,19,25,26,27,29,06,15,01,04,02,,,2.42,1.23,2.08,4*0A
$GNGSA,A,3,,,,,,,,,,,,,2.42,1.23,2.08,3*0D
$GPGSV,4,1,14,02,26
,049,,05,58,056,,09,28,154,,12,48,067,,0*68
$GPGSV,4,2,14,14,23,259,,21,14,190,,24,45,155,,29,66,278,,0*62
$GPGSV,4,3,14,30,61,358,,31,23,317,,42,48,147,,50,45,139,,0*6C
$GPGSV,4,4,14,40,11,257,,41,34,237,,0*60
$GBGSV,3,1,12,01,37,125,35,02,56,174,36,04,40,123,35,06,33,197,33,0*7A
$GBGSV,3,2,12,15,36,218,35,19,12,176,31,25,56,233,35,26,44,043,35,0*75
$GBGSV,3,3,12,27,55,137,35,29,48,037,35,08,26,308,,20,16,109,,0*7D
$GAGSV,3,1,11,05,04,245,,06,50,270,,07,59,017,,08,13,051,,0*71
$GAGSV,3,2,11,12,03,148,,13,09,101,,14,01,054,,17,32,160,,0*76
$GAGSV,3,3,11,23,33,314,,24,72,234,,26,27,254,,0*47

3,2.08,3*0D
$GPGSV,4,1,14,02,26,049,,05,58,056,,09,28,154,,12,48,067,,0*68
$GPGSV,4,2,14,14,23,259,,21,14,190,,24,45,155,,29,66,278,,0*62
$GPGSV,4,3,14,30,61,358,,31,23,317,,42,48,147,,50,45,139,,0*6C
$GPGSV,4,4,14,40,11,257,,41,34,237,,0*60
$GBGSV,3,1,12,01,37,125,35,02,56,174,36,04,40,123,35,06,33,197,34,0*7D
$GBGSV,3,2,12,15,36,218,35,19,12,176,31,25,56,233,35,26,4
4,043,35,0*75
$GBGSV,3,3,12,27,55,137,35,29,48,037,35,08,26,308,,20,16,109,,0*7D
$GAGSV,3,1,11,05,04,245,,06,50,270,,07,59,017,,08,13,051,,0*71
$GAGSV,3,2,11,12,03,148,,13,09,101,,14,01,054,,17,32,160,,0*76
$GAGSV,3,3,11,23,33,314,,24,72,234,,26,27,254,,0*47

$GNRMC,080557.00,A,3114.50003,N,12129.99576,E,34.143,349.99,200821,,,A,V*3F
$GNGGA,080557.00,3114.50003,N,12129.99576,E,1,10,1.23,44.4,M,,M,,*6A
$GNGSA,A,3,,,,,,,,,,,,,2.42,1.23,2.08,1*0F
$GNGSA,A,3,19,25,26,27,29,06,15,01,04,02,,,2.42,1.23,2.08,4*0A
$GNGSA,A,3,,,,,,,,,,,,,2.42,1.23,2.08,3*0D
$GPGSV,4,1,14,02,26,049,,0
5,58,056,,09,28,154,,12,48,067,,0*68
$GPGSV,4,2,14,14,23,259,,21,14,190,,24,45,155,,29,66,278,,0*62
$GPGSV,4,3,14,30,61,358,,31,23,317,,42,48,147,,50,45,139,,0*6C
$GPGSV,4,4,14,40,11,257,,41,34,237,,0*60
$GBGSV,3,1,12,01,37,125,31,02,56,174,35,04,40,123,35,06,33,197,34,0*7A
$GBGSV,3,2,12,15,36,218,34,19,12,176,32,25,56,233,35,26,44,043,35,0*77
$GBGSV,3,3,12,27,55,137,35,29,48,037,35,08,26,308,,20,16,109,,0*7D
$GAGSV,3,1,11,05,04,245,,06,50,270,,07,59,017,,08,13,051,,0*71
$GAGSV,3,2,11,12,03,148,,13,09,101,,14,01,054,,17,32,160,,0*76
$GAGSV,3,3,11,23,33,314,,24,72,234,,26,27,254,,0*47

0A
$GNGSA,A,3,,,,,,,,,,,,,2.42,1.23,2.08,3*0D
$GPGSV,4,1,14,02,26,049,,05,58,056,,09,28,154,,12,48,067,,0*68
$GPGSV,4,2,14,14,23,259,,21,14,190,,24,45,155,,29,66,278,,0*62
$GPGSV,4,3,14,30,61,358,,31,23,317,,42,48,147,,50,45,139,,0*6C
$GPGSV,4,4,14,40,11,257,,41,34,237,,0*60
$GBGSV,3,1,12,01,37,125,32,02,56,174,36,04,40,123,35,06,33,197,34,0*7A
$GBGSV,3,2,12,15,36,218,
34,19,12,176,34,25,56,233,35,26,44,043,34,0*70
$GBGSV,3,3,12,27,55,137,34,29,48,037,34,08,26,308,,20,16,109,,0*7D
$GAGSV,3,1,11,05,04,245,,06,50,270,,07,59,017,,08,13,051,,0*71
$GAGSV,3,2,11,12,03,148,,13,09,101,,14,01,054,,17,32,160,,0*76
$GAGSV,3,3,11,23,33,314,,24,72,234,,26,27,254,,0*47

.42,1.23,2.08,3*0D
$GPGSV,4,1,14,02,26,049,,05,58,056,,09,28,154,,12,48,067,,0*68
$GPGSV,4,2,14,14,23,259,,21,14,190,,24,45,155,,29,66,278,,0*62
$GPGSV,4,3,14,30,61,358,,31,23,317,,42,48,147,,50,45,139,,0*6C
$GPGSV,4,4,14,40,11,257,,41,34,237,,0*60
$GBGSV,3,1,12,01,37,125,33,02,56,174,35,04,40,123,35,06,33,197,35,0*79
$GBGSV,3,2,12,15,36,218,35,19,12
,176,34,25,56,233,35,26,44,043,35,0*70
$GBGSV,3,3,12,27,55,137,35,29,48,037,35,08,26,308,,20,16,109,,0*7D
$GAGSV,3,1,11,05,04,245,,06,50,270,,07,59,017,,08,13,051,,0*71
$GAGSV,3,2,11,12,03,148,,13,09,101,,14,01,054,,17,32,160,,0*76
$GAGSV,3,3,11,23,33,314,,24,72,234,,26,27,254,,0*47

$GNRMC,080600.00,A,3114.51224,N,12130.00375,E,17.347,66.05,200821,,,A,V*09
$GNGGA,080600.00,3114.51224,N,12130.00375,E,1,10,1.23,48.1,M,,M,,*69
$GNGSA,A,3,,,,,,,,,,,,,2.42,1.23,2.08,1*0F
$GNGSA,A,3,19,25,26,27,29,06,15,01,04,02,,,2.42,1.23,2.08,4*0A
$GNGSA,A,3,,,,,,,,,,,,,2.42,1.23,2.08,3*0D
$GPGSV,4,1,14,02,26,049,,05,58,056,,09,28,154,,12,48,067,,0*68
$GPGSV,4,2,14,14,23,259,,21,14,190,,24,45,15
5,,29,66,278,,0*62
$GPGSV,4,3,14,30,61,358,,31,23,317,,42,48,147,,50,45,139,,0*6C
$GPGSV,4,4,14,40,11,257,,41,34,237,,0*60
$GBGSV,3,1,12,01,37,125,34,02,56,174,35,04,40,123,35,06,33,197,35,0*7E
$GBGSV,3,2,12,15,36,218,35,19,12,176,35,25,56,233,35,26,44,043,35,0*71
$GBGSV,3,3,12,27,55,137,35,29,47,037,35,08,26,308,,20,16,109,,0*72
$GAGSV,3,1,11,05,04,245,,06,50,270,,07,59,017,,08,13,051,,0*71
$GAGSV,3,2,11,12,03,148,,13,09,101,,14,01,054,,17,32,160,,0*76
$GAGSV,3,3,11,23,33,314,,24,72,234,,26,27,254,,0*47

SV,4,1,14,02,26,049,,05,58,056,,09,28,154,,12,48,067,,0*68
$GPGSV,4,2,14,14,23,259,,21,14,190,,24,45,155,,29,66,278,,0*62
$GPGSV,4,3,14,30,61,358,,31,23,317,,42,48,147,,50,45,139,,0*6C
$GPGSV,4,4,14,40,11,257,,41,34,237,,0*60
$GBGSV,3,1,12,01,37,125,35,02,56,174,35,04,40,123,35,06,33,197,35,0*7F
$GBGSV,3,2,12,15,36,218,35,19,12,176,35,25,56,233,35,26,44,043,35,0*71
$GBGSV,3,3,12,27,55,137,35,29,47,037,35,08,26,308,,20,16,109,,0*72
$GAGSV,3,1,11,05,04,245,,06,50,270,,07,59,017,,08,13,051,,0*71
$GAGSV,3,2,11,12,03,148,,13,09,101,,14,01,054,,17,32,160,,0*76
$GAGSV,3,3,11,23,33,314,,24,72,234,,26,27,254,,0*47
$GNRMC,080602.00,A,3114.51252,N,12130.01537,E,18.526,97.33,200821,,,A,V*0E
$GNGGA,080602.00,3114.51252,N,12130.01537,E,1,10,1.23,48.0,M,,M,,*6A
$GNGSA,A,3,,,,,,,,,,,,,2.42,1.23,2.08,1*0F
$GNGSA,A,3,19,25,26,27,29,06,15,01,04,02,,,2.42,1.23,2.08,4*0A
$GNGSA,A,3,,,,,,,,,,,,,2.42,1.23,2.08,3*0D
$GPGSV,4,1,14,02,26,049,,05,58,056,,09,28,154,,12,48,067,,0*68
$GPGSV,4,2,14,14,23,259,,21,14,190,,24,45,155,,29,66,278,,0*62
$GPGSV,4,3,14,30,61,358,,31,23,317,,42,48
,147,,50,45,139,,0*6C
$GPGSV,4,4,14,40,11,257,,41,34,237,,0*60
$GBGSV,3,1,12,01,37,125,30,02,56,174,35,04,40,123,35,06,33,197,34,0*7B
$GBGSV,3,2,12,15,36,218,35,19,12,176,35,25,56,233,35,26,44,043,34,0*70
$GBGSV,3,3,12,27,55,137,34,29,47,037,34,08,26,308,,20,16,109,,0*72
$GAGSV,3,1,11,05,04,245,,06,50,270,,07,59,017,,08,13,051,,0*71
$GAGSV,3,2,11,12,03,148,,13,09,101,,14,01,054,,17,32,160,,0*76
$GAGSV,3,3,11,23,33,314,,24,72,234,,26,27,254,,0*47

$GNRMC,080603.00,A,3114.51296,N,12130.03406,E,60.184,87.65,200821,,,A,V*07
$GNGGA,080603.00,3114.51296,N,12130.03406,E,1,10,1.23,47.1,M,,M,,*6C
$GNGSA,A,3,,,,,,,,,,,,,2.42,1.23,2.08,1*0F
$GNGSA,A,3,19,25,26,27,29,06,15,01,04,02,,,2.42,1.23,2.08,4*0A
$GNGSA,A,3,,,,,,,,,,,,,2.42,1.23,2.08,3*0D
$GPGSV,4,1,14,02,26,049,,05,58,056,,09,28,154,,12,48,067,,0*68
$GPGSV,4,
2,14,14,23,259,,21,14,190,,24,45,155,,29,66,278,,0*62
$GPGSV,4,3,14,30,61,358,,31,23,317,,42,48,147,,50,45,139,,0*6C
$GPGSV,4,4,14,40,11,257,,41,34,237,,0*60
$GBGSV,3,1,12,01,37,125,32,02,56,174,36,04,40,123,35,06,33,197,35,0*7B
$GBGSV,3,2,12,15,36,218,35,19,12,176,35,25,56,233,35,26,44,043,35,0*71
$GBGSV,3,3,12,27,55,137,35,29,47,037,35,08,26,308,,20,16,109,,0*72
$GAGSV,3,1,11,05,04,245,,06,50,270,,07,59,017,,08,13,051,,0*71
$GAGSV,3,2,11,12,03,148,,13,09,101,,14,01,054,,17,32,160,,0*76
$GAGSV,3,3,11,23,33,314,,24,72,234,,26,27,254,,0*47

09,3*0C
$GPGSV,4,1,14,02,26,049,,05,58,056,,09,28,154,,12,48,067,,0*68
$GPGSV,4,2,14,14,23,259,,21,14,190,,24,45,155,,29,66,278,,0*62
$GPGSV,4,3,14,30,61,358,,31,23,317,,42,48,147,,50,45,139,,0*6C
$GPGSV,4,4,14,40,11,257,,41,34,237,,0*60
$GBGSV,3,1,12,01,37,125,34,02,56,174,35,04,40,123,36,06,33,197,35,0*7D
$GBGSV,3,2,12,15,36,218,35,19,12,176,35,25
,56,233,35,26,44,043,35,0*71
$GBGSV,3,3,12,27,55,137,35,29,47,037,35,08,26,308,,20,16,109,,0*72
$GAGSV,3,1,11,05,04,245,,06,50,270,,07,59,017,,08,13,051,,0*71
$GAGSV,3,2,11,12,03,148,,13,09,101,,14,01,054,,17,32,160,,0*76
$GAGSV,3,3,11,23,33,314,,24,72,234,,26,27,254,,0*47

$GNRMC,080605.00,A,3114.51286,N,12130.09298,E,116.127,89.41,200821,,,A,V*3A
$GNGGA,080605.00,3114.51286,N,12130.09298,E,1,10,1.23,46.9,M,,M,,*69
$GNGSA,A,3,,,,,,,,,,,,,2.42,1.23,2.09,1*0E
$GNGSA,A,3,19,25,26,27,29,06,15,01,04,02,,,2.42,1.23,2.09,4*0B
$GNGSA,A,3,,,,,,,,,,,,,2.42,1.23,2.09,3*0C
$GPGSV,4,1,14,02,26,049,,05,58,056,,09,28,154,,12,48,067,,0*68
$GPGSV,4,2,14,14,23,259,,21,14,190,,24,45,155,,29,66,278,,0*62
$G
PGSV,4,3,14,30,61,358,,31,23,317,,42,48,147,,50,45,139,,0*6C
$GPGSV,4,4,14,40,11,257,,41,34,237,,0*60
$GBGSV,3,1,12,01,37,125,34,02,56,174,35,04,40,123,35,06,33,197,35,0*7E
$GBGSV,3,2,12,15,36,218,35,19,12,176,35,25,56,233,35,26,44,043,35,0*71
$GBGSV,3,3,12,27,55,137,35,29,47,037,35,08,26,308,,20,16,109,,0*72
$GAGSV,3,1,11,05,04,245,,06,50,270,,07,59,017,,08,13,051,,0*71
$GAGSV,3,2,11,12,03,148,,13,09,101,,14,01,054,,17,32,160,,0*76
$GAGSV,3,3,11,23,33,314,,24,72,234,,26,27,254,,0*47

$GNRMC,080606.00,A,3114.51260,N,12130.13589,E,144.586,89.81,200821,,,A,V*39
$GNGGA,080606.00,3114.51260,N,12130.13589,E,1,10,1.23,47.3,M,,M,,*65
$GNGSA,A,3,,,,,,,,,,,,,2.42,1.23,2.09,1*0E
$GNGSA,A,3,19,25,26,27,29,06,15,01,04,02,,,2.42,1.23,2.09,4*0B
$GNGSA,A,3,,,,,,,,,,,,,2.42,1.23,2.09,3*0C
$GPGSV,4,1,14,02,26,049,,05,58,056,,09,28,154,,12,48,067,,0*68
$GPGSV,4,2,14,14,23,259,,21,14,190,,24,45,155,,29,66,278,,0*62
$GPGSV
,4,3,14,30,61,358,,31,23,317,,42,48,147,,50,45,139,,0*6C
$GPGSV,4,4,14,40,11,257,,41,34,237,,0*60
$GBGSV,3,1,12,01,37,125,35,02,56,174,35,04,40,123,35,06,33,197,35,0*7F
$GBGSV,3,2,12,15,36,218,35,19,12,176,35,25,56,233,35,26,44,043,35,0*71
$GBGSV,3,3,12,27,55,137,35,29,47,037,35,08,26,308,,20,16,109,,0*72
$GAGSV,3,1,11,05,04,245,,06,50,270,,07,59,017,,08,13,051,,0*71
$GAGSV,3,2,11,12,03,148,,13,09,101,,14,01,054,,17,32,160,,0*76
$GAGSV,3,3,11,23,33,314,,24,72,234,,26,27,254,,0*47

$GNRMC,080607.00,A,3114.51235,N,12130.18672,E,166.426,89.83,200821,,,A,V*3D
$GNGGA,080607.00,3114.51235,N,12130.18672,E,1,10,1.23,48.5,M,,M,,*61
$GNGSA,A,3,,,,,,,,,,,,,2.42,1.23,2.09,1*0E
$GNGSA,A,3,19,25,26,27,29,06,15,01,04,02,,,2.42,1.23,2.09,4*0B
$GNGSA,A,3,,,,,,,,,,,,,2.42,1.23,2.09,3*0C
$GPGSV,4
,1,14,02,26,049,,05,58,056,,09,28,154,,12,48,067,,0*68
$GPGSV,4,2,14,14,23,259,,21,14,190,,24,45,155,,29,66,278,,0*62
$GPGSV,4,3,14,30,61,358,,31,23,317,,42,48,147,,50,45,139,,0*6C
$GPGSV,4,4,14,40,11,257,,41,34,237,,0*60
$GBGSV,3,1,12,01,37,125,35,02,56,174,35,04,40,123,35,06,33,197,35,0*7F
$GBGSV,3,2,12,15,36,218,35,19,12,176,35,25,56,233,35,26,44,043,35,0*71
$GBGSV,3,3,12,27,55,137,35,29,47,037,35,08,26,308,,20,16,109,,0*72
$GAGSV,3,1,11,05,04,245,,06,50,270,,07,59,017,,08,13,051,,0*71
$GAGSV,3,2,11,12,03,148,,13,09,101,,14,01,054,,17,32,160,,0*76
$GAGSV,3,3,11,23,33,314,,24,72,234,,26,27,254,,0*47

SV,4,1,14,02,26,049,,05,58,056,,09,28,154,,12,48,067,,0*68
$GPGSV,4,2,14,14,23,259,,21,14,190,,24,45,155,,29,66,278,,0*62
$GPGSV,4,3,14,30,61,358,,31,23,317,,42,48,147,,50,45,139,,0*6C
$GPGSV,4,4,14,40,11,257,,41,34,237,,0*60
$GBGSV,3,1,12,01,37,125,24,02,56,174,36,04,40,123,36,06,33,197,35,0*7F
$GBGSV,3,2,12,15,36,218,35,19,12,176,35,25,56,233,35,26,44,043,35,0*71
$GBGSV,
3,3,12,27,55,137,35,29,47,037,35,08,26,308,,20,16,109,,0*72
$GAGSV,3,1,11,05,04,245,,06,50,270,,07,59,017,,08,13,051,,0*71
$GAGSV,3,2,11,12,03,148,,13,09,101,,14,01,054,,17,32,160,,0*76
$GAGSV,3,3,11,23,33,314,,24,72,234,,26,27,254,,0*47

$GNRMC,080609.00,A,3114.51187,N,12130.29561,E,166.311,90.54,200821,,,A,V*3B
$GNGGA,080609.00,3114.51187,N,12130.29561,E,1,10,1.23,49.7,M,,M,,*65
$GNGSA,A,3,,,,,,,,,,,,,2.42,1.23,2.09,1*0E
$GNGSA,A,3,19,25,26,27,29,06,15,01,04,02,,,2.42,1.23,2.09,4*0B
$GNGSA,A,3,,,,,,,,,,,,,2.42,1.23,2.09,3*0C
$GPGSV,
4,1,14,02,26,049,,05,58,056,,09,28,154,,12,48,067,,0*68
$GPGSV,4,2,14,14,23,259,,21,14,190,,24,45,155,,29,66,278,,0*62
$GPGSV,4,3,14,30,61,358,,31,23,317,,42,48,147,,50,45,139,,0*6C
$GPGSV,4,4,14,40,11,257,,41,34,237,,0*60
$GBGSV,3,1,12,01,37,125,29,02,56,174,35,04,40,123,35,06,33,197,35,0*72
$GBGSV,3,2,12,15,36,218,35,19,12,176,35,25,56,233,35,26,44,043,35,0*71
$GBGSV,3,3,12,27,55,137,35,29,47,037,35,08,26,308,,20,16,109,,0*72
$GAGSV,3,1,11,05,04,246,,06,50,270,,07,59,017,,08,13,051,,0*72
$GAGSV,3,2,11,12,03,148,,13,09,101,,14,01,054,,17,32,160,,0*76
$GAGSV,3,3,11,23,33,314,,24,72,234,,26,27,254,,0*47

$GNRMC,080610.00,A,3114.51153,N,12130.34855,E,163.055,90.23,200821,,,A,V*3A
$GNGGA,080610.00,3114.51153,N,12130.34855,E,1,10,1.23,49.4,M,,M,,*61
$GNGSA,A,3,,,,,,,,,,,,,2.42,1.23,2.09,1*0E
$GNGSA,A,3,19,25,26,27,29,06,15,01,04,02,,,2.42,1.23,2.09,4*0B
$GNGSA,A,3,,,,,,,,,,,,,2.42,1.23,2.09,3*0C
$GPGSV,4,1,14,02,26,049,,05,58,056,,09,28,154,,12,48,067
,,0*68
$GPGSV,4,2,14,14,23,259,,21,14,190,,24,45,155,,29,66,278,,0*62
$GPGSV,4,3,14,30,61,358,,31,23,317,,42,48,147,,50,45,139,,0*6C
$GPGSV,4,4,14,40,11,257,,41,34,237,,0*60
$GBGSV,3,1,12,01,37,125,31,02,56,174,35,04,40,123,35,06,33,197,35,0*7B
$GBGSV,3,2,12,15,36,218,35,19,12,176,35,25,56,233,36,26,44,043,35,0*72
$GBGSV,3,3,12,27,55,137,35,29,47,037,35,08,26,308,,20,17,109,,0*73
$GAGSV,3,1,11,05,04,246,,06,50,270,,07,59,017,,08,13,051,,0*72
$GAGSV,3,2,11,12,03,148,,13,09,101,,14,01,054,,17,32,160,,0*76
$GAGSV,3,3,11,23,34,314,,24,72,234,,26,27,254,,0*40

$GNRMC,080611.00,A,3114.51138,N,12130.40106,E,161.551,89.88,200821,,,A,V*30
$GNGGA,080611.00,3114.51138,N,12130.40106,E,1,10,1.23,49.5,M,,M,,*60
$GNGSA,A,3,,,,,,,,,,,,,2.42,1.23,2.09,1*0E
$GNGSA,A,3,19,25,26,27,29,06,15,01,04,02,,,2.42,1.23,2.09,4*0B
$GNGSA,A,3,,,,,,,,,,,,,2.42,1.23,2.09,3*0C
$GPGSV,4,1,14,02,26,049,,05,58,056,,09,28,154
,,12,48,067,,0*68
$GPGSV,4,2,14,14,23,259,,21,14,190,,24,45,155,,29,66,278,,0*62
$GPGSV,4,3,14,30,61,358,,31,23,317,,42,48,147,,50,45,139,,0*6C
$GPGSV,4,4,14,40,11,257,,41,34,237,,0*60
$GBGSV,3,1,12,01,37,125,32,02,56,174,35,04,40,123,35,06,33,197,35,0*78
$GBGSV,3,2,12,15,36,218,35,19,12,176,35,25,56,233,35,26,44,043,35,0*71
$GBGSV,3,3,12,27,55,137,35,29,47,037,35,08,26,308,,20,17,109,,0*73
$GAGSV,3,1,11,05,04,246,,06,50,270,,07,59,017,,08,13,051,,0*72
$GAGSV,3,2,11,12,03,148,,13,09,101,,14,01,054,,17,32,160,,0*76
$GAGSV,3,3,11,23,34,314,,24,72,234,,26,27,254,,0*40

$GNRMC,080612.00,A,3114.51126,N,12130.45336,E,161.834,90.04,200821,,,A,V*3A
$GNGGA,080612.00,3114.51126,N,12130.45336,E,1,10,1.23,49.2,M,,M,,*6F
$GNGSA,A,3,,,,,,,,,,,,,2.42,1.23,2.09,1*0E
$GNGSA,A,3,19,25,26,27,29,06,15,01,04,02,,,2.42,1.23,2.09,4*0B
$GNGSA,A,3,,,,,,,,,,,,,2.42,1.23,2.09,3*0C
$GPGSV,4,1,14,02,26,049,,05,58,056,,09,28,154,,12,48,067,,0*68
$
GPGSV,4,2,14,14,23,259,,21,14,190,,24,45,155,,29,66,278,,0*62
$GPGSV,4,3,14,30,61,358,,31,23,317,,42,48,147,,50,45,139,,0*6C
$GPGSV,4,4,14,40,11,257,,41,34,237,,0*60
$GBGSV,3,1,12,01,37,125,34,02,56,174,35,04,40,123,35,06,33,197,35,0*7E
$GBGSV,3,2,12,15,36,218,35,19,12,176,35,25,56,233,35,26,44,043,35,0*71
$GBGSV,3,3,12,27,55,137,35,29,47,037,35,08,26,308,,20,17,108,,0*72
$GAGSV,3,1,11,05,04,246,,06,50,270,,07,59,017,,08,13,051,,0*72
$GAGSV,3,2,11,12,03,148,,13,09,101,,14,01,054,,17,32,160,,0*76
$GAGSV,3,3,11,23,34,314,,24,72,234,,26,27,254,,0*40

$GNRMC,080613.00,A,3114.51111,N,12130.50579,E,161.565,89.98,200821,,,A,V*32
$GNGGA,080613.00,3114.51111,N,12130.50579,E,1,10,1.23,48.9,M,,M,,*69
$GNGSA,A,3,,,,,,,,,,,,,2.42,1.23,2.09,1*0E
$GNGSA,A,3,19,25,26,27,29,06,15,01,04,02,,,2.42,1.23,2.09,4*0B
$GNGSA,A,3,,,,,,,,,,,,,2.42,1.23,2.09,3*0C
$GPGSV,4,1,14,02,26,049,,05,58,056,,09,28,154,,12,48,067,,0
*68
$GPGSV,4,2,14,14,23,259,,21,14,190,,24,45,155,,29,66,278,,0*62
$GPGSV,4,3,14,30,61,358,,31,23,317,,42,48,147,,50,45,139,,0*6C
$GPGSV,4,4,14,40,11,257,,41,34,237,,0*60
$GBGSV,3,1,12,01,37,125,34,02,56,174,35,04,40,123,35,06,33,197,35,0*7E
$GBGSV,3,2,12,15,36,218,35,19,12,176,35,25,56,233,35,26,44,043,35,0*71
$GBGSV,3,3,12,27,55,137,35,29,47,037,35,08,26,308,,20,17,108,,0*72
$GAGSV,3,1,11,05,04,246,,06,50,270,,07,59,017,,08,13,051,,0*72
$GAGSV,3,2,11,12,03,148,,13,09,101,,14,01,054,,17,32,160,,0*76
$GAGSV,3,3,11,23,34,314,,24,72,234,,26,27,254,,0*40

$GNRMC,080614.00,A,3114.51096,N,12130.55813,E,161.942,90.05,200821,,,A,V*3A
$GNGGA,080614.00,3114.51096,N,12130.55813,E,1,10,1.23,48.6,M,,M,,*6B
$GNGSA,A,3,,,,,,,,,,,,,2.42,1.23,2.09,1*0E
$GNGSA,A,3,19,25,26,27,29,06,15,01,04,02,,,2.42,1.23,2.09,4*0B
$GNGSA,A,3,,,,,,,,,,,,,2.42,1.23,2.09,3*0C
$GPGSV,4,1,14,02,26,049,,05,58,056,,09,28,154,,12,48,067,,0*68
$GP
GSV,4,2,14,14,23,259,,21,14,190,,24,45,155,,29,66,278,,0*62
$GPGSV,4,3,14,30,61,358,,31,23,317,,42,48,147,,50,45,139,,0*6C
$GPGSV,4,4,14,40,11,257,,41,34,237,,0*60
$GBGSV,3,1,12,01,37,125,35,02,56,174,35,04,40,123,35,06,33,197,35,0*7F
$GBGSV,3,2,12,15,36,218,35,19,12,176,35,25,56,233,35,26,44,043,35,0*71
$GBGSV,3,3,12,27,55,137,34,29,47,037,35,08,26,308,,20,17,108,,0*73
$GAGSV,3,1,11,05,04,246,,06,50,270,,07,59,017,,08,13,051,,0*72
$GAGSV,3,2,11,12,03,148,,13,09,101,,14,01,054,,17,32,160,,0*76
$GAGSV,3,3,11,23,34,314,,24,72,234,,26,27,254,,0*40

$GNRMC,080615.00,A,3114.51074,N,12130.61062,E,162.856,90.13,200821,,,A,V*3E
$GNGGA,080615.00,3114.51074,N,12130.61062,E,1,10,1.23,48.7,M,,M,,*6E
$GNGSA,A,3,,,,,,,,,,,,,2.42,1.23,2.09,1*0E
$GNGSA,A,3,19,25,26,27,29,06,15,01,04,02,,,2.42,1.23,2.09,4*0B
$GNGSA,A,3,,,,,,,,,,,,,2.42,1.23,2.09,3*0C
$GPGSV,4,1,14,02,26,049,,05,58,056,,09,28,154
,,12,48,067,,0*68
$GPGSV,4,2,14,14,23,259,,21,14,190,,24,45,155,,29,66,278,,0*62
$GPGSV,4,3,14,30,61,358,,31,23,317,,42,48,147,,50,45,139,,0*6C
$GPGSV,4,4,14,40,11,257,,41,34,237,,0*60
$GBGSV,3,1,12,01,37,125,35,02,56,174,35,04,40,123,35,06,33,197,35,0*7F
$GBGSV,3,2,12,15,36,218,35,19,12,176,35,25,56,233,35,26,44,043,35,0*71
$GBGSV,3,3,12,27,55,137,35,29,47,037,35,08,26,308,,20,17,108,,0*72
$GAGSV,3,1,11,05,04,246,,06,50,270,,07,59,017,,08,13,051,,0*72
$GAGSV,3,2,11,12,03,148,,13,09,101,,14,01,054,,17,32,160,,0*76
$GAGSV,3,3,11,23,34,314,,24,72,234,,26,27,254,,0*40

$GNRMC,080616.00,A,3114.51066,N,12130.66302,E,161.701,89.97,200821,,,A,V*36
$GNGGA,080616.00,3114.51066,N,12130.66302,E,1,10,1.23,48.8,M,,M,,*63
$GNGSA,A,3,,,,,,,,,,,,,2.42,1.23,2.09,1*0E
$GNGSA,A,3,19,25,26,27,29,06,15,01,04,02,,,2.42,1.23,2.09,4*0B
$GNGSA,A,3,,,,,,,,,,,,,2.42,1.23,2.09,3*0C
$GPGSV,4
,1,14,02,26,049,,05,58,056,,09,28,154,,12,48,067,,0*68
$GPGSV,4,2,14,14,23,259,,21,14,190,,24,45,155,,29,66,278,,0*62
$GPGSV,4,3,14,30,61,358,,31,23,317,,42,48,147,,50,45,139,,0*6C
$GPGSV,4,4,14,40,11,257,,41,34,237,,0*60
$GBGSV,3,1,12,01,37,125,35,02,56,174,35,04,40,123,35,06,33,197,35,0*7F
$GBGSV,3,2,12,15,36,218,35,19,12,176,35,25,56,233,35,26,44,043,35,0*71
$GBGSV,3,3,12,27,55,137,35,29,47,037,35,08,26,308,,20,17,108,,0*72
$GAGSV,3,1,11,05,04,246,,06,50,270,,07,59,017,,08,13,051,,0*72
$GAGSV,3,2,11,12,03,148,,13,09,101,,14,01,054,,17,32,160,,0*76
$GAGSV,3,3,11,23,34,314,,24,72,234,,26,27,254,,0*40

0B
$GNGSA,A,3,,,,,,,,,,,,,2.42,1.23,2.09,3*0C
$GPGSV,4,1,14,02,26,049,,05,58,056,,09,28,154,,12,48,067,,0*68
$GPGSV,4,2,14,14,23,259,,21,14,190,,24,45,155,,29,66,278,,0*62
$GPGSV,4,3,14,30,61,358,,31,23,317,,42,48,147,,50,45,139,,0*6C
$GPGSV,4,4,14,40,11,257,,41,34,237,,0*60
$GBGSV,3,1,12,01,37,125,31,02,56,174,35,04,40,123,35,06,33,197,35,0*7B
$GBGSV,3,2,12,15,36
,218,35,19,12,176,35,25,56,233,35,26,44,043,35,0*71
$GBGSV,3,3,12,27,55,137,35,29,47,037,35,08,26,308,,20,17,108,,0*72
$GAGSV,3,1,11,05,04,246,,06,50,270,,07,58,017,,08,13,051,,0*73
$GAGSV,3,2,11,12,03,148,,13,09,101,,14,01,054,,17,32,160,,0*76
$GAGSV,3,3,11,23,34,314,,24,72,234,,26,27,254,,0*40

$GNRMC,080618.00,A,3114.51020,N,12130.76715,E,157.431,90.46,200821,,,A,V*38
$GNGGA,080618.00,3114.51020,N,12130.76715,E,1,10,1.23,48.4,M,,M,,*60
$GNGSA,A,3,,,,,,,,,,,,,2.42,1.23,2.09,1*0E
$GNGSA,A,3,19,25,26,27,29,06,15,01,04,02,,,2.42,1.23,2.09,4*0B
$GNGSA,A,3,,,,,,,,,,,,,2.42,1.23,2.09,3*0C
$GPGSV,4,1,14,02,26,049,,05,58,056,,09,28,154,,12,48,067,,0*68
$GPGSV,4,2,14,14,23,259,,21,14,190,,24,45,15
5,,29,66,278,,0*62
$GPGSV,4,3,14,30,61,358,,31,23,317,,42,48,147,,50,45,139,,0*6C
$GPGSV,4,4,14,40,11,257,,41,34,237,,0*60
$GBGSV,3,1,12,01,37,125,32,02,56,174,35,04,40,123,36,06,33,197,35,0*7B
$GBGSV,3,2,12,15,36,218,35,19,12,176,35,25,56,233,35,26,44,043,34,0*70
$GBGSV,3,3,12,27,55,137,35,29,47,037,34,08,26,308,,20,17,108,,0*73
$GAGSV,3,1,11,05,04,246,,06,50,270,,07,58,017,,08,13,051,,0*73
$GAGSV,3,2,11,12,03,148,,13,09,101,,14,01,054,,17,32,160,,0*76
$GAGSV,3,3,11,23,34,314,,24,72,234,,26,27,254,,0*40

$GNRMC,080619.00,A,3114.50900,N,12130.81324,E,138.737,93.36,200821,,,A,V*35
$GNGGA,080619.00,3114.50900,N,12130.81324,E,1,10,1.23,49.0,M,,M,,*60
$GNGSA,A,3,,,,,,,,,,,,,2.42,1.23,2.09,1*0E
$GNGSA,A,3,19,25,26,27,29,06,15,01,04,02,,,2.42,1.23,2.09,4*0B
$GNGSA,A,3,,,,,,,,,,,,,2.42,1.23,2.09,3*0C
$GPGSV,4,1,14,02,26,049,,05,58,056,,09,28,154,,12,48,067,,0*68
$GPGSV,4,2,14,14,23,259,,21,14,190,,24,45,155,,29,66,278,,0*62

$GPGSV,4,3,14,30,61,358,,31,23,317,,42,48,147,,50,45,139,,0*6C
$GPGSV,4,4,14,40,11,257,,41,34,237,,0*60
$GBGSV,3,1,12,01,37,125,33,02,56,174,35,04,40,123,35,06,33,197,35,0*79
$GBGSV,3,2,12,15,36,218,35,19,12,176,35,25,56,233,35,26,44,043,35,0*71
$GBGSV,3,3,12,27,55,137,35,29,47,037,35,08,26,308,,20,17,108,,0*72
$GAGSV,3,1,11,05,04,246,,06,50,270,,07,58,017,,08,13,051,,0*73
$GAGSV,3,2,11,12,03,148,,13,09,101,,14,01,054,,17,32,160,,0*76
$GAGSV,3,3,11,23,34,314,,24,72,234,,26,27,254,,0*40

$GNRMC,080620.00,A,3114.50775,N,12130.84984,E,110.111,94.89,200821,,,A,V*3D
$GNGGA,080620.00,3114.50775,N,12130.84984,E,1,10,1.23,49.3,M,,M,,*60
$GNGSA,A,3,,,,,,,,,,,,,2.42,1.23,2.09,1*0E
$GNGSA,A,3,19,25,26,27,29,06,15,01,04,02,,,2.42,1.23,2.09,4*0B
$GNGSA,A,3,,,,,,,,,,,,,2.42,1.23,2.09,3*0C
$GPGSV,4,1,14,02,26,049,,05,58,056,,09,28,154,,12,48,067,,0*68
$GPGSV,4,2,14,14,23,259,,21,14,190,,24
,45,155,,29,66,278,,0*62
$GPGSV,4,3,14,30,61,358,,31,23,317,,42,48,147,,50,45,139,,0*6C
$GPGSV,4,4,14,40,11,257,,41,34,237,,0*60
$GBGSV,3,1,12,01,37,125,34,02,56,174,35,04,40,123,35,06,33,197,35,0*7E
$GBGSV,3,2,12,15,36,218,35,19,12,176,35,25,56,233,35,26,44,043,35,0*71
$GBGSV,3,3,12,27,55,137,36,29,47,037,35,08,26,308,,20,17,108,,0*71
$GAGSV,3,1,11,05,04,246,,06,50,270,,07,58,017,,08,13,051,,0*73
$GAGSV,3,2,11,12,03,148,,13,09,101,,14,01,054,,17,32,160,,0*76
$GAGSV,3,3,11,23,34,314,,24,72,234,,26,27,254,,0*40

$GNRMC,080621.00,A,3114.50848,N,12130.87310,E,70.662,92.49,200821,,,A,V*07
$GNGGA,080621.00,3114.50848,N,12130.87310,E,1,10,1.23,53.6,M,,M,,*6A
$GNGSA,A,3,,,,,,,,,,,,,2.42,1.23,2.09,1*0E
$GNGSA,A,3,19,25,26,27,29,06,15,01,04,02,,,2.42,1.23,2.09,4*0B
$GNGSA,A,3,,,,,,,,,,,,,2.42,1.23,2.09,3*0C
$GPGSV,4,1,14,02,26,049,,05,58,056,,09,28,154,,12,48,067,,0*68
$GPGSV,4,2,14,14
,23,259,,21,14,190,,24,45,155,,29,66,278,,0*62
$GPGSV,4,3,14,30,61,358,,31,23,317,,42,48,147,,50,45,139,,0*6C
$GPGSV,4,4,14,40,11,257,,41,34,237,,0*60
$GBGSV,3,1,12,01,37,125,34,02,56,174,35,04,40,123,36,06,33,197,35,0*7D
$GBGSV,3,2,12,15,36,218,35,19,12,176,35,25,56,233,35,26,44,043,35,0*71
$GBGSV,3,3,12,27,55,137,35,29,47,037,35,08,26,308,,20,17,108,,0*72
$GAGSV,3,1,11,05,04,246,,06,50,270,,07,58,017,,08,13,051,,0*73
$GAGSV,3,2,11,12,03,148,,13,09,101,,14,01,054,,17,32,160,,0*76
$GAGSV,3,3,11,23,34,314,,24,72,234,,26,27,254,,0*40

$GNRMC,080622.00,A,3114.50821,N,12130.89060,E,41.233,91.42,200821,,,A,V*0B
$GNGGA,080622.00,3114.50821,N,12130.89060,E,1,10,1.23,53.1,M,,M,,*6B
$GNGSA,A,3,,,,,,,,,,,,,2.43,1.23,2.09,1*0F
$GNGSA,A,3,19,25,26,27,29,06,15,01,04,02,,,2.43,1.23,2.09,4*0A
$GNGSA,A,3,,,,,,,,,,,,,2.43,1.23,2.09,3*0D
$GPGSV,4,1,14,02,26,049,,05,58,056,,09,28,154,,12,48,067,
,0*68
$GPGSV,4,2,14,14,23,259,,21,14,190,,24,45,155,,29,66,278,,0*62
$GPGSV,4,3,14,30,61,358,,31,23,317,,42,48,147,,50,45,139,,0*6C
$GPGSV,4,4,14,40,11,257,,41,34,237,,0*60
$GBGSV,3,1,12,01,37,125,34,02,56,174,35,04,40,123,35,06,33,198,35,0*71
$GBGSV,3,2,12,15,36,218,35,19,12,176,35,25,56,233,35,26,44,043,35,0*71
$GBGSV,3,3,12,27,55,137,35,29,47,037,35,08,26,308,,20,17,108,,0*72
$GAGSV,3,1,11,05,04,246,,06,50,270,,07,58,017,,08,13,051,,0*73
$GAGSV,3,2,11,12,03,148,,13,09,101,,14,01,054,,17,32,160,,0*76
$GAGSV,3,3,11,23,34,314,,24,72,234,,26,27,254,,0*40

$GNRMC,080623.00,A,3114.50843,N,12130.89867,E,14.267,91.71,200821,,,A,V*00
$GNGGA,080623.00,3114.50843,N,12130.89867,E,1,10,1.23,51.4,M,,M,,*66
$GNGSA,A,3,,,,,,,,,,,,,2.43,1.23,2.09,1*0F
$GNGSA,A,3,19,25,26,27,29,06,15,01,04,02,,,2.43,1.23,2.09,4*0A
$GNGSA,A,3,,,,,,,,,,,,,2.43,1.23,2.09,3*0D
$GPGSV,4
,1,14,02,26,049,,05,58,056,,09,28,154,,12,48,067,,0*68
$GPGSV,4,2,14,14,23,259,,21,14,190,,24,45,155,,29,66,278,,0*62
$GPGSV,4,3,14,30,61,358,,31,23,317,,42,48,147,,50,45,139,,0*6C
$GPGSV,4,4,14,40,11,257,,41,34,237,,0*60
$GBGSV,3,1,12,01,37,125,35,02,56,174,35,04,40,123,35,06,33,198,35,0*70
$GBGSV,3,2,12,15,36,218,35,19,12,176,35,25,56,233,35,26,44,043,35,0*71
$GBGSV,3,3,12,27,55,137,35,29,47,037,35,08,26,308,,20,17,108,,0*72
$GAGSV,3,1,11,05,04,246,,06,50,270,,07,58,017,,08,13,051,,0*73
$GAGSV,3,2,11,12,03,148,,13,09,101,,14,01,054,,17,32,160,,0*76
$GAGSV,3,3,11,23,34,314,,24,72,234,,26,27,254,,0*40

$GNRMC,080624.00,A,3114.50861,N,12130.89978,E,8.206,286.98,200821,,,A,V*01
$GNGGA,080624.00,3114.50861,N,12130.89978,E,1,10,1.23,51.4,M,,M,,*6E
$GNGSA,A,3,,,,,,,,,,,,,2.43,1.23,2.09,1*0F
$GNGSA,A,3,19,25,26,27,29,06,15,01,04,02,,,2.43,1.23,2.09,4*0A
$GNGSA,A,3,,,,,,,,,,,,,2.43,1.23,2.09,3*0D
$GPGSV,4,1,14,02,26,049,,05,58,056,,09,28,154,,12,48,067,,0*6
8
$GPGSV,4,2,14,14,23,259,,21,14,190,,24,45,155,,29,66,278,,0*62
$GPGSV,4,3,14,30,61,358,,31,23,317,,42,48,147,,50,45,139,,0*6C
$GPGSV,4,4,14,40,11,257,,41,34,237,,0*60
$GBGSV,3,1,12,01,37,125,35,02,56,174,35,04,40,123,36,06,33,198,35,0*73
$GBGSV,3,2,12,15,36,218,35,19,12,176,35,25,56,233,35,26,44,043,35,0*71
$GBGSV,3,3,12,27,55,137,35,29,47,037,35,08,26,308,,20,17,108,,0*72
$GAGSV,3,1,11,05,04,246,,06,50,270,,07,58,017,,08,13,051,,0*73
$GAGSV,3,2,11,12,03,148,,13,09,101,,14,01,054,,17,32,160,,0*76
$GAGSV,3,3,11,23,34,314,,24,72,234,,26,27,254,,0*40

V,4,1,14,02,26,049,,05,58,056,,09,28,154,,12,48,067,,0*68
$GPGSV,4,2,14,14,23,259,,21,14,190,,24,45,155,,29,66,278,,0*62
$GPGSV,4,3,14,30,61,358,,31,23,317,,42,48,147,,50,45,139,,0*6C
$GPGSV,4,4,14,40,11,257,,41,34,237,,0*60
$GBGSV,3,1,12,01,37,125,36,02,56,174,35,04,40,123,35,06,33,198,35,0*73
$GBGSV,3,2,12,15,36,218,35,19,12,176,35,25,56,233,35,26
,44,043,35,0*71
$GBGSV,3,3,12,27,55,137,35,29,47,037,35,08,26,308,,20,17,108,,0*72
$GAGSV,3,1,11,05,04,246,,06,50,270,,07,58,017,,08,13,051,,0*73
$GAGSV,3,2,11,12,03,148,,13,09,101,,14,01,054,,17,31,160,,0*75
$GAGSV,3,3,11,23,34,314,,24,72,234,,26,27,254,,0*40

$GNRMC,080626.00,A,3114.50297,N,12130.90418,E,15.429,167.64,200821,,,A,V*3B
$GNGGA,080626.00,3114.50297,N,12130.90418,E,1,10,1.23,49.6,M,,M,,*67
$GNGSA,A,3,,,,,,,,,,,,,2.43,1.23,2.09,1*0F
$GNGSA,A,3,19,25,26,27,29,06,15,01,04,02,,,2.43,1.23,2.09,4*0A
$GNGSA,A,3,,,,,,,,,,,,,2.43,1.23,2.09,3*0D
$GPGSV,4,1,14,02,26,049,,05,58,056,,09,28,154,
,12,48,067,,0*68
$GPGSV,4,2,14,14,23,259,,21,14,190,,24,45,155,,29,66,278,,0*62
$GPGSV,4,3,14,30,61,358,,31,23,317,,42,48,147,,50,45,139,,0*6C
$GPGSV,4,4,14,40,11,257,,41,34,237,,0*60
$GBGSV,3,1,12,01,37,125,35,02,56,174,35,04,40,123,35,06,33,198,35,0*70
$GBGSV,3,2,12,15,36,218,35,19,12,176,35,25,56,233,35,26,44,043,35,0*71
$GBGSV,3,3,12,27,55,137,35,29,47,037,35,08,26,308,,20,17,108,,0*72
$GAGSV,3,1,11,05,04,246,,06,50,270,,07,58,017,,08,13,051,,0*73
$GAGSV,3,2,11,12,03,148,,13,09,101,,14,01,054,,17,31,160,,0*75
$GAGSV,3,3,11,23,34,314,,24,72,234,,26,27,254,,0*40

$GNRMC,080627.00,A,3114.49779,N,12130.90489,E,20.692,181.18,200821,,,A,V*38
$GNGGA,080627.00,3114.49779,N,12130.90489,E,1,10,1.23,49.0,M,,M,,*65
$GNGSA,A,3,,,,,,,,,,,,,2.43,1.23,2.09,1*0F
$GNGSA,A,3,19,25,26,27,29,06,15,01,04,02,,,2.43,1.23,2.09,4*0A
$GNGSA,A,3,,,,,,,,,,,,,2.43,1.23,2.09,3*0D
$GPGSV,4,1,14,02,26,049,,05,58,056,,09,28,154,,12,48,067,,0*68
$GPGSV,4,2,14,14,23,259,,21,14,190,,24,45,155,,29,66,278,,0*62
$GPGSV,4,3,14,30,61,358,,31,23,317,,42,48,147,,50,45
,139,,0*6C
$GPGSV,4,4,14,40,11,257,,41,34,237,,0*60
$GBGSV,3,1,12,01,37,125,35,02,56,174,35,04,40,123,36,06,33,198,35,0*73
$GBGSV,3,2,12,15,36,218,35,19,12,176,34,25,56,233,35,26,44,043,35,0*70
$GBGSV,3,3,12,27,55,137,35,29,47,037,35,08,26,308,,20,17,108,,0*72
$GAGSV,3,1,11,05,04,246,,06,50,270,,07,58,017,,08,13,051,,0*73
$GAGSV,3,2,11,12,03,148,,13,09,101,,14,01,054,,17,31,160,,0*75
$GAGSV,3,3,11,23,34,314,,24,72,234,,26,27,254,,0*40

1.23,2.09,3*0D
$GPGSV,4,1,14,02,26,049,,05,58,056,,09,28,154,,12,48,067,,0*68
$GPGSV,4,2,14,14,23,259,,21,14,190,,24,45,155,,29,66,279,,0*63
$GPGSV,4,3,14,30,61,358,,31,23,317,,42,48,147,,50,45,139,,0*6C
$GPGSV,4,4,14,40,11,257,,41,34,237,,0*60
$GBGSV,3,1,12,01,37,125,35,02,56,174,36,04,40,123,35,06,33,198,33,0*75
