$GNRMC,140456.00,A,3114.50042,N,12130.90722,E,16.731,162.58,010620,,,A,V*3C
$GNGGA,140456.00,3114.50042,N,12130.90722,E,1,10,0.90,50.1,M,,M,,*69
$GNGSA,A,3,,,,,,,,,,,,,1.80,0.90,1.56,1*03
$GNGSA,A,3,06,13,11,23,30,14,36,02,17,08,,,1.80,0.90,1.56,4*0C
$GNGSA,A,3,,,,,,,,,,,,,1.80,0.90,1.56,3*01
$GPGSV,4,1,15,02,33,048,,05,67,053,,09,29,167,,10,10,109,,0*62
$GPGSV,4,2,15,12,57,
070,,14,13,263,,21,14,200,,24,50,172,,0*62
$GPGSV,4,3,15,29,56,283,,30,60,345,,31,18,318,,42,48,147,,0*69
$GPGSV,4,4,15,50,45,139,,40,11,257,,41,34,237,,0*5E
$GBGSV,4,1,15,02,56,187,26,06,44,207,36,08,38,317,35,11,22,092,35,0*76
$GBGSV,4,2,15,13,49,170,35,14,53,073,35,17,41,040,35,23,27,129,35,0*72
$GBGSV,4,3,15,30,15,278,35,36,73,272,35,29,03,238,,32,12,209,35,0*76
$GBGSV,4,4,15,37,12,150,35,01,,,35,04,,,35,0*43
$GAGSV,3,1,12,01,47,034,,02,03,063,,07,13,260,,08,55,298,,0*7E
$GAGSV,3,2,12,14,14,137,,15,17,086,,16,01,040,,17,44,299,,0*79
$
GAGSV,3,3,12,18,56,206,,19,15,164,,24,01,326,,25,25,052,,0*71

$GNRMC,140457.00,A,3114.49557,N,12130.90785,E,19.302,182.64,010620,,,A,V*33
$GNGGA,140457.00,3114.49557,N,12130.90785,E,1,10,0.90,49.8,M,,M,,*6D
$GNGSA,A,3,,,,,,,,,,,,,1.80,0.90,1.56,1*03
$GNGSA,A,3,06,13,11,23,30,14,36,02,17,08,,,1.80,0.90,1.56,4*0C
$GNGSA,A,3,,,,,,,,,,,,,1.80,0.90,1.56,3*01
$GPGSV,4,1,15,02,33,048,,05,67,053,,09,29,167,,10,10,109,,0*62
$GPGSV,4,2,15,12,57,070,,14,1
3,263,,21,14,200,,24,50,172,,0*62
$GPGSV,4,3,15,29,56,283,,30,60,345,,31,18,318,,42,48,147,,0*69
$GPGSV,4,4,15,50,45,139,,40,11,257,,41,34,237,,0*5E
$GBGSV,4,1,15,02,56,187,26,06,44,207,35,08,38,317,35,11,22,092,35,0*75
$GBGSV,4,2,15,13,49,170,35,14,53,073,35,17,41,040,35,23,27,129,35,0*72
$GBGSV,4,3,15,30,15,278,34,36,73,272,35,29,03,238,,32,12,209,35,0*77
$GBGSV,4,4,15,37,12,150,35,01,,,36,04,,,35,0*40
$GAGSV,3,1,12,01,47,034,,02,03,063,,07,13,260,,08,55,298,,0*7E
$GAGSV,3,2,12,14,14,137,,15,17,086,,16,01,040,,17,44,299,,0*79


$GAGSV,3,3,12,18,56,206,,19,15,164,,24,01,326,,25,25,052,,0*71

,1.56,4*0C
$GNGSA,A,3,,,,,,,,,,,,,1.80,0.90,1.56,3*01
$GPGSV,4,1,15,02,33,048,,05,67,053,,09,29,167,,10,10,109,,0*62
$GPGSV,4,2,15,12,57,070,,14,13,263,,21,14,200,,24,50,172,,0*62
$GPGSV,4,3,15,29,56,283,,30,60,345,,31,18,318,,42,48,147,,0*69
$GPGSV,4,4,15,50,45,139,,40,11,257,,41,34,237,,0*5E
$GBGSV,4,1,15,02,56,187,24,06,44,207,34,08,38,317,34,11,
22,092,35,0*77
$GBGSV,4,2,15,13,49,170,34,14,53,073,35,17,41,040,35,23,27,129,35,0*73
$GBGSV,4,3,15,30,15,278,35,36,73,272,35,29,03,238,,32,12,209,33,0*70
$GBGSV,4,4,15,37,12,150,32,01,,,35,04,,,35,0*44
$GAGSV,3,1,12,01,47,034,,02,03,063,,07,13,260,,08,55,298,,0*7E
$GAGSV,3,2,12,14,14,137,,15,17,086,,16,01,040,,17,44,299,,0*79
$GAGSV,3,3,12,18,56,206,,19,15,164,,24,01,326,,25,25,052,,0*71

$GNRMC,140459.00,A,3114.47002,N,12130.90762,E,73.599,179.77,010620,,,A,V*31
$GNGGA,140459.00,3114.47002,N,12130.90762,E,1,10,0.90,49.5,M,,M,,*6C
$GNGSA,A,3,,,,,,,,,,,,,1.80,0.90,1.56,1*03
$GNGSA,A,3,06,13,11,23,30,14,36,02,17,08,,,1.80,0.90,1.56,4*0C
$GNGSA,A,3,,,,,,,,,,,,,1.80,0.90,1.56,3*01
$GPGSV,4,1,15,02,33,048,,05,67,053,,0
9,29,167,,10,10,109,,0*62
$GPGSV,4,2,15,12,57,070,,14,13,263,,21,14,200,,24,50,172,,0*62
$GPGSV,4,3,15,29,56,283,,30,60,345,,31,18,318,,42,48,147,,0*69
$GPGSV,4,4,15,50,45,139,,40,11,257,,41,34,237,,0*5E
$GBGSV,4,1,15,02,56,187,24,06,44,207,34,08,38,317,35,11,22,092,35,0*76
$GBGSV,4,2,15,13,49,170,34,14,53,073,35,17,41,040,35,23,27,129,34,0*72
$GBGSV,4,3,15,30,15,278,35,36,73,272,34,29,03,238,,32,12,209,32,0*70
$GBGSV,4,4,15,37,12,150,32,01,,,35,04,,,35,0*44
$GAGSV,3,1,12,01,47,034,,02,03,063,,07,13,260,,0
8,55,298,,0*7E
$GAGSV,3,2,12,14,14,137,,15,17,086,,16,01,040,,17,44,299,,0*79
$GAGSV,3,3,12,18,56,206,,19,15,164,,24,01,326,,25,25,052,,0*71

$GNRMC,140500.00,A,3114.44552,N,12130.90763,E,101.131,180.01,010620,,,A,V*0B
$GNGGA,140500.00,3114.44552,N,12130.90763,E,1,10,0.90,49.2,M,,M,,*64
$GNGSA,A,3,,,,,,,,,,,,,1.80,0.90,1.56,1*03
$GNGSA,A,3,06,13,11,23,30,14,36,02,17,08,,,1.80,0.90,1.56,4*0C
$GNGSA,A,3,,,,,,,,,,,,,1.80,0.90,1.56,3*01
$GPGSV,4,1,15,02,33,048,,05,67,053,,0
9,29,167,,10,10,109,,0*62
$GPGSV,4,2,15,12,57,070,,14,13,263,,21,14,200,,24,50,172,,0*62
$GPGSV,4,3,15,29,56,283,,30,60,345,,31,18,318,,42,48,147,,0*69
$GPGSV,4,4,15,50,45,139,,40,11,257,,41,34,237,,0*5E
$GBGSV,4,1,15,02,56,187,31,06,44,207,34,08,38,317,34,11,22,092,35,0*73
$GBGSV,4,2,15,13,49,170,34,14,53,073,35,17,41,040,35,23,27,129,35,0*73
$GBGSV,4,3,15,30,15,278,34,36,73,272,35,29,03,238,,32,12,209,33,0*71
$GBGSV,4,4,15,37,12,150,32,01,,,36,04,,,35,0*47
$GAGSV,3,1,12,01,47,034,,02,03,063,,07,13,260,,08,55,298,,0*7E
$GAGSV,
3,2,12,14,14,137,,15,17,086,,16,01,040,,17,44,299,,0*79
$GAGSV,3,3,12,18,56,206,,19,15,164,,24,01,326,,25,25,052,,0*71

$GNRMC,140501.00,A,3114.41344,N,12130.90758,E,128.012,180.03,010620,,,A,V*0F
$GNGGA,140501.00,3114.41344,N,12130.90758,E,1,10,0.90,49.0,M,,M,,*6B
$GNGSA,A,3,,,,,,,,,,,,,1.80,0.90,1.56,1*03
$GNGSA,A,3,06,13,11,23,30,14,36,02,17,08,,,1.80,0.90,1.56,4*0C
$GNGSA,A,3,,,,,,,,,,,,,1.80,0.90,1.56,3*01
$GPGSV,4,1,15,02,33,048,,05,67,053,,09,29,167,,10,10,108,,0*63
$GPGSV,
4,2,15,12,57,070,,14,13,263,,21,14,200,,24,50,172,,0*62
$GPGSV,4,3,15,29,56,283,,30,60,345,,31,18,318,,42,48,147,,0*69
$GPGSV,4,4,15,50,45,139,,40,11,257,,41,34,237,,0*5E
$GBGSV,4,1,15,02,56,187,31,06,44,207,35,08,38,317,35,11,22,092,35,0*73
$GBGSV,4,2,15,13,49,170,34,14,53,073,34,17,41,040,35,23,27,129,35,0*72
$GBGSV,4,3,15,30,15,278,35,36,73,272,35,29,03,238,,32,12,209,33,0*70
$GBGSV,4,4,15,37,12,150,33,01,,,35,04,,,35,0*45
$GAGSV,3,1,12,01,47,034,,02,03,063,,07,13,260,,08,55,298,,0*7E
$GAGSV,3,2,12,14,14,137,,15,17,086,,16,01
,040,,17,44,299,,0*79
$GAGSV,3,3,12,18,56,206,,19,15,164,,24,01,326,,25,25,052,,0*71

$GNRMC,140502.00,A,3114.37379,N,12130.90755,E,154.730,179.96,010620,,,A,V*08
$GNGGA,140502.00,3114.37379,N,12130.90755,E,1,10,0.90,49.1,M,,M,,*6B
$GNGSA,A,3,,,,,,,,,,,,,1.80,0.90,1.56,1*03
$GNGSA,A,3,06,13,11,23,30,14,36,02,17,08,,,1.80,0.90,1.56,4*0C
$GNGSA,A,3,,,,,,,,,,,,,1.80,0.90,1.56,3*01
$GPGSV,4,1,15,02,33,0
48,,05,67,053,,09,29,167,,10,10,108,,0*63
$GPGSV,4,2,15,12,57,070,,14,13,263,,21,14,200,,24,50,172,,0*62
$GPGSV,4,3,15,29,56,283,,30,60,345,,31,18,318,,42,48,147,,0*69
$GPGSV,4,4,15,50,45,139,,40,11,257,,41,34,237,,0*5E
$GBGSV,4,1,15,02,56,187,25,06,44,207,34,08,38,317,34,11,22,092,35,0*76
$GBGSV,4,2,15,13,49,170,34,14,53,073,34,17,41,040,36,23,27,129,35,0*71
$GBGSV,4,3,15,30,15,278,35,36,73,272,35,29,03,238,,32,12,209,33,0*70
$GBGSV,4,4,15,37,12,150,33,01,,,35,04,,,36,0*46
$GAGSV,3,1,12,01,47,034,,02,03,063,,07,13,260,,08,55,298,,0*7E
$GAGSV,3,2,12,14,14,137,,15,17,086,,16,01,040,,17,44,299,,0*79
$GAGSV,3,3,12,18,56,206,,19,15,164,,24,01,326,,25,25,052,,0*71

,,,,,,,,,,,,,1.80,0.90,1.56,3*01
$GPGSV,4,1,15,02,33,048,,05,67,053,,09,29,167,,10,10,108,,0*63
$GPGSV,4,2,15,12,57,070,,14,13,263,,21,14,200,,24,50,172,,0*62
$GPGSV,4,3,15,29,56,283,,30,60,345,,31,18,318,,42,48,147,,0*69
$GPGSV,4,4,15,50,45,139,,40,11,257,,41,34,237,,0*5E
$GBGSV,4,1,15,02,56,187,25,06,44,207,34,08,38,317,35,11,22,092,35,0*77
$GBGSV,4,2
,15,13,49,170,34,14,53,073,35,17,41,040,35,23,27,129,34,0*72
$GBGSV,4,3,15,30,15,278,35,36,73,272,35,29,03,238,,32,12,209,34,0*77
$GBGSV,4,4,15,37,12,150,34,01,,,34,04,,,35,0*43
$GAGSV,3,1,12,01,47,034,,02,03,063,,07,13,260,,08,55,298,,0*7E
$GAGSV,3,2,12,14,14,137,,15,17,086,,16,01,040,,17,44,299,,0*79
$GAGSV,3,3,12,18,56,206,,19,15,164,,24,01,326,,25,25,052,,0*71

$GNRMC,140504.00,A,3114.28372,N,12130.90763,E,162.582,180.06,010620,,,A,V*0F
$GNGGA,140504.00,3114.28372,N,12130.90763,E,1,10,0.90,49.3,M,,M,,*6F
$GNGSA,A,3,,,,,,,,,,,,,1.80,0.90,1.56,1*03
$GNGSA,A,3,06,13,11,23,30,14,36,02,17,08,,,1.80,0.90,1.56,4*0C
$GNGSA,A,3,,,,,,,,,,,,,1.80,0.90,1.56,3*01
$GPGSV,4,1,15,02,33,048,,05,67,053,,09,29,167,,10,10,108,,0*63
$GPGSV,4,2,15,12,57,070,,14,
13,263,,21,14,200,,24,50,172,,0*62
$GPGSV,4,3,15,29,56,283,,30,60,345,,31,18,318,,42,48,147,,0*69
$GPGSV,4,4,15,50,45,139,,40,11,257,,41,34,237,,0*5E
$GBGSV,4,1,15,02,56,187,28,06,44,207,34,08,38,317,35,11,22,092,35,0*7A
$GBGSV,4,2,15,13,49,170,35,14,53,073,35,17,41,040,35,23,27,129,35,0*72
$GBGSV,4,3,15,30,15,278,35,36,73,272,35,29,03,238,,32,12,209,35,0*76
$GBGSV,4,4,15,37,12,150,35,01,,,34,04,,,35,0*42
$GAGSV,3,1,12,01,47,034,,02,03,063,,07,13,260,,08,55,298,,0*7E
$GAGSV,3,2,12,14,14,137,,15,17,086,,16,01,040,,17,44,299,,0*79
$GAGSV,3,
$GNRMC,140505.00,A,3114.23829,N,12130.90757,E,161.939,180.05,010620,,,A,V*0B
$GNGGA,140505.00,3114.23829,N,12130.90757,E,1,10,0.90,49.3,M,,M,,*67
$GNGSA,A,3,,,,,,,,,,,,,1.80,0.90,1.56,1*03
$GNGSA,A,3,06,13,11,23,30,14,36,02,17,08,,,1.80,0.90,1.56,4*0C
$GNGSA,A,3,,,,,,,,,,,,,1.80,0.90,1.56,3*01
$GPGSV,4,1,15,02,33,048,,05,67,053,,09,29,167,,10,10,108,,0*63
$GPGSV,4,2,15
,12,57,070,,14,13,263,,21,14,200,,24,50,172,,0*62
$GPGSV,4,3,15,29,56,283,,30,60,345,,31,18,318,,42,48,147,,0*69
$GPGSV,4,4,15,50,45,139,,40,11,257,,41,34,237,,0*5E
$GBGSV,4,1,15,02,56,187,28,06,44,207,35,08,38,317,35,11,22,092,35,0*7B
$GBGSV,4,2,15,13,49,170,34,14,53,073,35,17,41,040,35,23,27,129,35,0*73
$GBGSV,4,3,15,30,15,278,35,36,73,272,35,29,03,238,,32,12,209,35,0*76
$GBGSV,4,4,15,37,12,150,35,01,,,35,04,,,35,0*43
$GAGSV,3,1,12,01,47,034,,02,03,063,,07,13,260,,08,55,298,,0*7E
$GAGSV,3,2,12,14,14,137,,15,17,086,,16,01,040,,17,44,299,,0*79
$GAGSV,3,3,12,18,56,206,,19,15,164,,24,01,326,,25,25,052,,0*71

$GNRMC,140506.00,A,3114.19296,N,12130.90747,E,161.958,179.99,010620,,,A,V*0A
$GNGGA,140506.00,3114.19296,N,12130.90747,E,1,10,0.90,49.4,M,,M,,*65
$GNGSA,A,3,,,,,,,,,,,,,1.80,0.90,1.56,1*03
$GNGSA,A,3,06,13,11,23,30,14,36,02,17,08,,,1.80,0.90,1.56,4*0C
$GNGSA,A,3,,,,,,,,,,,,,1.80,0.90,1.56,3*01
$GPGSV,4,1,15,02,33,048,,05,67,053,,09,29,167,,10,10,108,,0*63
$GPGSV,4,2
,15,12,57,070,,14,13,263,,21,14,200,,24,50,172,,0*62
$GPGSV,4,3,15,29,56,283,,30,60,345,,31,18,318,,42,48,147,,0*69
$GPGSV,4,4,15,50,45,139,,40,11,257,,41,34,237,,0*5E
$GBGSV,4,1,15,02,56,187,31,06,44,207,35,08,38,317,35,11,22,092,36,0*70
$GBGSV,4,2,15,13,49,170,35,14,53,073,35,17,41,040,35,23,27,129,35,0*72
$GBGSV,4,3,15,30,15,278,35,36,73,272,35,29,03,238,,32,12,209,35,0*76
$GBGSV,4,4,15,37,12,150,35,01,,,35,04,,,35,0*43
$GAGSV,3,1,12,01,47,034,,02,03,063,,07,13,260,,08,55,298,,0*7E
$GAGSV,3,2,12,14,14,137,,15,17,086,,16,01,040,,17,44,299,,0*79
$GAGSV,3,3,12,18,56,206,,19,15,164,,24,01,326,,25,25,052,,0*71

$GNRMC,140507.00,A,3114.14760,N,12130.90736,E,162.083,180.02,010620,,,A,V*04
$GNGGA,140507.00,3114.14760,N,12130.90736,E,1,10,0.90,50.0,M,,M,,*6F
$GNGSA,A,3,,,,,,,,,,,,,1.80,0.90,1.56,1*03
$GNGSA,A,3,06,13,11,23,30,14,36,02,17,08,,,1.80,0.90,1.56,4*0C
$GNGSA,A,3,,,,,,,,,,,,,1.80,0.90,1.56,3*01
$GPGSV,4,1,15,02,33,048,,05,67,053,,09,29,167
,,10,10,108,,0*63
$GPGSV,4,2,15,12,57,070,,14,13,263,,21,14,200,,24,50,172,,0*62
$GPGSV,4,3,15,29,56,283,,30,60,345,,31,18,318,,42,48,147,,0*69
$GPGSV,4,4,15,50,45,139,,40,11,257,,41,34,237,,0*5E
$GBGSV,4,1,15,02,56,187,31,06,44,207,35,08,38,317,35,11,22,092,35,0*73
$GBGSV,4,2,15,13,49,170,34,14,53,073,35,17,41,040,35,23,27,129,35,0*73
$GBGSV,4,3,15,30,15,278,35,36,73,272,35,29,03,238,,32,12,209,35,0*76
$GBGSV,4,4,15,37,12,150,35,01,,,36,04,,,35,0*40
$GAGSV,3,1,12,01,47,034,,02,03,063,,07,13,260,,08,55,298,,0*7E
$GAGSV,3,2,12,14,14,137,,1
5,17,086,,16,01,040,,17,44,299,,0*79
$GAGSV,3,3,12,18,56,206,,19,15,164,,24,01,326,,25,25,052,,0*71

$GNRMC,140508.00,A,3114.10512,N,12130.90712,E,142.694,180.35,010620,,,A,V*08
$GNGGA,140508.00,3114.10512,N,12130.90712,E,1,10,0.90,50.2,M,,M,,*67
$GNGSA,A,3,,,,,,,,,,,,,1.80,0.90,1.56,1*03
$GNGSA,A,3,06,13,11,23,30,14,36,02,17,08,,,1.80,0.90,1.56,4*0C
$GNGSA,A,3,,,,,,,,,,,,,1.80,0.90,1.56,3*01
$GPGSV,4,1,15,02,33,048,,05,67,053,,09,29,167,,
10,10,108,,0*63
$GPGSV,4,2,15,12,57,070,,14,13,263,,21,14,200,,24,50,172,,0*62
$GPGSV,4,3,15,29,56,283,,30,60,345,,31,18,318,,42,48,147,,0*69
$GPGSV,4,4,15,50,45,139,,40,11,257,,41,34,237,,0*5E
$GBGSV,4,1,15,02,56,187,27,06,44,207,33,08,38,317,34,11,22,092,35,0*73
$GBGSV,4,2,15,13,49,170,33,14,53,073,35,17,41,040,35,23,27,129,34,0*75
$GBGSV,4,3,15,30,15,278,35,36,73,272,35,29,03,238,,32,12,209,32,0*71
$GBGSV,4,4,15,37,12,150,32,01,,,35,04,,,35,0*44
$GAGSV,3,1,12,01,47,034,,02,03,063,,07,13,260,,08,55,298,,0*7E
$GAGSV,3,2,12,14,
14,137,,15,17,086,,16,01,040,,17,44,299,,0*79
$GAGSV,3,3,12,18,56,206,,19,15,164,,24,01,326,,25,25,052,,0*71

$GNRMC,140509.00,A,3114.07035,N,12130.90704,E,111.598,180.14,010620,,,A,V*02
$GNGGA,140509.00,3114.07035,N,12130.90704,E,1,10,0.90,50.7,M,,M,,*62
$GNGSA,A,3,,,,,,,,,,,,,1.80,0.90,1.56,1*03
$GNGSA,A,3,06,13,11,23,30,14,36,02,17,08,,,1.80,0.90,1.56,4*0C
$GNGSA,A,3,,,,,,,,,,,,,1.80,0.90,1.56,3*01
$GPGSV,4,1,15,02,33,048,,05,67,053,,09,29,167,,10,10,108,,0*63
$GPGSV,4,2,15
,12,57,070,,14,13,263,,21,14,200,,24,50,172,,0*62
$GPGSV,4,3,15,29,56,283,,30,60,345,,31,18,318,,42,48,147,,0*69
$GPGSV,4,4,15,50,45,139,,40,11,257,,41,34,237,,0*5E
$GBGSV,4,1,15,02,56,187,27,06,44,207,34,08,38,317,35,11,22,092,35,0*75
$GBGSV,4,2,15,13,49,170,34,14,53,073,35,17,41,040,34,23,27,129,35,0*72
$GBGSV,4,3,15,30,15,278,35,36,73,272,34,29,03,238,,32,12,209,33,0*71
$GBGSV,4,4,15,37,12,150,33,01,,,35,04,,,36,0*46
$GAGSV,3,1,12,01,47,034,,02,03,063,,07,13,260,,08,55,299,,0*7F
$GAGSV,3,2,12,14,15,137,,15,17,086,,16,01,040
,,17,44,299,,0*78
$GAGSV,3,3,12,18,56,206,,19,15,164,,24,01,326,,25,25,052,,0*71

$GNRMC,140510.00,A,3114.04314,N,12130.90700,E,83.994,180.01,010620,,,A,V*33
$GNGGA,140510.00,3114.04314,N,12130.90700,E,1,10,0.90,51.1,M,,M,,*6A
$GNGSA,A,3,,,,,,,,,,,,,1.80,0.90,1.56,1*03
$GNGSA,A,3,06,13,11,23,30,14,36,02,17,08,,,1.80,0.90,1.56,4*0C
$GNGSA,A,3,,,,,,,,,,,,,1.80,0.90,1.56,3*01
$GPGSV,4,1,15,02,33,048,,05,67,053,,09,29,167,
,10,10,108,,0*63
$GPGSV,4,2,15,12,57,070,,14,13,263,,21,14,200,,24,50,172,,0*62
$GPGSV,4,3,15,29,56,284,,30,60,346,,31,18,318,,42,48,147,,0*6D
$GPGSV,4,4,15,50,45,139,,40,11,257,,41,34,237,,0*5E
$GBGSV,4,1,15,02,56,187,27,06,44,207,34,08,38,317,34,11,22,092,35,0*74
$GBGSV,4,2,15,13,49,170,34,14,53,073,35,17,41,040,35,23,27,129,35,0*73
$GBGSV,4,3,15,30,15,278,35,36,73,272,35,29,03,238,,32,12,209,32,0*71
$GBGSV,4,4,15,37,12,150,33,01,,,35,04,,,34,0*44
$GAGSV,3,1,12,01,47,034,,02,03,063,,07,13,260,,08,55,299,,0*7F
$GAGSV,3,2,12,14,15,137,,1
5,17,086,,16,01,040,,17,44,299,,0*78
$GAGSV,3,3,12,18,56,206,,19,15,164,,24,01,326,,25,25,052,,0*71

$GNRMC,140511.00,A,3114.02356,N,12130.90695,E,57.077,180.08,010620,,,A,V*3B
$GNGGA,140511.00,3114.02356,N,12130.90695,E,1,10,0.90,51.1,M,,M,,*66
$GNGSA,A,3,,,,,,,,,,,,,1.80,0.90,1.56,1*03
$GNGSA,A,3,06,13,11,23,30,14,36,02,17,08,,,1.80,0.90,1.56,4*0C
$GNGSA,A,3,,,,,,,,,,,,,1.80,0.90,1.56,3*01
$GPGSV,4,1,15,
02,33,048,,05,67,053,,09,29,167,,10,10,108,,0*63
$GPGSV,4,2,15,12,57,070,,14,13,263,,21,14,200,,24,50,172,,0*62
$GPGSV,4,3,15,29,56,284,,30,60,346,,31,18,318,,42,48,147,,0*6D
$GPGSV,4,4,15,50,45,139,,40,11,257,,41,34,237,,0*5E
$GBGSV,4,1,15,02,56,187,27,06,44,207,34,08,38,317,35,11,22,092,35,0*75
$GBGSV,4,2,15,13,49,170,34,14,53,073,35,17,41,040,35,23,27,129,35,0*73
$GBGSV,4,3,15,30,15,279,35,36,73,272,35,29,03,238,,32,12,209,33,0*71
$GBGSV,4,4,15,37,12,150,33,01,,,36,04,,,35,0*46
$GAGSV,3,1,12,01,47,034,,02,03,063,,07,13,260,,08,55,299,,0*
7F
$GAGSV,3,2,12,14,15,137,,15,17,086,,16,01,040,,17,44,299,,0*78
$GAGSV,3,3,12,18,56,206,,19,15,164,,24,01,326,,25,25,052,,0*71

$GNRMC,140512.00,A,3114.01148,N,12130.90691,E,30.561,180.10,010620,,,A,V*38
$GNGGA,140512.00,3114.01148,N,12130.90691,E,1,10,0.94,51.0,M,,M,,*6A
$GNGSA,A,3,,,,,,,,,,,,,1.87,0.94,1.62,1*07
$GNGSA,A,3,06,13,11,23,30,14,36,02,17,08,,,1.87,0.94,1.62,4*08
$GNGSA,A,3,,,,,,,,,,,,,1.87,0.94,1.62,3*05
$GPGSV,4,1,15,02,33,048,,05,67,053,
,09,29,167,,10,10,108,,0*63
$GPGSV,4,2,15,12,57,070,,14,13,263,,21,14,200,,24,50,172,,0*62
$GPGSV,4,3,15,29,56,284,,30,60,346,,31,18,318,,42,48,147,,0*6D
$GPGSV,4,4,15,50,45,139,,40,11,257,,41,34,237,,0*5E
$GBGSV,4,1,15,06,44,207,35,08,38,317,35,11,22,092,36,13,49,170,34,0*73
$GBGSV,4,2,15,14,53,073,35,17,41,040,35,23,27,129,34,30,15,279,35,0*71
$GBGSV,4,3,15,36,73,272,34,02,56,187,31,29,03,238,,32,12,209,33,0*70
$GBGSV,4,4,15,37,12,150,32,01,,,35,04,,,34,0*45
$GAGSV,3,1,12,01,47,034,,02,03,063,,07,13,260,,08,55,299,,0*7F
$GAGSV,3,2,12,14
,15,137,,15,17,086,,16,01,040,,17,44,299,,0*78
$GAGSV,3,3,12,18,56,206,,19,15,164,,24,01,326,,25,25,052,,0*71

$GNRMC,140513.00,A,3114.00581,N,12130.90651,E,11.387,192.19,010620,,,A,V*32
$GNGGA,140513.00,3114.00581,N,12130.90651,E,1,10,0.90,51.4,M,,M,,*67
$GNGSA,A,3,,,,,,,,,,,,,1.80,0.90,1.56,1*03
$GNGSA,A,3,06,13,11,23,30,14,36,02,17,08,,,1.80,0.90,1.56,4*0C
$GNGSA,A,3,,,,,,,,,,,,,1.80,0.90,1.56,3*01
$GPGSV,
4,1,15,02,32,048,,05,67,053,,09,29,167,,10,10,108,,0*62
$GPGSV,4,2,15,12,57,070,,14,13,263,,21,14,200,,24,50,172,,0*62
$GPGSV,4,3,15,29,56,284,,30,60,346,,31,18,318,,42,48,147,,0*6D
$GPGSV,4,4,15,50,45,139,,40,11,257,,41,34,237,,0*5E
$GBGSV,4,1,15,02,56,187,31,06,44,207,34,08,38,317,35,11,22,092,35,0*72
$GBGSV,4,2,15,13,49,170,35,14,53,073,35,17,41,040,34,23,27,129,35,0*73
$GBGSV,4,3,15,30,15,279,35,36,73,272,34,29,03,238,,32,12,209,34,0*77
$GBGSV,4,4,15,37,12,150,35,01,,,35,04,,,35,0*43
$GAGSV,3,1,12,01,47,034,,02,03,063,,07,1
3,260,,08,55,299,,0*7F
$GAGSV,3,2,12,14,15,137,,15,17,086,,16,01,040,,17,44,299,,0*78
$GAGSV,3,3,12,18,56,206,,19,15,164,,24,01,326,,25,25,052,,0*71

$GNRMC,140514.00,A,3114.00281,N,12130.90455,E,13.082,223.57,010620,,,A,V*33
$GNGGA,140514.00,3114.00281,N,12130.90455,E,1,10,0.90,50.8,M,,M,,*6C
$GNGSA,A,3,,,,,,,,,,,,,1.80,0.90,1.56,1*03
$GNGSA,A,3,06,13,11,23,30,14,36,02,17,08,,,1.80,0.90,1.56,4*0C
$GNGSA,A,3,,,,,,,,,,,,,1.80,0.90,1.56,3*01
$GPGSV,4,1,15,02,32,048,,05,67,053,,09,29,167,,10,10,108,,0*62
$GPGSV,4,
2,15,12,57,070,,14,13,263,,21,14,200,,24,50,172,,0*62
$GPGSV,4,3,15,29,56,284,,30,60,346,,31,18,318,,42,48,147,,0*6D
$GPGSV,4,4,15,50,45,139,,40,11,257,,41,34,237,,0*5E
$GBGSV,4,1,15,02,56,187,25,06,44,207,35,08,38,317,35,11,22,092,35,0*76
$GBGSV,4,2,15,13,49,170,35,14,53,073,35,17,41,040,35,23,27,129,35,0*72
$GBGSV,4,3,15,30,15,279,35,36,73,272,35,29,03,238,,32,12,209,35,0*77
$GBGSV,4,4,15,37,12,150,34,01,,,35,04,,,36,0*41
$GAGSV,3,1,12,01,47,034,,02,03,063,,07,13,260,,08,55,299,,0*7F
$GAGSV,3,2,12,14,15,137,,15,17,086,,16,01,040,,17,44,299,,0*78
$GAGSV,3,3,12,18,56,206,,19,15,164,,24,01,326,,25,25,052,,0*71

$GNRMC,140515.00,A,3114.00040,N,12130.90065,E,17.093,241.35,010620,,,A,V*3E
$GNGGA,140515.00,3114.00040,N,12130.90065,E,1,11,0.88,50.7,M,,M,,*62
$GNGSA,A,3,,,,,,,,,,,,,1.79,0.88,1.55,1*0F
$GNGSA,A,3,06,13,11,23,30,14,36,02,04,17,08,,1.79,0.88,1.55,4*04
$GNGSA,A,3,,,,,,,,,,,,,1.79,0.88,1.55,3*0D
$GPGSV,4,1,15,02,32,048,,05,67,053,,09,29,167,,10,10,108,,0*62
$GPGS
V,4,2,15,12,57,070,,14,13,263,,21,14,200,,24,50,172,,0*62
$GPGSV,4,3,15,29,56,284,,30,60,346,,31,18,318,,42,48,147,,0*6D
$GPGSV,4,4,15,50,45,139,,40,11,257,,41,34,237,,0*5E
$GBGSV,4,1,15,02,56,187,25,04,39,124,34,06,44,207,35,08,38,317,35,0*75
$GBGSV,4,2,15,11,22,092,35,13,49,170,35,14,53,073,34,17,41,040,35,0*76
$GBGSV,4,3,15,23,27,129,35,30,15,279,35,36,73,272,35,29,03,238,,0*70
$GBGSV,4,4,15,32,12,209,35,37,12,150,35,01,,,35,0*7E
$GAGSV,3,1,12,01,47,034,,02,03,063,,07,13,260,,08,55,299,,0*7F
$GAGSV,3,2,12,14,15,137,,15,17,086,
,16,01,040,,17,44,299,,0*78
$GAGSV,3,3,12,18,56,206,,19,15,164,,24,01,326,,25,25,052,,0*71

V,4,1,15,02,32,048,,05,67,053,,09,29,167,,10,10,108,,0*62
$GPGSV,4,2,15,12,57,070,,14,13,263,,21,14,200,,24,50,172,,0*62
$GPGSV,4,3,15,29,56,284,,30,60,346,,31,18,318,,42,48,147,,0*6D
$GPGSV,4,4,15,50,45,139,,40,11,257,,41,34,237,,0*5E
$GBGSV,4,1,15,02,56,187,27,04,39,124,36,06,44,207,35,08,38,317,35,0*75
$GBGSV,4,2,15,11,22,092,35,13,49,170,36,14,53,073,35,17,
41,040,35,0*74
$GBGSV,4,3,15,23,27,129,36,30,15,279,35,36,73,272,36,29,03,238,,0*70
$GBGSV,4,4,15,32,12,209,35,37,12,150,35,01,,,35,0*7E
$GAGSV,3,1,12,01,47,034,,02,03,063,,07,13,260,,08,55,299,,0*7F
$GAGSV,3,2,12,14,15,137,,15,17,086,,16,01,040,,17,44,299,,0*78
$GAGSV,3,3,12,18,56,206,,19,15,164,,24,01,326,,25,25,052,,0*71

$GNRMC,140517.00,A,3113.99934,N,12130.88944,E,21.195,278.11,010620,,,A,V*3C
$GNGGA,140517.00,3113.99934,N,12130.88944,E,1,11,0.88,50.7,M,,M,,*6E
$GNGSA,A,3,,,,,,,,,,,,,1.79,0.88,1.55,1*0F
$GNGSA,A,3,06,13,11,23,30,14,36,02,04,17,08,,1.79,0.88,1.55,4*04
$GNGSA,A,3,,,,,,,,,,,,,1.79,0.88,1.55,3*0D
$GPGSV,4,1,15,02,32,048,,05,
67,053,,09,29,167,,10,10,108,,0*62
$GPGSV,4,2,15,12,57,070,,14,13,263,,21,14,200,,24,50,172,,0*62
$GPGSV,4,3,15,29,56,284,,30,60,346,,31,18,318,,42,48,147,,0*6D
$GPGSV,4,4,15,50,45,139,,40,11,257,,41,34,237,,0*5E
$GBGSV,4,1,15,02,56,187,27,04,39,124,35,06,44,207,34,08,38,317,34,0*76
$GBGSV,4,2,15,11,22,092,33,13,49,170,35,14,53,073,34,17,41,040,34,0*71
$GBGSV,4,3,15,23,27,129,34,30,15,279,33,36,73,272,35,29,03,238,,0*77
$GBGSV,4,4,15,32,12,209,33,37,12,150,34,01,,,35,0*79
$GAGSV,3,1,12,01,47,034,,02,03,063,,07,13,260,,08,55,299,,0*7
F
$GAGSV,3,2,12,14,15,137,,15,17,086,,16,01,040,,17,44,299,,0*78
$GAGSV,3,3,12,18,56,206,,19,15,164,,24,01,326,,25,25,052,,0*71

$GNRMC,140518.00,A,3113.99949,N,12130.87259,E,58.114,272.26,010620,,,A,V*38
$GNGGA,140518.00,3113.99949,N,12130.87259,E,1,11,0.88,51.7,M,,M,,*62
$GNGSA,A,3,,,,,,,,,,,,,1.79,0.88,1.55,1*0F
$GNGSA,A,3,06,13,11,23,30,14,36,02,04,17,08,,1.79,0.88,1.55,4*04
$GNGSA,A,3,,,,,,,,,,,,,1.79,0.88,1.55,3*0D
$GPGSV,4,1,15,02,32,048,
,05,67,053,,09,29,167,,10,10,108,,0*62
$GPGSV,4,2,15,12,57,070,,14,13,263,,21,14,200,,24,50,172,,0*62
$GPGSV,4,3,15,29,56,284,,30,60,346,,31,18,318,,42,48,147,,0*6D
$GPGSV,4,4,15,50,45,139,,40,11,257,,41,34,237,,0*5E
$GBGSV,4,1,15,02,56,187,30,04,39,124,35,06,44,207,35,08,38,317,35,0*70
$GBGSV,4,2,15,11,22,092,32,13,49,170,35,14,53,073,34,17,41,040,35,0*71
$GBGSV,4,3,15,23,27,129,34,30,15,279,32,36,73,272,34,29,03,238,,0*77
$GBGSV,4,4,15,32,12,209,35,37,12,150,35,01,,,36,0*7D
$GAGSV,3,1,12,01,47,034,,02,03,063,,07,13,260,,08,55,299,,0*7F
$
GAGSV,3,2,12,14,15,137,,15,17,086,,16,01,040,,17,44,299,,0*78
$GAGSV,3,3,12,18,56,206,,19,15,164,,24,01,326,,25,25,052,,0*71

$GNRMC,140519.00,A,3113.99956,N,12130.84878,E,87.489,269.54,010620,,,A,V*31
$GNGGA,140519.00,3113.99956,N,12130.84878,E,1,11,0.88,52.1,M,,M,,*62
$GNGSA,A,3,,,,,,,,,,,,,1.79,0.88,1.55,1*0F
$GNGSA,A,3,06,13,11,23,30,14,36,02,04,17,08,,1.79,0.88,1.55,4*04
$GNGSA,A,3,,,,,,,,,,,,,1.79,0.88,1.55,3*0D
$GPGSV,4,1,15,02,32,048,,05,67,053,,09,29,167,,10,10,108,,0*62
$GPGSV,4,2,15,12,57,070,,14,13,263,,2
1,14,200,,24,50,172,,0*62
$GPGSV,4,3,15,29,56,284,,30,60,346,,31,18,318,,42,48,147,,0*6D
$GPGSV,4,4,15,50,45,139,,40,11,257,,41,34,237,,0*5E
$GBGSV,4,1,15,02,56,187,30,04,39,124,36,06,44,207,35,08,38,317,34,0*72
$GBGSV,4,2,15,11,22,092,33,13,49,170,35,14,53,073,34,17,41,040,36,0*73
$GBGSV,4,3,15,23,27,129,34,30,15,279,32,36,73,272,34,29,03,238,,0*77
$GBGSV,4,4,15,32,12,209,35,37,12,150,35,01,,,35,0*7E
$GAGSV,3,1,12,01,47,034,,02,03,063,,07,13,260,,08,55,299,,0*7F
$GAGSV,3,2,12,14,15,137,,15,17,086,,16,01,040,,17,44,299,,0*78
$GAGSV,3,3,12,18,56,206,,19,15,164,,24,01,326,,25,25,052,,0*71

55,4*04
$GNGSA,A,3,,,,,,,,,,,,,1.79,0.88,1.55,3*0D
$GPGSV,4,1,15,02,32,048,,05,67,053,,09,29,167,,10,10,108,,0*62
$GPGSV,4,2,15,12,57,070,,14,13,263,,21,14,200,,24,50,172,,0*62
$GPGSV,4,3,15,29,56,284,,30,60,346,,31,18,318,,42,48,147,,0*6D
$GPGSV,4,4,15,50,45,139,,40,11,257,,41,34,237,,0*5E
$GBGSV,4,1,15,02,56,187,26,04,39,124,35,06,44,207,35,08,38,317,35,0*77
$GBGSV,4,
2,15,11,22,092,32,13,49,170,35,14,53,073,35,17,40,040,36,0*72
$GBGSV,4,3,15,23,27,129,34,30,15,279,31,36,73,272,35,29,03,238,,0*75
$GBGSV,4,4,15,32,12,209,35,37,12,150,35,01,,,35,0*7E
$GAGSV,3,1,12,01,47,034,,02,03,063,,07,13,260,,08,55,299,,0*7F
$GAGSV,3,2,12,14,15,137,,15,17,086,,16,01,040,,17,44,299,,0*78
$GAGSV,3,3,12,18,56,206,,19,15,164,,24,01,326,,25,25,052,,0*71

$GNRMC,140521.00,A,3113.99889,N,12130.77387,E,141.855,269.29,010620,,,A,V*02
$GNGGA,140521.00,3113.99889,N,12130.77387,E,1,11,0.88,53.1,M,,M,,*6C
$GNGSA,A,3,,,,,,,,,,,,,1.79,0.88,1.55,1*0F
$GNGSA,A,3,06,13,11,23,30,14,36,02,04,17,08,,1.79,0.88,1.55,4*04
$GNGSA,A,3,,,,,,,,,,,,,1.79,0.88,1.55,3*0D
$GPGSV,4,1,15,02,32,048,,05,67,053,,09,29,167,,10,10,1
08,,0*62
$GPGSV,4,2,15,12,57,070,,14,13,263,,21,14,200,,24,50,172,,0*62
$GPGSV,4,3,15,29,56,284,,30,60,346,,31,18,318,,42,48,147,,0*6D
$GPGSV,4,4,15,50,45,139,,40,11,257,,41,34,237,,0*5E
$GBGSV,4,1,15,02,56,187,26,04,39,124,35,06,44,207,35,08,38,317,35,0*77
$GBGSV,4,2,15,11,22,092,32,13,49,170,35,14,53,073,35,17,40,040,36,0*72
$GBGSV,4,3,15,23,27,129,34,30,15,279,32,36,73,272,35,29,03,238,,0*76
$GBGSV,4,4,15,32,12,209,35,37,12,150,35,01,,,35,0*7E
$GAGSV,3,1,12,01,47,034,,02,03,063,,07,13,260,,08,55,299,,0*7F
$GAGSV,3,2,12,14,15,137,,15,17,086,,16,01,040,,17,44,299,,0*78
$GAGSV,3,3,12,18,56,206,,19,15,164,,24,01,326,,25,25,052,,0*71

$GNRMC,140522.00,A,3113.99864,N,12130.72372,E,165.478,269.59,010620,,,A,V*0F
$GNGGA,140522.00,3113.99864,N,12130.72372,E,1,11,0.88,52.4,M,,M,,*67
$GNGSA,A,3,,,,,,,,,,,,,1.79,0.88,1.55,1*0F
$GNGSA,A,3,06,13,11,23,30,14,36,02,04,17,08,,1.79,0.88,1.55,4*04
$GNGSA,A,3,,,,,,,,,,,,,1.79,0.88,1.55,3*0D
$GPGSV
,4,1,15,02,32,048,,05,67,053,,09,29,167,,10,10,108,,0*62
$GPGSV,4,2,15,12,57,070,,14,13,263,,21,14,200,,24,50,172,,0*62
$GPGSV,4,3,15,29,56,284,,30,60,346,,31,18,318,,42,48,147,,0*6D
$GPGSV,4,4,15,50,45,139,,40,11,257,,41,34,237,,0*5E
$GBGSV,4,1,15,02,56,187,27,04,39,124,35,06,44,207,34,08,38,317,35,0*77
$GBGSV,4,2,15,11,22,092,33,13,49,170,35,14,53,073,35,17,40,040,35,0*70
$GBGSV,4,3,15,23,27,129,35,30,15,279,33,36,73,272,35,29,03,238,,0*76
$GBGSV,4,4,15,32,12,209,34,37,12,150,35,01,,,35,0*7F
$GAGSV,3,1,12,01,47,034,,02,03,063,,07,13,260,
,08,55,299,,0*7F
$GAGSV,3,2,12,14,15,137,,15,17,086,,16,01,040,,17,44,299,,0*78
$GAGSV,3,3,12,18,56,206,,19,15,164,,24,01,326,,25,25,052,,0*71

,,,,,,,,,,,,1.79,0.88,1.55,3*0D
$GPGSV,4,1,15,02,32,048,,05,67,053,,09,29,167,,10,10,108,,0*62
$GPGSV,4,2,15,12,57,070,,14,13,263,,21,14,200,,24,50,172,,0*62
$GPGSV,4,3,15,29,56,284,,30,60,346,,31,18,318,,42,48,147,,0*6D
$GPGSV,4,4,15,50,45,139,,40,11,257,,41,34,237,,0*5E
$GBGSV,4,1,15,02,56,187,27,04,39,124,34,06,44,207,36,08,38,317,36,0*77
$GBGSV,4,
2,15,11,22,092,34,13,49,170,35,14,53,073,35,17,40,040,35,0*77
$GBGSV,4,3,15,23,27,129,35,30,15,279,34,36,73,272,35,29,03,238,,0*71
$GBGSV,4,4,15,32,12,209,35,37,12,150,34,01,,,36,0*7C
$GAGSV,3,1,12,01,47,034,,02,03,063,,07,13,260,,08,55,299,,0*7F
$GAGSV,3,2,12,14,15,137,,15,17,086,,16,01,040,,17,44,299,,0*78
$GAGSV,3,3,12,18,56,206,,19,15,164,,24,01,326,,25,25,052,,0*71

D
$GPGSV,4,1,15,02,32,048,,05,67,053,,09,29,167,,10,10,108,,0*62
$GPGSV,4,2,15,12,57,070,,14,13,263,,21,14,200,,24,50,172,,0*62
$GPGSV,4,3,15,29,56,284,,30,60,346,,31,18,318,,42,48,147,,0*6D
$GPGSV,4,4,15,50,45,139,,40,11,257,,41,34,237,,0*5E
$GBGSV,4,1,15,02,56,187,31,04,39,124,35,06,44,207,35,08,38,317,35,0*71
$GBGSV,4,2,15,11,22,092,35,13,49,170,34
,14,53,073,35,17,40,040,35,0*77
$GBGSV,4,3,15,23,27,129,35,30,15,279,35,36,73,272,36,29,03,238,,0*73
$GBGSV,4,4,15,32,12,209,35,37,12,150,35,01,,,35,0*7E
$GAGSV,3,1,12,01,47,034,,02,03,063,,07,13,260,,08,55,299,,0*7F
$GAGSV,3,2,12,14,15,137,,15,17,086,,16,01,040,,17,44,299,,0*78
$GAGSV,3,3,12,18,56,206,,19,15,164,,24,01,326,,25,25,052,,0*71


$GPGSV,4,1,15,02,32,048,,05,67,053,,09,29,167,,10,10,108,,0*62
$GPGSV,4,2,15,12,57,070,,14,13,263,,21,14,200,,24,50,172,,0*62
$GPGSV,4,3,15,29,56,284,,30,60,346,,31,18,318,,42,48,147,,0*6D
$GPGSV,4,4,15,50,45,139,,40,11,257,,41,34,237,,0*5E
$GBGSV,4,1,15,02,56,187,31,04,39,124,35,06,44,207,35,08,38,317,34,0*70
$GBGSV,4,2,15,11,22,092,36,13,49,170,35,1
4,53,073,35,17,40,040,36,0*76
$GBGSV,4,3,15,23,27,129,35,30,15,279,35,36,73,271,35,29,03,238,,0*73
$GBGSV,4,4,15,32,12,209,35,37,12,150,35,01,,,34,0*7F
$GAGSV,3,1,12,01,47,034,,02,03,063,,07,13,260,,08,55,299,,0*7F
$GAGSV,3,2,12,14,15,137,,15,17,086,,16,01,040,,17,44,299,,0*78
$GAGSV,3,3,12,18,56,206,,19,15,164,,24,01,326,,25,25,052,,0*71

$GNRMC,140526.00,A,3113.99878,N,12130.51200,E,162.162,270.08,010620,,,A,V*06
$GNGGA,140526.00,3113.99878,N,12130.51200,E,1,10,0.91,52.6,M,,M,,*60
$GNGSA,A,3,,,,,,,,,,,,,1.86,0.91,1.62,1*03
$GNGSA,A,3,06,13,11,23,30,14,36,04,17,08,,,1.86,0.91,1.62,4*0A
$GNGSA,A,3,,,,,,,,,,,,,1.86,0.91,1.62,3*01
$GPGSV,4,1,15,02,3
2,048,,05,67,053,,09,29,167,,10,10,108,,0*62
$GPGSV,4,2,15,12,57,070,,14,13,263,,21,14,200,,24,50,172,,0*62
$GPGSV,4,3,15,29,56,284,,30,60,346,,31,18,318,,42,48,147,,0*6D
$GPGSV,4,4,15,50,45,139,,40,11,257,,41,34,237,,0*5E
$GBGSV,4,1,15,04,39,124,36,06,44,207,35,08,38,317,35,11,22,092,35,0*72
$GBGSV,4,2,15,13,49,170,35,14,53,073,35,17,40,040,35,23,27,129,36,0*70
$GBGSV,4,3,15,30,15,279,35,36,73,271,35,02,56,187,,29,03,238,,0*74
$GBGSV,4,4,15,32,12,209,36,37,12,150,35,01,,,35,0*7D
$GAGSV,3,1,12,01,47,034,,02,03,063,,07,13,260,,08,55,299,,0*7
F
$GAGSV,3,2,12,14,15,137,,15,17,086,,16,01,040,,17,44,299,,0*78
$GAGSV,3,3,12,18,56,206,,19,15,164,,24,01,326,,25,25,052,,0*71

GPGSV,4,1,15,02,32,048,,05,67,053,,09,29,167,,10,10,108,,0*62
$GPGSV,4,2,15,12,57,070,,14,13,263,,21,14,200,,24,50,172,,0*62
$GPGSV,4,3,15,29,56,284,,30,60,346,,31,18,318,,42,48,147,,0*6D
$GPGSV,4,4,15,50,45,139,,40,11,257,,41,34,237,,0*5E
$GBGSV,4,1,15,04,39,124,35,06,44,207,35,08,38,317,35,11,22,092,35,0*71
$GBGSV,4,2,15,13,49,170,35,14,53
,073,35,17,40,040,35,23,27,129,35,0*73
$GBGSV,4,3,15,30,15,279,35,36,73,271,35,02,56,187,,29,03,238,,0*74
$GBGSV,4,4,15,32,12,209,35,37,12,150,34,01,,,35,0*7F
$GAGSV,3,1,12,01,47,034,,02,03,063,,07,13,260,,08,55,299,,0*7F
$GAGSV,3,2,12,14,15,137,,15,17,086,,16,01,040,,17,44,299,,0*78
$GAGSV,3,3,12,18,56,206,,19,15,164,,24,01,326,,25,25,052,,0*71

$GNRMC,140528.00,A,3113.99891,N,12130.40650,E,161.998,269.92,010620,,,A,V*0B
$GNGGA,140528.00,3113.99891,N,12130.40650,E,1,10,0.91,52.4,M,,M,,*6A
$GNGSA,A,3,,,,,,,,,,,,,1.86,0.91,1.62,1*03
$GNGSA,A,3,06,13,11,23,30,14,36,04,17,08,,,1.86,0.91,1.62,4*0A
$GNGSA,A,3,,,,,,,,,,,,,1.86,0.91,1.62,3*01
$GPGSV,4,1,15,02,32,048,,05,67,053,,09,29,167,,10,10,1
08,,0*62
$GPGSV,4,2,15,12,57,070,,14,13,263,,21,14,200,,24,50,172,,0*62
$GPGSV,4,3,15,29,56,284,,30,60,346,,31,18,318,,42,48,147,,0*6D
$GPGSV,4,4,15,50,45,139,,40,11,257,,41,34,237,,0*5E
$GBGSV,4,1,15,04,39,124,35,06,44,207,35,08,38,317,35,11,22,092,35,0*71
$GBGSV,4,2,15,13,49,170,35,14,53,072,35,17,40,040,35,23,27,129,35,0*72
$GBGSV,4,3,15,30,15,279,35,36,73,271,35,02,56,187,,29,03,238,,0*74
$GBGSV,4,4,15,32,12,209,35,37,12,150,35,01,,,36,0*7D
$GAGSV,3,1,12,01,47,034,,02,03,063,,07,13,260,,08,55,299,,0*7F
$GAGSV,3,2,12,14,15,1
37,,15,17,086,,16,01,040,,17,44,299,,0*78
$GAGSV,3,3,12,18,56,206,,19,15,164,,24,01,326,,25,25,052,,0*71

$GNRMC,140529.00,A,3113.99899,N,12130.35380,E,162.148,270.10,010620,,,A,V*0C
$GNGGA,140529.00,3113.99899,N,12130.35380,E,1,11,0.88,52.0,M,,M,,*64
$GNGSA,A,3,,,,,,,,,,,,,1.79,0.88,1.55,1*0F
$GNGSA,A,3,06,13,11,23,30,14,36,02,04,17,08,,1.79,0.88,1.55,4*04
$GNGSA,A,3,,,,,,,,,,,,,1.79,0.88,1.55,3*0D
$GPGSV,4,1,15,02,32,048,,05,67,053,,09,29,167,
,10,10,108,,0*62
$GPGSV,4,2,15,12,57,070,,14,13,263,,21,14,200,,24,50,172,,0*62
$GPGSV,4,3,15,29,56,284,,30,60,346,,31,18,318,,42,48,147,,0*6D
$GPGSV,4,4,15,50,45,139,,40,11,257,,41,34,237,,0*5E
$GBGSV,4,1,15,02,56,187,32,04,39,124,36,06,44,207,35,08,38,317,36,0*72
$GBGSV,4,2,15,11,22,092,35,13,49,170,35,14,53,072,34,17,40,040,34,0*77
$GBGSV,4,3,15,23,27,129,35,30,15,279,35,36,73,271,35,29,03,238,,0*73
$GBGSV,4,4,15,32,12,209,36,37,12,150,35,01,,,35,0*7D
$GAGSV,3,1,12,01,47,034,,02,03,063,,07,13,260,,08,55,299,,0*7F
$GAGSV,3,2,12,14,15,137,,15,17,086,,16,01,040,,17,44,299,,0*78
$GAGSV,3,3,12,18,56,206,,19,15,164,,24,01,326,,25,25,052,,0*71

$GNRMC,140530.00,A,3113.99912,N,12130.30107,E,162.047,270.04,010620,,,A,V*05
$GNGGA,140530.00,3113.99912,N,12130.30107,E,1,11,0.88,51.5,M,,M,,*60
$GNGSA,A,3,,,,,,,,,,,,,1.79,0.88,1.55,1*0F
$GNGSA,A,3,06,13,11,23,30,14,36,02,04,17,08,,1.79,0.88,1.55,4*04
$GNGSA,A,3,,,,,,,,,,,,,1.79,0.88,1.55,3*0D
$GPGSV,4,1,15,02,32,048,,05,67,053,,09,29,167,,10,10,108,,0*62
$GPGSV,4,2,15,12,57,070,,14,13,263,,21
,14,200,,24,50,172,,0*62
$GPGSV,4,3,15,29,56,284,,30,60,346,,31,18,318,,42,48,147,,0*6D
$GPGSV,4,4,15,50,45,139,,40,11,257,,41,34,237,,0*5E
$GBGSV,4,1,15,02,56,187,35,04,39,124,35,06,44,207,35,08,38,317,35,0*75
$GBGSV,4,2,15,11,22,092,35,13,49,170,35,14,53,072,35,17,40,040,35,0*77
$GBGSV,4,3,15,23,27,129,35,30,15,279,35,36,73,271,35,29,03,238,,0*73
$GBGSV,4,4,15,32,12,209,35,37,12,150,35,01,,,35,0*7E
$GAGSV,3,1,12,01,47,034,,02,03,063,,07,13,260,,08,55,299,,0*7F
$GAGSV,3,2,12,14,15,137,,15,17,086,,16,01,040,,17,44,299,,0*78
$GAGSV,3,3,12,18,56,206,,19,15,164,,24,01,326,,25,25,052,,0*71

$GNRMC,140531.00,A,3113.99920,N,12130.24840,E,162.293,270.00,010620,,,A,V*05
$GNGGA,140531.00,3113.99920,N,12130.24840,E,1,11,0.88,51.0,M,,M,,*6A
$GNGSA,A,3,,,,,,,,,,,,,1.79,0.88,1.55,1*0F
$GNGSA,A,3,06,13,11,23,30,14,36,02,04,17,08,,1.79,0.88,1.55,4*04
$GNGSA,A,3,,,,,,,,,,,,,1.79,0.88,1.55,3*0D
$GPGSV,4,1,15,02,32,048,,05,67,053,,09,29,167,,10,10,108,,0*62
$GPGSV,4,2,15,12,57,070,,14,1
3,263,,21,14,200,,24,51,172,,0*63
$GPGSV,4,3,15,29,56,284,,30,60,346,,31,18,318,,42,48,147,,0*6D
$GPGSV,4,4,15,50,45,139,,40,11,257,,41,34,237,,0*5E
$GBGSV,4,1,15,02,56,187,36,04,39,124,35,06,44,207,35,08,38,317,35,0*76
$GBGSV,4,2,15,11,22,092,35,13,49,170,34,14,53,072,35,17,40,040,35,0*76
$GBGSV,4,3,15,23,27,129,35,30,15,279,35,36,73,271,35,29,03,238,,0*73
$GBGSV,4,4,15,32,12,209,34,37,12,150,35,01,,,35,0*7F
$GAGSV,3,1,12,01,47,034,,02,03,063,,07,13,260,,08,55,299,,0*7F
$GAGSV,3,2,12,14,15,137,,15,17,086,,16,01,040,,17,44,299,,0*78
$GAGSV,3,3,12,18,56,206,,19,15,164,,24,01,326,,25,25,052,,0*71

$GNRMC,140532.00,A,3113.99927,N,12130.19574,E,161.874,269.98,010620,,,A,V*0C
$GNGGA,140532.00,3113.99927,N,12130.19574,E,1,11,0.88,50.6,M,,M,,*6D
$GNGSA,A,3,,,,,,,,,,,,,1.79,0.88,1.55,1*0F
$GNGSA,A,3,06,13,11,23,30,14,36,02,04,17,08,,1.79,0.88,1.55,4*04
$GNGSA,A,3,,,,,,,,,,,,,1.79,0.88,1.55,3*0D
$GPGSV,4,1,15,02,32,048,,05,67,053,,09,29,167,,10,10
,108,,0*62
$GPGSV,4,2,15,12,57,070,,14,13,263,,21,14,200,,24,51,172,,0*63
$GPGSV,4,3,15,29,56,284,,30,60,346,,31,18,318,,42,48,147,,0*6D
$GPGSV,4,4,15,50,45,139,,40,11,257,,41,34,237,,0*5E
$GBGSV,4,1,15,02,56,187,35,04,39,124,36,06,44,207,35,08,38,317,35,0*76
$GBGSV,4,2,15,11,22,092,34,13,49,170,35,14,53,072,35,17,40,040,35,0*76
$GBGSV,4,3,15,23,27,129,35,30,15,279,35,36,73,271,35,29,03,238,,0*73
$GBGSV,4,4,15,32,12,209,36,37,12,150,35,01,,,35,0*7D
$GAGSV,3,1,12,01,47,034,,02,03,063,,07,13,260,,08,55,299,,0*7F
$GAGSV,3,2,12,14,15,137,,15,1
7,086,,16,01,040,,17,44,299,,0*78
$GAGSV,3,3,12,18,56,206,,19,15,164,,24,01,326,,25,25,052,,0*71

$GNRMC,140533.00,A,3113.99938,N,12130.14439,E,154.331,270.13,010620,,,A,V*01
$GNGGA,140533.00,3113.99938,N,12130.14439,E,1,11,0.88,50.3,M,,M,,*62
$GNGSA,A,3,,,,,,,,,,,,,1.79,0.88,1.55,1*0F
$GNGSA,A,3,06,13,11,23,30,14,36,02,04,17,08,,1.79,0.88,1.55,4*04
$GNGSA,A,3,,,,,,,,,,,,,1.79,0.88,1.55,3*0D
$GPGSV,4,1,15,02,32,048,,05,67,053,,09,29,167,,10,1
0,108,,0*62
$GPGSV,4,2,15,12,57,070,,14,13,263,,21,14,200,,24,51,172,,0*63
$GPGSV,4,3,15,29,56,284,,30,60,346,,31,18,318,,42,48,147,,0*6D
$GPGSV,4,4,15,50,45,139,,40,11,257,,41,34,237,,0*5E
$GBGSV,4,1,15,02,56,187,36,04,39,124,35,06,44,207,35,08,38,317,34,0*77
$GBGSV,4,2,15,11,22,092,34,13,49,170,35,14,53,072,35,17,40,040,35,0*76
$GBGSV,4,3,15,23,27,129,35,30,15,279,34,36,73,271,35,29,03,238,,0*72
$GBGSV,4,4,15,32,12,209,34,37,12,150,34,01,,,34,0*7F
$GAGSV,3,1,12,01,47,034,,02,03,063,,07,13,260,,08,55,299,,0*7F
$GAGSV,3,2,12,14,15,137,,15,17,086,,16,01,040,,17,44,299,,0*78
$GAGSV,3,3,12,18,56,206,,19,15,164,,24,01,326,,25,25,052,,0*71

$GNRMC,140534.00,A,3113.99923,N,12130.09604,E,145.425,269.46,010620,,,A,V*06
$GNGGA,140534.00,3113.99923,N,12130.09604,E,1,11,0.88,50.6,M,,M,,*6A
$GNGSA,A,3,,,,,,,,,,,,,1.79,0.88,1.55,1*0F
$GNGSA,A,3,06,13,11,23,30,14,36,02,04,17,08,,1.79,0.88,1.55,4*04
$GNGSA,A,3,,,,,,,,,,,,,1.79,0.88,1.55,3*0D
$GPGSV,4,1,15,02,32,048,,05,67,053,,09,2
9,167,,10,10,108,,0*62
$GPGSV,4,2,15,12,57,070,,14,13,263,,21,14,200,,24,51,172,,0*63
$GPGSV,4,3,15,29,56,284,,30,60,346,,31,18,318,,42,48,147,,0*6D
$GPGSV,4,4,15,50,45,139,,40,11,257,,41,34,237,,0*5E
$GBGSV,4,1,15,02,56,187,35,04,39,124,35,06,44,207,35,08,38,317,35,0*75
$GBGSV,4,2,15,11,22,092,32,13,49,170,35,14,53,072,35,17,40,040,35,0*70
$GBGSV,4,3,15,23,27,129,34,30,15,279,32,36,73,271,35,29,03,238,,0*75
$GBGSV,4,4,15,32,12,209,34,37,12,150,35,01,,,35,0*7F
$GAGSV,3,1,12,01,47,034,,02,03,063,,07,13,260,,08,55,299,,0*7F
$GAGSV,3,2,
12,14,15,137,,15,17,086,,16,01,040,,17,44,299,,0*78
$GAGSV,3,3,12,18,56,206,,19,15,164,,24,01,326,,25,25,052,,0*71

$GNRMC,140535.00,A,3114.00052,N,12130.05805,E,112.573,272.47,010620,,,A,V*07
$GNGGA,140535.00,3114.00052,N,12130.05805,E,1,11,0.88,50.7,M,,M,,*61
$GNGSA,A,3,,,,,,,,,,,,,1.79,0.88,1.55,1*0F
$GNGSA,A,3,06,13,11,23,30,14,36,02,04,17,08,,1.79,0.88,1.55,4*04
$GNGSA,A,3,,,,,,,,,,,,,1.79,0.88,1.55,3*0D
$GPGSV,4,1,15,02,32,048,,05,67,053,
,09,29,167,,10,10,108,,0*62
$GPGSV,4,2,15,12,57,070,,14,13,263,,21,14,200,,24,51,172,,0*63
$GPGSV,4,3,15,29,56,284,,30,60,346,,31,18,318,,42,48,147,,0*6D
$GPGSV,4,4,15,50,45,139,,40,11,257,,41,34,237,,0*5E
$GBGSV,4,1,15,02,56,187,35,04,39,124,35,06,44,207,35,08,38,317,35,0*75
$GBGSV,4,2,15,11,22,093,32,13,49,170,35,14,53,072,34,17,40,040,34,0*71
$GBGSV,4,3,15,23,27,129,33,30,15,279,32,36,73,271,34,29,03,238,,0*73
$GBGSV,4,4,15,32,12,209,35,37,12,150,35,01,,,35,0*7E
$GAGSV,3,1,12,01,47,034,,02,03,063,,07,13,260,,08,55,299,,0*7F

$GAGSV,3,2,12,14,15,137,,15,17,086,,16,01,040,,17,44,299,,0*78
$GAGSV,3,3,12,18,56,206,,19,15,164,,24,01,326,,25,25,052,,0*71

$GNRMC,140536.00,A,3113.99983,N,12130.03312,E,71.088,271.45,010620,,,A,V*39
$GNGGA,140536.00,3113.99983,N,12130.03312,E,1,11,0.88,48.9,M,,M,,*6C
$GNGSA,A,3,,,,,,,,,,,,,1.79,0.88,1.55,1*0F
$GNGSA,A,3,06,13,11,23,30,14,36,02,04,17,08,,1.79,0.88,1.55,4*04
$GNGSA,A,3,,,,,,,,,,,,,1.79,0.88,1.55,3*0D
$GPGSV,4,1,15,02,32,048,,05,67
,053,,09,29,167,,10,10,108,,0*62
$GPGSV,4,2,15,12,57,070,,14,13,263,,21,14,200,,24,51,172,,0*63
$GPGSV,4,3,15,29,56,284,,30,60,346,,31,18,318,,42,48,147,,0*6D
$GPGSV,4,4,15,50,45,139,,40,11,257,,41,34,237,,0*5E
$GBGSV,4,1,15,02,56,187,35,04,39,124,35,06,44,207,35,08,38,317,34,0*74
$GBGSV,4,2,15,11,22,093,32,13,49,170,35,14,53,072,35,17,40,040,35,0*71
$GBGSV,4,3,15,23,27,129,34,30,15,279,32,36,73,271,36,29,03,238,,0*76
$GBGSV,4,4,15,32,12,209,35,37,12,150,36,01,,,35,0*7D
$GAGSV,3,1,12,01,47,034,,02,03,063,,07,13,260,,08,55,299,,0*7F
$GAGSV,3,2,12,14,15,137,,15,17,086,,16,01,040,,17,44,299,,0*78
$GAGSV,3,3,12,18,56,206,,19,15,164,,24,01,326,,25,25,052,,0*71

$GNRMC,140537.00,A,3114.00022,N,12130.01522,E,42.589,271.73,010620,,,A,V*3B
$GNGGA,140537.00,3114.00022,N,12130.01522,E,1,10,1.08,47.7,M,,M,,*66
$GNGSA,A,3,,,,,,,,,,,,,2.62,1.08,2.39,1*06
$GNGSA,A,3,06,13,11,23,14,36,02,04,17,08,,,2.62,1.08,2.39,4*0E
$GNGSA,A,3,,,,,,,,,,,,,2.62,1.08,2.39,3*04
$GPGSV,4,1,15,02,32,048,,05,67,053,,09,29,167,,10,10,108,,0*62
$GPGSV,4,2,15,12,57,070,,14
,13,263,,21,14,200,,24,51,172,,0*63
$GPGSV,4,3,15,29,56,284,,30,60,346,,31,18,318,,42,48,147,,0*6D
$GPGSV,4,4,15,50,45,139,,40,11,257,,41,34,237,,0*5E
$GBGSV,4,1,15,02,56,187,35,04,39,124,35,06,44,207,36,08,38,317,35,0*76
$GBGSV,4,2,15,11,22,093,33,13,49,170,35,14,53,072,35,17,40,040,35,0*70
$GBGSV,4,3,15,23,27,129,34,36,73,271,35,29,03,238,,30,15,279,,0*74
$GBGSV,4,4,15,32,12,209,35,37,12,150,35,01,,,35,0*7E
$GAGSV,3,1,12,01,47,034,,02,03,063,,07,13,260,,08,55,299,,0*7F
$GAGSV,3,2,12,14,15,137,,15,17,086,,16,01,040,,17,44,299,,0*78
$GAGSV,3,3,12,18,56,206,,19,15,164,,24,01,326,,25,25,052,,0*71

$GNRMC,140538.00,A,3114.00061,N,12130.00603,E,16.927,274.54,010620,,,A,V*3B
$GNGGA,140538.00,3114.00061,N,12130.00603,E,1,10,1.08,46.9,M,,M,,*60
$GNGSA,A,3,,,,,,,,,,,,,2.62,1.08,2.39,1*06
$GNGSA,A,3,06,13,11,23,14,36,02,04,17,08,,,2.62,1.08,2.39,4*0E
$GNGSA,A,3,,,,,,,,,,,,,2.62,1.08,2.39,3*04
$GPGSV,4,1,15,02,32,048,
,05,67,053,,09,29,167,,10,10,108,,0*62
$GPGSV,4,2,15,12,57,070,,14,13,263,,21,14,200,,24,51,172,,0*63
$GPGSV,4,3,15,29,56,284,,30,60,346,,31,18,317,,42,48,147,,0*62
$GPGSV,4,4,15,50,45,139,,40,11,257,,41,34,237,,0*5E
$GBGSV,4,1,15,02,56,187,35,04,39,124,35,06,44,207,35,08,38,317,35,0*75
$GBGSV,4,2,15,11,22,093,32,13,49,170,35,14,53,072,34,17,40,040,35,0*70
$GBGSV,4,3,15,23,27,129,34,36,73,271,35,29,03,238,,30,15,279,,0*74
$GBGSV,4,4,15,32,12,209,35,37,12,150,35,01,,,34,0*7F
$GAGSV,3,1,12,01,47,034,,02,03,063,,07,13,260,,08,55,299
,,0*7F
$GAGSV,3,2,12,14,15,137,,15,17,086,,16,01,040,,17,44,299,,0*78
$GAGSV,3,3,12,18,56,206,,19,15,164,,24,01,326,,25,25,052,,0*71

,1.55,3*0C
$GPGSV,4,1,15,02,32,048,,05,67,053,,09,29,167,,10,10,108,,0*62
$GPGSV,4,2,15,12,57,070,,14,13,263,,21,14,200,,24,51,172,,0*63
$GPGSV,4,3,15,29,56,284,,30,60,346,,31,18,317,,42,48,147,,0*62
$GPGSV,4,4,15,50,45,139,,40,11,257,,41,34,237,,0*5E
$GBGSV,4,1,15,02,56,187,34,04,39,124,34,06,44,207,35,08,38,317,35,0*75
$GBGSV,4,2,15,11,22,093,35,13,
49,170,35,14,53,072,34,17,40,040,34,0*76
$GBGSV,4,3,15,23,27,129,34,30,15,279,34,36,73,271,35,29,03,238,,0*73
$GBGSV,4,4,15,32,12,209,35,37,12,150,35,01,,,35,0*7E
$GAGSV,3,1,12,01,47,034,,02,03,063,,07,13,260,,08,55,299,,0*7F
$GAGSV,3,2,12,14,15,137,,15,17,086,,16,01,040,,17,44,299,,0*78
$GAGSV,3,3,12,18,56,206,,19,15,164,,24,01,326,,25,25,052,,0*71

$GNRMC,140540.00,A,3114.00414,N,12129.99868,E,15.964,319.46,010620,,,A,V*34
$GNGGA,140540.00,3114.00414,N,12129.99868,E,1,11,0.88,45.8,M,,M,,*68
$GNGSA,A,3,,,,,,,,,,,,,1.78,0.88,1.55,1*0E
$GNGSA,A,3,06,13,11,23,30,14,36,02,04,17,08,,1.78,0.88,1.55,4*05
$GNGSA,A,3,,,,,,,,,,,,,1.78,0.88,1.55,3*0C
$GPGSV,4,1,15,02,32,048,,05,67,053,,
09,29,167,,10,10,108,,0*62
$GPGSV,4,2,15,12,57,070,,14,13,263,,21,14,200,,24,51,172,,0*63
$GPGSV,4,3,15,29,56,284,,30,60,346,,31,18,317,,42,48,147,,0*62
$GPGSV,4,4,15,50,45,139,,40,11,257,,41,34,237,,0*5E
$GBGSV,4,1,15,02,56,187,35,04,39,124,36,06,44,207,35,08,38,317,35,0*76
$GBGSV,4,2,15,11,22,093,35,13,49,170,35,14,53,072,34,17,40,040,35,0*77
$GBGSV,4,3,15,23,27,129,34,30,15,279,35,36,73,271,35,29,03,238,,0*72
$GBGSV,4,4,15,32,12,209,35,37,12,150,35,01,,,35,0*7E
$GAGSV,3,1,12,01,47,034,,02,03,063,,07,13,260,,08,55,299,,0*7F
$GAGSV,3,2,12,14,15,137,,15,17,086,,16,01,040,,17,44,299,,0*78
$GAGSV,3,3,12,18,56,206,,19,15,164,,24,01,326,,25,25,052,,0*71

C
$GPGSV,4,1,15,02,32,048,,05,67,054,,09,29,167,,10,10,108,,0*65
$GPGSV,4,2,15,12,57,070,,14,13,263,,21,14,200,,24,51,172,,0*63
$GPGSV,4,3,15,29,56,284,,30,60,346,,31,18,317,,42,48,147,,0*62
$GPGSV,4,4,15,50,45,139,,40,11,257,,41,34,237,,0*5E
$GBGSV,4,1,15,02,56,187,35,04,39,124,35,06,44,207,34,08,38,317,35,0*74
$GBGSV,4,2,15,11,22,093,35,13,49,170,35,14,53,072,35
,17,40,040,35,0*76
$GBGSV,4,3,15,23,27,129,35,30,15,279,35,36,73,271,35,29,03,238,,0*73
$GBGSV,4,4,15,32,12,209,35,37,12,150,35,01,,,35,0*7E
$GAGSV,3,1,12,01,46,034,,02,03,063,,07,13,260,,08,55,299,,0*7E
$GAGSV,3,2,12,14,15,137,,15,17,086,,16,01,040,,17,44,299,,0*78
$GAGSV,3,3,12,18,56,206,,19,15,164,,24,01,326,,25,25,052,,0*71

$GNRMC,140542.00,A,3114.01289,N,12129.99643,E,20.083,1.46,010620,,,A,V*3E
$GNGGA,140542.00,3114.01289,N,12129.99643,E,1,11,0.88,47.3,M,,M,,*67
$GNGSA,A,3,,,,,,,,,,,,,1.78,0.88,1.55,1*0E
$GNGSA,A,3,06,13,11,23,30,14,36,02,04,17,08,,1.78,0.88,1.55,4*05
$GNGSA,A,3,,,,,,,,,,,,,1.78,0.88,1.55,3*0C
$GPGSV,4,1,15,02,32,048,,05,67,054,,09,29,167,,10,10,108,,0*65
$GPGSV,4,2,15,12,5
7,070,,14,13,263,,21,14,200,,24,51,172,,0*63
$GPGSV,4,3,15,29,56,284,,30,60,346,,31,18,317,,42,48,147,,0*62
$GPGSV,4,4,15,50,45,139,,40,11,257,,41,34,237,,0*5E
$GBGSV,4,1,15,02,56,187,35,04,39,124,36,06,44,207,35,08,38,317,34,0*77
$GBGSV,4,2,15,11,22,093,35,13,49,170,35,14,53,072,35,17,40,040,35,0*76
$GBGSV,4,3,15,23,27,129,34,30,15,279,35,36,73,271,35,29,03,238,,0*72
$GBGSV,4,4,15,32,12,209,34,37,12,150,35,01,,,35,0*7F
$GAGSV,3,1,12,01,46,034,,02,03,063,,07,13,260,,08,55,299,,0*7E
$GAGSV,3,2,12,14,15,137,,15,17,086,,16,01,040,,17,44,299,,0*78
$GAGSV,3,3,12,18,56,206,,19,15,164,,24,01,326,,25,25,052,,0*71

,,,,,,,,,,,,1.78,0.88,1.55,3*0C
$GPGSV,4,1,15,02,32,048,,05,67,054,,09,29,167,,10,10,108,,0*65
$GPGSV,4,2,15,12,57,070,,14,13,263,,21,14,200,,24,51,172,,0*63
$GPGSV,4,3,15,29,56,284,,30,60,346,,31,18,317,,42,48,147,,0*62
$GPGSV,4,4,15,50,45,139,,40,11,257,,41,34,237,,0*5E
$GBGSV,4,1,15,02,56,187,35,04,39,124,36,06,44,207,35,08,38,317,34,0*77
$GBGSV,4,2,15,11
,22,093,35,13,49,170,35,14,53,072,35,17,40,040,35,0*76
$GBGSV,4,3,15,23,27,129,35,30,15,279,35,36,73,271,35,29,03,238,,0*73
$GBGSV,4,4,15,32,12,209,33,37,12,150,33,01,,,35,0*7E
$GAGSV,3,1,12,01,46,034,,02,03,063,,07,13,260,,08,55,299,,0*7E
$GAGSV,3,2,12,14,15,137,,15,17,086,,16,01,040,,17,44,299,,0*78
$GAGSV,3,3,12,18,56,206,,19,15,164,,24,01,326,,25,25,052,,0*71

$GNRMC,140544.00,A,3114.03798,N,12129.99693,E,71.467,359.93,010620,,,A,V*3E
$GNGGA,140544.00,3114.03798,N,12129.99693,E,1,11,0.88,46.4,M,,M,,*6D
$GNGSA,A,3,,,,,,,,,,,,,1.78,0.88,1.55,1*0E
$GNGSA,A,3,06,13,11,23,30,14,36,02,04,17,08,,1.78,0.88,1.55,4*05
$GNGSA,A,3,,,,,,,,,,,,,1.78,0.88,1.55,3*0C
$GPGSV,4,1,15,02,32,048,,05,67,05
4,,09,29,167,,10,10,108,,0*65
$GPGSV,4,2,15,12,57,070,,14,13,263,,21,14,200,,24,51,172,,0*63
$GPGSV,4,3,15,29,56,284,,30,60,346,,31,18,317,,42,48,147,,0*62
$GPGSV,4,4,15,50,45,139,,40,11,257,,41,34,237,,0*5E
$GBGSV,4,1,15,02,56,187,35,04,39,124,36,06,44,207,34,08,38,317,35,0*77
$GBGSV,4,2,15,11,22,093,34,13,49,170,34,14,53,072,35,17,40,040,35,0*76
$GBGSV,4,3,15,23,27,129,34,30,15,279,34,36,73,271,36,29,03,238,,0*70
$GBGSV,4,4,15,32,12,209,33,37,12,150,32,01,,,35,0*7F
$GAGSV,3,1,12,01,46,034,,02,03,063,,07,13,260,,08,55,299,,0*7E
$GAGSV,3,2,12,14,15,137,,15,17,086,,16,01,040,,17,44,299,,0*78
$GAGSV,3,3,12,18,56,206,,19,15,164,,24,01,326,,25,25,052,,0*71

$GNRMC,140545.00,A,3114.06295,N,12129.99698,E,102.436,359.87,010620,,,A,V*0D
$GNGGA,140545.00,3114.06295,N,12129.99698,E,1,11,0.88,47.0,M,,M,,*6F
$GNGSA,A,3,,,,,,,,,,,,,1.78,0.88,1.55,1*0E
$GNGSA,A,3,06,13,11,23,30,14,36,02,04,17,08,,1.78,0.88,1.55,4*05
$GNGSA,A,3,,,,,,,,,,,,,1.78,0.88,1.55,3*0C
$GPGSV,
4,1,15,02,32,048,,05,67,054,,09,29,167,,10,10,108,,0*65
$GPGSV,4,2,15,12,57,070,,14,13,263,,21,14,200,,24,51,172,,0*63
$GPGSV,4,3,15,29,56,284,,30,60,346,,31,18,317,,42,48,147,,0*62
$GPGSV,4,4,15,50,45,139,,40,11,257,,41,34,237,,0*5E
$GBGSV,4,1,15,02,56,187,36,04,39,124,35,06,44,207,35,08,38,317,35,0*76
$GBGSV,4,2,15,11,22,093,34,13,49,170,35,14,53,072,35,17,40,040,35,0*77
$GBGSV,4,3,15,23,27,129,35,30,15,279,35,36,73,271,34,29,03,238,,0*72
$GBGSV,4,4,15,32,12,209,33,37,12,150,33,01,,,35,0*7E
$GAGSV,3,1,12,01,46,034,,02,03,063,,07,13,260,,08
,55,299,,0*7E
$GAGSV,3,2,12,14,15,137,,15,17,086,,16,01,040,,17,44,299,,0*78
$GAGSV,3,3,12,18,56,206,,19,15,164,,24,01,326,,25,25,052,,0*71

$GNRMC,140546.00,A,3114.09566,N,12129.99712,E,129.342,359.94,010620,,,A,V*06
$GNGGA,140546.00,3114.09566,N,12129.99712,E,1,11,0.88,47.2,M,,M,,*69
$GNGSA,A,3,,,,,,,,,,,,,1.78,0.88,1.55,1*0E
$GNGSA,A,3,06,13,11,23,30,14,36,02,04,17,08,,1.78,0.88,1.55,4*05
$GNGSA,A,3,,,,,,,,,,,,,1.78,0.88,1.55,3*0C
$GPGSV,4,1,15,02,32,0
48,,05,67,054,,09,29,167,,10,10,108,,0*65
$GPGSV,4,2,15,12,57,070,,14,13,263,,21,14,200,,24,51,172,,0*63
$GPGSV,4,3,15,29,56,284,,30,60,346,,31,18,317,,42,48,147,,0*62
$GPGSV,4,4,15,50,45,139,,40,11,257,,41,34,237,,0*5E
$GBGSV,4,1,15,02,56,187,36,04,39,124,35,06,44,207,34,08,38,317,35,0*77
$GBGSV,4,2,15,11,22,093,35,13,49,170,34,14,53,072,35,17,40,040,34,0*76
$GBGSV,4,3,15,23,27,129,34,30,15,279,35,36,73,271,35,29,03,238,,0*72
$GBGSV,4,4,15,32,12,209,33,37,12,150,33,01,,,35,0*7E
$GAGSV,3,1,12,01,46,034,,02,03,063,,07,13,260,,08,55,299,,0*7E
$GAGSV,3,2,12,14,15,137,,15,17,086,,16,01,040,,17,44,299,,0*78
$GAGSV,3,3,12,18,56,206,,19,15,164,,24,01,326,,25,25,052,,0*71

$GNRMC,140547.00,A,3114.13565,N,12129.99721,E,155.853,359.98,010620,,,A,V*03
$GNGGA,140547.00,3114.13565,N,12129.99721,E,1,11,0.88,47.6,M,,M,,*64
$GNGSA,A,3,,,,,,,,,,,,,1.78,0.88,1.55,1*0E
$GNGSA,A,3,06,13,11,23,30,14,36,02,04,17,08,,1.78,0.88,1.55,4*05
$GNGSA,A,3,,,,,,,,,,,,,1.78,0.88,1.55,3*0C
$GPGSV,4,1,15
,02,32,048,,05,67,054,,09,29,167,,10,10,108,,0*65
$GPGSV,4,2,15,12,57,070,,14,13,263,,21,14,200,,24,51,172,,0*63
$GPGSV,4,3,15,29,56,284,,30,60,346,,31,18,317,,42,48,147,,0*62
$GPGSV,4,4,15,50,45,139,,40,11,257,,41,34,237,,0*5E
$GBGSV,4,1,15,02,56,187,35,04,39,124,35,06,45,207,34,08,38,317,35,0*75
$GBGSV,4,2,15,11,22,093,35,13,49,170,34,14,53,072,35,17,40,040,35,0*77
$GBGSV,4,3,15,23,27,129,36,30,15,279,36,36,73,271,35,29,03,238,,0*73
$GBGSV,4,4,15,32,12,209,33,37,12,150,33,01,,,34,0*7F
$GAGSV,3,1,12,01,46,034,,02,03,063,,07,13,260,,08,55,
299,,0*7E
$GAGSV,3,2,12,14,15,137,,15,17,086,,16,01,040,,17,44,299,,0*78
$GAGSV,3,3,12,18,56,206,,19,15,164,,24,01,326,,25,25,052,,0*71

$GNRMC,140548.00,A,3114.18283,N,12129.99762,E,181.350,0.40,010620,,,A,V*04
$GNGGA,140548.00,3114.18283,N,12129.99762,E,1,11,0.88,48.2,M,,M,,*63
$GNGSA,A,3,,,,,,,,,,,,,1.78,0.88,1.55,1*0E
$GNGSA,A,3,06,13,11,23,30,14,36,02,04,17,08,,1.78,0.88,1.55,4*05
$GNGSA,A,3,,,,,,,,,,,,,1.78,0.88,1.55,3*0C
$GPGSV,4,1,15,02,32,048,,05,67,054,,09,29,167,
,10,10,108,,0*65
$GPGSV,4,2,15,12,57,070,,14,13,263,,21,14,200,,24,51,172,,0*63
$GPGSV,4,3,15,29,56,284,,30,60,346,,31,18,317,,42,48,147,,0*62
$GPGSV,4,4,15,50,45,139,,40,11,257,,41,34,237,,0*5E
$GBGSV,4,1,15,02,56,187,35,04,39,124,34,06,45,207,34,08,38,317,34,0*75
$GBGSV,4,2,15,11,22,093,36,13,49,170,34,14,53,072,35,17,40,040,34,0*75
$GBGSV,4,3,15,23,27,129,34,30,15,279,35,36,73,271,35,29,03,238,,0*72
$GBGSV,4,4,15,32,12,209,35,37,12,150,35,01,,,35,0*7E
$GAGSV,3,1,12,01,46,034,,02,03,063,,07,13,260,,08,55,299,,0*7E
$GAGSV,3,2,12,14,15,137,,15,17,086,,16,01,040,,17,44,299,,0*78
$GAGSV,3,3,12,18,56,206,,19,15,164,,24,01,326,,25,25,052,,0*71

8,1.55,3*0C
$GPGSV,4,1,15,02,32,048,,05,67,054,,09,29,167,,10,10,108,,0*65
$GPGSV,4,2,15,12,57,070,,14,13,263,,21,14,200,,24,51,172,,0*63
$GPGSV,4,3,15,29,56,284,,30,60,346,,31,18,317,,42,48,147,,0*62
$GPGSV,4,4,15,50,45,139,,40,11,257,,41,34,237,,0*5E
$GBGSV,4,1,15,02,56,187,36,04,39,124,35,06,45,207,35,08,38,317,36,0*74
$GBGSV,4,2,15,11,22,093,36,13,49,170
,35,14,53,072,35,17,40,040,35,0*75
$GBGSV,4,3,15,23,27,129,35,30,15,279,35,36,73,271,35,29,03,238,,0*73
$GBGSV,4,4,15,32,12,209,35,37,12,150,35,01,,,35,0*7E
$GAGSV,3,1,12,01,46,034,,02,03,063,,07,13,260,,08,55,299,,0*7E
$GAGSV,3,2,12,14,15,137,,15,17,086,,16,01,040,,17,44,299,,0*78
$GAGSV,3,3,12,18,56,206,,19,15,164,,24,01,326,,25,25,052,,0*71

$GNRMC,140550.00,A,3114.27144,N,12129.99756,E,161.876,0.02,010620,,,A,V*09
$GNGGA,140550.00,3114.27144,N,12129.99756,E,1,11,0.88,47.3,M,,M,,*67
$GNGSA,A,3,,,,,,,,,,,,,1.78,0.88,1.55,1*0E
$GNGSA,A,3,06,13,11,23,30,14,36,02,04,17,08,,1.78,0.88,1.55,4*05
$GNGSA,A,3,,,,,,,,,,,,,1.78,0.88,1.55,3*0C
$GPGSV,4,1,15,02,32,048,,05,67,054,,09,29,167,,10,10,108,,0*
65
$GPGSV,4,2,15,12,57,070,,14,13,263,,21,14,200,,24,51,172,,0*63
$GPGSV,4,3,15,29,56,284,,30,60,346,,31,18,317,,42,48,147,,0*62
$GPGSV,4,4,15,50,45,139,,40,11,257,,41,34,237,,0*5E
$GBGSV,4,1,15,02,56,187,36,04,39,124,35,06,45,207,35,08,38,317,35,0*77
$GBGSV,4,2,15,11,22,093,35,13,49,170,35,14,53,072,35,17,40,040,35,0*76
$GBGSV,4,3,15,23,27,129,35,30,15,279,35,36,73,271,35,29,03,238,,0*73
$GBGSV,4,4,15,32,12,209,34,37,12,150,35,01,,,35,0*7F
$GAGSV,3,1,12,01,46,034,,02,03,063,,07,13,260,,08,55,299,,0*7E
$GAGSV,3,2,12,14,15,137,,15,17,086,,16,01,040,,17,44,299,,0*78
$GAGSV,3,3,12,18,56,206,,19,15,164,,24,01,326,,25,25,052,,0*71

,1.55,4*05
$GNGSA,A,3,,,,,,,,,,,,,1.78,0.88,1.55,3*0C
$GPGSV,4,1,15,02,32,048,,05,67,054,,09,29,167,,10,10,108,,0*65
$GPGSV,4,2,15,12,57,070,,14,13,263,,21,14,200,,24,51,172,,0*63
$GPGSV,4,3,15,29,56,284,,30,60,346,,31,18,317,,42,48,147,,0*62
$GPGSV,4,4,15,50,45,139,,40,11,257,,41,34,237,,0*5E
$GBGSV,4,1,15,02,56,187,36,04,39,124,35,06,45,207,35,08,38
,317,35,0*77
$GBGSV,4,2,15,11,22,093,35,13,49,170,35,14,53,072,34,17,40,040,35,0*77
$GBGSV,4,3,15,23,27,129,35,30,15,279,34,36,73,271,35,29,03,238,,0*72
$GBGSV,4,4,15,32,12,209,35,37,12,150,35,01,,,35,0*7E
$GAGSV,3,1,12,01,46,034,,02,03,063,,07,13,260,,08,55,299,,0*7E
$GAGSV,3,2,12,14,15,137,,15,17,085,,16,01,040,,17,44,299,,0*7B
$GAGSV,3,3,12,18,56,206,,19,15,164,,24,01,326,,25,25,052,,0*71

$GNRMC,140552.00,A,3114.36202,N,12129.99786,E,161.603,359.94,010620,,,A,V*0B
$GNGGA,140552.00,3114.36202,N,12129.99786,E,1,11,0.88,47.4,M,,M,,*6E
$GNGSA,A,3,,,,,,,,,,,,,1.78,0.88,1.55,1*0E
$GNGSA,A,3,06,13,11,23,30,14,36,02,04,17,08,,1.78,0.88,1.55,4*05
$GNGSA,A,3,,,,,,,,,,,,,1.78,0.88,1.55,3*0C
$GPGSV,4,1,15,02,32,048,,05,67,054,,09,29,
167,,10,10,108,,0*65
$GPGSV,4,2,15,12,57,070,,14,13,263,,21,14,200,,24,51,172,,0*63
$GPGSV,4,3,15,29,56,284,,30,60,346,,31,18,317,,42,48,147,,0*62
$GPGSV,4,4,15,50,45,139,,40,11,257,,41,34,237,,0*5E
$GBGSV,4,1,15,02,56,187,35,04,39,124,35,06,45,207,35,08,38,317,35,0*74
$GBGSV,4,2,15,11,22,093,35,13,49,170,35,14,53,072,35,17,40,040,35,0*76
$GBGSV,4,3,15,23,27,129,35,30,15,279,36,36,73,271,36,29,03,238,,0*73
$GBGSV,4,4,15,32,12,209,35,37,12,150,35,01,,,36,0*7D
$GAGSV,3,1,12,01,46,035,,02,03,063,,07,13,260,,08,55,299,,0*7F
$GAGSV,3,2,12,14,15,137,,15,17,085,,16,01,040,,17,44,299,,0*7B
$GAGSV,3,3,12,18,56,206,,19,15,164,,24,01,326,,25,25,052,,0*71

$GNRMC,140553.00,A,3114.40464,N,12129.99806,E,144.218,0.20,010620,,,A,V*03
$GNGGA,140553.00,3114.40464,N,12129.99806,E,1,11,0.88,47.0,M,,M,,*6B
$GNGSA,A,3,,,,,,,,,,,,,1.78,0.88,1.55,1*0E
$GNGSA,A,3,06,13,11,23,30,14,36,02,04,17,08,,1.78,0.88,1.55,4*05
$GNGSA,A,3,,,,,,,,,,,,,1.78,0.88,1.55,3*0C
$GPGSV,4,1,15,02,32,048,,05,67,054,,09,29,167,,10,10,108,,0*65
$GPG
SV,4,2,15,12,57,070,,14,13,263,,21,14,200,,24,51,172,,0*63
$GPGSV,4,3,15,29,56,284,,30,60,346,,31,18,317,,42,48,147,,0*62
$GPGSV,4,4,15,50,45,139,,40,11,257,,41,34,237,,0*5E
$GBGSV,4,1,15,02,56,187,35,04,39,124,35,06,45,207,33,08,38,317,34,0*73
$GBGSV,4,2,15,11,22,093,35,13,49,170,33,14,53,072,35,17,40,040,34,0*71
$GBGSV,4,3,15,23,27,129,33,30,15,279,35,36,73,271,35,29,03,238,,0*75
$GBGSV,4,4,15,32,12,209,32,37,12,150,32,01,,,35,0*7E
$GAGSV,3,1,12,01,46,035,,02,03,063,,07,13,260,,08,55,299,,0*7F
$GAGSV,3,2,12,14,15,137,,15,17,085,,16,01,04
0,,17,44,299,,0*7B
$GAGSV,3,3,12,18,56,206,,19,15,164,,24,01,326,,25,25,052,,0*71

$GNRMC,140554.00,A,3114.43923,N,12129.99843,E,111.871,0.56,010620,,,A,V*0C
$GNGGA,140554.00,3114.43923,N,12129.99843,E,1,11,0.88,46.1,M,,M,,*60
$GNGSA,A,3,,,,,,,,,,,,,1.78,0.88,1.55,1*0E
$GNGSA,A,3,06,13,11,23,30,14,36,02,04,17,08,,1.78,0.88,1.55,4*05
$GNGSA,A,3,,,,,,,,,,,,,1.78,0.88,1.55,3*0C
$GPGSV,4,1,15,02,32,048,,05,67,054,,09,29,167,,10,10,108,,0*65
$GPGSV,4,2,15,12,57,070,,14,13,263,,21,14,
200,,24,51,172,,0*63
$GPGSV,4,3,15,29,56,284,,30,60,346,,31,18,317,,42,48,147,,0*62
$GPGSV,4,4,15,50,45,139,,40,11,257,,41,34,237,,0*5E
$GBGSV,4,1,15,02,56,187,35,04,39,124,35,06,45,207,34,08,38,317,35,0*75
$GBGSV,4,2,15,11,22,093,35,13,49,170,35,14,53,072,35,17,40,040,34,0*77
$GBGSV,4,3,15,23,27,130,34,30,15,279,35,36,73,271,35,29,03,238,,0*7A
$GBGSV,4,4,15,32,12,209,32,37,12,150,32,01,,,35,0*7E
$GAGSV,3,1,12,01,46,035,,02,03,063,,07,13,260,,08,55,299,,0*7F
$GAGSV,3,2,12,14,15,137,,15,17,085,,16,01,040,,17,44,299,,0*7B
$GAGSV,3,3,12,18,56,206,,19,15,164,,24,01,326,,25,25,052,,0*71

$GNRMC,140555.00,A,3114.46638,N,12129.99891,E,83.128,0.63,010620,,,A,V*3B
$GNGGA,140555.00,3114.46638,N,12129.99891,E,1,11,0.88,45.8,M,,M,,*64
$GNGSA,A,3,,,,,,,,,,,,,1.78,0.88,1.55,1*0E
$GNGSA,A,3,06,13,11,23,30,14,36,02,04,17,08,,1.78,0.88,1.55,4*05
$GNGSA,A,3,,,,,,,,,,,,,1.78,0.88,1.55,3*0C
$GPGSV,4,1,15,02,32,048,,05,67,054,,09,29,167,,10,10,108,,0*65
$GPGSV,4,2,1
5,12,57,070,,14,13,263,,21,14,200,,24,51,172,,0*63
$GPGSV,4,3,15,29,56,284,,30,61,346,,31,18,317,,42,48,147,,0*63
$GPGSV,4,4,15,50,45,139,,40,11,257,,41,34,237,,0*5E
$GBGSV,4,1,15,02,56,187,35,04,39,124,34,06,45,207,34,08,38,317,34,0*75
$GBGSV,4,2,15,11,22,093,35,13,49,170,36,14,53,072,35,17,40,040,34,0*74
$GBGSV,4,3,15,23,27,130,35,30,15,279,34,36,73,271,35,29,03,238,,0*7A
$GBGSV,4,4,15,32,12,209,34,37,12,150,33,01,,,35,0*79
$GAGSV,3,1,12,01,46,035,,02,03,063,,07,13,260,,08,55,299,,0*7F
$GAGSV,3,2,12,14,15,137,,15,17,085,,16,01,040,,17,44,299,,0*7B
$GAGSV,3,3,12,18,56,206,,19,15,164,,24,01,326,,25,25,052,,0*71

$GNRMC,140556.00,A,3114.48566,N,12129.99915,E,56.018,359.93,010620,,,A,V*39
$GNGGA,140556.00,3114.48566,N,12129.99915,E,1,11,0.88,46.3,M,,M,,*64
$GNGSA,A,3,,,,,,,,,,,,,1.78,0.88,1.55,1*0E
$GNGSA,A,3,06,13,11,23,30,14,36,02,04,17,08,,1.78,0.88,1.55,4*05
$GNGSA,A,3,,,,,,,,,,,,,1.78,0.88,1.55,3*0C
$GPGSV,4,1,15,02,32,048,,05,67,054,,09,29,167,,10,10,1
08,,0*65
$GPGSV,4,2,15,12,57,070,,14,13,263,,21,14,200,,24,51,172,,0*63
$GPGSV,4,3,15,29,56,284,,30,61,346,,31,18,317,,42,48,147,,0*63
$GPGSV,4,4,15,50,45,139,,40,11,257,,41,34,237,,0*5E
$GBGSV,4,1,15,02,56,187,36,04,39,124,35,06,45,207,34,08,38,317,35,0*76
$GBGSV,4,2,15,11,22,093,35,13,49,170,35,14,53,072,35,17,40,040,34,0*77
$GBGSV,4,3,15,23,27,130,34,30,15,279,35,36,73,271,35,29,03,238,,0*7A
$GBGSV,4,4,15,32,12,209,32,37,12,150,32,01,,,36,0*7D
$GAGSV,3,1,12,01,46,035,,02,03,063,,07,13,260,,08,55,299,,0*7F
$GAGSV,3,2,12,14,15,137,,15,17,085,,16,01,040,,17,44,299,,0*7B
$GAGSV,3,3,12,18,56,206,,19,15,164,,24,01,326,,25,25,052,,0*71

$GNRMC,140557.00,A,3114.49746,N,12129.99929,E,29.456,0.60,010620,,,A,V*33
$GNGGA,140557.00,3114.49746,N,12129.99929,E,1,11,0.88,45.9,M,,M,,*62
$GNGSA,A,3,,,,,,,,,,,,,1.78,0.88,1.55,1*0E
$GNGSA,A,3,06,13,11,23,30,14,36,02,04,17,08,,1.78,0.88,1.55,4*05
$GNGSA,A,3,,,,,,,,,,,,,1.78,0.88,1.55,3*0C
$GPGSV,4,1,15,02,32,04
8,,05,67,054,,09,29,167,,10,10,108,,0*65
$GPGSV,4,2,15,12,57,070,,14,13,263,,21,14,200,,24,51,172,,0*63
$GPGSV,4,3,15,29,56,284,,30,61,346,,31,18,317,,42,48,147,,0*63
$GPGSV,4,4,15,50,45,139,,40,11,257,,41,34,237,,0*5E
$GBGSV,4,1,15,02,56,187,35,04,39,124,35,06,45,207,34,08,38,317,35,0*75
$GBGSV,4,2,15,11,22,093,35,13,49,170,34,14,53,072,35,17,40,040,35,0*77
$GBGSV,4,3,15,23,27,130,34,30,15,279,35,36,73,271,36,29,04,238,,0*7E
$GBGSV,4,4,15,32,12,209,33,37,12,150,32,01,,,35,0*7F
$GAGSV,3,1,12,01,46,035,,02,03,063,,07,13,260,,08,55,299,,0*7F
$GAGSV,3,2,12,14,15,137,,15,17,085,,16,01,040,,17,44,299,,0*7B
$GAGSV,3,3,12,18,56,206,,19,15,164,,24,01,326,,25,25,052,,0*71

5,3*0C
$GPGSV,4,1,15,02,32,048,,05,67,054,,09,29,167,,10,10,108,,0*65
$GPGSV,4,2,15,12,57,070,,14,13,263,,21,14,200,,24,51,172,,0*63
$GPGSV,4,3,15,29,56,284,,30,61,346,,31,18,317,,42,48,147,,0*63
$GPGSV,4,4,15,50,45,139,,40,11,257,,41,34,237,,0*5E
$GBGSV,4,1,15,02,56,187,35,04,39,124,35,06,45,207,34,08,38,317,35,0*75
$GBGSV,4,2,15,11,22,093,35,13,49,170,34,14,53,072
,35,17,40,040,34,0*76
$GBGSV,4,3,15,23,27,130,35,30,15,279,35,36,73,271,35,29,04,238,,0*7C
$GBGSV,4,4,15,32,12,209,33,37,12,150,35,01,,,34,0*79
$GAGSV,3,1,12,01,46,035,,02,03,063,,07,13,260,,08,55,299,,0*7F
$GAGSV,3,2,12,14,15,137,,15,17,085,,16,01,040,,17,44,299,,0*7B
$GAGSV,3,3,12,18,56,206,,19,15,164,,24,01,326,,25,25,052,,0*71

$GNRMC,140559.00,A,3114.50626,N,12130.00201,E,14.881,41.67,010620,,,A,V*01
$GNGGA,140559.00,3114.50626,N,12130.00201,E,1,11,0.88,46.9,M,,M,,*69
$GNGSA,A,3,,,,,,,,,,,,,1.78,0.88,1.55,1*0E
$GNGSA,A,3,06,13,11,23,30,14,36,02,04,17,08,,1.78,0.88,1.55,4*05
$GNGSA,A,3,,,,,,,,,,,,,1.78,0.88,1.55,3*0C
$GPGSV,4,1
,15,02,32,048,,05,67,054,,09,29,167,,10,10,108,,0*65
$GPGSV,4,2,15,12,57,070,,14,13,263,,21,14,200,,24,51,172,,0*63
$GPGSV,4,3,15,29,56,284,,30,61,346,,31,18,317,,42,48,147,,0*63
$GPGSV,4,4,15,50,45,139,,40,11,257,,41,34,237,,0*5E
$GBGSV,4,1,15,02,56,187,35,04,39,124,35,06,45,207,35,08,38,317,35,0*74
$GBGSV,4,2,15,11,22,093,35,13,49,170,34,14,53,072,35,17,40,040,35,0*77
$GBGSV,4,3,15,23,27,130,34,30,15,279,35,36,73,271,35,29,04,238,,0*7D
$GBGSV,4,4,15,32,12,209,34,37,12,150,35,01,,,35,0*7F
$GAGSV,3,1,12,01,46,035,,02,03,063,,07,13,260,,08,55,299,,0*7F
$GAGSV,3,2,12,14,15,137,,15,17,085,,16,01,040,,17,44,299,,0*7B
$GAGSV,3,3,12,18,56,206,,19,15,164,,24,01,326,,25,25,052,,0*71

,3*0C
$GPGSV,4,1,15,02,32,048,,05,67,054,,09,29,167,,10,10,108,,0*65
$GPGSV,4,2,15,12,57,070,,14,13,263,,21,14,200,,24,51,172,,0*63
$GPGSV,4,3,15,29,56,284,,30,61,346,,31,18,317,,42,48,147,,0*63
$GPGSV,4,4,15,50,45,139,,40,11,257,,41,34,237,,0*5E
$GBGSV,4,1,15,02,56,187,36,04,39,124,34,06,45,207,35,08,38,317,35,0*76
$GBGSV,4,2,15,11,22,093,35,13,49,170,35,14,53,
072,35,17,40,040,35,0*76
$GBGSV,4,3,15,23,27,130,35,30,15,279,35,36,73,271,35,29,04,238,,0*7C
$GBGSV,4,4,15,32,12,209,35,37,12,150,35,01,,,35,0*7E
