$GNRMC,000511.00,A,3000.11919,N,12000.03224,E,75.558,26.04,230721,,,A,V*06
$GNGGA,000511.00,3000.11919,N,12000.03224,E,1,07,1.55,-0.8,M,,M,,*7C
$GNGSA,A,3,,,,,,,,,,,,,2.61,1.55,2.10,1*06
$GNGSA,A,3,06,09,13,04,02,01,14,,,,,,2.61,1.55,2.10,4*0C
$GNGSA,
A,3,,,,,,,,,,,,,2.61,1.55,2.10,3*04
$GPGSV,1,1,00,0*65
$GBGSV,2,1,07,01,37,122,35,02,50,173,35,04,36,125,35,06,36,215,35,0*77
$GBGSV,2,2,07,09,36,285,35,13,46,201,35,14,07,164,34,0*46
$GAGSV,1,1,00,0*74

$GNRMC,000512.00,A,3000.13771,N,12000.04369,E,75.619,30.48,230721,,,A,V*01
$GNGGA,000512.00,3000.13771,N,12000.04369,E,1,07,1.55,-0.8,M,,M,,*72
$GNGSA,A,3,,,,,,,,,,,,,2.61,1.55,2.10,1*06
$GNGSA,A,3,06,09,13,04,02,01,14,,,,,,2.61,1.55,2.10,4*0C
$GNGSA,A,3,,,,,,,,,,,,,2.61,1.55,2.10,3*04
$GPGSV,1,1,00,0*65
$GBGSV,2,1,07,01,37,122,35,02,50
,173,34,04,36,125,35,06,36,215,35,0*76
$GBGSV,2,2,07,09,36,285,35,13,46,201,35,14,07,164,34,0*46
$GAGSV,1,1,00,0*74

$GNRMC,000513.00,A,3000.15540,N,12000.05675,E,75.640,34.96,230721,,,A,V*04
$GNGGA,000513.00,3000.15540,N,12000.05675,E,1,07,1.55,-0.8,M,,M,,*7C
$GNGSA,A,3,,,,,,,,,,,,,2.61,1.55,2.10,1*06
$GNGSA,A,3,06,09,13,04,02,01,14,,,,,,2.61,1.55,2.10,4*0C
$GNGSA,A,3,,,,,,,,,,,,,2.61,1.55,2.10,3*04
$GPGSV,1,1,00,0*65
$GBGSV,2,1,07,01,37,122,
35,02,50,173,35,04,36,125,35,06,36,215,35,0*77
$GBGSV,2,2,07,09,36,285,35,13,46,201,35,14,07,164,35,0*47
$GAGSV,1,1,00,0*74

$GNRMC,000514.00,A,3000.17213,N,12000.07134,E,75.627,39.35,230721,,,A,V*05
$GNGGA,000514.00,3000.17213,N,12000.07134,E,1,07,1.55,-0.8,M,,M,,*78
$GNGSA,A,3,,,,,,,,,,,,,2.61,1.55,2.10,1*06
$GNGSA,A,3,06,09,13,04,02,01,14,,,,,,2.61,1.55,2.10,4*0C
$GNGSA,A
,3,,,,,,,,,,,,,2.61,1.55,2.10,3*04
$GPGSV,1,1,00,0*65
$GBGSV,2,1,07,01,37,122,35,02,50,173,35,04,36,125,35,06,36,215,36,0*74
$GBGSV,2,2,07,09,36,285,35,13,46,201,35,14,07,164,35,0*47
$GAGSV,1,1,00,0*74

$GNRMC,000515.00,A,3000.18785,N,12000.08738,E,75.812,43.83,230721,,,A,V*0C
$GNGGA,000515.00,3000.18785,N,12000.08738,E,1,07,1.55,-0.8,M,,M,,*79
$GNGSA,A,3,,,,,,,,,,,,,2.61,1.55,2.10,1*06
$GNGSA,A,3,06,09,13,04,02,01,14,,,,,,2.61,1.55,2.10,4*0C
$GNGSA,A,3,,,,,,,,,,,,,2.61,1.5
5,2.10,3*04
$GPGSV,1,1,00,0*65
$GBGSV,2,1,07,01,37,122,35,02,50,173,36,04,36,125,35,06,36,215,35,0*74
$GBGSV,2,2,07,09,36,285,35,13,46,201,35,14,07,164,35,0*47
$GAGSV,1,1,00,0*74

$GNRMC,000516.00,A,3000.20244,N,12000.10480,E,75.626,48.34,230721,,,A,V*0B
$GNGGA,000516.00,3000.20244,N,12000.10480,E,1,07,1.55,-0.8,M,,M,,*70
$GNGSA,A,3,,,,,,,,,,,,,2.61,1.55,2.10,1*06
$GNGSA,A,3,06,09,13,04,02,01,14,,,,,,2.61,1.55,2.10,4*0C
$GNGSA,A,3,,,,,,,,,,,,,2.61,1.55,2.10,3*04
$GPGSV,1,1,00,0*65
$GBGSV,2,1,07,01,37,122,35,02,50,173,35,04,3
6,125,35,06,36,215,35,0*77
$GBGSV,2,2,07,09,36,285,35,13,46,201,35,14,07,164,34,0*46
$GAGSV,1,1,00,0*74

$GNRMC,000517.00,A,3000.21581,N,12000.12347,E,75.698,52.75,230721,,,A,V*00
$GNGGA,000517.00,3000.21581,N,12000.12347,E,1,07,1.55,-0.8,M,,M,,*70
$GNGSA,A,3,,,,,,,,,,,,,2.61,1.55,2.10,1*06
$GNGSA,A,3,06,09,13,04,02,01,14,,,,,,2.61,1.55,2.10,4*0C
$GNGSA,A,3,,,,,,,,,,,,,2.61,1.55,2.10,3*04
$GPGSV,1,1,00,0*65
$GBGSV,2,1,07,01,37,122,36,02,50,173,36,04,36,125,35,06,36,215,35,0*77
$GBGSV,2,2,07
,09,36,285,35,13,46,201,35,14,07,164,35,0*47
$GAGSV,1,1,00,0*74

$GNRMC,000518.00,A,3000.22787,N,12000.14328,E,75.645,57.22,230721,,,A,V*00
$GNGGA,000518.00,3000.22787,N,12000.14328,E,1,07,1.55,-0.7,M,,M,,*78
$GNGSA,A,3,,,,,,,,,,,,,2.61,1.55,2.10,1*06
$GNGSA,A,3,06,09,13,04,02,01,14,,,,,,2.61,1.55,2.10,4*0C
$GNGSA,A,3,,,,,,,,,,,,,2.61,1.55,2.10,3*04
$GPGSV,1,1,00,0*65
$GBGSV,2,1,07,01,37,122,35,02,50,173,35,04,36,125,35,06,36,215,35,0
*77
$GBGSV,2,2,07,09,36,285,35,13,46,201,35,14,07,164,34,0*46
$GAGSV,1,1,00,0*74

$GNRMC,000519.00,A,3000.23852,N,12000.16410,E,75.794,61.62,230721,,,A,V*05
$GNGGA,000519.00,3000.23852,N,12000.16410,E,1,07,1.55,-0.7,M,,M,,*71
$GNGSA,A,3,,,,,,,,,,,,,2.61,1.55,2.10,1*06
$GNGSA,A,3,06,09,13,04,02,01,14,,,,,,2.61,1.55,2.10,4*0C
$GNGSA,A,3,,,,,,,,,,,,,2.61,1.55,2.10,3*04
$GPGSV,1,1,00,0*65
$GBGSV,2,1,07,01,37,122,35,02,50,173,35,04,36,125,36,06,36,215,35,0*74
$GBGSV,2,2,07,09,36,28
5,35,13,46,201,35,14,07,164,34,0*46
$GAGSV,1,1,00,0*74

$GNRMC,000520.00,A,3000.24774,N,12000.18580,E,75.617,66.10,230721,,,A,V*0D
$GNGGA,000520.00,3000.24774,N,12000.18580,E,1,07,1.55,-0.6,M,,M,,*70
$GNGSA,A,3,,,,,,,,,,,,,2.61,1.55,2.10,1*06
$GNGSA,A,3,06,09,13,04,02,01,14,,,,,,2.61,1.55,2.10,4*0C
$GNGSA,A,3,,,,,,,,,,,,,2.61,1.55,2.10,3*04
$GPGSV,1,1,0
0,0*65
$GBGSV,2,1,07,01,37,122,36,02,50,173,35,04,36,125,36,06,36,215,35,0*77
$GBGSV,2,2,07,09,36,285,35,13,46,201,35,14,07,164,35,0*47
$GAGSV,1,1,00,0*74

$GNRMC,000521.00,A,3000.25551,N,12000.20826,E,75.515,70.69,230721,,,A,V*0A
$GNGGA,000521.00,3000.25551,N,12000.20826,E,1,07,1.55,-0.7,M,,M,,*7E
$GNGSA,A,3,,,,,,,,,,,,,2.61,1.55,2.10,1*06
$GNGSA,A,3,06,09,13,04,02,01,14,,,,,,2.61,1.55,2.10,4*0C
$GNGSA,A,3,,,,,,,,,,,,,2.61,1.55,2.10,3*04
$GPGSV,1,1,00,0*65
$GBGSV,2,1,08,01,37,122,35,02,50,173,35,04,36,125,35,06,36,215,36,0*7B
$GBGS
V,2,2,08,09,36,285,35,13,46,201,35,14,07,164,35,11,19,129,,0*7A
$GAGSV,1,1,00,0*74

$GNRMC,000522.00,A,3000.26169,N,12000.23134,E,75.609,75.07,230721,,,A,V*0F
$GNGGA,000522.00,3000.26169,N,12000.23134,E,1,07,1.55,-0.6,M,,M,,*79
$GNGSA,A,3,,,,,,,,,,,,,2.61,1.55,2.10,1*06
$GNGSA,A,3,06,09,13,04,02,01,14,,,,,,2.61,1.55,2.10,4*0C
$GNGSA,A,3,,,,,,,,,,,,,2.61,1.55,2.10,3*04
$GPGSV,1,1,00,0*65
$GBGSV,2,1,08,01,37,122,35,02,50,173,36,04,36,125,35,06,3
6,215,35,0*7B
$GBGSV,2,2,08,09,36,285,35,13,46,201,35,14,07,164,34,11,19,129,,0*7B
$GAGSV,1,1,00,0*74

$GNRMC,000523.00,A,3000.26630,N,12000.25493,E,75.721,79.51,230721,,,A,V*0F
$GNGGA,000523.00,3000.26630,N,12000.25493,E,1,07,1.55,-0.5,M,,M,,*7E
$GNGSA,A,3,,,,,,,,,,,,,2.61,1.55,2.10,1*06
$GNGSA,A,3,06,09,13,04,02,01,14,,,,,,2.61,1.55,2.10,4*0C
$GNGSA,A,3,,,,,,,,,,,,,2.61,1.55,2.10,3*04
$GPGSV,1,1,00,0*65
$GBGSV,2,1,08,01,37,122,36,02,50,173,36,04,36,125,36,06,36,215,
35,0*7B
$GBGSV,2,2,08,09,36,285,35,13,46,201,35,14,07,164,35,11,19,129,,0*7A
$GAGSV,1,1,00,0*74

$GNRMC,000524.00,A,3000.26929,N,12000.27886,E,75.733,83.95,230721,,,A,V*0B
$GNGGA,000524.00,3000.26929,N,12000.27886,E,1,07,1.55,-0.7,M,,M,,*76
$GNGSA,A,3,,,,,,,,,,,,,2.61,1.55,2.10,1*06
$GNGSA,A,3,06,09,13,04,02,01,14,,,,,,2.61,1.55,2.10,4*0C
$
GNGSA,A,3,,,,,,,,,,,,,2.61,1.55,2.10,3*04
$GPGSV,1,1,00,0*65
$GBGSV,2,1,08,01,37,122,35,02,50,173,36,04,36,125,35,06,36,215,35,0*7B
$GBGSV,2,2,08,09,36,285,36,13,46,201,35,14,07,164,34,11,19,129,,0*78
$GAGSV,1,1,00,0*74

$GNRMC,000525.00,A,3000.27069,N,12000.30298,E,75.634,88.37,230721,,,A,V*00
$GNGGA,000525.00,3000.27069,N,12000.30298,E,1,07,1.55,-0.8,M,,M,,*77
$GNGSA,A,3,,,,,,,,,,,,,2.61,1.55,2.10,1*06
$GNGSA,A,3,06,09,13,04,02,01,14,,,,,,2.61,1.55,2.10,4*0C
$GNGSA,A,3,,,,,,,,,,,,,2.61,1.55,2.10,3*04
$GPGSV,1,1,00,0*65

$GBGSV,2,1,08,01,37,122,35,02,50,173,36,04,36,125,35,06,36,215,35,0*7B
$GBGSV,2,2,08,09,36,285,35,13,46,201,35,14,07,164,34,11,19,129,,0*7B
$GAGSV,1,1,00,0*74

$GNRMC,000526.00,A,3000.27046,N,12000.32715,E,75.638,92.92,230721,,,A,V*04
$GNGGA,000526.00,3000.27046,N,12000.32715,E,1,07,1.55,-0.6,M,,M,,*75
$GNGSA,A,3,,,,,,,,,,,,,2.61,1.55,2.10,1*06
$GNGSA,A,3,06,09,13,04,02,01,14,,,,,,2.61,1.55,2.10,4*0C
$GNGSA,A,3,,,,,,,,,,,,,2.61,1.55,2
.10,3*04
$GPGSV,1,1,00,0*65
$GBGSV,2,1,08,01,37,122,36,02,50,173,35,04,36,125,35,06,36,215,35,0*7B
$GBGSV,2,2,08,09,36,285,36,13,46,201,35,14,07,164,34,11,19,129,,0*78
$GAGSV,1,1,00,0*74

$GNRMC,000527.00,A,3000.26855,N,12000.35120,E,75.582,97.41,230721,,,A,V*00
$GNGGA,000527.00,3000.26855,N,12000.35120,E,1,07,1.55,-0.6,M,,M,,*78
$GNGSA,A,3,,,,,,,,,,,,,2.61,1.55,2.10,1*06
$GNGSA,A,3,06,09,13,04,02,01,14,,,,,,2.61,1.55,2.10,4*0C
$GNGSA,A,3,,,,,,,,,,,,,2.61,1.55,2.10,3*04
$GPGSV,1,1,00,0*65
$GBGSV,2
,1,08,01,37,122,36,02,50,173,35,04,36,125,35,06,36,215,35,0*7B
$GBGSV,2,2,08,09,36,285,35,13,46,201,35,14,07,164,34,11,19,129,,0*7B
$GAGSV,1,1,00,0*74

$GNRMC,000528.00,A,3000.26505,N,12000.37502,E,75.621,101.65,230721,,,A,V*33
$GNGGA,000528.00,3000.26505,N,12000.37502,E,1,07,1.55,-0.6,M,,M,,*79
$GNGSA,A,3,,,,,,,,,,,,,2.61,1.55,2.10,1*06
$GNGSA,A,3,06,09,13,04,02,01,14,,,,,,2.61,1.55,2.10,4*0C
$GNGSA,A,3,,,,,,
,,,,,,,2.61,1.55,2.10,3*04
$GPGSV,1,1,00,0*65
$GBGSV,2,1,08,01,37,122,35,02,50,173,36,04,36,125,35,06,36,215,35,0*7B
$GBGSV,2,2,08,09,36,285,35,13,46,201,35,14,07,164,34,11,19,129,,0*7B
$GAGSV,1,1,00,0*74

$GNRMC,000529.00,A,3000.25997,N,12000.39847,E,75.660,106.13,230721,,,A,V*37
$GNGGA,000529.00,3000.25997,N,12000.39847,E,1,07,1.55,-0.7,M,,M,,*7F
$GNGSA,A,3,,,,,,,,,,,,,2.61,1.55,2.10,1*06
$GNGSA,A,3,06,09,13,04,02,01,14,,,,,,2.61,1.55,2.10,4*0C
$GNGSA,A,3,,,,,,,,,,,,,2.61,1.55,2.10,3*04
$GPGSV
,1,1,00,0*65
$GBGSV,2,1,08,01,37,122,35,02,50,173,35,04,36,125,35,06,36,215,35,0*78
$GBGSV,2,2,08,09,36,285,35,13,46,201,35,14,07,164,35,11,19,129,,0*7A
$GAGSV,1,1,00,0*74

$GNRMC,000530.00,A,3000.25334,N,12000.42139,E,75.547,110.70,230721,,,A,V*34
$GNGGA,000530.00,3000.25334,N,12000.42139,E,1,07,1.55,-0.8,M,,M,,*77
$GNGSA,A,3,,,,,,,,,,,,,2.61,1.55,2.10,1*06
$GNGSA,A,3,06,09,13,04,02,01,14,,,,,,2.61,1.55,2.10,4*0C
$GNGSA,A,3,,,,,,,,,,,,,2.61,1
.55,2.10,3*04
$GPGSV,1,1,00,0*65
$GBGSV,2,1,08,01,37,122,35,02,50,173,35,04,36,125,35,06,36,215,35,0*78
$GBGSV,2,2,08,09,36,285,35,13,46,201,35,14,07,164,35,11,19,129,,0*7A
$GAGSV,1,1,00,0*74

$GNRMC,000531.00,A,3000.24514,N,12000.44363,E,75.568,115.20,230721,,,A,V*36
$GNGGA,000531.00,3000.24514,N,12000.44363,E,1,07,1.55,-0.8,M,,M,,*78
$GNGSA,A,3,,,,,,,,,,,,,2.61,1.55,2.10,1*06
$GNGSA,A,3,06,09,13,04,02,01,14,,,,,,2.61,1.55,2.10,4*0C
$GNGSA,A,3,,,,,,,,,,,,,2.61,1.55,2.10,3*04
$GPGSV,1,1,00,0*65
$GBGSV,2,1,08,01,37,122,35,02,50,173,36,04,36,125,35,06,36,
215,35,0*7B
$GBGSV,2,2,08,09,36,285,35,13,46,201,35,14,07,164,35,11,19,129,,0*7A
$GAGSV,1,1,00,0*74

$GNRMC,000532.00,A,3000.23544,N,12000.46506,E,75.620,119.61,230721,,,A,V*36
$GNGGA,000532.00,3000.23544,N,12000.46506,E,1,07,1.55,-0.9,M,,M,,*7F
$GNGSA,A,3,,,,,,,,,,,,,2.61,1.55,2.10,1*06
$GNGSA,A,3,06,09,13,04,02,01,14,,,,,,2.61,1.55,2.10,4*0C
$GNGSA,A,3,,,,,,,,,,,,,2.61,1.55,2.10,3*04
$GPGSV,1,1,00,0*65
$GBGSV,2,1,08,01,37,122,35,02,50,173,35,04,36
,125,36,06,36,215,35,0*7B
$GBGSV,2,2,08,09,36,285,35,13,46,201,35,14,07,164,35,11,19,129,,0*7A
$GAGSV,1,1,00,0*74

$GNRMC,000533.00,A,3000.22433,N,12000.48559,E,75.608,123.94,230721,,,A,V*3A
$GNGGA,000533.00,3000.22433,N,12000.48559,E,1,07,1.55,-1.0,M,,M,,*72
$GNGSA,A,3,,,,,,,,,,,,,2.61,1.55,2.10,1*06
$GNGSA,A,3,06,09,13,04,02,01,14,,,,,,2.61,1.55,2.10,4*0C
$GNGSA,A,3,,,,,,,,,,,,,2.61,1.55,2.10,3*04
$GPGSV,1,1,00,0*65
$GBGSV,2,1,08,01,37,122,35,02,50,173,35,04,36,125,35,06,36,215,
35,0*78
$GBGSV,2,2,08,09,36,285,35,13,46,201,35,14,07,164,35,11,19,129,,0*7A
$GAGSV,1,1,00,0*74

$GNRMC,000534.00,A,3000.21189,N,12000.50508,E,75.692,128.54,230721,,,A,V*33
$GNGGA,000534.00,3000.21189,N,12000.50508,E,1,07,1.55,-0.9,M,,M,,*77
$GNGSA,A,3,,,,,,,,,,,,,2.61,1.55,2.10,1*06
$GNGSA,A,3,06,09,13,04,02,01,14,,,,,,2.61,1.55,2.10,4*0C
$GNGSA,A,3,,,,,,,,,,,,,2.61,1.55,2.10,3*04
$GPGSV,1,1,00,0*65
$GBGSV,2,1,08,01,37,122,35,02,50,173,35,04,36,125,35,06,36,215,35,0
*78
$GBGSV,2,2,08,09,36,285,35,13,46,201,35,14,07,164,34,11,19,129,,0*7B
$GAGSV,1,1,00,0*74

$GNRMC,000535.00,A,3000.19815,N,12000.52338,E,75.628,133.04,230721,,,A,V*3C
$GNGGA,000535.00,3000.19815,N,12000.52338,E,1,07,1.55,-0.9,M,,M,,*76
$GNGSA,A,3,,,,,,,,,,,,,2.61,1.55,2.10,1*06
$GNGSA,A,3,06,09,13,04,02,01,14,,,,,,2.61,1.55,2.10,4*0C
$GNGSA,A,3,,,,,,,,,,,,,2.61,1.55,2.10,3*04
$GPGSV,1,1,00,0*65
$GBGSV,2,1,08,01,37,122,35,02,50,173,35,04,36,125,36,06,36,215,35,0*7B
$GBGSV,2,
2,08,09,36,285,36,13,46,201,35,14,07,164,34,11,19,129,,0*78
$GAGSV,1,1,00,0*74

$GNRMC,000536.00,A,3000.18320,N,12000.54037,E,75.615,137.50,230721,,,A,V*32
$GNGGA,000536.00,3000.18320,N,12000.54037,E,1,07,1.55,-0.8,M,,M,,*72
$GNGSA,A,3,,,,,,,,,,,,,2.61,1.55,2.10,1*06
$GNGSA,A,3,06,09,13,04,02,01,14,,,,,,2.61,1.55,2.10,4*0C
$GNGSA,A,3,,,,,,,,,,,,,2.61,1.55,2.10,3*04
$GPGSV,1,1,00,0*65

$GBGSV,2,1,08,01,37,122,36,02,50,173,35,04,36,125,35,06,36,215,35,0*7B
$GBGSV,2,2,08,09,36,285,35,13,46,201,35,14,07,164,34,11,19,129,,0*7B
$GAGSV,1,1,00,0*74

$GNRMC,000537.00,A,3000.16711,N,12000.55597,E,75.456,141.77,230721,,,A,V*34
$GNGGA,000537.00,3000.16711,N,12000.55597,E,1,07,1.55,-0.8,M,,M,,*75
$GNGSA,A,3,,,,,,,,,,,,,2.61,1.55,2.10,1*06
$GNGSA,A,3,06,09,13,04,02,01,14,,,,,,2.61,1.55,2.10,4*0C
$GNGSA,A,3,,,,,,,,,,,,,2.61,1.55,2.10,3*04
$GPGSV,1,1,00,0*65
$GBGSV,2,1,
08,01,37,122,35,02,50,173,36,04,36,125,35,06,36,215,35,0*7B
$GBGSV,2,2,08,09,36,285,35,13,46,201,35,14,07,164,35,11,19,129,,0*7A
$GAGSV,1,1,00,0*74

$GNRMC,000538.00,A,3000.15011,N,12000.57012,E,75.686,146.54,230721,,,A,V*3C
$GNGGA,000538.00,3000.15011,N,12000.57012,E,1,07,1.55,-0.8,M,,M,,*74
$GNGSA,A,3,,,,,,,,,,,,,2.61,1.55,2.10,1*06
$GNGSA,A,3,06,09,13,04,02,01,14,,,,,,2.61,1.55,2.10,4*0C
$GNGSA,A,3,,,,,,,,,,,,,2.61,1.55,2.10,3*04
$GPGS
V,1,1,00,0*65
$GBGSV,2,1,08,01,37,122,35,02,50,173,35,04,36,125,35,06,36,215,35,0*78
$GBGSV,2,2,08,09,36,285,35,13,46,201,35,14,07,164,34,11,19,129,,0*7B
$GAGSV,1,1,00,0*74

$GNRMC,000539.00,A,3000.13214,N,12000.58270,E,75.658,150.81,230721,,,A,V*39
$GNGGA,000539.00,3000.13214,N,12000.58270,E,1,07,1.55,-0.8,M,,M,,*7D
$GNGSA,A,3,,,,,,,,,,,,,2.61,1.55,2.10,1*06
$GNGSA,A,3,06,09,13,04,02,01,14,,,,,,2.61,1.55,2.10,4*0C
$GNGSA,A,3,,,,,,,,,,,,,2.61,1.55,2.10,3*04

$GPGSV,1,1,00,0*65
$GBGSV,2,1,08,01,37,122,35,02,50,173,35,04,36,125,35,06,36,215,35,0*78
$GBGSV,2,2,08,09,36,285,35,13,46,201,35,14,07,164,34,11,19,129,,0*7B
$GAGSV,1,1,00,0*74

$GNRMC,000540.00,A,3000.11339,N,12000.59365,E,75.630,155.25,230721,,,A,V*3A
$GNGGA,000540.00,3000.11339,N,12000.59365,E,1,07,1.55,-0.8,M,,M,,*7B
$GNGSA,A,3,,,,,,,,,,,,,2.61,1.55,2.10,1*06
$GNGSA,A,3,06,09,13,04,02,01,14,,,,,,2.61,1.55,2.10,4*0C
$GNGSA,A,3,,,,,,,,,,,,,
2.61,1.55,2.10,3*04
$GPGSV,1,1,00,0*65
$GBGSV,2,1,08,01,37,122,35,02,50,173,35,04,36,125,35,06,36,215,35,0*78
$GBGSV,2,2,08,09,36,285,35,13,46,201,35,14,07,164,34,11,19,129,,0*7B
$GAGSV,1,1,00,0*74

$GNRMC,000541.00,A,3000.09393,N,12000.60291,E,75.563,159.62,230721,,,A,V*38
$GNGGA,000541.00,3000.09393,N,12000.60291,E,1,07,1.55,-0.7,M,,M,,*7C
$GNGSA,A,3,,,,,,,,,,,,,2.61,1.55,2.10,1*06
$GNGSA,A,3,06,09,13,04,02,01,14,,,,,,2.61,1.55,2.10,4*0C
$GNGSA,A,3,,,,,,,,,,,,,2.61,1.55,2.10,3*04
$GPGSV,1,1,00,0*65
$GBGSV,2,1,08,01,37,122,35,02,50,173,35,04,36,125,35,06,3
5,215,35,0*7B
$GBGSV,2,2,08,09,36,285,35,13,46,201,34,14,07,164,35,11,19,129,,0*7B
$GAGSV,1,1,00,0*74

$GNRMC,000542.00,A,3000.07396,N,12000.61041,E,75.603,164.18,230721,,,A,V*38
$GNGGA,000542.00,3000.07396,N,12000.61041,E,1,07,1.55,-0.7,M,,M,,*7A
$GNGSA,A,3,,,,,,,,,,,,,2.61,1.55,2.10,1*06
$GNGSA,A,3,06,09,13,04,02,01,14,,,,,,2.61,1.55,2.10,4*0C
$GNGSA,A,3,,,,,,,,,,,,,2.61,1.55,2.10,3*04
$GPGSV,1,1,00,0*65
$GBGSV,2,1,08,01,37,122,35,02,
50,173,35,04,36,125,35,06,35,215,35,0*7B
$GBGSV,2,2,08,09,36,285,35,13,46,201,35,14,07,164,35,11,19,129,,0*7A
$GAGSV,1,1,00,0*74

$GNRMC,000543.00,A,3000.05353,N,12000.61610,E,75.674,168.60,230721,,,A,V*33
$GNGGA,000543.00,3000.05353,N,12000.61610,E,1,07,1.55,-0.6,M,,M,,*73
$GNGSA,A,3,,,,,,,,,,,,,2.61,1.55,2.10,1*06
$GNGSA,A,3,06,09,13,04,02,01,14,,,,,,2.61,1.55,2
.10,4*0C
$GNGSA,A,3,,,,,,,,,,,,,2.61,1.55,2.10,3*04
$GPGSV,1,1,00,0*65
$GBGSV,2,1,08,01,37,122,35,02,50,173,35,04,36,125,35,06,35,215,35,0*7B
$GBGSV,2,2,08,09,36,285,35,13,46,201,35,14,07,164,34,11,19,129,,0*7B
$GAGSV,1,1,00,0*74

$GNRMC,000544.00,A,3000.03276,N,12000.61994,E,75.689,173.08,230721,,,A,V*31
$GNGGA,000544.00,3000.03276,N,12000.61994,E,1,07,1.55,-0.6,M,,M,,*77
$GNGSA,A,3,,,,,,,,,,,,,2.61,1.55,2.10,1*06
$GNGSA,A,3,06,09,13,04,02,01,14,,,,,,2.61,1.55,2.10,4*0C
$GNGSA,A,3,,,,,,,,,,,,,2.61,1.55,2.10,3*04
$GPGSV,1,1,00,0*65
$G
BGSV,2,1,08,01,37,122,36,02,50,173,35,04,36,125,35,06,35,215,35,0*78
$GBGSV,2,2,08,09,36,285,35,13,46,201,35,14,07,164,34,11,19,129,,0*7B
$GAGSV,1,1,00,0*74

$GNRMC,000545.00,A,3000.01179,N,12000.62190,E,75.502,177.52,230721,,,A,V*3A
$GNGGA,000545.00,3000.01179,N,12000.62190,E,1,07,1.55,-0.6,M,,M,,*77
$GNGSA,A,3,,,,,,,,,,,,,2.61,1.55,2.10,1*06
$GNGSA,A,3,06,09,13,04,02,01,14,,,,,,2.61,1.55,2.10,4*0C
$GNGSA,A,3,,,,,,,,,,,,,2.61,1.55,2.10,3*04
$GPGSV,1,1,00,0*65
$GBGSV,2,1,08,01,37,122,35,02,50,173,36,04,36,125,36,06,35,215,35,0*7B
$GBGSV,2,2,08,09,36,2
85,35,13,46,201,35,14,07,164,35,11,19,129,,0*7A
$GAGSV,1,1,00,0*74

$GNRMC,000546.00,A,2959.99077,N,12000.62199,E,75.627,182.01,230721,,,A,V*32
$GNGGA,000546.00,2959.99077,N,12000.62199,E,1,07,1.55,-0.6,M,,M,,*77
$GNGSA,A,3,,,,,,,,,,,,,2.61,1.55,2.10,1*06
$GNGSA,A,3,06,09,13,04,02,01,14,,,,,,2.61,1.55,2.10,4*0C
$GNGSA,A,3,,,,,,,,,,,,,2.61,1.55,2.10,
3*04
$GPGSV,1,1,00,0*65
$GBGSV,2,1,08,01,37,122,35,02,50,173,35,04,36,125,36,06,35,215,35,0*78
$GBGSV,2,2,08,09,36,285,35,13,46,201,35,14,07,164,35,11,19,129,,0*7A
$GAGSV,1,1,00,0*74

$GNRMC,000547.00,A,2959.96982,N,12000.62019,E,75.728,186.52,230721,,,A,V*3A
$GNGGA,000547.00,2959.96982,N,12000.62019,E,1,07,1.55,-0.7,M,,M,,*72
$GNGSA,A,3,,,,,,,,,,,,,2.61,1.55,2.10,1*06
$GNGSA,A,3,06,09,13,04,02,01,14,,,,,,2.61,1.55,2.10,4*0C
$GNGSA,A,3,,,,,,,,,,,,,2.61,1.55,2.10,3*04
$GPGSV,1,1,00,0*65
$GBGSV,2,1,08,01,37,122,35,02
,50,173,35,04,36,125,35,06,35,215,35,0*7B
$GBGSV,2,2,08,09,36,285,35,13,46,201,35,14,07,164,35,11,19,129,,0*7A
$GAGSV,1,1,00,0*74

$GNRMC,000548.00,A,2959.94903,N,12000.61652,E,75.563,190.94,230721,,,A,V*34
$GNGGA,000548.00,2959.94903,N,12000.61652,E,1,07,1.55,-0.8,M,,M,,*73
$GNGSA,A,3,,,,,,,,,,,,,2.60,1.55,2.10,1*07
$GNGSA,A,3,06,09,13,04,02,01,14,,,,,,2.60,1.55,2.10,4*0D
$GNGSA,A,3,,,,,,,,,,,,,2.60,1.55,2.10,3*05
$GPGSV,1,1,00,0*65
$GBGSV,2,1,08,01,37,122,35,02,50,173,35,04,36,125,35,06,35,215,35,0*7B
$GBGSV,2,2,08,09,36,285,35,13,46,201,36,14,07,164
,35,11,19,129,,0*79
$GAGSV,1,1,00,0*74

$GNRMC,000549.00,A,2959.92855,N,12000.61101,E,75.613,195.37,230721,,,A,V*38
$GNGGA,000549.00,2959.92855,N,12000.61101,E,1,07,1.55,-0.7,M,,M,,*78
$GNGSA,A,3,,,,,,,,,,,,,2.60,1.55,2.10,1*07
$GNGSA,A,3,06,09,13,04,02,01,14,,,,,,2.60,1.55,2.10,4*0D
$GNGSA,A,3,,,,,,,,,,,,,2.60,1.55,2.10,3*05
$GPGSV,1,1,00,0*65
$GBGSV,2,1,08,01,37,122,35,02,50,173,
36,04,36,125,35,06,35,215,34,0*79
$GBGSV,2,2,08,09,36,285,35,13,46,201,35,14,07,164,35,11,19,129,,0*7A
$GAGSV,1,1,00,0*74

$GNRMC,000550.00,A,2959.90848,N,12000.60368,E,75.640,199.86,230721,,,A,V*32
$GNGGA,000550.00,2959.90848,N,12000.60368,E,1,07,1.55,-0.7,M,,M,,*72
$GNGSA,A,3,,,,,,,,,,,,,2.60,1.55,2.10,1*07
$GNGSA,A,3,06,09,13,04,02,01,14,,,,,,2.60,1.55,2
.10,4*0D
$GNGSA,A,3,,,,,,,,,,,,,2.60,1.55,2.10,3*05
$GPGSV,1,1,00,0*65
$GBGSV,2,1,08,01,37,122,35,02,50,173,36,04,36,125,35,06,35,215,35,0*78
$GBGSV,2,2,08,09,36,285,35,13,46,201,35,14,07,164,34,11,19,129,,0*7B
$GAGSV,1,1,00,0*74

$GNRMC,000551.00,A,2959.88896,N,12000.59458,E,75.877,204.25,230721,,,A,V*33
$GNGGA,000551.00,2959.88896,N,12000.59458,E,1,07,1.55,-0.7,M,,M,,*77
$GNGSA,A,3,,,,,,,,,,,,,2.60,1.55,2.10,1*07
$GNGSA,A,3,06,09,13,04,02,01,14,,,,,,2.60,1.55,2.10,4*0D
$GNGSA,A,3,,,,,,,,,,,,,2.60,1.55,2.10,3*05
$GPGSV,1,1,00,0*65
$GBGSV,3,1,09,01,37,1
22,36,02,50,173,35,04,36,125,35,06,35,215,35,0*78
$GBGSV,3,2,09,09,36,285,35,13,46,201,35,14,07,164,34,11,19,129,,0*7B
$GBGSV,3,3,09,12,10,058,,0*41
$GAGSV,1,1,00,0*74

$GNRMC,000552.00,A,2959.87013,N,12000.58377,E,75.746,208.79,230721,,,A,V*39
$GNGGA,000552.00,2959.87013,N,12000.58377,E,1,07,1.55,-0.7,M,,M,,*75
$GNGSA,A,3,,,,,,,,,,,,,2.60,1.55,2.10,1*07
$GNGSA,A,3,06,09,13,04,02,01,14,,,,,,2.60,1.55,2.10,4*0D
$GNGSA,A,
3,,,,,,,,,,,,,2.60,1.55,2.10,3*05
$GPGSV,1,1,00,0*65
$GBGSV,3,1,09,01,37,122,35,02,50,173,35,04,36,125,35,06,35,215,34,0*7A
$GBGSV,3,2,09,09,36,285,35,13,46,201,35,14,07,164,34,11,19,129,,0*7B
$GBGSV,3,3,09,12,10,058,,0*41
$GAGSV,1,1,00,0*74

$GNRMC,000553.00,A,2959.85209,N,12000.57132,E,75.672,213.18,230721,,,A,V*34
$GNGGA,000553.00,2959.85209,N,12000.57132,E,1,07,1.55,-0.6,M,,M,,*72
$GNGSA,A,3,,,,,,,,,,,,,2.60,1.55,2.10,1*07
$GNGSA,A,3,06,09,13,04,02,01,14,,,,,,2.60,1.55,2.10,4*0D
$GNGSA,A,3,,,,,,,,,,,,,2.60,1.55,2.10,3*
05
$GPGSV,1,1,00,0*65
$GBGSV,3,1,09,01,37,122,35,02,50,173,35,04,36,125,36,06,35,215,35,0*78
$GBGSV,3,2,09,09,36,285,35,13,46,201,35,14,07,164,34,11,19,129,,0*7B
$GBGSV,3,3,09,12,10,058,,0*41
$GAGSV,1,1,00,0*74

$GNRMC,000554.00,A,2959.83499,N,12000.55738,E,74.964,217.62,230721,,,A,V*34
$GNGGA,000554.00,2959.83499,N,12000.55738,E,1,07,1.55,-0.5,M,,M,,*71
$GNGSA,A,3,,,,,,,,,,,,,2.60,1.55,2.10,1*07
$GNGSA,A,3,06,09,13,04,02,01,14,,,,,,2.60,1.55,2.10,4*0D
$GNGSA,A,3,,
,,,,,,,,,,,2.60,1.55,2.10,3*05
$GPGSV,1,1,00,0*65
$GBGSV,3,1,09,01,37,122,36,02,50,173,35,04,36,125,35,06,35,215,35,0*78
$GBGSV,3,2,09,09,36,285,35,13,46,201,35,14,07,164,35,11,19,129,,0*7A
$GBGSV,3,3,09,12,10,058,,0*41
$GAGSV,1,1,00,0*74

$GNRMC,000555.00,A,2959.81889,N,12000.54189,E,75.869,222.09,230721,,,A,V*31
$GNGGA,000555.00,2959.81889,N,12000.54189,E,1,07,1.55,-0.5,M,,M,,*72
$GNGSA,A,3,,,,,,,,,,,,,2.60,1.55,2.09,1*0F
$GNGSA,A,3,06,09,13,04,02,01,14,,,,,,2.60,1.55,2.09,4*05
$GNGSA,A,3,,,,,,,,,,,,,2.60,1.55,2.09,3*0D
$GPGSV,1,1,00,0*65
$GBGSV,3,1,09,01,37,122,36,02,50,173,35,04,36,125,35,06,35,215,35,0*78

$GBGSV,3,2,09,09,36,285,35,13,46,201,35,14,07,164,34,11,19,129,,0*7B
$GBGSV,3,3,09,12,10,058,,0*41
$GAGSV,1,1,00,0*74

$GNRMC,000556.00,A,2959.80383,N,12000.52499,E,75.940,226.53,230721,,,A,V*31
$GNGGA,000556.00,2959.80383,N,12000.52499,E,1,07,1.55,-0.6,M,,M,,*70
$GNGSA,A,3,,,,,,,,,,,,,2.60,1.55,2.09,1*0F
$GNGSA,A,3,06,09,13,04,02,01,14,,,,,,2.60,1.55,2.09,4*05
$GNGSA,A,3,,,,,,,,,,,,,2.60,1.
55,2.09,3*0D
$GPGSV,1,1,00,0*65
$GBGSV,3,1,09,01,37,122,36,02,50,173,35,04,36,125,35,06,35,215,35,0*78
$GBGSV,3,2,09,09,36,285,35,13,46,201,35,14,07,164,34,11,19,129,,0*7B
$GBGSV,3,3,09,12,10,058,,0*41
$GAGSV,1,1,00,0*74

$GNRMC,000557.00,A,2959.78999,N,12000.50686,E,75.591,231.00,230721,,,A,V*38
$GNGGA,000557.00,2959.78999,N,12000.50686,E,1,07,1.55,-0.5,M,,M,,*7A
$GNGSA,A,3,,,,,,,,,,,,,2.60,1.55,2.09,1*0F
$GNGSA,A,3,06,09,13,04,02,01,14,,,,,,2.60,1.55,2.09,4*05
$GNGSA,A,3,,,,,,,,,,,,,2.60,1.55,2.09,3*0D
$GPGSV,1,1,00,0*65
$GBGSV,3,1,09,01,37,122,35,02,50,173,35,04,36,125,36,06,35,215,35,0*78
$GBGSV,3,
2,09,09,36,285,35,13,46,201,35,14,07,164,35,11,19,129,,0*7A
$GBGSV,3,3,09,12,10,058,,0*41
$GAGSV,1,1,00,0*74

$GNRMC,000558.00,A,2959.77741,N,12000.48747,E,75.463,235.58,230721,,,A,V*33
$GNGGA,000558.00,2959.77741,N,12000.48747,E,1,07,1.55,-0.5,M,,M,,*74
$GNGSA,A,3,,,,,,,,,,,,,2.60,1.55,2.09,1*0F
$GNGSA,A,3,06,09,13,04,02,01,14,,,,,,2.60,1.55,2.09,4*05
$GNGSA,A,3,,,,,,,,,,,,,2.60,1.55,2.09,3*0D
$GPGSV,1,1,00,0*65
$GBGSV,3,1,
09,01,37,122,36,02,50,173,35,04,36,125,35,06,35,215,35,0*78
$GBGSV,3,2,09,09,36,285,35,13,46,201,35,14,07,164,35,11,19,129,,0*7A
$GBGSV,3,3,09,12,10,058,,0*41
$GAGSV,1,1,00,0*74

$GNRMC,000559.00,A,2959.76617,N,12000.46704,E,75.698,239.82,230721,,,A,V*35
$GNGGA,000559.00,2959.76617,N,12000.46704,E,1,07,1.55,-0.4,M,,M,,*7E
$GNGSA,A,3,,,,,,,,,,,,,2.60,1.55,2.09,1*0F
$GNGSA,A,3,06,09,13,04,02,01,14,,,,,,2.60,1.55,2.09,4*05
$GNGSA,A,3,,,,,,,,,,,,,2.60,1.55,2.09,3*0D
$GPGSV,1,1,00,0*65
$GBGSV,3,1,09,01,37,122,35,02,50,173,35,04,3
6,125,35,06,35,215,35,0*7B
$GBGSV,3,2,09,09,36,285,35,13,46,201,35,14,07,164,35,11,19,129,,0*7A
$GBGSV,3,3,09,12,10,058,,0*41
$GAGSV,1,1,00,0*74

$GNRMC,000600.00,A,2959.75633,N,12000.44567,E,75.729,244.25,230721,,,A,V*36
$GNGGA,000600.00,2959.75633,N,12000.44567,E,1,07,1.55,-0.4,M,,M,,*71
$GNGSA,A,3,,,,,,,,,,,,,2.60,1.55,2.09,1*0F
$GNGSA,A,3,06,09,13,04,02,01,14,,,,,,2.60,1.55,2.0
9,4*05
$GNGSA,A,3,,,,,,,,,,,,,2.60,1.55,2.09,3*0D
$GPGSV,1,1,00,0*65
$GBGSV,3,1,09,01,37,122,36,02,50,173,35,04,36,125,35,06,35,215,35,0*78
$GBGSV,3,2,09,09,36,285,35,13,46,201,35,14,07,164,34,11,19,129,,0*7B
$GBGSV,3,3,09,12,10,058,,0*41
$GAGSV,1,1,00,0*74

$GNRMC,000601.00,A,2959.74799,N,12000.42350,E,75.511,248.86,230721,,,A,V*3F
$GNGGA,000601.00,2959.74799,N,12000.42350,E,1,07,1.55,-0.4,M,,M,,*74
$GNGSA,A,3,,,,,,,,,,,,,2.60,1.55,2.09,1*0F
$GNGSA,A,3,06,09,13,04,02,01,14,,,,,,2.60,1.55,2.09,4*05
$GNGSA,A,3,,,,,,,,,,,,,2.60,1.55,2.09,3*0D
$GPGSV,1,1,00,0*65
$GBGSV,3,1,09,01,37,122,35,02,50,173,35,04,36,125,35,06,35,215,35,0*7B
$GBGSV,3,2,09,09,36,285,35,
13,46,201,35,14,07,164,34,11,19,129,,0*7B
$GBGSV,3,3,09,12,10,058,,0*41
$GAGSV,1,1,00,0*74

$GNRMC,000602.00,A,2959.74116,N,12000.40064,E,75.522,253.44,230721,,,A,V*3F
$GNGGA,000602.00,2959.74116,N,12000.40064,E,1,07,1.55,-0.5,M,,M,,*71
$GNGSA,A,3,,,,,,,,,,,,,2.60,1.55,2.09,1*0F
$GNGSA,A,3,06,09,13,04,02,01,14,,,,,,2.60,1.55,2.09,4*05
$GNGSA,A,3,,,,,,,,,,,,,2.60,1.55,2.09,3*0D
$GPGSV,1,1,00,0*65
$GBGSV,3,1,09,01,37,122,35,02,50,173,35,04,36,125,35,06,35,215,35,0*7B

$GBGSV,3,2,09,09,36,285,35,13,46,201,35,14,07,164,34,11,19,129,,0*7B
$GBGSV,3,3,09,12,10,058,,0*41
$GAGSV,1,1,00,0*74

$GNRMC,000603.00,A,2959.73597,N,12000.37726,E,75.573,257.76,230721,,,A,V*34
$GNGGA,000603.00,2959.73597,N,12000.37726,E,1,07,1.55,-0.6,M,,M,,*78
$GNGSA,A,3,,,,,,,,,,,,,2.60,1.55,2.09,1*0F
$GNGSA,A,3,06,09,13,04,02,01,14,,,,,,2.60,1.55,2.09,4*05
$GNGSA,A,3,,,,,,,,,,,,,2.60,1.55,2.09,3*0D
$GPGSV,1,1,00,0*65
$GBGSV,3,1,09,01,37,122,35,02,50,173,35,04,36,125,35,06,35,215,35
,0*7B
$GBGSV,3,2,09,09,36,285,35,13,46,201,35,14,07,164,34,11,19,129,,0*7B
$GBGSV,3,3,09,12,10,058,,0*41
$GAGSV,1,1,00,0*74

$GNRMC,000604.00,A,2959.73233,N,12000.35345,E,75.749,262.17,230721,,,A,V*33
$GNGGA,000604.00,2959.73233,N,12000.35345,E,1,07,1.55,-0.5,M,,M,,*76
$GNGSA,A,3,,,,,,,,,,,,,2.60,1.55,2.09,1*0F
$GNGSA,A,3,06,09,13,04,02,01,14,,,,,,2.60,1.55,2.09,4*05
$GNGSA,A,3,,,,,,,,,,,,,2.60,1.55,2.09,3*0D
$GPGSV,1,1,00,
0*65
$GBGSV,3,1,09,01,37,122,36,02,50,173,35,04,36,125,35,06,35,215,35,0*78
$GBGSV,3,2,09,09,36,285,35,13,46,201,35,14,07,164,34,11,19,129,,0*7B
$GBGSV,3,3,09,12,10,058,,0*41
$GAGSV,1,1,00,0*74

$GNRMC,000605.00,A,2959.73029,N,12000.32938,E,75.624,266.62,230721,,,A,V*30
$GNGGA,000605.00,2959.73029,N,12000.32938,E,1,07,1.55,-0.5,M,,M,,*79
$GNGSA,A,3,,,,,,,,,,,,,2.60,1.55,2.09,1*0F
$GNGSA,A,3,06,09,13,04,02,01,14,,,,,,2.60,1.55,2.09,4*05
$GNGSA,A,3,,,,,,,,,,,,,2.60,1.55,2.09,3*0D
$GPGSV,1,1,00,0*65
$GBGSV,3,1,09,01,37,122,35,02,50,173,35,04,36
,125,35,06,35,215,35,0*7B
$GBGSV,3,2,09,09,36,285,35,13,46,201,35,14,07,164,34,11,19,129,,0*7B
$GBGSV,3,3,09,12,10,058,,0*41
$GAGSV,1,1,00,0*74

$GNRMC,000606.00,A,2959.72988,N,12000.30520,E,75.651,271.12,230721,,,A,V*34
$GNGGA,000606.00,2959.72988,N,12000.30520,E,1,07,1.55,-0.3,M,,M,,*78
$GNGSA,A,3,,,,,,,,,,,,,2.60,1.55,2.09,1*0F
$GNGSA,A,3,06,09,13,04,02,01,14,,,,,,2.60,1.55,2.09,4*05
$GNGSA,A,3,,,,,,,
,,,,,,2.60,1.55,2.09,3*0D
$GPGSV,1,1,00,0*65
$GBGSV,3,1,09,01,37,122,35,02,50,173,35,04,36,125,35,06,35,215,35,0*7B
$GBGSV,3,2,09,09,36,285,35,13,46,201,35,14,07,164,35,11,19,129,,0*7A
$GBGSV,3,3,09,12,10,058,,0*41
$GAGSV,1,1,00,0*74

$GNRMC,000607.00,A,2959.73109,N,12000.28107,E,75.644,275.54,230721,,,A,V*3F
$GNGGA,000607.00,2959.73109,N,12000.28107,E,1,07,1.55,-0.2,M,,M,,*70
$GNGSA,A,3,,,,,,,,,,,,,2.60,1.55,2.09,1*0F
$GNGSA,A,3,06,09,13,04,02,01,14,,,,,,2.60,1.55,2.09,4*05
$GNGSA,A
,3,,,,,,,,,,,,,2.60,1.55,2.09,3*0D
$GPGSV,1,1,00,0*65
$GBGSV,3,1,09,01,37,122,35,02,50,173,36,04,36,125,35,06,35,215,35,0*78
$GBGSV,3,2,09,09,36,285,35,13,46,201,35,14,07,164,35,11,19,129,,0*7A
$GBGSV,3,3,09,12,10,058,,0*41
$GAGSV,1,1,00,0*74

$GNRMC,000608.00,A,2959.73397,N,12000.25713,E,75.611,279.94,230721,,,A,V*3B
$GNGGA,000608.00,2959.73397,N,12000.25713,E,1,07,1.55,-0.3,M,,M,,*75
$GNGSA,A,3,,,,,,,,,,,,,2.60,1.55,2.09,1*0F
$GNGSA,A,3,06,09,13,04,02,01,14,,,,,,2.60,1.55,2.09,4*05
$GNGSA,A,3,,,,,,,,,,,,,2.
60,1.55,2.09,3*0D
$GPGSV,1,1,00,0*65
$GBGSV,3,1,09,01,37,122,35,02,50,173,36,04,36,125,35,06,35,215,35,0*78
$GBGSV,3,2,09,09,36,285,35,13,46,201,35,14,07,164,35,11,19,129,,0*7A
$GBGSV,3,3,09,12,10,058,,0*41
$GAGSV,1,1,00,0*74

$GNRMC,000609.00,A,2959.73841,N,12000.23352,E,75.572,284.34,230721,,,A,V*33
$GNGGA,000609.00,2959.73841,N,12000.23352,E,1,07,1.55,-0.3,M,,M,,*73
$GNGSA,A,3,,,,,,,,,,,,,2.60,1.55,2.09,1*0F
$GNGSA,A,3,06,09,13,04,02,01,14,,,,,,2.60,1.55,2.09,4*05
$GNGSA,A,3,,,,,,,,,,,,,2.60,1.55,2.09,3*0D
$GPGSV,1,1,00,0*65
$GBGSV,3,1,09,01,37,122,35,02,50,173,36,04,
36,125,35,06,35,215,35,0*78
$GBGSV,3,2,09,09,36,285,35,13,46,201,35,14,07,164,34,11,19,129,,0*7B
$GBGSV,3,3,09,12,10,058,,0*41
$GAGSV,1,1,00,0*74

$GNRMC,000610.00,A,2959.74445,N,12000.21037,E,75.661,288.90,230721,,,A,V*35
$GNGGA,000610.00,2959.74445,N,12000.21037,E,1,07,1.55,-0.3,M,,M,,*76
$GNGSA,A,3,,,,,,,,,,,,,2.60,1.55,2.09,1*0F
$GNGSA,A,3,06,09,13,04,02,01,14,,,,,,2.60,1.55,2.09,4*05
$GNGSA,A,3,,,,,,,,,,,,,2.60,1.55,2.09,3*0D
$GPGSV,1,1,00,0*6
5
$GBGSV,3,1,09,01,37,122,35,02,50,173,35,04,36,125,35,06,35,215,35,0*7B
$GBGSV,3,2,09,09,36,285,35,13,46,201,35,14,07,164,34,11,19,129,,0*7B
$GBGSV,3,3,09,12,10,058,,0*41
$GAGSV,1,1,00,0*74

$GNRMC,000611.00,A,2959.75201,N,12000.18782,E,75.610,293.50,230721,,,A,V*30
$GNGGA,000611.00,2959.75201,N,12000.18782,E,1,07,1.55,-0.3,M,,M,,*73
$GNGSA,A,3,,,,,,,,,,,,,2.60,1.55,2.09,1*0F
$GNGSA,A,3,06,09,13,04,02,01,14,,,,,,2.60,1.55,2.09,4*05
$GNGSA,A,3,,,,,,,,,,,,,2.60,1.55,2.09,3*0D

$GPGSV,1,1,00,0*65
$GBGSV,3,1,09,01,37,122,36,02,50,173,35,04,36,125,36,06,35,215,36,0*78
$GBGSV,3,2,09,09,36,285,35,13,46,201,35,14,07,164,34,11,19,129,,0*7B
$GBGSV,3,3,09,12,10,058,,0*41
$GAGSV,1,1,00,0*74

$GNRMC,000612.00,A,2959.76114,N,12000.16605,E,75.548,297.83,230721,,,A,V*33
$GNGGA,000612.00,2959.76114,N,12000.16605,E,1,07,1.55,-0.4,M,,M,,*73
$GNGSA,A,3,,,,,,,,,,,,,2.60,1.55,2.09,1*0F
$GNGSA,A,3,06,09,13,04,02,01,14,,,,,,2.60,1.55,2.09,4*05
$GNGSA,A,3,,,,,,,,,,,,,2.60,1.55,2.09,3
*0D
$GPGSV,1,1,00,0*65
$GBGSV,3,1,09,01,37,122,35,02,50,173,35,04,36,125,36,06,35,215,35,0*78
$GBGSV,3,2,09,09,36,285,35,13,46,201,35,14,07,164,35,11,19,129,,0*7A
$GBGSV,3,3,09,12,10,058,,0*41
$GAGSV,1,1,00,0*74

$GNRMC,000613.00,A,2959.77170,N,12000.14516,E,75.615,302.29,230721,,,A,V*34
$GNGGA,000613.00,2959.77170,N,12000.14516,E,1,07,1.55,-0.6,M,,M,,*70
$GNGSA,A,3,,,,,,,,,,,,,2.60,1.55,2.09,1*0F
$GNGSA,A,3,06,09,13,04,02,01,14,,,,,,2.60,1.55,2.09,4*05
$GNGSA,A,3,,,,,,,,,,,,,2.60,1.55,2.09,3*0D
$GPGSV,1,1,00,0*65
$GBGSV,3,1,09,01,37,
122,35,02,50,173,35,04,36,125,35,06,35,215,35,0*7B
$GBGSV,3,2,09,09,36,285,35,13,46,201,35,14,07,164,35,11,19,129,,0*7A
$GBGSV,3,3,09,12,10,058,,0*41
$GAGSV,1,1,00,0*74

$GNRMC,000614.00,A,2959.78363,N,12000.12525,E,75.611,306.73,230721,,,A,V*35
$GNGGA,000614.00,2959.78363,N,12000.12525,E,1,07,1.55,-0.5,M,,M,,*7D
$GNGSA,A,3,,,,,,,,,,,,,2.60,1.55,2.09,1*0F
$GNGSA,A,3,06,09,13,04,02,01,14,,,,,,2.60,1.55,2.09,4*05
$GNGSA
,A,3,,,,,,,,,,,,,2.60,1.55,2.09,3*0D
$GPGSV,1,1,00,0*65
$GBGSV,3,1,09,01,37,122,35,02,50,173,36,04,36,125,35,06,35,215,35,0*78
$GBGSV,3,2,09,09,36,285,35,13,46,201,35,14,07,164,35,11,19,129,,0*7A
$GBGSV,3,3,09,12,10,058,,0*41
$GAGSV,1,1,00,0*74

$GNRMC,000615.00,A,2959.79685,N,12000.10645,E,75.724,311.23,230721,,,A,V*3B
$GNGGA,000615.00,2959.79685,N,12000.10645,E,1,07,1.55,-0.6,M,,M,,*74
$GNGSA,A,3,,,,,,,,,,,,,2.60,1.55,2.09,1*0F
$GNGSA,A,3,06,09,13,04,02,01,14,,,,,,2.60,1.55,2.09,4*05
$GNGSA,A,3,,,,,,,,,,,,,2.60,1.55,2.09,3
*0D
$GPGSV,1,1,00,0*65
$GBGSV,3,1,09,01,37,122,35,02,50,173,35,04,36,125,36,06,35,215,35,0*78
$GBGSV,3,2,09,09,36,285,35,13,46,201,36,14,07,164,35,11,19,129,,0*79
$GBGSV,3,3,09,12,10,058,,0*41
$GAGSV,1,1,00,0*74

$GNRMC,000616.00,A,2959.81133,N,12000.08890,E,75.583,315.60,230721,,,A,V*36
$GNGGA,000616.00,2959.81133,N,12000.08890,E,1,07,1.55,-0.6,M,,M,,*75
$GNGSA,A,3,,,,,,,,,,,,,2.60,1.55,2.09,1*0F
$GNGSA,A,3,06,09,13,04,02,01,14,,,,,,2.60,1.55,2.09,4*05
$GNGSA,A,3,,,,,,,,,,,,,2.60,1.55,2.09,3*0D
$GPGSV,1,1,00,0*65
$GBGSV,3,1,09,01,37,122,35,02,50,173,36,04,36,125,35,06,35,215,35,0*78
$GBGSV,3,2,
09,09,36,285,35,13,46,201,35,14,07,164,35,11,19,129,,0*7A
$GBGSV,3,3,09,12,10,058,,0*41
$GAGSV,1,1,00,0*74

$GNRMC,000617.00,A,2959.82695,N,12000.07272,E,75.488,320.07,230721,,,A,V*3B
$GNGGA,000617.00,2959.82695,N,12000.07272,E,1,07,1.55,-0.7,M,,M,,*74
$GNGSA,A,3,,,,,,,,,,,,,2.60,1.55,2.09,1*0F
$GNGSA,A,3,06,09,13,04,02,01,14,,,,,,2.60,1.55,2.09,4*05
$GNGSA,A,3,,,,,,,,,,,,,2.60,1.55,2.09,3*0D
$GPGSV,1,1,00,0*65
$GBGSV,3,1,09,01,37,122,35,02,50,173,36,04,36,125,35,06,35,215,35,0*78
$GBGSV,3,2,
09,09,36,285,35,13,46,201,35,14,07,164,35,11,19,129,,0*7A
$GBGSV,3,3,09,12,10,058,,0*41
$GAGSV,1,1,00,0*74

$GNRMC,000618.00,A,2959.84364,N,12000.05799,E,75.711,324.68,230721,,,A,V*35
$GNGGA,000618.00,2959.84364,N,12000.05799,E,1,07,1.55,-0.7,M,,M,,*74
$GNGSA,A,3,,,,,,,,,,,,,2.60,1.55,2.09,1*0F
$GNGSA,A,3,06,09,13,04,02,01,14,,,,,,2.60,1.55,2.09,4*05
$GNGSA,A,3,,,,,,,,,,,,,2.60,1.55,2.09,3*0D
$GPGSV,1,1,00,0*65
$GBGSV,3,1,09,01,37,
122,35,02,50,173,36,04,36,125,35,06,35,215,35,0*78
$GBGSV,3,2,09,09,36,285,35,13,46,201,35,14,07,164,35,11,19,129,,0*7A
$GBGSV,3,3,09,12,10,058,,0*41
$GAGSV,1,1,00,0*74

$GNRMC,000619.00,A,2959.86124,N,12000.04475,E,75.874,329.14,230721,,,A,V*3A
$GNGGA,000619.00,2959.86124,N,12000.04475,E,1,07,1.55,-0.8,M,,M,,*7E
$GNGSA,A,3,,,,,,,,,,,,,2.60,1.55,2.09,1*0F
$GNGSA,A,3,06,09,13,04,02,01,14,,,,,,2.60,1.55,2.09,4*05
$GNGSA,A,3,,,,,,,,,,,,,2.60,
1.55,2.09,3*0D
$GPGSV,1,1,00,0*65
$GBGSV,3,1,09,01,37,122,35,02,50,173,35,04,36,125,36,06,35,215,35,0*78
$GBGSV,3,2,09,09,36,285,35,13,46,201,35,14,07,164,35,11,19,129,,0*7A
$GBGSV,3,3,09,12,10,058,,0*41
$GAGSV,1,1,00,0*74

$GNRMC,000620.00,A,2959.87971,N,12000.03314,E,75.665,333.55,230721,,,A,V*3E
$GNGGA,000620.00,2959.87971,N,12000.03314,E,1,07,1.55,-0.9,M,,M,,*7B
$GNGSA,A,3,,,,,,,,,,,,,2.60,1.55,2.09,1*0F
$GNGSA,A,3,06,09,13,04,02,01,14,,,,,,2.60,1.55,2.09,4*05
$GNGSA,A,3,,,,,,,,,,,,,2.60,1.55,2.09,3*0D
$GPGSV,1,1,00,0*65
$GBGSV,3,1,09,01,37,1
22,35,02,50,173,35,04,36,125,35,06,35,215,35,0*7B
$GBGSV,3,2,09,09,36,285,35,13,46,201,35,14,07,164,35,11,19,129,,0*7A
$GBGSV,3,3,09,12,10,058,,0*41
$GAGSV,1,1,00,0*74

$GNRMC,000621.00,A,2959.89892,N,12000.02322,E,75.569,337.92,230721,,,A,V*39
$GNGGA,000621.00,2959.89892,N,12000.02322,E,1,07,1.55,-0.9,M,,M,,*7C
$GNGSA,A,3,,,,,,,,,,,,,2.60,1.55,2.09,1*0F
$GNGSA,A,3,06,09,13,04,02,01,14,,,,,,2.60,1.55,2.09,4*05
$GNG
SA,A,3,,,,,,,,,,,,,2.60,1.55,2.09,3*0D
$GPGSV,1,1,00,0*65
$GBGSV,3,1,09,01,37,122,36,02,50,173,36,04,36,125,35,06,35,215,35,0*7B
$GBGSV,3,2,09,09,36,285,35,13,46,201,35,14,07,164,34,11,19,129,,0*7B
$GBGSV,3,3,09,12,10,058,,0*41
$GAGSV,1,1,00,0*74

$GNRMC,000622.00,A,2959.91871,N,12000.01503,E,75.548,342.33,230721,,,A,V*32
$GNGGA,000622.00,2959.91871,N,12000.01503,E,1,07,1.55,-0.9,M,,M,,*7D
$GNGSA,A,3,,,,,,,,,,,,,2.60,1.55,2.09,1*0F
$GNGSA,A,3,06,09,13,04,02,01,14,,,,,,2.60,1.55,2.09,4*05
$GNGSA,A,3,,,,,,,,,,,,,2.60,1.55,2.09
,3*0D
$GPGSV,1,1,00,0*65
$GBGSV,3,1,09,01,37,122,36,02,50,173,35,04,36,125,36,06,35,215,35,0*7B
$GBGSV,3,2,09,09,36,285,35,13,46,201,35,14,06,164,35,11,19,129,,0*7B
$GBGSV,3,3,09,12,10,058,,0*41
$GAGSV,1,1,00,0*74

$GNRMC,000623.00,A,2959.93899,N,12000.00863,E,75.681,346.90,230721,,,A,V*36
$GNGGA,000623.00,2959.93899,N,12000.00863,E,1,07,1.55,-0.9,M,,M,,*72
$GNGSA,A,3,,,,,,,,,,,,,2.60,1.55,2.09,1*0F
$GNGSA,A,3,06,09,13,04,02,01,14,,,,,,2.60,1.55,2.09,4*05
$GNGSA,A,3,,,,,,,,,,,,,2.60,1.55,2.09,3*0D
$GPGSV,1,1,00,0*65
$GBGSV,3,1,09,01,
37,122,35,02,50,173,35,04,36,125,35,06,35,215,35,0*7B
$GBGSV,3,2,09,09,36,285,35,13,46,201,35,14,06,164,35,11,19,129,,0*7B
$GBGSV,3,3,09,12,10,058,,0*41
$GAGSV,1,1,00,0*74

$GNRMC,000624.00,A,2959.95963,N,12000.00407,E,75.823,351.43,230721,,,A,V*33
$GNGGA,000624.00,2959.95963,N,12000.00407,E,1,07,1.55,-0.9,M,,M,,*79
$GNGSA,A,3,,,,,,,,,,,,,2.60,1.55,2.09,1*0F
$GNGSA,A,3,06,09,13,04,02,01,14,,,,,,2.60,1.55,2.09,4*05
$GNGSA,A,3,,,,,,,,,,,,,2.60,1.55,2.09,3*0D
$GPGSV,1,1,00,0*65
$GBGSV,3,1,09,01,37,122,35,02,50,173,35,04,36,125,36,06,
35,215,35,0*78
$GBGSV,3,2,09,09,36,285,35,13,46,201,35,14,06,164,35,11,19,129,,0*7B
$GBGSV,3,3,09,12,10,058,,0*41
$GAGSV,1,1,00,0*74

$GNRMC,000625.00,A,2959.98055,N,12000.00138,E,75.619,355.75,230721,,,A,V*3C
$GNGGA,000625.00,2959.98055,N,12000.00138,E,1,07,1.55,-0.8,M,,M,,*71
$GNGSA,A,3,,,,,,,,,,,,,2.60,1.55,2.09,1*0F
$GNGSA,A,3,06,09,13,04,02,01,14,,,,,,2.60,1.55,2.09,4*05
$GNGSA,A,3,,,,,,,,,,,,,2.60,1.55,2.09,3*0D
$GPGSV,1,1,00,0*65
$GBGSV,3,1,09,01,37,122,36,02,50,173,35,04,36,125,35,06,35,215,35,0*78
$GBGSV,3
,2,09,09,36,285,35,13,46,201,35,14,06,164,34,11,19,129,,0*7A
$GBGSV,3,3,09,12,10,058,,0*41
$GAGSV,1,1,00,0*74

$GNRMC,000626.00,A,3000.00157,N,12000.00054,E,75.683,0.23,230721,,,A,V*31
$GNGGA,000626.00,3000.00157,N,12000.00054,E,1,07,1.55,-0.9,M,,M,,*7E
$GNGSA,A,3,,,,,,,,,,,,,2.60,1.55,2.09,1*0F
$GNGSA,A,3,06,09,13,04,02,01,14,,,,,,2.60,1.55,2.09,4*05
$GNGSA,A,3,,,,,,,,
,,,,,2.60,1.55,2.09,3*0D
$GPGSV,1,1,00,0*65
$GBGSV,3,1,09,01,37,122,35,02,50,173,36,04,36,125,36,06,35,215,35,0*7B
$GBGSV,3,2,09,09,36,285,35,13,46,201,35,14,06,164,35,11,19,129,,0*7B
$GBGSV,3,3,09,12,10,058,,0*41
$GAGSV,1,1,00,0*74

$GNRMC,000627.00,A,3000.02261,N,12000.00161,E,75.637,4.78,230721,,,A,V*36
$GNGGA,000627.00,3000.02261,N,12000.00161,E,1,07,1.55,-0.7,M,,M,,*72
$GNGSA,A,3,,,,,,,,,,,,,2.60,1.55,2.09,1*0F
$GNGSA,A,3,06,09,13,04,02,01,14,,,,,,2.60,1.55,2.09,4*05
$GNGSA,A,3,,,,,,,,,,,,,2.60,1.55,2.09,3*0D
$GPGSV,1,1,00,0*65
$GBGSV,3,1,09,01,37,122,36,02,50,173,35,04,36,125,35
,06,35,215,35,0*78
$GBGSV,3,2,09,09,36,285,35,13,46,201,35,14,06,164,35,11,19,129,,0*7B
$GBGSV,3,3,09,12,10,058,,0*41
$GAGSV,1,1,00,0*74

$GNRMC,000628.00,A,3000.04351,N,12000.00457,E,75.580,9.24,230721,,,A,V*36
$GNGGA,000628.00,3000.04351,N,12000.00457,E,1,07,1.55,-0.6,M,,M,,*78
$GNGSA,A,3,,,,,,,,,,,,,2.60,1.55,2.09,1*0F
$GNGSA,A,3,06,09,13,04,02,01,14,,,,,,2.60,1.55,2.09,4*05
$GNGSA,A,3,,
,,,,,,,,,,,2.60,1.55,2.09,3*0D
$GPGSV,1,1,00,0*65
$GBGSV,3,1,09,01,37,122,35,02,50,173,35,04,36,125,35,06,35,215,35,0*7B
$GBGSV,3,2,09,09,36,285,35,13,46,201,35,14,06,164,34,11,19,129,,0*7A
$GBGSV,3,3,09,12,10,058,,0*41
$GAGSV,1,1,00,0*74

$GNRMC,000629.00,A,3000.06412,N,12000.00938,E,75.660,13.67,230721,,,A,V*00
$GNGGA,000629.00,3000.06412,N,12000.00938,E,1,07,1.55,-0.5,M,,M,,*7C
$GNGSA,A,3,,,,,,,,,,,,,2.60,1.55,2.09,1*0F
$GNGSA,A,3,06,09,13,04,02,01,14,,,,,,2.60,1.55,2.09,4*05
$GNGSA,A,3,,,,,,,,,,,,,2.60,1.55,2.09,3*0D
$GPGSV,1,1,00,0*65
$GBGSV,3,1,09,01,37,122,35,02,50,173,35,04,36,125,35,06,35
,215,35,0*7B
$GBGSV,3,2,09,09,36,285,35,13,46,200,36,14,06,164,35,11,20,129,,0*73
$GBGSV,3,3,09,12,10,058,,0*41
$GAGSV,1,1,00,0*74

$GNRMC,000630.00,A,3000.08431,N,12000.01596,E,75.748,18.00,230721,,,A,V*0F
$GNGGA,000630.00,3000.08431,N,12000.01596,E,1,07,1.55,-0.6,M,,M,,*71
$GNGSA,A,3,,,,,,,,,,,,,2.60,1.55,2.09,1*0F
$GNGSA,A,3,06,09,13,04,02,01,14,,,,,,2.60,1.55,2.09,4*05
$GNGSA,A,3,,,,,,,,,,,,,2.60,1.55,2.09,3*0D
$GPGSV,1,1,00,0*65
$GBGSV,3,1,09,01,37,122,35,02,50,173,34,04,36,125,35,06
,35,215,35,0*7A
$GBGSV,3,2,09,09,36,285,35,13,46,200,35,14,06,164,35,11,20,129,,0*70
$GBGSV,3,3,09,12,10,058,,0*41
$GAGSV,1,1,00,0*74

$GNRMC,000631.00,A,3000.10404,N,12000.02434,E,75.451,22.54,230721,,,A,V*08
$GNGGA,000631.00,3000.10404,N,12000.02434,E,1,07,1.55,-0.5,M,,M,,*76
$GNGSA,A,3,,,,,,,,,,,,,2.60,1.55,2.09,1*0F
$GNGSA,A,3,06,09,13,04,02,01,14,,,,,,2.60,1.55,2.09,4*05
$GNGSA,A,3,,,,,,,,,,,,,2.60,1.55,2.09,3*0D
$GPGSV,1,1,00,0*65
$GBGSV,3,
1,09,01,37,122,35,02,50,173,35,04,36,125,35,06,35,215,35,0*7B
$GBGSV,3,2,09,09,36,285,35,13,46,200,35,14,06,164,35,11,20,129,,0*70
$GBGSV,3,3,09,12,10,058,,0*41
$GAGSV,1,1,00,0*74

$GNRMC,000632.00,A,3000.12314,N,12000.03448,E,75.600,27.03,230721,,,A,V*04
$GNGGA,000632.00,3000.12314,N,12000.03448,E,1,07,1.55,-0.5,M,,M,,*7B
$GNGSA,A,3,,,,,,,,,,,,,2.60,1.55,2.09,1*0F
$GNGSA,A,3,06,09,13,04,02,01,14,,,,,,2.60,1.55,2.09,4*05
$GNGSA,A,3,,,,,,,,,,,,,
2.60,1.55,2.09,3*0D
$GPGSV,1,1,00,0*65
$GBGSV,3,1,09,01,37,122,34,02,50,173,35,04,36,125,35,06,35,215,35,0*7A
$GBGSV,3,2,09,09,36,285,35,13,45,200,35,14,06,164,35,11,20,129,,0*73
$GBGSV,3,3,09,12,10,058,,0*41
$GAGSV,1,1,00,0*74

$GNRMC,000633.00,A,3000.14150,N,12000.04631,E,75.744,31.51,230721,,,A,V*0B
$GNGGA,000633.00,3000.14150,N,12000.04631,E,1,07,1.55,-0.5,M,,M,,*75
$GNGSA,A,3,,,,,,,,,,,,,2.60,1.55,2.09,1*0F
$GNGSA,A,3,06,09,13,04,02,01,14,,,,,,2.60,1.55,2.09,4*05

$GNGSA,A,3,,,,,,,,,,,,,2.60,1.55,2.09,3*0D
$GPGSV,1,1,00,0*65
$GBGSV,3,1,09,01,37,122,35,02,50,173,35,04,36,125,36,06,35,215,35,0*78
$GBGSV,3,2,09,09,36,285,35,13,45,200,35,14,06,164,35,11,20,129,,0*73
$GBGSV,3,3,09,12,10,058,,0*41
$GAGSV,1,1,00,0*74

$GNRMC,000634.00,A,3000.15897,N,12000.05972,E,75.559,35.94,230721,,,A,V*05
$GNGGA,000634.00,3000.15897,N,12000.05972,E,1,07,1.55,-0.6,M,,M,,*7B
$GNGSA,A,3,,,,,,,,,,,,,2.60,1.55,2.09,1*0F
$GNGSA,A,3,06,09,13,04,02,01,14,,,,,,2.60,1.55,2.09,4*05
$GNGSA,A,3,,,,,,,,,,,,,2.60,1.55,2.09,3*0D
$GPGSV,1,
1,00,0*65
$GBGSV,3,1,09,01,37,122,36,02,50,173,35,04,36,125,35,06,35,215,35,0*78
$GBGSV,3,2,09,09,36,285,35,13,45,200,36,14,06,164,35,11,20,129,,0*70
$GBGSV,3,3,09,12,10,058,,0*41
$GAGSV,1,1,00,0*74

$GNRMC,000635.00,A,3000.17551,N,12000.07465,E,75.752,40.32,230721,,,A,V*0F
$GNGGA,000635.00,3000.17551,N,12000.07465,E,1,07,1.55,-0.6,M,,M,,*76
$GNGSA,A,3,,,,,,,,,,,,,2.60,1.55,2.09,1*0F
$GNGSA,A,3,06,09,13,04,02,01,14,,,,,,2.60,1.55,2.09,4*05
$GNGSA,A,3,,,,,,,,,,,,,2.60,1.55,2.09,3*0D
$GPG
SV,1,1,00,0*65
$GBGSV,3,1,09,01,37,122,35,02,50,173,36,04,36,125,35,06,35,215,35,0*78
$GBGSV,3,2,09,09,36,285,35,13,45,200,35,14,06,164,35,11,20,129,,0*73
$GBGSV,3,3,09,12,10,058,,0*41
$GAGSV,1,1,00,0*74

$GNRMC,000636.00,A,3000.19104,N,12000.09103,E,75.770,44.81,230721,,,A,V*01
$GNGGA,000636.00,3000.19104,N,12000.09103,E,1,07,1.55,-0.7,M,,M,,*75
$GNGSA,A,3,,,,,,,,,,,,,2.60,1.55,2.09,1*0F
$GNGSA,A,3,06,09,13,04,02,01,14,,,,,,2.60,1.55,2.09,4*05
$GNGSA,A,3,,,,,,,,,,,,,2.60,1.55,2.09,3*0D
$GPGSV,1,1,00,0*65
$GBGSV,3,1,09,01,37,122,35,02,50,173,36,0
4,36,125,36,06,35,215,35,0*7B
$GBGSV,3,2,09,09,36,285,35,13,45,200,35,14,06,164,34,11,20,129,,0*72
$GBGSV,3,3,09,12,10,058,,0*41
$GAGSV,1,1,00,0*74

$GNRMC,000637.00,A,3000.20533,N,12000.10869,E,75.625,49.34,230721,,,A,V*05
$GNGGA,000637.00,3000.20533,N,12000.10869,E,1,07,1.55,-0.6,M,,M,,*72
$GNGSA,A,3,,,,,,,,,,,,,2.60,1.55,2.09,1*0F
$GNGSA,A,3,06,09,13,04,02,01,14,,,,,,2.60,1.55,2.09,4*05
$GNGSA,A,3,,,,,,,,,,,,,2.60,1.55,2.09,3*0D
$GPGSV,1,1,00,0*65
$G
BGSV,3,1,09,01,37,122,35,02,50,173,36,04,36,125,35,06,35,215,35,0*78
$GBGSV,3,2,09,09,36,285,35,13,45,200,35,14,06,164,35,11,20,129,,0*73
$GBGSV,3,3,09,12,10,058,,0*41
$GAGSV,1,1,00,0*74

$GNRMC,000638.00,A,3000.21839,N,12000.12762,E,75.677,53.78,230721,,,A,V*0E
$GNGGA,000638.00,3000.21839,N,12000.12762,E,1,07,1.55,-0.5,M,,M,,*7E
$GNGSA,A,3,,,,,,,,,,,,,2.60,1.55,2.09,1*0F
$GNGSA,A,3,06,09,13,04,02,01,14,,,,,,2.60,1.55,2.09,4*05
$GNGSA,A,3,,,,,,,,,,,,,2.60,1.55,2.09,3*0D
$GPGSV,1,1,00
,0*65
$GBGSV,3,1,09,01,37,122,36,02,50,173,35,04,36,125,35,06,35,215,35,0*78
$GBGSV,3,2,09,09,36,285,35,13,45,200,35,14,06,164,35,11,20,129,,0*73
$GBGSV,3,3,09,12,10,058,,0*41
$GAGSV,1,1,00,0*74

$GNRMC,000639.00,A,3000.23014,N,12000.14766,E,75.816,58.10,230721,,,A,V*04
$GNGGA,000639.00,3000.23014,N,12000.14766,E,1,07,1.55,-0.5,M,,M,,*78
$GNGSA,A,3,,,,,,,,,,,,,2.60,1.55,2.09,1*0F
$GNGSA,A,3,06,09,13,04,02,01,14,,,,,,2.60,1.55,2.09,4*05
$GNGSA,A,3,,,,,,,,,,,,,2.60,1.55,2.09,3*0D
$GPGSV,1,1,00,0*65
$GBGSV,3,1,09,01,37,122,35,02,50,173,36,04,36,125,35,06,35,215
,35,0*78
$GBGSV,3,2,09,09,36,285,35,13,45,200,35,14,06,164,34,11,20,129,,0*72
$GBGSV,3,3,09,12,10,058,,0*41
$GAGSV,1,1,00,0*74

$GNRMC,000640.00,A,3000.24056,N,12000.16870,E,75.624,62.68,230721,,,A,V*08
$GNGGA,000640.00,3000.24056,N,12000.16870,E,1,07,1.55,-0.5,M,,M,,*7D
$GNGSA,A,3,,,,,,,,,,,,,2.60,1.55,2.09,1*0F
$GNGSA,A,3,06,09,13,04,02,01,14,,,,,,2.60,1.55,2.09,4*05
$GNGSA,A,3,,,,,,,,,,,,,2.60,1.55,2.09,3*0D
$GPGSV,1,1,00,0*65
$GBGSV,3,1,0
9,01,37,122,35,02,50,173,35,04,36,125,35,06,35,215,35,0*7B
$GBGSV,3,2,09,09,36,285,35,13,45,200,35,14,06,164,35,11,20,129,,0*73
$GBGSV,3,3,09,12,10,058,,0*41
$GAGSV,1,1,00,0*74

$GNRMC,000641.00,A,3000.24948,N,12000.19060,E,75.678,67.13,230721,,,A,V*09
$GNGGA,000641.00,3000.24948,N,12000.19060,E,1,07,1.55,-0.4,M,,M,,*7D
$GNGSA,A,3,,,,,,,,,,,,,2.60,1.55,2.08,1*0E
$GNGSA,A,3,06,09,13,04,02,01,14,,,,,,2.60,1.55,2.08,4*04
$GNGSA,A,3,,,,,,
,,,,,,,2.60,1.55,2.08,3*0C
$GPGSV,1,1,00,0*65
$GBGSV,3,1,09,01,37,122,35,02,50,173,35,04,36,125,35,06,35,215,35,0*7B
$GBGSV,3,2,09,09,36,285,35,13,45,200,35,14,06,164,35,11,20,129,,0*73
$GBGSV,3,3,09,12,10,058,,0*41
$GAGSV,1,1,00,0*74

$GNRMC,000642.00,A,3000.25692,N,12000.21321,E,75.647,71.51,230721,,,A,V*03
$GNGGA,000642.00,3000.25692,N,12000.21321,E,1,07,1.55,-0.5,M,,M,,*7B
$GNGSA,A,3,,,,,,,,,,,,,2.60,1.55,2.08,1*0E
$GNGSA,A,3,06,09,13,04,02,01,14,,,,,,2.60,1.55,2.08,4*04
$GNGSA,A,3,,,,,,,,,,,,,2.60,1.55,2.08,3*0C
$GPGSV,1,1,00,0*65
$GBGSV,3,1,09,01,37,122,35,02,50,173,35,04,36,125,36,06,35,215,36,0*7B
$GBGSV,
3,2,09,09,36,285,35,13,45,200,35,14,06,164,35,11,20,129,,0*73
$GBGSV,3,3,09,12,10,058,,0*41
$GAGSV,1,1,00,0*74

$GNRMC,000643.00,A,3000.26276,N,12000.23640,E,75.701,75.93,230721,,,A,V*06
$GNGGA,000643.00,3000.26276,N,12000.23640,E,1,07,1.55,-0.6,M,,M,,*74
$GNGSA,A,3,,,,,,,,,,,,,2.60,1.55,2.08,1*0E
$GNGSA,A,3,06,09,13,04,02,01,14,,,,,,2.60,1.55,2.
08,4*04
$GNGSA,A,3,,,,,,,,,,,,,2.60,1.55,2.08,3*0C
$GPGSV,1,1,00,0*65
$GBGSV,3,1,09,01,37,122,35,02,50,173,35,04,36,125,36,06,35,215,35,0*78
$GBGSV,3,2,09,09,36,285,35,13,45,200,35,14,06,164,35,11,20,129,,0*73
$GBGSV,3,3,09,12,10,058,,0*41
$GAGSV,1,1,00,0*74

$GNRMC,000644.00,A,3000.26706,N,12000.26006,E,75.604,80.44,230721,,,A,V*06
$GNGGA,000644.00,3000.26706,N,12000.26006,E,1,07,1.55,-0.8,M,,M,,*7E
$GNGSA,A,3,,,,,,,,,,,,,2.60,1.55,2.08,1*0E
$GNGSA,A,3,06,09,13,04,02,01,14,,,,,,2.60,1.55,2.08,4*04
$GNGSA,A,3,,,,,,,,,,,,,2.60,1.55,2.08,3*0C
$GPGSV,1,1,00,0*65
$GBGSV,3,1,09,01,37,122,35,02,50,173,36,04,36,125,35,06,35,215,35,0*78
$GBG
SV,3,2,09,09,36,285,35,13,45,200,35,14,06,164,34,11,20,129,,0*72
$GBGSV,3,3,09,12,10,058,,0*41
$GAGSV,1,1,00,0*74

$GNRMC,000645.00,A,3000.26973,N,12000.28402,E,75.602,84.97,230721,,,A,V*09
$GNGGA,000645.00,3000.26973,N,12000.28402,E,1,07,1.55,-0.8,M,,M,,*7D
$GNGSA,A,3,,,,,,,,,,,,,2.60,1.55,2.08,1*0E
$GNGSA,A,3,06,09,13,04,02,01,14,,,,,,2.60,1.55,2.08,4*04
$GNGSA,A,3,,,,,,,,,,,,,2.60,1.55,2.08,3*0C
$GPGSV,1,1,00,0*65
$GBGSV,3,1,09,01,37,122,36,02,50,173,35,04,36,125,35,06,35,215,35,0*78
$GBGSV,3,2,09,09,36,285,
35,13,45,200,35,14,06,164,34,11,20,129,,0*72
$GBGSV,3,3,09,12,10,058,,0*41
$GAGSV,1,1,00,0*74

$GNRMC,000646.00,A,3000.27075,N,12000.30814,E,75.591,89.40,230721,,,A,V*08
$GNGGA,000646.00,3000.27075,N,12000.30814,E,1,07,1.55,-0.6,M,,M,,*7C
$GNGSA,A,3,,,,,,,,,,,,,2.59,1.55,2.08,1*04
$GNGSA,A,3,06,09,13,04,02,01,14,,,,,,2.59,1.55,2.08,4*0E
$GNGSA,A,3,,,,,,,,,,,,,2.59,1.55,2.08,3*06
$GPGSV,1,1,00,0*65
$GBGSV,3,1,09,01,37,122,35,02,50,173,35,04,36,1
25,35,06,35,215,35,0*7B
$GBGSV,3,2,09,09,36,285,35,13,45,200,35,14,06,164,34,11,20,129,,0*72
$GBGSV,3,3,09,12,10,058,,0*41
$GAGSV,1,1,00,0*74

$GNRMC,000647.00,A,3000.27014,N,12000.33228,E,75.746,93.61,230721,,,A,V*08
$GNGGA,000647.00,3000.27014,N,12000.33228,E,1,07,1.55,-0.6,M,,M,,*7C
$GNGSA,A,3,,,,,,,,,,,,,2.59,1.55,2.08,1*04
$GNGSA,A,3,06,09,13,04,02,01,14,,,,,,2.59,1.55,2.08,4*0E
$GNGSA,A,3,,,,,,,,,,,,,2.59,1.55,2.08,3*06
$GPGSV,1,1,00,0*65
$GBGSV,3,1,09,01,37,122,35,02,50,173,35,04,36,125,35,06,35,215,3
6,0*78
$GBGSV,3,2,09,09,36,285,35,13,45,200,35,14,06,164,34,11,20,129,,0*72
$GBGSV,3,3,09,12,10,058,,0*41
$GAGSV,1,1,00,0*74

$GNRMC,000648.00,A,3000.26797,N,12000.35633,E,75.650,98.25,230721,,,A,V*0F
$GNGGA,000648.00,3000.26797,N,12000.35633,E,1,07,1.55,-0.7,M,,M,,*77
$GNGSA,A,3,,,,,,,,,,,,,2.59,1.55,2.08,1*04
$GNGSA,A,3,06,09,13,04,02,01,14,,,,,,2.59,1.55,2.08,4*0E
$GNGSA,A,3,,,,,,,,,,,,,2.59,1.55,2.08,3*06
$GPGSV,1,1,00,0*65

$GBGSV,3,1,09,01,37,122,36,02,50,173,35,04,36,125,35,06,35,215,35,0*78
$GBGSV,3,2,09,09,36,285,35,13,45,200,35,14,06,164,35,11,20,129,,0*73
$GBGSV,3,3,09,12,10,058,,0*41
$GAGSV,1,1,00,0*74

$GNRMC,000649.00,A,3000.26413,N,12000.38010,E,75.660,102.74,230721,,,A,V*3E
$GNGGA,000649.00,3000.26413,N,12000.38010,E,1,07,1.55,-0.6,M,,M,,*72
$GNGSA,A,3,,,,,,,,,,,,,2.59,1.55,2.08,1*04
$GNGSA,A,3,06,09,13,04,02,01,14,,,,,,2.59,1.55,2.08,4*0E
$GNGSA,A,3,,,,,,,,,,,,,2.59,1.55,2.08,3*06
$GPGSV,1,1,00,0*65
$GBGSV,3,1,09,01,37,122,35,02,50,173,35,04,36,125,35,06,35,215,35
,0*7B
$GBGSV,3,2,09,09,36,285,35,13,45,200,35,14,06,164,35,11,20,129,,0*73
$GBGSV,3,3,09,12,10,058,,0*41
$GAGSV,1,1,00,0*74

$GNRMC,000650.00,A,3000.25869,N,12000.40343,E,75.569,107.20,230721,,,A,V*30
$GNGGA,000650.00,3000.25869,N,12000.40343,E,1,07,1.55,-0.7,M,,M,,*73
$GNGSA,A,3,,,,,,,,,,,,,2.59,1.55,2.08,1*04
$GNGSA,A,3,06,09,13,04,02,01,14,,,,,,2.59,1.55,2.08,4*0E
$GNGSA,A,3,,,,,,,,,,,,,2.59,1.55,2.08,3*06
$GPGSV,1,1,00,0*65
$GBGSV,3
,1,09,01,37,122,36,02,50,173,35,04,36,125,35,06,35,215,35,0*78
$GBGSV,3,2,09,09,36,285,35,13,45,200,35,14,06,164,34,11,20,129,,0*72
$GBGSV,3,3,09,12,10,058,,0*41
$GAGSV,1,1,00,0*74

$GNRMC,000651.00,A,3000.25168,N,12000.42620,E,75.608,111.63,230721,,,A,V*3F
$GNGGA,000651.00,3000.25168,N,12000.42620,E,1,07,1.55,-0.6,M,,M,,*79
$GNGSA,A,3,,,,,,,,,,,,,2.59,1.55,2.08,1*04
$GNGSA,A,3,06,09,13,04,02,01,14,,,,,,2.59,1.55,2.08,4*0E
$GNGSA,A,3,,,,,,,,,,,,,2.59,1.55,2.08,3*06
$GPGSV,1,1,00,0*65
$GBGSV,3,1,09,01,37,122,35,02,50,173,35,04,36,125,35,06,35
,215,35,0*7B
$GBGSV,3,2,09,09,36,285,35,13,45,200,35,14,06,164,35,11,20,129,,0*73
$GBGSV,3,3,09,12,10,058,,0*41
$GAGSV,1,1,00,0*74

$GNRMC,000652.00,A,3000.24316,N,12000.44828,E,75.592,116.02,230721,,,A,V*36
$GNGGA,000652.00,3000.24316,N,12000.44828,E,1,07,1.55,-0.7,M,,M,,*71
$GNGSA,A,3,,,,,,,,,,,,,2.59,1.55,2.08,1*04
$GNGSA,A,3,06,09,13,04,02,01,14,,,,,,2.59,1.55,2.08,4*0E
$GNGSA,A,3,,,,,,,,,,,,,2.59,1.55,2.08,3*06
$GPGSV
,1,1,00,0*65
$GBGSV,3,1,09,01,37,122,35,02,50,173,36,04,36,125,35,06,35,215,35,0*78
$GBGSV,3,2,09,09,36,285,35,13,45,200,35,14,06,164,34,11,20,129,,0*72
$GBGSV,3,3,09,12,10,058,,0*41
$GAGSV,1,1,00,0*74

$GNRMC,000653.00,A,3000.23318,N,12000.46955,E,75.641,120.62,230721,,,A,V*39
$GNGGA,000653.00,3000.23318,N,12000.46955,E,1,07,1.55,-0.7,M,,M,,*70
$GNGSA,A,3,,,,,,,,,,,,,2.59,1.55,2.08,1*04
$GNGSA,A,3,06,09,13,04,02,01,14,,,,,,2.59,1.55,2.08,4*0E
$GNGSA,A,3,,,,,,,,,,,,,2.59,1.55,2.08,3*06
$GPGSV,1,1,00,0*65
$GBGSV,3,1,09,01,37,122,36,02,50,173,35,04,36,125,35,06,35,215,35,0*78
$GBGSV,3,2,09,09,36
,285,35,13,45,200,35,14,06,164,34,11,20,129,,0*72
$GBGSV,3,3,09,12,10,058,,0*41
$GAGSV,1,1,00,0*74

$GNRMC,000654.00,A,3000.22175,N,12000.48985,E,75.706,125.10,230721,,,A,V*37
$GNGGA,000654.00,3000.22175,N,12000.48985,E,1,07,1.55,-0.5,M,,M,,*7E
$GNGSA,A,3,,,,,,,,,,,,,2.59,1.55,2.08,1*04
$GNGSA,A,3,06,09,13,04,02,01,14,,,,,,2.59,1.55,2.08,4*0E
$GNGSA,A,3,,,,,,,,,,,,,2.59,1.55,2.08,3*06
$GPGSV,1,1,00,0*65
$GBGSV,3,1,09,01,37,122,35,02,50,173,35,04,36,125,36,06,35,215,35,0*78
$GBGSV,3,2
,09,09,36,285,35,13,45,200,35,14,06,164,35,11,20,129,,0*73
$GBGSV,3,3,09,12,10,058,,0*41
$GAGSV,1,1,00,0*74

$GNRMC,000655.00,A,3000.20899,N,12000.50906,E,75.572,129.53,230721,,,A,V*37
$GNGGA,000655.00,3000.20899,N,12000.50906,E,1,07,1.55,-0.5,M,,M,,*74
$GNGSA,A,3,,,,,,,,,,,,,2.59,1.55,2.08,1*04
$GNGSA,A,3,06,09,13,04,02,01,14,,,,,,2.59,1.55,2.08,4*0E
$GNGSA,A,3,,,,,,,,,,,,,2.59,1.55,2.08,3*06
$GPGSV
,1,1,00,0*65
$GBGSV,3,1,09,01,37,122,35,02,50,173,35,04,36,125,35,06,35,215,35,0*7B
$GBGSV,3,2,09,09,36,285,35,13,45,200,35,14,06,164,35,11,20,129,,0*73
$GBGSV,3,3,09,12,10,058,,0*41
$GAGSV,1,1,00,0*74

$GNRMC,000656.00,A,3000.19496,N,12000.52708,E,75.561,133.79,230721,,,A,V*3E
$GNGGA,000656.00,3000.19496,N,12000.52708,E,1,07,1.55,-0.5,M,,M,,*7C
$GNGSA,A,3,,,,,,,,,,,,,2.59,1.55,2.08,1*04
$GNGSA,A,3,06,09,13,04,02,01,14,,,,,,2.59,1.55,2.08,4*0E
$GNGSA,A,3,,,,,,,,,,,,,2.59,1.55,2.08,3*06
$GPGSV,1,1,00,0*65
$GBGSV,3,1,09,01,37,122,34,02,50,173,35,04,36,125,35,06,35,215,35,0*7A
$GBGSV,3,2,09,0
9,36,285,35,13,45,200,35,14,06,164,35,11,20,129,,0*73
$GBGSV,3,3,09,12,10,058,,0*41
$GAGSV,1,1,00,0*74

$GNRMC,000657.00,A,3000.17982,N,12000.54382,E,75.637,138.40,230721,,,A,V*38
$GNGGA,000657.00,3000.17982,N,12000.54382,E,1,07,1.55,-0.5,M,,M,,*7B
$GNGSA,A,3,,,,,,,,,,,,,2.59,1.55,2.08,1*04
$GNGSA,A,3,06,09,13,04,02,01,14,,,,,,2.59,1.55,2.08,4*0E
$GNGSA
,A,3,,,,,,,,,,,,,2.59,1.55,2.08,3*06
$GPGSV,1,1,00,0*65
$GBGSV,3,1,09,01,37,122,36,02,50,173,35,04,36,125,35,06,35,215,35,0*78
$GBGSV,3,2,09,09,36,285,35,13,45,200,35,14,06,164,34,11,20,129,,0*72
$GBGSV,3,3,09,12,10,058,,0*41
$GAGSV,1,1,00,0*74

$GNRMC,000658.00,A,3000.16353,N,12000.55914,E,75.754,142.96,230721,,,A,V*36
$GNGGA,000658.00,3000.16353,N,12000.55914,E,1,07,1.55,-0.4,M,,M,,*76
$GNGSA,A,3,,,,,,,,,,,,,2.59,1.55,2.08,1*04
$GNGSA,A,3,06,09,13,04,02,01,14,,,,,,2.59,1.5
5,2.08,4*0E
$GNGSA,A,3,,,,,,,,,,,,,2.59,1.55,2.08,3*06
$GPGSV,1,1,00,0*65
$GBGSV,3,1,09,01,37,122,36,02,50,173,35,04,36,125,36,06,35,215,35,0*7B
$GBGSV,3,2,09,09,36,285,35,13,45,200,35,14,06,164,34,11,20,129,,0*72
$GBGSV,3,3,09,12,10,058,,0*41
$GAGSV,1,1,00,0*74

$GNRMC,000659.00,A,3000.14626,N,12000.57296,E,75.663,147.35,230721,,,A,V*38
$GNGGA,000659.00,3000.14626,N,12000.57296,E,1,07,1.55,-0.4,M,,M,,*71
$GNGSA,A,3,,,,,,,,,,,,,2.59,1.55,2.08,1*04
$GNGSA,A,3,06,09,13,04,02,01,14,,,,,,2.59,1.55,2.08,4*0E
$GNGSA,
A,3,,,,,,,,,,,,,2.59,1.55,2.08,3*06
$GPGSV,1,1,00,0*65
$GBGSV,3,1,09,01,37,122,35,02,50,173,36,04,36,125,35,06,35,215,35,0*78
$GBGSV,3,2,09,09,36,285,35,13,45,200,35,14,06,164,35,11,20,129,,0*73
$GBGSV,3,3,09,12,10,058,,0*41
$GAGSV,1,1,00,0*74

$GNRMC,000700.00,A,3000.12811,N,12000.58521,E,75.605,151.69,230721,,,A,V*33
$GNGGA,000700.00,3000.12811,N,12000.58521,E,1,07,1.55,-0.4,M,,M,,*74
$GNGSA,A,3,,,,,,,,,,,,,2.59,1.55,2.08,1*04
$GNGSA,A,3,06,09,13,04,02,01,14,,,,,,2.59,1.55,2.08,4*0E
$GNGSA,A,3,,,,,,,,,,,,,2.59,1.55,2.08,3*06
$GPGSV,1,1,00,0*65
$GBGSV,3,1,09,01,37,122,35,02,50,173,36,04,36,125
,36,06,35,215,35,0*7B
$GBGSV,3,2,09,09,36,285,35,13,45,200,35,14,06,164,34,11,20,129,,0*72
$GBGSV,3,3,09,12,10,058,,0*41
$GAGSV,1,1,00,0*74

$GNRMC,000701.00,A,3000.10920,N,12000.59581,E,75.749,156.26,230721,,,A,V*3D
$GNGGA,000701.00,3000.10920,N,12000.59581,E,1,07,1.55,-0.4,M,,M,,*7F
$GNGSA,A,3,,,,,,,,,,,,,2.59,1.55,2.08,1*04
$GNGSA,A,3,06,09,13,04,02,01,14,,,,,,2.59,1.55,2.08,4*0E
$GNGSA,A,3,,,,,,,,,,,,,2.59,1.55,2.08,3
*06
$GPGSV,1,1,00,0*65
$GBGSV,3,1,09,01,37,122,35,02,50,173,35,04,36,125,35,06,35,215,35,0*7B
$GBGSV,3,2,09,09,36,285,35,13,45,200,35,14,06,164,35,11,20,129,,0*73
$GBGSV,3,3,09,12,10,058,,0*41
$GAGSV,1,1,00,0*74

$GNRMC,000702.00,A,3000.08962,N,12000.60467,E,75.719,160.76,230721,,,A,V*37
$GNGGA,000702.00,3000.08962,N,12000.60467,E,1,07,1.55,-0.4,M,,M,,*70
$GNGSA,A,3,,,,,,,,,,,,,2.59,1.55,2.08,1*04
$GNGSA,A,3,06,09,13,04,02,01,14,,,,,,2.59,1.55,2.08,4*0E
$GNGSA,A,3,,,,,,,,,,,,,2.59,1.55,2.08,3*06
$GPGSV,1,1,00,0*65
$GBGSV,3,1,09,01,37,122,35,02,50,173,35,04,36,125,35,06,35,215,35,0
*7B
$GBGSV,3,2,09,09,36,285,35,13,45,200,36,14,06,164,35,11,20,129,,0*70
$GBGSV,3,3,09,12,10,058,,0*41
$GAGSV,1,1,00,0*74

$GNRMC,000703.00,A,3000.06950,N,12000.61176,E,75.629,165.14,230721,,,A,V*3E
$GNGGA,000703.00,3000.06950,N,12000.61176,E,1,07,1.55,-0.3,M,,M,,*7D
$GNGSA,A,3,,,,,,,,,,,,,2.59,1.55,2.08,1*04
$GNGSA,A,3,06,09,13,04,02,01,14,,,,,,2.59,1.55,2.08,4*0E

$GNGSA,A,3,,,,,,,,,,,,,2.59,1.55,2.08,3*06
$GPGSV,1,1,00,0*65
$GBGSV,3,1,09,01,37,122,35,02,50,173,35,04,36,125,35,06,35,215,35,0*7B
$GBGSV,3,2,09,09,36,285,35,13,45,200,35,14,06,164,34,11,20,129,,0*72
$GBGSV,3,3,09,12,10,058,,0*41
$GAGSV,1,1,00,0*74

$GNRMC,000704.00,A,3000.04896,N,12000.61703,E,75.364,169.48,230721,,,A,V*3D
$GNGGA,000704.00,3000.04896,N,12000.61703,E,1,07,1.55,-0.3,M,,M,,*77
$GNGSA,A,3,,,,,,,,,,,,,2.59,1.55,2.08,1*04
$GNGSA,A,3,06,09,13,04,02,01,14,,,,,,2.59,1.55,2.08,4*0E
$GNGSA,A,3,,,,,,,,,,,,,2.59,
1.55,2.08,3*06
$GPGSV,1,1,00,0*65
$GBGSV,3,1,09,01,37,122,35,02,50,173,36,04,36,125,35,06,35,215,35,0*78
$GBGSV,3,2,09,09,36,285,35,13,45,200,35,14,06,164,34,11,20,129,,0*72
$GBGSV,3,3,09,12,10,058,,0*41
$GAGSV,1,1,00,0*74

$GNRMC,000705.00,A,3000.02816,N,12000.62047,E,75.858,174.13,230721,,,A,V*30
$GNGGA,000705.00,3000.02816,N,12000.62047,E,1,07,1.55,-0.3,M,,M,,*7C
$GNGSA,A,3,,,,,,,,,,,,,2.59,1.55,2.08,1*04
$GNGSA,A,3,06,09,13,04,02,01,14,,,,,,2.59,1.55,2.08,4*0E
$GNGSA,A,3,,,,,,,,,,,,,2.59,1.55,2.08,3*06
$GPGSV,1,1,00,0*65
$GBGSV,3,1,09,01,37,122,35,02,50,173,35,04,36,125,35,06,35,215,35,0*7B
$GBGSV,3,2,09,09,36,285,35
,13,45,200,35,14,06,164,35,11,20,129,,0*73
$GBGSV,3,3,09,12,10,058,,0*41
$GAGSV,1,1,00,0*74

$GNRMC,000706.00,A,3000.00717,N,12000.62203,E,75.705,178.49,230721,,,A,V*39
$GNGGA,000706.00,3000.00717,N,12000.62203,E,1,07,1.55,-0.3,M,,M,,*71
$GNGSA,A,3,,,,,,,,,,,,,2.59,1.55,2.08,1*04
$GNGSA,A,3,06,09,13,04,02,01,14,,,,,,2.59,1.55,2.08,4*0E
$GNGSA,A,3,,,,,,,,,,,,,2.59,1.55,2.08,3*06
$GPGSV,1,1,00,0*65
$GBGSV,3,1,09,01,37,122,35,02,50,173,35,04,36,125,36,06,35,215,36,0*7B
$GBGSV,3,2,09,09
,36,285,35,13,45,200,35,14,06,164,34,11,20,129,,0*72
$GBGSV,3,3,09,12,10,058,,0*41
$GAGSV,1,1,00,0*74

$GNRMC,000707.00,A,2959.98613,N,12000.62172,E,75.665,182.97,230721,,,A,V*3C
$GNGGA,000707.00,2959.98613,N,12000.62172,E,1,07,1.55,-0.3,M,,M,,*75
$GNGSA,A,3,,,,,,,,,,,,,2.59,1.55,2.08,1*04
$GNGSA,A,3,06,09,13,04,02,01,14,,,,,,2.59,1.55,2.08,
4*0E
$GNGSA,A,3,,,,,,,,,,,,,2.59,1.55,2.08,3*06
$GPGSV,1,1,00,0*65
$GBGSV,3,1,09,01,37,122,35,02,50,173,36,04,36,125,35,06,35,215,35,0*78
$GBGSV,3,2,09,09,36,285,35,13,45,200,35,14,06,164,35,11,20,129,,0*73
$GBGSV,3,3,09,12,10,058,,0*41
$GAGSV,1,1,00,0*74

$GNRMC,000708.00,A,2959.96515,N,12000.61951,E,75.699,187.45,230721,,,A,V*3B
$GNGGA,000708.00,2959.96515,N,12000.61951,E,1,07,1.55,-0.4,M,,M,,*7C
$GNGSA,A,3,,,,,,,,,,,,,2.59,1.55,2.08,1*04
$GNGSA,A,3,06,09,13,04,02,01,14,,,,,,2.59,1.55,2.08,4*0E
$GNGSA,A,3,,,,,,,,,,,,,2.59,1.55,2.08,3*06
$GPGSV,1,1,00,0*65
$GBGSV,3,1,09,01,37,122,35,02,50,173,36,04,36,125,35,06,35,215,3
5,0*78
$GBGSV,3,2,09,09,36,285,35,13,45,200,35,14,06,164,34,11,20,129,,0*72
$GBGSV,3,3,09,12,10,058,,0*41
$GAGSV,1,1,00,0*74

$GNRMC,000709.00,A,2959.94440,N,12000.61543,E,75.626,191.92,230721,,,A,V*3F
$GNGGA,000709.00,2959.94440,N,12000.61543,E,1,07,1.55,-0.4,M,,M,,*71
$GNGSA,A,3,,,,,,,,,,,,,2.59,1.55,2.08,1*04
$GNGSA,A,3,06,09,13,04,02,01,14,,,,,,2.59,1.55,2.08,4
*0E
$GNGSA,A,3,,,,,,,,,,,,,2.59,1.55,2.08,3*06
$GPGSV,1,1,00,0*65
$GBGSV,3,1,09,01,37,122,35,02,50,173,35,04,36,125,35,06,35,215,35,0*7B
$GBGSV,3,2,09,09,36,285,35,13,45,200,35,14,06,164,35,11,20,128,,0*72
$GBGSV,3,3,09,12,10,058,,0*41
$GAGSV,1,1,00,0*74

$GNRMC,000710.00,A,2959.92403,N,12000.60954,E,75.656,196.31,230721,,,A,V*34
$GNGGA,000710.00,2959.92403,N,12000.60954,E,1,07,1.55,-0.3,M,,M,,*74
$GNGSA,A,3,,,,,,,,,,,,,2.59,1.55,2.08,1*04
$GNGSA,A,3,06,09,13,04,02,01,14,,,,,,2.59,1.55,2.08,4*0E
$GNGSA,A,3,,,,,,,,,,,,,2.59,1.55,2.08,3*06
$GPGSV,1,1,00,0*65
$GBGSV,3,1,09,01,37,122,35,02,50,173,35,04,36,125,35,06,
35,215,36,0*78
$GBGSV,3,2,09,09,36,285,35,13,45,200,35,14,06,164,35,11,20,128,,0*72
$GBGSV,3,3,09,12,10,058,,0*41
$GAGSV,1,1,00,0*74

$GNRMC,000711.00,A,2959.90409,N,12000.60184,E,75.701,200.79,230721,,,A,V*3B
$GNGGA,000711.00,2959.90409,N,12000.60184,E,1,07,1.55,-0.3,M,,M,,*78
$GNGSA,A,3,,,,,,,,,,,,,2.59,1.55,2.08,1*04
