$GNRMC,000125.00,A,3000.26782,N,12000.35916,E,75.803,98.86,230721,,,A,V*0E
$GNGGA,000125.00,3000.26782,N,12000.35916,E,1,12,1.12,-1.4,M,,M,,*72
$GNGSA,A,3,04,07,13,02,08,25,,,,,,,2.45,1.12,2.18,1*07
$GNGSA,A,3,06,09,13,,,,,,,,,,2.45,1.12,2.18,4*03
$GNGSA,A,3,10,11,27,,,,,,,,,,2.45,1.12,2.18,3*0D
$GPGSV,2,1,07,02
,32,299,35,04,51,246,36,07,84,112,36,08,47,207,36,0*64
$GPGSV,2,2,07,13,49,031,35,25,66,042,36,23,,,10,0*6D
$GBGSV,2,1,06,06,37,215,31,09,36,286,32,13,48,202,32,02,50,173,31,0*7A
$GBGSV,2,2,06,01,,,31,04,,,31,0*74
$GAGSV,2,1,05,10,64,334,34,11,56,117,34,27,30,126,33,23,38,222,,0*7A
$GAGSV,2,2,05,24,85,019,34,0*45

$GNRMC,000126.00,A,3000.26372,N,12000.38294,E,75.720,103.44,230721,,,A,V*39
$GNGGA,000126.00,3000.26372,N,12000.38294,E,1,12,1.12,-1.4,M,,M,,*76
$GNGSA,A,3,04,07,13,02,08,25,,,,,,,2.45,1.12,2.18,1*07
$GNGSA,A,3,06,09,13,,,,,,,,,,2.45,1.12,2.18,4*03
$GNGSA,A,3,10,11,27,,,,,,,,,,2.45,1.12,2.18,3*0D
$GPGSV,2,1,07,02,32,299,35,04,51,246,36,07,84,112,36,08,47,207,36,0*64
$GPGSV,2,2,07,13,49,031
,36,25,66,042,36,23,,,09,0*66
$GBGSV,2,1,06,06,37,215,31,09,36,286,31,13,48,202,32,02,50,173,31,0*79
$GBGSV,2,2,06,01,,,31,04,,,31,0*74
$GAGSV,2,1,05,10,64,334,34,11,56,117,34,27,30,126,34,23,38,222,,0*7D
$GAGSV,2,2,05,24,85,019,34,0*45

$GNRMC,000127.00,A,3000.25805,N,12000.40623,E,75.697,107.79,230721,,,A,V*30
$GNGGA,000127.00,3000.25805,N,12000.40623,E,1,12,1.12,-1.3,M,,M,,*7F
$GNGSA,A,3,04,07,13,02,08,25,,,,,,,2.45,1.12,2.18,1*07
$GNGSA,A,3,06,09,13,,,,,,,,,,2.45,1.12,2.18,4*03
$GNGSA,A,3,
10,11,27,,,,,,,,,,2.45,1.12,2.18,3*0D
$GPGSV,2,1,07,02,32,299,35,04,51,246,35,07,84,112,37,08,47,207,36,0*66
$GPGSV,2,2,07,13,49,031,35,25,66,042,36,23,,,09,0*65
$GBGSV,2,1,06,06,37,215,31,09,36,286,31,13,48,202,32,02,50,173,31,0*79
$GBGSV,2,2,06,01,,,31,04,,,31,0*74
$GAGSV,2,1,05,10,64,334,34,11,56,117,33,27,30,126,34,23,38,222,,0*7A
$GAGSV,2,2,05,24,85,019,35,0*44

$GNRMC,000128.00,A,3000.25084,N,12000.42894,E,75.644,112.24,230721,,,A,V*3C
$GNGGA,000128.00,3000.25084,N,12000.42894,E,1,12,1.12,-1.2,M,,M,,*70
$GNGSA,A,3,04,07,13,02,08,25,,,,,,,2.45,1.12,2.18,1*07
$GNGSA,A,3,06,09,13,,,,,,,,,,2.45,1.12,2.18,4*03
$GNGSA,A,3,10,11,27,,,,,,,,,,2.
45,1.12,2.18,3*0D
$GPGSV,2,1,07,02,32,299,36,04,51,246,36,07,84,112,36,08,47,207,36,0*67
$GPGSV,2,2,07,13,49,031,36,25,66,042,36,23,,,08,0*67
$GBGSV,2,1,06,06,37,215,31,09,36,286,31,13,48,202,32,02,50,173,31,0*79
$GBGSV,2,2,06,01,,,31,04,,,31,0*74
$GAGSV,2,1,05,10,64,334,34,11,56,117,33,27,30,126,33,23,38,222,,0*7D
$GAGSV,2,2,05,24,85,019,34,0*45

$GNRMC,000129.00,A,3000.24209,N,12000.45100,E,75.762,116.70,230721,,,A,V*38
$GNGGA,000129.00,3000.24209,N,12000.45100,E,1,12,1.12,-1.4,M,,M,,*72
$GNGSA,A,3,04,07,13,02,08,25,,,,,,,2.45,1.12,2.18,1*07
$GNGSA,A,3,06,09,13,,,,,,,,,,2.45,1.12,2.18,4*03
$GNGSA,A,3,10,11,27,,,,,,,,,,2.45,1.12,2.18,3*0D
$GPGSV,2,1,07,02,32,299,35,04,51,246,36,07,84,112,37,08,47,207,36,0*65
$GPGSV,2,2,07,13,49,0
31,36,25,66,042,36,23,,,07,0*68
$GBGSV,2,1,06,06,37,215,31,09,36,286,31,13,48,202,31,02,50,173,31,0*7A
$GBGSV,2,2,06,01,,,31,04,,,31,0*74
$GAGSV,2,1,05,10,64,334,33,11,56,117,34,27,30,126,33,23,38,222,,0*7D
$GAGSV,2,2,05,24,85,019,34,0*45

$GNRMC,000130.00,A,3000.23190,N,12000.47214,E,75.533,121.14,230721,,,A,V*30
$GNGGA,000130.00,3000.23190,N,12000.47214,E,1,12,1.38,-1.4,M,,M,,*72
$GNGSA,A,3,04,07,13,02,08,25,,,,,,,3.06,1.38,2.73,1*04
$GNGSA,A,3,06,09,13,,,,,,,,,,3.06,1.38,2.73,4*00
$GNGSA,A,3,10,11,27,,,,,,,,,,3.06,1.38,2.73,3*0E
$GPGSV,2,1,0
7,02,32,299,35,04,51,246,36,07,84,111,37,08,47,207,35,0*65
$GPGSV,2,2,07,13,49,031,36,25,66,042,36,23,,,07,0*68
$GBGSV,2,1,06,06,37,215,31,09,36,286,31,13,48,202,32,02,50,173,31,0*79
$GBGSV,2,2,06,01,,,31,04,,,31,0*74
$GAGSV,2,1,05,11,56,117,34,27,30,126,33,10,64,334,34,23,38,222,,0*7A
$GAGSV,2,2,05,24,85,019,34,0*45

$GNRMC,000131.00,A,3000.22031,N,12000.49234,E,75.501,125.56,230721,,,A,V*35
$GNGGA,000131.00,3000.22031,N,12000.49234,E,1,12,1.12,-1.6,M,,M,,*7E
$GNGSA,A,3,04,07,13,02,08,25,,,,,,,2.45,1.12,2.18,1*07
$GNGSA,A,3,06,09,13,,,,,,,,,,2.45,1.12,2.18,4*03
$GNGSA,A,3,10,11,27,,,,,,,,,,2.45,1.12,2.18,3*0D
$GPGSV,2,1,07
,02,32,299,35,04,51,246,36,07,84,111,36,08,47,207,36,0*67
$GPGSV,2,2,07,13,49,031,36,25,66,042,36,23,,,10,0*6E
$GBGSV,2,1,06,06,37,215,31,09,36,286,31,13,48,202,32,02,50,173,31,0*79
$GBGSV,2,2,06,01,,,31,04,,,31,0*74
$GAGSV,2,1,05,10,64,334,35,11,56,117,33,27,30,126,32,23,38,222,,0*7D
$GAGSV,2,2,05,24,85,019,34,0*45

$GNRMC,000132.00,A,3000.20739,N,12000.51144,E,75.603,130.00,230721,,,A,V*30
$GNGGA,000132.00,3000.20739,N,12000.51144,E,1,12,1.12,-1.5,M,,M,,*7E
$GNGSA,A,3,04,07,13,02,08,25,,,,,,,2.45,1.12,2.18,1*07
$GNGSA,A,3,06,09,13,,,,,,,,,,2.45,1.12,2.18,4*03
$GNGSA,A,3,10,11,27,,,,,,,,,,2.45,1.12,2.18,3*0D

$GPGSV,2,1,07,02,32,299,36,04,51,246,36,07,84,111,37,08,47,207,35,0*66
$GPGSV,2,2,07,13,49,031,36,25,66,042,35,23,,,09,0*65
$GBGSV,2,1,06,06,37,215,31,09,36,286,31,13,48,202,32,02,50,173,31,0*79
$GBGSV,2,2,06,01,,,31,04,,,31,0*74
$GAGSV,2,1,05,10,64,334,34,11,56,117,34,27,30,126,33,23,38,222,,0*7A
$GAGSV,2,2,05,24,85,019,34,0*45

$GNRMC,000133.00,A,3000.19322,N,12000.52928,E,75.563,134.54,230721,,,A,V*34
$GNGGA,000133.00,3000.19322,N,12000.52928,E,1,12,1.12,-1.3,M,,M,,*7C
$GNGSA,A,3,04,07,13,02,08,25,,,,,,,2.45,1.12,2.17,1*08
$GNGSA,A,3,06,09,13,,,,,,,,,,2.45,1.12,2.17,4*0C
$GNGSA,A,3,10,11,27,,,,,,,,,,2.45,1.12,2.17,3*02
$GPGSV,2,1,07,02,32,299,35,04,51,246,35,07,84,111,36,08
,47,207,36,0*64
$GPGSV,2,2,07,13,49,031,35,25,66,042,37,23,,,09,0*64
$GBGSV,2,1,06,06,37,215,31,09,36,286,31,13,48,202,32,02,50,173,31,0*79
$GBGSV,2,2,06,01,,,31,04,,,31,0*74
$GAGSV,2,1,05,10,64,334,34,11,56,117,34,27,30,126,33,23,38,222,,0*7A
$GAGSV,2,2,05,24,85,019,34,0*45

$GNRMC,000134.00,A,3000.17786,N,12000.54582,E,75.706,139.03,230721,,,A,V*33
$GNGGA,000134.00,3000.17786,N,12000.54582,E,1,12,1.12,-1.0,M,,M,,*76
$GNGSA,A,3,04,07,13,02,08,25,,,,,,,2.45,1.12,2.17,1*08
$GNGSA,A,3,06,09,13,,,,,,,,,,2.45,1.12,2.17,4*0C
$GNGSA,A,3,10,11,27,,,,,,,,,,2.45,1.12,2.17,3*02
$GPGSV,2,1,07,02,32,299,36,04,51,246,36,07,84,111,36,08,47,207,36,0*64
$GPGSV,2,2,07,13,49,031,36,25,66,042,36
,23,,,09,0*66
$GBGSV,2,1,06,06,37,215,32,09,36,286,31,13,48,202,32,02,50,173,31,0*7A
$GBGSV,2,2,06,01,,,31,04,,,31,0*74
$GAGSV,2,1,05,10,64,334,33,11,56,117,34,27,30,126,33,23,38,222,,0*7D
$GAGSV,2,2,05,24,85,019,34,0*45

$GNRMC,000135.00,A,3000.16146,N,12000.56092,E,75.683,143.50,230721,,,A,V*38
$GNGGA,000135.00,3000.16146,N,12000.56092,E,1,12,1.12,-1.2,M,,M,,*78
$GNGSA,A,3,04,07,13,02,08,25,,,,,,,2.45,1.12,2.17,1*08
$GNGSA,A,3,06,09,13,,,,,,,,,,2.45,1.12,2.17,4*0C
$GNGSA,A,3,10
,11,27,,,,,,,,,,2.45,1.12,2.17,3*02
$GPGSV,2,1,07,02,32,299,35,04,51,246,36,07,84,111,36,08,47,207,36,0*67
$GPGSV,2,2,07,13,49,031,36,25,66,042,36,23,,,08,0*67
$GBGSV,2,1,06,06,37,215,31,09,36,286,31,13,48,202,32,02,50,173,31,0*79
$GBGSV,2,2,06,01,,,31,04,,,31,0*74
$GAGSV,2,1,05,10,64,334,34,11,56,117,33,27,30,126,33,23,38,222,,0*7D
$GAGSV,2,2,05,24,85,019,34,0*45

$GNRMC,000136.00,A,3000.14409,N,12000.57452,E,75.613,147.90,230721,,,A,V*3F
$GNGGA,000136.00,3000.14409,N,12000.57452,E,1,12,1.12,-1.4,M,,M,,*78
$GNGSA,A,3,04,07,13,02,08,25,,,,,,,2.45,1.12,2.17,1*08
$GNGSA,A,3,06,09,13,,,,,,,,,,2.45,1.12,2.17,4*0C
$GNGSA,A,3,10,11,27,,,,,,,,,,2.45,1.12,2.17,3*
02
$GPGSV,2,1,07,02,32,299,36,04,51,246,36,07,84,111,36,08,47,207,35,0*67
$GPGSV,2,2,07,13,49,031,37,25,66,042,36,23,,,08,0*66
$GBGSV,2,1,06,06,37,215,31,09,36,286,31,13,48,202,32,02,50,173,31,0*79
$GBGSV,2,2,06,01,,,31,04,,,31,0*74
$GAGSV,2,1,05,10,64,334,34,11,56,117,33,27,30,126,33,23,38,222,,0*7D
$GAGSV,2,2,05,24,85,019,34,0*45

$GNRMC,000137.00,A,3000.12586,N,12000.58652,E,75.749,152.25,230721,,,A,V*37
$GNGGA,000137.00,3000.12586,N,12000.58652,E,1,12,1.12,-1.2,M,,M,,*72
$GNGSA,A,3,04,07,13,02,08,25,,,,,,,2.45,1.12,2.17,1*08
$GNGSA,A,3,06,09,13,,,,,,,,,,2.45,1.12,2.17,4*0C
$GNGSA,A,3,10,11,27,,,,,,,,,,2.45,1.12,2.17,3*02
$GPGSV,2,1,06,02,32,299,35,04,51,246,36,07,84,111,37,08,
47,207,36,0*67
$GPGSV,2,2,06,13,49,031,36,25,66,042,36,0*6F
$GBGSV,2,1,06,06,37,215,31,09,36,286,31,13,48,202,32,02,50,173,31,0*79
$GBGSV,2,2,06,01,,,32,04,,,31,0*77
$GAGSV,2,1,05,10,64,334,35,11,56,117,33,27,30,126,33,23,38,222,,0*7C
$GAGSV,2,2,05,24,85,019,34,0*45

$GNRMC,000138.00,A,3000.10682,N,12000.59693,E,75.916,156.76,230721,,,A,V*37
$GNGGA,000138.00,3000.10682,N,12000.59693,E,1,12,1.12,-1.4,M,,M,,*72
$GNGSA,A,3,04,07,13,02,08,25,,,,,,,2.45,1.12,2.17,1*08
$GNGSA,A,3,06,09,13,,,,,,,,,,2.45,1.12,2.17,4*0C
$GNGSA,A,3,10,11,27,,,,,,,,,,2.45,1.12,2.17,3*02

$GPGSV,2,1,06,02,32,299,36,04,51,246,36,07,84,111,37,08,47,207,35,0*67
$GPGSV,2,2,06,13,49,031,36,25,66,042,36,0*6F
$GBGSV,2,1,06,06,37,215,31,09,36,286,31,13,48,202,32,02,50,173,32,0*7A
$GBGSV,2,2,06,01,,,31,04,,,31,0*74
$GAGSV,2,1,05,10,64,334,34,11,56,117,34,27,30,126,33,23,38,222,,0*7A
$GAGSV,2,2,05,24,85,019,34,0*45

$GNRMC,000139.00,A,3000.08716,N,12000.60556,E,75.638,161.31,230721,,,A,V*37
$GNGGA,000139.00,3000.08716,N,12000.60556,E,1,12,1.12,-1.4,M,,M,,*76
$GNGSA,A,3,04,07,13,02,08,25,,,,,,,2.45,1.12,2.17,1*08
$GNGSA,A,3,06,09,13,,,,,,,,,,2.45,1.12,2.17,4*0C
$GNGSA,A,3,10,11,27,,,,,,,,,,2.45,1.12,2.17,3*02
$GPGSV,2,1,06,02,32,299,36,04,51,246,37,07,84,111,37,08,47,207,35,0*66
$GP
GSV,2,2,06,13,49,031,36,25,66,042,36,0*6F
$GBGSV,2,1,06,06,37,215,31,09,36,286,31,13,48,202,32,02,50,173,32,0*7A
$GBGSV,2,2,06,01,,,31,04,,,31,0*74
$GAGSV,2,1,05,10,64,334,34,11,56,117,34,27,30,126,33,23,38,222,,0*7A
$GAGSV,2,2,05,24,85,019,34,0*45

$GNRMC,000140.00,A,3000.06696,N,12000.61243,E,75.638,165.69,230721,,,A,V*35
$GNGGA,000140.00,3000.06696,N,12000.61243,E,1,12,1.12,-1.5,M,,M,,*7C
$GNGSA,A,3,04,07,13,02,08,25,,,,,,,2.45,1.12,2.17,1*08
$GNGSA,A,3,06,09,13,,,,,,,,,,2.45,1.12,2.17,4*0C
$GNGSA,A,3,10,11,27,,,,,,,,,,2.45,1.1
2,2.17,3*02
$GPGSV,2,1,06,02,32,299,36,04,51,246,36,07,84,110,37,08,47,207,36,0*65
$GPGSV,2,2,06,13,49,031,36,25,66,041,36,0*6C
$GBGSV,2,1,06,06,37,215,31,09,36,286,31,13,48,202,32,02,50,173,31,0*79
$GBGSV,2,2,06,01,,,31,04,,,31,0*74
$GAGSV,2,1,05,10,64,334,35,11,56,117,34,27,30,126,33,23,38,222,,0*7B
$GAGSV,2,2,05,24,85,019,34,0*45

$GNRMC,000141.00,A,3000.04635,N,12000.61752,E,75.733,170.18,230721,,,A,V*32
$GNGGA,000141.00,3000.04635,N,12000.61752,E,1,12,1.12,-1.8,M,,M,,*7E
$GNGSA,A,3,04,07,13,02,08,25,,,,,,,2.45,1.12,2.17,1*08
$GNGSA,A,3,06,09,13,,,,,,,,,,2.45,1.12,2.17,4*0C
$GNGSA,A,3,10,11,27,,,,,,,,,,2.45,1.12,2.17,3*02
$GPGSV,2,1,06,02,32,299,36,
04,51,246,36,07,84,110,36,08,47,207,36,0*64
$GPGSV,2,2,06,13,49,031,36,25,66,041,36,0*6C
$GBGSV,2,1,06,06,36,215,31,09,36,286,31,13,48,202,32,02,50,173,32,0*7B
$GBGSV,2,2,06,01,,,31,04,,,31,0*74
$GAGSV,2,1,05,10,64,334,35,11,56,117,34,27,30,126,34,23,38,222,,0*7C
$GAGSV,2,2,05,24,85,019,34,0*45

$GNRMC,000142.00,A,3000.02552,N,12000.62066,E,75.411,174.77,230721,,,A,V*38
$GNGGA,000142.00,3000.02552,N,12000.62066,E,1,12,1.12,-1.9,M,,M,,*7B
$GNGSA,A,3,04,07,13,02,08,25,,,,,,,2.44,1.12,2.17,1*09
$GNGSA,A,3,06,09,13,,,,,,,,,,2.44,1.12,2.17,4*0D
$GNGSA,A,3,10,11,27,,,,,,,,,,2.4
4,1.12,2.17,3*03
$GPGSV,2,1,06,02,32,299,35,04,51,246,35,07,84,110,36,08,47,207,36,0*64
$GPGSV,2,2,06,13,49,031,36,25,66,041,37,0*6D
$GBGSV,2,1,06,06,36,215,31,09,36,286,32,13,48,202,31,02,50,173,32,0*7B
$GBGSV,2,2,06,01,,,31,04,,,31,0*74
$GAGSV,2,1,05,10,64,334,34,11,56,117,34,27,30,126,33,23,38,222,,0*7A
$GAGSV,2,2,05,24,85,019,35,0*44

$GNRMC,000143.00,A,3000.00454,N,12000.62193,E,75.595,179.11,230721,,,A,V*37
$GNGGA,000143.00,3000.00454,N,12000.62193,E,1,12,1.12,-2.0,M,,M,,*7E
$GNGSA,A,3,04,07,13,02,08,25,,,,,,,2.44,1.12,2.17,1*09
$GNGSA,A,3,06,09,13,,,,,,,,,,2.44,1.12,2.17,4*0D
$GNGSA,A,3,10,11,27,,,,,,,,,,2.44,1.12,2.17,3*03
$GPGSV,2,
1,06,02,32,299,35,04,51,246,36,07,84,110,36,08,47,207,36,0*67
$GPGSV,2,2,06,13,49,031,36,25,66,041,37,0*6D
$GBGSV,2,1,06,06,36,215,31,09,36,286,31,13,48,202,32,02,50,173,32,0*7B
$GBGSV,2,2,06,01,,,31,04,,,31,0*74
$GAGSV,2,1,05,10,64,334,34,11,56,117,34,27,30,126,33,23,38,222,,0*7A
$GAGSV,2,2,05,24,84,019,34,0*44

$GNRMC,000144.00,A,2959.98350,N,12000.62136,E,75.504,183.61,230721,,,A,V*33
$GNGGA,000144.00,2959.98350,N,12000.62136,E,1,12,1.12,-1.7,M,,M,,*74
$GNGSA,A,3,04,07,13,02,08,25,,,,,,,2.44,1.12,2.17,1*09
$GNGSA,A,3,06,09,13,,,,,,,,,,2.44,1.12,2.17,
4*0D
$GNGSA,A,3,10,11,27,,,,,,,,,,2.44,1.12,2.17,3*03
$GPGSV,2,1,06,02,32,299,36,04,51,246,36,07,84,110,36,08,47,207,35,0*67
$GPGSV,2,2,06,13,49,031,36,25,66,041,36,0*6C
$GBGSV,2,1,06,06,36,215,31,09,36,286,31,13,48,202,32,02,50,173,32,0*7B
$GBGSV,2,2,06,01,,,31,04,,,31,0*74
$GAGSV,2,1,05,10,64,334,34,11,56,117,34,27,30,126,34,23,38,222,,0*7D
$GAGSV,2,2,05,24,84,019,34,0*44

$GNRMC,000145.00,A,2959.96259,N,12000.61883,E,75.778,188.06,230721,,,A,V*33
$GNGGA,000145.00,2959.96259,N,12000.61883,E,1,12,1.12,-1.6,M,,M,,*76
$GNGSA,A,3,04,07,13,02,08,25,,,,,,,2.44,1.12,2.17,1*09
$GNGSA,A,3,06,09,13,,,,,,,,,,2.44,1.12,2.17,4*0D
$GNGSA,A,3,10,11,27,,,,,,,,,,2.44,1.12,2.17,3*03
$GPGSV,2,1,06,02,32,299,36,04,51,246,36,07,84,110,36,08,47,207,36,0*64
$GPGSV,2,2,06,13,49,031,35,25,66
,041,36,0*6F
$GBGSV,2,1,06,06,36,215,31,09,36,286,31,13,48,202,32,02,50,173,31,0*78
$GBGSV,2,2,06,01,,,31,04,,,31,0*74
$GAGSV,2,1,05,10,64,334,34,11,56,117,34,27,30,126,34,23,39,222,,0*7C
$GAGSV,2,2,05,24,84,019,34,0*44

$GNRMC,000146.00,A,2959.94185,N,12000.61454,E,75.753,192.32,230721,,,A,V*33
$GNGGA,000146.00,2959.94185,N,12000.61454,E,1,13,1.10,-1.7,M,,M,,*71
$GNGSA,A,3,04,07,13,02,08,25,,,,,,,2.24,1.10,1.95,1*04
$GNGSA,A,3,06,09,13,,,,,,,,,,2.24,1.10,1.95,4*00
$GNGSA,A,3,10,11,27,24,,,,,,,,,2.24,1.10,1.95,3*08
$GPGSV,2,1,06,02,32,298,35,04,51,246,36,07,84,110,
36,08,47,207,36,0*66
$GPGSV,2,2,06,13,49,031,36,25,66,041,37,0*6D
$GBGSV,2,1,06,06,36,215,31,09,36,286,32,13,48,202,32,02,50,173,31,0*7B
$GBGSV,2,2,06,01,,,32,04,,,31,0*77
$GAGSV,2,1,05,10,64,334,34,11,56,117,34,24,84,019,34,27,30,126,34,0*70
$GAGSV,2,2,05,23,39,222,,0*48

$GNRMC,000147.00,A,2959.92147,N,12000.60835,E,75.881,196.86,230721,,,A,V*3B
$GNGGA,000147.00,2959.92147,N,12000.60835,E,1,13,1.10,-1.5,M,,M,,*70
$GNGSA,A,3,04,07,13,02,08,25,,,,,,,2.24,1.10,1.95,1*04
$GNGSA,A,3,06,09,13,,,,,,,,,,2.24,1.10,1.95,4*00

$GNGSA,A,3,10,11,27,24,,,,,,,,,2.24,1.10,1.95,3*08
$GPGSV,2,1,06,02,32,298,35,04,51,246,36,07,84,110,37,08,47,207,36,0*67
$GPGSV,2,2,06,13,49,031,36,25,66,041,36,0*6C
$GBGSV,2,1,06,06,36,215,31,09,36,286,31,13,48,202,32,02,50,173,32,0*7B
$GBGSV,2,2,06,01,,,31,04,,,31,0*74
$GAGSV,2,1,05,10,64,334,34,11,56,117,34,24,84,019,34,27,30,126,34,0*70
$GAGSV,2,2,05,23,39,222,,0*48

$GNRMC,000148.00,A,2959.90156,N,12000.60041,E,75.807,201.30,230721,,,A,V*33
$GNGGA,000148.00,2959.90156,N,12000.60041,E,1,13,1.10,-1.7,M,,M,,*74
$GNGSA,A,3,04,07,13,02,08,25,,,,,,,2.24,1.10,1.95,1*04
$GNGSA,A,3,06,09,13,,,,,,,,,,2.24,1.10,1.95,4*00
$GNGSA,A,3,10,11,27,24,,,,,,,,,2.24,1.10,1.95,3*08
$GPGSV,2,1,06,02,32,298,36,04,51,246,36,07,84,1
10,37,08,47,207,36,0*64
$GPGSV,2,2,06,13,49,031,36,25,66,041,35,0*6F
$GBGSV,2,1,06,06,36,215,31,09,36,286,31,13,48,202,32,02,50,173,32,0*7B
$GBGSV,2,2,06,01,,,31,04,,,31,0*74
$GAGSV,2,1,05,10,64,334,34,11,56,117,34,24,84,019,34,27,30,126,33,0*77
$GAGSV,2,2,05,23,39,222,,0*48

$GNRMC,000149.00,A,2959.88226,N,12000.59073,E,75.564,205.81,230721,,,A,V*32
$GNGGA,000149.00,2959.88226,N,12000.59073,E,1,13,1.10,-1.7,M,,M,,*73
$GNGSA,A,3,04,07,13,02,08,25,,,,,,,2.24,1.10,1.95,1*04
$GNGSA,A,3,06,09,13,,,,,,,,,,2.24,1.10,1.95,4*00
$GNGSA,A,3,10,11,27,24,,,,,,,,,2.24,1.10,1.95,3*08
$GPGSV,2,1,06,02,32,298,36,
04,51,246,36,07,84,110,36,08,47,207,36,0*65
$GPGSV,2,2,06,13,49,031,36,25,66,041,36,0*6C
$GBGSV,2,1,06,06,36,215,31,09,36,286,31,13,48,202,31,02,50,173,32,0*78
$GBGSV,2,2,06,01,,,32,04,,,31,0*77
$GAGSV,2,1,05,10,64,334,34,11,56,117,34,24,84,019,33,27,30,126,34,0*77
$GAGSV,2,2,05,23,39,222,,0*48

$GNRMC,000150.00,A,2959.86368,N,12000.57937,E,75.694,210.30,230721,,,A,V*3A
$GNGGA,000150.00,2959.86368,N,12000.57937,E,1,13,1.10,-1.7,M,,M,,*79
$GNGSA,A,3,04,07,13,02,08,25,,,,,,,2.24,1.10,1.95,1*04
$GNGSA,A,3,06,09,13,,,,,,,,,,2.24,1.10,1.95,4*00
$GNGSA,A,3,10,11,27,24,,,,,,,,,2.24,
1.10,1.95,3*08
$GPGSV,2,1,06,02,32,298,36,04,51,246,36,07,84,110,37,08,47,207,35,0*67
$GPGSV,2,2,06,13,49,031,36,25,66,041,36,0*6C
$GBGSV,2,1,06,06,36,215,31,09,36,286,31,13,48,202,32,02,50,173,32,0*7B
$GBGSV,2,2,06,01,,,31,04,,,31,0*74
$GAGSV,2,1,05,10,64,334,34,11,56,117,33,24,84,019,34,27,30,126,33,0*70
$GAGSV,2,2,05,23,39,222,,0*48

$GNRMC,000151.00,A,2959.84590,N,12000.56639,E,75.705,214.59,230721,,,A,V*3A
$GNGGA,000151.00,2959.84590,N,12000.56639,E,1,13,1.10,-1.7,M,,M,,*7B
$GNGSA,A,3,04,07,13,02,08,25,,,,,,,2.24,1.10,1.95,1*04
$GNGSA,A,3,06,09,13,,,,,,,,,,2.24,1.10,1.95,4*00
$GNGSA,A,3,10,11,27,24,,,,,,,,,2.24,1.10,1.95,3*08
$GPGSV,2,1,06,02,32,
298,35,04,51,246,36,07,84,109,36,08,47,207,36,0*6E
$GPGSV,2,2,06,13,49,031,36,25,66,041,36,0*6C
$GBGSV,2,1,06,06,36,215,31,09,36,286,31,13,48,202,32,02,50,173,32,0*7B
$GBGSV,2,2,06,01,,,31,04,,,32,0*77
$GAGSV,2,1,05,10,64,334,34,11,56,117,34,24,84,019,34,27,30,126,33,0*77
$GAGSV,2,2,05,23,39,222,,0*48

$GNRMC,000152.00,A,2959.82907,N,12000.55188,E,75.601,219.08,230721,,,A,V*3F
$GNGGA,000152.00,2959.82907,N,12000.55188,E,1,13,1.10,-1.7,M,,M,,*72
$GNGSA,A,3,04,07,13,02,08,25,,,,,,,2.24,1.10,1.95,1*04
$GNGSA,A,3,06,09,13,,,,,,,,,,2.24,1.10,1.95,4*00
$GNGSA,A,3,10,11,27,24,,,,,,,,,2.24,1.10,1.95,3*08
$GPGSV,2,1,06,02,32,298,36,04,51,246,35,07,84,109,37,08,47,207,35,0*6C
$GPGSV,2,2,06,13,49
,031,36,25,66,041,36,0*6C
$GBGSV,2,1,06,06,36,215,31,09,36,286,31,13,47,202,32,02,50,173,32,0*74
$GBGSV,2,2,06,01,,,31,04,,,32,0*77
$GAGSV,2,1,05,10,64,334,34,11,56,117,34,24,84,019,34,27,30,126,33,0*77
$GAGSV,2,2,05,23,39,222,,0*48

$GNRMC,000153.00,A,2959.81335,N,12000.53584,E,75.500,223.74,230721,,,A,V*38
$GNGGA,000153.00,2959.81335,N,12000.53584,E,1,13,1.10,-1.4,M,,M,,*76
$GNGSA,A,3,04,07,13,02,08,25,,,,,,,2.24,1.10,1.95,1*04
$GNGSA,A,3,06,09,13,,,,,,,,,,2.24,1.10,1.95
,4*00
$GNGSA,A,3,10,11,27,24,,,,,,,,,2.24,1.10,1.95,3*08
$GPGSV,2,1,06,02,32,298,35,04,51,246,36,07,84,109,36,08,47,207,36,0*6E
$GPGSV,2,2,06,13,49,031,36,25,66,041,36,0*6C
$GBGSV,2,1,06,06,36,215,31,09,36,286,31,13,47,202,32,02,50,173,32,0*74
$GBGSV,2,2,06,01,,,31,04,,,31,0*74
$GAGSV,2,1,05,10,64,334,34,11,56,117,34,24,84,019,34,27,30,126,33,0*77
$GAGSV,2,2,05,23,39,222,,0*48

$GNRMC,000154.00,A,2959.79870,N,12000.51857,E,75.510,227.95,230721,,,A,V*39
$GNGGA,000154.00,2959.79870,N,12000.51857,E,1,13,1.10,-1.6,M,,M,,*7F
$GNGSA,A,3,04,07,13,02,08,25,,,,,,,2.24,1.10,1.95,1*04
$GNGSA,A,3,06,09,13,,,,,,,,,,2.24,1.10,1.95,4*00
$GNGSA,A,3,10,11,27,24,,,,,,,,,2.24,1.10,1.95,3*08
$GPGSV,2,1,06,02,32,298,35,04,51,246,36,07,84,109,36,08,47,207,36,0*6E
$GPGSV
,2,2,06,13,49,031,35,25,66,041,36,0*6F
$GBGSV,2,1,06,06,36,215,31,09,36,286,31,13,47,202,32,02,50,173,32,0*74
$GBGSV,2,2,06,01,,,31,04,,,31,0*74
$GAGSV,2,1,05,10,64,334,34,11,56,117,34,24,84,019,34,27,30,126,33,0*77
$GAGSV,2,2,05,23,39,222,,0*48

$GNRMC,000155.00,A,2959.78521,N,12000.50009,E,75.563,232.30,230721,,,A,V*3D
$GNGGA,000155.00,2959.78521,N,12000.50009,E,1,13,1.10,-1.8,M,,M,,*7A
$GNGSA,A,3,04,07,13,02,08,25,,,,,,,2.24,1.10,1.95,1*04
$GNGSA,A,3,06,09,13,,,,,,,,,,2.24,1.10,1.95,4*00
$GNGSA,A,3,10,11,27,24,,,,,,,,,2.24,1.10,1.95,3*
08
$GPGSV,2,1,06,02,32,298,35,04,51,246,36,07,84,109,36,08,47,207,36,0*6E
$GPGSV,2,2,06,13,49,031,36,25,66,041,36,0*6C
$GBGSV,2,1,06,06,36,215,31,09,36,286,31,13,47,202,32,02,50,173,32,0*74
$GBGSV,2,2,06,01,,,32,04,,,31,0*77
$GAGSV,2,1,05,10,64,334,34,11,56,117,34,24,84,019,34,27,30,126,33,0*77
$GAGSV,2,2,05,23,39,222,,0*48

$GNRMC,000156.00,A,2959.77307,N,12000.48038,E,75.501,236.79,230721,,,A,V*35
$GNGGA,000156.00,2959.77307,N,12000.48038,E,1,13,1.10,-1.9,M,,M,,*7E
$GNGSA,A,3,04,07,13,02,08,25,,,,,,,2.24,1.10,1.95,1*04
$GNGSA,A,3,06,09,13,,,,,,,,,,2.24,1.10,1.95,4*00
$GNGSA,A,3,10,11,27,24,,,,,,,,,2.24,1.10
,1.95,3*08
$GPGSV,2,1,06,02,32,298,35,04,51,246,36,07,84,109,36,08,48,207,36,0*61
$GPGSV,2,2,06,13,49,031,36,25,66,041,36,0*6C
$GBGSV,2,1,06,06,36,215,31,09,36,286,31,13,47,202,32,02,50,173,32,0*74
$GBGSV,2,2,06,01,,,31,04,,,31,0*74
$GAGSV,2,1,05,10,64,334,34,11,56,117,34,24,84,019,34,27,30,126,33,0*77
$GAGSV,2,2,05,23,39,222,,0*48

$GNRMC,000157.00,A,2959.76232,N,12000.45962,E,75.614,241.49,230721,,,A,V*3D
$GNGGA,000157.00,2959.76232,N,12000.45962,E,1,13,1.09,-2.0,M,,M,,*70
$GNGSA,A,3,04,07,13,02,08,25,,,,,,,2.24,1.09,1.95,1*0C
$GNGSA,A,3,06,09,13,,,,,,,,,,2.24,1.09
,1.95,4*08
$GNGSA,A,3,10,11,27,24,,,,,,,,,2.24,1.09,1.95,3*00
$GPGSV,2,1,06,02,32,298,35,04,51,246,35,07,84,109,37,08,48,207,36,0*63
$GPGSV,2,2,06,13,49,031,35,25,66,041,36,0*6F
$GBGSV,2,1,06,06,36,215,31,09,36,286,31,13,47,202,32,02,50,173,32,0*74
$GBGSV,2,2,06,01,,,31,04,,,31,0*74
$GAGSV,2,1,05,10,64,334,34,11,56,117,34,24,84,019,34,27,30,126,33,0*77
$GAGSV,2,2,05,23,39,222,,0*48

$GNRMC,000158.00,A,2959.75304,N,12000.43794,E,75.477,245.94,230721,,,A,V*37
$GNGGA,000158.00,2959.75304,N,12000.43794,E,1,13,1.09,-2.2,M,,M,,*7B
$GNGSA,A,3,04,07,13,02,08,25,,,,,,,2.24,1.09,1.95,1*0C
$GNGSA,A,3,06,09,13,,,,,,,,,,2.24,1.09,1.95,4*08
$GNGSA,A,3,10,11,27,24,,,,,,,,,2.24,1.09,1.95,3*00
$GPGSV,2,1,06,02,32,298,36,04,51,246,36,07,84,109,36,08,48,207,36,0*62
$GPGSV,2,2,06,13,49,031,36,25,66,0
41,36,0*6C
$GBGSV,2,1,06,06,36,215,31,09,36,286,31,13,47,202,32,02,50,173,31,0*77
$GBGSV,2,2,06,01,,,31,04,,,31,0*74
$GAGSV,2,1,05,10,64,334,34,11,56,117,34,24,84,019,34,27,30,126,33,0*77
$GAGSV,2,2,05,23,39,223,,0*49

$GNRMC,000159.00,A,2959.74527,N,12000.41549,E,75.547,250.45,230721,,,A,V*3A
$GNGGA,000159.00,2959.74527,N,12000.41549,E,1,13,1.09,-2.1,M,,M,,*7F
$GNGSA,A,3,04,07,13,02,08,25,,,,,,,2.24,1.09,1.95,1*0C
$GNGSA,A,3,06,09,13,,,,,,,,,,2.24,1.09,1.95,4*08
$GNGSA,
A,3,10,11,27,24,,,,,,,,,2.24,1.09,1.95,3*00
$GPGSV,2,1,06,02,32,298,35,04,51,246,36,07,84,109,37,08,48,207,36,0*60
$GPGSV,2,2,06,13,49,031,35,25,66,041,36,0*6F
$GBGSV,2,1,06,06,36,215,31,09,36,286,31,13,47,202,32,02,50,173,31,0*77
$GBGSV,2,2,06,01,,,32,04,,,31,0*77
$GAGSV,2,1,05,10,64,334,34,11,56,117,34,24,84,019,34,27,30,126,33,0*77
$GAGSV,2,2,05,23,39,223,,0*49

$GNRMC,000200.00,A,2959.73899,N,12000.39251,E,75.488,254.84,230721,,,A,V*30
$GNGGA,000200.00,2959.73899,N,12000.39251,E,1,13,1.09,-2.5,M,,M,,*7A
$GNGSA,A,3,04,07,13,02,08,25,,,,,,,2.24,1.09,1.95,1*0C
$GNGSA,A,3,06,09,13,,,,,,,,,,2.24,1.09,1.95,4*08
$GNGSA,A,3,10,11,27,24,,,,,,,,,2.24,1.09,1.95,3*00
$GPGSV,2,1,06,02,32,298,35,04,51,246,36,07,84,109,37,08,48,207,
36,0*60
$GPGSV,2,2,06,13,49,031,36,25,66,041,36,0*6C
$GBGSV,2,1,06,06,36,215,31,09,36,286,32,13,47,202,32,02,50,173,32,0*77
$GBGSV,2,2,06,01,,,32,04,,,31,0*77
$GAGSV,2,1,05,10,64,334,34,11,56,117,34,24,84,019,34,27,30,126,33,0*77
$GAGSV,2,2,05,23,39,223,,0*49

$GNRMC,000201.00,A,2959.73432,N,12000.36893,E,75.587,259.29,230721,,,A,V*33
$GNGGA,000201.00,2959.73432,N,12000.36893,E,1,13,1.09,-2.2,M,,M,,*7A
$GNGSA,A,3,04,07,13,02,08,25,,,,,,,2.24,1.09,1.95,1*0C
$GNGSA,A,3,06,09,13,,,,,,,,,,2.24,1.09,1.95,4*08
$GNGSA,A,3,10,11,27,24,,,,,,,,,2.24,1.09,1.95,3*00
$GPGSV,2,1,06,02,32,298,35,04,51,246,36,07,84,108,36,08,48,207,36
,0*60
$GPGSV,2,2,06,13,49,031,35,25,66,041,36,0*6F
$GBGSV,2,1,06,06,36,215,31,09,36,286,31,13,47,202,32,02,50,173,31,0*77
$GBGSV,2,2,06,01,,,32,04,,,31,0*77
$GAGSV,2,1,05,10,64,334,34,11,55,117,34,24,84,019,34,27,30,126,34,0*73
$GAGSV,2,2,05,23,39,223,,0*49

$GNRMC,000202.00,A,2959.73121,N,12000.34504,E,75.654,263.74,230721,,,A,V*3A
$GNGGA,000202.00,2959.73121,N,12000.34504,E,1,13,1.09,-2.2,M,,M,,*7F
$GNGSA,A,3,04,07,13,02,08,25,,,,,,,2.24,1.09,1.95,1*0C
$GNGSA,A,3,06,09,13,,,,,,,,,,2.24,1.09,1.95,4*08
$GNGSA,A,3,10,11,27,24,,,,,,,,,2.24,1.09,1.95,3*00
$GPGSV,2,1,06,02,32,298,3
6,04,51,246,36,07,84,108,37,08,48,207,36,0*62
$GPGSV,2,2,06,13,49,031,36,25,66,041,36,0*6C
$GBGSV,2,1,06,06,36,215,31,09,36,286,31,13,47,202,32,02,50,173,32,0*74
$GBGSV,2,2,06,01,,,31,04,,,31,0*74
$GAGSV,2,1,05,10,64,334,34,11,55,117,34,24,84,019,35,27,30,126,33,0*75
$GAGSV,2,2,05,23,39,223,,0*49

$GNRMC,000203.00,A,2959.72973,N,12000.32092,E,75.755,268.27,230721,,,A,V*34
$GNGGA,000203.00,2959.72973,N,12000.32092,E,1,13,1.09,-2.3,M,,M,,*7D
$GNGSA,A,3,04,07,13,02,08,25,,,,,,,2.24,1.09,1.95,1*0C
$GNGSA,A,3,06,09,13,,,,,,,,,,2.24,1.09,1.95,4*08
$GNGSA,A,3,10,11,27,24,,,,,,,,,2.24,1.09,1.95,3*00
$GPGSV,2,1,06,02,32,298,35,04,5
1,246,36,07,84,108,37,08,48,207,36,0*61
$GPGSV,2,2,06,13,49,031,35,25,66,041,37,0*6E
$GBGSV,2,1,06,06,36,215,31,09,36,286,31,13,47,202,32,02,50,173,32,0*74
$GBGSV,2,2,06,01,,,31,04,,,31,0*74
$GAGSV,2,1,05,10,64,334,34,11,55,117,34,24,84,019,35,27,30,126,33,0*75
$GAGSV,2,2,05,23,39,223,,0*49

$GNRMC,000204.00,A,2959.72994,N,12000.29668,E,75.854,272.77,230721,,,A,V*33
$GNGGA,000204.00,2959.72994,N,12000.29668,E,1,13,1.09,-2.0,M,,M,,*79
$GNGSA,A,3,04,07,13,02,08,25,,,,,,,2.24,1.09,1.95,1*0C
$GNGSA,A,3,06,09,13,,,,,,,,,,2.24,1.09,1.95,4*08
$GNGSA,A,3,10,11,27,24,,,,,,,,,2.24,1.09,
1.95,3*00
$GPGSV,2,1,06,02,32,298,35,04,51,245,36,07,84,108,36,08,48,207,36,0*63
$GPGSV,2,2,06,13,49,031,35,25,66,041,36,0*6F
$GBGSV,2,1,06,06,36,215,32,09,36,286,31,13,47,202,32,02,50,173,31,0*74
$GBGSV,2,2,06,01,,,31,04,,,31,0*74
$GAGSV,2,1,05,10,64,334,35,11,55,118,34,24,84,019,34,27,30,126,34,0*7D
$GAGSV,2,2,05,23,39,223,,0*49

$GNRMC,000205.00,A,2959.73179,N,12000.27257,E,75.611,277.19,230721,,,A,V*3C
$GNGGA,000205.00,2959.73179,N,12000.27257,E,1,13,1.09,-2.2,M,,M,,*76
$GNGSA,A,3,04,07,13,02,08,25,,,,,,,2.24,1.09,1.95,1*0C
$GNGSA,A,3,06,09,13,,,,,,,,,,2.24,1.09,1.95,4*08
$GNGSA,A,3,10,11,27,24,,,,,,,,,2.24,1.09,1.95,3*00
$GPGSV,2,1,06,02,
32,298,36,04,51,245,36,07,84,108,36,08,48,207,36,0*60
$GPGSV,2,2,06,13,49,031,36,25,66,041,36,0*6C
$GBGSV,2,1,06,06,36,215,31,09,36,286,31,13,47,202,32,02,50,173,32,0*74
$GBGSV,2,2,06,01,,,31,04,,,31,0*74
$GAGSV,2,1,05,10,64,334,34,11,55,118,34,24,84,019,35,27,30,126,34,0*7D
$GAGSV,2,2,05,23,39,223,,0*49

$GNRMC,000206.00,A,2959.73524,N,12000.24875,E,75.498,281.68,230721,,,A,V*36
$GNGGA,000206.00,2959.73524,N,12000.24875,E,1,13,1.09,-2.2,M,,M,,*70
$GNGSA,A,3,04,07,13,02,08,25,,,,,,,2.24,1.09,1.95,1*0C
$GNGSA,A,3,06,09,13,,,,,,,,,,2.24,1.09,1.95,4*08
$GNGSA,A,3,10,11,27,24,,,,,,,,,2.24,1.09
,1.95,3*00
$GPGSV,2,1,06,02,32,298,35,04,51,245,35,07,84,108,36,08,48,207,35,0*63
$GPGSV,2,2,06,13,49,031,35,25,65,041,37,0*6D
$GBGSV,2,1,06,06,36,215,31,09,36,286,31,13,47,202,32,02,50,173,32,0*74
$GBGSV,2,2,06,01,,,31,04,,,31,0*74
$GAGSV,2,1,05,10,64,334,34,11,55,118,34,24,84,019,34,27,30,126,33,0*7B
$GAGSV,2,2,05,23,39,223,,0*49

$GNRMC,000207.00,A,2959.74032,N,12000.22526,E,75.454,286.04,230721,,,A,V*32
$GNGGA,000207.00,2959.74032,N,12000.22526,E,1,13,1.09,-2.1,M,,M,,*7A
$GNGSA,A,3,04,07,13,02,08,25,,,,,,,2.24,1.09,1.95,1*0C
$GNGSA,A,3,06,09,13,,,,,,,,,,2.24,1.09,1.95,4*08
$GNGS
A,A,3,10,11,27,24,,,,,,,,,2.24,1.09,1.95,3*00
$GPGSV,2,1,06,02,32,298,35,04,51,245,36,07,84,108,36,08,48,207,36,0*63
$GPGSV,2,2,06,13,49,031,36,25,65,041,36,0*6F
$GBGSV,2,1,06,06,36,215,31,09,36,286,31,13,47,202,32,02,50,173,32,0*74
$GBGSV,2,2,06,01,,,31,04,,,31,0*74
$GAGSV,2,1,05,10,64,334,34,11,55,118,34,24,84,019,34,27,30,126,33,0*7B
$GAGSV,2,2,05,23,39,223,,0*49

$GNRMC,000208.00,A,2959.74696,N,12000.20228,E,75.775,290.63,230721,,,A,V*38
$GNGGA,000208.00,2959.74696,N,12000.20228,E,1,13,1.09,-1.7,M,,M,,*73
$GNGSA,A,3,04,07,13,02,08,25,,,,,,,2.24,1.09,1.95,1*0C
$GNGSA,A,3,06,09,13,,,,,,,,,,2.24,1.09,1.95,4*08
$GNGSA,A,3,10,11,27,24,,,,,,,,,2.24,1.09,1.95,3*00
$GPGSV,2,1,06,02,32,298,35,04,51,245,37,07,84,108,37,08,48,207,35,0
*60
$GPGSV,2,2,06,13,49,031,36,25,65,041,36,0*6F
$GBGSV,2,1,06,06,36,215,31,09,36,286,31,13,47,202,32,02,50,173,31,0*77
$GBGSV,2,2,06,01,,,31,04,,,31,0*74
$GAGSV,2,1,05,10,64,334,34,11,55,118,34,24,84,019,35,27,30,126,33,0*7A
$GAGSV,2,2,05,23,39,223,,0*49

$GNRMC,000209.00,A,2959.75519,N,12000.17987,E,75.939,295.07,230721,,,A,V*37
$GNGGA,000209.00,2959.75519,N,12000.17987,E,1,13,1.09,-1.3,M,,M,,*79
$GNGSA,A,3,04,07,13,02,08,25,,,,,,,2.24,1.09,1.95,1*0C
$GNGSA,A,3,06,09,13,,,,,,,,,,2.24,1.09,1.95,4*08
$GNG
SA,A,3,10,11,27,24,,,,,,,,,2.24,1.09,1.95,3*00
$GPGSV,2,1,06,02,32,298,36,04,51,245,36,07,84,108,37,08,48,207,36,0*61
$GPGSV,2,2,06,13,49,031,36,25,65,041,36,0*6F
$GBGSV,2,1,06,06,36,215,31,09,36,286,31,13,47,202,31,02,50,173,32,0*77
$GBGSV,2,2,06,01,,,31,04,,,31,0*74
$GAGSV,2,1,05,10,64,334,34,11,55,118,34,24,84,019,34,27,30,126,33,0*7B
$GAGSV,2,2,05,23,39,223,,0*49

$GNRMC,000210.00,A,2959.76491,N,12000.15829,E,75.769,299.46,230721,,,A,V*38
$GNGGA,000210.00,2959.76491,N,12000.15829,E,1,13,1.09,-1.3,M,,M,,*74
$GNGSA,A,3,04,07,13,02,08,25,,,,,,,2.24,1.09,1.95,1*0C
$GNGSA,A,3,06,09,13,,,,,,,,,,2.24,1.09,1.95,4*08
$GNGSA,A,3,10,11,27,24,,,,,,,,,2.24,1.09,1.95,3*00
$GPGSV,2,1,06,02,32,298,35,04,51,245,35,07,84,108,37,08,48
,207,36,0*61
$GPGSV,2,2,06,13,49,031,36,25,65,041,36,0*6F
$GBGSV,2,1,06,06,36,215,31,09,36,286,31,13,47,202,32,02,50,173,31,0*77
$GBGSV,2,2,06,01,,,31,04,,,31,0*74
$GAGSV,2,1,05,10,64,334,34,11,55,118,35,24,84,019,34,27,30,126,34,0*7D
$GAGSV,2,2,05,23,39,223,,0*49

$GNRMC,000211.00,A,2959.77597,N,12000.13771,E,75.825,303.77,230721,,,A,V*3C
$GNGGA,000211.00,2959.77597,N,12000.13771,E,1,13,1.09,-1.7,M,,M,,*73
$GNGSA,A,3,04,07,13,02,08,25,,,,,,,2.24,1.09,1.95,1*0C
$GNGSA,A,3,06,09,13,,,,,,,,,,2.24,1.09,1.95,4*08
$GNGSA,A,3,10,11,27,24,,,,,,,,,2.24,1.09,1.95,3*00
$GPGSV,2,1,06,02,32,298,35,04,51,245,36,07,84,108,3
6,08,48,207,36,0*63
$GPGSV,2,2,06,13,49,031,35,25,65,041,36,0*6C
$GBGSV,2,1,06,06,36,215,31,09,36,286,31,13,47,202,32,02,50,173,31,0*77
$GBGSV,2,2,06,01,,,31,04,,,31,0*74
$GAGSV,2,1,05,10,64,334,34,11,55,118,34,24,84,019,34,27,30,126,33,0*7B
$GAGSV,2,2,05,23,39,223,,0*49

$GNRMC,000212.00,A,2959.78837,N,12000.11804,E,75.601,308.11,230721,,,A,V*3B
$GNGGA,000212.00,2959.78837,N,12000.11804,E,1,13,1.09,-1.4,M,,M,,*74
$GNGSA,A,3,04,07,13,02,08,25,,,,,,,2.24,1.09,1.95,1*0C
$GNGSA,A,3,06,09,13,,,,,,,,,,2.24,1.09,1.95,4*08
$GNGSA,A,3,10,11,27,24,,,,,,,,,2.24,1
.09,1.95,3*00
$GPGSV,2,1,06,02,32,298,36,04,51,245,36,07,84,107,37,08,48,207,35,0*6D
$GPGSV,2,2,06,13,49,031,37,25,65,041,36,0*6E
$GBGSV,2,1,06,06,36,215,31,09,36,286,31,13,47,202,32,02,50,173,31,0*77
$GBGSV,2,2,06,01,,,31,04,,,31,0*74
$GAGSV,2,1,05,10,64,334,34,11,55,118,34,24,84,019,34,27,30,126,34,0*7C
$GAGSV,2,2,05,23,39,223,,0*49

$GNRMC,000213.00,A,2959.80205,N,12000.09962,E,75.649,312.76,230721,,,A,V*38
$GNGGA,000213.00,2959.80205,N,12000.09962,E,1,13,1.09,-1.3,M,,M,,*76
$GNGSA,A,3,04,07,13,02,08,25,,,,,,,2.24,1.09,1.95,1*0C
$GNGSA,A,3,06,09,13,,,,,,,,,,2.24,1.09,1.95,4*08
$GNGSA,A,3,10,11,27,24,,,,,,,,,2.24,1.09,1.95,3*00
$GPGSV,2,1,06,02,32,298,36,
04,51,245,36,07,84,107,37,08,48,207,36,0*6E
$GPGSV,2,2,06,13,49,031,35,25,65,041,36,0*6C
$GBGSV,2,1,06,06,36,215,31,09,36,286,32,13,47,202,32,02,50,173,31,0*74
$GBGSV,2,2,06,01,,,31,04,,,31,0*74
$GAGSV,2,1,05,10,64,334,34,11,55,118,34,24,84,019,34,27,30,126,33,0*7B
$GAGSV,2,2,05,23,39,223,,0*49

$GNRMC,000214.00,A,2959.81690,N,12000.08260,E,75.442,317.18,230721,,,A,V*3A
$GNGGA,000214.00,2959.81690,N,12000.08260,E,1,13,1.09,-1.6,M,,M,,*75
$GNGSA,A,3,04,07,13,02,08,25,,,,,,,2.24,1.09,1.95,1*0C
$GNGSA,A,3,06,09,13,,,,,,,,,,2.24,1.09,1.95,4*08
$GNGSA,A,3
,10,11,27,24,,,,,,,,,2.24,1.09,1.95,3*00
$GPGSV,2,1,06,02,32,298,35,04,51,245,36,07,84,107,36,08,48,207,35,0*6F
$GPGSV,2,2,06,13,49,031,36,25,65,041,36,0*6F
$GBGSV,2,1,06,06,36,215,31,09,36,286,31,13,47,202,31,02,50,173,31,0*74
$GBGSV,2,2,06,01,,,31,04,,,31,0*74
$GAGSV,2,1,05,10,64,334,33,11,55,118,34,24,84,019,34,27,30,126,34,0*7B
$GAGSV,2,2,05,23,39,223,,0*49

$GNRMC,000215.00,A,2959.83292,N,12000.06689,E,75.945,321.74,230721,,,A,V*37
$GNGGA,000215.00,2959.83292,N,12000.06689,E,1,13,1.09,-1.6,M,,M,,*7D
$GNGSA,A,3,04,07,13,02,08,25,,,,,,,2.24,1.09,1.95,1*0C
$GNGSA,A,3,06,09,13,,,,,,,,,,2.24,1.09,1.95,4*08
$GNGSA,A,3,10,11,27,24,,,,,,,,,2.2
4,1.09,1.95,3*00
$GPGSV,2,1,06,02,32,298,35,04,51,245,36,07,84,107,36,08,48,207,35,0*6F
$GPGSV,2,2,06,13,49,031,36,25,65,041,36,0*6F
$GBGSV,2,1,06,06,36,215,31,09,36,286,31,13,47,202,32,02,50,173,32,0*74
$GBGSV,2,2,06,01,,,31,04,,,31,0*74
$GAGSV,2,1,05,10,64,334,34,11,55,118,34,24,84,019,34,27,30,126,33,0*7B
$GAGSV,2,2,05,23,39,223,,0*49

$GNRMC,000216.00,A,2959.85003,N,12000.05256,E,75.868,326.10,230721,,,A,V*36
$GNGGA,000216.00,2959.85003,N,12000.05256,E,1,13,1.09,-1.0,M,,M,,*71
$GNGSA,A,3,04,07,13,02,08,25,,,,,,,2.24,1.09,1.95,1*0C
$GNGSA,A,3,06,09,13,,,,,,,,,,2.24,1.09,1.95,4*08
$GNGSA,A,3,10,11,27,24,,,,,,,,,2.24,1.09,1.95,3*00
$GPGSV,2,1,06,02,32,298,35,04,51,245,36,07,84,107,36,08,48,207,36,0*6C
$GPGSV,2,2,06,13,49,031,36,25,65,041
,36,0*6F
$GBGSV,2,1,06,06,36,215,31,09,36,286,31,13,47,202,32,02,50,173,31,0*77
$GBGSV,2,2,06,01,,,31,04,,,31,0*74
$GAGSV,2,1,05,10,64,334,34,11,55,118,33,24,84,019,34,27,30,126,33,0*7C
$GAGSV,2,2,05,23,39,223,,0*49

$GNRMC,000217.00,A,2959.86795,N,12000.03994,E,75.742,330.53,230721,,,A,V*38
$GNGGA,000217.00,2959.86795,N,12000.03994,E,1,13,1.09,-1.4,M,,M,,*7C
$GNGSA,A,3,04,07,13,02,08,25,,,,,,,2.24,1.09,1.95,1*0C
$GNGSA,A,3,06,09,13,,,,,,,,,,2.24,1.09,1.95
,4*08
$GNGSA,A,3,10,11,27,24,,,,,,,,,2.24,1.09,1.95,3*00
$GPGSV,2,1,06,02,32,298,35,04,51,245,36,07,84,107,37,08,48,207,35,0*6E
$GPGSV,2,2,06,13,49,031,36,25,65,041,36,0*6F
$GBGSV,2,1,06,06,36,215,31,09,36,286,31,13,47,202,32,02,50,173,31,0*77
$GBGSV,2,2,06,01,,,31,04,,,31,0*74
$GAGSV,2,1,05,10,64,334,34,11,55,118,34,24,84,019,34,27,30,126,34,0*7C
$GAGSV,2,2,05,23,39,223,,0*49

$GNRMC,000218.00,A,2959.88667,N,12000.02897,E,75.616,335.07,230721,,,A,V*32
$GNGGA,000218.00,2959.88667,N,12000.02897,E,1,13,1.09,-1.7,M,,M,,*71
$GNGSA,A,3,04,07,13,02,08,25,,,,,,,2.24,1.09,1.95,1*0C
$GNGSA,A,3,06,09,13,,,,,,,,,,2.24,1.09,1.95,4*08
$GNGSA,A,3,10,11,27,24,,,,,,,,,2.24,1.09,1.95,3*00
$GPGSV,2,1,06,02,32,298,36,04,51,245,37,07,84,107,36,0
8,48,207,35,0*6D
$GPGSV,2,2,06,13,49,031,36,25,65,041,36,0*6F
$GBGSV,2,1,06,06,36,215,31,09,36,286,31,13,47,202,32,02,50,173,31,0*77
$GBGSV,2,2,06,01,,,31,04,,,31,0*74
$GAGSV,2,1,05,10,64,334,34,11,55,118,34,24,84,019,34,27,30,126,33,0*7B
$GAGSV,2,2,05,23,39,223,,0*49

$GNRMC,000219.00,A,2959.90605,N,12000.01971,E,75.440,339.55,230721,,,A,V*3E
$GNGGA,000219.00,2959.90605,N,12000.01971,E,1,13,1.09,-1.9,M,,M,,*79
$GNGSA,A,3,04,07,13,02,08,25,,,,,,,2.24,1.09,1.95,1*0C
$GNGSA,A,3,06,09,13,,,,,,,,,,2.24,1.09,1.95,4*08
$GNGSA,A,3,10,11,27
,24,,,,,,,,,2.24,1.09,1.95,3*00
$GPGSV,2,1,06,02,32,298,36,04,51,245,36,07,84,107,37,08,48,207,36,0*6E
$GPGSV,2,2,06,13,49,031,36,25,65,041,36,0*6F
$GBGSV,2,1,06,06,36,215,31,09,36,286,31,13,47,202,32,02,50,173,31,0*77
$GBGSV,2,2,06,01,,,31,04,,,31,0*74
$GAGSV,2,1,05,10,64,334,34,11,55,118,33,24,84,019,34,27,30,126,33,0*7C
$GAGSV,2,2,05,23,39,223,,0*49

$GNRMC,000220.00,A,2959.92599,N,12000.01211,E,75.576,343.98,230721,,,A,V*35
$GNGGA,000220.00,2959.92599,N,12000.01211,E,1,13,1.17,-1.3,M,,M,,*7F
$GNGSA,A,3,04,07,13,02,08,25,,,,,,,2.32,1.17,2.00,1*0B
$GNGSA,A,3,06,09,13,,,,,,,,,,2.32,1.17,2.00,4*0F
$GNGSA,A,3,10,11,27,24,,,,,,,,,2.32,1.17,2.00,3*07
$GPGSV,2,1,06,02,32,298,36,04,51,245,36,07,84,107,36,08,48,207,35,0*6C

$GPGSV,2,2,06,13,49,031,36,25,65,041,36,0*6F
$GBGSV,2,1,06,06,36,215,31,09,36,286,31,13,47,202,32,02,50,173,31,0*77
$GBGSV,2,2,06,01,,,31,04,,,31,0*74
$GAGSV,2,1,05,11,55,118,34,24,84,019,35,27,30,126,33,10,64,334,34,0*7A
$GAGSV,2,2,05,23,39,223,,0*49

$GNRMC,000221.00,A,2959.94643,N,12000.00631,E,75.667,348.30,230721,,,A,V*3B
$GNGGA,000221.00,2959.94643,N,12000.00631,E,1,13,1.09,-1.0,M,,M,,*77
$GNGSA,A,3,04,07,13,02,08,25,,,,,,,2.24,1.09,1.95,1*0C
$GNGSA,A,3,06,09,13,,,,,,,,,,2.24,1.09,1.95,4*08
$GNGSA,A,3,10,11,27,24,,,,,,,,,2.24,1.09,1.95,3*00
$GPGSV,2,1,06,02,32,298,35,04,51,245,36,07,84,107,36,08,48,207,36,0*6C
$GPGSV,2,2,06,13,49,031,36,25,6
5,041,36,0*6F
$GBGSV,2,1,06,06,36,215,31,09,36,286,31,13,47,202,32,02,50,173,32,0*74
$GBGSV,2,2,06,01,,,31,04,,,32,0*77
$GAGSV,2,1,05,10,64,334,34,11,55,118,34,24,84,019,34,27,30,126,33,0*7B
$GAGSV,2,2,05,23,39,223,,0*49

$GNRMC,000222.00,A,2959.96719,N,12000.00239,E,75.693,352.93,230721,,,A,V*31
$GNGGA,000222.00,2959.96719,N,12000.00239,E,1,13,1.09,-0.8,M,,M,,*7D
$GNGSA,A,3,04,07,13,02,08,25,,,,,,,2.24,1.09,1.95,1*0C
$GNGSA,A,3,06,09,13,,,,,,,,,,2.24,1.09,1.95,4*08
$GNGSA,A,3,10,11,27,24,,,,,,,,,2.24,1.09,1.95,3*00
$GPGSV,2,1,06,02,32,298,36,04,51,245,36,07,84,107,37,08,48,207,35,0*6D
$GPGSV,
2,2,06,13,49,031,36,25,65,041,36,0*6F
$GBGSV,2,1,06,06,36,215,31,09,36,286,31,13,47,202,32,02,50,173,31,0*77
$GBGSV,2,2,06,01,,,32,04,,,31,0*77
$GAGSV,2,1,05,10,64,334,33,11,55,118,34,24,84,019,34,27,30,126,33,0*7C
$GAGSV,2,2,05,23,39,223,,0*49

$GNRMC,000223.00,A,2959.98820,N,12000.00031,E,75.804,357.33,230721,,,A,V*3E
$GNGGA,000223.00,2959.98820,N,12000.00031,E,1,13,1.09,-0.4,M,,M,,*71
$GNGSA,A,3,04,07,13,02,08,25,,,,,,,2.24,1.09,1.95,1*0C
$GNGSA,A,3,06,09,13,,,,,,,,,,2.24,1.09,1.95,4*08
$GNGSA,A,3,10,11,27,24,,,,,,,,,2.24,1.09,1.95,3*00
$GPGSV,2,1,06,02,32,298,35,04,51,245,36,07,84,106,36,08,48,207,35,0*
6E
$GPGSV,2,2,06,13,49,031,36,25,65,041,36,0*6F
$GBGSV,2,1,06,06,36,215,31,09,36,286,31,13,47,202,32,02,50,173,31,0*77
$GBGSV,2,2,06,01,,,31,04,,,31,0*74
$GAGSV,2,1,05,10,64,334,34,11,55,118,34,24,84,019,34,27,30,126,33,0*7B
$GAGSV,2,2,05,23,39,223,,0*49

$GNRMC,000224.00,A,3000.00924,N,12000.00021,E,75.697,1.82,230721,,,A,V*36
$GNGGA,000224.00,3000.00924,N,12000.00021,E,1,13,1.09,-0.4,M,,M,,*77
$GNGSA,A,3,04,07,13,02,08,25,,,,,,,2.24,1.09,1.95,1*0C
$GNGSA,A,3,06,09,13,,,,,,,,,,2.24,1.09,1.95,4*08
$GNGSA,A,3,10,11,27,24,,,,,,,,,2.24,1.09,1.95,3*00
$GPGSV,2,1,06,02,32,298,35,04,51,245,36,07,84,106,36,08,48,207,36,0*6D
$GPGSV,2,2,06,13
,49,031,36,25,65,041,36,0*6F
$GBGSV,2,1,06,06,36,215,31,09,36,286,31,13,47,201,31,02,50,173,31,0*77
$GBGSV,2,2,06,01,,,31,04,,,31,0*74
$GAGSV,2,1,05,10,64,334,34,11,55,118,34,24,84,019,34,27,30,126,33,0*7B
$GAGSV,2,2,05,23,39,223,,0*49

$GNRMC,000225.00,A,3000.03021,N,12000.00194,E,75.608,6.09,230721,,,A,V*35
$GNGGA,000225.00,3000.03021,N,12000.00194,E,1,13,1.09,-0.5,M,,M,,*77
$GNGSA,A,3,04,07,13,02,08,25,,,,,,,2.24,1.09,1.95,1*0C
$GNGSA,A,3,06,09,13,,,,,,,,,,2.24,1.09,1.95,4*08
$GNGSA,A,3,10,11,27,24,,,,,,,,,2.24,1.09,1.95,3*00
$GP
GSV,2,1,06,02,32,298,35,04,51,245,36,07,84,106,36,08,48,207,36,0*6D
$GPGSV,2,2,06,13,49,031,36,25,65,041,36,0*6F
$GBGSV,2,1,06,06,36,215,31,09,36,286,31,13,47,201,32,02,50,173,31,0*74
$GBGSV,2,2,06,01,,,31,04,,,31,0*74
$GAGSV,2,1,05,10,64,334,34,11,55,118,35,24,84,019,34,27,30,126,33,0*7A
$GAGSV,2,2,05,23,39,223,,0*49

$GNRMC,000226.00,A,3000.05100,N,12000.00552,E,75.777,10.65,230721,,,A,V*08
$GNGGA,000226.00,3000.05100,N,12000.00552,E,1,13,1.09,-0.3,M,,M,,*78
$GNGSA,A,3,04,07,13,02,08,25,,,,,,,2.24,1.09,1.95,1*0C
$GNGSA,A,3,06,09,13,,,,,,,,,,2.24,1.09,1.95,4*08
$GNGSA,A,3,10,11,27,24,,,,,,,,,2.24,1.09,1.95,3*00
$GPGSV,2,1,06,02,32,298,36,04,51,245,36,07,84,106,36,08,48,207,
36,0*6E
$GPGSV,2,2,06,13,49,031,36,25,65,041,36,0*6F
$GBGSV,2,1,06,06,36,215,31,09,36,286,31,13,47,201,32,02,50,173,31,0*74
$GBGSV,2,2,06,01,,,31,04,,,32,0*77
$GAGSV,2,1,05,10,64,334,34,11,55,118,34,24,84,019,35,27,30,126,33,0*7A
$GAGSV,2,2,05,23,39,223,,0*49

$GNRMC,000227.00,A,3000.07152,N,12000.01095,E,75.589,15.33,230721,,,A,V*06
$GNGGA,000227.00,3000.07152,N,12000.01095,E,1,13,1.09,-0.1,M,,M,,*71
$GNGSA,A,3,04,07,13,02,08,25,,,,,,,2.24,1.09,1.95,1*0C
$GNGSA,A,3,06,09,13,,,,,,,,,,2.24,1.09,1.95,4*08
$GNGSA,A,3,10,11,27,24,,,,,,,,,2.24,1.09,1.95,3*00

$GPGSV,2,1,06,02,32,298,35,04,51,245,35,07,84,106,36,08,48,207,36,0*6E
$GPGSV,2,2,06,13,49,031,35,25,65,041,36,0*6C
$GBGSV,2,1,06,06,36,215,31,09,36,286,31,13,47,201,32,02,50,173,31,0*74
$GBGSV,2,2,06,01,,,31,04,,,31,0*74
$GAGSV,2,1,05,10,64,334,35,11,55,118,34,24,84,019,35,27,30,126,34,0*7C
$GAGSV,2,2,05,23,39,223,,0*49

$GNRMC,000228.00,A,3000.09159,N,12000.01827,E,75.846,19.61,230721,,,A,V*08
$GNGGA,000228.00,3000.09159,N,12000.01827,E,1,13,1.09,-0.3,M,,M,,*78
$GNGSA,A,3,04,07,13,02,08,25,,,,,,,2.24,1.09,1.95,1*0C
$GNGSA,A,3,06,09,13,,,,,,,,,,2.24,1.09,1.95,4*08
$GNGSA,A,3,10,11,27,24,,,,,,,,,2.24,1.09,1.95,3*00
$GPGSV,2,1,06,02,32,298,36,04,51
,245,36,07,84,106,36,08,48,207,35,0*6D
$GPGSV,2,2,06,13,49,031,36,25,65,041,36,0*6F
$GBGSV,2,1,06,06,36,215,31,09,36,286,31,13,47,201,32,02,50,173,31,0*74
$GBGSV,2,2,06,01,,,31,04,,,31,0*74
$GAGSV,2,1,05,10,64,334,34,11,55,118,34,24,84,019,34,27,30,126,33,0*7B
$GAGSV,2,2,05,23,39,223,,0*49

$GNRMC,000229.00,A,3000.11112,N,12000.02739,E,75.767,24.17,230721,,,A,V*0F
$GNGGA,000229.00,3000.11112,N,12000.02739,E,1,13,1.09,-0.5,M,,M,,*7A
$GNGSA,A,3,04,07,13,02,08,25,,,,,,,2.24,1.09,1.95,1*0C
$GNGSA,A,3,06,09,13,,,,,,,,,,2.24,1.09,1.95,4*08
$GNGSA,A,3,10,11,27,24,,,,,,,,,2.24,1.09,1.95,3*00
$GPGSV,2,1,06,02,32,298,35,04,51,245,36,07,84,106,3
6,08,48,207,36,0*6D
$GPGSV,2,2,06,13,49,031,36,25,65,041,36,0*6F
$GBGSV,2,1,06,06,36,215,31,09,36,286,31,13,47,201,32,02,50,173,31,0*74
$GBGSV,2,2,06,01,,,31,04,,,31,0*74
$GAGSV,2,1,05,10,64,334,34,11,55,118,34,24,84,019,34,27,30,126,33,0*7B
$GAGSV,2,2,05,23,39,223,,0*49

$GNRMC,000230.00,A,3000.12998,N,12000.03814,E,75.632,28.59,230721,,,A,V*08
$GNGGA,000230.00,3000.12998,N,12000.03814,E,1,13,1.09,-0.3,M,,M,,*7C
$GNGSA,A,3,04,07,13,02,08,25,,,,,,,2.24,1.09,1.95,1*0C
$GNGSA,A,3,06,09,13,,,,,,,,,,2.24,1.09,1.95,4*08
$GNGSA,A,
3,10,11,27,24,,,,,,,,,2.24,1.09,1.95,3*00
$GPGSV,2,1,06,02,32,298,35,04,51,245,36,07,84,106,37,08,48,207,35,0*6F
$GPGSV,2,2,06,13,49,031,36,25,65,041,36,0*6F
$GBGSV,2,1,06,06,36,215,31,09,36,286,31,13,47,201,32,02,50,173,31,0*74
$GBGSV,2,2,06,01,,,31,04,,,31,0*74
$GAGSV,2,1,05,10,64,334,34,11,55,118,34,24,84,019,34,27,30,126,33,0*7B
$GAGSV,2,2,05,23,39,223,,0*49

$GNRMC,000231.00,A,3000.14807,N,12000.05052,E,75.631,32.82,230721,,,A,V*0A
$GNGGA,000231.00,3000.14807,N,12000.05052,E,1,13,1.09,-0.4,M,,M,,*77
$GNGSA,A,3,04,07,13,02,08,25,,,,,,,2.24,1.09,1.95,1*0C
$GNGSA,A,3,06,09,13,,,,,,,,,,2.24,1.09,1.95,4*08
$GNGSA,A,3,10,11,27,24,,,,,,,,,2.24,1.09,1.95,3*00
$GPGSV,2,1,06,02,32,
298,35,04,51,245,36,07,84,106,37,08,48,207,36,0*6C
$GPGSV,2,2,06,13,49,031,36,25,65,041,36,0*6F
$GBGSV,2,1,06,06,36,215,31,09,36,286,31,13,47,201,32,02,50,173,31,0*74
$GBGSV,2,2,06,01,,,31,04,,,31,0*74
$GAGSV,2,1,05,10,64,334,34,11,55,118,34,24,84,019,34,27,30,126,33,0*7B
$GAGSV,2,2,05,23,39,223,,0*49

$GNRMC,000232.00,A,3000.16529,N,12000.06443,E,75.761,37.31,230721,,,A,V*04
$GNGGA,000232.00,3000.16529,N,12000.06443,E,1,13,1.09,-0.1,M,,M,,*75
$GNGSA,A,3,04,07,13,02,08,25,,,,,,,2.24,1.09,1.95,1*0C
$GNGSA,A,3,06,09,13,,,,,,,,,,2.24,1.09,1.95,4*08
$GNGSA,A,3,10,11,27,24,,,,,,,,,2.24,1.09,1.9
5,3*00
$GPGSV,2,1,06,02,32,298,35,04,51,245,36,07,84,106,36,08,48,207,36,0*6D
$GPGSV,2,2,06,13,49,031,36,25,65,041,36,0*6F
$GBGSV,2,1,06,06,36,215,31,09,36,286,31,13,47,201,32,02,50,173,31,0*74
$GBGSV,2,2,06,01,,,31,04,,,31,0*74
$GAGSV,2,1,05,10,64,334,34,11,55,118,34,24,84,019,35,27,30,126,33,0*7A
$GAGSV,2,2,05,23,39,223,,0*49

$GNRMC,000233.00,A,3000.18147,N,12000.07987,E,75.523,41.89,230721,,,A,V*05
$GNGGA,000233.00,3000.18147,N,12000.07987,E,1,13,1.09,0.1,M,,M,,*5F
$GNGSA,A,3,04,07,13,02,08,25,,,,,,,2.24,1.09,1.95,1*0C
$GNGSA,A,3,06,09,13,,,,,,,,,,2.24,1.09,1.95,4*08
$GNGSA,A,3,10,11,27,24,,,,,,,,,2.24,1.09,1.95,3*00
$GPGSV,2,1,06,02,32,298,36,04,51,245,36,07,84,106,36,08,48,207,36,0*6E
$GPGSV,2,2,06,13,49,0
31,36,25,65,041,36,0*6F
$GBGSV,2,1,06,06,36,215,31,09,36,286,31,13,47,201,31,02,50,173,31,0*77
$GBGSV,2,2,06,01,,,31,04,,,31,0*74
$GAGSV,2,1,05,10,64,334,34,11,55,118,33,24,84,019,34,27,30,126,33,0*7C
$GAGSV,2,2,05,23,39,223,,0*49

$GNRMC,000234.00,A,3000.19656,N,12000.09671,E,75.632,46.33,230721,,,A,V*09
$GNGGA,000234.00,3000.19656,N,12000.09671,E,1,13,1.09,0.3,M,,M,,*54
$GNGSA,A,3,04,07,13,02,08,25,,,,,,,2.24,1.09,1.95,1*0C
$GNGSA,A,3,06,09,13,,,,,,,,,,2.24,1.09,1.95,4*08
$GNGSA,A,3,10,11,27,24,,,,,,,,,2.24,1.09,1.95,3*00
$GPGSV,2,
1,06,02,32,298,35,04,51,245,36,07,84,105,36,08,48,207,35,0*6D
$GPGSV,2,2,06,13,49,031,36,25,65,041,36,0*6F
$GBGSV,2,1,06,06,36,215,31,09,36,286,31,13,47,201,32,02,50,173,32,0*77
$GBGSV,2,2,06,01,,,31,04,,,31,0*74
$GAGSV,2,1,05,10,64,334,34,11,55,118,34,24,84,019,34,27,30,126,33,0*7B
$GAGSV,2,2,05,23,39,223,,0*49

$GNRMC,000235.00,A,3000.21047,N,12000.11484,E,75.625,50.85,230721,,,A,V*08
$GNGGA,000235.00,3000.21047,N,12000.11484,E,1,13,1.09,0.3,M,,M,,*59
$GNGSA,A,3,04,07,13,02,08,25,,,,,,,2.24,1.09,1.95,1*0C
$GNGSA,A,3,06,09,13,,,,,,,,,,2.24,1.09,1.95,4*08
$GNGSA,A,3,10,11,27,24,,,,,,,,,2.24,1.09,1.95,3*00
$GPGSV,2,1,06
,02,32,298,35,04,51,245,36,07,84,105,37,08,48,207,35,0*6C
$GPGSV,2,2,06,13,49,031,35,25,65,041,36,0*6C
$GBGSV,2,1,06,06,36,215,31,09,36,286,31,13,47,201,32,02,50,173,31,0*74
$GBGSV,2,2,06,01,,,31,04,,,31,0*74
$GAGSV,2,1,05,10,64,334,34,11,55,118,34,24,84,019,34,27,30,126,34,0*7C
$GAGSV,2,2,05,23,39,223,,0*49

$GNRMC,000236.00,A,3000.22312,N,12000.13411,E,75.639,55.16,230721,,,A,V*07
$GNGGA,000236.00,3000.22312,N,12000.13411,E,1,13,1.09,0.6,M,,M,,*51
$GNGSA,A,3,04,07,13,02,08,25,,,,,,,2.24,1.09,1.95,1*0C
$GNGSA,A,3,06,09,13,,,,,,,,,,2.24,1.09,1.95,4*08
$GNGSA,A,3,10,11,27,24,,,,,,,,,2.24,1.09,1.95,3*00
$GPGSV,2,1,06,02,32,298,36,04,51,245,36,07,84,105,36,08,48,207,36,0*6D
$GPGSV
,2,2,06,13,49,031,36,25,65,041,36,0*6F
$GBGSV,2,1,06,06,36,215,31,09,36,286,31,13,47,201,32,02,50,173,31,0*74
$GBGSV,2,2,06,01,,,31,04,,,31,0*74
$GAGSV,2,1,05,10,64,334,34,11,55,118,33,24,84,019,34,27,30,126,33,0*7C
$GAGSV,2,2,05,23,39,223,,0*49

$GNRMC,000237.00,A,3000.23446,N,12000.15446,E,75.591,59.67,230721,,,A,V*0E
$GNGGA,000237.00,3000.23446,N,12000.15446,E,1,13,1.09,0.5,M,,M,,*50
$GNGSA,A,3,04,07,13,02,08,25,,,,,,,2.24,1.09,1.95,1*0C
$GNGSA,A,3,06,09,13,,,,,,,,,,2.24,1.09,1.95,4*08
$GNGSA,A,3,10,11
,27,24,,,,,,,,,2.24,1.09,1.95,3*00
$GPGSV,2,1,06,02,32,298,35,04,51,245,36,07,84,105,36,08,48,207,36,0*6E
$GPGSV,2,2,06,13,49,031,36,25,65,041,36,0*6F
$GBGSV,2,1,06,06,36,215,31,09,36,286,31,13,47,201,32,02,50,173,31,0*74
$GBGSV,2,2,06,01,,,31,04,,,31,0*74
$GAGSV,2,1,05,10,64,334,34,11,55,118,34,24,84,019,35,27,30,126,33,0*7A
$GAGSV,2,2,05,23,39,223,,0*49

$GNRMC,000238.00,A,3000.24440,N,12000.17571,E,75.736,64.11,230721,,,A,V*07
$GNGGA,000238.00,3000.24440,N,12000.17571,E,1,13,1.09,0.8,M,,M,,*54
$GNGSA,A,3,04,07,13,02,08,25,,,,,,,2.24,1.09,1.95,1*0C
$GNGSA,A,3,06,09,13,,,,,,,,,,2.24,1.09,1.95,4*08
$GNGSA,A,3,10,11,27,24,,,,,,,,,2.24,1.09,1.95,3*00
$GPGSV,2,1,06,02,32,298,36,04,51,245,
36,07,84,105,36,08,48,207,36,0*6D
$GPGSV,2,2,06,13,49,031,36,25,65,041,36,0*6F
$GBGSV,2,1,06,06,36,215,31,09,36,286,31,13,47,201,32,02,50,173,31,0*74
$GBGSV,2,2,06,01,,,31,04,,,31,0*74
$GAGSV,2,1,05,10,64,334,34,11,55,118,33,24,84,019,34,27,30,126,33,0*7C
$GAGSV,2,2,05,23,39,223,,0*49

$GNRMC,000239.00,A,3000.25276,N,12000.19792,E,75.685,68.81,230721,,,A,V*09
$GNGGA,000239.00,3000.25276,N,12000.19792,E,1,12,1.26,0.5,M,,M,,*57
$GNGSA,A,3,04,07,13,02,08,25,,,,,,,3.31,1.26,3.06,1*0C
$GNGSA,A,3,06,09,13,,,,,,,,,,3.31,1.26,3.06,4*08
$GNGSA,A,3,10,11,24,,,,,,,,,,3.31,1.26,3.06,3*05
$GPGSV,2,1,06,
02,32,298,35,04,51,245,35,07,84,105,36,08,48,207,36,0*6D
$GPGSV,2,2,06,13,49,031,35,25,65,041,37,0*6D
$GBGSV,2,1,06,06,36,215,31,09,36,286,31,13,47,201,32,02,50,173,31,0*74
$GBGSV,2,2,06,01,,,31,04,,,31,0*74
$GAGSV,2,1,05,10,64,334,34,11,55,118,35,24,84,019,34,23,39,223,,0*71
$GAGSV,2,2,05,27,30,126,,0*42

$GNRMC,000240.00,A,3000.25962,N,12000.22071,E,75.540,73.10,230721,,,A,V*03
$GNGGA,000240.00,3000.25962,N,12000.22071,E,1,12,1.26,0.8,M,,M,,*58
$GNGSA,A,3,04,07,13,02,08,25,,,,,,,3.31,1.26,3.06,1*0C
$GNGSA,A,3,06,09,13,,,,,,,,,,3.31,1.26,3.06,4*08
$GNGSA,A,3,10,11,24,,,,,,,,,,3.31,1.26,3.06,3*05
$GPGSV,2,1,06,02,32,298,36,04,51,245,35,07,84,105,36,08,48,207,36,0*6E
$GPGSV,2,2,06,13,49,031,36,25,65
,041,36,0*6F
$GBGSV,2,1,06,06,36,215,31,09,36,286,31,13,47,201,32,02,50,173,31,0*74
$GBGSV,2,2,06,01,,,31,04,,,31,0*74
$GAGSV,2,1,05,10,64,334,34,11,55,118,34,24,84,019,34,23,39,223,,0*70
$GAGSV,2,2,05,27,30,126,,0*42

$GNRMC,000241.00,A,3000.26489,N,12000.24410,E,75.458,77.59,230721,,,A,V*0D
$GNGGA,000241.00,3000.26489,N,12000.24410,E,1,12,1.26,0.8,M,,M,,*57
$GNGSA,A,3,04,07,13,02,08,25,,,,,,,3.31,1.26,3.06,1*0C
$GNGSA,A,3,06,09,13,,,,,,,,,,3.31,1.26,3.06,4*08
$GNG
SA,A,3,10,11,24,,,,,,,,,,3.31,1.26,3.06,3*05
$GPGSV,2,1,06,02,32,298,35,04,51,245,36,07,84,105,36,08,48,207,36,0*6E
$GPGSV,2,2,06,13,49,031,36,25,65,041,36,0*6F
$GBGSV,2,1,06,06,36,215,31,09,36,286,31,13,47,201,31,02,50,173,31,0*77
$GBGSV,2,2,06,01,,,31,04,,,31,0*74
$GAGSV,2,1,05,10,64,334,34,11,55,118,35,24,84,019,34,23,39,223,,0*71
$GAGSV,2,2,05,27,30,126,,0*42

$GNRMC,000242.00,A,3000.26859,N,12000.26786,E,75.635,82.02,230721,,,A,V*0C
$GNGGA,000242.00,3000.26859,N,12000.26786,E,1,12,1.26,0.8,M,,M,,*5B
$GNGSA,A,3,04,07,13,02,08,25,,,,,,,3.31,1.26,3.06,1*0C
$GNGSA,A,3,06,09,13,,,,,,,,,,3.31,1.26,3.06,4*08
$GNGSA,A,3,10,11,24,,,,,,,,,,3.31,1.26,3.06,3*05
$GPGSV,2,1,06,02,32,298,36,04,51,245,37,07,84,105,36,08,48,207,36,0*6C
$GPGSV,2,2,06,13,49,031,37
,25,65,041,36,0*6E
$GBGSV,2,1,06,06,36,215,31,09,36,286,31,13,47,201,32,02,50,173,31,0*74
$GBGSV,2,2,06,01,,,31,04,,,31,0*74
$GAGSV,2,1,05,10,64,334,33,11,55,118,34,24,84,019,34,23,39,223,,0*77
$GAGSV,2,2,05,27,30,126,,0*42

$GNRMC,000243.00,A,3000.27061,N,12000.29205,E,75.907,86.66,230721,,,A,V*06
$GNGGA,000243.00,3000.27061,N,12000.29205,E,1,12,1.26,0.3,M,,M,,*52
$GNGSA,A,3,04,07,13,02,08,25,,,,,,,3.31,1.26,3.06,1*0C
$GNGSA,A,3,06,09,13,,,,,,,,,,3.31,1.26,3.06,4*08
$GNGSA,A,3,10,11,24,,,,,,,,
,,3.31,1.26,3.06,3*05
$GPGSV,2,1,06,02,32,298,36,04,51,245,36,07,84,105,36,08,48,207,35,0*6E
$GPGSV,2,2,06,13,49,031,36,25,65,041,36,0*6F
$GBGSV,2,1,06,06,36,215,32,09,36,286,31,13,47,201,32,02,50,173,31,0*77
$GBGSV,2,2,06,01,,,31,04,,,31,0*74
$GAGSV,2,1,05,10,64,334,34,11,55,118,34,24,84,019,34,23,39,223,,0*70
$GAGSV,2,2,05,27,30,126,,0*42

$GNRMC,000244.00,A,3000.27103,N,12000.31624,E,75.616,90.97,230721,,,A,V*0C
$GNGGA,000244.00,3000.27103,N,12000.31624,E,1,12,1.26,0.5,M,,M,,*58
$GNGSA,A,3,04,07,13,02,08,25,,,,,,,3.31,1.26,3.06,1*0C
$GNGSA,A,3,06,09,13,,,,,,,,,,3.31,1.26,3.06,4*08
$GNGSA,A,3,10,11,24,,,,,,,,,,3.31,1.26,3.06,3*05
$GPGSV,2,1,06,02,32,298,36,04,51,245,36,07,84,105,37,08
,48,207,36,0*6C
$GPGSV,2,2,06,13,49,031,36,25,65,041,36,0*6F
$GBGSV,2,1,06,06,36,215,31,09,36,286,31,13,47,201,32,02,50,173,31,0*74
$GBGSV,2,2,06,01,,,31,04,,,31,0*74
$GAGSV,2,1,05,10,64,334,34,11,55,118,35,24,84,018,34,23,39,223,,0*70
$GAGSV,2,2,05,27,30,126,,0*42

$GNRMC,000245.00,A,3000.26981,N,12000.34045,E,75.886,95.45,230721,,,A,V*07
$GNGGA,000245.00,3000.26981,N,12000.34045,E,1,12,1.26,0.3,M,,M,,*58
$GNGSA,A,3,04,07,13,02,08,25,,,,,,,3.31,1.26,3.06,1*0C
$GNGSA,A,3,06,09,13,,,,,,,,,,3.31,1.26,3.06,4*08
$GNGSA,A,3,10,11,24,,,,,,,,,,3.31,1.26,3.06,3*05
$GPGSV,2,1,06,02,32,298,36,04,51,245,
36,07,84,104,37,08,48,207,36,0*6D
$GPGSV,2,2,06,13,49,031,36,25,65,041,37,0*6E
$GBGSV,2,1,06,06,36,215,31,09,36,286,31,13,47,201,32,02,50,173,31,0*74
$GBGSV,2,2,06,01,,,31,04,,,31,0*74
$GAGSV,2,1,05,10,64,334,34,11,55,118,34,24,84,018,34,23,39,223,,0*71
$GAGSV,2,2,05,27,30,126,,0*42

$GNRMC,000246.00,A,3000.26693,N,12000.36452,E,75.812,100.07,230721,,,A,V*3E
$GNGGA,000246.00,3000.26693,N,12000.36452,E,1,12,1.26,-0.2,M,,M,,*7B
$GNGSA,A,3,04,07,13,02,08,25,,,,,,,3.31,1.26,3.06,1*0C
$GNGSA,A,3,06,09,13,,,,,,,,,,3.31,1.26,3.06,4*08
$GNGSA,A,3,10,11,24,,,,,,,,,,3.31,1.26,3.06,3*05

$GPGSV,2,1,06,02,32,298,35,04,51,245,36,07,84,104,36,08,48,207,36,0*6F
$GPGSV,2,2,06,13,49,032,36,25,65,041,36,0*6C
$GBGSV,2,1,06,06,36,215,31,09,36,286,31,13,47,201,32,02,50,173,31,0*74
$GBGSV,2,2,06,01,,,31,04,,,31,0*74
$GAGSV,2,1,05,10,64,334,33,11,55,118,34,24,84,018,34,23,39,223,,0*76
$GAGSV,2,2,05,27,30,126,34,0*45

$GNRMC,000247.00,A,3000.26244,N,12000.38821,E,75.881,104.46,230721,,,A,V*3C
$GNGGA,000247.00,3000.26244,N,12000.38821,E,1,12,1.26,-0.4,M,,M,,*74
$GNGSA,A,3,04,07,13,02,08,25,,,,,,,3.31,1.26,3.06,1*0C
$GNGSA,A,3,06,09,13,,,,,,,,,,3.31,1.26,3.06,4*08
$GNGSA,A,3,10,11,24,,,,,,,,,,3.31,1.26,3.06,3*05
$GPGSV,2,1,06,02,32,298,35,0
4,51,245,36,07,84,104,36,08,48,207,35,0*6C
$GPGSV,2,2,06,13,49,032,35,25,65,041,35,0*6C
$GBGSV,2,1,06,06,36,215,31,09,36,286,31,13,47,201,32,02,50,173,31,0*74
$GBGSV,2,2,06,01,,,31,04,,,31,0*74
$GAGSV,2,1,05,10,64,334,34,11,55,118,34,24,84,018,34,23,39,223,,0*71
$GAGSV,2,2,05,27,30,126,33,0*42

$GNRMC,000248.00,A,3000.25643,N,12000.41136,E,75.654,108.71,230721,,,A,V*3C
$GNGGA,000248.00,3000.25643,N,12000.41136,E,1,12,1.26,-0.3,M,,M,,*7D
$GNGSA,A,3,04,07,13,02,08,25,,,,,,,3.31,1.26,3.06,1*0C
$GNGSA,A,3,06,09,13,,,,,,,,,,3.31,1.26,3.06,4*08
$GNGSA,A,3,10,11,24,,,,,,,,,,3.31,1.26,3.06,3*05
$GPGSV,2,1,06,02,3
2,298,35,04,51,245,36,07,84,104,36,08,48,207,36,0*6F
$GPGSV,2,2,06,13,49,032,35,25,65,041,36,0*6F
$GBGSV,2,1,06,06,36,215,31,09,36,286,32,13,47,201,32,02,50,173,31,0*77
$GBGSV,2,2,06,01,,,31,04,,,31,0*74
$GAGSV,2,1,05,10,64,334,34,11,55,118,33,24,84,018,34,23,39,223,,0*76
$GAGSV,2,2,05,27,30,126,35,0*44

$GNRMC,000249.00,A,3000.24894,N,12000.43385,E,75.611,113.16,230721,,,A,V*3A
$GNGGA,000249.00,3000.24894,N,12000.43385,E,1,12,1.26,-0.1,M,,M,,*73
$GNGSA,A,3,04,07,13,02,08,25,,,,,,,3.31,1.26,3.06,1*0C
$GNGSA,A,3,06,09,13,,,,,,,,,,3.31,1.26,3.06,4*08
$GNGSA,A,3,10,11,24,,,,,,,,,,3.31,1.26,3.06,3*05
$GPGSV,2,1,06,02,32,298,36,04,51,245,36,07,84,104,36,08,48,207,3
6,0*6C
$GPGSV,2,2,06,13,49,032,36,25,65,041,36,0*6C
$GBGSV,2,1,06,06,36,215,31,09,36,286,31,13,47,201,32,02,50,173,31,0*74
$GBGSV,2,2,06,01,,,31,04,,,32,0*77
$GAGSV,2,1,05,10,64,334,34,11,55,118,34,24,84,018,34,23,39,223,,0*71
$GAGSV,2,2,05,27,30,126,33,0*42

$GNRMC,000250.00,A,3000.23995,N,12000.45555,E,75.492,117.78,230721,,,A,V*3D
$GNGGA,000250.00,3000.23995,N,12000.45555,E,1,12,1.26,0.2,M,,M,,*5F
$GNGSA,A,3,04,07,13,02,08,25,,,,,,,3.31,1.26,3.06,1*0C
$GNGSA,A,3,06,09,13,,,,,,,,,,3.31,1.26,3.06,4*08
$GNGSA,A,3,10,11,24
,,,,,,,,,,3.31,1.26,3.06,3*05
$GPGSV,2,1,06,02,32,298,35,04,51,245,35,07,84,104,36,08,48,207,36,0*6C
$GPGSV,2,2,06,13,49,032,35,25,65,041,35,0*6C
$GBGSV,2,1,06,06,36,215,31,09,36,286,32,13,47,201,31,02,50,173,32,0*77
$GBGSV,2,2,06,01,,,31,04,,,31,0*74
$GAGSV,2,1,05,10,64,334,34,11,55,118,34,24,84,018,34,23,39,223,,0*71
$GAGSV,2,2,05,27,30,126,33,0*42

$GNRMC,000251.00,A,3000.22941,N,12000.47648,E,75.691,122.27,230721,,,A,V*34
$GNGGA,000251.00,3000.22941,N,12000.47648,E,1,12,1.26,0.1,M,,M,,*58
$GNGSA,A,3,04,07,13,02,08,25,,,,,,,3.31,1.26,3.06,1*0C
$GNGSA,A,3,06,09,13,,,,,,,,,,3.31,1.26,3.06,4*08
$GNGSA,A,3,10,11,24,,,,,,,,,,3.31,1.26,3.06,3*05
$GPGSV,2,1,06,02,3
2,298,35,04,51,245,35,07,84,104,36,08,48,207,36,0*6C
$GPGSV,2,2,06,13,48,032,36,25,65,041,36,0*6D
$GBGSV,2,1,06,06,36,215,31,09,36,286,31,13,47,201,32,02,50,173,31,0*74
$GBGSV,2,2,06,01,,,31,04,,,31,0*74
$GAGSV,2,1,05,10,64,334,34,11,55,118,34,24,84,018,34,23,39,223,,0*71
$GAGSV,2,2,05,27,30,126,33,0*42

$GNRMC,000252.00,A,3000.21752,N,12000.49646,E,75.681,126.56,230721,,,A,V*3B
$GNGGA,000252.00,3000.21752,N,12000.49646,E,1,12,1.26,-0.2,M,,M,,*7A
$GNGSA,A,3,04,07,13,02,08,25,,,,,,,3.31,1.26,3.06,1*0C
$GNGSA,A,3,06,09,13,,,,,,,,,,3.31,1.26,3.06,4*08
$GNGSA,A,3,10,11,24,,,,,,,,,,3
.31,1.26,3.06,3*05
$GPGSV,2,1,06,02,32,298,35,04,51,245,36,07,84,104,36,08,48,207,36,0*6F
$GPGSV,2,2,06,13,48,032,35,25,65,041,36,0*6E
$GBGSV,2,1,06,06,36,215,31,09,36,286,31,13,47,201,32,02,50,173,31,0*74
$GBGSV,2,2,06,01,,,32,04,,,31,0*77
$GAGSV,2,1,05,10,64,334,34,11,55,118,34,24,84,018,34,23,39,223,,0*71
$GAGSV,2,2,05,27,30,126,33,0*42

$GNRMC,000253.00,A,3000.20432,N,12000.51532,E,75.612,130.98,230721,,,A,V*38
$GNGGA,000253.00,3000.20432,N,12000.51532,E,1,12,1.26,-0.6,M,,M,,*72
$GNGSA,A,3,04,07,13,02,08,25,,,,,,,3.31,1.26,3.06,1*0C
$GNGSA,A,3,06,09,13,,,,,,,,,,3.31,1.26,3.06,4*08
$GNGSA,A,3
,10,11,24,,,,,,,,,,3.31,1.26,3.06,3*05
$GPGSV,2,1,06,02,32,298,35,04,51,245,36,07,84,104,37,08,48,207,36,0*6E
$GPGSV,2,2,06,13,48,032,35,25,65,041,36,0*6E
$GBGSV,2,1,06,06,36,215,31,09,36,286,31,13,47,201,32,02,50,173,31,0*74
$GBGSV,2,2,06,01,,,31,04,,,31,0*74
$GAGSV,2,1,05,10,64,334,34,11,55,118,34,24,84,018,34,23,39,223,,0*71
$GAGSV,2,2,05,27,30,126,33,0*42

$GNRMC,000254.00,A,3000.18991,N,12000.53286,E,75.586,135.65,230721,,,A,V*33
$GNGGA,000254.00,3000.18991,N,12000.53286,E,1,12,1.26,-0.7,M,,M,,*71
$GNGSA,A,3,04,07,13,02,08,25,,,,,,,3.31,1.26,3.06,1*0C
$GNGSA,A,3,06,09,13,,,,,,,,,,3.31,1.26,3.06,4*08
$GNGSA,A,3,10,11,24,,,,,,,,,,3.
31,1.26,3.06,3*05
$GPGSV,2,1,06,02,32,298,36,04,51,245,36,07,84,104,36,08,48,207,35,0*6F
$GPGSV,2,2,06,13,48,032,36,25,65,041,36,0*6D
$GBGSV,2,1,06,06,36,215,31,09,36,286,31,13,47,201,32,02,50,173,31,0*74
$GBGSV,2,2,06,01,,,31,04,,,31,0*74
$GAGSV,2,1,05,10,64,334,34,11,55,118,34,24,84,018,34,23,39,223,,0*71
$GAGSV,2,2,05,27,30,126,34,0*45

$GNRMC,000255.00,A,3000.17437,N,12000.54896,E,75.807,140.01,230721,,,A,V*34
$GNGGA,000255.00,3000.17437,N,12000.54896,E,1,12,1.26,-0.1,M,,M,,*74
$GNGSA,A,3,04,07,13,02,08,25,,,,,,,3.31,1.26,3.06,1*0C
$GNGSA,A,3,06,09,13,,,,,,,,,,3.31,1.26,3.06,4*08
$GNGSA,A,3,10,11,24,,,,,,,,,,3.31,1.26,3.06,3*05
$GPGSV,2,1,06,02,32,298,36,04,51,245,36,07,84,104,36,08,48,207,36,0*6C
$GPGSV,2,2,06,13,48,032,36,25,6
5,041,36,0*6D
$GBGSV,2,1,06,06,36,215,31,09,36,286,31,13,47,201,32,02,50,173,31,0*74
$GBGSV,2,2,06,01,,,31,04,,,31,0*74
$GAGSV,2,1,05,10,64,334,34,11,55,118,33,24,84,018,34,23,39,223,,0*76
$GAGSV,2,2,05,27,30,126,33,0*42

$GNRMC,000256.00,A,3000.15766,N,12000.56389,E,75.979,144.45,230721,,,A,V*39
$GNGGA,000256.00,3000.15766,N,12000.56389,E,1,13,1.09,-0.6,M,,M,,*7E
$GNGSA,A,3,04,07,13,02,08,25,,,,,,,2.24,1.09,1.95,1*0C
$GNGSA,A,3,06,09,13,,,,,,,,,,2.24,1.09,1.95,4*08
$GNGSA,A
,3,10,11,27,24,,,,,,,,,2.24,1.09,1.95,3*00
$GPGSV,2,1,06,02,32,298,35,04,51,245,35,07,84,103,36,08,48,207,36,0*6B
$GPGSV,2,2,06,13,48,032,35,25,65,041,36,0*6E
$GBGSV,2,1,06,06,36,215,31,09,36,286,32,13,47,201,32,02,50,173,32,0*74
$GBGSV,2,2,06,01,,,31,04,,,31,0*74
$GAGSV,2,1,05,10,64,334,34,11,55,118,34,24,84,018,34,27,30,126,34,0*7D
$GAGSV,2,2,05,23,39,223,,0*49

$GNRMC,000257.00,A,3000.14006,N,12000.57723,E,75.861,148.78,230721,,,A,V*37
$GNGGA,000257.00,3000.14006,N,12000.57723,E,1,13,1.09,-0.7,M,,M,,*7B
$GNGSA,A,3,04,07,13,02,08,25,,,,,,,2.24,1.09,1.95,1*0C
$GNGSA,A,3,06,09,13,,,,,,,,,,2.24,1.09,1.95,4*08
$GNGSA,A,3,10,11,27,24,,,,,,,,,2.24,1.09,1.95,3*00
$GPGSV,2,1,06,02,32,298,36,04,51,245,36,07,84,103,
36,08,48,207,36,0*6B
$GPGSV,2,2,06,13,48,032,37,25,65,041,36,0*6C
$GBGSV,2,1,06,06,36,215,31,09,36,286,31,13,47,201,32,02,50,173,32,0*77
$GBGSV,2,2,06,01,,,31,04,,,31,0*74
$GAGSV,2,1,05,10,64,334,34,11,55,118,34,24,84,018,35,27,30,126,33,0*7B
$GAGSV,2,2,05,23,39,223,,0*49

$GNRMC,000258.00,A,3000.12163,N,12000.58893,E,75.799,153.31,230721,,,A,V*38
$GNGGA,000258.00,3000.12163,N,12000.58893,E,1,13,1.09,-0.8,M,,M,,*74
$GNGSA,A,3,04,07,13,02,08,25,,,,,,,2.24,1.09,1.95,1*0C
$GNGSA,A,3,06,09,13,,,,,,,,,,2.24,1.09,1.95,4*08
$GNGSA,A,3,10,11,27,24,,,,,,,,,2.24,1.09,1.95,3*00
$GPGSV,2,1,06,02,32,298,35,04,51,245,35,07,84,103,37,08
,48,207,36,0*6A
$GPGSV,2,2,06,13,48,032,36,25,65,041,36,0*6D
$GBGSV,2,1,06,06,36,215,31,09,36,286,31,13,47,201,32,02,50,173,32,0*77
$GBGSV,2,2,06,01,,,31,04,,,31,0*74
$GAGSV,2,1,05,10,64,334,34,11,55,118,33,24,84,018,34,27,30,126,33,0*7D
$GAGSV,2,2,05,23,39,223,,0*49

