$GNRMC,000045.00,A,2959.99970,N,12000.00016,E,0.310,,230721,,,A,V*1F
$GNGGA,000045.00,2959.99970,N,12000.00016,E,1,13,0.86,0.5,M,,M,,*59
$GNGSA,A,3,04,07,02,08,13,20,23,25,27,,,,1.60,0.86,1.35,1*05
$GNGSA,A,3,14,13,06,09,,,,,,,,,1.60,0.86,1.35,4*02
$GNGSA,A,3,,,,,,,,,,,,,1.60,0.
86,1.35,3*0D
$GPGSV,4,1,13,02,32,299,35,04,51,246,36,07,84,115,36,08,47,207,36,0*60
$GPGSV,4,2,13,13,49,030,36,20,23,121,35,23,27,056,35,25,66,042,36,0*6A
$GPGSV,4,3,13,27,18,218,35,42,48,143,,50,45,136,,40,13,256,,0*6A
$GPGSV,4,4,13,41,36,236,,0*50
$GBGSV,3,1,09,06,37,215,31,09,36,287,32,13,48,202,32,14,09,164,31,0*78
$GBGSV,3,2,09,01,37,122,31,02,50,173,32,04,36,125,31,11,18,131,,0*75
$GBGSV,3,3,09,12,10,060,,0*4A
$GAGSV,1,1,00,0*74

$GNRMC,000046.00,A,2959.99985,N,12000.00004,E,0.138,,230721,,,A,V*1D
$GNGGA,000046.00,2959.99985,N,12000.00004,E,1,14,0.83,0.0,M,,M,,*54
$GNGSA,A,3,04,07,02,08,13,20,23,25,27,,,,1.58,0.83,1.34,1*0A
$GNGSA,A,3,14,13,06,09,11,,,,,,,,1.58,0.83,1.34,4*0D
$
GNGSA,A,3,,,,,,,,,,,,,1.58,0.83,1.34,3*02
$GPGSV,4,1,13,02,32,299,36,04,51,246,36,07,84,115,36,08,47,207,36,0*63
$GPGSV,4,2,13,13,49,030,36,20,23,121,35,23,27,056,35,25,66,042,36,0*6A
$GPGSV,4,3,13,27,18,218,35,42,48,143,,50,45,136,,40,13,256,,0*6A
$GPGSV,4,4,13,41,36,236,,0*50
$GBGSV,3,1,09,06,37,215,31,09,36,286,32,11,18,131,30,13,48,202,32,0*7D
$GBGSV,3,2,09,14,09,164,31,01,37,122,31,02,50,173,32,04,36,125,31,0*72
$GBGSV,3,3,09,12,10,060,,0*4A
$GAGSV,1,1,00,0*74

$GNRMC,000047.00,A,2959.99982,N,12000.00012,E,0.102,,230721,,,A,V*15
$GNGGA,000047.00,2959.99982,N,12000.00012,E,1,14,0.83,0.0,M,,M,,*55
$GNGSA,A,3,04,07,02,08,13,20,23,25,27,,,,1.58,0.83,1.34,1*0A
$GNGSA,A,3,14,13,06,09,11,,,,,,,,1.58,0.83,1.34,4*0D
$GNGSA,A,3,,,,,,,,,,,,,1.58,0.83,1.34,3*02
$GPGSV,4,1,13,02,32,299,35,04,51,246,35,07,84,115,36,08,47,207,36,0*63
$GPGSV,4,2,13,13,49,030,36,20,23,121,
35,23,27,056,35,25,66,042,36,0*6A
$GPGSV,4,3,13,27,18,218,36,42,48,143,,50,45,136,,40,13,256,,0*69
$GPGSV,4,4,13,41,36,236,,0*50
$GBGSV,3,1,09,06,37,215,31,09,36,286,31,11,18,131,31,13,48,202,32,0*7F
$GBGSV,3,2,09,14,09,164,30,01,37,122,31,02,50,173,32,04,36,125,31,0*73
$GBGSV,3,3,09,12,10,060,,0*4A
$GAGSV,1,1,00,0*74

$GNRMC,000048.00,A,2959.99985,N,12000.00012,E,0.039,,230721,,,A,V*14
$GNGGA,000048.00,2959.99985,N,12000.00012,E,1,14,0.83,0.4,M,,M,,*59
$GNGSA,A,3,04,07,02,08,13,20,23,25,27,,,,1.58,0.83,1.34,1*0A
$GNGSA,A,3,14,13,06,09,11,,,,,,,,1.58,0.83,1.34,4*0D
$GNGSA,A,3,,,,,,,,,,,,,1.58,0.83,1.34,3*02
$
GPGSV,4,1,13,02,32,299,35,04,51,246,35,07,84,115,37,08,47,207,35,0*61
$GPGSV,4,2,13,13,49,030,36,20,23,121,36,23,27,056,35,25,66,042,37,0*68
$GPGSV,4,3,13,27,18,218,35,42,48,143,,50,45,136,,40,13,256,,0*6A
$GPGSV,4,4,13,41,36,236,,0*50
$GBGSV,3,1,09,06,37,215,32,09,36,286,31,11,18,131,31,13,48,202,32,0*7C
$GBGSV,3,2,09,14,09,164,30,01,37,122,31,02,50,173,32,04,36,125,31,0*73
$GBGSV,3,3,09,12,10,060,,0*4A
$GAGSV,1,1,00,0*74

$GNRMC,000049.00,A,2959.99984,N,12000.00012,E,0.047,,230721,,,A,V*1D
$GNGGA,000049.00,2959.99984,N,12000.00012,E,1,14,0.83,0.6,M,,M,,*5B
$GNGSA,A,3,04,07,02,08,13,20,23,25,27,,,,1.58,0.83,1.34,1*0A
$GNGSA,A,3,14,13,06,09,11,,,,,,,,1.58,0.83,1.34,4*0D
$GNGSA
,A,3,,,,,,,,,,,,,1.58,0.83,1.34,3*02
$GPGSV,4,1,13,02,32,299,35,04,51,246,35,07,84,115,36,08,47,207,36,0*63
$GPGSV,4,2,13,13,49,030,35,20,23,121,35,23,27,056,35,25,66,042,36,0*69
$GPGSV,4,3,13,27,18,218,35,42,48,143,,50,45,136,,40,13,256,,0*6A
$GPGSV,4,4,13,41,36,236,,0*50
$GBGSV,3,1,09,06,37,215,31,09,36,286,31,11,18,131,31,13,48,202,32,0*7F
$GBGSV,3,2,09,14,08,164,30,01,37,122,31,02,50,173,32,04,36,125,31,0*72
$GBGSV,3,3,09,12,10,060,,0*4A
$GAGSV,1,1,00,0*74

$GNRMC,000050.00,A,2959.99990,N,12000.00009,E,0.072,,230721,,,A,V*1C
$GNGGA,000050.00,2959.99990,N,12000.00009,E,1,15,0.75,0.4,M,,M,,*56
$GNGSA,A,3,04,07,02,08,13,20,23,25,27,,,,1.46,0.75,1.26,1*0F
$GNGSA,A,3,14,13,06,09,11,12,,,,,,,1.46,0.75,1.26,4*0B
$G
NGSA,A,3,,,,,,,,,,,,,1.46,0.75,1.26,3*07
$GPGSV,4,1,13,02,32,299,35,04,51,246,36,07,84,115,37,08,47,207,35,0*62
$GPGSV,4,2,13,13,49,030,36,20,23,121,36,23,27,056,34,25,66,042,37,0*69
$GPGSV,4,3,13,27,18,218,36,42,48,143,,50,45,136,,40,13,256,,0*69
$GPGSV,4,4,13,41,36,236,,0*50
$GBGSV,3,1,09,06,37,215,31,09,36,286,31,11,18,131,31,12,10,060,31,0*76
$GBGSV,3,2,09,13,48,202,32,14,08,164,30,01,37,122,31,02,50,173,32,0*78
$GBGSV,3,3,09,04,36,125,31,0*4B
$GAGSV,1,1,00,0*74

$GNRMC,000051.00,A,2959.99995,N,12000.00009,E,0.050,,230721,,,A,V*18
$GNGGA,000051.00,2959.99995,N,12000.00009,E,1,15,0.75,0.4,M,,M,,*52
$GNGSA,A,3,04,07,02,08,13,20,23,25,27,,,,1.46,0.75,1.26,1*0F
$GNGSA,A,3,14,13,06,09,11,12,,,,,,,1.46,0.75,1.26,4*0B
$GNGSA,A,3,,,,,,,,,,,,,1.46,0.75,1.26,3*07
$GPGSV,4,1,13,02,32,299,35,04,51,246,36,07,84,115,36,08,47,207,36,0*60
$GPGSV,4,2,1
3,13,49,030,36,20,23,121,35,23,27,056,35,25,66,042,36,0*6A
$GPGSV,4,3,13,27,18,218,35,42,48,143,,50,45,136,,40,13,256,,0*6A
$GPGSV,4,4,13,41,36,236,,0*50
$GBGSV,3,1,09,06,37,215,31,09,36,286,31,11,18,131,31,12,10,060,30,0*77
$GBGSV,3,2,09,13,48,202,32,14,08,164,31,01,37,122,31,02,50,173,32,0*79
$GBGSV,3,3,09,04,36,125,31,0*4B
$GAGSV,1,1,00,0*74

$GNRMC,000052.00,A,2959.99995,N,12000.00014,E,0.092,,230721,,,A,V*19
$GNGGA,000052.00,2959.99995,N,12000.00014,E,1,15,0.75,0.5,M,,M,,*5C
$GNGSA,A,3,04,07,02,08,13,20,23,25,27,,,,1.46,0.75,1.26,1*0F
$GNGSA,A,3,14,13,06,09,11,12,,,,,,,1.46,0.75,1.26,4*0B
$GNGSA,A,3,,,,,,,,,,,,,1.46,0.75,1.26,3*07
$GPGSV,4,1,13,02,32,299,35,04
,51,246,36,07,84,115,37,08,47,207,35,0*62
$GPGSV,4,2,13,13,49,030,36,20,23,121,35,23,27,056,36,25,66,042,36,0*69
$GPGSV,4,3,13,27,18,218,36,42,48,143,,50,45,136,,40,13,256,,0*69
$GPGSV,4,4,13,41,36,236,,0*50
$GBGSV,3,1,09,06,37,215,32,09,36,286,31,11,18,131,31,12,10,060,30,0*74
$GBGSV,3,2,09,13,48,202,32,14,08,164,31,01,37,122,31,02,50,173,31,0*7A
$GBGSV,3,3,09,04,36,125,31,0*4B
$GAGSV,1,1,00,0*74

$GNRMC,000053.00,A,2959.99995,N,12000.00013,E,0.141,,230721,,,A,V*10
$GNGGA,000053.00,2959.99995,N,12000.00013,E,1,15,0.75,0.5,M,,M,,*5A
$GNGSA,A,3,04,07,02,08,13,20,23,25,27,,,,1.46,0.75,1.26,1*0F
$GNGSA,A,3,14,13,06,09,11,12,,,,,,,1.46,0.75,1.26,4*0B
$GNGSA,A,3,,,,,,,,,,,,,1.46,0.75,1.26,3*07
$GPGSV,4,1,13,02,32,299,35,04,51,246,35,07,
84,115,36,08,47,207,35,0*60
$GPGSV,4,2,13,13,49,030,36,20,23,121,35,23,27,056,35,25,66,042,36,0*6A
$GPGSV,4,3,13,27,18,218,35,42,48,143,,50,45,136,,40,13,256,,0*6A
$GPGSV,4,4,13,41,36,236,,0*50
$GBGSV,3,1,09,06,37,215,31,09,36,286,31,11,18,131,31,12,10,060,31,0*76
$GBGSV,3,2,09,13,48,202,32,14,08,164,31,01,37,122,31,02,50,173,32,0*79
$GBGSV,3,3,09,04,36,125,31,0*4B
$GAGSV,1,1,00,0*74

$GNRMC,000054.00,A,2959.99995,N,12000.00012,E,0.096,,230721,,,A,V*1D
$GNGGA,000054.00,2959.99995,N,12000.00012,E,1,15,0.75,0.6,M,,M,,*5F
$GNGSA,A,3,04,07,02,08,13,20,23,25,27,,,,1.46,0.75,1.26,1*0F
$GNGSA,A,3,14,13,06,09,11,12,,,,,,,1.46,0.75,1.26,4*0B
$GNGSA,A,3,,,,,,,,,,,,,1.46,0.75,1.26,3*07
$GPGSV,4,1,13,02,32,299,36,04,51,246,36,07,84,115,36,08,47,207,36,0*63
$GPGSV,4,2,13,
13,49,030,35,20,23,121,35,23,27,056,35,25,66,042,36,0*69
$GPGSV,4,3,13,27,18,219,34,42,48,143,,50,45,136,,40,13,256,,0*6A
$GPGSV,4,4,13,41,36,236,,0*50
$GBGSV,3,1,09,06,37,215,31,09,36,286,31,11,18,131,31,12,10,060,31,0*76
$GBGSV,3,2,09,13,48,202,32,14,08,164,31,01,37,122,31,02,50,173,32,0*79
$GBGSV,3,3,09,04,36,125,31,0*4B
$GAGSV,1,1,00,0*74

$GNRMC,000055.00,A,2959.99997,N,12000.00015,E,0.139,,230721,,,A,V*1D
$GNGGA,000055.00,2959.99997,N,12000.00015,E,1,15,0.75,0.7,M,,M,,*5A
$GNGSA,A,3,04,07,02,08,13,20,23,25,27,,,,1.46,0.75,1.26,1*0F
$GNGSA,A,3,14,13,06,09,11,12,,,,,,,1.46,0.75,1.26,4*0B
$GNGSA,A,3,,,,,,,,,,,,,1.46,0.75,1.26,3*07
$GPGSV,4,1,13,02,32,299,35,04,51,246,36,07,84,114,36,08,47,207,36,0*61
$GPGSV,4,2,13,13,49,030,36,20,23
,121,35,23,27,056,35,25,66,042,36,0*6A
$GPGSV,4,3,13,27,18,219,35,42,48,143,,50,45,136,,40,13,256,,0*6B
$GPGSV,4,4,13,41,36,236,,0*50
$GBGSV,3,1,09,06,37,215,31,09,36,286,32,11,18,131,31,12,10,060,31,0*75
$GBGSV,3,2,09,13,48,202,32,14,08,164,30,01,37,122,31,02,50,173,32,0*78
$GBGSV,3,3,09,04,36,125,31,0*4B
$GAGSV,1,1,00,0*74

$GNRMC,000056.00,A,2959.99994,N,12000.00018,E,0.195,,230721,,,A,V*16
$GNGGA,000056.00,2959.99994,N,12000.00018,E,1,15,0.75,0.6,M,,M,,*56
$GNGSA,A,3,04,07,02,08,13,20,23,25,27,,,,1.46,0.75,1.26,1*0F
$GNGSA,A,3,14,13,06,09,11,12,,,,,,,1.46,0.75,1.26,4*0B
$GNGSA,A,3,,,,,,,,,,,,,1.46,0.75,1.26,3*07
$GPGSV,4,1,13,02,32,299,35,04,51,246,36,07,84,114,36,08,47,207,35,0*62
$GPGSV,4,2,13,13,49,030,36,20,
23,121,35,23,27,056,35,25,66,042,36,0*6A
$GPGSV,4,3,13,27,18,219,35,42,48,143,,50,45,136,,40,13,256,,0*6B
$GPGSV,4,4,13,41,36,236,,0*50
$GBGSV,3,1,09,06,37,215,31,09,36,286,32,11,18,131,31,12,10,060,31,0*75
$GBGSV,3,2,09,13,48,202,32,14,08,164,30,01,37,122,31,02,50,173,32,0*78
$GBGSV,3,3,09,04,36,125,31,0*4B
$GAGSV,1,1,00,0*74

$GNRMC,000057.00,A,2959.99993,N,12000.00021,E,0.054,,230721,,,A,V*16
$GNGGA,000057.00,2959.99993,N,12000.00021,E,1,15,0.75,0.5,M,,M,,*59
$GNGSA,A,3,04,07,02,08,13,20,23,25,27,,,,1.46,0.75,1.26,1*0F
$GNGSA,A,3,14,13,06,09,11,12,,,,,,,1.46,0.75,1.26,4*0B
$GNGSA,A,3,,,,,,,,,,,,,1.46,0.75,1.26,3*07
$GPGSV,4,1,13,02,32,299,36,04,51,246,36,07,84,114,36,0
8,47,207,36,0*62
$GPGSV,4,2,13,13,49,031,35,20,23,121,35,23,27,056,36,25,66,042,36,0*6B
$GPGSV,4,3,13,27,18,219,36,42,48,143,,50,45,136,,40,13,256,,0*68
$GPGSV,4,4,13,41,36,236,,0*50
$GBGSV,3,1,09,06,37,215,31,09,36,286,32,11,18,131,31,12,10,060,31,0*75
$GBGSV,3,2,09,13,48,202,32,14,08,164,31,01,37,122,31,02,50,173,32,0*79
$GBGSV,3,3,09,04,36,125,31,0*4B
$GAGSV,1,1,00,0*74

$GNRMC,000058.00,A,2959.99996,N,12000.00023,E,0.096,,230721,,,A,V*10
$GNGGA,000058.00,2959.99996,N,12000.00023,E,1,15,0.75,0.4,M,,M,,*50
$GNGSA,A,3,04,07,02,08,13,20,23,25,27,,,,1.46,0.75,1.26,1*0F
$GNGSA,A,3,14,13,06,09,11,12,,,,,,,1.46,0.75,1.26,4*0B
$GNGSA,A,3,,,,,,,,,,,,,1.46,0.75,1.26,3*07
$GPGSV,4,1,
13,02,32,299,35,04,51,246,35,07,84,114,36,08,47,207,35,0*61
$GPGSV,4,2,13,13,49,031,36,20,23,121,35,23,27,056,35,25,66,042,37,0*6A
$GPGSV,4,3,13,27,18,219,35,42,48,143,,50,45,136,,40,13,256,,0*6B
$GPGSV,4,4,13,41,36,236,,0*50
$GBGSV,3,1,09,06,37,215,31,09,36,286,31,11,18,131,31,12,10,060,31,0*76
$GBGSV,3,2,09,13,48,202,32,14,08,164,31,01,37,122,31,02,50,173,32,0*79
$GBGSV,3,3,09,04,36,125,31,0*4B
$GAGSV,1,1,00,0*74

$GNRMC,000059.00,A,2959.99998,N,12000.00025,E,0.074,,230721,,,A,V*15
$GNGGA,000059.00,2959.99998,N,12000.00025,E,1,15,0.75,0.5,M,,M,,*58
$GNGSA,A,3,04,07,02,08,13,20,23,25,27,,,,1.46,0.75,1.26,1*0F
$GNGSA,A,3,14,13,06,09,11,12,,,,,,,1.46,0.75,1.26,4*0B
$GNGSA,A,3,,,,,,,,,,,,,1.46,0.75,1.26,3*07
$GPGSV,4,1,13,02,32,299,35,04,51,246,36,07,84,114,37,08,47,207,36,0*60
$GPGSV,4,2,1
3,13,49,031,36,20,22,121,35,23,27,056,35,25,66,042,35,0*69
$GPGSV,4,3,13,27,18,219,35,42,48,143,,50,45,136,,40,13,256,,0*6B
$GPGSV,4,4,13,41,36,236,,0*50
$GBGSV,3,1,09,06,37,215,31,09,36,286,31,11,18,130,31,12,10,060,31,0*77
$GBGSV,3,2,09,13,48,202,32,14,08,164,30,01,37,122,31,02,50,173,32,0*78
$GBGSV,3,3,09,04,36,125,31,0*4B
$GAGSV,1,1,00,0*74

$GNRMC,000100.00,A,2959.99996,N,12000.00028,E,0.094,,230721,,,A,V*15
$GNGGA,000100.00,2959.99996,N,12000.00028,E,1,15,0.75,0.6,M,,M,,*55
$GNGSA,A,3,04,07,02,08,13,20,23,25,27,,,,1.46,0.75,1.26,1*0F
$GNGSA,A,3,14,13,06,09,11,12,,,,,,,1.46,0.75,1.26,4*0B
$GNGSA,A,3,,,,,,,,,,,,,1.46,0.75,1.26,3*07
$GPGSV,4,1,13,02,32,299,36,04,51,246,36
,07,84,114,37,08,47,207,35,0*60
$GPGSV,4,2,13,13,49,031,36,20,22,121,36,23,27,056,36,25,66,042,36,0*6A
$GPGSV,4,3,13,27,18,219,35,42,48,143,,50,45,136,,40,13,256,,0*6B
$GPGSV,4,4,13,41,36,236,,0*50
$GBGSV,3,1,09,06,37,215,31,09,36,286,31,11,18,130,31,12,10,060,31,0*77
$GBGSV,3,2,09,13,48,202,32,14,08,164,31,01,37,122,31,02,50,173,32,0*79
$GBGSV,3,3,09,04,36,125,31,0*4B
$GAGSV,1,1,00,0*74

$GNRMC,000101.00,A,2959.99996,N,12000.00031,E,0.040,,230721,,,A,V*15
$GNGGA,000101.00,2959.99996,N,12000.00031,E,1,15,0.75,0.6,M,,M,,*5C
$GNGSA,A,3,04,07,02,08,13,20,23,25,27,,,,1.46,0.75,1.26,1*0F
$GNGSA,A,3,14,13,06,09,11,12,,,,,,,1.46,0.75,1.26,4*0B
$GNGSA,A,3,,,,,,,,,,,,,1.46,0.75,1.26,3*07
$GPGSV,4,1,13,02,32,299,36,04,51,246,36,07,84,114,37,08,47,207,36,0*63
$GPGSV,4,2,13,13,49,031,36,20,22,1
21,35,23,27,056,35,25,66,042,36,0*6A
$GPGSV,4,3,13,27,18,219,35,42,48,143,,50,45,136,,40,13,256,,0*6B
$GPGSV,4,4,13,41,36,236,,0*50
$GBGSV,3,1,09,06,37,215,31,09,36,286,32,11,18,130,31,12,10,060,31,0*74
$GBGSV,3,2,09,13,48,202,32,14,08,164,31,01,37,122,31,02,50,173,32,0*79
$GBGSV,3,3,09,04,36,125,31,0*4B
$GAGSV,1,1,00,0*74

$GNRMC,000102.00,A,2959.99993,N,12000.00035,E,0.049,,230721,,,A,V*1E
$GNGGA,000102.00,2959.99993,N,12000.00035,E,1,15,0.75,0.8,M,,M,,*50
$GNGSA,A,3,04,07,02,08,13,20,23,25,27,,,,1.46,0.75,1.26,1*0F
$GNGSA,A,3,14,13,06,09,11,12,,,,,,,1.46,0.75,1.26,4*0B
$GNGSA,A,3,,,,,,,,,,,,,1.46,0.
75,1.26,3*07
$GPGSV,4,1,13,02,32,299,36,04,51,246,35,07,84,114,36,08,47,207,36,0*61
$GPGSV,4,2,13,13,49,031,36,20,22,121,35,23,27,056,35,25,66,042,37,0*6B
$GPGSV,4,3,13,27,18,219,35,42,48,143,,50,45,136,,40,13,256,,0*6B
$GPGSV,4,4,13,41,36,236,,0*50
$GBGSV,3,1,09,06,37,215,31,09,36,286,31,11,18,130,31,12,10,060,31,0*77
$GBGSV,3,2,09,13,48,202,32,14,08,164,31,01,37,122,31,02,50,173,31,0*7A
$GBGSV,3,3,09,04,36,125,31,0*4B
$GAGSV,1,1,02,10,,,33,12,,,35,0*72

$GNRMC,000103.00,A,2959.99991,N,12000.00038,E,0.098,,230721,,,A,V*1C
$GNGGA,000103.00,2959.99991,N,12000.00038,E,1,15,0.75,0.9,M,,M,,*5F
$GNGSA,A,3,04,07,02,08,13,20,23,25,27,,,,1.47,0.75,1.26,1*0E
$GNGSA,A,3,14,13,06,09,11,12,,,,,,,1.47,0.75,1.26,4*0A
$GNGSA,A,3,,,,,,,,,,,,,1.47,0.75,1.26
,3*06
$GPGSV,4,1,13,02,32,299,36,04,51,246,36,07,84,114,36,08,47,207,36,0*62
$GPGSV,4,2,13,13,49,031,35,20,22,121,34,23,27,056,36,25,66,042,36,0*6B
$GPGSV,4,3,13,27,18,219,35,42,48,143,,50,45,136,,40,13,256,,0*6B
$GPGSV,4,4,13,41,36,236,,0*50
$GBGSV,3,1,09,06,37,215,31,09,36,286,31,11,18,130,31,12,10,060,31,0*77
$GBGSV,3,2,09,13,48,202,32,14,08,164,31,01,37,122,31,02,50,173,31,0*7A
$GBGSV,3,3,09,04,36,125,31,0*4B
$GAGSV,1,1,04,09,,,34,10,,,31,11,,,35,12,,,34,0*7F

$GNRMC,000104.00,A,2959.99988,N,12000.00040,E,0.097,,230721,,,A,V*13
$GNGGA,000104.00,2959.99988,N,12000.00040,E,1,15,0.75,0.8,M,,M,,*5E
$GNGSA,A,3,04,07,02,08,13,20,23,25,27,,,,1.47,0.75,1.26,1*0E
$GNGSA,A,3,14,13,06,09,11,12,,,,,,,1.47,0.75,1.26,4*0A
$GNGSA,A,3,,,,,,,,,,,,,1.47,0.75,1.26,3*06
$GPGSV,4,1,13,02,32,299,3
6,04,51,246,36,07,84,114,36,08,47,207,36,0*62
$GPGSV,4,2,13,13,49,031,36,20,22,121,35,23,27,056,35,25,66,042,36,0*6A
$GPGSV,4,3,13,27,18,219,35,42,48,143,,50,45,136,,40,13,256,,0*6B
$GPGSV,4,4,13,41,36,236,,0*50
$GBGSV,3,1,09,06,37,215,31,09,36,286,31,11,18,130,31,12,10,060,31,0*77
$GBGSV,3,2,09,13,48,202,32,14,08,164,30,01,37,122,31,02,50,173,31,0*7B
$GBGSV,3,3,09,04,36,125,31,0*4B
$GAGSV,1,1,04,09,,,33,10,,,34,11,,,37,12,,,32,0*79

$GNRMC,000105.00,A,2959.99985,N,12000.00042,E,0.049,,230721,,,A,V*1E
$GNGGA,000105.00,2959.99985,N,12000.00042,E,1,15,0.75,0.7,M,,M,,*5F
$GNGSA,A,3,04,07,02,08,13,20,23,25,27,,,,1.47,0.75,1.26,1*0E
$GNGSA,A,3,14,13,06,09,11,12,,,,,,,1.47,0.75
,1.26,4*0A
$GNGSA,A,3,,,,,,,,,,,,,1.47,0.75,1.26,3*06
$GPGSV,4,1,13,02,32,299,36,04,51,246,36,07,84,114,36,08,47,207,36,0*62
$GPGSV,4,2,13,13,49,031,36,20,22,121,35,23,27,056,35,25,66,042,36,0*6A
$GPGSV,4,3,13,27,18,219,35,42,48,143,,50,45,136,,40,13,256,,0*6B
$GPGSV,4,4,13,41,36,236,,0*50
$GBGSV,3,1,09,06,37,215,31,09,36,286,31,11,18,130,31,12,10,060,31,0*77
$GBGSV,3,2,09,13,48,202,32,14,08,164,31,01,37,122,31,02,50,173,31,0*7A
$GBGSV,3,3,09,04,36,125,31,0*4B
$GAGSV,1,1,04,09,,,32,10,,,34,11,,,34,12,,,32,0*7B

$GNRMC,000106.00,A,2959.99985,N,12000.00043,E,0.090,,230721,,,A,V*18
$GNGGA,000106.00,2959.99985,N,12000.00043,E,1,15,0.75,0.7,M,,M,,*5D
$GNGSA,A,3,04,07,02,08,13,20,23,25,27,,,,1.47,0.75,1.26,1*0E
$GNGSA,A,3,14,13,06,09,11,12,,,,,,,1.47,0.75,1.26,4*0A
$GNGSA,A,3,,,,,,,,,,,,,1.47,0.75,1.26,3*06
$GPGSV,4,1,13,02,32,299,36,04,51,246,36,0
7,84,114,36,08,47,207,36,0*62
$GPGSV,4,2,13,13,49,031,36,20,22,121,35,23,27,056,35,25,66,042,36,0*6A
$GPGSV,4,3,13,27,18,219,34,42,48,143,,50,45,136,,40,13,256,,0*6A
$GPGSV,4,4,13,41,36,236,,0*50
$GBGSV,3,1,09,06,37,215,31,09,36,286,31,11,18,130,31,12,10,060,31,0*77
$GBGSV,3,2,09,13,48,202,32,14,08,164,31,01,37,122,31,02,50,173,31,0*7A
$GBGSV,3,3,09,04,36,125,31,0*4B
$GAGSV,1,1,04,09,,,32,10,,,34,11,,,34,12,,,32,0*7B

$GNRMC,000107.00,A,2959.99984,N,12000.00044,E,0.141,,230721,,,A,V*12
$GNGGA,000107.00,2959.99984,N,12000.00044,E,1,15,0.75,0.8,M,,M,,*55
$GNGSA,A,3,04,07,02,08,13,20,23,25,27,,,,1.47,0.75,1.26,1*0E
$GNGSA,A,3,14,13,06,09,11,12,,,,,,,1.47,0.75,1.26,4*0A
$GNGSA,A,3,,,,,,,,,,,,,1.47,0.75,1.26,3*06
$GPGSV,4,1,13,02,32,299,36,04,51,246,36,07,84,113,36,08,47,207,36,0*65
$GPGSV,4
,2,13,13,49,031,36,20,22,121,35,23,27,056,35,25,66,042,36,0*6A
$GPGSV,4,3,13,27,18,219,35,42,48,143,,50,45,136,,40,13,256,,0*6B
$GPGSV,4,4,13,41,36,236,,0*50
$GBGSV,3,1,09,06,37,215,31,09,36,286,32,11,18,130,31,12,10,060,31,0*74
$GBGSV,3,2,09,13,48,202,32,14,08,164,31,01,37,122,31,02,50,173,31,0*7A
$GBGSV,3,3,09,04,36,125,31,0*4B
$GAGSV,1,1,04,09,,,32,10,,,34,11,,,34,12,,,33,0*7A

$GNRMC,000108.00,A,2959.99987,N,12000.00041,E,0.234,,230721,,,A,V*1A
$GNGGA,000108.00,2959.99987,N,12000.00041,E,1,15,0.75,0.8,M,,M,,*5C
$GNGSA,A,3,04,07,02,08,13,20,23,25,27,,,,1.47,0.75,1.26,1*0E
$GNGSA,A,3,14,13,06,09,11,12,,,,,,,1.47,0.75,1.26,4*0A
$GNGSA,A,3,,,,,,,,,,,,,1.47,0.75,1.26,3*06
$GPGSV,4,1,13,02,32,299,35,04,51,246,36,07,84,113,37,08,47,207,36,0*67
$GPGSV,4,2,13,13,49,031,36,20,22,121
,35,23,27,057,35,25,66,042,36,0*6B
$GPGSV,4,3,13,27,18,219,35,42,48,143,,50,45,136,,40,13,256,,0*6B
$GPGSV,4,4,13,41,36,236,,0*50
$GBGSV,3,1,09,06,37,215,31,09,36,286,31,11,18,130,31,12,10,060,31,0*77
$GBGSV,3,2,09,13,48,202,32,14,08,164,31,01,37,122,31,02,50,173,31,0*7A
$GBGSV,3,3,09,04,36,125,31,0*4B
$GAGSV,1,1,04,09,,,32,10,,,34,11,,,34,12,,,33,0*7A

$GNRMC,000109.00,A,2959.99988,N,12000.00038,E,0.141,,230721,,,A,V*1B
$GNGGA,000109.00,2959.99988,N,12000.00038,E,1,15,0.75,0.8,M,,M,,*5C
$GNGSA,A,3,04,07,02,08,13,20,23,25,27,,,,1.47,0.75,1.26,1*0E
$GNGSA,A,3,14,13,06,09,11,12,,,,,,,1.47,0.75,1.26,4*0A
$GNGSA,A,3,,,,,,,,,,,,,1.47,0.75,1.26,3*06
$GPGSV,4,1,13,02,32,299,35,04,51,246,35,07,84,113,37,08,47,207,35,0*67
$GPGSV,4,2,13,
13,49,031,36,20,22,121,35,23,27,057,35,25,66,042,37,0*6A
$GPGSV,4,3,13,27,18,219,35,42,48,143,,50,45,136,,40,13,256,,0*6B
$GPGSV,4,4,13,41,36,236,,0*50
$GBGSV,3,1,09,06,37,215,31,09,36,286,31,11,18,130,31,12,10,060,31,0*77
$GBGSV,3,2,09,13,48,202,32,14,08,164,31,01,37,122,31,02,50,173,31,0*7A
$GBGSV,3,3,09,04,36,125,31,0*4B
$GAGSV,1,1,04,09,,,32,10,,,34,11,,,34,12,,,33,0*7A

$GNRMC,000110.00,A,2959.99985,N,12000.00038,E,0.071,,230721,,,A,V*1C
$GNGGA,000110.00,2959.99985,N,12000.00038,E,1,15,0.75,0.8,M,,M,,*59
$GNGSA,A,3,04,07,02,08,13,20,23,25,27,,,,1.47,0.75,1.26,1*0E
$GNGSA,A,3,14,13,06,09,11,12,,,,,,,1.47,0.75,1.26,4*0A
$GNGSA,A,3,,,,,,,,,,,,,1.47,0.75,1.26
,3*06
$GPGSV,4,1,13,02,32,299,35,04,51,246,36,07,84,113,36,08,47,207,36,0*66
$GPGSV,4,2,13,13,49,031,35,20,22,121,35,23,27,057,35,25,66,042,36,0*68
$GPGSV,4,3,13,27,18,219,35,42,48,143,,50,45,136,,40,13,256,,0*6B
$GPGSV,4,4,13,41,36,236,,0*50
$GBGSV,3,1,09,06,37,215,31,09,36,286,31,11,18,130,31,12,10,060,31,0*77
$GBGSV,3,2,09,13,48,202,32,14,08,164,30,01,37,122,31,02,50,173,31,0*7B
$GBGSV,3,3,09,04,36,125,31,0*4B
$GAGSV,1,1,04,09,,,33,10,,,34,11,,,34,12,,,33,0*7B

$GNRMC,000111.00,A,2959.99986,N,12000.00037,E,0.145,,230721,,,A,V*17
$GNGGA,000111.00,2959.99986,N,12000.00037,E,1,15,0.75,1.0,M,,M,,*5D
$GNGSA,A,3,04,07,02,08,13,20,23,25,27,,,,1.47,0.75,1.26,1*0E
$GNGSA,A,3,14,13,06,09,11,12,,,,,,,1.47,0.75,1.26,4*0A
$GNGSA,A,3,,,,,,,,,,,,,1.47,0.75,1.26,3*06
$GPGSV,4,1,13,02,32,299,35,04,51,246,36,07,84,113,36,08,47,207,35,0*65
$GPGSV,4,2,13,13,49,031,35,2
0,22,121,35,23,27,057,35,25,66,042,36,0*68
$GPGSV,4,3,13,27,18,219,35,42,48,143,,50,45,136,,40,13,256,,0*6B
$GPGSV,4,4,13,41,36,236,,0*50
$GBGSV,3,1,09,06,37,215,31,09,36,286,31,11,18,130,31,12,10,060,31,0*77
$GBGSV,3,2,09,13,48,202,32,14,08,164,31,01,37,122,31,02,50,173,31,0*7A
$GBGSV,3,3,09,04,36,125,31,0*4B
$GAGSV,1,1,04,09,,,33,10,,,34,11,,,34,12,,,32,0*7A

$GNRMC,000112.00,A,2959.99992,N,12000.00034,E,0.160,,230721,,,A,V*15
$GNGGA,000112.00,2959.99992,N,12000.00034,E,1,15,0.75,1.0,M,,M,,*58
$GNGSA,A,3,04,07,02,08,13,20,23,25,27,,,,1.47,0.75,1.26,1*0E
$GNGSA,A,3,14,13,06,09,11,12,,,,,,,1.47,0.75,1.26,4*0A
$GNGSA,A,3,,,,,,,,,,,,,1.47,0.75,1.26,3*06
$GPGSV,4,1,13,02,32,299,
35,04,51,246,36,07,84,113,37,08,47,207,35,0*64
$GPGSV,4,2,13,13,49,031,36,20,22,121,35,23,27,057,35,25,66,042,36,0*6B
$GPGSV,4,3,13,27,18,219,36,42,48,143,,50,45,136,,40,13,256,,0*68
$GPGSV,4,4,13,41,36,236,,0*50
$GBGSV,3,1,09,06,37,215,31,09,36,286,31,11,18,130,31,12,10,060,30,0*76
$GBGSV,3,2,09,13,48,202,32,14,08,164,30,01,37,122,31,02,50,173,31,0*7B
$GBGSV,3,3,09,04,36,125,31,0*4B
$GAGSV,1,1,04,09,,,33,10,,,34,11,,,34,12,,,32,0*7A

$GNRMC,000113.00,A,2959.99994,N,12000.00033,E,0.057,,230721,,,A,V*10
$GNGGA,000113.00,2959.99994,N,12000.00033,E,1,15,0.75,1.0,M,,M,,*58
$GNGSA,A,3,04,07,02,08,13,20,23,25,27,,,,1.47,0.75,1.26,1*0E
$GNGSA,A,3,14,13,06,09,11,12,,,,,,,1.47,0.75,1.26,4*0A
$GNGSA,A,3,,,,,,,,,,,,,1.47,0.75,1.26,3*06
$GPGSV,4,1,13,02,32,299,36,04,51,246,36,07,84,113,36,08,47,207,36,0*65
$GPGSV,4,2,13,13,49,031,36,2
0,22,121,35,23,27,057,36,25,66,042,36,0*68
$GPGSV,4,3,13,27,18,219,35,42,48,143,,50,45,136,,40,13,256,,0*6B
$GPGSV,4,4,13,41,36,236,,0*50
$GBGSV,3,1,09,06,37,215,31,09,36,286,31,11,18,130,31,12,10,060,31,0*77
$GBGSV,3,2,09,13,48,202,31,14,08,164,30,01,37,122,31,02,50,173,31,0*78
$GBGSV,3,3,09,04,36,125,31,0*4B
$GAGSV,1,1,04,09,,,33,10,,,34,11,,,34,12,,,33,0*7B

$GNRMC,000114.00,A,2959.99995,N,12000.00031,E,0.046,,230721,,,A,V*14
$GNGGA,000114.00,2959.99995,N,12000.00031,E,1,15,0.75,0.9,M,,M,,*54
$GNGSA,A,3,04,07,02,08,13,20,23,25,27,,,,1.47,0.75,1.26,1*0E
$GNGSA,A,3,14,13,06,09,11,12,,,,,,,1.47,0.75,1.26,4*0A
$GNGSA,A,3,,,,,,,,,,,,,1.47,0.75,1.26,3*06

$GPGSV,4,1,13,02,32,299,35,04,51,246,36,07,84,113,36,08,47,207,36,0*66
$GPGSV,4,2,13,13,49,031,35,20,22,121,35,23,27,057,35,25,66,042,36,0*68
$GPGSV,4,3,13,27,18,219,35,42,48,143,,50,45,136,,40,13,256,,0*6B
$GPGSV,4,4,13,41,36,236,,0*50
$GBGSV,3,1,09,06,37,215,31,09,36,286,32,11,18,130,31,12,10,060,31,0*74
$GBGSV,3,2,09,13,48,202,32,14,08,164,30,01,37,122,31,02,50,173,31,0*7B
$GBGSV,3,3,09,04,36,125,31,0*4B
$GAGSV,1,1,04,09,,,33,10,,,34,11,,,34,12,,,32,0*7A

$GNRMC,000115.00,A,2959.99996,N,12000.00030,E,0.186,,230721,,,A,V*1A
$GNGGA,000115.00,2959.99996,N,12000.00030,E,1,15,0.75,1.0,M,,M,,*5F
$GNGSA,A,3,04,07,02,08,13,20,23,25,27,,,,1.47,0.75,1.26,1*0E
$GNGSA,A,3,14,13,06,09,11,12,,,,,,,1.47,0.75,1.26,4*0A
$GNGSA,A,3,,,,,,,,,,,,,1.47,0.75,1.26,3*06
$GPGSV,4,1,13,02,32,2
99,36,04,51,246,36,07,84,113,36,08,47,207,36,0*65
$GPGSV,4,2,13,13,49,031,36,20,22,121,36,23,27,057,35,25,66,042,36,0*68
$GPGSV,4,3,13,27,18,219,35,42,48,143,,50,45,136,,40,13,256,,0*6B
$GPGSV,4,4,13,41,36,236,,0*50
$GBGSV,3,1,09,06,37,215,31,09,36,286,31,11,18,130,31,12,10,060,31,0*77
$GBGSV,3,2,09,13,48,202,32,14,08,164,30,01,37,122,31,02,50,173,31,0*7B
$GBGSV,3,3,09,04,36,125,31,0*4B
$GAGSV,1,1,04,09,,,33,10,,,35,11,,,34,12,,,33,0*7A

$GNRMC,000116.00,A,2959.99995,N,12000.00030,E,0.201,,230721,,,A,V*16
$GNGGA,000116.00,2959.99995,N,12000.00030,E,1,15,0.75,1.1,M,,M,,*5E
$GNGSA,A,3,04,07,02,08,13,20,23,25,27,,,,1.47,0.75,1.26,1*0E
$GNGSA,A,3,14,13,06,09,11,12,,,,,,,1.47,0.75,1.26,4*0A
$GNGSA,A,3,,,,,,,,,,,,,1.47,0.75,1.26,3*06
$GPGSV,4,1,13,02,32,299,35,04,51,246,36,07,84,113,36,08,47,207,36,0*66
$GPGSV,4,2,13,13,49,031,36,20,22,1
21,35,23,27,057,35,25,66,042,36,0*6B
$GPGSV,4,3,13,27,18,219,35,42,48,143,,50,45,136,,40,13,256,,0*6B
$GPGSV,4,4,13,41,36,236,,0*50
$GBGSV,3,1,09,06,37,215,31,09,36,286,31,11,18,130,31,12,10,060,31,0*77
$GBGSV,3,2,09,13,48,202,32,14,08,164,30,01,37,122,31,02,50,173,31,0*7B
$GBGSV,3,3,09,04,36,125,31,0*4B
$GAGSV,1,1,04,09,,,33,10,,,34,11,,,34,12,,,32,0*7A

$GNRMC,000117.00,A,2959.99992,N,12000.00031,E,0.113,,230721,,,A,V*11
$GNGGA,000117.00,2959.99992,N,12000.00031,E,1,15,0.75,1.0,M,,M,,*58
$GNGSA,A,3,04,07,02,08,13,20,23,25,27,,,,1.47,0.75,1.26,1*0E
$GNGSA,A,3,14,13,06,09,11,12,,,,,,,1.47,0.75,1.26,4*0A
$GNGSA,A,3,,,,,,,,,,,,,1.47,0.75,1.26,3*06
$GPGSV,4,1,13,02,32,299,35,04,51,246,35,07,84,113,36,08,47,207,36,0*65
$GPGSV,4,2,13,13,49,031,36,20,
22,121,35,23,27,057,35,25,66,042,36,0*6B
$GPGSV,4,3,13,27,18,219,36,42,48,143,,50,45,136,,40,13,256,,0*68
$GPGSV,4,4,13,41,36,236,,0*50
$GBGSV,3,1,09,06,37,215,31,09,36,286,31,11,18,130,31,12,10,060,31,0*77
$GBGSV,3,2,09,13,48,202,31,14,08,164,31,01,37,122,32,02,50,173,31,0*7A
$GBGSV,3,3,09,04,36,125,32,0*48
$GAGSV,1,1,04,09,,,33,10,,,34,11,,,33,12,,,33,0*7C

$GNRMC,000118.00,A,2959.99991,N,12000.00032,E,0.044,,230721,,,A,V*1D
$GNGGA,000118.00,2959.99991,N,12000.00032,E,1,16,0.75,0.9,M,,M,,*5C
$GNGSA,A,3,04,07,02,08,13,20,23,25,27,,,,1.47,0.75,1.26,1*0E
$GNGSA,A,3,14,13,06,09,11,12,,,,,,,1.47,0.75,1.26,4*0A
$GNGSA,A,3,10,,,,,,,,,,,,1.47,0.75,1.26,3*07
$GPGSV,4,1,13,02,32,299,35,04,51
,246,35,07,84,112,37,08,47,207,35,0*66
$GPGSV,4,2,13,13,49,031,37,20,22,121,35,23,27,057,35,25,66,042,37,0*6B
$GPGSV,4,3,13,27,18,219,36,42,48,143,,50,45,136,,40,13,256,,0*68
$GPGSV,4,4,13,41,36,236,,0*50
$GBGSV,3,1,09,06,37,215,31,09,36,286,31,11,18,130,31,12,10,060,31,0*77
$GBGSV,3,2,09,13,48,202,32,14,08,164,31,01,37,122,31,02,50,173,31,0*7A
$GBGSV,3,3,09,04,36,125,31,0*4B
$GAGSV,1,1,04,10,63,334,34,09,,,33,11,,,34,12,,,32,0*4B

$GNRMC,000119.00,A,2959.99991,N,12000.00033,E,0.036,,230721,,,A,V*18
$GNGGA,000119.00,2959.99991,N,12000.00033,E,1,16,0.75,0.9,M,,M,,*5C
$GNGSA,A,3,04,07,02,08,13,20,23,25,27,,,,1.47,0.75,1.26,1*0E
$GNGSA,A,3,14,13,06,09,11,12,,,,,,,1.47,0.75,1.26,4*0A
$GNGSA,A,3,10,,,,,,,,,,,,1.47,0
.75,1.26,3*07
$GPGSV,4,1,13,02,32,299,36,04,51,246,36,07,84,112,36,08,47,207,36,0*64
$GPGSV,4,2,13,13,49,031,36,20,22,121,35,23,27,057,35,25,66,042,36,0*6B
$GPGSV,4,3,13,27,18,219,35,42,48,143,,50,45,136,,40,13,256,,0*6B
$GPGSV,4,4,13,41,36,236,,0*50
$GBGSV,3,1,09,06,37,215,31,09,36,286,31,11,18,130,31,12,10,060,31,0*77
$GBGSV,3,2,09,13,48,202,32,14,08,164,30,01,37,122,31,02,50,173,32,0*78
$GBGSV,3,3,09,04,36,125,31,0*4B
$GAGSV,1,1,04,10,63,334,34,09,,,33,11,,,34,12,,,33,0*4A

$GNRMC,000120.00,A,2959.99989,N,12000.00033,E,0.090,,230721,,,A,V*17
$GNGGA,000120.00,2959.99989,N,12000.00033,E,1,16,0.75,0.9,M,,M,,*5F
$GNGSA,A,3,04,07,02,08,13,20,23,25,27,,,,1.47,0.75,1.26,1*0E
$GNGSA,A,3,14,13,06,09,11,12,,,,,,,1.47,0.75,1.26,4*0A
$GNGSA,A,3,10,,,,,,,,,,,,1.47,0.75,
1.26,3*07
$GPGSV,4,1,13,02,32,299,35,04,51,246,36,07,84,112,37,08,47,207,36,0*66
$GPGSV,4,2,13,13,49,031,36,20,22,121,36,23,27,057,34,25,66,042,37,0*68
$GPGSV,4,3,13,27,18,219,36,42,48,143,,50,45,136,,40,13,256,,0*68
$GPGSV,4,4,13,41,36,236,,0*50
$GBGSV,3,1,09,06,37,215,31,09,36,286,31,11,18,130,31,12,10,060,31,0*77
$GBGSV,3,2,09,13,48,202,32,14,08,164,30,01,37,122,31,02,50,173,31,0*7B
$GBGSV,3,3,09,04,36,125,31,0*4B
$GAGSV,1,1,04,10,63,334,33,09,,,32,11,,,34,12,,,33,0*4C

$GNRMC,000121.00,A,2959.99986,N,12000.00033,E,0.069,,230721,,,A,V*1F
$GNGGA,000121.00,2959.99986,N,12000.00033,E,1,16,0.75,0.9,M,,M,,*51
$GNGSA,A,3,04,07,02,08,13,20,23,25,27,,,,1.47,0.75,1.26,1*0E
$GNGSA,A,3,14,13,06,09,11,12,,,,,,,1.47,0.75,1.26,4*0A
$GNGSA,A,3,10,,,,,,,,,,,,1.47,0.75,1.26,3*07
$GPGSV,4,1,13,02,32,299,35,04,51,246,35,07,84,112,36,08,47,207,36,0*64
$GPGSV,4,2,13,13,49,031
,36,20,22,121,35,23,27,057,35,25,66,042,37,0*6A
$GPGSV,4,3,13,27,18,219,35,42,48,143,,50,45,136,,40,13,256,,0*6B
$GPGSV,4,4,13,41,36,236,,0*50
$GBGSV,3,1,09,06,37,215,31,09,36,286,31,11,18,130,31,12,10,060,31,0*77
$GBGSV,3,2,09,13,48,202,32,14,08,164,31,01,37,122,31,02,50,173,31,0*7A
$GBGSV,3,3,09,04,36,125,31,0*4B
$GAGSV,1,1,04,10,63,334,34,09,,,32,11,,,34,12,,,32,0*4A

$GNRMC,000122.00,A,2959.99988,N,12000.00031,E,0.195,,230721,,,A,V*12
$GNGGA,000122.00,2959.99988,N,12000.00031,E,1,16,0.75,0.9,M,,M,,*5E
$GNGSA,A,3,04,07,02,08,13,20,23,25,27,,,,1.47,0.75,1.26,1*0E
$GNGSA,A,3,14,13,06,09,11,12,,,,,,,1.47,0.75,1.26,4*0A
$GNGSA,A,
3,10,,,,,,,,,,,,1.47,0.75,1.26,3*07
$GPGSV,4,1,13,02,32,299,35,04,51,246,36,07,84,112,37,08,47,207,35,0*65
$GPGSV,4,2,13,13,49,031,36,20,22,121,35,23,27,057,35,25,66,042,36,0*6B
$GPGSV,4,3,13,27,18,219,35,42,48,143,,50,45,136,,40,13,256,,0*6B
$GPGSV,4,4,13,41,36,236,,0*50
$GBGSV,3,1,09,06,37,215,31,09,36,286,31,11,18,130,31,12,10,060,31,0*77
$GBGSV,3,2,09,13,48,202,32,14,08,164,30,01,37,122,31,02,50,173,32,0*78
$GBGSV,3,3,09,04,36,125,31,0*4B
$GAGSV,1,1,04,10,64,334,34,09,,,33,11,,,34,12,,,33,0*4D

$GNRMC,000123.00,A,2959.99991,N,12000.00027,E,0.137,,230721,,,A,V*14
$GNGGA,000123.00,2959.99991,N,12000.00027,E,1,16,0.75,0.9,M,,M,,*50
$GNGSA,A,3,04,07,02,08,13,20,23,25,27,,,,1.47,0.75,1.26,1*0E
$GNGSA,A,3,14,13,06,09,11,12,,,,,,,1.47,0.75,1.26,4*0A
$GNGSA,A,3,10,,,,,,,,,,,,1.47,
0.75,1.26,3*07
$GPGSV,4,1,13,02,32,299,35,04,51,246,36,07,84,112,36,08,47,207,36,0*67
$GPGSV,4,2,13,13,49,031,36,20,22,121,35,23,27,057,35,25,66,042,36,0*6B
$GPGSV,4,3,13,27,18,219,35,42,48,143,,50,45,136,,40,13,256,,0*6B
$GPGSV,4,4,13,41,36,236,,0*50
$GBGSV,3,1,09,06,37,215,31,09,36,286,31,11,18,130,31,12,10,060,31,0*77
$GBGSV,3,2,09,13,48,202,32,14,08,164,31,01,37,122,31,02,50,173,31,0*7A
$GBGSV,3,3,09,04,36,125,31,0*4B
$GAGSV,1,1,04,10,64,334,34,09,,,33,11,,,34,12,,,32,0*4C

$GNRMC,000124.00,A,2959.99992,N,12000.00028,E,0.136,,230721,,,A,V*1E
$GNGGA,000124.00,2959.99992,N,12000.00028,E,1,16,0.75,1.0,M,,M,,*53
$GNGSA,A,3,04,07,02,08,13,20,23,25,27,,,,1.47,0.75,1.26,1*0E
$GNGSA,A,3,14,13,06,09,11,12,,,,,,,1.47,0.75,1.26,4*0A
$GNGSA,A,3,10,,,,,,,,,,,,1.47,0.75,1.26,3*07
$GPGSV,4,1,13,02,32,299,35,04,51,246,36,07,84,112,36,08,47,207,36,0*67
$GPGSV,4,2,13,13
,49,031,35,20,22,121,35,23,27,057,36,25,66,042,36,0*6B
$GPGSV,4,3,13,27,18,219,35,42,48,143,,50,45,136,,40,13,256,,0*6B
$GPGSV,4,4,13,41,36,236,,0*50
$GBGSV,3,1,09,06,37,215,31,09,36,286,31,11,18,130,31,12,10,060,31,0*77
$GBGSV,3,2,09,13,48,202,32,14,08,164,31,01,37,122,31,02,50,173,31,0*7A
$GBGSV,3,3,09,04,36,125,31,0*4B
$GAGSV,2,1,05,10,64,334,34,24,85,019,,09,,,33,11,,,34,0*7F
$GAGSV,2,2,05,12,,,33,0*72

$GNRMC,000125.00,A,2959.99993,N,12000.00028,E,0.148,,230721,,,A,V*17
$GNGGA,000125.00,2959.99993,N,12000.00028,E,1,16,0.75,1.0,M,,M,,*53
$GNGSA,A,3,04,07,02,08,13,20,23,25,27,,,,1.47,0.75,1.26,1*0E
$GNGSA,A,3,14,13,06,09,11,12,,,,,,,1.47,0.75,1.26,4*0A
$GNGSA,A,3,10,,,,,,,,,,,,1.47,0.75,1.26,3*07
$GPGSV,4,1,13,02,32,299,36,04,51,246,36,07,84,112,37,08,47,207,36,0*65
$GPGSV,4,2,
13,13,49,031,36,20,22,121,35,23,27,057,35,25,66,042,36,0*6B
$GPGSV,4,3,13,27,18,219,34,42,48,143,,50,45,136,,40,13,256,,0*6A
$GPGSV,4,4,13,41,36,236,,0*50
$GBGSV,3,1,09,06,37,215,31,09,36,286,31,11,18,130,31,12,10,060,31,0*77
$GBGSV,3,2,09,13,48,202,32,14,08,164,30,01,37,122,31,02,50,173,31,0*7B
$GBGSV,3,3,09,04,36,125,31,0*4B
$GAGSV,2,1,05,10,64,334,34,24,85,019,,09,,,33,11,,,34,0*7F
$GAGSV,2,2,05,12,,,33,0*72

$GNRMC,000126.00,A,2959.99995,N,12000.00027,E,0.002,,230721,,,A,V*12
$GNGGA,000126.00,2959.99995,N,12000.00027,E,1,16,0.75,0.8,M,,M,,*50
$GNGSA,A,3,04,07,02,08,13,20,23,25,27,,,,1.47,0.75,1.26,1*0E
$GNGSA,A,3,14,13,06,09,11,12,,,,,,,1
.47,0.75,1.26,4*0A
$GNGSA,A,3,10,,,,,,,,,,,,1.47,0.75,1.26,3*07
$GPGSV,4,1,13,02,32,299,35,04,51,246,36,07,84,112,36,08,47,207,35,0*64
$GPGSV,4,2,13,13,49,031,36,20,22,121,35,23,27,057,35,25,66,042,36,0*6B
$GPGSV,4,3,13,27,18,219,35,42,48,143,,50,45,136,,40,13,256,,0*6B
$GPGSV,4,4,13,41,36,236,,0*50
$GBGSV,3,1,09,06,37,215,31,09,36,286,31,11,18,130,31,12,10,060,31,0*77
$GBGSV,3,2,09,13,48,202,32,14,08,164,30,01,37,122,31,02,50,173,32,0*78
$GBGSV,3,3,09,04,36,125,31,0*4B
$GAGSV,2,1,05,10,64,334,34,24,85,019,,09,,,33,11,,,34,0*
7F
$GAGSV,2,2,05,12,,,32,0*73

$GNRMC,000127.00,A,2959.99996,N,12000.00027,E,0.090,,230721,,,A,V*1B
$GNGGA,000127.00,2959.99996,N,12000.00027,E,1,16,0.75,0.9,M,,M,,*53
$GNGSA,A,3,04,07,02,08,13,20,23,25,27,,,,1.47,0.75,1.26,1*0E
$GNGSA,A,3,14,13,06,09,11,12,,,,,,,1.47,0.75,1.26,4*0A
$GNGSA,A,3,10,,,,,,,,,,,,1.47,0.75,1.26,3*07
$GPGSV,4,1,13,02,32,299,36,04,51,246,35,07,84,112
,37,08,47,207,36,0*66
$GPGSV,4,2,13,13,49,031,35,20,22,121,35,23,27,057,36,25,66,042,36,0*6B
$GPGSV,4,3,13,27,18,219,36,42,48,143,,50,45,136,,40,13,256,,0*68
$GPGSV,4,4,13,41,36,236,,0*50
$GBGSV,3,1,09,06,37,215,31,09,36,286,31,11,18,130,31,12,10,060,31,0*77
$GBGSV,3,2,09,13,48,202,32,14,08,164,31,01,37,122,31,02,50,173,32,0*79
$GBGSV,3,3,09,04,36,125,31,0*4B
$GAGSV,2,1,05,10,64,334,34,24,85,019,,09,,,33,11,,,34,0*7F
$GAGSV,2,2,05,12,,,33,0*72

$GNRMC,000128.00,A,3000.00000,N,12000.00026,E,0.152,,230721,,,A,V*18
$GNGGA,000128.00,3000.00000,N,12000.00026,E,1,16,0.75,0.8,M,,M,,*5E
$GNGSA,A,3,04,07,02,08,13,20,23,25,27,,,,1.47,0.75,1.26,1*0E
$GNGSA,A,3,14,13,06,09,11,12,,,,,,,1.47,0.75,1.26,4*0A
$GNGSA,A,3,10,,,,,,,,,,,,1.47,0
.75,1.26,3*07
$GPGSV,4,1,13,02,32,299,35,04,51,246,35,07,84,112,36,08,47,207,35,0*67
$GPGSV,4,2,13,13,49,031,36,20,22,121,35,23,27,057,34,25,66,042,36,0*6A
$GPGSV,4,3,13,27,18,219,34,42,48,143,,50,45,136,,40,13,256,,0*6A
$GPGSV,4,4,13,41,36,236,,0*50
$GBGSV,3,1,09,06,37,215,31,09,36,286,31,11,18,130,31,12,10,060,30,0*76
$GBGSV,3,2,09,13,48,202,32,14,08,164,30,01,37,122,31,02,50,173,32,0*78
$GBGSV,3,3,09,04,36,125,31,0*4B
$GAGSV,2,1,05,10,64,334,34,24,85,019,,09,,,33,11,,,34,0*7F
$GAGSV,2,2,05,12,,,32,0*73

$GNRMC,000129.00,A,3000.00002,N,12000.00026,E,0.081,,230721,,,A,V*14
$GNGGA,000129.00,3000.00002,N,12000.00026,E,1,16,0.75,0.7,M,,M,,*52
$GNGSA,A,3,04,07,02,08,13,20,23,25,27,,,,1.47,0.75,1.26,1*0E
$GNGSA,A,3,14,13,06,09,11,12,,,,,,,1.47,0.75,1.26,4*0A
$GNGSA,A,3,10,,,,,,,,,,,,1.47,0.75,1.26,3*07
$
GPGSV,4,1,13,02,32,299,36,04,51,246,36,07,84,111,37,08,47,207,36,0*66
$GPGSV,4,2,13,13,49,031,35,20,22,121,35,23,27,057,36,25,66,042,36,0*6B
$GPGSV,4,3,13,27,18,219,35,42,48,143,,50,45,136,,40,13,256,,0*6B
$GPGSV,4,4,13,41,36,236,,0*50
$GBGSV,3,1,09,06,37,215,31,09,36,286,31,11,18,130,31,12,10,060,31,0*77
$GBGSV,3,2,09,13,48,202,32,14,08,164,31,01,37,122,31,02,50,173,32,0*79
$GBGSV,3,3,09,04,36,125,31,0*4B
$GAGSV,2,1,05,10,64,334,34,24,85,019,,09,,,33,11,,,34,0*7F
$GAGSV,2,2,05,12,,,32,0*73

$GNRMC,000130.00,A,3000.00002,N,12000.00024,E,0.095,,230721,,,A,V*1B
$GNGGA,000130.00,3000.00002,N,12000.00024,E,1,16,0.75,0.6,M,,M,,*59
$GNGSA,A,3,04,07,02,08,13,20,23,25,27,,,,1.47,0.75,1.26,1*0E
$GNGSA,A,3,14,13,06,09,11,12,,,,,,,1.47,0.75,1.26,4*0A
$GNGSA,A,3,10,,,,,,,,,,,,1.47,0.75,1.26,3*07
$GPGSV,4,1,13,02,32,299,36,04,51,246,36,0
7,84,111,37,08,47,207,36,0*66
$GPGSV,4,2,13,13,49,031,36,20,22,121,36,23,27,057,36,25,66,042,36,0*6B
$GPGSV,4,3,13,27,18,219,35,42,48,143,,50,45,136,,40,13,256,,0*6B
$GPGSV,4,4,13,41,36,236,,0*50
$GBGSV,3,1,09,06,37,215,31,09,36,286,31,11,18,130,31,12,10,060,31,0*77
$GBGSV,3,2,09,13,48,202,32,14,08,164,30,01,37,122,31,02,50,173,32,0*78
$GBGSV,3,3,09,04,36,125,31,0*4B
$GAGSV,2,1,05,10,64,334,34,24,85,019,,09,,,33,11,,,34,0*7F
$GAGSV,2,2,05,12,,,33,0*72

$GNRMC,000131.00,A,3000.00006,N,12000.00022,E,0.180,,230721,,,A,V*1D
$GNGGA,000131.00,3000.00006,N,12000.00022,E,1,16,0.75,0.6,M,,M,,*5A
$GNGSA,A,3,04,07,02,08,13,20,23,25,27,,,,1.47,0.75,1.26,1*0E
$GNGSA,A,3,14,13,06,09,11,12,,,,,,,1.47,0.75,1.26,4*0A
$GNGSA,A,3,10,,,,,,,,,,,,1.47,0.75,1.26,3*07
$GPGSV,4,1,13,
02,32,299,35,04,51,246,36,07,84,111,36,08,47,207,36,0*64
$GPGSV,4,2,13,13,49,031,36,20,22,121,35,23,27,057,35,25,66,042,36,0*6B
$GPGSV,4,3,13,27,18,219,35,42,48,143,,50,45,136,,40,13,256,,0*6B
$GPGSV,4,4,13,41,36,236,,0*50
$GBGSV,3,1,09,06,37,215,31,09,36,286,31,11,18,130,31,12,10,060,31,0*77
$GBGSV,3,2,09,13,48,202,32,14,08,164,31,01,37,122,31,02,50,173,32,0*79
$GBGSV,3,3,09,04,36,125,31,0*4B
$GAGSV,2,1,05,10,64,334,34,24,85,019,,09,,,33,11,,,34,0*7F
$GAGSV,2,2,05,12,,,32,0*73

$GNRMC,000132.00,A,3000.00010,N,12000.00018,E,0.113,,230721,,,A,V*1A
$GNGGA,000132.00,3000.00010,N,12000.00018,E,1,16,0.75,0.7,M,,M,,*56
$GNGSA,A,3,04,07,02,08,13,20,23,25,27,,,,1.47,0.75,1.26,1*0E
$GNGSA,A,3,14,13,06,09,11,12,,,,,,,1.47,0.75,1.26,4*0A
$GNGSA,A,3,10,,,,,,,,,,,,1.47,0.75,1.26,3*07
$GPGSV,4,1,13,02,32,299,35,04,51,246,35,07,84,111,36,08,4
7,207,36,0*67
$GPGSV,4,2,13,13,49,031,36,20,22,121,36,23,27,057,35,25,66,042,36,0*68
$GPGSV,4,3,13,27,18,219,35,42,48,143,,50,45,136,,40,13,256,,0*6B
$GPGSV,4,4,13,41,36,236,,0*50
$GBGSV,3,1,09,06,37,215,31,09,36,286,31,11,18,130,31,12,10,060,31,0*77
$GBGSV,3,2,09,13,48,202,32,14,08,164,31,01,37,122,31,02,50,173,31,0*7A
$GBGSV,3,3,09,04,36,125,31,0*4B
$GAGSV,2,1,05,10,64,334,34,24,85,019,,09,,,33,11,,,34,0*7F
$GAGSV,2,2,05,12,,,32,0*73

$GNRMC,000133.00,A,3000.00015,N,12000.00016,E,0.131,,230721,,,A,V*10
$GNGGA,000133.00,3000.00015,N,12000.00016,E,1,16,0.75,0.7,M,,M,,*5C
$GNGSA,A,3,04,07,02,08,13,20,23,25,27,,,,1.47,0.75,1.26,1*0E
$GNGSA,A,3,14,13,06,09,11,12,,,,,,,1.47,0.75,1.26,4*0
A
$GNGSA,A,3,10,,,,,,,,,,,,1.47,0.75,1.26,3*07
$GPGSV,4,1,13,02,32,299,36,04,51,246,36,07,84,111,36,08,47,207,36,0*67
$GPGSV,4,2,13,13,49,031,36,20,22,121,35,23,27,057,35,25,66,042,36,0*6B
$GPGSV,4,3,13,27,18,219,34,42,48,143,,50,45,136,,40,13,256,,0*6A
$GPGSV,4,4,13,41,36,236,,0*50
$GBGSV,3,1,09,06,37,215,31,09,36,286,31,11,18,130,31,12,10,060,31,0*77
$GBGSV,3,2,09,13,48,202,32,14,08,164,31,01,37,122,31,02,50,173,31,0*7A
$GBGSV,3,3,09,04,36,125,31,0*4B
$GAGSV,2,1,05,10,64,334,34,24,85,019,,09,,,33,11,,,34,0*7F
$GAGSV,2,2,05,12,,,32,0
*73

$GNRMC,000134.00,A,3000.00015,N,12000.00017,E,0.175,,230721,,,A,V*16
$GNGGA,000134.00,3000.00015,N,12000.00017,E,1,16,0.75,0.5,M,,M,,*58
$GNGSA,A,3,04,07,02,08,13,20,23,25,27,,,,1.47,0.75,1.26,1*0E
$GNGSA,A,3,14,13,06,09,11,12,,,,,,,1.47,0.75,1.26,4*0A
$GNGSA,A,3,10,,,,,,,,,,,,1.47,0.75,1.26,3*07
$GPGSV,4,1,13,02,32,299,35,04,51,246,36,07,84,111,36,08,47,207,35,0*67
$GPGSV,4,2,13,13,49,031
,36,20,22,121,35,23,27,057,35,25,66,042,36,0*6B
$GPGSV,4,3,13,27,18,219,35,42,48,143,,50,45,136,,40,13,256,,0*6B
$GPGSV,4,4,13,41,36,236,,0*50
$GBGSV,3,1,09,06,37,215,31,09,36,286,32,11,18,130,31,12,10,060,31,0*74
$GBGSV,3,2,09,13,48,202,32,14,08,164,31,01,37,122,31,02,50,173,31,0*7A
$GBGSV,3,3,09,04,36,125,31,0*4B
$GAGSV,2,1,05,10,64,334,34,24,85,019,,09,,,33,11,,,34,0*7F
$GAGSV,2,2,05,12,,,32,0*73

$GNRMC,000135.00,A,3000.00014,N,12000.00018,E,0.068,,230721,,,A,V*14
$GNGGA,000135.00,3000.00014,N,12000.00018,E,1,16,0.75,0.6,M,,M,,*54
$GNGSA,A,3,04,07,02,08,13,20,23,25,27,,,,1.47,0.75,1.26,1*0E
$GNGSA,A,3,14,13,06,09,11,12,,,,,,,1.47,0.75,1.26,4*0A
$GNGSA,A,3,10,,,,,,,,,,,,1.47,0.75,1.26,3*07
$GPGSV,4,1,13,0
2,32,299,36,04,51,246,36,07,84,111,36,08,47,207,36,0*67
$GPGSV,4,2,13,13,49,031,35,20,22,121,35,23,27,057,35,25,66,042,36,0*68
$GPGSV,4,3,13,27,18,219,35,42,48,143,,50,45,136,,40,13,256,,0*6B
$GPGSV,4,4,13,41,36,236,,0*50
$GBGSV,3,1,09,06,37,215,31,09,36,286,31,11,18,130,31,12,10,060,30,0*76
$GBGSV,3,2,09,13,48,202,32,14,08,164,31,01,37,122,31,02,50,173,31,0*7A
$GBGSV,3,3,09,04,36,125,31,0*4B
$GAGSV,2,1,05,10,64,334,34,24,85,019,,09,,,33,11,,,34,0*7F
$GAGSV,2,2,05,12,,,33,0*72

$GNRMC,000136.00,A,3000.00017,N,12000.00016,E,0.042,,230721,,,A,V*12
$GNGGA,000136.00,3000.00017,N,12000.00016,E,1,16,0.75,0.4,M,,M,,*58
$GNGSA,A,3,04,07,02,08,13,20,23,25,27,,,,1.47,0.75,1.26,1*0E
$GNGSA,A,3,14,13,06,09,11,12,,,,,,,1.47,0.75,1.26,4*0A
$GNGSA,A,3,10,,,,,,,,,,,,1.47,0.75,1.26,3*07
$GPGSV,4,1,13,02,32,299,35,04,51,246,35,07,84,111,36,08,47,207,35,0*64
$GPGSV,4,2,13,13,49,031,36,20,
22,121,36,23,27,057,34,25,66,042,37,0*68
$GPGSV,4,3,13,27,18,219,36,42,48,143,,50,45,136,,40,13,256,,0*68
$GPGSV,4,4,13,41,36,236,,0*50
$GBGSV,3,1,09,06,37,215,31,09,36,286,31,11,18,130,31,12,10,060,30,0*76
$GBGSV,3,2,09,13,48,202,32,14,08,164,30,01,37,122,31,02,50,173,31,0*7B
$GBGSV,3,3,09,04,36,125,31,0*4B
$GAGSV,2,1,05,10,64,334,34,24,85,019,,09,,,32,11,,,34,0*7E
$GAGSV,2,2,05,12,,,32,0*73

$GNRMC,000137.00,A,3000.00018,N,12000.00016,E,0.054,,230721,,,A,V*1B
$GNGGA,000137.00,3000.00018,N,12000.00016,E,1,16,0.75,0.4,M,,M,,*56
$GNGSA,A,3,04,07,02,08,13,20,23,25,27,,,,1.47,0.75,1.26,1*0E
$GNGSA,A,3,14,13,06,09,11,12,,,,,,,1.47,0.75,
1.26,4*0A
$GNGSA,A,3,10,,,,,,,,,,,,1.47,0.75,1.26,3*07
$GPGSV,4,1,13,02,32,299,35,04,51,246,36,07,84,111,37,08,47,207,36,0*65
$GPGSV,4,2,13,13,49,031,36,20,22,121,35,23,27,057,35,25,66,042,36,0*6B
$GPGSV,4,3,13,27,18,219,35,42,48,143,,50,45,136,,40,13,256,,0*6B
$GPGSV,4,4,13,41,36,236,,0*50
$GBGSV,3,1,09,06,37,215,31,09,36,286,31,11,18,130,31,12,10,060,30,0*76
$GBGSV,3,2,09,13,48,202,32,14,08,164,30,01,37,122,31,02,50,173,31,0*7B
$GBGSV,3,3,09,04,36,125,31,0*4B
$GAGSV,2,1,05,10,64,334,33,24,85,019,,09,,,33,11,,,34,0*78
$GAGSV,2,2,05,12,,,33,0*72

$GNRMC,000138.00,A,3000.00018,N,12000.00014,E,0.087,,230721,,,A,V*18
$GNGGA,000138.00,3000.00018,N,12000.00014,E,1,16,0.75,0.4,M,,M,,*5B
$GNGSA,A,3,04,07,02,08,13,20,23,25,27,,,,1.47,0.75,1.26,1*0E
$GNGSA,A,3,14,13,06,09,11,12,,,,,,,1.47,0.75,1.26,4*0A
$GNGSA,A,3,10,,,,,,,,,,,,1.47,0.75,1
.26,3*07
$GPGSV,4,1,13,02,32,299,35,04,51,246,35,07,84,111,36,08,47,207,35,0*64
$GPGSV,4,2,13,13,49,031,36,20,22,121,35,23,27,057,35,25,66,042,36,0*6B
$GPGSV,4,3,13,27,18,219,35,42,48,143,,50,45,136,,40,13,256,,0*6B
$GPGSV,4,4,13,41,36,236,,0*50
$GBGSV,3,1,09,06,37,215,31,09,36,286,31,11,18,130,31,12,10,060,31,0*77
$GBGSV,3,2,09,13,48,202,32,14,08,164,31,01,37,122,31,02,50,173,32,0*79
$GBGSV,3,3,09,04,36,125,31,0*4B
$GAGSV,2,1,05,10,64,334,34,24,85,019,,09,,,32,11,,,34,0*7E
$GAGSV,2,2,05,12,,,33,0*72

$GNRMC,000139.00,A,3000.00018,N,12000.00015,E,0.051,,230721,,,A,V*13
$GNGGA,000139.00,3000.00018,N,12000.00015,E,1,16,0.75,0.5,M,,M,,*5A
$GNGSA,A,3,04,07,02,08,13,20,23,25,27,,,,1.47,0.75,1.26,1*0E
$GNGSA,A,3,14,13,06,09,11,12,,,,,,,1.47,0.75,1.26,4*0A
$GNGSA,A,3,10
,,,,,,,,,,,,1.47,0.75,1.26,3*07
$GPGSV,4,1,13,02,32,299,35,04,51,246,35,07,84,111,36,08,47,207,35,0*64
$GPGSV,4,2,13,13,49,031,36,20,22,121,36,23,27,057,34,25,66,042,37,0*68
$GPGSV,4,3,13,27,18,219,36,42,48,143,,50,45,136,,40,13,256,,0*68
$GPGSV,4,4,13,41,36,236,,0*50
$GBGSV,3,1,09,06,37,215,31,09,36,286,31,11,18,130,31,12,10,060,31,0*77
$GBGSV,3,2,09,13,48,202,32,14,08,164,31,01,37,122,31,02,50,173,31,0*7A
$GBGSV,3,3,09,04,36,125,31,0*4B
$GAGSV,2,1,05,10,64,334,34,24,85,019,,09,,,33,11,,,34,0*7F
$GAGSV,2,2,05,12,,,33,0*72

$GNRMC,000140.00,A,3000.00015,N,12000.00020,E,0.274,,230721,,,A,V*13
$GNGGA,000140.00,3000.00015,N,12000.00020,E,1,17,0.72,0.6,M,,M,,*5A
$GNGSA,A,3,04,07,02,08,13,20,23,25,27,,,,1.45,0.72,1.26,1*0B
$GNGSA,A,3,14,13,06,09,11,12,,,,,,,1.45,0.72,1.26,4*0F
$GNGSA,A,3,10,11,
,,,,,,,,,,1.45,0.72,1.26,3*02
$GPGSV,4,1,13,02,32,299,35,04,51,246,35,07,84,110,37,08,47,207,35,0*64
$GPGSV,4,2,13,13,49,031,36,20,22,121,35,23,27,057,35,25,66,042,36,0*6B
$GPGSV,4,3,13,27,18,219,35,42,48,143,,50,45,136,,40,13,256,,0*6B
$GPGSV,4,4,13,41,36,236,,0*50
$GBGSV,3,1,09,06,37,215,31,09,36,286,31,11,18,130,31,12,10,060,31,0*77
$GBGSV,3,2,09,13,48,202,32,14,08,164,30,01,37,122,31,02,50,173,32,0*78
$GBGSV,3,3,09,04,36,125,31,0*4B
$GAGSV,2,1,05,10,64,334,34,11,56,117,34,24,85,019,,09,,,32,0*4A
$GAGSV,2,2,05,12,,,32,0*73

$GNRMC,000141.00,A,3000.00013,N,12000.00024,E,0.091,,230721,,,A,V*19
$GNGGA,000141.00,3000.00013,N,12000.00024,E,1,17,0.72,0.6,M,,M,,*59
$GNGSA,A,3,04,07,02,08,13,20,23,25,27,,,,1.45,0.72,1.26,1*0B
$GNGSA,A,3,14,13,06,09,11,12,,,,,,,1.45,0.72,1.26,4*0F
$GNGSA,A,3,10,11,,,,,,,,,,,1.45,0.72,1.26,3*02
$GPGSV,4,1,13,02,32,2
99,35,04,51,246,36,07,84,110,36,08,47,207,36,0*65
$GPGSV,4,2,13,13,49,031,36,20,22,121,35,23,27,057,35,25,66,042,36,0*6B
$GPGSV,4,3,13,27,18,219,35,42,48,143,,50,45,136,,40,13,256,,0*6B
$GPGSV,4,4,13,41,36,236,,0*50
$GBGSV,3,1,09,06,37,215,31,09,36,286,31,11,18,130,31,12,10,060,30,0*76
$GBGSV,3,2,09,13,48,202,32,14,08,164,30,01,37,122,31,02,50,173,31,0*7B
$GBGSV,3,3,09,04,36,125,31,0*4B
$GAGSV,2,1,05,10,64,334,34,11,56,117,34,24,85,019,,09,,,33,0*4B
$GAGSV,2,2,05,12,,,33,0*72

$GNRMC,000142.00,A,3000.00010,N,12000.00028,E,0.256,,230721,,,A,V*1C
$GNGGA,000142.00,3000.00010,N,12000.00028,E,1,17,0.72,0.6,M,,M,,*55
$GNGSA,A,3,04,07,02,08,13,20,23,25,27,,,,1.45,0.72,1.26,1*0B
$GNGSA,A,3,14,13,06,09,11,12,,,,,,,1.45,0.72,1.26,4*0F
$GNGSA,A,3,10,
11,,,,,,,,,,,1.45,0.72,1.26,3*02
$GPGSV,4,1,13,02,32,299,36,04,51,246,36,07,84,110,36,08,47,207,36,0*66
$GPGSV,4,2,13,13,49,031,35,20,22,121,35,23,27,057,36,25,66,041,36,0*68
$GPGSV,4,3,13,27,18,219,34,42,48,143,,50,45,136,,40,13,256,,0*6A
$GPGSV,4,4,13,41,36,236,,0*50
$GBGSV,3,1,09,06,36,215,31,09,36,286,31,11,18,130,31,12,10,060,31,0*76
$GBGSV,3,2,09,13,48,202,32,14,08,164,31,01,37,122,31,02,50,173,31,0*7A
$GBGSV,3,3,09,04,36,125,31,0*4B
$GAGSV,2,1,05,10,64,334,34,11,56,117,34,24,85,019,,09,,,32,0*4A
$GAGSV,2,2,05,12,,,33,0*72

$GNRMC,000143.00,A,3000.00005,N,12000.00030,E,0.038,,230721,,,A,V*1A
$GNGGA,000143.00,3000.00005,N,12000.00030,E,1,17,0.72,0.6,M,,M,,*59
$GNGSA,A,3,04,07,02,08,13,20,23,25,27,,,,1.45,0.72,1.26,1*0B
$GNGSA,A,3,14,13,06,09,11,12,,,,,,,1.45,0.72,1.26,4*0F
$GNGSA,A,3,10,11,,,,,,,,,,,1.45,0.72,1.26,3*02
$GPGSV,4,1,
13,02,32,299,36,04,51,246,36,07,84,110,37,08,47,207,36,0*67
$GPGSV,4,2,13,13,49,031,36,20,22,121,35,23,27,057,35,25,66,041,36,0*68
$GPGSV,4,3,13,27,18,219,35,42,48,143,,50,45,136,,40,13,256,,0*6B
$GPGSV,4,4,13,41,36,236,,0*50
$GBGSV,3,1,09,06,36,215,31,09,36,286,31,11,18,130,31,12,10,060,30,0*77
$GBGSV,3,2,09,13,48,202,32,14,08,164,31,01,37,122,31,02,50,173,31,0*7A
$GBGSV,3,3,09,04,36,125,31,0*4B
$GAGSV,2,1,05,10,64,334,34,11,56,117,34,24,84,019,,09,,,33,0*4A
$GAGSV,2,2,05,12,,,32,0*73

$GNRMC,000144.00,A,3000.00009,N,12000.00026,E,0.372,,230721,,,A,V*1B
$GNGGA,000144.00,3000.00009,N,12000.00026,E,1,17,0.72,0.8,M,,M,,*5B
$GNGSA,A,3,04,07,02,08,13,20,23,25,27,,,,1.45,0.72,1.26,1*0B
$GNGSA,A,3,14,13,06,09,11,12,,,,,,,1.45,0.72,1.26,4*0F
$GNGSA,A,3,10,11,,,,,,,,,,,1.45,0.72,1.26,3*02
$GPGSV,4,1,13,02,32,299,35,04,51,246,35,07,84,110,37,08,47,207,36,0*67
$GPGSV,4,2,13,13,49,031,36
,20,22,121,35,23,27,057,35,25,66,041,36,0*68
$GPGSV,4,3,13,27,18,219,35,42,48,143,,50,45,136,,40,13,256,,0*6B
$GPGSV,4,4,13,41,36,236,,0*50
$GBGSV,3,1,09,06,36,215,31,09,36,286,31,11,18,130,31,12,10,060,30,0*77
$GBGSV,3,2,09,13,48,202,32,14,08,164,31,01,37,122,32,02,50,173,31,0*79
$GBGSV,3,3,09,04,36,125,31,0*4B
$GAGSV,2,1,05,10,64,334,34,11,56,117,34,24,84,019,,09,,,32,0*4B
$GAGSV,2,2,05,12,,,33,0*72

$GNRMC,000145.00,A,3000.00012,N,12000.00025,E,0.141,,230721,,,A,V*11
$GNGGA,000145.00,3000.00012,N,12000.00025,E,1,17,0.72,0.8,M,,M,,*53
$GNGSA,A,3,04,07,02,08,13,20,23,25,27,,,,1.45,0.72,1.26,1*0B
$GNGSA,A,3,14,13,06,09,11,12,,,,,,,1.45,0.72,1.26,4*0F
$GNGSA,A,3,10,11,,,,,,,,,,,1.45,0.72,1.26,3*02
$GPGSV,4,1,
13,02,32,299,35,04,51,246,36,07,84,110,36,08,47,207,36,0*65
$GPGSV,4,2,13,13,49,031,36,20,22,121,35,23,27,057,35,25,66,041,36,0*68
$GPGSV,4,3,13,27,18,219,35,42,48,143,,50,45,136,,40,13,256,,0*6B
$GPGSV,4,4,13,41,36,236,,0*50
$GBGSV,3,1,09,06,36,215,31,09,36,286,31,11,18,130,31,12,10,060,31,0*76
$GBGSV,3,2,09,13,48,202,32,14,08,164,31,01,37,122,32,02,50,173,32,0*7A
$GBGSV,3,3,09,04,36,125,31,0*4B
$GAGSV,2,1,05,10,64,334,33,11,56,117,33,24,84,019,,09,,,32,0*4B
$GAGSV,2,2,05,12,,,33,0*72

$GNRMC,000146.00,A,3000.00011,N,12000.00028,E,0.054,,230721,,,A,V*19
$GNGGA,000146.00,3000.00011,N,12000.00028,E,1,17,0.72,0.8,M,,M,,*5E
$GNGSA,A,3,04,07,02,08,13,20,23,25,27,,,,1.45,0.72,1.26,1*0B
$GNGSA,A,3,14,13,06,09,11,12,,,,,,,1.45,0.72,1.26,4*0F
$GNGSA,A,3,10,11,,,,,,,,,,,1.45,0.72,1.26,3*02
$GPGSV,4,1,13,02,32,298,35,04,51,246,36,07,84,110,36,08,47,207,36,0
*64
$GPGSV,4,2,13,13,49,031,36,20,22,121,35,23,27,057,35,25,66,041,36,0*68
$GPGSV,4,3,13,27,18,219,35,42,48,143,,50,45,136,,40,13,256,,0*6B
$GPGSV,4,4,13,41,36,236,,0*50
$GBGSV,3,1,09,06,36,215,31,09,36,286,31,11,18,130,31,12,10,060,31,0*76
$GBGSV,3,2,09,13,48,202,32,14,08,164,31,01,37,122,31,02,50,173,32,0*79
$GBGSV,3,3,09,04,36,125,31,0*4B
$GAGSV,2,1,05,10,64,334,34,11,56,117,34,24,84,019,,09,,,33,0*4A
$GAGSV,2,2,05,12,,,32,0*73

$GNRMC,000147.00,A,3000.00012,N,12000.00029,E,0.104,,230721,,,A,V*1E
$GNGGA,000147.00,3000.00012,N,12000.00029,E,1,17,0.72,0.8,M,,M,,*5D
$GNGSA,A,3,04,07,02,08,13,20,23,25,27,,,,1.45,0.72,1.26,1*0B
$GNGSA,A,3,14,13,06,09,11,12,,,,,,,1.45,0.72,1.26,4*0F
$GNGSA,A,3,10,
11,,,,,,,,,,,1.45,0.72,1.26,3*02
$GPGSV,4,1,13,02,32,298,35,04,51,246,36,07,84,110,36,08,47,207,35,0*67
$GPGSV,4,2,13,13,49,031,36,20,22,121,36,23,27,057,35,25,66,041,36,0*6B
$GPGSV,4,3,13,27,18,219,35,42,48,143,,50,45,136,,40,13,256,,0*6B
$GPGSV,4,4,13,41,36,236,,0*50
$GBGSV,3,1,09,06,36,215,31,09,36,286,31,11,18,130,31,12,10,060,31,0*76
$GBGSV,3,2,09,13,48,202,32,14,08,164,31,01,37,122,31,02,50,173,32,0*79
$GBGSV,3,3,09,04,36,125,31,0*4B
$GAGSV,2,1,05,10,64,334,34,11,56,117,34,24,84,019,,09,,,33,0*4A
$GAGSV,2,2,05,12,,,32,0*73

$GNRMC,000148.00,A,3000.00011,N,12000.00031,E,0.079,,230721,,,A,V*10
$GNGGA,000148.00,3000.00011,N,12000.00031,E,1,18,0.66,0.8,M,,M,,*52
$GNGSA,A,3,04,07,02,08,13,20,23,25,27,,,,1.20,0.66,1.00,1*09
$GNGSA,A,3,14,13,06,09,11,12,,,,,,,1.20,0.66,1.00,4*0D
$GNGSA,A,3,09,10,11,,,,,,,,,,1.20,0.66,1.00,3*09
$GPGSV,4,1,13,02,32,298,35,04,51,246,35,07,84,110,37,08,47,207,35,0*65
$GPGSV,4,2,13,13,49,031,37
,20,22,121,35,23,27,057,34,25,66,041,36,0*68
$GPGSV,4,3,13,27,18,219,35,42,48,143,,50,45,136,,40,13,256,,0*6B
$GPGSV,4,4,13,41,36,236,,0*50
$GBGSV,3,1,09,06,36,215,31,09,36,286,31,11,18,130,31,12,10,060,31,0*76
$GBGSV,3,2,09,13,48,202,32,14,08,164,30,01,37,122,31,02,50,173,31,0*7B
$GBGSV,3,3,09,04,36,125,31,0*4B
$GAGSV,2,1,05,09,13,317,33,10,64,334,34,11,56,117,34,24,84,019,,0*7D
$GAGSV,2,2,05,12,,,33,0*72

$GNRMC,000149.00,A,3000.00011,N,12000.00031,E,0.029,,230721,,,A,V*14
$GNGGA,000149.00,3000.00011,N,12000.00031,E,1,18,0.66,0.8,M,,M,,*53
$GNGSA,A,3,04,07,02,08,13,20,23,25,27,,,,1.20,0.66,1.00,1*09
$GNGSA,A,3,14,13,06,09,11,12,,,,,,,1.20,0.66,1.00,4*0D
$GNGSA,A,3,09,10,11,,,,,,,,,,1.20,0.66,1.00,3*09
$GPGSV,4,1,13,02,32,298,36,04,51,246,36,07,84,110,36,0
8,47,207,36,0*67
$GPGSV,4,2,13,13,49,031,36,20,22,121,35,23,27,057,35,25,66,041,36,0*68
$GPGSV,4,3,13,27,18,219,35,42,48,143,,50,45,136,,40,13,256,,0*6B
$GPGSV,4,4,13,41,36,236,,0*50
$GBGSV,3,1,09,06,36,215,31,09,36,286,31,11,18,130,31,12,10,060,31,0*76
$GBGSV,3,2,09,13,48,202,32,14,08,164,31,01,37,122,31,02,50,173,32,0*79
$GBGSV,3,3,09,04,36,125,31,0*4B
$GAGSV,2,1,05,09,13,317,32,10,64,334,33,11,56,117,34,24,84,019,,0*7B
$GAGSV,2,2,05,12,,,33,0*72

$GNRMC,000150.00,A,3000.00014,N,12000.00031,E,0.176,,230721,,,A,V*12
$GNGGA,000150.00,3000.00014,N,12000.00031,E,1,18,0.66,0.6,M,,M,,*50
$GNGSA,A,3,04,07,02,08,13,20,23,25,27,,,,1.20,0.66,1.00,1*09
$GNGSA,A,3,14,13,06,09,11,12,,,,,,,1.20,0.66,1.00,4*0D
$GNGSA,A,3,09,10
,11,,,,,,,,,,1.20,0.66,1.00,3*09
$GPGSV,4,1,13,02,32,298,35,04,51,246,35,07,84,109,37,08,47,207,35,0*6D
$GPGSV,4,2,13,13,49,031,36,20,22,121,35,23,27,057,34,25,66,041,37,0*68
$GPGSV,4,3,13,27,18,219,36,42,48,143,,50,45,136,,40,13,256,,0*68
$GPGSV,4,4,13,41,36,236,,0*50
$GBGSV,3,1,09,06,36,215,31,09,36,286,32,11,18,130,31,12,10,060,31,0*75
$GBGSV,3,2,09,13,48,202,32,14,08,164,31,01,37,122,31,02,50,173,32,0*79
$GBGSV,3,3,09,04,36,125,31,0*4B
$GAGSV,2,1,05,09,13,317,33,10,64,334,34,11,56,117,34,24,84,019,,0*7D
$GAGSV,2,2,05,12,,,33,0*72


$GNRMC,000151.00,A,3000.00016,N,12000.00030,E,0.079,,230721,,,A,V*1E
$GNGGA,000151.00,3000.00016,N,12000.00030,E,1,18,0.66,0.7,M,,M,,*53
$GNGSA,A,3,04,07,02,08,13,20,23,25,27,,,,1.20,0.66,1.00,1*09
$GNGSA,A,3,14,13,06,09,11,12,,,,,,,1.20,0.66,1.00,4*0D
$GNGSA,A,3,09,10,11,,,,,,,,,,1.2
0,0.66,1.00,3*09
$GPGSV,4,1,13,02,32,298,35,04,51,246,35,07,84,109,36,08,47,207,36,0*6F
$GPGSV,4,2,13,13,49,031,36,20,22,121,35,23,27,057,35,25,66,041,37,0*69
$GPGSV,4,3,13,27,19,219,35,42,48,143,,50,45,136,,40,13,256,,0*6A
$GPGSV,4,4,13,41,36,236,,0*50
$GBGSV,3,1,09,06,36,215,31,09,36,286,31,11,18,130,31,12,10,060,31,0*76
$GBGSV,3,2,09,13,48,202,32,14,08,164,31,01,37,122,31,02,50,173,32,0*79
$GBGSV,3,3,09,04,36,125,31,0*4B
$GAGSV,2,1,05,09,13,317,33,10,64,334,34,11,56,117,34,24,84,019,,0*7D
$GAGSV,2,2,05,12,,,32,0*73

$GNRMC,000152.00,A,3000.00017,N,12000.00029,E,0.000,,230721,,,A,V*1A
$GNGGA,000152.00,3000.00017,N,12000.00029,E,1,18,0.66,0.7,M,,M,,*59
$GNGSA,A,3,04,07,02,08,13,20,23,25,27,,,,1.20,0.66,1.00,1*09
$GNGSA,A,3,14,13,06,09,11,12,,,,,,,1.20,0.66,1.00,4*0D
$GNGSA,A,3,09,10,11,,,,,,,,,,1.20,0.66,1.00,3*09
$GPGSV,4,1,13,02,32,298,35,04,51,246,36,07,84,109,36,08,47,207,35,0*6F
$GPGSV,4,2,13,13,4
9,031,36,20,22,121,35,23,27,057,36,25,66,041,37,0*6A
$GPGSV,4,3,13,27,19,219,36,42,48,143,,50,45,136,,40,13,256,,0*69
$GPGSV,4,4,13,41,36,236,,0*50
$GBGSV,3,1,09,06,36,215,31,09,36,286,31,11,18,130,31,12,10,060,31,0*76
$GBGSV,3,2,09,13,47,202,32,14,08,164,30,01,37,122,31,02,50,173,31,0*74
$GBGSV,3,3,09,04,36,125,31,0*4B
$GAGSV,2,1,05,09,13,317,32,10,64,334,33,11,56,117,34,24,84,019,,0*7B
$GAGSV,2,2,05,12,,,32,0*73

$GNRMC,000153.00,A,3000.00014,N,12000.00032,E,0.096,,230721,,,A,V*1D
$GNGGA,000153.00,3000.00014,N,12000.00032,E,1,18,0.66,0.8,M,,M,,*5E
$GNGSA,A,3,04,07,02,08,13,20,23,25,27,,,,1.20,0.66,1.00,1*09
$GNGSA,A,3,14,13,06,09,11,12,,,,,,,1.20,0.66,1.00,4*0D
$GNGSA,A,3,09,10,11,,,,,
,,,,,1.20,0.66,1.00,3*09
$GPGSV,4,1,13,02,32,298,36,04,51,246,35,07,84,109,36,08,47,207,36,0*6C
$GPGSV,4,2,13,13,49,031,36,20,22,121,35,23,27,057,35,25,66,041,36,0*68
$GPGSV,4,3,13,27,19,219,35,42,48,143,,50,45,136,,40,13,256,,0*6A
$GPGSV,4,4,13,41,36,236,,0*50
$GBGSV,3,1,09,06,36,215,31,09,36,286,31,11,18,130,31,12,10,060,31,0*76
$GBGSV,3,2,09,13,47,202,32,14,08,164,31,01,37,122,31,02,50,173,31,0*75
$GBGSV,3,3,09,04,36,125,31,0*4B
$GAGSV,2,1,05,09,13,317,33,10,64,334,34,11,56,117,34,24,84,019,,0*7D
$GAGSV,2,2,05,12,,,33,0*72

$GNRMC,000154.00,A,3000.00009,N,12000.00036,E,0.226,,230721,,,A,V*1B
$GNGGA,000154.00,3000.00009,N,12000.00036,E,1,18,0.66,0.8,M,,M,,*51
$GNGSA,A,3,04,07,02,08,13,20,23,25,27,,,,1.20,0.66,1.00,1*09
$GNGSA,A,3,14,13,06,09,11,12,,,,,,,1.20,0.66,1.00,4*0D
$GNGSA,A,3,09,10,11,,,,,,,,,,1.20,0.66,1.00,3*09
$GPGS
V,4,1,13,02,32,298,35,04,51,246,36,07,84,109,37,08,47,207,36,0*6D
$GPGSV,4,2,13,13,49,031,36,20,22,121,36,23,27,057,35,25,66,041,36,0*6B
$GPGSV,4,3,13,27,19,219,35,42,48,143,,50,45,136,,40,13,256,,0*6A
$GPGSV,4,4,13,41,36,236,,0*50
$GBGSV,3,1,09,06,36,215,31,09,36,286,31,11,18,130,31,12,10,060,31,0*76
$GBGSV,3,2,09,13,47,202,32,14,08,164,31,01,37,122,31,02,50,173,31,0*75
$GBGSV,3,3,09,04,36,125,31,0*4B
$GAGSV,2,1,05,09,13,317,33,10,64,334,34,11,56,117,34,24,84,019,,0*7D
$GAGSV,2,2,05,12,,,33,0*72

$GNRMC,000155.00,A,3000.00007,N,12000.00039,E,0.034,,230721,,,A,V*1A
$GNGGA,000155.00,3000.00007,N,12000.00039,E,1,18,0.66,0.6,M,,M,,*5F
$GNGSA,A,3,04,07,02,08,13,20,23,25,27,,,,1.20,0.66,1.00,1*09
$GNGSA,A,3,14,13,06,09,11,12,,,,,,,1.20,0.66,1.00,4*0D
$GNGSA,A,3,09,10,11,,,,,,,,,,1.20,0.66,1.00,3*09
$GPGSV,
4,1,13,02,32,298,35,04,51,246,36,07,84,109,36,08,47,207,36,0*6C
$GPGSV,4,2,13,13,49,031,36,20,22,121,35,23,27,057,35,25,66,041,36,0*68
$GPGSV,4,3,13,27,19,219,35,42,48,143,,50,45,136,,40,13,256,,0*6A
$GPGSV,4,4,13,41,36,236,,0*50
$GBGSV,3,1,09,06,36,215,31,09,36,286,31,11,18,130,32,12,10,060,31,0*75
$GBGSV,3,2,09,13,47,202,32,14,08,164,31,01,37,122,31,02,50,173,31,0*75
$GBGSV,3,3,09,04,36,125,31,0*4B
$GAGSV,2,1,05,09,13,317,32,10,64,334,35,11,56,117,34,24,84,019,,0*7D
$GAGSV,2,2,05,12,,,32,0*73

$GNRMC,000156.00,A,3000.00004,N,12000.00043,E,0.102,,230721,,,A,V*13
$GNGGA,000156.00,3000.00004,N,12000.00043,E,1,18,0.66,0.6,M,,M,,*52
$GNGSA,A,3,04,07,02,08,13,20,23,25,27,,,,1.20,0.66,1.00,1*09
$GNGSA,A,3,14,13,06,09,11,12,,,,,,,1.20,0.66,1.00,4*0D
$GNGSA,A,3,09,10,11,,,,,,,,,,1.20,0.66,1.00,3*09
$GPGSV,4,1,13,02,32,298,35,04,51,246,35,07,84,109,36,08,48,207,35,0*63
$GPGSV,4,2,13,
13,49,031,37,20,22,121,35,23,27,057,35,25,66,041,36,0*69
$GPGSV,4,3,13,27,19,219,35,42,48,143,,50,45,136,,40,13,256,,0*6A
$GPGSV,4,4,13,41,36,236,,0*50
$GBGSV,3,1,09,06,36,215,31,09,36,286,31,11,18,130,31,12,10,060,31,0*76
$GBGSV,3,2,09,13,47,202,32,14,08,164,31,01,37,122,31,02,50,173,32,0*76
$GBGSV,3,3,09,04,36,125,31,0*4B
$GAGSV,2,1,05,09,13,317,33,10,64,334,33,11,56,117,34,24,84,019,,0*7A
$GAGSV,2,2,05,12,,,33,0*72

$GNRMC,000157.00,A,3000.00005,N,12000.00042,E,0.103,,230721,,,A,V*13
$GNGGA,000157.00,3000.00005,N,12000.00042,E,1,18,0.66,0.6,M,,M,,*53
$GNGSA,A,3,04,07,02,08,13,20,23,25,27,,,,1.20,0.66,1.00,1*09
$GNGSA,A,3,14,13,06,09,11,12,,,,,,,1.20,0.66,1.00,4*0D
$GNGSA,A,3,09,10,11,,,,,,,,,,1.20,0.66,1.00,3*09
$GPGSV,4,1,13,
02,32,298,36,04,51,246,36,07,84,109,36,08,48,207,36,0*60
$GPGSV,4,2,13,13,49,031,36,20,22,121,35,23,27,057,35,25,66,041,36,0*68
$GPGSV,4,3,13,27,19,219,35,42,48,143,,50,45,136,,40,13,256,,0*6A
$GPGSV,4,4,13,41,36,236,,0*50
$GBGSV,3,1,09,06,36,215,31,09,36,286,31,11,18,130,31,12,10,060,31,0*76
$GBGSV,3,2,09,13,47,202,32,14,08,164,30,01,37,122,31,02,50,173,31,0*74
$GBGSV,3,3,09,04,36,125,31,0*4B
$GAGSV,2,1,05,09,13,317,33,10,64,334,34,11,56,117,34,24,84,019,,0*7D
$GAGSV,2,2,05,12,,,32,0*73

$GNRMC,000158.00,A,3000.00006,N,12000.00041,E,0.084,,230721,,,A,V*12
$GNGGA,000158.00,3000.00006,N,12000.00041,E,1,18,0.66,0.5,M,,M,,*5F
$GNGSA,A,3,04,07,02,08,13,20,23,25,27,,,,1.20,0.66,1.00,1*09
$GNGSA,A,3,14,13,06,09,11,12,,,,,,,1.20,0.66,1.00,4*0D
$GNGSA,A,3,09,10,11,,,,,,,,,,1.20,0.66,1.00,3*09
$GPGSV,4,1,13,02,32,298,35,04,51,246,36,07,84,109,36,08,48,207,35,0*60
$GP
GSV,4,2,13,13,49,031,36,20,22,121,35,23,27,057,35,25,66,041,36,0*68
$GPGSV,4,3,13,27,19,219,34,42,48,143,,50,45,136,,40,13,256,,0*6B
$GPGSV,4,4,13,41,36,236,,0*50
$GBGSV,3,1,09,06,36,215,31,09,36,286,31,11,18,130,31,12,10,060,31,0*76
$GBGSV,3,2,09,13,47,202,32,14,08,164,30,01,37,122,31,02,50,173,31,0*74
$GBGSV,3,3,09,04,36,125,31,0*4B
$GAGSV,2,1,05,09,13,317,32,10,64,334,34,11,56,117,34,24,84,019,,0*7C
$GAGSV,2,2,05,12,,,33,0*72

$GNRMC,000159.00,A,3000.00006,N,12000.00041,E,0.100,,230721,,,A,V*1E
$GNGGA,000159.00,3000.00006,N,12000.00041,E,1,18,0.66,0.4,M,,M,,*5F
$GNGSA,A,3,04,07,02,08,13,20,23,25,27,,,,1.20,0.66,1.00,1*09
$GNGSA,A,3,14,13,06,09,11,12,,,,,,,1.20,0.66,1.00,4*0D
$GNGSA,A,3,09,10,11,,
,,,,,,,,1.20,0.66,1.00,3*09
$GPGSV,4,1,13,02,32,298,35,04,51,246,35,07,84,109,36,08,48,207,36,0*60
$GPGSV,4,2,13,13,49,031,36,20,22,121,36,23,27,057,36,25,66,041,36,0*68
$GPGSV,4,3,13,27,19,219,35,42,48,143,,50,45,136,,40,13,256,,0*6A
$GPGSV,4,4,13,41,36,236,,0*50
$GBGSV,3,1,09,06,36,215,31,09,36,286,31,11,18,130,31,12,10,060,31,0*76
$GBGSV,3,2,09,13,47,202,32,14,08,164,31,01,37,122,31,02,50,173,32,0*76
$GBGSV,3,3,09,04,36,125,31,0*4B
$GAGSV,2,1,05,09,13,317,33,10,64,334,34,11,55,117,34,24,84,019,,0*7E
$GAGSV,2,2,05,12,,,32,0*73

$GNRMC,000200.00,A,3000.00007,N,12000.00039,E,0.056,,230721,,,A,V*1D
$GNGGA,000200.00,3000.00007,N,12000.00039,E,1,18,0.66,0.2,M,,M,,*58
$GNGSA,A,3,04,07,02,08,13,20,23,25,27,,,,1.20,0.66,1.00,1*09
$GNGSA,A,3,14,13,06,09,11,12,,,,,,,1.20,0.66,1.00,4*0D
$GNGSA,A,3,09,10,11,,,,,,,,,,1
.20,0.66,1.00,3*09
$GPGSV,4,1,13,02,32,298,36,04,51,246,36,07,84,109,37,08,48,207,35,0*62
$GPGSV,4,2,13,13,49,031,36,20,22,121,36,23,27,057,36,25,66,041,37,0*69
$GPGSV,4,3,13,27,19,219,35,42,48,143,,50,45,136,,40,13,256,,0*6A
$GPGSV,4,4,13,41,36,236,,0*50
$GBGSV,3,1,09,06,36,215,31,09,36,286,31,11,18,130,31,12,10,060,31,0*76
$GBGSV,3,2,09,13,47,202,32,14,08,164,31,01,37,122,31,02,50,173,31,0*75
$GBGSV,3,3,09,04,36,125,31,0*4B
$GAGSV,2,1,05,09,13,317,33,10,64,334,34,11,55,117,34,24,84,019,,0*7E
