,5*51
$GPGSV,11,4,11,5,67,47,65,9,32,167,65,10,9,111,65,12,58,66,65,5*6C
$GPGSV,11,5,11,14,14,266,65,21,12,200,65,24,48,174,65,29,55,279,65,5*5A
$GPGSV,11,6,11,30,59,343,65,31,17,319,65,2,35,50,65,5,67,47,65,6*57
$GPGSV,11,7,11,9,32,167,65,10,9,111,65,12,58,66,65,14,14,266,65,6*69
$GPGSV,11,8,11,21,12,200,65,24,48,174,65,29,55,279,65,30,59,343,65,6*5D
$GPGSV,11,9,11,31,17,319,65,2,35,50,65,5,67,47,65,9,32,167,65,7*6A
$GPGSV,11,10,11,10,9,111,65,12,58,66,65,14,14,266,65,21,12,200,65,7*64
$GPGSV,11,11,11,24,48,174,65,29,55,279,65,30,59,343,65,31,17,319,65,7*69
$GPGGA,135944,3114.03474,N,12130.00000,E,3,11,0.81,38.12,M,11.88,M,,*4D
$GPRMC,135944,A,3114.03474,N,12130.00000,E,69.698,0.000,010620,0.000,E,A,V*50
$GPGSV,11,1,11,2,35,50,65,5,67,47,65,9,32,167,65,10,9,111,65,1*52
$GPGSV,11,2,11,12,58,66,65,14,14,266,65,21,12,200,65,24,48,174,65,1*60
$GPGSV,11,3,11,29,55,279,65,30,59,343,65,31,17,319,65,2,35,50,65,5*51
$GPGSV,11,4,11,5,67,47,65,9,32,167,65,10,9,111,65,12,58,66,65,5*6C
$GPGSV,11,5,11,14,14,266,65,21,12,200,65,24,48,174,65,29,55,279,65,5*5A
$GPGSV,11,6,11,30,59,343,65,31,17,319,65,2,35,50,65,5,67,47,65,6*57
$GPGSV,11,7,11,9,32,167,65,10,9,111,65,12,58,66,65,14,14,266,65,6*69
$GPGSV,11,8,11,21,12,200,65,24,48,174,65,29,55,279,65,30,59,343,65,6*5D
$GPGSV,11,9,11,31,17,319,65,2,35,50,65,5,67,47,65,9,32,167,65,7*6A
$GPGSV,11,10,11,10,9,111,65,12,58,66,65,14,14,266,65,21,12,200,65,7*64
$GPGSV,11,11,11,24,48,174,65,29,55,279,65,30,59,343,65,31,17,319,65,7*69
$GPGGA,135945,3114.05786,N,12130.00000,E,3,11,0.81,38.12,M,11.88,M,,*44
$GPRMC,135945,A,3114.05786,N,12130.00000,E,96.448,0.000,010620,0.000,E,A,V*56
$GPGSV,11,1,11,2,35,50,65,5,67,47,65,9,32,167,65,10,9,111,65,1*52
$GPGSV,11,2,11,12,58,66,65,14,14,266,65,21,12,200,65,24,48,174,65,1*60
$GPGSV,11,3,11,29,55,279,65,30,59,343,65,31,17,319,65,2,35,50,65,5*51
$GPGSV,11,4,11,5,67,47,65,9,32,167,65,10,9,111,65,12,58,66,65,5*6C
$GPGSV,11,5,11,14,14,266,65,21,12,200,65,24,48,174,65,29,55,279,65,5*5A
$GPGSV,11,6,11,30,59,343,65,31,17,319,65,2,35,50,65,5,67,47,65,6*57
$GPGSV,11,7,11,9,32,167,65,10,9,111,65,12,58,66,65,14,14,266,65,6*69
$GPGSV,11,8,11,21,12,200,65,24,48,174,65,29,55,279,65,30,59,343,65,6*5D
$GPGSV,11,9,11,31,17,319,65,2,35,50,65,5,67,47,65,9,32,167,65,7*6A
$GPGSV,11,10,11,10,9,111,65,12,58,66,65,14,14,266,65,21,12,200,65,7*64
$GPGSV,11,11,11,24,48,174,65,29,55,279,65,30,59,343,65,31,17,319,65,7*69
$GPGGA,135946,3114.08844,N,12130.00000,E,3,11,0.81,38.12,M,11.88,M,,*4B
$GPRMC,135946,A,3114.08844,N,12130.00000,E,123.198,0.000,010620,0.000,E,A,V*6E
$GPGSV,11,1,11,2,35,50,65,5,67,47,65,9,32,167,65,10,9,111,65,1*52
$GPGSV,11,2,11,12,58,66,65,14,14,266,65,21,12,200,65,24,48,174,65,1*60
$GPGSV,11,3,11,29,55,279,65,30,59,343,65,31,17,319,65,2,35,50,65,5*51
$GPGSV,11,4,11,5,67,47,65,9,32,167,65,10,9,111,65,12,58,66,65,5*6C
$GPGSV,11,5,11,14,14,266,65,21,12,200,65,24,48,174,65,29,55,279,65,5*5A
$GPGSV,11,6,11,30,59,343,65,31,17,319,65,2,35,50,65,5,67,47,65,6*57
$GPGSV,11,7,11,9,32,167,65,10,9,111,65,12,58,66,65,14,14,266,65,6*69
$GPGSV,11,8,11,21,12,200,65,24,48,174,65,29,55,279,65,30,59,343,65,6*5D
$GPGSV,11,9,11,31,17,319,65,2,35,50,65,5,67,47,65,9,32,167,65,7*6A
$GPGSV,11,10,11,10,9,111,65,12,58,66,65,14,14,266,65,21,12,200,65,7*64
$GPGSV,11,11,11,24,48,174,65,29,55,279,65,30,59,343,65,31,17,319,65,7*69
$GPGGA,135947,3114.12646,N,12130.00000,E,3,11,0.81,38.12,M,11.88,M,,*4D
$GPRMC,135947,A,3114.12646,N,12130.00000,E,149.948,0.000,010620,0.000,E,A,V*61
$GPGSV,11,1,11,2,35,50,65,5,67,47,65,9,32,167,65,10,9,111,65,1*52
$GPGSV,11,2,11,12,58,66,65,14,14,266,65,21,12,200,65,24,48,174,65,1*60
$GPGSV,11,3,11,29,55,279,65,30,59,343,65,31,17,319,65,2,35,50,65,5*51
$GPGSV,11,4,11,5,67,47,65,9,32,167,65,10,9,111,65,12,58,66,65,5*6C
$GPGSV,11,5,11,14,14,266,65,21,12,200,65,24,48,174,65,29,55,279,65,5*5A
$GPGSV,11,6,11,30,59,343,65,31,17,319,65,2,35,50,65,5,67,47,65,6*57
$GPGSV,11,7,11,9,32,167,65,10,9,111,65,12,58,66,65,14,14,266,65,6*69
$GPGSV,11,8,11,21,12,200,65,24,48,174,65,29,55,279,65,30,59,343,65,6*5D
$GPGSV,11,9,11,31,17,319,65,2,35,50,65,5,67,47,65,9,32,167,65,7*6A
$GPGSV,11,10,11,10,9,111,65,12,58,66,65,14,14,266,65,21,12,200,65,7*64
$GPGSV,11,11,11,24,48,174,65,29,55,279,65,30,59,343,65,31,17,319,65,7*69
$GPGGA,135948,3114.17080,N,12130.00000,E,3,11,0.81,38.12,M,11.88,M,,*4B
$GPRMC,135948,A,3114.17080,N,12130.00000,E,161.986,0.000,010620,0.000,E,A,V*6F
$GPGSV,11,1,11,2,35,50,65,5,67,47,65,9,32,167,65,10,9,111,65,1*52
$GPGSV,11,2,11,12,58,66,65,14,14,266,65,21,12,200,65,24,48,174,65,1*60
$GPGSV,11,3,11,29,55,279,65,30,59,343,65,31,17,319,65,2,35,50,65,5*51
$GPGSV,11,4,11,5,67,47,65,9,32,167,65,10,9,111,65,12,58,66,65,5*6C
$GPGSV,11,5,11,14,14,266,65,21,12,200,65,24,48,174,65,29,55,279,65,5*5A
$GPGSV,11,6,11,30,59,343,65,31,17,319,65,2,35,50,65,5,67,47,65,6*57
$GPGSV,11,7,11,9,32,167,65,10,9,111,65,12,58,66,65,14,14,266,65,6*69
$GPGSV,11,8,11,21,12,200,65,24,48,174,65,29,55,279,65,30,59,343,65,6*5D
$GPGSV,11,9,11,31,17,319,65,2,35,50,65,5,67,47,65,9,32,167,65,7*6A
$GPGSV,11,10,11,10,9,111,65,12,58,66,65,14,14,266,65,21,12,200,65,7*64
$GPGSV,11,11,11,24,48,174,65,29,55,279,65,30,59,343,65,31,17,319,65,7*69
$GPGGA,135949,3114.21590,N,12130.00000,E,3,11,0.81,38.12,M,11.88,M,,*4B
$GPRMC,135949,A,3114.21590,N,12130.00000,E,161.986,0.000,010620,0.000,E,A,V*6F
$GPGSV,11,1,11,2,35,50,65,5,67,47,65,9,32,167,65,10,9,111,65,1*52
$GPGSV,11,2,11,12,58,66,65,14,14,266,65,21,12,200,65,24,48,174,65,1*60
$GPGSV,11,3,11,29,55,279,65,30,59,343,65,31,17,319,65,2,35,50,65,5*51
$GPGSV,11,4,11,5,67,47,65,9,32,167,65,10,9,111,65,12,58,66,65,5*6C
$GPGSV,11,5,11,14,14,266,65,21,12,200,65,24,48,174,65,29,55,279,65,5*5A
$GPGSV,11,6,11,30,59,343,65,31,17,319,65,2,35,50,65,5,67,47,65,6*57
$GPGSV,11,7,11,9,32,167,65,10,9,111,65,12,58,66,65,14,14,266,65,6*69
$GPGSV,11,8,11,21,12,200,65,24,48,174,65,29,55,279,65,30,59,343,65,6*5D
$GPGSV,11,9,11,31,17,319,65,2,35,50,65,5,67,47,65,9,32,167,65,7*6A
$GPGSV,11,10,11,10,9,111,65,12,58,66,65,14,14,266,65,21,12,200,65,7*64
$GPGSV,11,11,11,24,48,174,65,29,55,279,65,30,59,343,65,31,17,319,65,7*69
$GPGGA,135950,3114.26099,N,12130.00000,E,3,11,0.81,38.12,M,11.88,M,,*48
$GPRMC,135950,A,3114.26099,N,12130.00000,E,161.986,0.000,010620,0.000,E,A,V*6C
$GPGSV,11,1,11,2,35,50,65,5,67,47,65,9,32,167,65,10,9,111,65,1*52
$GPGSV,11,2,11,12,58,66,65,14,14,266,65,21,12,200,65,24,48,174,65,1*60
$GPGSV,11,3,11,29,55,279,65,30,59,343,65,31,17,319,65,2,35,50,65,5*51
$GPGSV,11,4,11,5,67,47,65,9,32,167,65,10,9,111,65,12,58,66,65,5*6C
$GPGSV,11,5,11,14,14,266,65,21,12,200,65,24,48,174,65,29,55,279,65,5*5A
$GPGSV,11,6,11,30,59,343,65,31,17,319,65,2,35,50,65,5,67,47,65,6*57
$GPGSV,11,7,11,9,32,167,65,10,9,111,65,12,58,66,65,14,14,266,65,6*69
$GPGSV,11,8,11,21,12,200,65,24,48,174,65,29,55,279,65,30,59,343,65,6*5D
$GPGSV,11,9,11,31,17,319,65,2,35,50,65,5,67,47,65,9,32,167,65,7*6A
$GPGSV,11,10,11,10,9,111,65,12,58,66,65,14,14,266,65,21,12,200,65,7*64
$GPGSV,11,11,11,24,48,174,65,29,55,279,65,30,59,343,65,31,17,319,65,7*69
$GPGGA,135951,3114.30609,N,12130.00000,E,3,11,0.81,38.12,M,11.88,M,,*41
$GPRMC,135951,A,3114.30609,N,12130.00000,E,161.986,0.000,010620,0.000,E,A,V*65
$GPGSV,11,1,11,2,35,50,65,5,67,47,65,9,32,167,65,10,9,111,65,1*52
$GPGSV,11,2,11,12,58,66,65,14,14,266,65,21,12,200,65,24,48,174,65,1*60
$GPGSV,11,3,11,29,55,279,65,30,59,343,65,31,17,319,65,2,35,50,65,5*51
$GPGSV,11,4,11,5,67,47,65,9,32,167,65,10,9,111,65,12,58,66,65,5*6C
$GPGSV,11,5,11,14,14,266,65,21,12,200,65,24,48,174,65,29,55,279,65,5*5A
$GPGSV,11,6,11,30,59,343,65,31,17,319,65,2,35,50,65,5,67,47,65,6*57
$GPGSV,11,7,11,9,32,167,65,10,9,111,65,12,58,66,65,14,14,266,65,6*69
$GPGSV,11,8,11,21,12,200,65,24,48,174,65,29,55,279,65,30,59,343,65,6*5D
$GPGSV,11,9,11,31,17,319,65,2,35,50,65,5,67,47,65,9,32,167,65,7*6A
$GPGSV,11,10,11,10,9,111,65,12,58,66,65,14,14,266,65,21,12,200,65,7*64
$GPGSV,11,11,11,24,48,174,65,29,55,279,65,30,59,343,65,31,17,319,65,7*69
$GPGGA,135952,3114.35119,N,12130.00000,E,3,11,0.81,38.12,M,11.88,M,,*41
$GPRMC,135952,A,3114.35119,N,12130.00000,E,161.986,0.000,010620,0.000,E,A,V*65
$GPGSV,11,1,11,2,35,50,65,5,67,47,65,9,32,167,65,10,9,111,65,1*52
$GPGSV,11,2,11,12,58,66,65,14,14,266,65,21,12,200,65,24,48,174,65,1*60
$GPGSV,11,3,11,29,55,279,65,30,59,343,65,31,17,319,65,2,35,50,65,5*51
$GPGSV,11,4,11,5,67,47,65,9,32,167,65,10,9,111,65,12,58,66,65,5*6C
$GPGSV,11,5,11,14,14,266,65,21,12,200,65,24,48,174,65,29,55,279,65,5*5A
$GPGSV,11,6,11,30,59,343,65,31,17,319,65,2,35,50,65,5,67,47,65,6*57
$GPGSV,11,7,11,9,32,167,65,10,9,111,65,12,58,66,65,14,14,266,65,6*69
$GPGSV,11,8,11,21,12,200,65,24,48,174,65,29,55,279,65,30,59,343,65,6*5D
$GPGSV,11,9,11,31,17,319,65,2,35,50,65,5,67,47,65,9,32,167,65,7*6A
$GPGSV,11,10,11,10,9,111,65,12,58,66,65,14,14,266,65,21,12,200,65,7*64
$GPGSV,11,11,11,24,48,174,65,29,55,279,65,30,59,343,65,31,17,319,65,7*69
$GPGGA,135953,3114.39424,N,12130.00000,E,3,11,0.81,38.12,M,11.88,M,,*47
$GPRMC,135953,A,3114.39424,N,12130.00000,E,142.191,0.000,010620,0.000,E,A,V*6C
$GPGSV,11,1,11,2,35,50,65,5,67,47,65,9,32,167,65,10,9,111,65,1*52
$GPGSV,11,2,11,12,58,66,65,14,14,266,65,21,12,200,65,24,48,174,65,1*60
$GPGSV,11,3,11,29,55,279,65,30,59,343,65,31,17,319,65,2,35,50,65,5*51
$GPGSV,11,4,11,5,67,47,65,9,32,167,65,10,9,111,65,12,58,66,65,5*6C
$GPGSV,11,5,11,14,14,266,65,21,12,200,65,24,48,174,65,29,55,279,65,5*5A
$GPGSV,11,6,11,30,59,343,65,31,17,319,65,2,35,50,65,5,67,47,65,6*57
$GPGSV,11,7,11,9,32,167,65,10,9,111,65,12,58,66,65,14,14,266,65,6*69
$GPGSV,11,8,11,21,12,200,65,24,48,174,65,29,55,279,65,30,59,343,65,6*5D
$GPGSV,11,9,11,31,17,319,65,2,35,50,65,5,67,47,65,9,32,167,65,7*6A
$GPGSV,11,10,11,10,9,111,65,12,58,66,65,14,14,266,65,21,12,200,65,7*64
$GPGSV,11,11,11,24,48,174,65,29,55,279,65,30,59,343,65,31,17,319,65,7*69
$GPGGA,135954,3114.43010,N,12130.00000,E,3,11,0.81,38.13,M,11.87,M,,*40
$GPRMC,135954,A,3114.43010,N,12130.00000,E,115.441,0.000,010620,0.000,E,A,V*6F
$GPGSV,11,1,11,2,35,50,65,5,67,47,65,9,32,167,65,10,9,111,65,1*52
$GPGSV,11,2,11,12,58,66,65,14,14,266,65,21,12,200,65,24,48,174,65,1*60
$GPGSV,11,3,11,29,55,280,65,30,59,343,65,31,17,319,65,2,35,50,65,5*57
$GPGSV,11,4,11,5,67,47,65,9,32,167,65,10,9,111,65,12,58,66,65,5*6C
$GPGSV,11,5,11,14,14,266,65,21,12,200,65,24,48,174,65,29,55,280,65,5*5C
$GPGSV,11,6,11,30,59,343,65,31,17,319,65,2,35,50,65,5,67,47,65,6*57
$GPGSV,11,7,11,9,32,167,65,10,9,111,65,12,58,66,65,14,14,266,65,6*69
$GPGSV,11,8,11,21,12,200,65,24,48,174,65,29,55,280,65,30,59,343,65,6*5B
$GPGSV,11,9,11,31,17,319,65,2,35,50,65,5,67,47,65,9,32,167,65,7*6A
$GPGSV,11,10,11,10,9,111,65,12,58,66,65,14,14,266,65,21,12,200,65,7*64
$GPGSV,11,11,11,24,48,174,65,29,55,280,65,30,59,343,65,31,17,319,65,7*6F
$GPGGA,135955,3114.45852,N,12130.00000,E,3,11,0.81,38.13,M,11.87,M,,*49
$GPRMC,135955,A,3114.45852,N,12130.00000,E,88.691,0.000,010620,0.000,E,A,V*5C
$GPGSV,11,1,11,2,35,50,65,5,67,47,65,9,32,167,65,10,9,111,65,1*52
$GPGSV,11,2,11,12,58,66,65,14,14,266,65,21,12,200,65,24,48,174,65,1*60
$GPGSV,11,3,11,29,55,280,65,30,59,343,65,31,17,319,65,2,35,50,65,5*57
$GPGSV,11,4,11,5,67,47,65,9,32,167,65,10,9,111,65,12,58,66,65,5*6C
$GPGSV,11,5,11,14,14,266,65,21,12,200,65,24,48,174,65,29,55,280,65,5*5C
$GPGSV,11,6,11,30,59,343,65,31,17,319,65,2,35,50,65,5,67,47,65,6*57
$GPGSV,11,7,11,9,32,167,65,10,9,111,65,12,58,66,65,14,14,266,65,6*69
$GPGSV,11,8,11,21,12,200,65,24,48,174,65,29,55,280,65,30,59,343,65,6*5B
$GPGSV,11,9,11,31,17,319,65,2,35,50,65,5,67,47,65,9,32,167,65,7*6A
$GPGSV,11,10,11,10,9,111,65,12,58,66,65,14,14,266,65,21,12,200,65,7*64
$GPGSV,11,11,11,24,48,174,65,29,55,280,65,30,59,343,65,31,17,319,65,7*6F
$GPGGA,135956,3114.47949,N,12130.00000,E,3,11,0.81,38.13,M,11.87,M,,*43
$GPRMC,135956,A,3114.47949,N,12130.00000,E,61.941,0.000,010620,0.000,E,A,V*53
$GPGSV,11,1,11,2,35,50,65,5,67,47,65,9,32,167,65,10,9,111,65,1*52
$GPGSV,11,2,11,12,58,66,65,14,14,266,65,21,12,200,65,24,48,174,65,1*60
$GPGSV,11,3,11,29,55,280,65,30,59,343,65,31,17,319,65,2,35,50,65,5*57
$GPGSV,11,4,11,5,67,47,65,9,32,167,65,10,9,111,65,12,58,66,65,5*6C
$GPGSV,11,5,11,14,14,266,65,21,12,200,65,24,48,174,65,29,55,280,65,5*5C
$GPGSV,11,6,11,30,59,343,65,31,17,319,65,2,35,50,65,5,67,47,65,6*57
$GPGSV,11,7,11,9,32,167,65,10,9,111,65,12,58,66,65,14,14,266,65,6*69
$GPGSV,11,8,11,21,12,200,65,24,48,174,65,29,55,280,65,30,59,343,65,6*5B
$GPGSV,11,9,11,31,17,319,65,2,35,50,65,5,67,47,65,9,32,167,65,7*6A
$GPGSV,11,10,11,10,9,111,65,12,58,66,65,14,14,266,65,21,12,200,65,7*64
$GPGSV,11,11,11,24,48,174,65,29,55,280,65,30,59,343,65,31,17,319,65,7*6F
$GPGGA,135957,3114.49301,N,12130.00000,E,3,11,0.81,38.13,M,11.87,M,,*4A
$GPRMC,135957,A,3114.49301,N,12130.00000,E,35.191,0.000,010620,0.000,E,A,V*5E
$GPGSV,11,1,11,2,35,50,65,5,67,47,65,9,32,167,65,10,9,111,65,1*52
$GPGSV,11,2,11,12,58,66,65,14,14,266,65,21,12,200,65,24,48,174,65,1*60
$GPGSV,11,3,11,29,55,280,65,30,59,343,65,31,17,319,65,2,35,50,65,5*57
$GPGSV,11,4,11,5,67,47,65,9,32,167,65,10,9,111,65,12,58,66,65,5*6C
$GPGSV,11,5,11,14,14,266,65,21,12,200,65,24,48,174,65,29,55,280,65,5*5C
$GPGSV,11,6,11,30,59,343,65,31,17,319,65,2,35,50,65,5,67,47,65,6*57
$GPGSV,11,7,11,9,32,167,65,10,9,111,65,12,58,66,65,14,14,266,65,6*69
$GPGSV,11,8,11,21,12,200,65,24,48,174,65,29,55,280,65,30,59,343,65,6*5B
$GPGSV,11,9,11,31,17,319,65,2,35,50,65,5,67,47,65,9,32,167,65,7*6A
$GPGSV,11,10,11,10,9,111,65,12,58,66,65,14,14,266,65,21,12,200,65,7*64
$GPGSV,11,11,11,24,48,174,65,29,55,280,65,30,59,343,65,31,17,319,65,7*6F
$GPGGA,135958,3114.49939,N,12130.00009,E,3,11,0.81,38.13,M,11.87,M,,*4D
$GPRMC,135958,A,3114.49939,N,12130.00009,E,16.199,6.923,010620,0.000,E,A,V*5E
$GPGSV,11,1,11,2,35,50,65,5,67,47,65,9,32,167,65,10,9,111,65,1*52
$GPGSV,11,2,11,12,58,66,65,14,14,266,65,21,12,200,65,24,48,174,65,1*60
$GPGSV,11,3,11,29,55,280,65,30,59,343,65,31,17,319,65,2,35,50,65,5*57
$GPGSV,11,4,11,5,67,47,65,9,32,167,65,10,9,111,65,12,58,66,65,5*6C
$GPGSV,11,5,11,14,14,266,65,21,12,200,65,24,48,174,65,29,55,280,65,5*5C
$GPGSV,11,6,11,30,59,343,65,31,17,319,65,2,35,50,65,5,67,47,65,6*57
$GPGSV,11,7,11,9,32,167,65,10,9,111,65,12,58,66,65,14,14,266,65,6*69
$GPGSV,11,8,11,21,12,200,65,24,48,174,65,29,55,280,65,30,59,343,65,6*5B
$GPGSV,11,9,11,31,17,319,65,2,35,50,65,5,67,47,65,9,32,167,65,7*6A
$GPGSV,11,10,11,10,9,111,65,12,58,66,65,14,14,266,65,21,12,200,65,7*64
$GPGSV,11,11,11,24,48,174,65,29,55,280,65,30,59,343,65,31,17,319,65,7*6F
$GPGGA,135959,3114.50363,N,12130.00178,E,3,11,0.81,38.13,M,11.87,M,,*46
$GPRMC,135959,A,3114.50363,N,12130.00178,E,16.199,30.796,010620,0.000,E,A,V*60
$GPGSV,11,1,11,2,35,50,65,5,67,47,65,9,32,167,65,10,9,111,65,1*52
$GPGSV,11,2,11,12,58,66,65,14,14,266,65,21,12,200,65,24,48,174,65,1*60
$GPGSV,11,3,11,29,55,280,65,30,59,343,65,31,17,319,65,2,35,50,65,5*57
$GPGSV,11,4,11,5,67,47,65,9,32,167,65,10,9,111,65,12,58,66,65,5*6C
$GPGSV,11,5,11,14,14,266,65,21,12,200,65,24,48,174,65,29,55,280,65,5*5C
$GPGSV,11,6,11,30,59,343,65,31,17,319,65,2,35,50,65,5,67,47,65,6*57
$GPGSV,11,7,11,9,32,167,65,10,9,111,65,12,58,66,65,14,14,266,65,6*69
$GPGSV,11,8,11,21,12,200,65,24,48,174,65,29,55,280,65,30,59,343,65,6*5B
$GPGSV,11,9,11,31,17,319,65,2,35,50,65,5,67,47,65,9,32,167,65,7*6A
$GPGSV,11,10,11,10,9,111,65,12,58,66,65,14,14,266,65,21,12,200,65,7*64
$GPGSV,11,11,11,24,48,174,65,29,55,280,65,30,59,343,65,31,17,319,65,7*6F
$GPGGA,140000,3114.50692,N,12130.00531,E,3,11,0.81,38.13,M,11.87,M,,*43
$GPRMC,140000,A,3114.50692,N,12130.00531,E,16.199,54.670,010620,0.000,E,A,V*6E
$GPGSV,11,1,11,2,35,50,65,5,67,47,65,9,32,167,65,10,9,111,65,1*52
$GPGSV,11,2,11,12,58,66,65,14,14,266,65,21,12,200,65,24,48,174,65,1*60
$GPGSV,11,3,11,29,56,280,65,30,59,343,65,31,17,319,65,2,35,50,65,5*54
$GPGSV,11,4,11,5,67,47,65,9,32,167,65,10,9,111,65,12,58,66,65,5*6C
$GPGSV,11,5,11,14,14,266,65,21,12,200,65,24,48,174,65,29,56,280,65,5*5F
$GPGSV,11,6,11,30,59,343,65,31,17,319,65,2,35,50,65,5,67,47,65,6*57
$GPGSV,11,7,11,9,32,167,65,10,9,111,65,12,58,66,65,14,14,266,65,6*69
$GPGSV,11,8,11,21,12,200,65,24,48,174,65,29,56,280,65,30,59,343,65,6*58
$GPGSV,11,9,11,31,17,319,65,2,35,50,65,5,67,47,65,9,32,167,65,7*6A
$GPGSV,11,10,11,10,9,111,65,12,58,66,65,14,14,266,65,21,12,200,65,7*64
$GPGSV,11,11,11,24,48,174,65,29,56,280,65,30,59,343,65,31,17,319,65,7*6C
$GPGGA,140001,3114.50869,N,12130.01009,E,3,11,0.81,38.13,M,11.87,M,,*47
$GPRMC,140001,A,3114.50869,N,12130.01009,E,16.199,78.543,010620,0.000,E,A,V*67
$GPGSV,11,1,11,2,35,50,65,5,67,47,65,9,32,167,65,10,9,111,65,1*52
$GPGSV,11,2,11,12,58,66,65,14,14,266,65,21,12,200,65,24,48,174,65,1*60
$GPGSV,11,3,11,29,56,280,65,30,59,343,65,31,17,319,65,2,35,50,65,5*54
$GPGSV,11,4,11,5,67,47,65,9,32,167,65,10,9,111,65,12,58,66,65,5*6C
$GPGSV,11,5,11,14,14,266,65,21,12,200,65,24,48,174,65,29,56,280,65,5*5F
$GPGSV,11,6,11,30,59,343,65,31,17,319,65,2,35,50,65,5,67,47,65,6*57
$GPGSV,11,7,11,9,32,167,65,10,9,111,65,12,58,66,65,14,14,266,65,6*69
$GPGSV,11,8,11,21,12,200,65,24,48,174,65,29,56,280,65,30,59,343,65,6*58
$GPGSV,11,9,11,31,17,319,65,2,35,50,65,5,67,47,65,9,32,167,65,7*6A
$GPGSV,11,10,11,10,9,111,65,12,58,66,65,14,14,266,65,21,12,200,65,7*64
$GPGSV,11,11,11,24,48,174,65,29,56,280,65,30,59,343,65,31,17,319,65,7*6C
$GPGGA,140002,3114.50891,N,12130.01650,E,3,11,0.81,38.13,M,11.87,M,,*49
$GPRMC,140002,A,3114.50891,N,12130.01650,E,30.109,90.000,010620,0.000,E,A,V*60
$GPGSV,11,1,11,2,35,50,65,5,67,47,65,9,32,167,65,10,9,111,65,1*52
$GPGSV,11,2,11,12,58,66,65,14,14,266,65,21,12,200,65,24,48,174,65,1*60
$GPGSV,11,3,11,29,56,280,65,30,59,343,65,31,17,319,65,2,35,50,65,5*54
$GPGSV,11,4,11,5,67,47,65,9,32,167,65,10,9,111,65,12,58,66,65,5*6C
$GPGSV,11,5,11,14,14,266,65,21,12,200,65,24,48,174,65,29,56,280,65,5*5F
$GPGSV,11,6,11,30,59,343,65,31,17,319,65,2,35,50,65,5,67,47,65,6*57
$GPGSV,11,7,11,9,32,167,65,10,9,111,65,12,58,66,65,14,14,266,65,6*69
$GPGSV,11,8,11,21,12,200,65,24,48,174,65,29,56,280,65,30,59,343,65,6*58
$GPGSV,11,9,11,31,17,319,65,2,35,50,65,5,67,47,65,9,32,167,65,7*6A
$GPGSV,11,10,11,10,9,111,65,12,58,66,65,14,14,266,65,21,12,200,65,7*64
$GPGSV,11,11,11,24,48,174,65,29,56,280,65,30,59,343,65,31,17,319,65,7*6C
$GPGGA,140003,3114.50891,N,12130.03059,E,3,11,0.81,38.12,M,11.88,M,,*4B
$GPRMC,140003,A,3114.50891,N,12130.03059,E,56.858,90.000,010620,0.000,E,A,V*61
$GPGSV,11,1,11,2,35,50,65,5,67,47,65,9,32,167,65,10,9,111,65,1*52
$GPGSV,11,2,11,12,58,66,65,14,14,266,65,21,12,200,65,24,48,174,65,1*60
$GPGSV,11,3,11,29,56,280,65,30,59,343,65,31,17,319,65,2,35,50,65,5*54
$GPGSV,11,4,11,5,67,47,65,9,32,167,65,10,9,111,65,12,58,66,65,5*6C
$GPGSV,11,5,11,14,14,266,65,21,12,200,65,24,48,174,65,29,56,280,65,5*5F
$GPGSV,11,6,11,30,59,343,65,31,17,319,65,2,35,50,65,5,67,47,65,6*57
$GPGSV,11,7,11,9,32,167,65,10,9,111,65,12,58,66,65,14,14,266,65,6*69
$GPGSV,11,8,11,21,12,200,65,24,48,174,65,29,56,280,65,30,59,343,65,6*58
$GPGSV,11,9,11,31,17,319,65,2,35,50,65,5,67,47,65,9,32,167,65,7*6A
$GPGSV,11,10,11,10,9,111,65,12,58,66,65,14,14,266,65,21,12,200,65,7*64
$GPGSV,11,11,11,24,48,174,65,29,56,280,65,30,59,343,65,31,17,319,65,7*6C
$GPGGA,140004,3114.50891,N,12130.05334,E,3,11,0.81,38.12,M,11.88,M,,*42
$GPRMC,140004,A,3114.50891,N,12130.05334,E,83.608,90.000,010620,0.000,E,A,V*6B
$GPGSV,11,1,11,2,35,50,65,5,67,47,65,9,32,167,65,10,9,111,65,1*52
$GPGSV,11,2,11,12,58,66,65,14,14,266,65,21,12,200,65,24,48,174,65,1*60
$GPGSV,11,3,11,29,56,280,65,30,59,343,65,31,17,319,65,2,35,50,65,5*54
$GPGSV,11,4,11,5,67,47,65,9,32,167,65,10,9,111,65,12,58,66,65,5*6C
$GPGSV,11,5,11,14,14,266,65,21,12,200,65,24,48,174,65,29,56,280,65,5*5F
$GPGSV,11,6,11,30,59,343,65,31,17,319,65,2,35,50,65,5,67,47,65,6*57
$GPGSV,11,7,11,9,32,167,65,10,9,111,65,12,58,66,65,14,14,266,65,6*69
$GPGSV,11,8,11,21,12,200,65,24,48,174,65,29,56,280,65,30,59,343,65,6*58
$GPGSV,11,9,11,31,17,319,65,2,35,50,65,5,67,47,65,9,32,167,65,7*6A
$GPGSV,11,10,11,10,9,111,65,12,58,66,65,14,14,266,65,21,12,200,65,7*64
$GPGSV,11,11,11,24,48,174,65,29,56,280,65,30,59,343,65,31,17,319,65,7*6C
$GPGGA,140005,3114.50891,N,12130.08477,E,3,11,0.81,38.12,M,11.88,M,,*4E
$GPRMC,140005,A,3114.50891,N,12130.08477,E,110.358,90.001,010620,0.000,E,A,V*5D
$GPGSV,11,1,11,2,35,50,65,5,67,47,65,9,32,167,65,10,9,111,65,1*52
$GPGSV,11,2,11,12,58,66,65,14,14,266,65,21,12,200,65,24,48,174,65,1*60
$GPGSV,11,3,11,29,56,280,65,30,59,343,65,31,17,319,65,2,35,50,65,5*54
$GPGSV,11,4,11,5,67,47,65,9,32,167,65,10,9,111,65,12,58,66,65,5*6C
$GPGSV,11,5,11,14,14,266,65,21,12,200,65,24,48,174,65,29,56,280,65,5*5F
$GPGSV,11,6,11,30,59,343,65,31,17,319,65,2,35,50,65,5,67,47,65,6*57
$GPGSV,11,7,11,9,32,167,65,10,9,111,65,12,58,66,65,14,14,266,65,6*69
$GPGSV,11,8,11,21,12,200,65,24,48,174,65,29,56,280,65,30,59,343,65,6*58
$GPGSV,11,9,11,31,17,319,65,2,35,50,65,5,67,47,65,9,32,167,65,7*6A
$GPGSV,11,10,11,10,9,111,65,12,58,66,65,14,14,266,65,21,12,200,65,7*64
$GPGSV,11,11,11,24,48,174,65,29,56,280,65,30,59,343,65,31,17,319,65,7*6C
$GPGGA,140006,3114.50891,N,12130.12486,E,3,11,0.81,38.12,M,11.88,M,,*48
$GPRMC,140006,A,3114.50891,N,12130.12486,E,137.108,90.001,010620,0.000,E,A,V*59
$GPGSV,11,1,11,2,35,50,65,5,67,47,65,9,32,167,65,10,9,111,65,1*52
$GPGSV,11,2,11,12,58,66,65,14,14,266,65,21,12,200,65,24,48,173,65,1*67
$GPGSV,11,3,11,29,56,280,65,30,59,343,65,31,17,319,65,2,35,50,65,5*54
$GPGSV,11,4,11,5,67,47,65,9,32,167,65,10,9,111,65,12,58,66,65,5*6C
$GPGSV,11,5,11,14,14,266,65,21,12,200,65,24,48,173,65,29,56,280,65,5*58
$GPGSV,11,6,11,30,59,343,65,31,17,319,65,2,35,50,65,5,67,47,65,6*57
$GPGSV,11,7,11,9,32,167,65,10,9,111,65,12,58,66,65,14,14,266,65,6*69
$GPGSV,11,8,11,21,12,200,65,24,48,173,65,29,56,280,65,30,59,343,65,6*5F
$GPGSV,11,9,11,31,17,319,65,2,35,50,65,5,67,47,65,9,32,167,65,7*6A
$GPGSV,11,10,11,10,9,111,65,12,58,66,65,14,14,266,65,21,12,200,65,7*64
$GPGSV,11,11,11,24,48,173,65,29,56,280,65,30,59,343,65,31,17,319,65,7*6B
$GPGGA,140007,3114.50891,N,12130.17360,E,3,11,0.81,38.11,M,11.89,M,,*41
$GPRMC,140007,A,3114.50891,N,12130.17360,E,161.986,90.002,010620,0.000,E,A,V*5C
$GPGSV,11,1,11,2,35,50,65,5,67,47,65,9,32,167,65,10,9,111,65,1*52
$GPGSV,11,2,11,12,58,66,65,14,14,266,65,21,12,200,65,24,48,173,65,1*67
$GPGSV,11,3,11,29,56,280,65,30,59,343,65,31,17,319,65,2,35,50,65,5*54
$GPGSV,11,4,11,5,67,47,65,9,32,167,65,10,9,111,65,12,58,66,65,5*6C
$GPGSV,11,5,11,14,14,266,65,21,12,200,65,24,48,173,65,29,56,280,65,5*58
$GPGSV,11,6,11,30,59,343,65,31,17,319,65,2,35,50,65,5,67,47,65,6*57
$GPGSV,11,7,11,9,32,167,65,10,9,111,65,12,58,66,65,14,14,266,65,6*69
$GPGSV,11,8,11,21,12,200,65,24,48,173,65,29,56,280,65,30,59,343,65,6*5F
$GPGSV,11,9,11,31,17,319,65,2,35,50,65,5,67,47,65,9,32,167,65,7*6A
$GPGSV,11,10,11,10,9,111,65,12,58,66,65,14,14,266,65,21,12,200,65,7*64
$GPGSV,11,11,11,24,48,173,65,29,56,280,65,30,59,343,65,31,17,319,65,7*6B
$GPGGA,140008,3114.50891,N,12130.22608,E,3,11,0.81,38.11,M,11.89,M,,*43
$GPRMC,140008,A,3114.50891,N,12130.22608,E,161.986,90.002,010620,0.000,E,A,V*5E
$GPGSV,11,1,11,2,35,50,65,5,67,47,65,9,32,167,65,10,9,111,65,1*52
$GPGSV,11,2,11,12,58,66,65,14,14,266,65,21,12,200,65,24,48,173,65,1*67
$GPGSV,11,3,11,29,56,280,65,30,59,343,65,31,17,319,65,2,35,50,65,5*54
$GPGSV,11,4,11,5,67,47,65,9,32,167,65,10,9,111,65,12,58,66,65,5*6C
$GPGSV,11,5,11,14,14,266,65,21,12,200,65,24,48,173,65,29,56,280,65,5*58
$GPGSV,11,6,11,30,59,343,65,31,17,319,65,2,35,50,65,5,67,47,65,6*57
$GPGSV,11,7,11,9,32,167,65,10,9,111,65,12,58,66,65,14,14,266,65,6*69
$GPGSV,11,8,11,21,12,200,65,24,48,173,65,29,56,280,65,30,59,343,65,6*5F
$GPGSV,11,9,11,31,17,319,65,2,35,50,65,5,67,47,65,9,32,167,65,7*6A
$GPGSV,11,10,11,10,9,111,65,12,58,66,65,14,14,266,65,21,12,200,65,7*64
$GPGSV,11,11,11,24,48,173,65,29,56,280,65,30,59,343,65,31,17,319,65,7*6B
$GPGGA,140009,3114.50890,N,12130.27857,E,3,11,0.81,38.10,M,11.90,M,,*4B
$GPRMC,140009,A,3114.50890,N,12130.27857,E,161.986,90.002,010620,0.000,E,A,V*5F
$GPGSV,11,1,11,2,35,50,65,5,67,47,65,9,32,167,65,10,9,111,65,1*52
$GPGSV,11,2,11,12,58,66,65,14,14,266,65,21,12,200,65,24,48,173,65,1*67
$GPGSV,11,3,11,29,56,280,65,30,59,343,65,31,17,319,65,2,35,50,65,5*54
$GPGSV,11,4,11,5,67,47,65,9,32,167,65,10,9,111,65,12,58,66,65,5*6C
$GPGSV,11,5,11,14,14,266,65,21,12,200,65,24,48,173,65,29,56,280,65,5*58
$GPGSV,11,6,11,30,59,343,65,31,17,319,65,2,35,50,65,5,67,47,65,6*57
$GPGSV,11,7,11,9,32,167,65,10,9,111,65,12,58,66,65,14,14,266,65,6*69
$GPGSV,11,8,11,21,12,200,65,24,48,173,65,29,56,280,65,30,59,343,65,6*5F
$GPGSV,11,9,11,31,17,319,65,2,35,50,65,5,67,47,65,9,32,167,65,7*6A
$GPGSV,11,10,11,10,9,111,65,12,58,66,65,14,14,266,65,21,12,200,65,7*64
$GPGSV,11,11,11,24,48,173,65,29,56,280,65,30,59,343,65,31,17,319,65,7*6B
$GPGGA,140010,3114.50890,N,12130.33106,E,3,11,0.81,38.10,M,11.90,M,,*4B
$GPRMC,140010,A,3114.50890,N,12130.33106,E,161.986,90.003,010620,0.000,E,A,V*5E
$GPGSV,11,1,11,2,35,50,65,5,67,47,65,9,32,167,65,10,9,111,65,1*52
$GPGSV,11,2,11,12,58,66,65,14,14,266,65,21,12,200,65,24,48,173,65,1*67
$GPGSV,11,3,11,29,56,280,65,30,59,343,65,31,17,319,65,2,35,50,65,5*54
$GPGSV,11,4,11,5,67,47,65,9,32,167,65,10,9,111,65,12,58,66,65,5*6C
$GPGSV,11,5,11,14,14,266,65,21,12,200,65,24,48,173,65,29,56,280,65,5*58
$GPGSV,11,6,11,30,59,343,65,31,17,319,65,2,35,50,65,5,67,47,65,6*57
$GPGSV,11,7,11,9,32,167,65,10,9,111,65,12,58,66,65,14,14,266,65,6*69
$GPGSV,11,8,11,21,12,200,65,24,48,173,65,29,56,280,65,30,59,343,65,6*5F
$GPGSV,11,9,11,31,17,319,65,2,35,50,65,5,67,47,65,9,32,167,65,7*6A
$GPGSV,11,10,11,10,9,111,65,12,58,66,65,14,14,266,65,21,12,200,65,7*64
$GPGSV,11,11,11,24,48,173,65,29,56,280,65,30,59,343,65,31,17,319,65,7*6B
$GPGGA,140011,3114.50890,N,12130.38354,E,3,11,0.81,38.09,M,11.91,M,,*4D
$GPRMC,140011,A,3114.50890,N,12130.38354,E,161.986,90.003,010620,0.000,E,A,V*51
$GPGSV,11,1,11,2,35,50,65,5,67,47,65,9,32,167,65,10,9,111,65,1*52
$GPGSV,11,2,11,12,58,66,65,14,14,266,65,21,12,200,65,24,48,173,65,1*67
$GPGSV,11,3,11,29,56,280,65,30,59,343,65,31,17,319,65,2,35,50,65,5*54
$GPGSV,11,4,11,5,67,47,65,9,32,167,65,10,9,111,65,12,58,66,65,5*6C
$GPGSV,11,5,11,14,14,266,65,21,12,200,65,24,48,173,65,29,56,280,65,5*58
$GPGSV,11,6,11,30,59,343,65,31,17,319,65,2,35,50,65,5,67,47,65,6*57
$GPGSV,11,7,11,9,32,167,65,10,9,111,65,12,58,66,65,14,14,266,65,6*69
$GPGSV,11,8,11,21,12,200,65,24,48,173,65,29,56,280,65,30,59,343,65,6*5F
$GPGSV,11,9,11,31,17,319,65,2,35,50,65,5,67,47,65,9,32,167,65,7*6A
$GPGSV,11,10,11,10,9,111,65,12,58,66,65,14,14,266,65,21,12,200,65,7*64
$GPGSV,11,11,11,24,48,173,65,29,56,280,65,30,59,343,65,31,17,319,65,7*6B
$GPGGA,140012,3114.50890,N,12130.43603,E,3,11,0.81,38.09,M,11.91,M,,*45
$GPRMC,140012,A,3114.50890,N,12130.43603,E,161.986,90.004,010620,0.000,E,A,V*5E
$GPGSV,11,1,11,2,35,50,65,5,67,47,65,9,32,167,65,10,9,111,65,1*52
$GPGSV,11,2,11,12,58,66,65,14,14,266,65,21,12,200,65,24,48,173,65,1*67
$GPGSV,11,3,11,29,56,280,65,30,59,343,65,31,17,319,65,2,35,50,65,5*54
$GPGSV,11,4,11,5,67,47,65,9,32,167,65,10,9,111,65,12,58,66,65,5*6C
$GPGSV,11,5,11,14,14,266,65,21,12,200,65,24,48,173,65,29,56,280,65,5*58
$GPGSV,11,6,11,30,59,343,65,31,17,319,65,2,35,50,65,5,67,47,65,6*57
$GPGSV,11,7,11,9,32,167,65,10,9,111,65,12,58,66,65,14,14,266,65,6*69
$GPGSV,11,8,11,21,12,200,65,24,48,173,65,29,56,280,65,30,59,343,65,6*5F
$GPGSV,11,9,11,31,17,319,65,2,35,50,65,5,67,47,65,9,32,167,65,7*6A
$GPGSV,11,10,11,10,9,111,65,12,58,66,65,14,14,266,65,21,12,200,65,7*64
$GPGSV,11,11,11,24,48,173,65,29,56,280,65,30,59,343,65,31,17,319,65,7*6B
$GPGGA,140013,3114.50889,N,12130.48852,E,3,11,0.81,38.08,M,11.92,M,,*4F
$GPRMC,140013,A,3114.50889,N,12130.48852,E,161.986,90.004,010620,0.000,E,A,V*56
$GPGSV,11,1,11,2,35,50,65,5,67,47,65,9,32,167,65,10,9,111,65,1*52
$GPGSV,11,2,11,12,58,66,65,14,14,266,65,21,12,200,65,24,48,173,65,1*67
$GPGSV,11,3,11,29,56,280,65,30,59,343,65,31,17,319,65,2,35,50,65,5*54
$GPGSV,11,4,11,5,67,47,65,9,32,167,65,10,9,111,65,12,58,66,65,5*6C
$GPGSV,11,5,11,14,14,266,65,21,12,200,65,24,48,173,65,29,56,280,65,5*58
$GPGSV,11,6,11,30,59,343,65,31,17,319,65,2,35,50,65,5,67,47,65,6*57
$GPGSV,11,7,11,9,32,167,65,10,9,111,65,12,58,66,65,14,14,266,65,6*69
$GPGSV,11,8,11,21,12,200,65,24,48,173,65,29,56,280,65,30,59,343,65,6*5F
$GPGSV,11,9,11,31,17,319,65,2,35,50,65,5,67,47,65,9,32,167,65,7*6A
$GPGSV,11,10,11,10,9,111,65,12,58,66,65,14,14,266,65,21,12,200,65,7*64
$GPGSV,11,11,11,24,48,173,65,29,56,280,65,30,59,343,65,31,17,319,65,7*6B
$GPGGA,140014,3114.50889,N,12130.54100,E,3,11,0.81,38.08,M,11.92,M,,*4B
$GPRMC,140014,A,3114.50889,N,12130.54100,E,161.986,90.005,010620,0.000,E,A,V*53
$GPGSV,11,1,11,2,35,50,65,5,67,47,65,9,32,167,65,10,9,111,65,1*52
$GPGSV,11,2,11,12,58,66,65,14,14,266,65,21,12,200,65,24,48,173,65,1*67
$GPGSV,11,3,11,29,56,280,65,30,59,343,65,31,17,319,65,2,35,50,65,5*54
$GPGSV,11,4,11,5,67,47,65,9,32,167,65,10,9,111,65,12,58,66,65,5*6C
$GPGSV,11,5,11,14,14,266,65,21,12,200,65,24,48,173,65,29,56,280,65,5*58
$GPGSV,11,6,11,30,59,343,65,31,17,319,65,2,35,50,65,5,67,47,65,6*57
$GPGSV,11,7,11,9,32,167,65,10,9,111,65,12,58,66,65,14,14,266,65,6*69
$GPGSV,11,8,11,21,12,200,65,24,48,173,65,29,56,280,65,30,59,343,65,6*5F
$GPGSV,11,9,11,31,17,319,65,2,35,50,65,5,67,47,65,9,32,167,65,7*6A
$GPGSV,11,10,11,10,9,111,65,12,58,66,65,14,14,266,65,21,12,200,65,7*64
$GPGSV,11,11,11,24,48,173,65,29,56,280,65,30,59,343,65,31,17,319,65,7*6B
$GPGGA,140015,3114.50889,N,12130.59349,E,3,11,0.81,38.07,M,11.93,M,,*46
$GPRMC,140015,A,3114.50889,N,12130.59349,E,161.986,90.005,010620,0.000,E,A,V*50
$GPGSV,11,1,11,2,35,50,65,5,67,47,65,9,32,167,65,10,9,111,65,1*52
$GPGSV,11,2,11,12,58,66,65,14,14,266,65,21,12,200,65,24,48,173,65,1*67
$GPGSV,11,3,11,29,56,280,65,30,59,343,65,31,17,319,65,2,35,50,65,5*54
$GPGSV,11,4,11,5,67,47,65,9,32,167,65,10,9,111,65,12,58,66,65,5*6C
$GPGSV,11,5,11,14,14,266,65,21,12,200,65,24,48,173,65,29,56,280,65,5*58
$GPGSV,11,6,11,30,59,343,65,31,17,319,65,2,35,50,65,5,67,47,65,6*57
$GPGSV,11,7,11,9,32,167,65,10,9,111,65,12,58,66,65,14,14,266,65,6*69
$GPGSV,11,8,11,21,12,200,65,24,48,173,65,29,56,280,65,30,59,343,65,6*5F
$GPGSV,11,9,11,31,17,319,65,2,35,50,65,5,67,47,65,9,32,167,65,7*6A
$GPGSV,11,10,11,10,9,111,65,12,58,66,65,14,14,266,65,21,12,200,65,7*64
$GPGSV,11,11,11,24,48,173,65,29,56,280,65,30,59,343,65,31,17,319,65,7*6B
$GPGGA,140016,3114.50888,N,12130.64597,E,3,11,0.81,38.07,M,11.93,M,,*4F
$GPRMC,140016,A,3114.50888,N,12130.64597,E,161.986,90.006,010620,0.000,E,A,V*5A
$GPGSV,11,1,11,2,35,50,65,5,67,47,65,9,32,167,65,10,9,111,65,1*52
$GPGSV,11,2,11,12,58,66,65,14,14,266,65,21,12,200,65,24,48,173,65,1*67
$GPGSV,11,3,11,29,56,280,65,30,59,343,65,31,17,319,65,2,35,50,65,5*54
$GPGSV,11,4,11,5,67,47,65,9,32,167,65,10,9,111,65,12,58,66,65,5*6C
$GPGSV,11,5,11,14,14,266,65,21,12,200,65,24,48,173,65,29,56,280,65,5*58
$GPGSV,11,6,11,30,59,343,65,31,17,319,65,2,35,50,65,5,67,47,65,6*57
$GPGSV,11,7,11,9,32,167,65,10,9,111,65,12,58,66,65,14,14,266,65,6*69
$GPGSV,11,8,11,21,12,200,65,24,48,173,65,29,56,280,65,30,59,343,65,6*5F
$GPGSV,11,9,11,31,17,319,65,2,35,50,65,5,67,47,65,9,32,167,65,7*6A
$GPGSV,11,10,11,10,9,111,65,12,58,66,65,14,14,266,65,21,12,200,65,7*64
$GPGSV,11,11,11,24,48,173,65,29,56,280,65,30,59,343,65,31,17,319,65,7*6B
$GPGGA,140017,3114.50888,N,12130.69846,E,3,11,0.81,38.06,M,11.94,M,,*44
$GPRMC,140017,A,3114.50888,N,12130.69846,E,161.986,90.006,010620,0.000,E,A,V*57
$GPGSV,11,1,11,2,35,50,65,5,67,47,65,9,32,167,65,10,9,111,65,1*52
$GPGSV,11,2,11,12,58,66,65,14,14,266,65,21,12,200,65,24,48,173,65,1*67
$GPGSV,11,3,11,29,56,280,65,30,59,343,65,31,17,319,65,2,35,50,65,5*54
$GPGSV,11,4,11,5,67,47,65,9,32,167,65,10,9,111,65,12,58,66,65,5*6C
$GPGSV,11,5,11,14,14,266,65,21,12,200,65,24,48,173,65,29,56,280,65,5*58
$GPGSV,11,6,11,30,59,343,65,31,17,319,65,2,35,50,65,5,67,47,65,6*57
$GPGSV,11,7,11,9,32,167,65,10,9,111,65,12,58,66,65,14,14,266,65,6*69
$GPGSV,11,8,11,21,12,200,65,24,48,173,65,29,56,280,65,30,59,343,65,6*5F
$GPGSV,11,9,11,31,17,319,65,2,35,50,65,5,67,47,65,9,32,167,65,7*6A
$GPGSV,11,10,11,10,9,111,65,12,58,66,65,14,14,266,65,21,12,200,65,7*64
$GPGSV,11,11,11,24,48,173,65,29,56,280,65,30,59,343,65,31,17,319,65,7*6B
$GPGGA,140018,3114.50887,N,12130.75065,E,3,11,0.81,38.06,M,11.94,M,,*40
$GPRMC,140018,A,3114.50887,N,12130.75065,E,155.031,90.006,010620,0.000,E,A,V*51
$GPGSV,11,1,11,2,35,50,65,5,67,48,65,9,32,167,65,10,9,111,65,1*5D
$GPGSV,11,2,11,12,58,66,65,14,14,266,65,21,12,200,65,24,48,173,65,1*67
$GPGSV,11,3,11,29,56,280,65,30,59,343,65,31,17,319,65,2,35,50,65,5*54
$GPGSV,11,4,11,5,67,48,65,9,32,167,65,10,9,111,65,12,58,66,65,5*63
$GPGSV,11,5,11,14,14,266,65,21,12,200,65,24,48,173,65,29,56,280,65,5*58
$GPGSV,11,6,11,30,59,343,65,31,17,319,65,2,35,50,65,5,67,48,65,6*58
$GPGSV,11,7,11,9,32,167,65,10,9,111,65,12,58,66,65,14,14,266,65,6*69
$GPGSV,11,8,11,21,12,200,65,24,48,173,65,29,56,280,65,30,59,343,65,6*5F
$GPGSV,11,9,11,31,17,319,65,2,35,50,65,5,67,48,65,9,32,167,65,7*65
$GPGSV,11,10,11,10,9,111,65,12,58,66,65,14,14,266,65,21,12,200,65,7*64
$GPGSV,11,11,11,24,48,173,65,29,56,280,65,30,59,343,65,31,17,319,65,7*6B
$GPGGA,140019,3114.50887,N,12130.79655,E,3,11,0.81,38.05,M,11.95,M,,*4A
$GPRMC,140019,A,3114.50887,N,12130.79655,E,128.281,90.007,010620,0.000,E,A,V*5B
$GPGSV,11,1,11,2,35,50,65,5,67,48,65,9,32,167,65,10,9,111,65,1*5D
$GPGSV,11,2,11,12,58,66,65,14,14,266,65,21,12,200,65,24,48,173,65,1*67
$GPGSV,11,3,11,29,56,280,65,30,59,343,65,31,17,319,65,2,35,50,65,5*54
$GPGSV,11,4,11,5,67,48,65,9,32,167,65,10,9,111,65,12,58,66,65,5*63
$GPGSV,11,5,11,14,14,266,65,21,12,200,65,24,48,173,65,29,56,280,65,5*58
$GPGSV,11,6,11,30,59,343,65,31,17,319,65,2,35,50,65,5,67,48,65,6*58
$GPGSV,11,7,11,9,32,167,65,10,9,111,65,12,58,66,65,14,14,266,65,6*69
$GPGSV,11,8,11,21,12,200,65,24,48,173,65,29,56,280,65,30,59,343,65,6*5F
$GPGSV,11,9,11,31,17,319,65,2,35,50,65,5,67,48,65,9,32,167,65,7*65
$GPGSV,11,10,11,10,9,111,65,12,58,66,65,14,14,266,65,21,12,200,65,7*64
$GPGSV,11,11,11,24,48,173,65,29,56,280,65,30,59,343,65,31,17,319,65,7*6B
$GPGGA,140020,3114.50886,N,12130.83378,E,3,11,0.81,38.05,M,11.95,M,,*4E
$GPRMC,140020,A,3114.50886,N,12130.83378,E,101.531,90.007,010620,0.000,E,A,V*58
$GPGSV,11,1,11,2,35,50,65,5,67,48,65,9,32,167,65,10,9,111,65,1*5D
$GPGSV,11,2,11,12,58,66,65,14,14,266,65,21,12,200,65,24,48,173,65,1*67
$GPGSV,11,3,11,29,56,280,65,30,59,343,65,31,17,319,65,2,35,50,65,5*54
$GPGSV,11,4,11,5,67,48,65,9,32,167,65,10,9,111,65,12,58,66,65,5*63
$GPGSV,11,5,11,14,14,266,65,21,12,200,65,24,48,173,65,29,56,280,65,5*58
$GPGSV,11,6,11,30,59,343,65,31,17,319,65,2,35,50,65,5,67,48,65,6*58
$GPGSV,11,7,11,9,32,167,65,10,9,111,65,12,58,66,65,14,14,266,65,6*69
$GPGSV,11,8,11,21,12,200,65,24,48,173,65,29,56,280,65,30,59,343,65,6*5F
$GPGSV,11,9,11,31,17,319,65,2,35,50,65,5,67,48,65,9,32,167,65,7*65
$GPGSV,11,10,11,10,9,111,65,12,58,66,65,14,14,266,65,21,12,200,65,7*64
$GPGSV,11,11,11,24,48,173,65,29,56,280,65,30,59,343,65,31,17,319,65,7*6B
$GPGGA,140021,3114.50886,N,12130.86235,E,3,11,0.81,38.05,M,11.95,M,,*42
$GPRMC,140021,A,3114.50886,N,12130.86235,E,74.781,90.007,010620,0.000,E,A,V*6E
$GPGSV,11,1,11,2,35,50,65,5,67,48,65,9,32,167,65,10,9,111,65,1*5D
$GPGSV,11,2,11,12,58,66,65,14,14,266,65,21,12,200,65,24,48,173,65,1*67
$GPGSV,11,3,11,29,56,280,65,30,59,343,65,31,17,319,65,2,35,50,65,5*54
$GPGSV,11,4,11,5,67,48,65,9,32,167,65,10,9,111,65,12,58,66,65,5*63
$GPGSV,11,5,11,14,14,266,65,21,12,200,65,24,48,173,65,29,56,280,65,5*58
$GPGSV,11,6,11,30,59,343,65,31,17,319,65,2,35,50,65,5,67,48,65,6*58
$GPGSV,11,7,11,9,32,167,65,10,9,111,65,12,58,66,65,14,14,266,65,6*69
$GPGSV,11,8,11,21,12,200,65,24,48,173,65,29,56,280,65,30,59,343,65,6*5F
$GPGSV,11,9,11,31,17,319,65,2,35,50,65,5,67,48,65,9,32,167,65,7*65
$GPGSV,11,10,11,10,9,111,65,12,58,66,65,14,14,266,65,21,12,200,65,7*64
$GPGSV,11,11,11,24,48,173,65,29,56,280,65,30,59,343,65,31,17,319,65,7*6B
$GPGGA,140022,3114.50886,N,12130.88224,E,3,11,0.81,38.05,M,11.95,M,,*4F
$GPRMC,140022,A,3114.50886,N,12130.88224,E,48.031,90.008,010620,0.000,E,A,V*6F
$GPGSV,11,1,11,2,35,50,65,5,67,48,65,9,32,167,65,10,9,111,65,1*5D
$GPGSV,11,2,11,12,58,66,65,14,14,266,65,21,12,200,65,24,48,173,65,1*67
$GPGSV,11,3,11,29,56,280,65,30,59,343,65,31,17,319,65,2,35,50,65,5*54
$GPGSV,11,4,11,5,67,48,65,9,32,167,65,10,9,111,65,12,58,66,65,5*63
$GPGSV,11,5,11,14,14,266,65,21,12,200,65,24,48,173,65,29,56,280,65,5*58
$GPGSV,11,6,11,30,59,343,65,31,17,319,65,2,35,50,65,5,67,48,65,6*58
$GPGSV,11,7,11,9,32,167,65,10,9,111,65,12,58,66,65,14,14,266,65,6*69
$GPGSV,11,8,11,21,12,200,65,24,48,173,65,29,56,280,65,30,59,343,65,6*5F
$GPGSV,11,9,11,31,17,319,65,2,35,50,65,5,67,48,65,9,32,167,65,7*65
$GPGSV,11,10,11,10,9,111,65,12,58,66,65,14,14,266,65,21,12,200,65,7*64
$GPGSV,11,11,11,24,48,173,65,29,56,280,65,30,59,343,65,31,17,319,65,7*6B
$GPGGA,140023,3114.50886,N,12130.89347,E,3,11,0.81,38.04,M,11.96,M,,*49
$GPRMC,140023,A,3114.50886,N,12130.89347,E,21.281,90.008,010620,0.000,E,A,V*6D
$GPGSV,11,1,11,2,35,50,65,5,67,48,65,9,32,167,65,10,9,111,65,1*5D
$GPGSV,11,2,11,12,58,66,65,14,14,266,65,21,12,200,65,24,48,173,65,1*67
$GPGSV,11,3,11,29,56,280,65,30,59,343,65,31,17,319,65,2,35,50,65,5*54
$GPGSV,11,4,11,5,67,48,65,9,32,167,65,10,9,111,65,12,58,66,65,5*63
$GPGSV,11,5,11,14,14,266,65,21,12,200,65,24,48,173,65,29,56,280,65,5*58
$GPGSV,11,6,11,30,59,343,65,31,17,319,65,2,35,50,65,5,67,48,65,6*58
$GPGSV,11,7,11,9,32,167,65,10,9,111,65,12,58,66,65,14,14,266,65,6*69
$GPGSV,11,8,11,21,12,200,65,24,48,173,65,29,56,280,65,30,59,343,65,6*5F
$GPGSV,11,9,11,31,17,319,65,2,35,50,65,5,67,48,65,9,32,167,65,7*65
$GPGSV,11,10,11,10,9,111,65,12,58,66,65,14,14,266,65,21,12,200,65,7*64
$GPGSV,11,11,11,24,48,173,65,29,56,280,65,30,59,343,65,31,17,319,65,7*6B
$GPGGA,140024,3114.50825,N,12130.89880,E,3,11,0.81,38.04,M,11.96,M,,*47
$GPRMC,140024,A,3114.50825,N,12130.89880,E,16.199,109.345,010620,0.000,E,A,V*56
$GPGSV,11,1,11,2,35,50,65,5,67,48,65,9,32,167,65,10,9,111,65,1*5D
$GPGSV,11,2,11,12,58,66,65,14,14,266,65,21,12,200,65,24,48,173,65,1*67
$GPGSV,11,3,11,29,56,280,65,30,59,343,65,31,17,319,65,2,35,50,65,5*54
$GPGSV,11,4,11,5,67,48,65,9,32,167,65,10,9,111,65,12,58,66,65,5*63
$GPGSV,11,5,11,14,14,266,65,21,12,200,65,24,48,173,65,29,56,280,65,5*58
$GPGSV,11,6,11,30,59,343,65,31,17,319,65,2,35,50,65,5,67,48,65,6*58
$GPGSV,11,7,11,9,32,167,65,10,9,111,65,12,58,66,65,14,14,266,65,6*69
$GPGSV,11,8,11,21,12,200,65,24,48,173,65,29,56,280,65,30,59,343,65,6*5F
$GPGSV,11,9,11,31,17,319,65,2,35,50,65,5,67,48,65,9,32,167,65,7*65
$GPGSV,11,10,11,10,9,111,65,12,58,66,65,14,14,266,65,21,12,200,65,7*64
$GPGSV,11,11,11,24,48,173,65,29,56,280,65,30,59,343,65,31,17,319,65,7*6B
$GPGGA,140025,3114.50592,N,12130.90325,E,3,11,0.81,38.04,M,11.96,M,,*4B
$GPRMC,140025,A,3114.50592,N,12130.90325,E,16.199,133.218,010620,0.000,E,A,V*5A
$GPGSV,11,1,11,2,35,50,65,5,67,48,65,9,32,167,65,10,9,111,65,1*5D
$GPGSV,11,2,11,12,58,66,65,14,14,266,65,21,12,200,65,24,48,173,65,1*67
$GPGSV,11,3,11,29,56,280,65,30,59,343,65,31,17,319,65,2,35,50,65,5*54
$GPGSV,11,4,11,5,67,48,65,9,32,167,65,10,9,111,65,12,58,66,65,5*63
$GPGSV,11,5,11,14,14,266,65,21,12,200,65,24,48,173,65,29,56,280,65,5*58
$GPGSV,11,6,11,30,59,343,65,31,17,319,65,2,35,50,65,5,67,48,65,6*58
$GPGSV,11,7,11,9,32,167,65,10,9,111,65,12,58,66,65,14,14,266,65,6*69
$GPGSV,11,8,11,21,12,200,65,24,48,173,65,29,56,280,65,30,59,343,65,6*5F
$GPGSV,11,9,11,31,17,319,65,2,35,50,65,5,67,48,65,9,32,167,65,7*65
$GPGSV,11,10,11,10,9,111,65,12,58,66,65,14,14,266,65,21,12,200,65,7*64
$GPGSV,11,11,11,24,48,173,65,29,56,280,65,30,59,343,65,31,17,319,65,7*6B
$GPGGA,140026,3114.50225,N,12130.90623,E,3,11,0.81,38.04,M,11.96,M,,*40
$GPRMC,140026,A,3114.50225,N,12130.90623,E,16.199,157.092,010620,0.000,E,A,V*53
$GPGSV,11,1,11,2,35,50,65,5,67,48,65,9,32,167,65,10,9,111,65,1*5D
$GPGSV,11,2,11,12,58,66,65,14,14,266,65,21,12,200,65,24,48,173,65,1*67
$GPGSV,11,3,11,29,56,280,65,30,59,343,65,31,17,319,65,2,35,50,65,5*54
$GPGSV,11,4,11,5,67,48,65,9,32,167,65,10,9,111,65,12,58,66,65,5*63
$GPGSV,11,5,11,14,14,266,65,21,12,200,65,24,48,173,65,29,56,280,65,5*58
$GPGSV,11,6,11,30,59,343,65,31,17,319,65,2,35,50,65,5,67,48,65,6*58
$GPGSV,11,7,11,9,32,167,65,10,9,111,65,12,58,66,65,14,14,266,65,6*69
$GPGSV,11,8,11,21,12,200,65,24,48,173,65,29,56,280,65,30,59,343,65,6*5F
$GPGSV,11,9,11,31,17,319,65,2,35,50,65,5,67,48,65,9,32,167,65,7*65
$GPGSV,11,10,11,10,9,111,65,12,58,66,65,14,14,266,65,21,12,200,65,7*64
$GPGSV,11,11,11,24,48,173,65,29,56,280,65,30,59,343,65,31,17,319,65,7*6B
$GPGGA,140027,3114.49785,N,12130.90722,E,3,11,0.81,38.04,M,11.96,M,,*46
$GPRMC,140027,A,3114.49785,N,12130.90722,E,17.269,180.008,010620,0.000,E,A,V*51
$GPGSV,11,1,11,2,35,50,65,5,67,48,65,9,32,167,65,10,9,111,65,1*5D
$GPGSV,11,2,11,12,58,66,65,14,14,266,65,21,12,200,65,24,48,173,65,1*67
$GPGSV,11,3,11,29,56,280,65,30,59,343,65,31,17,319,65,2,35,50,65,5*54
$GPGSV,11,4,11,5,67,48,65,9,32,167,65,10,9,111,65,12,58,66,65,5*63
$GPGSV,11,5,11,14,14,266,65,21,12,200,65,24,48,173,65,29,56,280,65,5*58
$GPGSV,11,6,11,30,59,343,65,31,17,319,65,2,35,50,65,5,67,48,65,6*58
$GPGSV,11,7,11,9,32,167,65,10,9,111,65,12,58,66,65,14,14,266,65,6*69
$GPGSV,11,8,11,21,12,200,65,24,48,173,65,29,56,280,65,30,59,343,65,6*5F
$GPGSV,11,9,11,31,17,319,65,2,35,50,65,5,67,48,65,9,32,167,65,7*65
$GPGSV,11,10,11,10,9,111,65,12,58,66,65,14,14,266,65,21,12,200,65,7*64
$GPGSV,11,11,11,24,48,173,65,29,56,280,65,30,59,343,65,31,17,319,65,7*6B
$GPGGA,140028,3114.48932,N,12130.90722,E,3,11,0.81,38.04,M,11.96,M,,*4A
$GPRMC,140028,A,3114.48932,N,12130.90722,E,44.019,180.008,010620,0.000,E,A,V*5E
$GPGSV,11,1,11,2,35,50,65,5,67,48,65,9,32,167,65,10,9,111,65,1*5D
$GPGSV,11,2,11,12,58,66,65,14,14,266,65,21,12,200,65,24,48,173,65,1*67
$GPGSV,11,3,11,29,56,280,65,30,59,343,65,31,17,319,65,2,35,50,65,5*54
$GPGSV,11,4,11,5,67,48,65,9,32,167,65,10,9,111,65,12,58,66,65,5*63
$GPGSV,11,5,11,14,14,266,65,21,12,200,65,24,48,173,65,29,56,280,65,5*58
$GPGSV,11,6,11,30,59,343,65,31,17,319,65,2,35,50,65,5,67,48,65,6*58
$GPGSV,11,7,11,9,32,167,65,10,9,111,65,12,58,66,65,14,14,266,65,6*69
$GPGSV,11,8,11,21,12,200,65,24,48,173,65,29,56,280,65,30,59,343,65,6*5F
$GPGSV,11,9,11,31,17,319,65,2,35,50,65,5,67,48,65,9,32,167,65,7*65
$GPGSV,11,10,11,10,9,111,65,12,58,66,65,14,14,266,65,21,12,200,65,7*64
$GPGSV,11,11,11,24,48,173,65,29,56,280,65,30,59,343,65,31,17,319,65,7*6B
$GPGGA,140029,3114.47334,N,12130.90722,E,3,11,0.81,38.04,M,11.96,M,,*48
$GPRMC,140029,A,3114.47334,N,12130.90722,E,70.768,180.008,010620,0.000,E,A,V*5A
$GPGSV,11,1,11,2,35,50,65,5,67,48,65,9,32,167,65,10,9,111,65,1*5D
$GPGSV,11,2,11,12,58,66,65,14,14,266,65,21,12,200,65,24,48,173,65,1*67
$GPGSV,11,3,11,29,56,280,65,30,59,343,65,31,17,319,65,2,35,50,65,5*54
$GPGSV,11,4,11,5,67,48,65,9,32,167,65,10,9,111,65,12,58,66,65,5*63
$GPGSV,11,5,11,14,14,266,65,21,12,200,65,24,48,173,65,29,56,280,65,5*58
$GPGSV,11,6,11,30,59,343,65,31,17,319,65,2,35,50,65,5,67,48,65,6*58
$GPGSV,11,7,11,9,32,167,65,10,9,111,65,12,58,66,65,14,14,266,65,6*69
$GPGSV,11,8,11,21,12,200,65,24,48,173,65,29,56,280,65,30,59,343,65,6*5F
$GPGSV,11,9,11,31,17,319,65,2,35,50,65,5,67,48,65,9,32,167,65,7*65
$GPGSV,11,10,11,10,9,111,65,12,58,66,65,14,14,266,65,21,12,200,65,7*64
$GPGSV,11,11,11,24,48,173,65,29,56,280,65,30,59,343,65,31,17,319,65,7*6B
$GPGGA,140030,3114.44991,N,12130.90721,E,3,11,0.81,38.04,M,11.96,M,,*45
$GPRMC,140030,A,3114.44991,N,12130.90721,E,97.518,180.008,010620,0.000,E,A,V*5B
$GPGSV,11,1,11,2,35,50,65,5,67,48,65,9,32,167,65,10,9,111,65,1*5D
$GPGSV,11,2,11,12,58,66,65,14,14,266,65,21,12,200,65,24,48,173,65,1*67
$GPGSV,11,3,11,29,56,280,65,30,59,343,65,31,17,319,65,2,35,50,65,5*54
$GPGSV,11,4,11,5,67,48,65,9,32,167,65,10,9,111,65,12,58,66,65,5*63
$GPGSV,11,5,11,14,14,266,65,21,12,200,65,24,48,173,65,29,56,280,65,5*58
$GPGSV,11,6,11,30,59,343,65,31,17,319,65,2,35,50,65,5,67,48,65,6*58
$GPGSV,11,7,11,9,32,167,65,10,9,111,65,12,58,66,65,14,14,266,65,6*69
$GPGSV,11,8,11,21,12,200,65,24,48,173,65,29,56,280,65,30,59,343,65,6*5F
$GPGSV,11,9,11,31,17,319,65,2,35,50,65,5,67,48,65,9,32,167,65,7*65
$GPGSV,11,10,11,10,9,111,65,12,58,66,65,14,14,266,65,21,12,200,65,7*64
$GPGSV,11,11,11,24,48,173,65,29,56,280,65,30,59,343,65,31,17,319,65,7*6B
$GPGGA,140031,3114.41904,N,12130.90721,E,3,11,0.81,38.04,M,11.96,M,,*4D
$GPRMC,140031,A,3114.41904,N,12130.90721,E,124.268,180.008,010620,0.000,E,A,V*6A
$GPGSV,11,1,11,2,35,50,65,5,67,48,65,9,32,167,65,10,9,111,65,1*5D
$GPGSV,11,2,11,12,58,66,65,14,14,266,65,21,12,200,65,24,48,173,65,1*67
$GPGSV,11,3,11,29,56,280,65,30,59,343,65,31,17,319,65,2,35,50,65,5*54
$GPGSV,11,4,11,5,67,48,65,9,32,167,65,10,9,111,65,12,58,66,65,5*63
$GPGSV,11,5,11,14,14,266,65,21,12,200,65,24,48,173,65,29,56,280,65,5*58
$GPGSV,11,6,11,30,59,343,65,31,17,319,65,2,35,50,65,5,67,48,65,6*58
$GPGSV,11,7,11,9,32,167,65,10,9,111,65,12,58,66,65,14,14,266,65,6*69
$GPGSV,11,8,11,21,12,200,65,24,48,173,65,29,56,280,65,30,59,343,65,6*5F
$GPGSV,11,9,11,31,17,319,65,2,35,50,65,5,67,48,65,9,32,167,65,7*65
$GPGSV,11,10,11,10,9,111,65,12,58,66,65,14,14,266,65,21,12,200,65,7*64
$GPGSV,11,11,11,24,48,173,65,29,56,280,65,30,59,343,65,31,17,319,65,7*6B
$GPGGA,140032,3114.38072,N,12130.90720,E,3,11,0.81,38.04,M,11.96,M,,*49
$GPRMC,140032,A,3114.38072,N,12130.90720,E,151.018,180.008,010620,0.000,E,A,V*69
$GPGSV,11,1,11,2,35,50,65,5,67,48,65,9,32,167,65,10,9,111,65,1*5D
$GPGSV,11,2,11,12,58,66,65,14,14,266,65,21,12,200,65,24,48,173,65,1*67
$GPGSV,11,3,11,29,56,280,65,30,59,343,65,31,17,319,65,2,35,50,65,5*54
$GPGSV,11,4,11,5,67,48,65,9,32,167,65,10,9,111,65,12,58,66,65,5*63
$GPGSV,11,5,11,14,14,266,65,21,12,200,65,24,48,173,65,29,56,280,65,5*58
$GPGSV,11,6,11,30,59,343,65,31,17,319,65,2,35,50,65,5,67,48,65,6*58
$GPGSV,11,7,11,9,32,167,65,10,9,111,65,12,58,66,65,14,14,266,65,6*69
$GPGSV,11,8,11,21,12,200,65,24,48,173,65,29,56,280,65,30,59,343,65,6*5F
$GPGSV,11,9,11,31,17,319,65,2,35,50,65,5,67,48,65,9,32,167,65,7*65
$GPGSV,11,10,11,10,9,111,65,12,58,66,65,14,14,266,65,21,12,200,65,7*64
$GPGSV,11,11,11,24,48,173,65,29,56,280,65,30,59,343,65,31,17,319,65,7*6B
$GPGGA,140033,3114.33625,N,12130.90720,E,3,11,0.81,38.04,M,11.96,M,,*47
$GPRMC,140033,A,3114.33625,N,12130.90720,E,161.986,180.008,010620,0.000,E,A,V*6A
$GPGSV,11,1,11,2,35,50,65,5,67,48,65,9,32,167,65,10,9,111,65,1*5D
$GPGSV,11,2,11,12,58,66,65,14,14,266,65,21,12,200,65,24,48,173,65,1*67
$GPGSV,11,3,11,29,56,280,65,30,59,343,65,31,17,319,65,2,35,50,65,5*54
$GPGSV,11,4,11,5,67,48,65,9,32,167,65,10,9,111,65,12,58,66,65,5*63
$GPGSV,11,5,11,14,14,266,65,21,12,200,65,24,48,173,65,29,56,280,65,5*58
$GPGSV,11,6,11,30,59,343,65,31,17,319,65,2,35,50,65,5,67,48,65,6*58
$GPGSV,11,7,11,9,32,167,65,10,9,111,65,12,58,66,65,14,14,266,65,6*69
$GPGSV,11,8,11,21,12,200,65,24,48,173,65,29,56,280,65,30,59,343,65,6*5F
$GPGSV,11,9,11,31,17,319,65,2,35,50,65,5,67,48,65,9,32,167,65,7*65
$GPGSV,11,10,11,10,9,111,65,12,58,66,65,14,14,266,65,21,12,200,65,7*64
$GPGSV,11,11,11,24,48,173,65,29,56,280,65,30,59,343,65,31,17,319,65,7*6B
$GPGGA,140034,3114.29115,N,12130.90719,E,3,11,0.81,38.04,M,11.96,M,,*45
$GPRMC,140034,A,3114.29115,N,12130.90719,E,161.986,180.008,010620,0.000,E,A,V*68
$GPGSV,11,1,11,2,35,50,65,5,67,48,65,9,32,167,65,10,9,111,65,1*5D
$GPGSV,11,2,11,12,58,66,65,14,14,266,65,21,12,200,65,24,48,173,65,1*67
$GPGSV,11,3,11,29,56,280,65,30,59,343,65,31,17,319,65,2,35,50,65,5*54
$GPGSV,11,4,11,5,67,48,65,9,32,167,65,10,9,111,65,12,58,66,65,5*63
$GPGSV,11,5,11,14,14,266,65,21,12,200,65,24,48,173,65,29,56,280,65,5*58
$GPGSV,11,6,11,30,59,343,65,31,17,319,65,2,35,50,65,5,67,48,65,6*58
$GPGSV,11,7,11,9,32,167,65,10,9,111,65,12,58,66,65,14,14,266,65,6*69
$GPGSV,11,8,11,21,12,200,65,24,48,173,65,29,56,280,65,30,59,343,65,6*5F
$GPGSV,11,9,11,31,17,319,65,2,35,50,65,5,67,48,65,9,32,167,65,7*65
$GPGSV,11,10,11,10,9,111,65,12,58,66,65,14,14,266,65,21,12,200,65,7*64
$GPGSV,11,11,11,24,48,173,65,29,56,280,65,30,59,343,65,31,17,319,65,7*6B
$GPGGA,140035,3114.24606,N,12130.90718,E,3,11,0.81,38.04,M,11.96,M,,*4D
$GPRMC,140035,A,3114.24606,N,12130.90718,E,161.986,180.008,010620,0.000,E,A,V*60
$GPGSV,11,1,11,2,35,50,65,5,67,48,65,9,32,167,65,10,9,111,65,1*5D
$GPGSV,11,2,11,12,58,66,65,14,14,266,65,21,12,200,65,24,48,173,65,1*67
$GPGSV,11,3,11,29,56,280,65,30,59,343,65,31,17,319,65,2,35,50,65,5*54
$GPGSV,11,4,11,5,67,48,65,9,32,167,65,10,9,111,65,12,58,66,65,5*63
$GPGSV,11,5,11,14,14,266,65,21,12,200,65,24,48,173,65,29,56,280,65,5*58
$GPGSV,11,6,11,30,59,343,65,31,17,319,65,2,35,50,65,5,67,48,65,6*58
$GPGSV,11,7,11,9,32,167,65,10,9,111,65,12,58,66,65,14,14,266,65,6*69
$GPGSV,11,8,11,21,12,200,65,24,48,173,65,29,56,280,65,30,59,343,65,6*5F
$GPGSV,11,9,11,31,17,319,65,2,35,50,65,5,67,48,65,9,32,167,65,7*65
$GPGSV,11,10,11,10,9,111,65,12,58,66,65,14,14,266,65,21,12,200,65,7*64
$GPGSV,11,11,11,24,48,173,65,29,56,280,65,30,59,343,65,31,17,319,65,7*6B
$GPGGA,140036,3114.20096,N,12130.90717,E,3,11,0.81,38.04,M,11.96,M,,*4A
$GPRMC,140036,A,3114.20096,N,12130.90717,E,161.986,180.008,010620,0.000,E,A,V*67
$GPGSV,11,1,11,2,35,50,65,5,67,48,65,9,32,167,65,10,9,111,65,1*5D
$GPGSV,11,2,11,12,58,67,65,14,14,266,65,21,12,200,65,24,48,173,65,1*66
$GPGSV,11,3,11,29,56,280,65,30,59,343,65,31,17,319,65,2,35,50,65,5*54
$GPGSV,11,4,11,5,67,48,65,9,32,167,65,10,9,111,65,12,58,67,65,5*62
$GPGSV,11,5,11,14,14,266,65,21,12,200,65,24,48,173,65,29,56,280,65,5*58
$GPGSV,11,6,11,30,59,343,65,31,17,319,65,2,35,50,65,5,67,48,65,6*58
$GPGSV,11,7,11,9,32,167,65,10,9,111,65,12,58,67,65,14,14,266,65,6*68
$GPGSV,11,8,11,21,12,200,65,24,48,173,65,29,56,280,65,30,59,343,65,6*5F
$GPGSV,11,9,11,31,17,319,65,2,35,50,65,5,67,48,65,9,32,167,65,7*65
$GPGSV,11,10,11,10,9,111,65,12,58,67,65,14,14,266,65,21,12,200,65,7*65
$GPGSV,11,11,11,24,48,173,65,29,56,280,65,30,59,343,65,31,17,319,65,7*6B
$GPGGA,140037,3114.15587,N,12130.90717,E,3,11,0.81,38.04,M,11.96,M,,*48
$GPRMC,140037,A,3114.15587,N,12130.90717,E,161.986,180.008,010620,0.000,E,A,V*65
$GPGSV,11,1,11,2,35,50,65,5,67,48,65,9,32,167,65,10,9,111,65,1*5D
$GPGSV,11,2,11,12,58,67,65,14,14,266,65,21,12,200,65,24,48,173,65,1*66
$GPGSV,11,3,11,29,56,280,65,30,59,343,65,31,17,319,65,2,35,50,65,5*54
$GPGSV,11,4,11,5,67,48,65,9,32,167,65,10,9,111,65,12,58,67,65,5*62
$GPGSV,11,5,11,14,14,266,65,21,12,200,65,24,48,173,65,29,56,280,65,5*58
$GPGSV,11,6,11,30,59,343,65,31,17,319,65,2,35,50,65,5,67,48,65,6*58
$GPGSV,11,7,11,9,32,167,65,10,9,111,65,12,58,67,65,14,14,266,65,6*68
$GPGSV,11,8,11,21,12,200,65,24,48,173,65,29,56,280,65,30,59,343,65,6*5F
$GPGSV,11,9,11,31,17,319,65,2,35,50,65,5,67,48,65,9,32,167,65,7*65
$GPGSV,11,10,11,10,9,111,65,12,58,67,65,14,14,266,65,21,12,200,65,7*65
$GPGSV,11,11,11,24,48,173,65,29,56,280,65,30,59,343,65,31,17,319,65,7*6B
$GPGGA,140038,3114.11304,N,12130.90716,E,3,11,0.81,38.04,M,11.96,M,,*4F
$GPRMC,140038,A,3114.11304,N,12130.90716,E,141.121,180.008,010620,0.000,E,A,V*65
$GPGSV,11,1,11,2,35,50,65,5,67,48,65,9,32,167,65,10,9,111,65,1*5D
$GPGSV,11,2,11,12,58,67,65,14,14,266,65,21,12,200,65,24,48,173,65,1*66
$GPGSV,11,3,11,29,56,280,65,30,59,343,65,31,17,319,65,2,35,50,65,5*54
$GPGSV,11,4,11,5,67,48,65,9,32,167,65,10,9,111,65,12,58,67,65,5*62
$GPGSV,11,5,11,14,14,266,65,21,12,200,65,24,48,173,65,29,56,280,65,5*58
$GPGSV,11,6,11,30,59,343,65,31,17,319,65,2,35,50,65,5,67,48,65,6*58
$GPGSV,11,7,11,9,32,167,65,10,9,111,65,12,58,67,65,14,14,266,65,6*68
$GPGSV,11,8,11,21,12,200,65,24,48,173,65,29,56,280,65,30,59,343,65,6*5F
$GPGSV,11,9,11,31,17,319,65,2,35,50,65,5,67,48,65,9,32,167,65,7*65
$GPGSV,11,10,11,10,9,111,65,12,58,67,65,14,14,266,65,21,12,200,65,7*65
$GPGSV,11,11,11,24,48,173,65,29,56,280,65,30,59,343,65,31,17,319,65,7*6B
$GPGGA,140039,3114.07747,N,12130.90715,E,3,11,0.81,38.03,M,11.97,M,,*4F
$GPRMC,140039,A,3114.07747,N,12130.90715,E,114.371,180.008,010620,0.000,E,A,V*64
$GPGSV,11,1,11,2,35,50,65,5,67,48,65,9,32,167,65,10,9,111,65,1*5D
$GPGSV,11,2,11,12,58,67,65,14,14,266,65,21,12,200,65,24,48,173,65,1*66
$GPGSV,11,3,11,29,56,280,65,30,59,343,65,31,17,319,65,2,35,50,65,5*54
$GPGSV,11,4,11,5,67,48,65,9,32,167,65,10,9,111,65,12,58,67,65,5*62
$GPGSV,11,5,11,14,14,266,65,21,12,200,65,24,48,173,65,29,56,280,65,5*58
$GPGSV,11,6,11,30,59,343,65,31,17,319,65,2,35,50,65,5,67,48,65,6*58
$GPGSV,11,7,11,9,32,167,65,10,9,111,65,12,58,67,65,14,14,266,65,6*68
$GPGSV,11,8,11,21,12,200,65,24,48,173,65,29,56,280,65,30,59,343,65,6*5F
$GPGSV,11,9,11,31,17,319,65,2,35,50,65,5,67,48,65,9,32,167,65,7*65
$GPGSV,11,10,11,10,9,111,65,12,58,67,65,14,14,266,65,21,12,200,65,7*65
$GPGSV,11,11,11,24,48,173,65,29,56,280,65,30,59,343,65,31,17,319,65,7*6B
$GPGGA,140040,3114.04936,N,12130.90715,E,3,11,0.81,38.03,M,11.97,M,,*4A
$GPRMC,140040,A,3114.04936,N,12130.90715,E,87.621,180.008,010620,0.000,E,A,V*5A
$GPGSV,11,1,11,2,35,50,65,5,67,48,65,9,32,167,65,10,9,111,65,1*5D
$GPGSV,11,2,11,12,58,67,65,14,14,266,65,21,12,200,65,24,48,173,65,1*66
$GPGSV,11,3,11,29,56,280,65,30,59,343,65,31,17,319,65,2,35,50,65,5*54
$GPGSV,11,4,11,5,67,48,65,9,32,167,65,10,9,111,65,12,58,67,65,5*62
$GPGSV,11,5,11,14,14,266,65,21,12,200,65,24,48,173,65,29,56,280,65,5*58
$GPGSV,11,6,11,30,59,343,65,31,17,319,65,2,35,50,65,5,67,48,65,6*58
$GPGSV,11,7,11,9,32,167,65,10,9,111,65,12,58,67,65,14,14,266,65,6*68
$GPGSV,11,8,11,21,12,200,65,24,48,173,65,29,56,280,65,30,59,343,65,6*5F
$GPGSV,11,9,11,31,17,319,65,2,35,50,65,5,67,48,65,9,32,167,65,7*65
$GPGSV,11,10,11,10,9,111,65,12,58,67,65,14,14,266,65,21,12,200,65,7*65
$GPGSV,11,11,11,24,48,173,65,29,56,280,65,30,59,343,65,31,17,319,65,7*6B
$GPGGA,140041,3114.02869,N,12130.90715,E,3,11,0.81,38.03,M,11.97,M,,*46
$GPRMC,140041,A,3114.02869,N,12130.90715,E,60.871,180.008,010620,0.000,E,A,V*54
$GPGSV,11,1,11,2,35,50,65,5,67,48,65,9,32,167,65,10,9,111,65,1*5D
$GPGSV,11,2,11,12,58,67,65,14,14,266,65,21,12,200,65,24,48,173,65,1*66
$GPGSV,11,3,11,29,56,280,65,30,59,343,65,31,17,319,65,2,35,50,65,5*54
$GPGSV,11,4,11,5,67,48,65,9,32,167,65,10,9,111,65,12,58,67,65,5*62
$GPGSV,11,5,11,14,14,266,65,21,12,200,65,24,48,173,65,29,56,280,65,5*58
$GPGSV,11,6,11,30,59,343,65,31,17,319,65,2,35,50,65,5,67,48,65,6*58
$GPGSV,11,7,11,9,32,167,65,10,9,111,65,12,58,67,65,14,14,266,65,6*68
$GPGSV,11,8,11,21,12,200,65,24,48,173,65,29,56,280,65,30,59,343,65,6*5F
$GPGSV,11,9,11,31,17,319,65,2,35,50,65,5,67,48,65,9,32,167,65,7*65
$GPGSV,11,10,11,10,9,111,65,12,58,67,65,14,14,266,65,21,12,200,65,7*65
$GPGSV,11,11,11,24,48,173,65,29,56,280,65,30,59,343,65,31,17,319,65,7*6B
$GPGGA,140042,3114.01546,N,12130.90715,E,3,11,0.81,38.03,M,11.97,M,,*46
$GPRMC,140042,A,3114.01546,N,12130.90715,E,34.121,180.008,010620,0.000,E,A,V*59
$GPGSV,11,1,11,2,35,50,65,5,67,48,65,9,32,167,65,10,9,111,65,1*5D
$GPGSV,11,2,11,12,58,67,65,14,14,266,65,21,12,200,65,24,48,173,65,1*66
$GPGSV,11,3,11,29,56,280,65,30,59,343,65,31,17,319,65,2,35,50,65,5*54
$GPGSV,11,4,11,5,67,48,65,9,32,167,65,10,9,111,65,12,58,67,65,5*62
$GPGSV,11,5,11,14,14,266,65,21,12,200,65,24,48,173,65,29,56,280,65,5*58
$GPGSV,11,6,11,30,59,343,65,31,17,319,65,2,35,50,65,5,67,48,65,6*58
$GPGSV,11,7,11,9,32,167,65,10,9,111,65,12,58,67,65,14,14,266,65,6*68
$GPGSV,11,8,11,21,12,200,65,24,48,173,65,29,56,280,65,30,59,343,65,6*5F
$GPGSV,11,9,11,31,17,319,65,2,35,50,65,5,67,48,65,9,32,167,65,7*65
$GPGSV,11,10,11,10,9,111,65,12,58,67,65,14,14,266,65,21,12,200,65,7*65
$GPGSV,11,11,11,24,48,173,65,29,56,280,65,30,59,343,65,31,17,319,65,7*6B
$GPGGA,140043,3114.00929,N,12130.90703,E,3,11,0.81,38.03,M,11.97,M,,*44
$GPRMC,140043,A,3114.00929,N,12130.90703,E,16.199,187.886,010620,0.000,E,A,V*51
$GPGSV,11,1,11,2,35,50,65,5,67,48,65,9,32,167,65,10,9,111,65,1*5D
$GPGSV,11,2,11,12,58,67,65,14,14,266,65,21,12,200,65,24,48,173,65,1*66
$GPGSV,11,3,11,29,56,280,65,30,59,343,65,31,17,319,65,2,35,50,65,5*54
$GPGSV,11,4,11,5,67,48,65,9,32,167,65,10,9,111,65,12,58,67,65,5*62
$GPGSV,11,5,11,14,14,266,65,21,12,200,65,24,48,173,65,29,56,280,65,5*58
$GPGSV,11,6,11,30,59,343,65,31,17,319,65,2,35,50,65,5,67,48,65,6*58
$GPGSV,11,7,11,9,32,167,65,10,9,111,65,12,58,67,65,14,14,266,65,6*68
$GPGSV,11,8,11,21,12,200,65,24,48,173,65,29,56,280,65,30,59,343,65,6*5F
$GPGSV,11,9,11,31,17,319,65,2,35,50,65,5,67,48,65,9,32,167,65,7*65
$GPGSV,11,10,11,10,9,111,65,12,58,67,65,14,14,266,65,21,12,200,65,7*65
$GPGSV,11,11,11,24,48,173,65,29,56,280,65,30,59,343,65,31,17,319,65,7*6B
$GPGGA,140044,3114.00507,N,12130.90526,E,3,11,0.81,38.03,M,11.97,M,,*46
$GPRMC,140044,A,3114.00507,N,12130.90526,E,16.199,211.759,010620,0.000,E,A,V*52
$GPGSV,11,1,11,2,35,50,65,5,67,48,65,9,32,167,65,10,9,111,65,1*5D
$GPGSV,11,2,11,12,58,67,65,14,14,266,65,21,12,200,65,24,48,173,65,1*66
$GPGSV,11,3,11,29,56,280,65,30,59,343,65,31,17,319,65,2,35,50,65,5*54
$GPGSV,11,4,11,5,67,48,65,9,32,167,65,10,9,111,65,12,58,67,65,5*62
$GPGSV,11,5,11,14,14,266,65,21,12,200,65,24,48,173,65,29,56,280,65,5*58
$GPGSV,11,6,11,30,59,343,65,31,17,319,65,2,35,50,65,5,67,48,65,6*58
$GPGSV,11,7,11,9,32,167,65,10,9,111,65,12,58,67,65,14,14,266,65,6*68
$GPGSV,11,8,11,21,12,200,65,24,48,173,65,29,56,280,65,30,59,343,65,6*5F
$GPGSV,11,9,11,31,17,319,65,2,35,50,65,5,67,48,65,9,32,167,65,7*65
$GPGSV,11,10,11,10,9,111,65,12,58,67,65,14,14,266,65,21,12,200,65,7*65
$GPGSV,11,11,11,24,48,173,65,29,56,280,65,30,59,343,65,31,17,319,65,7*6B
$GPGGA,140045,3114.00184,N,12130.90166,E,3,11,0.81,38.03,M,11.97,M,,*48
$GPRMC,140045,A,3114.00184,N,12130.90166,E,16.199,235.632,010620,0.000,E,A,V*56
$GPGSV,11,1,11,2,35,50,65,5,67,48,65,9,32,167,65,10,9,111,65,1*5D
$GPGSV,11,2,11,12,58,67,65,14,14,266,65,21,12,200,65,24,48,173,65,1*66
$GPGSV,11,3,11,29,56,280,65,30,59,343,65,31,17,319,65,2,35,50,65,5*54
$GPGSV,11,4,11,5,67,48,65,9,32,167,65,10,9,111,65,12,58,67,65,5*62
$GPGSV,11,5,11,14,14,266,65,21,12,200,65,24,48,173,65,29,56,280,65,5*58
$GPGSV,11,6,11,30,59,343,65,31,17,319,65,2,35,50,65,5,67,48,65,6*58
$GPGSV,11,7,11,9,32,167,65,10,9,111,65,12,58,67,65,14,14,266,65,6*68
$GPGSV,11,8,11,21,12,200,65,24,48,173,65,29,56,280,65,30,59,343,65,6*5F
$GPGSV,11,9,11,31,17,319,65,2,35,50,65,5,67,48,65,9,32,167,65,7*65
$GPGSV,11,10,11,10,9,111,65,12,58,67,65,14,14,266,65,21,12,200,65,7*65
$GPGSV,11,11,11,24,48,173,65,29,56,280,65,30,59,343,65,31,17,319,65,7*6B
$GPGGA,140046,3114.00013,N,12130.89684,E,3,11,0.81,38.03,M,11.97,M,,*47
$GPRMC,140046,A,3114.00013,N,12130.89684,E,16.199,259.506,010620,0.000,E,A,V*57
$GPGSV,11,1,11,2,35,50,65,5,67,48,65,9,32,167,65,10,9,111,65,1*5D
$GPGSV,11,2,11,12,58,67,65,14,14,266,65,21,12,200,65,24,48,173,65,1*66
$GPGSV,11,3,11,29,56,280,65,30,59,343,65,31,17,319,65,2,35,50,65,5*54
$GPGSV,11,4,11,5,67,48,65,9,32,167,65,10,9,111,65,12,58,67,65,5*62
$GPGSV,11,5,11,14,14,266,65,21,12,200,65,24,48,173,65,29,56,280,65,5*58
$GPGSV,11,6,11,30,59,343,65,31,17,319,65,2,35,50,65,5,67,48,65,6*58
$GPGSV,11,7,11,9,32,167,65,10,9,111,65,12,58,67,65,14,14,266,65,6*68
$GPGSV,11,8,11,21,12,200,65,24,48,173,65,29,56,280,65,30,59,343,65,6*5F
$GPGSV,11,9,11,31,17,319,65,2,35,50,65,5,67,48,65,9,32,167,65,7*65
$GPGSV,11,10,11,10,9,111,65,12,58,67,65,14,14,266,65,21,12,200,65,7*65
$GPGSV,11,11,11,24,48,173,65,29,56,280,65,30,59,343,65,31,17,319,65,7*6B
$GPGGA,140047,3113.99995,N,12130.89025,E,3,11,0.81,38.03,M,11.97,M,,*4B
$GPRMC,140047,A,3113.99995,N,12130.89025,E,31.179,270.008,010620,0.000,E,A,V*50
$GPGSV,11,1,11,2,35,50,65,5,67,48,65,9,32,167,65,10,9,111,65,1*5D
$GPGSV,11,2,11,12,58,67,65,14,14,266,65,21,12,200,65,24,48,173,65,1*66
$GPGSV,11,3,11,29,56,280,65,30,59,343,65,31,17,319,65,2,35,50,65,5*54
$GPGSV,11,4,11,5,67,48,65,9,32,167,65,10,9,111,65,12,58,67,65,5*62
$GPGSV,11,5,11,14,14,266,65,21,12,200,65,24,48,173,65,29,56,280,65,5*58
$GPGSV,11,6,11,30,59,343,65,31,17,319,65,2,35,50,65,5,67,48,65,6*58
$GPGSV,11,7,11,9,32,167,65,10,9,111,65,12,58,67,65,14,14,266,65,6*68
$GPGSV,11,8,11,21,12,200,65,24,48,173,65,29,56,280,65,30,59,343,65,6*5F
$GPGSV,11,9,11,31,17,319,65,2,35,50,65,5,67,48,65,9,32,167,65,7*65
$GPGSV,11,10,11,10,9,111,65,12,58,67,65,14,14,266,65,21,12,200,65,7*65
$GPGSV,11,11,11,24,48,173,65,29,56,280,65,30,59,343,65,31,17,319,65,7*6B
$GPGGA,140048,3113.99995,N,12130.87581,E,3,11,0.81,38.04,M,11.96,M,,*47
$GPRMC,140048,A,3113.99995,N,12130.87581,E,57.928,270.008,010620,0.000,E,A,V*56
$GPGSV,11,1,11,2,35,50,65,5,67,48,65,9,31,167,65,10,9,111,65,1*5E
$GPGSV,11,2,11,12,58,67,65,14,14,265,65,21,12,200,65,24,48,173,65,1*65
$GPGSV,11,3,11,29,56,280,65,30,59,343,65,31,17,319,65,2,35,50,65,5*54
$GPGSV,11,4,11,5,67,48,65,9,31,167,65,10,9,111,65,12,58,67,65,5*61
$GPGSV,11,5,11,14,14,265,65,21,12,200,65,24,48,173,65,29,56,280,65,5*5B
$GPGSV,11,6,11,30,59,343,65,31,17,319,65,2,35,50,65,5,67,48,65,6*58
$GPGSV,11,7,11,9,31,167,65,10,9,111,65,12,58,67,65,14,14,265,65,6*68
