$GNRMC,000532.00,A,3000.00009,N,11959.99959,E,0.257,,230721,,,A,V*1F
$GNGGA,000532.00,3000.00009,N,11959.99959,E,1,06,1.34,-0.4,M,,M,,*7B
$GNGSA,A,3,,,,,,,,,,,,,3.21,1.34,2.91,1*0D
$GNGSA,A,3,06,09,13,11,14,12,,,,,,,3.21,1.34,2.91,4*03
$GNGSA,A,3,,,,,,,,,,,,,3.21,1.34,2.91,3*0F
$GPGSV,1,1,00,0*65
$GBGSV,3,1,09,06,36,215,31,09,36,2
85,31,11,19,129,31,12,10,058,31,0*77
$GBGSV,3,2,09,13,46,201,32,14,07,164,31,01,37,122,31,02,50,173,31,0*78
$GBGSV,3,3,09,04,,,31,0*78
$GAGSV,1,1,00,0*74

$GNRMC,000533.00,A,3000.00008,N,11959.99968,E,0.100,,230721,,,A,V*1C
$GNGGA,000533.00,3000.00008,N,11959.99968,E,1,06,1.34,-0.3,M,,M,,*7E
$GNGSA,A,3,,,,,,,,,,,,,3.20,1.34,2.91,1*0C
$GNGSA,A,3,06,09,13,11,14,12,,,,,,,3.20,1.34,2.91,4*02
$GNGSA,A,3,,,,,,,,,,,,,3.20,1.34,2.91,3*0E
$GPGSV,1,1,00,0*65
$GBGSV,3,1,09,06,36,215,31,09,36,
285,31,11,19,129,32,12,10,058,31,0*74
$GBGSV,3,2,09,13,46,201,31,14,07,164,31,01,37,122,31,02,50,173,31,0*7B
$GBGSV,3,3,09,04,,,31,0*78
$GAGSV,1,1,00,0*74

$GNRMC,000534.00,A,3000.00005,N,11959.99979,E,0.175,,230721,,,A,V*14
$GNGGA,000534.00,3000.00005,N,11959.99979,E,1,06,1.34,0.0,M,,M,,*5A
$GNGSA,A,3,,,,,,,,,,,,,3.20,1.34,2.91,1*0C
$GNGSA,A,3,06,09,13,11,14,12,,,,,,,3.20,1.34,2.91,4*02
$GNGSA,A,3,,,,,,,,,,,,,3.20,1.34,2.91,3
*0E
$GPGSV,1,1,00,0*65
$GBGSV,3,1,09,06,36,215,31,09,36,285,31,11,19,129,31,12,10,058,31,0*77
$GBGSV,3,2,09,13,46,201,32,14,07,164,31,01,37,122,31,02,50,173,31,0*78
$GBGSV,3,3,09,04,,,31,0*78
$GAGSV,1,1,00,0*74

$GNRMC,000535.00,A,3000.00012,N,11959.99985,E,0.247,,230721,,,A,V*12
$GNGGA,000535.00,3000.00012,N,11959.99985,E,1,06,1.34,0.0,M,,M,,*5E
$GNGSA,A,3,,,,,,,,,,,,,3.20,1.34,2.91,1*0C
$GNGSA,A,3,06,09,13,11,14,12,,,,,,,3.20,1.34,2.91,4*02
$GNGSA,A,3,,,,,,,,,,,,,3.20,1.34,2.91,3*0E
$GPGSV,1,1,00,0*65

$GBGSV,3,1,09,06,36,215,31,09,36,285,31,11,19,129,31,12,10,058,31,0*77
$GBGSV,3,2,09,13,46,201,32,14,07,164,30,01,37,122,31,02,50,173,31,0*79
$GBGSV,3,3,09,04,,,31,0*78
$GAGSV,1,1,00,0*74

$GNRMC,000536.00,A,3000.00021,N,11959.99981,E,0.262,,230721,,,A,V*12
$GNGGA,000536.00,3000.00021,N,11959.99981,E,1,06,1.34,-0.2,M,,M,,*76
$GNGSA,A,3,,,,,,,,,,,,,3.20,1.34,2.91,1*0C
$GNGSA,A,3,06,09,13,11,14,12,,,,,,,3.20,1.34,2.91,4*0
2
$GNGSA,A,3,,,,,,,,,,,,,3.20,1.34,2.91,3*0E
$GPGSV,1,1,00,0*65
$GBGSV,3,1,09,06,36,215,31,09,36,285,31,11,19,129,31,12,10,058,31,0*77
$GBGSV,3,2,09,13,46,201,32,14,07,164,31,01,37,122,31,02,50,173,31,0*78
$GBGSV,3,3,09,04,,,31,0*78
$GAGSV,1,1,00,0*74

$GNRMC,000537.00,A,3000.00026,N,11959.99962,E,0.633,,230721,,,A,V*19
$GNGGA,000537.00,3000.00026,N,11959.99962,E,1,06,1.34,-1.1,M,,M,,*7F
$GNGSA,A,3,,,,,,,,,,,,,3.20,1.34,2.91,1*0C
$GNGSA,A,3,06,09,13,11,14,12,,,,,,,3.20,1.34,2.91,4*02
$GNGSA,A,3,,,,
,,,,,,,,,3.20,1.34,2.91,3*0E
$GPGSV,1,1,00,0*65
$GBGSV,3,1,09,06,36,215,31,09,36,285,31,11,19,129,31,12,10,058,30,0*76
$GBGSV,3,2,09,13,46,201,32,14,07,164,31,01,37,122,31,02,50,173,31,0*78
$GBGSV,3,3,09,04,,,31,0*78
$GAGSV,1,1,00,0*74

$GNRMC,000538.00,A,3000.00035,N,11959.99951,E,0.521,,230721,,,A,V*14
$GNGGA,000538.00,3000.00035,N,11959.99951,E,1,06,1.34,-1.4,M,,M,,*77
$GNGSA,A,3,,,,,,,,,,,,,3.20,1.34,2.91,1*0C
$GNGSA,A,3,06,09,13,11,14,12,,,,,,,3.20,1.34,2.91,4*02
$GNGSA,A,3,,,,,,,,,,,,,3.20,1.34,2.91,3*0E
$GPGSV,1,1,00,0*65
$GBGSV,3,1,09,06,36,215,31,09,36,285,31,11,19,129,31,12,10,058,31,0*77
$GBG
SV,3,2,09,13,46,201,32,14,07,164,31,01,37,122,31,02,50,173,31,0*78
$GBGSV,3,3,09,04,,,31,0*78
$GAGSV,1,1,00,0*74

$GNRMC,000539.00,A,3000.00045,N,11959.99957,E,0.514,,230721,,,A,V*12
$GNGGA,000539.00,3000.00045,N,11959.99957,E,1,06,1.34,-1.3,M,,M,,*70
$GNGSA,A,3,,,,,,,,,,,,,3.20,1.34,2.91,1*0C
$GNGSA,A,3,06,09,13,11,14,12,,,,,,,3.20,1.34,2.91,4*02
$GNGSA,A,3,,,,,,,,,,,,,3.20,1.34,2.91,3*0E
$GPGSV,1,1,00,0*65
$GBGSV,3,1,09,06,36,215,31,09,36,285,31,11,19,129,31,12,10,
058,31,0*77
$GBGSV,3,2,09,13,46,201,32,14,07,164,31,01,37,122,31,02,50,173,31,0*78
$GBGSV,3,3,09,04,,,31,0*78
$GAGSV,1,1,00,0*74

$GNRMC,000540.00,A,3000.00047,N,11959.99962,E,0.162,,230721,,,A,V*1D
$GNGGA,000540.00,3000.00047,N,11959.99962,E,1,06,1.34,-1.1,M,,M,,*78
$GNGSA,A,3,,,,,,,,,,,,,3.20,1.34,2.91,1*0C
$GNGSA,A,3,06,09,13,11,14,12,,,,,,,3.20,1.34,2.91,4*02
$GNGSA,A,3,,,,,,,,,,,,,3.20,1.34,2.91,3*0E
$GPGSV,1,1,00,0*65
$GBGSV,3,1,09,06,36,215,31,09,36,285,31,11,19,129,31,
12,10,058,31,0*77
$GBGSV,3,2,09,13,46,201,32,14,07,164,30,01,37,122,31,02,50,173,31,0*79
$GBGSV,3,3,09,04,,,31,0*78
$GAGSV,1,1,00,0*74

$GNRMC,000541.00,A,3000.00040,N,11959.99961,E,0.177,,230721,,,A,V*1C
$GNGGA,000541.00,3000.00040,N,11959.99961,E,1,06,1.34,-1.2,M,,M,,*7E
$GNGSA,A,3,,,,,,,,,,,,,3.20,1.34,2.91,1*0C
$GNGSA,A,3,06,09,13,11,14,12,,,,,,,3.20,1.34,2.91,4*02
$GNGSA,A,3,,,,,,,,,,,,,3.20,1.34,2.91,3*0E
$GPGSV,1,1,00,0*65
$GBGSV,3,1,09,06,36,215,31,09,36,285,32,11,19,129,31,12,10,058,31,0*74
$GBGSV,3,2,09,13,4
6,201,32,14,07,164,31,01,37,122,31,02,50,173,31,0*78
$GBGSV,3,3,09,04,,,31,0*78
$GAGSV,1,1,00,0*74

$GNRMC,000542.00,A,3000.00033,N,11959.99965,E,0.095,,230721,,,A,V*12
$GNGGA,000542.00,3000.00033,N,11959.99965,E,1,06,1.34,-1.2,M,,M,,*7D
$GNGSA,A,3,,,,,,,,,,,,,3.20,1.34,2.91,1*0C
$GNGSA,A,3,06,09,13,11,14,12,,,,,,,3.20,1.34,2.91,4*02
$GNGSA,A,3,,,,,,,,,,,,,3.20,1.34,2.91,3*0E
$GPGSV,1,1,00,0*65
$GBGSV,3,1,09,06,36,215,31,09,36,285,31,11,19,129,31,12,10,058,31,0*77
$GBGSV,3,2,09,13,46,201,32,1
4,07,164,30,01,37,122,31,02,50,173,31,0*79
$GBGSV,3,3,09,04,,,31,0*78
$GAGSV,1,1,00,0*74

$GNRMC,000543.00,A,3000.00027,N,11959.99960,E,0.468,,230721,,,A,V*15
$GNGGA,000543.00,3000.00027,N,11959.99960,E,1,06,1.34,-1.2,M,,M,,*7C
$GNGSA,A,3,,,,,,,,,,,,,3.20,1.34,2.91,1*0C
$GNGSA,A,3,06,09,13,11,14,12,,,,,,,3.20,1.34,2.91,4*02
$GNGSA,A,3,,,,,,,,,,,,,3.20,1.34,2.91,3*0E
$GPGSV,1,1,00,0*65
$GBGSV,3,1,09,06,35,215,31,09,36,285,31,11,19,129,31,12,10,058,30,0*75
$GBGSV,3,2,09,13,46,201,32,14
,07,164,31,01,37,122,31,02,50,173,32,0*7B
$GBGSV,3,3,09,04,,,31,0*78
$GAGSV,1,1,00,0*74

$GNRMC,000544.00,A,3000.00021,N,11959.99958,E,0.379,,230721,,,A,V*18
$GNGGA,000544.00,3000.00021,N,11959.99958,E,1,06,1.33,-1.3,M,,M,,*70
$GNGSA,A,3,,,,,,,,,,,,,3.20,1.33,2.91,1*0B
$GNGSA,A,3,06,09,13,11,14,12,,,,,,,3.20,1.33,2.91,4*05
$GNGSA,A,3,,
,,,,,,,,,,,3.20,1.33,2.91,3*09
$GPGSV,1,1,00,0*65
$GBGSV,3,1,09,06,35,215,31,09,36,285,31,11,19,129,31,12,10,058,30,0*75
$GBGSV,3,2,09,13,46,201,32,14,07,164,31,01,37,122,31,02,50,173,31,0*78
$GBGSV,3,3,09,04,,,31,0*78
$GAGSV,1,1,00,0*74

$GNRMC,000545.00,A,3000.00022,N,11959.99965,E,0.170,,230721,,,A,V*1F
$GNGGA,000545.00,3000.00022,N,11959.99965,E,1,06,1.33,-1.3,M,,M,,*7C
$GNGSA,A,3,,,,,,,,,,,,,3.20,1.33,2.91,1*0B
$GNGSA,A,3,06,09,13,11,14,12,,,,,,,3.20,1.33,2.91,4*05
$GNGSA,A,3,,,,,,,,,,,,,3.20,1.33,2.91,3*09
$GPGSV,1,
1,00,0*65
$GBGSV,3,1,09,06,35,215,31,09,36,285,31,11,19,129,31,12,10,058,31,0*74
$GBGSV,3,2,09,13,46,201,32,14,07,164,31,01,37,122,31,02,50,173,31,0*78
$GBGSV,3,3,09,04,,,31,0*78
$GAGSV,1,1,00,0*74

$GNRMC,000546.00,A,3000.00024,N,11959.99965,E,0.196,,230721,,,A,V*12
$GNGGA,000546.00,3000.00024,N,11959.99965,E,1,06,1.33,-1.3,M,,M,,*79
$GNGSA,A,3,,,,,,,,,,,,,3.20,1.33,2.91,1*0B
$GNGSA,A,3,06,09,13,11,14,12,,,,,,,3.20,1.33,2.91,4*05
$GN
GSA,A,3,,,,,,,,,,,,,3.20,1.33,2.91,3*09
$GPGSV,1,1,00,0*65
$GBGSV,3,1,09,06,35,215,31,09,36,285,31,11,19,129,31,12,10,058,31,0*74
$GBGSV,3,2,09,13,46,201,32,14,07,164,30,01,37,122,31,02,50,173,31,0*79
$GBGSV,3,3,09,04,,,31,0*78
$GAGSV,1,1,00,0*74

$GNRMC,000547.00,A,3000.00025,N,11959.99966,E,0.075,,230721,,,A,V*1D
$GNGGA,000547.00,3000.00025,N,11959.99966,E,1,06,1.33,-1.6,M,,M,,*7F
$GNGSA,A,3,,,,,,,,,,,,,3.20,1.33,2.91,1*0B
$GNGSA,A,3,06,09,13,11,14,12,,,,,,,3.20,1.33,2.91,4*05
$GNGSA,A,3,,,,,,,,,,,,,3.20,1.33,2.91,3*09
$GPGSV,1,1,00,0*65
$GBGSV,3,1,09,06,35,215,31,09,36,285,31,11,19,129,31,12,10,058,31,0*74
$GBGSV,3,
2,09,13,46,201,32,14,07,164,31,01,37,122,31,02,50,173,32,0*7B
$GBGSV,3,3,09,04,,,31,0*78
$GAGSV,1,1,00,0*74

$GNRMC,000548.00,A,3000.00029,N,11959.99982,E,0.472,,230721,,,A,V*17
$GNGGA,000548.00,3000.00029,N,11959.99982,E,1,06,1.33,-1.4,M,,M,,*74
$GNGSA,A,3,,,,,,,,,,,,,3.20,1.33,2.91,1*0B
$GNGSA,A,3,06,09,13,11,14,12,,,,,,,3.20,1.33,2.91,4*05
$GNGSA,A,3,,,,,,,,,,,,,3.20,1.33,2.91,3*09
$GPGSV,1,1,00,0*65
$GBGSV,3,1,09,06,35,215,31,09,36,285,31,11,19,129,31,12,10,058,
30,0*75
$GBGSV,3,2,09,13,46,201,32,14,07,164,30,01,37,122,31,02,50,173,32,0*7A
$GBGSV,3,3,09,04,,,31,0*78
$GAGSV,1,1,00,0*74

$GNRMC,000549.00,A,3000.00033,N,11959.99989,E,0.222,,230721,,,A,V*15
$GNGGA,000549.00,3000.00033,N,11959.99989,E,1,06,1.33,-1.0,M,,M,,*71
$GNGSA,A,3,,,,,,,,,,,,,3.20,1.33,2.91,1*0B
$GNGSA,A,3,06,09,13,11,14,12,,,,,,,3.20,1.33,2.91,4*05
$GNGSA,A,3,,,,,,,,,,,,,3.20,1.33,2.91,3*09
$GPGSV,1,1,00,0*65
$GBGSV,3,1,09,06,35,215,31,09,36,285,31,11,19,129,31,12,10,058,31,0*74
$GBGSV,3,2,09,13,46,201,32,14,07,164,
30,01,37,122,31,02,50,173,31,0*79
$GBGSV,3,3,09,04,,,31,0*78
$GAGSV,1,1,00,0*74

$GNRMC,000550.00,A,3000.00033,N,11959.99982,E,0.368,,230721,,,A,V*19
$GNGGA,000550.00,3000.00033,N,11959.99982,E,1,06,1.33,-1.3,M,,M,,*71
$GNGSA,A,3,,,,,,,,,,,,,3.20,1.33,2.90,1*0A
$GNGSA,A,3,06,09,13,11,14,12,,,,,,,3.20,1.33,2.90,4*04
$GNGSA,A,3,,,,,,,,,,,,,3.20,1.33,2.90,3*08
$GPGSV,1,1,00,0*65
$GBGSV,3,1,09,06,35,215
,31,09,36,285,31,11,19,129,31,12,10,058,31,0*74
$GBGSV,3,2,09,13,46,201,31,14,07,164,31,01,37,122,31,02,50,173,31,0*7B
$GBGSV,3,3,09,04,,,31,0*78
$GAGSV,1,1,00,0*74

$GNRMC,000551.00,A,3000.00029,N,11959.99973,E,0.428,,230721,,,A,V*1E
$GNGGA,000551.00,3000.00029,N,11959.99973,E,1,06,1.33,-1.5,M,,M,,*73
$GNGSA,A,3,,,,,,,,,,,,,3.20,1.33,2.90,1*0A
$GNGSA,A,3,06,09,13,11,14,12,,,,,,,3.20,1.33,2.90,4*04
$GNGSA,A,3,,,,,,,,,,,,,3.20,1.33,2.90,3*08
$GPGSV,1,1,00,0*65
$GBGSV,3,1,09,06,35,21
5,31,09,36,285,31,11,19,129,31,12,10,058,31,0*74
$GBGSV,3,2,09,13,46,201,32,14,07,164,31,01,37,122,31,02,50,173,31,0*78
$GBGSV,3,3,09,04,,,31,0*78
$GAGSV,1,1,00,0*74

$GNRMC,000552.00,A,3000.00023,N,11959.99986,E,0.605,,230721,,,A,V*10
$GNGGA,000552.00,3000.00023,N,11959.99986,E,1,06,1.33,-1.2,M,,M,,*77
$GNGSA,A,3,,,,,,,,,,,,,3.20,1.33,2.90,1*0A
$GNGSA,A,3,06,09,13,11,14,12,,,,,,,3.20,1.33,2.90,4*04
$GNGSA,A,3,,,,,,,,,,,,,3.20,1.33,2.90,3*08
$GPGSV,1,1,00,
0*65
$GBGSV,3,1,09,06,35,215,31,09,36,285,31,11,19,129,31,12,10,058,31,0*74
$GBGSV,3,2,09,13,46,201,32,14,07,164,31,01,37,122,31,02,50,173,31,0*78
$GBGSV,3,3,09,04,,,31,0*78
$GAGSV,1,1,00,0*74

$GNRMC,000553.00,A,3000.00007,N,11959.99993,E,0.700,,230721,,,A,V*17
$GNGGA,000553.00,3000.00007,N,11959.99993,E,1,06,1.33,-1.3,M,,M,,*75
$GNGSA,A,3,,,,,,,,,,,,,3.20,1.33,2.90,1*0A
$GNGSA,A,3,06,09,13,11,14,12,,,,,,,3.20,1.33,2.90,4*04
$GNGSA,A,3,,,,,,,,,,,,,3.20,1.33,2.90,3*08
$GPGSV,1,1,00,0*65
$GBGSV,3,1,09,06,35,215,31,09,36,285,3
1,11,19,129,31,12,10,058,31,0*74
$GBGSV,3,2,09,13,46,201,32,14,07,164,30,01,37,122,32,02,50,173,32,0*79
$GBGSV,3,3,09,04,,,31,0*78
$GAGSV,1,1,00,0*74

$GNRMC,000554.00,A,2959.99996,N,11959.99993,E,0.274,,230721,,,A,V*13
$GNGGA,000554.00,2959.99996,N,11959.99993,E,1,06,1.33,-1.3,M,,M,,*77
$GNGSA,A,3,,,,,,,,,,,,,3.19,1.33,2.90,1*00
$GNGSA,A,3,06,09,13,11,14,12,,,,,,,3.19,1.33,2.90,4*0E
$GNGSA,A,3,,,,,,,,,,,,,3.19,1.33,2.90,3*02
$GPGSV,1,1,00,0*65
$GBGSV,3,1,09,06,35,215,31,09,36,285,31,11,19,129,32,12,10,058,31,0*77
$GBGSV
,3,2,09,13,46,201,32,14,07,164,30,01,37,122,31,02,50,173,31,0*79
$GBGSV,3,3,09,04,,,31,0*78
$GAGSV,1,1,00,0*74

$GNRMC,000555.00,A,2959.99998,N,11959.99989,E,0.584,,230721,,,A,V*1F
$GNGGA,000555.00,2959.99998,N,11959.99989,E,1,06,1.33,-1.3,M,,M,,*73
$GNGSA,A,3,,,,,,,,,,,,,3.19,1.33,2.90,1*00
$GNGSA,A,3,06,09,13,11,14,12,,,,,,,3.19,1.33,2.90,4*0E
$GNGSA,A,3,,,,,,,,,,,,,3.19,1.33,2.90,3*02
$GPGSV,1,1,00,0*65
$GBGSV,3,1,09,06,35,215,31,09,36,285,31,11,19,129,31,12,10,058,31,0*74
$GBGSV,
3,2,09,13,46,201,32,14,07,164,31,01,37,122,31,02,50,173,32,0*7B
$GBGSV,3,3,09,04,,,31,0*78
$GAGSV,1,1,00,0*74

$GNRMC,000556.00,A,3000.00002,N,11959.99984,E,0.105,,230721,,,A,V*12
$GNGGA,000556.00,3000.00002,N,11959.99984,E,1,06,1.33,-1.5,M,,M,,*75
$GNGSA,A,3,,,,,,,,,,,,,3.19,1.33,2.90,1*00
$GNGSA,A,3,06,09,13,11,14,12,,,,,,,3.19,1.33,2.90,4*0E
$GNGSA,A,3,,,,,,,,,,,,,3.19,1.33,2.90,3*02
$GPGSV,1,1,00,0*65
$GBGSV,3,1,09,06,35,215,32,09,36,285,31,11,19,129,31,12,10,058,31,0*77
$GBGSV,3,2,09
,13,46,201,32,14,07,164,31,01,37,122,31,02,50,173,31,0*78
$GBGSV,3,3,09,04,,,31,0*78
$GAGSV,1,1,00,0*74

$GNRMC,000557.00,A,3000.00005,N,11959.99995,E,0.515,,230721,,,A,V*11
$GNGGA,000557.00,3000.00005,N,11959.99995,E,1,06,1.33,-1.4,M,,M,,*72
$GNGSA,A,3,,,,,,,,,,,,,3.19,1.33,2.90,1*00
$GNGSA,A,3,06,09,13,11,14,12,,,,,,,3.19,1.33,2.90,4*0E
$GNGSA,A,3,,,,,,,,,,,,,3.19,1.33,2.90,3*02
$GPGSV,1,1,00,0*65
$GBGSV,3,1,09,06,35,215,31,09,36,285,32,11,19,129,31,12,10,058,31,0*77
$GBGSV,3,2,09,13,46,201,32,14,
07,164,31,01,37,122,31,02,50,173,31,0*78
$GBGSV,3,3,09,04,,,31,0*78
$GAGSV,1,1,00,0*74

$GNRMC,000558.00,A,3000.00011,N,12000.00006,E,0.662,,230721,,,A,V*1D
$GNGGA,000558.00,3000.00011,N,12000.00006,E,1,06,1.33,-1.5,M,,M,,*7C
$GNGSA,A,3,,,,,,,,,,,,,3.19,1.33,2.90,1*00
$GNGSA,A,3,06,09,13,11,14,12,,,,,,,3.19,1.33,2.90,4*0E
$GNGS
A,A,3,,,,,,,,,,,,,3.19,1.33,2.90,3*02
$GPGSV,1,1,00,0*65
$GBGSV,3,1,09,06,35,215,31,09,36,285,31,11,19,129,31,12,10,058,31,0*74
$GBGSV,3,2,09,13,46,201,32,14,07,164,31,01,37,122,31,02,50,173,31,0*78
$GBGSV,3,3,09,04,,,31,0*78
$GAGSV,1,1,00,0*74

$GNRMC,000559.00,A,3000.00014,N,12000.00009,E,0.333,,230721,,,A,V*17
$GNGGA,000559.00,3000.00014,N,12000.00009,E,1,06,1.33,-1.7,M,,M,,*75
$GNGSA,A,3,,,,,,,,,,,,,3.19,1.33,2.90,1*00
$GNGSA,A,3,06,09,13,11,14,12,,,,,,,3.19,1.33,2.90,4*0E
$GNGSA,A,3,,,,,,,,,,,,,3.19,1.33,2.90,3*02
$GPGSV,1,1,00,0*65
$
GBGSV,3,1,09,06,35,215,31,09,36,285,31,11,19,129,31,12,10,058,30,0*75
$GBGSV,3,2,09,13,46,201,32,14,07,164,30,01,37,122,31,02,50,173,31,0*79
$GBGSV,3,3,09,04,,,31,0*78
$GAGSV,1,1,00,0*74

$GNRMC,000600.00,A,3000.00022,N,12000.00008,E,0.307,,230721,,,A,V*1B
$GNGGA,000600.00,3000.00022,N,12000.00008,E,1,06,1.33,-1.5,M,,M,,*7C
$GNGSA,A,3,,,,,,,,,,,,,3.19,1.33,2.90,1*00
$GNGSA,A,3,06,09,13,11,14,12,,,,,,,3.19,1.33,2.90,4*0E
$GNGSA,A,3,,,,,,,,,,,,,3.19,1.33,2.90,3*02
$GPGSV,1,1,00,0*65
$GBGSV,3,1,09,06,35,215,31,09,36,285,31,11,19,129,31,12,10,058,31,0*74
$GBGSV,3,2,09,13
,46,201,32,14,07,164,31,01,37,122,31,02,50,173,31,0*78
$GBGSV,3,3,09,04,,,31,0*78
$GAGSV,1,1,00,0*74

$GNRMC,000601.00,A,3000.00026,N,11959.99999,E,0.178,,230721,,,A,V*13
$GNGGA,000601.00,3000.00026,N,11959.99999,E,1,06,1.33,-1.9,M,,M,,*72
$GNGSA,A,3,,,,,,,,,,,,,3.19,1.33,2.90,1*00
$GNGSA,A,3,06,09,13,11,14,12,,,,,,,3.19,1.33,2.90,4*0E
$GNGSA,A,3,,,,,,,,,,,,,3.19,1.33,2.90,3*02
$GPGSV,1,1,00,0*65

$GBGSV,3,1,09,06,35,215,31,09,36,285,31,11,19,129,31,12,10,058,31,0*74
$GBGSV,3,2,09,13,46,201,32,14,07,164,31,01,37,122,31,02,50,173,31,0*78
$GBGSV,3,3,09,04,,,31,0*78
$GAGSV,1,1,00,0*74

$GNRMC,000602.00,A,3000.00026,N,11959.99984,E,0.327,,230721,,,A,V*14
$GNGGA,000602.00,3000.00026,N,11959.99984,E,1,06,1.33,-2.4,M,,M,,*73
$GNGSA,A,3,,,,,,,,,,,,,3.19,1.33,2.90,1*00
$GNGSA,A,3,06,09,13,11,14,12,,,,,,,3.19,1.33,2.90,4*0E
$GNGSA,A,3,,,,,,,,,,,,,3.19,1.33,2.90,3*02
$GPGSV,1,1,00,0*65
$GB
GSV,3,1,09,06,35,215,31,09,36,285,31,11,19,129,31,12,10,058,31,0*74
$GBGSV,3,2,09,13,46,201,32,14,07,164,31,01,37,122,31,02,50,173,31,0*78
$GBGSV,3,3,09,04,,,31,0*78
$GAGSV,1,1,00,0*74

$GNRMC,000603.00,A,3000.00032,N,11959.99990,E,0.591,,230721,,,A,V*1E
$GNGGA,000603.00,3000.00032,N,11959.99990,E,1,06,1.33,-2.3,M,,M,,*75
$GNGSA,A,3,,,,,,,,,,,,,3.19,1.33,2.90,1*00
$GNGSA,A,3,06,09,13,11,14,12,,,,,,,3.19,1.33,2.90,4*0E
$GNGSA,A,3,,,,,,,,,,,,,3.19,1.33,2.90,3*02
$GPGSV,1
,1,00,0*65
$GBGSV,3,1,09,06,35,215,32,09,36,285,31,11,19,129,31,12,10,058,31,0*77
$GBGSV,3,2,09,13,46,201,32,14,07,164,30,01,37,122,31,02,50,173,32,0*7A
$GBGSV,3,3,09,04,,,31,0*78
$GAGSV,1,1,00,0*74

$GNRMC,000604.00,A,3000.00037,N,12000.00006,E,0.549,,230721,,,A,V*19
$GNGGA,000604.00,3000.00037,N,12000.00006,E,1,06,1.33,-2.0,M,,M,,*74
$GNGSA,A,3,,,,,,,,,,,,,3.19,1.33,2.90,1*00
$GNGSA,A,3,06,09,13,11,14,12,,,,,,,3.19,1.33,2.90,4*0E
$GNGSA,A,3,,,,,,,,,,,,,3.19,1.33,2.90,3*02
$GPGSV,1,1,00,0*65
$GBGSV,3,1,09,06,35,215,31,09,36,285,31,11,19,129,31,12,10,058,31,0*74
$GBGSV,3,2,09,
13,46,201,32,14,07,164,30,01,37,122,31,02,50,173,32,0*7A
$GBGSV,3,3,09,04,,,31,0*78
$GAGSV,1,1,00,0*74

$GNRMC,000605.00,A,3000.00040,N,12000.00009,E,0.156,,230721,,,A,V*1D
$GNGGA,000605.00,3000.00040,N,12000.00009,E,1,06,1.33,-2.1,M,,M,,*7B
$GNGSA,A,3,,,,,,,,,,,,,3.19,1.33,2.90,1*00
$GNGSA,A,3,06,09,13,11,14,12,,,,,,,3.19,1.33,2.90,4*0E
$GNGSA,A,3,,,,,,,,,,,,,3.19,1.33,2.90,3*02
$GPGSV,1,1,00,0*65
$GBGSV,3,1,09,06,35,215,31,09,36,285,31,11,19,129,31
,12,10,058,31,0*74
$GBGSV,3,2,09,13,46,201,32,14,07,164,30,01,37,122,32,02,50,173,32,0*79
$GBGSV,3,3,09,04,,,31,0*78
$GAGSV,1,1,00,0*74

$GNRMC,000606.00,A,3000.00041,N,12000.00010,E,0.140,,230721,,,A,V*10
$GNGGA,000606.00,3000.00041,N,12000.00010,E,1,06,1.33,-2.2,M,,M,,*72
$GNGSA,A,3,,,,,,,,,,,,,3.19,1.33,2.90,1*00
$GNGSA,A,3,06,09,13,11,14,12,,,,,,,3.19,1.33,2.90,4*0E
$GNGSA,A,3,,,,,,,,,,,,,3.19,1.33,2.90,3*02
$GPGSV,1,1,00,0*65
$GBGSV,3,1,09,0
6,35,215,31,09,36,285,31,11,19,129,31,12,10,058,31,0*74
$GBGSV,3,2,09,13,46,201,32,14,07,164,31,01,37,122,31,02,50,173,31,0*78
$GBGSV,3,3,09,04,,,31,0*78
$GAGSV,1,1,00,0*74

$GNRMC,000607.00,A,3000.00041,N,12000.00015,E,0.126,,230721,,,A,V*14
$GNGGA,000607.00,3000.00041,N,12000.00015,E,1,06,1.33,-2.2,M,,M,,*76
$GNGSA,A,3,,,,,,,,,,,,,3.19,1.33,2.90,1*00
$GNGSA,A,3,06,09,13,11,14,12,,,,,,,3.19,1.33,2.90,4*0E
$GNGSA,A,3,,,,,,,,,,,,,3.19,1.33,2.90,3*02
$GPGSV,1,1,00,0*65
$GBGSV,3,1,09,06,35,215,31,09,36,285,31,11,19,129,31,12,10,058,31,0*74
$GBGSV,3,2,09,13,46,201,32,14,07,164,31,01,
37,122,31,02,50,173,31,0*78
$GBGSV,3,3,09,04,,,31,0*78
$GAGSV,1,1,00,0*74

$GNRMC,000608.00,A,3000.00040,N,12000.00025,E,0.321,,230721,,,A,V*1C
$GNGGA,000608.00,3000.00040,N,12000.00025,E,1,06,1.33,-1.9,M,,M,,*73
$GNGSA,A,3,,,,,,,,,,,,,3.19,1.33,2.90,1*00
$GNGSA,A,3,06,09,13,11,14,12,,,,,,,3.19,1.33,2.90,4*0E
$GNGSA,A,3,,,,,,,,,,,,,3.19,1.33,2.90,3*02
$GPGSV,1,1,00,0*65
$GBGSV,3,1,09,06,35,
215,31,09,36,285,31,11,19,129,31,12,10,058,30,0*75
$GBGSV,3,2,09,13,46,201,32,14,07,164,31,01,37,122,31,02,50,173,32,0*7B
$GBGSV,3,3,09,04,,,31,0*78
$GAGSV,1,1,00,0*74

$GNRMC,000609.00,A,3000.00039,N,12000.00031,E,0.197,,230721,,,A,V*19
$GNGGA,000609.00,3000.00039,N,12000.00031,E,1,06,1.33,-1.5,M,,M,,*75
$GNGSA,A,3,,,,,,,,,,,,,3.19,1.33,2.90,1*00
$GNGSA,A,3,06,09,13,11,14,12,,,,,,,3.19,1.33,2.90,4*0E
$GNGSA,A,3,,,,,,,,,,,,,3.19,1.33,2.90,3*02
$GPGSV,1,1,00,0*65
$GBGSV,3,1,09,06,35,215,31,09,36,285,31,11,19,129,31,12,10,058,31,0*74
$GBGSV,3,2,09
,13,46,201,32,14,07,164,31,01,37,122,31,02,50,173,32,0*7B
$GBGSV,3,3,09,04,,,31,0*78
$GAGSV,1,1,00,0*74

$GNRMC,000610.00,A,3000.00036,N,12000.00033,E,0.335,,230721,,,A,V*16
$GNGGA,000610.00,3000.00036,N,12000.00033,E,1,06,1.33,-1.6,M,,M,,*73
$GNGSA,A,3,,,,,,,,,,,,,3.19,1.33,2.90,1*00
$GNGSA,A,3,06,09,13,11,14,12,,,,,,,3.19,1.33,2.90,4*0E
$GNG
SA,A,3,,,,,,,,,,,,,3.19,1.33,2.90,3*02
$GPGSV,1,1,00,0*65
$GBGSV,3,1,09,06,35,215,31,09,36,285,31,11,19,129,31,12,10,058,31,0*74
$GBGSV,3,2,09,13,46,201,32,14,07,164,31,01,37,122,31,02,50,173,31,0*78
$GBGSV,3,3,09,04,,,31,0*78
$GAGSV,1,1,00,0*74

$GNRMC,000611.00,A,3000.00029,N,12000.00036,E,0.074,,230721,,,A,V*1A
$GNGGA,000611.00,3000.00029,N,12000.00036,E,1,06,1.33,-1.5,M,,M,,*7A
$GNGSA,A,3,,,,,,,,,,,,,3.19,1.33,2.90,1*00
$GNGSA,A,3,06,09,13,11,14,12,,,,,,,3.19,1.33,2.90,4*0E
$GNGSA,A,3,,,,,,,,,,,,,3.19,1.33,2.90,3*02
$GPGSV,1,1,00,0*65
$GBGSV,3,1,09,06,35,215,31,09,36,285,31,11,19,129,31,12,10,058,31,0*74
$GBGSV,3
,2,09,13,46,201,32,14,07,164,30,01,37,122,31,02,50,173,31,0*79
$GBGSV,3,3,09,04,,,31,0*78
$GAGSV,1,1,00,0*74

$GNRMC,000612.00,A,3000.00029,N,12000.00031,E,0.263,,230721,,,A,V*1A
$GNGGA,000612.00,3000.00029,N,12000.00031,E,1,06,1.33,-1.4,M,,M,,*7F
$GNGSA,A,3,,,,,,,,,,,,,3.19,1.33,2.90,1*00
$GNGSA,A,3,06,09,13,11,14,12,,,,,,,3.19,1.33,2.90,4*0E
$GNGSA,A,3,,,,,,,,,,,,,3.19,1.33,2.90,3*02
$GPGSV,1,1,00,0*65
$GBGSV,3,1,09,06,35,215,31,09,36,285,31,11,19,129,31,12,10,058,31,0*74
$GBGSV,3,2,09,13,46,201,32,14,07,164,30
,01,37,122,31,02,50,173,32,0*7A
$GBGSV,3,3,09,04,,,31,0*78
$GAGSV,1,1,00,0*74

$GNRMC,000613.00,A,3000.00027,N,12000.00033,E,0.426,,230721,,,A,V*10
$GNGGA,000613.00,3000.00027,N,12000.00033,E,1,06,1.33,-1.4,M,,M,,*72
$GNGSA,A,3,,,,,,,,,,,,,3.19,1.33,2.89,1*08
$GNGSA,A,3,06,09,13,11,14,12,,,,,,,3.19,1.33,2.89,4*06
$GNGSA,A,3,,,,,,,,,,,,,3.19,1.33,2.89,3*0A
$GPGSV,1,1,00,0*65
$GBGSV,3,1,09,06,35,215,31,09,36,285,31,11,19,129,31,12,10,058,30,0*75
$GBGSV,3
,2,09,13,46,201,32,14,07,164,30,01,37,122,31,02,50,173,32,0*7A
$GBGSV,3,3,09,04,,,31,0*78
$GAGSV,1,1,00,0*74

$GNRMC,000614.00,A,3000.00032,N,12000.00036,E,0.269,,230721,,,A,V*1B
$GNGGA,000614.00,3000.00032,N,12000.00036,E,1,06,1.33,-1.6,M,,M,,*76
$GNGSA,A,3,,,,,,,,,,,,,3.18,1.33,2.89,1*09
$GNGSA,A,3,06,09,13,11,14,12,,,,,,,3.18,1.33,2.89,4*07
$GNGSA,A,3,,,,,,,,,,,,,3.18,1.33,2.89,3*0B
$GPGSV,1,1,00,0*65
$GBGSV,3,1,09,06,35,215,31,09,36,285,31,11,19,129,31,12,10,058,31,0
*74
$GBGSV,3,2,09,13,46,201,32,14,07,164,30,01,37,122,31,02,50,173,32,0*7A
$GBGSV,3,3,09,04,,,31,0*78
$GAGSV,1,1,00,0*74

$GNRMC,000615.00,A,3000.00043,N,12000.00035,E,0.440,,230721,,,A,V*12
$GNGGA,000615.00,3000.00043,N,12000.00035,E,1,06,1.33,-1.9,M,,M,,*7D
$GNGSA,A,3,,,,,,,,,,,,,3.18,1.33,2.89,1*09
$GNGSA,A,3,06,09,13,11,14,12,,,,,,,3.18,1.33,2.89,4*07
$GNGSA,A,3,,,,,,,,,,,,,3.18,1.33,2.89,3*0B
$GPGSV,1,1,00,0*
65
$GBGSV,3,1,09,06,35,215,31,09,36,285,31,11,19,129,32,12,10,058,31,0*77
$GBGSV,3,2,09,13,46,201,32,14,07,164,30,01,37,122,31,02,50,173,31,0*79
$GBGSV,3,3,09,04,,,31,0*78
$GAGSV,1,1,00,0*74

$GNRMC,000616.00,A,3000.00054,N,12000.00044,E,0.729,,230721,,,A,V*1D
$GNGGA,000616.00,3000.00054,N,12000.00044,E,1,06,1.33,-2.0,M,,M,,*74
$GNGSA,A,3,,,,,,,,,,,,,3.18,1.33,2.89,1*09
$GNGSA,A,3,06,09,13,11,14,12,,,,,,,3.18,1.33,2.89,4*07

$GNGSA,A,3,,,,,,,,,,,,,3.18,1.33,2.89,3*0B
$GPGSV,1,1,00,0*65
$GBGSV,3,1,09,06,35,215,31,09,36,285,32,11,19,129,32,12,10,058,31,0*74
$GBGSV,3,2,09,13,46,201,32,14,07,164,30,01,37,122,31,02,50,173,31,0*79
$GBGSV,3,3,09,04,,,31,0*78
$GAGSV,1,1,00,0*74

$GNRMC,000617.00,A,3000.00060,N,12000.00046,E,0.359,,230721,,,A,V*1A
$GNGGA,000617.00,3000.00060,N,12000.00046,E,1,06,1.33,-1.6,M,,M,,*75
$GNGSA,A,3,,,,,,,,,,,,,3.18,1.33,2.89,1*09
$GNGSA,A,3,06,09,13,11,14,12,,,,,,,3.18,1.33,2.89,4*07
$GNGSA,A,3,,,,,,,,,,,,,3.18,1.33,
2.89,3*0B
$GPGSV,1,1,00,0*65
$GBGSV,3,1,09,06,35,215,31,09,36,285,31,11,19,129,31,12,10,058,31,0*74
$GBGSV,3,2,09,13,46,201,32,14,07,164,30,01,37,122,31,02,50,173,31,0*79
$GBGSV,3,3,09,04,,,31,0*78
$GAGSV,1,1,00,0*74

$GNRMC,000618.00,A,3000.00058,N,12000.00033,E,0.665,,230721,,,A,V*16
$GNGGA,000618.00,3000.00058,N,12000.00033,E,1,06,1.33,-1.6,M,,M,,*73
$GNGSA,A,3,,,,,,,,,,,,,3.18,1.33,2.89,1*09
$GNGSA,A,3,06,09,13,11,14,12,,,,,,,3.18,1.33,2.89,4*07
$GNGSA,A,3,,,,,,,,,,,,,3.18,1.33,
2.89,3*0B
$GPGSV,1,1,00,0*65
$GBGSV,3,1,09,06,35,215,31,09,36,285,31,11,19,129,31,12,10,058,30,0*75
$GBGSV,3,2,09,13,46,201,32,14,07,164,31,01,37,122,31,02,50,173,32,0*7B
$GBGSV,3,3,09,04,,,31,0*78
$GAGSV,1,1,00,0*74

$GNRMC,000619.00,A,3000.00047,N,12000.00030,E,0.464,,230721,,,A,V*19
$GNGGA,000619.00,3000.00047,N,12000.00030,E,1,06,1.33,-1.7,M,,M,,*7E
$GNGSA,A,3,,,,,,,,,,,,,3.18,1.33,2.89,1*09
$GNGSA,A,3,06,09,13,11,14,12,,,,,,,3.18,1.33,2.89,4*07
$GNGSA,A,3,,,,,,,,,,,,,3.18,1.33,2.89,3*0B
$GPGSV,1,1,00,0*65
$GBGSV,3,1,09,06,35,215,31,09,36,285,31,11,19,129,31,12,10,058,31,0*74
$GBGSV,3,2
,09,13,46,201,32,14,07,164,31,01,37,122,31,02,50,173,32,0*7B
$GBGSV,3,3,09,04,,,31,0*78
$GAGSV,1,1,00,0*74

$GNRMC,000620.00,A,3000.00033,N,12000.00037,E,0.348,,230721,,,A,V*1E
$GNGGA,000620.00,3000.00033,N,12000.00037,E,1,06,1.33,-1.3,M,,M,,*74
$GNGSA,A,3,,,,,,,,,,,,,3.18,1.33,2.89,1*09
$GNGSA,A,3,06,09,13,11,14,12,,,,,,,3.18,1.33,2.89,4*07
$GNGSA,A,3,,,,,,,,,,,,,3.18,1.33,2.89,3*0B
$GPGSV,1,1,00,0*65
$GBGSV,3,1,09,06,35,215,31,09,36,285,31,11,19,129,31,12,10,058,31,0*74
$GBGSV,3,2,09,13
,46,201,32,14,07,164,30,01,37,122,31,02,50,173,31,0*79
$GBGSV,3,3,09,04,,,32,0*7B
$GAGSV,1,1,00,0*74

$GNRMC,000621.00,A,3000.00034,N,12000.00039,E,0.374,,230721,,,A,V*19
$GNGGA,000621.00,3000.00034,N,12000.00039,E,1,06,1.33,-1.1,M,,M,,*7E
$GNGSA,A,3,,,,,,,,,,,,,3.18,1.33,2.89,1*09
$GNGSA,A,3,06,09,13,11,14,12,,,,,,,3.18,1.33,2.89,4*07
$GNGSA,A,3,,,,,,,,,,,,,3.18,1.33,2.89,3*0B
$GPGSV,1,1,0
0,0*65
$GBGSV,3,1,09,06,35,215,31,09,36,285,31,11,19,129,31,12,10,058,31,0*74
$GBGSV,3,2,09,13,46,201,32,14,07,164,31,01,37,122,31,02,50,173,32,0*7B
$GBGSV,3,3,09,04,,,32,0*7B
$GAGSV,1,1,00,0*74

$GNRMC,000622.00,A,3000.00038,N,12000.00041,E,0.330,,230721,,,A,V*19
$GNGGA,000622.00,3000.00038,N,12000.00041,E,1,06,1.33,-1.3,M,,M,,*7C
$GNGSA,A,3,,,,,,,,,,,,,3.18,1.33,2.89,1*09
$GNGSA,A,3,06,09,13,11,14,12,,,,,,,3.18,1.33,2.89,4*07
$GNGSA,A,3,,,,,,,,,,,,,3.18,1.33,2.89,3*0B
$GPGSV,1,1,00,0*65
$GBGSV,3,1,09,06,35,215,31,09,36,285,31,11,19,
129,31,12,10,058,31,0*74
$GBGSV,3,2,09,13,46,201,32,14,06,164,31,01,37,122,31,02,50,173,32,0*7A
$GBGSV,3,3,09,04,,,32,0*7B
$GAGSV,1,1,00,0*74

$GNRMC,000623.00,A,3000.00033,N,12000.00034,E,0.557,,230721,,,A,V*16
$GNGGA,000623.00,3000.00033,N,12000.00034,E,1,06,1.33,-1.6,M,,M,,*71
$GNGSA,A,3,,,,,,,,,,,,,3.18,1.33,2.89,1*09
$GNGSA,A,3,06,09,13,11,14,12,,,,,,,3.18,1.33,2.89,4*07
$GNGSA,A,3,,,,,,,,,,,,,3.18,1.33,2.89,3*0B
$GPGSV,1,1,00,0*65
$GBGSV,3,1,09,06,35,215,31,09,36
,285,31,11,19,129,31,12,10,058,31,0*74
$GBGSV,3,2,09,13,46,201,32,14,06,164,31,01,37,122,31,02,50,173,31,0*79
$GBGSV,3,3,09,04,,,31,0*78
$GAGSV,1,1,00,0*74

$GNRMC,000624.00,A,3000.00029,N,12000.00038,E,0.319,,230721,,,A,V*1A
$GNGGA,000624.00,3000.00029,N,12000.00038,E,1,06,1.33,-1.5,M,,M,,*72
$GNGSA,A,3,,,,,,,,,,,,,3.18,1.33,2.89,1*09
$GNGSA,A,3,06,09,13,11,14,12,,,,,,,3.18,1.33,2.89,4*07
$GNGSA,A,3,,,,,,,,,,,,,3.18,1.33,2.89,3*0B
$GPGSV,1,1,00,0*65
$GBGSV,3,1,09,06,3
5,215,31,09,36,285,31,11,19,129,31,12,10,058,30,0*75
$GBGSV,3,2,09,13,46,201,32,14,06,164,31,01,37,122,31,02,50,173,31,0*79
$GBGSV,3,3,09,04,,,31,0*78
$GAGSV,1,1,00,0*74

$GNRMC,000625.00,A,3000.00027,N,12000.00044,E,0.075,,230721,,,A,V*17
$GNGGA,000625.00,3000.00027,N,12000.00044,E,1,06,1.33,-1.5,M,,M,,*76
$GNGSA,A,3,,,,,,,,,,,,,3.18,1.33,2.89,1*09
$GNGSA,A,3,06,09,13,11,14,12,,,,,,,3.18,1.33,2.89,4*07
$GNGSA,A,3,,,,,,,,,,,,,3.18,1.33,2.89,3*0B
$GPGSV,1,1,0
0,0*65
$GBGSV,3,1,09,06,35,215,31,09,36,285,31,11,19,129,31,12,10,058,31,0*74
$GBGSV,3,2,09,13,46,201,32,14,06,164,30,01,37,122,31,02,50,173,31,0*78
$GBGSV,3,3,09,04,,,31,0*78
$GAGSV,1,1,00,0*74

$GNRMC,000626.00,A,3000.00037,N,12000.00041,E,0.579,,230721,,,A,V*19
$GNGGA,000626.00,3000.00037,N,12000.00041,E,1,06,1.33,-1.5,M,,M,,*71
$GNGSA,A,3,,,,,,,,,,,,,3.18,1.33,2.89,1*09
$GNGSA,A,3,06,09,13,11,14,12,,,,,,,3.18,1.33,2.89,4*07
$GNGS
A,A,3,,,,,,,,,,,,,3.18,1.33,2.89,3*0B
$GPGSV,1,1,00,0*65
$GBGSV,3,1,09,06,35,215,31,09,36,285,31,11,19,129,31,12,10,058,31,0*74
$GBGSV,3,2,09,13,46,201,32,14,06,164,31,01,37,122,31,02,50,173,32,0*7A
$GBGSV,3,3,09,04,,,31,0*78
$GAGSV,1,1,00,0*74

$GNRMC,000627.00,A,3000.00053,N,12000.00036,E,0.579,,230721,,,A,V*1A
$GNGGA,000627.00,3000.00053,N,12000.00036,E,1,06,1.33,-1.5,M,,M,,*72
$GNGSA,A,3,,,,,,,,,,,,,3.18,1.33,2.89,1*09
$GNGSA,A,3,06,09,13,11,14,12,,,,,,,3.18,1.33,2.89,4*07
$GNGSA,A,3,,,,,,,,,,,,,3.18,1.33,2.89,3*0B
$GPGSV,1,1,00,0*65
$GBGSV,3,1,09,06,35,215,31,09,36,285,31,11,19,129,31,12,10,058,31,0*
74
$GBGSV,3,2,09,13,46,201,32,14,06,164,31,01,37,122,31,02,50,173,32,0*7A
$GBGSV,3,3,09,04,,,31,0*78
$GAGSV,1,1,00,0*74

$GNRMC,000628.00,A,3000.00054,N,12000.00032,E,0.205,,230721,,,A,V*1A
$GNGGA,000628.00,3000.00054,N,12000.00032,E,1,06,1.33,-1.4,M,,M,,*7F
$GNGSA,A,3,,,,,,,,,,,,,3.18,1.33,2.89,1*09
$GNGSA,A,3,06,09,13,11,14,12,,,,,,,3.18,1.33,2.89,4*07
$GNGSA,A,3,,,,,,,,,,,,,3.18,1.33,2.89,3*0B
$GPGSV,1,1,00,0*65
$GBGSV,3,1,09,06,35,215,31,09,36,285,32,11,19,129,31,12,10,058,31,0*77
$GBGSV,3,2,09,13
,46,201,32,14,06,164,30,01,37,122,31,02,50,173,31,0*78
$GBGSV,3,3,09,04,,,31,0*78
$GAGSV,1,1,00,0*74

$GNRMC,000629.00,A,3000.00047,N,12000.00033,E,0.369,,230721,,,A,V*13
$GNGGA,000629.00,3000.00047,N,12000.00033,E,1,06,1.33,-1.0,M,,M,,*79
$GNGSA,A,3,,,,,,,,,,,,,3.18,1.33,2.89,1*09
$GNGSA,A,3,06,09,13,11,14,12,,,,,,,3.18,1.33,2.89,4*07
$GNGSA,A,3,,,,,,,,,,,,,3.18,1.33,2.89,3*0B
$GPGSV,1,1,00,0*65
$GBGS
V,3,1,09,06,35,215,32,09,36,285,31,11,20,129,31,12,10,058,31,0*7D
$GBGSV,3,2,09,13,46,200,32,14,06,164,30,01,37,122,31,02,50,173,31,0*79
$GBGSV,3,3,09,04,,,31,0*78
$GAGSV,1,1,00,0*74

$GNRMC,000630.00,A,3000.00044,N,12000.00034,E,0.420,,230721,,,A,V*15
$GNGGA,000630.00,3000.00044,N,12000.00034,E,1,06,1.33,-1.0,M,,M,,*75
$GNGSA,A,3,,,,,,,,,,,,,3.18,1.33,2.89,1*09
$GNGSA,A,3,06,09,13,11,14,12,,,,,,,3.18,1.33,2.89,4*07
$GNGSA,A,3,,,,,,,,,,,,,3.18,1.33,2.89,3*0B
$GPGSV,1,1,00,0*65
$GBGSV,3,1,09,06,35,215,31,09,36,285,31,11,20,129,31,12,10,058,30,0*7F
$GBGSV,3,2
,09,13,46,200,32,14,06,164,31,01,37,122,31,02,50,173,32,0*7B
$GBGSV,3,3,09,04,,,31,0*78
$GAGSV,1,1,00,0*74

$GNRMC,000631.00,A,3000.00047,N,12000.00032,E,0.069,,230721,,,A,V*18
$GNGGA,000631.00,3000.00047,N,12000.00032,E,1,06,1.33,-1.3,M,,M,,*72
$GNGSA,A,3,,,,,,,,,,,,,3.18,1.33,2.89,1*09
$GNGSA,A,3,06,09,13,11,14,12,,,,,,,3.18,1.33,2.89,4*07
$GNGSA,A,3,,,,,,,,,,,,,3.18,1.33,2.89,3*0B
$GPGSV,1,1,00,0*65
$GBGSV,3,1,09,06,35,215,31,09,36,285,31,11,20,129,31,12,10,058,31,0*7E
$GBGSV,3,2,09
,13,46,200,32,14,06,164,30,01,37,122,31,02,50,173,32,0*7A
$GBGSV,3,3,09,04,,,31,0*78
$GAGSV,1,1,00,0*74

$GNRMC,000632.00,A,3000.00044,N,12000.00033,E,0.244,,230721,,,A,V*14
$GNGGA,000632.00,3000.00044,N,12000.00033,E,1,06,1.33,-1.3,M,,M,,*73
$GNGSA,A,3,,,,,,,,,,,,,3.18,1.33,2.89,1*09
$GNGSA,A,3,06,09,13,11,14,12,,,,,,,3.18,1.33,2.89,4*07
$GNGSA,A,3,,,,,,,,,,,,,3.18
,1.33,2.89,3*0B
$GPGSV,1,1,00,0*65
$GBGSV,3,1,09,06,35,215,31,09,36,285,31,11,20,129,31,12,10,058,31,0*7E
$GBGSV,3,2,09,13,45,200,32,14,06,164,30,01,37,122,31,02,50,173,32,0*79
$GBGSV,3,3,09,04,,,31,0*78
$GAGSV,1,1,00,0*74

$GNRMC,000633.00,A,3000.00036,N,12000.00033,E,0.142,,230721,,,A,V*15
$GNGGA,000633.00,3000.00036,N,12000.00033,E,1,06,1.33,-0.8,M,,M,,*7D
$GNGSA,A,3,,,,,,,,,,,,,3.18,1.33,2.89,1*09
$GNGSA,A,3,06,09,13,11,14,12,,,,,,,3.18,1.33,2.89,4*07
$GNGSA,A,3,,,,,,,,,,,,,3.18,1.33,2.89,3*0B
$GPGSV,1,1,00,0*65
$GBGSV,3,1,09,06
,35,215,31,09,36,285,31,11,20,129,31,12,10,058,31,0*7E
$GBGSV,3,2,09,13,45,200,32,14,06,164,30,01,37,122,31,02,50,173,32,0*79
$GBGSV,3,3,09,04,,,32,0*7B
$GAGSV,1,1,00,0*74

$GNRMC,000634.00,A,3000.00035,N,12000.00015,E,0.596,,230721,,,A,V*18
$GNGGA,000634.00,3000.00035,N,12000.00015,E,1,06,1.33,-1.6,M,,M,,*72
$GNGSA,A,3,,,,,,,,,,,,,3.18,1.33,2.89,1*09
$GNGSA,A,3,06,09,13,11,14,12,,,,,,,3.18,1.33,2.89,4*07
$GNGSA,A,3,,,,,,,,,,
,,,3.18,1.33,2.89,3*0B
$GPGSV,1,1,00,0*65
$GBGSV,3,1,09,06,35,215,31,09,36,285,31,11,20,129,31,12,10,058,31,0*7E
$GBGSV,3,2,09,13,45,200,32,14,06,164,30,01,37,122,31,02,50,173,32,0*79
$GBGSV,3,3,09,04,,,31,0*78
$GAGSV,1,1,00,0*74

$GNRMC,000635.00,A,3000.00045,N,12000.00011,E,0.529,,230721,,,A,V*1E
$GNGGA,000635.00,3000.00045,N,12000.00011,E,1,06,1.33,-1.2,M,,M,,*74
$GNGSA,A,3,,,,,,,,,,,,,3.17,1.33,2.89,1*06
$GNGSA,A,3,06,09,13,11,14,12,,,,,,,3.17,1.33,2.89,4*08
$GNGSA,A
,3,,,,,,,,,,,,,3.17,1.33,2.89,3*04
$GPGSV,1,1,00,0*65
$GBGSV,3,1,09,06,35,215,31,09,36,285,31,11,20,129,31,12,10,058,31,0*7E
$GBGSV,3,2,09,13,45,200,32,14,06,164,30,01,37,122,31,02,50,173,31,0*7A
$GBGSV,3,3,09,04,,,31,0*78
$GAGSV,1,1,00,0*74

$GNRMC,000636.00,A,3000.00051,N,12000.00007,E,0.378,,230721,,,A,V*1D
$GNGGA,000636.00,3000.00051,N,12000.00007,E,1,06,1.33,-1.1,M,,M,,*76
$GNGSA,A,3,,,,,,,,,,,,,3.17,1.33,2.88,1*07
$GNGSA,A,3,06,09,13,11,14,12,,,,,,,3.17,1.33,2.88,4*09
$GNGSA,A,3,,,,
,,,,,,,,,3.17,1.33,2.88,3*05
$GPGSV,1,1,00,0*65
$GBGSV,3,1,09,06,35,215,31,09,36,285,31,11,20,129,31,12,10,058,31,0*7E
$GBGSV,3,2,09,13,45,200,32,14,06,164,30,01,37,122,31,02,50,173,31,0*7A
$GBGSV,3,3,09,04,,,31,0*78
$GAGSV,1,1,00,0*74

$GNRMC,000637.00,A,3000.00043,N,12000.00000,E,0.305,,230721,,,A,V*12
$GNGGA,000637.00,3000.00043,N,12000.00000,E,1,06,1.32,-1.3,M,,M,,*70
$GNGSA,A,3,,,,,,,,,,,,,3.17,1.32,2.88,1*06
$GNGSA,A,3,06,09,13,11,14,12,,,,,,,3.17,1.32,2.88,4*08
$GNGSA,A,3,,,,,,,,,,,,,3.17,1.32,2.88,3*04
$GPGSV,1,1,00,0*65
$GBGSV,3,1,09,06,35,215,31,09,36,285,31,11,20,129,31,12,10,058,31,0*7E
$GBGSV,3,2,09,13,45,20
0,32,14,06,164,30,01,37,122,31,02,50,173,31,0*7A
$GBGSV,3,3,09,04,,,31,0*78
$GAGSV,1,1,00,0*74

$GNRMC,000638.00,A,3000.00039,N,11959.99998,E,0.191,,230721,,,A,V*11
$GNGGA,000638.00,3000.00039,N,11959.99998,E,1,06,1.32,-1.4,M,,M,,*7B
$GNGSA,A,3,,,,,,,,,,,,,3.17,1.32,2.88,1*06
$GNGSA,A,3,06,09,13,11,14,12,,,,,,,3.17,1.32,2.88,4*08
$GNGSA,A,3,,,,,,,,,,,,,3.17,1.3
2,2.88,3*04
$GPGSV,1,1,00,0*65
$GBGSV,3,1,09,06,35,215,31,09,36,285,31,11,20,129,31,12,10,058,30,0*7F
$GBGSV,3,2,09,13,45,200,32,14,06,164,31,01,37,122,31,02,50,173,31,0*7B
$GBGSV,3,3,09,04,,,31,0*78
$GAGSV,1,1,00,0*74

$GNRMC,000639.00,A,3000.00042,N,11959.99985,E,0.545,,230721,,,A,V*1D
$GNGGA,000639.00,3000.00042,N,11959.99985,E,1,06,1.32,-1.7,M,,M,,*79
$GNGSA,A,3,,,,,,,,,,,,,3.17,1.32,2.88,1*06
$GNGSA,A,3,06,09,13,11,14,12,,,,,,,3.17,1.32,2.88,4*08
$GNGSA,A,3,,,,,,,,,,,,,3.17,1.32,2.88,3*04
$GPGSV,1,1,00,0*65
$GBGSV,3,1,09,06,35,215,32,09,36,285,31,11,20,129,31,12,10,058,31,0*7D
$GBGSV,3,2,09,13,45,200,32,14,0
6,164,31,01,37,122,31,02,50,173,31,0*7B
$GBGSV,3,3,09,04,,,31,0*78
$GAGSV,1,1,00,0*74

$GNRMC,000640.00,A,3000.00040,N,11959.99967,E,0.970,,230721,,,A,V*17
$GNGGA,000640.00,3000.00040,N,11959.99967,E,1,06,1.32,-1.5,M,,M,,*7B
$GNGSA,A,3,,,,,,,,,,,,,3.17,1.32,2.88,1*06
$GNGSA,A,3,06,09,13,11,14,12,,,,,,,3.17,1.32,2.88,4*08
$GNGSA,A,3,,,,,,,,,,,,,3.17,1.32,2.88,3*04
$GPGSV,1
,1,00,0*65
$GBGSV,3,1,09,06,35,215,31,09,36,285,31,11,20,129,31,12,10,058,31,0*7E
$GBGSV,3,2,09,13,45,200,32,14,06,164,31,01,37,122,31,02,50,173,31,0*7B
$GBGSV,3,3,09,04,,,31,0*78
$GAGSV,1,1,00,0*74

$GNRMC,000641.00,A,3000.00043,N,11959.99956,E,0.123,,230721,,,A,V*19
$GNGGA,000641.00,3000.00043,N,11959.99956,E,1,06,1.32,-1.5,M,,M,,*7B
$GNGSA,A,3,,,,,,,,,,,,,3.17,1.32,2.88,1*06
$GNGSA,A,3,06,09,13,11,14,12,,,,,,,3.17,1.32,2.88,4*08
$GNGSA,A,3,,,,,,,,,,,,,3.17,1.32,2.88,3*04
$GPGSV,1,1,00,0*65
$GBGSV,3,1,09,06,35,215,31,09,36,285,31,11,20,129,31,12,10,058,31,0*7E
$GBGSV,3,2,09,13,45
,200,32,14,06,164,31,01,37,122,31,02,50,173,31,0*7B
$GBGSV,3,3,09,04,,,31,0*78
$GAGSV,1,1,00,0*74

$GNRMC,000642.00,A,3000.00040,N,11959.99954,E,0.120,,230721,,,A,V*18
$GNGGA,000642.00,3000.00040,N,11959.99954,E,1,06,1.32,-1.5,M,,M,,*79
$GNGSA,A,3,,,,,,,,,,,,,3.17,1.32,2.88,1*06
$GNGSA,A,3,06,09,13,11,14,12,,,,,,,3.17,1.32,2.88,4*08
$GNGSA,A,3,,,,,,,,,,,,,3.17,1.32,2.88,3*04
$GPGSV,1,1,00,0*65
$GBGSV,3,1,09,06,35,215,31,09,36,285,31,11,20,129,31,12,10,058,31,0*7E
$GBGSV,3,2,09,13,45,200
,32,14,06,164,31,01,37,122,31,02,50,173,31,0*7B
$GBGSV,3,3,09,04,,,31,0*78
$GAGSV,1,1,00,0*74

$GNRMC,000643.00,A,3000.00041,N,11959.99963,E,0.226,,230721,,,A,V*19
$GNGGA,000643.00,3000.00041,N,11959.99963,E,1,06,1.32,-1.3,M,,M,,*7B
$GNGSA,A,3,,,,,,,,,,,,,3.17,1.32,2.88,1*06
$GNGSA,A,3,06,09,13,11,14,12,,,,,,,3.17,1.32,2.88,4*08
$GNGSA,A,3,,,,,,,,,,,,,3.17,1.32,2.88,3*04
$GPGSV,1,1,00,0*65
$GBGSV,3,1,09,06,35,215,31,09,36,285,31,11,20,129,31,12,10,058,30,0*7F
$GBGSV,3,2,09,13,45,200,32,14,
06,164,31,01,37,122,31,02,50,173,31,0*7B
$GBGSV,3,3,09,04,,,31,0*78
$GAGSV,1,1,00,0*74

$GNRMC,000644.00,A,3000.00037,N,11959.99967,E,0.483,,230721,,,A,V*12
$GNGGA,000644.00,3000.00037,N,11959.99967,E,1,06,1.32,-1.4,M,,M,,*7E
$GNGSA,A,3,,,,,,,,,,,,,3.17,1.32,2.88,1*06
$GNGSA,A,3,06,09,13,11,14,12,,,,,,,3.17,1.32,2.88,4*08
$GNGSA,A,3,,,,,,,,,,,,,3.17,1.32,2.88,3*04
$GPGSV,1,1,00,0*65
$GBGSV,3,1,09,06,35,215,31,09,36,285,31,11,20,129,32,12,
10,058,31,0*7D
$GBGSV,3,2,09,13,45,200,32,14,06,164,30,01,37,122,31,02,50,173,31,0*7A
$GBGSV,3,3,09,04,,,31,0*78
$GAGSV,1,1,00,0*74

$GNRMC,000645.00,A,3000.00030,N,11959.99963,E,0.403,,230721,,,A,V*18
$GNGGA,000645.00,3000.00030,N,11959.99963,E,1,06,1.32,-1.4,M,,M,,*7C
$GNGSA,A,3,,,,,,,,,,,,,3.17,1.32,2.88,1*06
$GNGSA,A,3,06,09,13,11,14,12,,,,,,,3.17,1.32,2.88,4*08
$GNGSA,A,3,,,,,,,,,,,,,3.17,1.32,2.88,3*04
$GPGSV,1,1,00,0*65
$GBGSV,3,1,09,06,35,215,31,09,36,285,31,11,20,129,31,12,10,058,31,0*7E
$GBGSV,3,2
,09,13,45,200,32,14,06,164,31,01,37,122,31,02,50,173,31,0*7B
$GBGSV,3,3,09,04,,,31,0*78
$GAGSV,1,1,00,0*74

$GNRMC,000646.00,A,3000.00025,N,11959.99961,E,0.036,,230721,,,A,V*1F
$GNGGA,000646.00,3000.00025,N,11959.99961,E,1,06,1.32,-1.6,M,,M,,*7B
$GNGSA,A,3,,,,,,,,,,,,,3.17,1.32,2.88,1*06
$GNGSA,A,3,06,09,13,11,14,12,,,,,,,3.17,1.32,2.88,4*08
$GNGSA,A,3,,,,,,,,,,,,,3.17,1.32,2.88,3
*04
$GPGSV,1,1,00,0*65
$GBGSV,3,1,09,06,35,215,31,09,36,285,31,11,20,129,31,12,10,058,31,0*7E
$GBGSV,3,2,09,13,45,200,32,14,06,164,31,01,37,122,31,02,50,173,31,0*7B
$GBGSV,3,3,09,04,,,31,0*78
$GAGSV,1,1,00,0*74

$GNRMC,000647.00,A,3000.00022,N,11959.99954,E,0.469,,230721,,,A,V*11
$GNGGA,000647.00,3000.00022,N,11959.99954,E,1,06,1.32,-2.1,M,,M,,*7F
$GNGSA,A,3,,,,,,,,,,,,,3.17,1.32,2.88,1*06
$GNGSA,A,3,06,09,13,11,14,12,,,,,,,3.17,1.32,2.88,4*08
$GN
GSA,A,3,,,,,,,,,,,,,3.17,1.32,2.88,3*04
$GPGSV,1,1,00,0*65
$GBGSV,3,1,09,06,35,215,32,09,36,285,31,11,20,129,32,12,10,058,30,0*7F
$GBGSV,3,2,09,13,45,200,32,14,06,164,31,01,37,122,31,02,50,173,31,0*7B
$GBGSV,3,3,09,04,,,31,0*78
$GAGSV,1,1,00,0*74

$GNRMC,000648.00,A,3000.00024,N,11959.99945,E,0.548,,230721,,,A,V*1A
$GNGGA,000648.00,3000.00024,N,11959.99945,E,1,06,1.32,-2.0,M,,M,,*77
$GNGSA,A,3,,,,,,,,,,,,,3.17,1.32,2.88,1*06
$GNGSA,A,3,06,09,13,11,14,12,,,,,,,3.17,1.32,2.88,4*08
$GNGSA,A,3,,,,,,,,,,,,,3.17,1.32,2.88,3*04

$GPGSV,1,1,00,0*65
$GBGSV,3,1,09,06,35,215,31,09,36,285,31,11,20,129,31,12,10,058,31,0*7E
$GBGSV,3,2,09,13,45,200,32,14,06,164,31,01,37,122,31,02,50,173,31,0*7B
$GBGSV,3,3,09,04,,,31,0*78
$GAGSV,1,1,00,0*74

$GNRMC,000649.00,A,3000.00014,N,11959.99942,E,0.594,,230721,,,A,V*1E
$GNGGA,000649.00,3000.00014,N,11959.99942,E,1,06,1.32,-1.8,M,,M,,*79
$GNGSA,A,3,,,,,,,,,,,,,3.17,1.32,2.88,1*06
$GNGSA,A,3,06,09,13,11,14,12,,,,,,,3.17,1.32,2.88,4*08
$GNGSA,A,3,,,,,,,,,,,,,3.17,1.32,2.88,3*04
$GPGSV,1,1,00,0*65
$GBGSV,3,1,09,06,35,215,31,09,36,285,31,11,20,129,31,12,10,058,31,0*7E
$GBGSV,3,2,09,13,45,200,32,14
,06,164,31,01,37,122,31,02,50,173,31,0*7B
$GBGSV,3,3,09,04,,,31,0*78
$GAGSV,1,1,00,0*74

$GNRMC,000650.00,A,3000.00006,N,11959.99947,E,0.151,,230721,,,A,V*1D
$GNGGA,000650.00,3000.00006,N,11959.99947,E,1,06,1.32,-1.4,M,,M,,*7B
$GNGSA,A,3,,,,,,,,,,,,,3.17,1.32,2.88,1*06
$GNGSA,A,3,06,09,13,11,14,12,,,,,,,3.17,1.32,2.88,4*08
$GNGSA,A,3,,,,,,,,,,,,,3.17,1.32,2.88,3*04
$GPGSV,1,1,00,0*65
$G
BGSV,3,1,09,06,35,215,31,09,36,285,31,11,20,129,31,12,10,058,31,0*7E
$GBGSV,3,2,09,13,45,200,32,14,06,164,30,01,37,122,31,02,50,173,31,0*7A
$GBGSV,3,3,09,04,,,31,0*78
$GAGSV,1,1,00,0*74

$GNRMC,000651.00,A,3000.00009,N,11959.99958,E,0.527,,230721,,,A,V*18
$GNGGA,000651.00,3000.00009,N,11959.99958,E,1,06,1.32,-0.8,M,,M,,*76
$GNGSA,A,3,,,,,,,,,,,,,3.17,1.32,2.88,1*06
$GNGSA,A,3,06,09,13,11,14,12,,,,,,,3.17,1.32,2.88,4*08
$GNGSA,A,3,,,,,,,,,,,,,3.17,1.32,2.88,3*04
$GPGSV,1,1,00,0*65
$GBGSV,3,1,09,06,35,215,31,09,36,285,31,11
,20,129,31,12,10,058,31,0*7E
$GBGSV,3,2,09,13,45,200,32,14,06,164,31,01,37,122,31,02,50,173,32,0*78
$GBGSV,3,3,09,04,,,31,0*78
$GAGSV,1,1,00,0*74

$GNRMC,000652.00,A,3000.00017,N,11959.99955,E,0.248,,230721,,,A,V*17
$GNGGA,000652.00,3000.00017,N,11959.99955,E,1,06,1.32,-1.0,M,,M,,*7E
$GNGSA,A,3,,,,,,,,,,,,,3.17,1.32,2.88,1*06
$GNGSA,A,3,06,09,13,11,14,12,,,,,,,3.17,1.32,2.88,4*08
$GNGSA,A,3,,,,,,,,,,,,,3.17,1.32,2.88,3*04
$GPGSV,1,1,00,0*65

$GBGSV,3,1,09,06,35,215,31,09,36,285,31,11,20,129,31,12,10,058,31,0*7E
$GBGSV,3,2,09,13,45,200,32,14,06,164,30,01,37,122,31,02,50,173,31,0*7A
$GBGSV,3,3,09,04,,,31,0*78
$GAGSV,1,1,00,0*74

$GNRMC,000653.00,A,3000.00027,N,11959.99945,E,0.387,,230721,,,A,V*16
$GNGGA,000653.00,3000.00027,N,11959.99945,E,1,06,1.32,-1.6,M,,M,,*7B
$GNGSA,A,3,,,,,,,,,,,,,3.17,1.32,2.88,1*06
$GNGSA,A,3,06,09,13,11,14,12,,,,,,,3.17,1.32,2.88,4*08
$GNGSA,A,3,,,,,,,,,,,,,3.17,1.32,2.88,3*04
$GPGSV,1,1,00,0*65
$GBGSV,3,1,09,06,35,215,31,09,36,285,31,11,20,129,31,12,10,058,31,0*7E
$GBGSV,3,2,09,
13,45,200,32,14,06,164,31,01,37,122,31,02,50,173,31,0*7B
$GBGSV,3,3,09,04,,,31,0*78
$GAGSV,1,1,00,0*74

$GNRMC,000654.00,A,3000.00034,N,11959.99939,E,0.422,,230721,,,A,V*10
$GNGGA,000654.00,3000.00034,N,11959.99939,E,1,06,1.32,-2.0,M,,M,,*70
$GNGSA,A,3,,,,,,,,,,,,,3.17,1.32,2.88,1*06
$GNGSA,A,3,06,09,13,11,14,12,,,,,,,3.17,1.32,2.88,4*08
$GNGSA,A,3,,,,,,,,,,,
,,3.17,1.32,2.88,3*04
$GPGSV,1,1,00,0*65
$GBGSV,3,1,09,06,35,215,32,09,36,285,31,11,20,129,31,12,10,058,31,0*7D
$GBGSV,3,2,09,13,45,200,32,14,06,164,30,01,37,122,31,02,50,173,31,0*7A
$GBGSV,3,3,09,04,,,31,0*78
$GAGSV,1,1,00,0*74

$GNRMC,000655.00,A,3000.00029,N,11959.99937,E,0.251,,230721,,,A,V*11
$GNGGA,000655.00,3000.00029,N,11959.99937,E,1,06,1.32,-2.2,M,,M,,*71
$GNGSA,A,3,,,,,,,,,,,,,3.17,1.32,2.88,1*06
$GNGSA,A,3,06,09,13,11,14,12,,,,,,,3.17,1.32,2.88,4*08
$GNGSA,A,3,,,,,,,,,,,,,3.17,1.32,2.88,3*04
$GPGSV,1,1,00,0*65
$GBGSV,3,
1,09,06,35,215,31,09,36,285,32,11,20,129,31,12,10,058,31,0*7D
$GBGSV,3,2,09,13,45,200,32,14,06,164,30,01,37,122,31,02,50,173,31,0*7A
$GBGSV,3,3,09,04,,,31,0*78
$GAGSV,1,1,00,0*74

$GNRMC,000656.00,A,3000.00032,N,11959.99949,E,0.493,,230721,,,A,V*19
$GNGGA,000656.00,3000.00032,N,11959.99949,E,1,06,1.32,-2.0,M,,M,,*73
$GNGSA,A,3,,,,,,,,,,,,,3.16,1.32,2.88,1*07
$GNGSA,A,3,06,09,13,11,14,12,,,,,,,3.16,1.32,2.88,4*09
$GNGSA,A,3,,,,,,,,,,,,,3.16,1.32,2.88,3*05
$GPGSV,1,1,00,0*65
$GBGSV,3,1,09,06,35,215,32,09,36,285,31,11,20,129,31,12,10,058,31,0*7D
$GBGSV,3,2,09,13,45,200
,32,14,06,164,31,01,37,122,31,02,50,173,31,0*7B
$GBGSV,3,3,09,04,,,31,0*78
$GAGSV,1,1,00,0*74

$GNRMC,000657.00,A,3000.00045,N,11959.99961,E,0.473,,230721,,,A,V*1C
$GNGGA,000657.00,3000.00045,N,11959.99961,E,1,06,1.32,-1.5,M,,M,,*7E
$GNGSA,A,3,,,,,,,,,,,,,3.16,1.32,2.88,1*07
$GNGSA,A,3,06,09,13,11,14,12,,,,,,,3.16,1.32,2.88,4*09
$GNGSA,A,3,,,,,,,,,,,,,3.16,1.32,2.88,3*05
$GPGSV,1,1,00,0*65
$GBGSV,3,1,09,06,35,215,31,09,36,285,31,11,20,129,31,12,10,058,31,0*7E
$GB
GSV,3,2,09,13,45,200,32,14,06,164,31,01,37,122,31,02,50,173,31,0*7B
$GBGSV,3,3,09,04,,,32,0*7B
$GAGSV,1,1,00,0*74

$GNRMC,000658.00,A,3000.00055,N,11959.99969,E,0.486,,230721,,,A,V*10
$GNGGA,000658.00,3000.00055,N,11959.99969,E,1,06,1.32,-1.4,M,,M,,*79
$GNGSA,A,3,,,,,,,,,,,,,3.16,1.32,2.87,1*08
$GNGSA,A,3,06,09,13,11,14,12,,,,,,,3.16,1.32,2.87,4*06
$GNGSA,A,3,,,,,,,,,,,,,3.16,1.32,2.87,3*0A
$GPGSV,1,1,00,0*65
$GBGSV,3,1,09,06,35,215,31,09,36,285,31,11,20,129,31,12,10,058,31
,0*7E
$GBGSV,3,2,09,13,45,200,32,14,06,164,31,01,37,122,31,02,50,173,31,0*7B
$GBGSV,3,3,09,04,,,31,0*78
$GAGSV,1,1,00,0*74

$GNRMC,000659.00,A,3000.00059,N,11959.99978,E,0.413,,230721,,,A,V*11
$GNGGA,000659.00,3000.00059,N,11959.99978,E,1,06,1.32,-1.2,M,,M,,*72
$GNGSA,A,3,,,,,,,,,,,,,3.16,1.32,2.87,1*08
$GNGSA,A,3,06,09,13,11,14,12,,,,,,,3.16,1.32,2.87,4*06
$GNGSA,A,3,,,,,,,,,,,,,3.16,1.32,2.87,3*0A
$GPGSV,1,1,00,0*65
$GBGSV,3,1,09,06,35,215,31,09,36,285,32,11,20,129,31,12,10,058,31,0*7D
$GBGSV,3,2,09,13,45,200,32,14,06,164,31
,01,37,122,31,02,50,173,32,0*78
$GBGSV,3,3,09,04,,,31,0*78
$GAGSV,1,1,00,0*74

$GNRMC,000700.00,A,3000.00056,N,11959.99972,E,0.357,,230721,,,A,V*1E
$GNGGA,000700.00,3000.00056,N,11959.99972,E,1,06,1.32,-1.2,M,,M,,*7A
$GNGSA,A,3,,,,,,,,,,,,,3.16,1.32,2.87,1*08
$GNGSA,A,3,06,09,13,11,14,12,,,,,,,3.16,1.32,2.87,4*06
$GNGSA,A,3,,,,,,,,,,,,,3.16,1.32,2.87,3*0A
$GPGSV,1,1,00,0*65
$GBGSV,3,1,09,06,35,215,31,09,36,285,31,11,20,129,31,12,10,058,31,0*7E
$GBGSV,3,2,09,13
,45,200,32,14,06,164,31,01,37,122,31,02,50,173,32,0*78
$GBGSV,3,3,09,04,,,31,0*78
$GAGSV,1,1,00,0*74

$GNRMC,000701.00,A,3000.00058,N,11959.99959,E,0.363,,230721,,,A,V*1F
$GNGGA,000701.00,3000.00058,N,11959.99959,E,1,06,1.32,-1.2,M,,M,,*7C
$GNGSA,A,3,,,,,,,,,,,,,3.16,1.32,2.87,1*08
$GNGSA,A,3,06,09,13,11,14,12,,,,,,,3.16,1.32,2.87,4*06
$G
NGSA,A,3,,,,,,,,,,,,,3.16,1.32,2.87,3*0A
$GPGSV,1,1,00,0*65
$GBGSV,3,1,09,06,35,215,31,09,36,285,31,11,20,129,31,12,10,058,31,0*7E
$GBGSV,3,2,09,13,45,200,31,14,06,164,31,01,37,122,31,02,50,173,32,0*7B
$GBGSV,3,3,09,04,,,31,0*78
$GAGSV,1,1,00,0*74

$GNRMC,000702.00,A,3000.00055,N,11959.99964,E,0.552,,230721,,,A,V*1B
$GNGGA,000702.00,3000.00055,N,11959.99964,E,1,06,1.32,-1.3,M,,M,,*7D
$GNGSA,A,3,,,,,,,,,,,,,3.16,1.32,2.87,1*08
$GNGSA,A,3,06,09,13,11,14,12,,,,,,,3.16,1.32,2.87,4*06
$GNGSA,A,3,,,,,,,,,,,,,3.16,1.32,2.87,3*0A
$GPGSV,1,1,00,0*65
$GBGSV,3,1,09,06,35,215,31,09,36,285,31,11,20,129,31,12,
10,058,31,0*7E
$GBGSV,3,2,09,13,45,200,32,14,06,164,31,01,37,122,31,02,50,173,32,0*78
$GBGSV,3,3,09,04,,,32,0*7B
$GAGSV,1,1,00,0*74

$GNRMC,000703.00,A,3000.00051,N,11959.99974,E,0.170,,230721,,,A,V*1B
$GNGGA,000703.00,3000.00051,N,11959.99974,E,1,06,1.32,-1.4,M,,M,,*7E
$GNGSA,A,3,,,,,,,,,,,,,3.16,1.32,2.87,1*08
$GNGSA,A,3,06,09,13,11,14,12,,,,,,,3.16,1.32,2.87,4*06
$GNGSA,A,3,,,,,,,,,,,,,3.16,1.32,2.87,3*0A
$GPGSV,1,1,00,0*65
$GBGSV,3,1,09,06,35,2
15,31,09,36,285,31,11,20,129,31,12,10,058,31,0*7E
$GBGSV,3,2,09,13,45,200,32,14,06,164,30,01,37,122,31,02,50,173,31,0*7A
$GBGSV,3,3,09,04,,,31,0*78
$GAGSV,1,1,00,0*74

$GNRMC,000704.00,A,3000.00044,N,11959.99971,E,0.398,,230721,,,A,V*19
$GNGGA,000704.00,3000.00044,N,11959.99971,E,1,06,1.32,-1.3,M,,M,,*7F
$GNGSA,A,3,,,,,,,,,,,,,3.16,1.32,2.87,1*08
$GNGSA,A,3,06,09,13,11,14,12,,,,,,,3.16,1.32,2.87,4*06
$GNGSA,A,3,,,,,,,,,,,,,3.16,1.32,2.87,3*0A
$GPGSV,1,1,00,0*65

$GBGSV,3,1,09,06,35,215,31,09,36,285,31,11,20,129,31,12,10,058,31,0*7E
$GBGSV,3,2,09,13,45,200,32,14,06,164,31,01,37,122,31,02,50,173,31,0*7B
$GBGSV,3,3,09,04,,,31,0*78
$GAGSV,1,1,00,0*74

$GNRMC,000705.00,A,3000.00046,N,11959.99965,E,0.055,,230721,,,A,V*1D
$GNGGA,000705.00,3000.00046,N,11959.99965,E,1,06,1.32,-1.4,M,,M,,*7E
$GNGSA,A,3,,,,,,,,,,,,,3.16,1.32,2.87,1*08
$GNGSA,A,3,06,09,13,11,14,12,,,,,,,3.16,1.32,2.87,4*06
$GNGSA,A,3,,,,,,,,,,,,,3.16,1.32,2.87,3*0A
$GPGSV,1,1,00,0*65
$GBGSV,3,1,09,06,35,215,31,09,36,285,31,11,20,129,31
,12,10,058,31,0*7E
$GBGSV,3,2,09,13,45,200,32,14,06,164,31,01,37,122,31,02,50,173,31,0*7B
$GBGSV,3,3,09,04,,,31,0*78
$GAGSV,1,1,00,0*74

$GNRMC,000706.00,A,3000.00045,N,11959.99974,E,0.290,,230721,,,A,V*16
$GNGGA,000706.00,3000.00045,N,11959.99974,E,1,06,1.32,-0.9,M,,M,,*72
$GNGSA,A,3,,,,,,,,,,,,,3.16,1.32,2.87,1*08
$GNGSA,A,3,06,09,13,11,14,12,,,,,,,3.16,1.32,2.87,4*06
$GNGSA,A,3,,,,,,,,,,,
,,3.16,1.32,2.87,3*0A
$GPGSV,1,1,00,0*65
$GBGSV,3,1,09,06,35,215,31,09,36,285,31,11,20,129,31,12,10,058,30,0*7F
$GBGSV,3,2,09,13,45,200,31,14,06,164,31,01,37,122,31,02,50,173,31,0*78
$GBGSV,3,3,09,04,,,31,0*78
$GAGSV,1,1,00,0*74

$GNRMC,000707.00,A,3000.00047,N,11959.99971,E,0.083,,230721,,,A,V*10
$GNGGA,000707.00,3000.00047,N,11959.99971,E,1,06,1.32,-1.3,M,,M,,*7F
$GNGSA,A,3,,,,,,,,,,,,,3.16,1.32,2.87,1*08
$GNGSA,A,3,06,09,13,11,14,12,,,,,,,3.16,1.32,2.87,4*06
$GNGSA,A,3,,,,,,,,,,,,,3.16,1.32,2.87,3*0A
$GPGSV,1,1,00,0*65
$GBGSV,3,1,09,06,35,215,31,09,36,285,31,11,20,129,31,12,10,058,31,0*7E
$GBGSV,3,2,09,13,45,200,32,14,06,164,31,0
1,37,122,31,02,50,173,31,0*7B
$GBGSV,3,3,09,04,,,31,0*78
$GAGSV,1,1,00,0*74

$GNRMC,000708.00,A,3000.00050,N,11959.99976,E,0.259,,230721,,,A,V*1B
$GNGGA,000708.00,3000.00050,N,11959.99976,E,1,06,1.32,-1.0,M,,M,,*72
$GNGSA,A,3,,,,,,,,,,,,,3.16,1.32,2.87,1*08
$GNGSA,A,3,06,09,13,11,14,12,,,,,,,3.16,1.32,2.87,4
*06
$GNGSA,A,3,,,,,,,,,,,,,3.16,1.32,2.87,3*0A
$GPGSV,1,1,00,0*65
$GBGSV,3,1,09,06,35,215,31,09,36,285,31,11,20,128,31,12,10,058,31,0*7F
$GBGSV,3,2,09,13,45,200,32,14,06,164,30,01,37,122,31,02,50,173,31,0*7A
$GBGSV,3,3,09,04,,,31,0*78
$GAGSV,1,1,00,0*74

$GNRMC,000709.00,A,3000.00054,N,11959.99980,E,0.397,,230721,,,A,V*14
$GNGGA,000709.00,3000.00054,N,11959.99980,E,1,06,1.32,-1.1,M,,M,,*7F
$GNGSA,A,3,,,,,,,,,,,,,3.16,1.32,2.87,1*08
$GNGSA,A,3,06,09,13,11,14,12,,,,,,,3.16,1.32,2.87,4*06
$GNGSA,A,3,,,,,,,,,,,,,3.16,1.32,2.87,3*0A
$GPGSV,1,1,00,0*65
$GBGSV,3,1,09,06,35,215,31,09,36,285,32,11,
20,128,31,12,10,058,31,0*7C
$GBGSV,3,2,09,13,45,200,32,14,06,164,31,01,37,122,31,02,50,173,31,0*7B
$GBGSV,3,3,09,04,,,32,0*7B
$GAGSV,1,1,00,0*74

$GNRMC,000710.00,A,3000.00059,N,11959.99998,E,0.784,,230721,,,A,V*1E
$GNGGA,000710.00,3000.00059,N,11959.99998,E,1,06,1.32,-0.6,M,,M,,*75
$GNGSA,A,3,,,,,,,,,,,,,3.16,1.32,2.87,1*08
$GNGSA,A,3,06,09,13,11,14,12,,,,,,,3.16,1.32,2.87,4*06
$GNGSA,A,3,,,,,,,,,,,,,3.16,1.32,2.87,3*0A
$GPGSV,1,1,00,0*65
$GBGSV,3,1,09,06,35,215,31,09,36,285,31,11,20,128,31,12,10,058,31,0*7F
$GBGSV,3,2,09,13,45,200,32,14
,06,164,30,01,37,122,31,02,50,173,31,0*7A
$GBGSV,3,3,09,04,,,31,0*78
$GAGSV,1,1,00,0*74

$GNRMC,000711.00,A,3000.00058,N,11959.99994,E,0.295,,230721,,,A,V*17
$GNGGA,000711.00,3000.00058,N,11959.99994,E,1,06,1.32,-1.2,M,,M,,*7C
$GNGSA,A,3,,,,,,,,,,,,,3.16,1.32,2.87,1*08
$GNGSA,A,3,06,09,13,11,14,12,,,,,,,3.16,1.32,2.87,4*06
$GNGSA,A,3,,,,,,,,,,,,,3.16,1.32,2.87,3*0A
$GPGSV,1,1,00,0*65
$GBGSV,3,1,09,06,35,215,31,09,36,285,31,11,20,128,31,12,10,058,31,0*7F
$GBG
SV,3,2,09,13,45,200,32,14,06,164,31,01,37,122,31,02,50,173,32,0*78
$GBGSV,3,3,09,04,,,31,0*78
$GAGSV,1,1,00,0*74

$GNRMC,000712.00,A,3000.00058,N,11959.99984,E,0.514,,230721,,,A,V*1B
$GNGGA,000712.00,3000.00058,N,11959.99984,E,1,06,1.32,-1.1,M,,M,,*7D
$GNGSA,A,3,,,,,,,,,,,,,3.16,1.32,2.87,1*08
$GNGSA,A,3,06,09,13,11,14,12,,,,,,,3.16,1.32,2.87,4*06
$GNGSA,A,3,,,,,,,,,,,,,3.16,1.32,2.87,3*0A
$GPGSV,1,1,00,0*65
$GBGSV,3,1,09,06,35,215,31,09,36,285,31,11,20,128,31,12,10,058,31
,0*7F
$GBGSV,3,2,09,13,45,200,32,14,06,164,31,01,37,122,31,02,50,173,31,0*7B
$GBGSV,3,3,09,04,,,31,0*78
$GAGSV,1,1,00,0*74

$GNRMC,000713.00,A,3000.00048,N,11959.99976,E,0.531,,230721,,,A,V*11
$GNGGA,000713.00,3000.00048,N,11959.99976,E,1,06,1.32,-1.2,M,,M,,*73
$GNGSA,A,3,,,,,,,,,,,,,3.16,1.32,2.87,1*08
$GNGSA,A,3,06,09,13,11,14,12,,,,,,,3.16,1.32,2.87,4*06
$GNGSA,A,3,,,,,,,,,,,,,3.16,1.32,2.87,3*0A
$GPGSV,1,1,00,0*65
$GBGSV,3,1,09,06,35,215,31,09,36,285,31,
11,20,128,31,12,10,058,30,0*7E
$GBGSV,3,2,09,13,45,200,32,14,06,164,31,01,37,122,31,02,50,173,31,0*7B
$GBGSV,3,3,09,04,,,31,0*78
$GAGSV,1,1,00,0*74

$GNRMC,000714.00,A,3000.00042,N,11959.99969,E,0.149,,230721,,,A,V*19
$GNGGA,000714.00,3000.00042,N,11959.99969,E,1,06,1.32,-1.5,M,,M,,*77
$GNGSA,A,3,,,,,,,,,,,,,3.16,1.32,2.87,1*08
$GNGSA,A,3,06,09,13,11,14,12,,,,,,,3.16,1.32,2.87,4*06
$GNGSA,A,3,,,,,,,,,,,,,3.16,1.32,2.87,3*0A
$GPGSV,1,1,00,0*65
$GBGSV,3,1,09,06,35,215,31,09,36,285,31,11,20,128,31,12,10,058,31,0*7F
$G
BGSV,3,2,09,13,45,200,32,14,06,164,31,01,37,122,31,02,50,173,31,0*7B
$GBGSV,3,3,09,04,,,31,0*78
$GAGSV,1,1,00,0*74

$GNRMC,000715.00,A,3000.00038,N,11959.99974,E,0.232,,230721,,,A,V*16
$GNGGA,000715.00,3000.00038,N,11959.99974,E,1,06,1.32,-1.5,M,,M,,*77
$GNGSA,A,3,,,,,,,,,,,,,3.16,1.32,2.87,1*08
$GNGSA,A,3,06,09,13,11,14,12,,,,,,,3.16,1.32,2.87,4*06
$GNGSA,A,3,,,,,,,,,,,,,3.16,1.32,2.87,3*0A
$GPGSV,1,1,00,0*65
$GBGSV,3,1,09,06,35,215,31,0
9,36,285,31,11,20,128,31,12,10,058,31,0*7F
$GBGSV,3,2,09,13,45,200,32,14,06,164,31,01,37,122,31,02,50,173,31,0*7B
$GBGSV,3,3,09,04,,,31,0*78
$GAGSV,1,1,00,0*74

$GNRMC,000716.00,A,3000.00040,N,11959.99985,E,0.364,,230721,,,A,V*16
$GNGGA,000716.00,3000.00040,N,11959.99985,E,1,06,1.32,-1.1,M,,M,,*71
$GNGSA,A,3,,,,,,,,,,,,,3.15,1.32,2.87,1*0B
$GNGSA,A,3,06,09,13,11,14,12,,,,,,,3.15,1.32,2.87,4*05
$GNGSA,A,3,,,,,,,,,,,,,3.15,1.32,2.87,3*09
$GPGSV,1,1,00,0*65
$GBGSV,3,1,09,06,35,215,31,09,36,285,3
1,11,20,128,31,12,10,058,31,0*7F
$GBGSV,3,2,09,13,45,200,32,14,06,164,31,01,37,122,31,02,50,173,31,0*7B
$GBGSV,3,3,09,04,,,31,0*78
$GAGSV,1,1,00,0*74

$GNRMC,000717.00,A,3000.00046,N,11959.99984,E,0.164,,230721,,,A,V*12
$GNGGA,000717.00,3000.00046,N,11959.99984,E,1,06,1.32,-1.1,M,,M,,*77
$GNGSA,A,3,,,,,,,,,,,,,3.15,1.32,2.87,1*0B
$GNGSA,A,3,06,09,13,11,14,12,,,,,,,3.15,1.32,2.87,4*05
$GNGSA,A,3,,,,,
,,,,,,,,3.15,1.32,2.87,3*09
$GPGSV,1,1,00,0*65
$GBGSV,3,1,09,06,35,215,31,09,36,285,31,11,20,128,31,12,10,058,31,0*7F
$GBGSV,3,2,09,13,45,200,32,14,06,164,30,01,37,122,31,02,50,173,31,0*7A
$GBGSV,3,3,09,04,,,31,0*78
$GAGSV,1,1,00,0*74

$GNRMC,000718.00,A,3000.00048,N,11959.99984,E,0.061,,230721,,,A,V*17
$GNGGA,000718.00,3000.00048,N,11959.99984,E,1,06,1.32,-0.8,M,,M,,*7E
$GNGSA,A,3,,,,,,,,,,,,,3.15,1.32,2.87,1*0B
$GNGSA,A,3,06,09,13,11,14,12,,,,,,,3.15,1.32,2.87,4*05
$GNGSA,A,3,,,,,,,,,,,,,3.15,1.32,2.87,3*09
$GPGSV,1,1,00,0*65
$GBGSV,3,1,09,06,35,215,3
1,09,36,285,31,11,20,128,31,12,10,058,31,0*7F
$GBGSV,3,2,09,13,45,200,32,14,06,164,31,01,37,122,31,02,50,173,31,0*7B
$GBGSV,3,3,09,04,,,31,0*78
$GAGSV,1,1,00,0*74

$GNRMC,000719.00,A,3000.00047,N,11959.99994,E,0.451,,230721,,,A,V*1F
$GNGGA,000719.00,3000.00047,N,11959.99994,E,1,06,1.32,-0.3,M,,M,,*7A
$GNGSA,A,3,,,,,,,,,,,,,3.15,1.32,2.87,1*0B
$GNGSA,A,3,06,09,13,11,14,12,,,,,,,3.15,1.32,2.87,4*05
$GNGSA,A,3,,,,,,
,,,,,,,3.15,1.32,2.87,3*09
$GPGSV,1,1,00,0*65
$GBGSV,3,1,09,06,35,215,31,09,36,285,32,11,20,128,31,12,10,058,31,0*7C
$GBGSV,3,2,09,13,45,200,32,14,06,164,31,01,37,122,31,02,50,173,31,0*7B
$GBGSV,3,3,09,04,,,31,0*78
$GAGSV,1,1,00,0*74

$GNRMC,000720.00,A,3000.00045,N,12000.00004,E,0.312,,230721,,,A,V*11
$GNGGA,000720.00,3000.00045,N,12000.00004,E,1,06,1.32,0.1,M,,M,,*5B
$GNGSA,A,3,,,,,,,,,,,,,3.15,1.32,2.86,1*0A
$GNGSA,A,3,06,09,13,11,14,12,,,,,,,3.15,1.32,2.86,4*04
$GNGSA,A,3,,,,,,,,,,,,,3.15,1.32,2.86,3*08
$GPGSV,1,1,00,0*65
$GBGSV,3,1,09,06,35,215,31,0
9,36,285,32,11,20,128,31,12,10,058,31,0*7C
$GBGSV,3,2,09,13,45,200,32,14,06,164,30,01,37,122,31,02,50,173,31,0*7A
$GBGSV,3,3,09,04,,,31,0*78
$GAGSV,1,1,00,0*74

$GNRMC,000721.00,A,3000.00048,N,12000.00005,E,0.369,,230721,,,A,V*10
$GNGGA,000721.00,3000.00048,N,12000.00005,E,1,06,1.32,0.1,M,,M,,*56
$GNGSA,A,3,,,,,,,,,,,,,3.15,1.32,2.86,1*0A
$GNGSA,A,3,06,09,13,11,14,12,,,,,,,3.15,1.32,2.86,4*04
$GNGSA,A,
3,,,,,,,,,,,,,3.15,1.32,2.86,3*08
$GPGSV,1,1,00,0*65
$GBGSV,3,1,09,06,35,215,31,09,36,285,31,11,20,128,31,12,10,058,31,0*7F
$GBGSV,3,2,09,13,45,200,32,14,06,164,30,01,37,122,31,02,50,173,31,0*7A
$GBGSV,3,3,09,04,,,31,0*78
$GAGSV,1,1,00,0*74

$GNRMC,000722.00,A,3000.00056,N,12000.00001,E,0.235,,230721,,,A,V*10
$GNGGA,000722.00,3000.00056,N,12000.00001,E,1,06,1.32,-0.2,M,,M,,*70
$GNGSA,A,3,,,,,,,,,,,,,3.15,1.32,2.86,1*0A
$GNGSA,A,3,06,09,13,11,14,12,,,,,,,3.15,1.32,2.86,4*04
$GNGSA,A,3,,,,,,,,,,,,
,3.15,1.32,2.86,3*08
$GPGSV,1,1,00,0*65
$GBGSV,3,1,09,06,35,215,31,09,36,285,31,11,20,128,31,12,10,058,31,0*7F
$GBGSV,3,2,09,13,45,200,32,14,06,164,31,01,37,122,31,02,50,173,31,0*7B
$GBGSV,3,3,09,04,,,31,0*78
$GAGSV,1,1,00,0*74

$GNRMC,000723.00,A,3000.00056,N,12000.00008,E,0.416,,230721,,,A,V*1F
$GNGGA,000723.00,3000.00056,N,12000.00008,E,1,06,1.32,-0.1,M,,M,,*7B
$GNGSA,A,3,,,,,,,,,,,,,3.15,1.32,2.86,1*0A
$GNGSA,A,3,06,09,13,11,14,12,,,,,,,3.15,1.32,2.86,4*04
$GNGSA,A,3,,,,,,,,,,,,,3.15,1.32,2.86,3*08
$GPGSV,1,1,00,0*65
$GBGSV,3,1,09,06,35,215,31,09,36,285,31,11,20,128,31,12,
10,058,31,0*7F
$GBGSV,3,2,09,13,45,200,32,14,06,164,31,01,37,122,31,02,50,173,31,0*7B
$GBGSV,3,3,09,04,,,31,0*78
$GAGSV,1,1,00,0*74

$GNRMC,000724.00,A,3000.00040,N,12000.00023,E,0.758,,230721,,,A,V*1F
$GNGGA,000724.00,3000.00040,N,12000.00023,E,1,06,1.32,0.3,M,,M,,*5D
$GNGSA,A,3,,,,,,,,,,,,,3.15,1.32,2.86,1*0A
$GNGSA,A,3,06,09,13,11,14,12,,,,,,,3.15,1.32,2.86,4*04
$GNGSA,A,3,,,,,,,,,,,,,3.15,1.32,2.86,3*08
$GPGSV,1,1,00,0*65
$GBGSV,3,1,09,06,35,215,31,09,36,285,31,11,20,128,31,12,10,058,31,0*7F
$GBGSV,3,2,09,
13,45,200,32,14,06,164,31,01,37,122,31,02,50,173,31,0*7B
$GBGSV,3,3,09,04,,,31,0*78
$GAGSV,1,1,00,0*74

$GNRMC,000725.00,A,3000.00023,N,12000.00036,E,0.457,,230721,,,A,V*13
$GNGGA,000725.00,3000.00023,N,12000.00036,E,1,06,1.32,0.7,M,,M,,*59
$GNGSA,A,3,,,,,,,,,,,,,3.15,1.32,2.86,1*0A
$GNGSA,A,3,06,09,13,11,14,12,,,,,,,3.15,1.32,2.86,4*04
$GNGSA,A,3,,,,,,,,,,,,,3.15,1.32,2.86,3*08
$GPGSV,1,1,00,
0*65
$GBGSV,3,1,09,06,35,215,31,09,36,285,31,11,20,128,31,12,10,058,30,0*7E
$GBGSV,3,2,09,13,45,200,32,14,06,164,31,01,37,122,31,02,50,173,31,0*7B
$GBGSV,3,3,09,04,,,31,0*78
$GAGSV,1,1,00,0*74

$GNRMC,000726.00,A,3000.00012,N,12000.00030,E,0.507,,230721,,,A,V*10
$GNGGA,000726.00,3000.00012,N,12000.00030,E,1,06,1.32,0.2,M,,M,,*5B
$GNGSA,A,3,,,,,,,,,,,,,3.15,1.32,2.86,1*0A
$GNGSA,A,3,06,09,13,11,14,12,,,,,,,3.15,1.32,2.86,4*04

$GNGSA,A,3,,,,,,,,,,,,,3.15,1.32,2.86,3*08
$GPGSV,1,1,00,0*65
$GBGSV,3,1,09,06,35,215,31,09,36,285,31,11,20,128,31,12,10,058,31,0*7F
$GBGSV,3,2,09,13,45,200,32,14,06,164,31,01,37,122,31,02,50,173,31,0*7B
$GBGSV,3,3,09,04,,,31,0*78
$GAGSV,1,1,00,0*74

$GNRMC,000727.00,A,3000.00004,N,12000.00020,E,0.646,,230721,,,A,V*11
$GNGGA,000727.00,3000.00004,N,12000.00020,E,1,06,1.32,0.2,M,,M,,*5C
$GNGSA,A,3,,,,,,,,,,,,,3.15,1.32,2.86,1*0A
$GNGSA,A,3,06,09,13,11,14,12,,,,,,,3.15,1.32,2.86,4*04
$GNGSA,A,3,,,,,,,,,,,,,3.15,1.32,2.86,3*08
$GPGSV,1,1,00,0*65
$GBGSV,3,1,09,06,35,215,31,09,36,285,31,11,20,128,31,12,10,058,31,0*7F
$GBGSV,3,2,09,13,45,200,32,14,06,164,31,
01,37,122,31,02,50,173,31,0*7B
$GBGSV,3,3,09,04,,,31,0*78
$GAGSV,1,1,00,0*74

$GNRMC,000728.00,A,3000.00002,N,12000.00019,E,0.205,,230721,,,A,V*11
$GNGGA,000728.00,3000.00002,N,12000.00019,E,1,06,1.32,0.2,M,,M,,*5F
$GNGSA,A,3,,,,,,,,,,,,,3.15,1.32,2.86,1*0A
$GNGSA,A,3,06,09,13,11,14,12,,,,,,,3.15,1.32,2.86,4*04
$GNGSA,A,3,,,,,,,,,,,,,3.15,1.32,2.86,3*08
$GPGSV,
1,1,00,0*65
$GBGSV,3,1,09,06,35,215,31,09,36,285,31,11,20,128,31,12,10,058,31,0*7F
$GBGSV,3,2,09,13,45,200,32,14,06,164,31,01,37,122,31,02,50,173,31,0*7B
$GBGSV,3,3,09,04,,,31,0*78
$GAGSV,1,1,00,0*74

$GNRMC,000729.00,A,2959.99998,N,12000.00029,E,0.562,,230721,,,A,V*1B
$GNGGA,000729.00,2959.99998,N,12000.00029,E,1,06,1.31,0.3,M,,M,,*51
$GNGSA,A,3,,,,,,,,,,,,,3.15,1.31,2.86,1*09
$GNGSA,A,3,06,09,13,11,14,12,,,,,,,3.15,1.31,2.86,4*07
$GNGSA,A,3,,,,,,,,,,,,,3.15,1.31,2.86,3*0B
$GPGSV,1,1,00,0*65
$GBGSV,3,1
,09,06,35,215,31,09,36,285,31,11,20,128,31,12,10,058,31,0*7F
$GBGSV,3,2,09,13,45,200,32,14,06,164,31,01,37,122,31,02,50,173,31,0*7B
$GBGSV,3,3,09,04,,,31,0*78
$GAGSV,1,1,00,0*74

$GNRMC,000730.00,A,2959.99995,N,12000.00047,E,0.543,,230721,,,A,V*15
$GNGGA,000730.00,2959.99995,N,12000.00047,E,1,06,1.31,0.6,M,,M,,*59
$GNGSA,A,3,,,,,,,,,,,,,3.15,1.31,2.86,1*09
$GNGSA,A,3,06,09,13,11,14,12,,,,,,,3.15,1.31,2.86,4*07
$GNGSA,A,3,,,,,,,,,,,,,3.15,1.31,2.86,3*0B
$GPGSV,1,1,00,0*65
$GBGSV,3,1,09,06,35,215,31,09,36,
285,31,11,20,128,31,12,10,058,31,0*7F
$GBGSV,3,2,09,13,45,200,32,14,06,164,31,01,37,122,31,02,50,173,31,0*7B
$GBGSV,3,3,09,04,,,31,0*78
$GAGSV,1,1,00,0*74

$GNRMC,000731.00,A,2959.99994,N,12000.00055,E,0.249,,230721,,,A,V*1B
$GNGGA,000731.00,2959.99994,N,12000.00055,E,1,06,1.31,0.7,M,,M,,*5B
$GNGSA,A,3,,,,,,,,,,,,,3.15,1.31,2.86,1*09
$GNGSA,A,3,06,09,13,11,14,12,,,,,,,3.15,1.31,2.86,4*07

$GNGSA,A,3,,,,,,,,,,,,,3.15,1.31,2.86,3*0B
$GPGSV,1,1,00,0*65
$GBGSV,3,1,09,06,35,215,31,09,36,285,31,11,20,128,31,12,10,058,31,0*7F
$GBGSV,3,2,09,13,45,200,32,14,06,164,30,01,37,122,31,02,50,173,31,0*7A
$GBGSV,3,3,09,04,,,31,0*78
$GAGSV,1,1,00,0*74

