$GNRMC,120355.00,A,2311.31193,N,11300.00016,E,161.992,0.03,010821,,,A,V*0B
$GNGGA,120355.00,2311.31193,N,11300.00016,E,1,20,0.65,49.0,M,,M,,*6C
$GNGSA,A,3,18,21,24,03,05,06,16,29,31,22,,,1.28,0.65,1.10,1*0B
$GNGSA,A,3,26,27,29,08,09,30,,,,,,,1.28,0.65,1.10,4*04
$GNGSA,A,3,25,01,07,08,,,,,,,,,1.28,0.65,1.10,3*02
$GPGSV,4,1,15,03,08,281,35,05,10,128,3
5,06,20,287,36,16,32,325,36,0*60
$GPGSV,4,2,15,18,29,138,36,21,72,032,37,22,16,170,34,24,26,038,35,0*60
$GPGSV,4,3,15,29,26,050,36,31,51,232,36,30,33,118,,42,49,127,,0*6D
$GPGSV,4,4,15,50,45,122,,40,21,256,,41,46,235,,0*51
$GBGSV,2,1,06,08,42,324,31,09,13,228,30,26,38,326,31,27,52,293,31,0*79
$GBGSV,2,2,06,29,48,307,31,30,49,356,31,0*7C
$GAGSV,1,1,04,01,28,055,33,07,21,292,33,08,48,349,34,25,10,072,32,0*79

$GNRMC,120356.00,A,2311.35709,N,11300.00018,E,162.049,0.00,010821,,,A,V*08
$GNGGA,120356.00,2311.35709,N,11300.00018,E,1,20,0.65,49.0,M,,M,,*60
$GNGSA,A,3,18,21,24,03,05,06,16,29,31,22,,,1.28,0.65,1.10,1*0B
$GNGSA,A,3,26,27,29,08,09,30,,,,,,,1.28,0.65,1.10,4*04
$GNGSA,A,3,25,01,07,08,,,,,,,,,1.28,0.65,1.10,3*02
$GPGSV,4,1,15,03,08,281,35,05,10,128,35,06,20,287,36,16,32,325,36,0*60
$GPGSV,4,2,15,18,30,
138,36,21,72,032,36,22,16,170,35,24,26,038,35,0*68
$GPGSV,4,3,15,29,26,050,36,31,51,232,36,30,33,118,,42,49,127,,0*6D
$GPGSV,4,4,15,50,45,122,,40,21,256,,41,46,235,,0*51
$GBGSV,2,1,06,08,42,324,31,09,13,228,30,26,38,326,31,27,52,293,31,0*79
$GBGSV,2,2,06,29,48,307,31,30,49,356,31,0*7C
$GAGSV,1,1,04,01,28,055,33,07,21,292,33,08,48,349,34,25,10,072,33,0*78

$GNRMC,120357.00,A,2311.40226,N,11300.00018,E,162.096,359.99,010821,,,A,V*0E
$GNGGA,120357.00,2311.40226,N,11300.00018,E,1,20,0.65,49.1,M,,M,,*6A
$GNGSA,A,3,18,21,24,03,05,06,16,29,31,22,,,1.28,0.65,1.10,1*0B
$GNGSA,A,3,26,27,29,08,09,30,,,,,,,1.28,0.65,1.10,4*04
$GNGSA,A,3,25,01,07,08,,,,,,,,,1.28,0.65,1.10,3*02
$GPGSV,4,1,15,03,08,281,35,05,10,128,34,06,20,287,35,16,32
,325,36,0*62
$GPGSV,4,2,15,18,30,138,36,21,72,032,36,22,16,170,35,24,26,038,36,0*6B
$GPGSV,4,3,15,29,26,050,36,31,51,232,36,30,33,118,,42,49,127,,0*6D
$GPGSV,4,4,15,50,45,122,,40,21,256,,41,46,235,,0*51
$GBGSV,2,1,08,08,42,324,31,09,13,228,30,26,38,326,30,27,52,293,32,0*75
$GBGSV,2,2,08,29,48,307,32,30,49,356,31,04,35,111,,06,64,258,,0*79
$GAGSV,1,1,04,01,28,055,33,07,21,292,33,08,48,349,35,25,10,072,32,0*78

,3*02
$GPGSV,4,1,15,03,08,281,35,05,10,128,35,06,20,287,35,16,32,325,36,0*63
$GPGSV,4,2,15,18,30,138,35,21,72,032,37,22,16,170,34,24,26,038,35,0*6B
$GPGSV,4,3,15,29,26,050,36,31,51,232,36,30,33,118,,42,49,127,,0*6D
$GPGSV,4,4,15,50,45,122,,40,21,256,,41,46,235,,0*51
$GBGSV,2,1,08,08,42,324,30,09,13,228,30,26,38,326,31,27,52,293,32,0*75
$GBGSV,2,2,08,29,48,307,3

$GNGSA,A,3,25,01,07,08,,,,,,,,,1.28,0.65,1.10,3*02
$GPGSV,4,1,15,03,08,281,35,05,10,128,35,06,20,287,36,16,32,325,36,0*60
$GPGSV,4,2,15,18,30,138,35,21,72,032,36,22,16,170,35,24,26,038,35,0*6B
$GPGSV,4,3,15,29,26,050,36,31,51,232,36,30,33,118,,42,49,127,,0*6D
$GPGSV,4,4,15,50,45,122,,40,21,256,,41,46,235,,0*51
$GBGSV,2,1,08,08,42,324,30,09,13,228,30,26,38,326,
$GNRMC,120400.00,A,2311.53765,N,11300.00015,E,162.050,359.99,010821,,,A,V*0C
$GNGGA,120400.00,2311.53765,N,11300.00015,E,1,20,0.65,49.2,M,,M,,*61
$GNGSA,A,3,18,21,24,03,05,06,16,29,31,22,,,1.28,0.65,1.10,1*0B
$GNGSA,A,3,26,27,29,08,09,30,,,,,,,1.28,0.65,1.10,4*04
$GNGSA,A,3,25,01,07,08,,,,,,,,,1.28,0.65,1.10,3*02
$GPGSV,4,1,15,03,08,281,35,05,10,128,35,06,20,287,35,16,32,325,36
,0*63
$GPGSV,4,2,15,18,30,138,35,21,72,032,37,22,16,170,35,24,26,038,35,0*6A
$GPGSV,4,3,15,29,26,050,35,31,51,232,36,30,33,118,,42,49,127,,0*6E
$GPGSV,4,4,15,50,45,122,,40,21,256,,41,46,235,,0*51
$GBGSV,2,1,08,08,42,324,31,09,13,228,30,26,38,326,31,27,52,293,31,0*77
$GBGSV,2,2,08,29,48,307,31,30,49,356,32,04,35,111,,06,64,258,,0*79
$GAGSV,1,1,04,01,28,055,33,07,21,292,33,08,48,349,34,25,10,072,33,0*78

$GNRMC,120401.00,A,2311.58278,N,11300.00014,E,161.942,359.98,010821,,,A,V*06
$GNGGA,120401.00,2311.58278,N,11300.00014,E,1,20,0.65,49.1,M,,M,,*60
$GNGSA,A,3,18,21,24,03,05,06,16,29,31,22,,,1.28,0.65,1.10,1*0B
$GNGSA,A,3,26,27,29,08,09,30,,,,,,,1.28,0.65,1.10,4*04
$GNGSA,A,3,25,01,07,08,,,,,,,,,1.28,0.65,1.10,3*02
$GPGSV,4,1,15,03,08,281,35,05,10,128,35,06
,20,287,35,16,32,325,36,0*63
$GPGSV,4,2,15,18,30,138,36,21,72,032,37,22,16,170,35,24,26,038,35,0*69
$GPGSV,4,3,15,29,26,050,35,31,51,232,35,30,33,118,,42,49,127,,0*6D
$GPGSV,4,4,15,50,45,122,,40,21,256,,41,46,235,,0*51
$GBGSV,2,1,08,08,42,324,31,09,13,228,30,26,38,326,31,27,52,293,31,0*77
$GBGSV,2,2,08,29,48,307,31,30,49,356,32,04,35,111,,06,64,258,,0*79
$GAGSV,1,1,04,01,28,055,34,07,21,292,33,08,48,349,34,25,10,072,32,0*7E


$GNGSA,A,3,25,01,07,08,,,,,,,,,1.28,0.65,1.10,3*02
$GPGSV,4,1,15,03,08,281,35,05,10,128,35,06,20,287,35,16,32,325,36,0*63
$GPGSV,4,2,15,18,30,138,35,21,72,032,37,22,16,170,35,24,26,038,36,0*69
$GPGSV,4,3,15,29,26,050,35,31,51,232,36,30,33,118,,42,49,127,,0*6E
$GPGSV,4,4,15,50,45,122,,40,21,256,,41,46,235,,0*51
$GBGSV,2,1,08,08,42,324,31,09,13,228,30,26,38,326,31,
$GNRMC,120403.00,A,2311.67307,N,11300.00012,E,162.017,0.00,010821,,,A,V*03
$GNGGA,120403.00,2311.67307,N,11300.00012,E,1,20,0.65,49.1,M,,M,,*61
$GNGSA,A,3,18,21,24,03,05,06,16,29,31,22,,,1.28,0.65,1.10,1*0B
$GNGSA,A,3,26,27,29,08,09,30,,,,,,,1.28,0.65,1.10,4*04
$GNGSA,A,3,25,01,07,08,,,,,,,,,1.28,0.65,1.10,3*02
$GPGSV,4,1,15,03,08,281,35,05,10,128,35,06,20,287,35,16,32,
325,36,0*63
$GPGSV,4,2,15,18,30,138,36,21,72,032,37,22,16,170,35,24,26,038,35,0*69
$GPGSV,4,3,15,29,26,050,35,31,51,232,36,30,33,118,,42,49,127,,0*6E
$GPGSV,4,4,15,50,45,122,,40,21,256,,41,46,235,,0*51
$GBGSV,2,1,08,08,42,324,31,09,13,228,30,26,38,326,31,27,52,293,31,0*77
$GBGSV,2,2,08,29,48,307,31,30,49,356,31,04,35,111,,06,64,258,,0*7A
$GAGSV,1,1,04,01,28,055,34,07,21,292,33,08,48,349,34,25,10,072,32,0*7E


$GPGSV,4,1,15,03,08,281,35,05,10,128,35,06,20,287,35,16,32,325,36,0*63
$GPGSV,4,2,15,18,30,138,36,21,72,032,36,22,16,170,35,24,26,038,35,0*68
$GPGSV,4,3,15,29,26,050,36,31,51,232,36,30,33,118,,42,49,127,,0*6D
$GPGSV,4,4,15,50,45,122,,40,21,256,,41,46,235,,0*51
$GBGSV,2,1,08,08,42,324,31,09,13,228,30,26,38,326,31,27,52,293,31,0*77
$GBGSV,2,2,08,29,48,307,32,
,25,01,07,08,,,,,,,,,1.28,0.65,1.10,3*02
$GPGSV,4,1,15,03,08,281,35,05,10,128,35,06,20,287,35,16,32,325,35,0*60
$GPGSV,4,2,15,18,30,138,36,21,72,032,37,22,16,170,35,24,26,038,36,0*6A
$GPGSV,4,3,15,29,26,050,36,31,51,232,36,30,33,118,,42,49,127,,0*6D
$GPGSV,4,4,15,50,45,122,,40,21,256,,41,46,235,,0*51
$GBGSV,2,1,08,08,42,324,31,09,13,228,30,26,38,326,3
$GNRMC,120406.00,A,2311.80853,N,11300.00013,E,162.031,359.99,010821,,,A,V*0F
$GNGGA,120406.00,2311.80853,N,11300.00013,E,1,20,0.65,49.2,M,,M,,*65
$GNGSA,A,3,18,21,24,03,05,06,16,29,31,22,,,1.28,0.65,1.10,1*0B
$GNGSA,A,3,26,27,29,08,09,30,,,,,,,1.28,0.65,1.10,4*04
$GNGSA,A,3,25,01,07,08,,,,,,,,,1.28,0.65,1.10,3*02
$GPGSV,4,1,15,03,08,281,35,05,10,128,35,06,20,287,36,16,32,325,3
6,0*60
$GPGSV,4,2,15,18,30,138,35,21,72,032,36,22,16,170,35,24,26,038,36,0*68
$GPGSV,4,3,15,29,26,050,35,31,51,232,36,30,33,118,,42,49,127,,0*6E
$GPGSV,4,4,15,50,45,122,,40,21,256,,41,46,235,,0*51
$GBGSV,2,1,08,08,42,324,30,09,13,228,30,26,38,326,31,27,52,293,31,0*76
$GBGSV,2,2,08,29,48,307,31,30,49,356,31,04,35,111,,06,64,258,,0*7A
$GAGSV,1,1,04,01,28,055,33,07,21,292,33,08,48,349,33,25,10,072,33,0*7F

$GNRMC,120407.00,A,2311.85366,N,11300.00015,E,161.974,0.01,010821,,,A,V*05
$GNGGA,120407.00,2311.85366,N,11300.00015,E,1,20,0.65,49.2,M,,M,,*6A
$GNGSA,A,3,18,21,24,03,05,06,16,29,31,22,,,1.28,0.65,1.10,1*0B
$GNGSA,A,3,26,27,29,08,09,30,,,,,,,1.28,0.65,1.10,4*04
$GNGSA,A,3,25,01,07,08,,,,,,,,,1.28,0.65,1.10,3*02
$GPGSV,4,1,15,03,
08,281,35,05,10,128,35,06,20,287,35,16,32,325,36,0*63
$GPGSV,4,2,15,18,30,138,36,21,71,032,36,22,16,170,35,24,26,038,35,0*6B
$GPGSV,4,3,15,29,26,050,35,31,51,232,36,30,33,118,,42,49,127,,0*6E
$GPGSV,4,4,15,50,45,122,,40,21,256,,41,46,235,,0*51
$GBGSV,2,1,08,08,42,324,30,09,13,228,30,26,38,326,31,27,52,293,31,0*76
$GBGSV,2,2,08,29,48,308,31,30,49,356,31,04,35,111,,06,64,258,,0*75
$GAGSV,1,1,04,01,28,055,34,07,21,292,34,08,48,349,35,25,10,072,33,0*79

$GNRMC,120408.00,A,2311.89878,N,11300.00016,E,161.954,0.01,010821,,,A,V*03
$GNGGA,120408.00,2311.89878,N,11300.00016,E,1,20,0.65,49.1,M,,M,,*6D
$GNGSA,A,3,18,21,24,03,05,06,16,29,31,22,,,1.28,0.65,1.10,1*0B
$GNGSA,A,3,26,27,29,08,09,30,,,,,,,1.28,0.65,1.10,4*04
$GNGSA,A,3,25,01,07,08,,,,,,,,,1.28,0.65,1.10,3*02
$GPGSV,4,1,15,03,08,281,35,05,10,128,35,06,20,287,36,16,32,325,35,0*63
$GPGSV,4,2,15,18,
30,138,36,21,71,032,36,22,16,170,35,24,26,038,35,0*6B
$GPGSV,4,3,15,29,26,050,35,31,51,232,36,30,33,118,,42,49,127,,0*6E
$GPGSV,4,4,15,50,45,122,,40,21,256,,41,46,235,,0*51
$GBGSV,2,1,08,08,42,324,31,09,13,228,30,26,38,326,31,27,52,293,31,0*77
$GBGSV,2,2,08,29,48,308,31,30,49,356,31,04,35,111,,06,64,258,,0*75
$GAGSV,1,1,04,01,28,055,33,07,21,292,33,08,48,349,34,25,10,072,33,0*78

,0.65,1.10,3*02
$GPGSV,4,1,15,03,08,281,35,05,10,128,35,06,20,287,36,16,32,325,36,0*60
$GPGSV,4,2,15,18,30,138,36,21,71,032,37,22,16,170,35,24,26,038,36,0*69
$GPGSV,4,3,15,29,26,050,35,31,51,232,37,30,33,118,,42,49,127,,0*6F
$GPGSV,4,4,15,50,45,122,,40,21,256,,41,46,235,,0*51
$GBGSV,2,1,08,08,42,324,31,09,13,228,30,26,38,326,31,27,52,293,31,0*77
$GBGSV,2,
$GNRMC,120410.00,A,2311.98907,N,11300.00016,E,162.045,359.99,010821,,,A,V*07
$GNGGA,120410.00,2311.98907,N,11300.00016,E,1,20,0.65,49.1,M,,M,,*6D
$GNGSA,A,3,18,21,24,03,05,06,16,29,31,22,,,1.28,0.65,1.10,1*0B
$GNGSA,A,3,26,27,29,08,09,30,,,,,,,1.28,0.65,1.10,4*04
$GNGSA,A,3,25,01,07,08,,,,,,,,,1.28,0.65,1.10,3*02
$GPGSV,4,1,15,03,08,281,35,05,10,128,35,06,20,287,35,16,
32,325,36,0*63
$GPGSV,4,2,15,18,30,138,36,21,71,032,36,22,16,170,35,24,26,038,35,0*6B
$GPGSV,4,3,15,29,26,050,35,31,51,232,36,30,33,118,,42,49,127,,0*6E
$GPGSV,4,4,15,50,45,122,,40,21,256,,41,46,235,,0*51
$GBGSV,2,1,08,08,42,324,30,09,13,228,30,26,38,326,31,27,52,293,31,0*76
$GBGSV,2,2,08,29,48,308,31,30,49,356,31,04,35,111,,06,64,258,,0*75
$GAGSV,1,1,04,01,28,055,33,07,21,292,33,08,48,349,34,25,10,072,33,0*78

A,A,3,25,01,07,08,,,,,,,,,1.28,0.65,1.10,3*02
$GPGSV,4,1,15,03,08,281,35,05,10,128,35,06,20,287,35,16,32,325,36,0*63
$GPGSV,4,2,15,18,30,138,36,21,71,032,37,22,16,170,35,24,26,038,35,0*6A
$GPGSV,4,3,15,29,26,050,35,31,51,232,36,30,33,118,,42,49,127,,0*6E
$GPGSV,4,4,15,50,45,122,,40,21,256,,41,46,235,,0*51
$GBGSV,2,1,08,08,42,324,31,09,13,228,30,26,38,326,3
$GNRMC,120412.00,A,2312.07933,N,11300.00016,E,162.012,359.99,010821,,,A,V*05
$GNGGA,120412.00,2312.07933,N,11300.00016,E,1,20,0.65,49.3,M,,M,,*6F
$GNGSA,A,3,18,21,24,03,05,06,16,29,31,22,,,1.28,0.65,1.10,1*0B
$GNGSA,A,3,26,27,29,08,09,30,,,,,,,1.28,0.65,1.10,4*04
$GNGSA,A,3,25,01,07,08,,,,,,,,,1.28,0.65,1.10,3*02
$GPGSV,4,1,15,03,08,281,34,05,10,128,35,06,20,287,35,
16,32,325,36,0*62
$GPGSV,4,2,15,18,30,138,35,21,71,032,36,22,16,170,35,24,26,038,35,0*68
$GPGSV,4,3,15,29,26,050,36,31,51,232,36,30,33,118,,42,49,127,,0*6D
$GPGSV,4,4,15,50,45,122,,40,21,256,,41,46,235,,0*51
$GBGSV,2,1,08,08,42,324,30,09,13,229,30,26,38,326,31,27,52,293,31,0*77
$GBGSV,2,2,08,29,48,308,32,30,49,356,31,04,35,111,,06,64,258,,0*76
$GAGSV,1,1,04,01,28,055,34,07,21,292,34,08,48,349,34,25,10,072,33,0*78

$GNRMC,120413.00,A,2312.12448,N,11300.00016,E,161.979,359.96,010821,,,A,V*09
$GNGGA,120413.00,2312.12448,N,11300.00016,E,1,20,0.65,49.4,M,,M,,*6C
$GNGSA,A,3,18,21,24,03,05,06,16,29,31,22,,,1.28,0.65,1.10,1*0B
$GNGSA,A,3,26,27,29,08,09,30,,,,,,,1.28,0.65,1.10,4*04
$GNGSA,A,3,25,01,07,08,,,,,,,,,1.28,0.65,1.10,3*02
$GPGSV,4,1,15,03,08,281,35,05,10,128,35
,06,20,287,35,16,32,325,36,0*63
$GPGSV,4,2,15,18,30,138,35,21,71,032,36,22,16,170,35,24,26,038,35,0*68
$GPGSV,4,3,15,29,26,050,36,31,51,232,36,30,33,118,,42,49,127,,0*6D
$GPGSV,4,4,15,50,45,122,,40,21,256,,41,46,235,,0*51
$GBGSV,2,1,08,08,42,324,31,09,13,229,30,26,38,326,31,27,52,293,31,0*76
$GBGSV,2,2,08,29,48,308,31,30,49,356,32,04,35,111,,06,64,258,,0*76
$GAGSV,1,1,04,01,28,055,33,07,21,292,33,08,48,349,34,25,10,072,33,0*78

,08,,,,,,,,,1.28,0.65,1.10,3*02
$GPGSV,4,1,15,03,08,281,35,05,10,128,35,06,20,287,35,16,32,325,35,0*60
$GPGSV,4,2,15,18,30,138,36,21,71,032,37,22,16,170,36,24,26,038,36,0*6A
$GPGSV,4,3,15,29,26,050,36,31,51,232,36,30,33,118,,42,49,127,,0*6D
$GPGSV,4,4,15,50,45,122,,40,21,256,,41,46,235,,0*51
$GBGSV,2,1,08,08,42,324,31,09,13,229,30,26,38,326,31,27
$GNRMC,120415.00,A,2312.21477,N,11300.00014,E,162.020,359.97,010821,,,A,V*06
$GNGGA,120415.00,2312.21477,N,11300.00014,E,1,20,0.65,49.5,M,,M,,*65
$GNGSA,A,3,18,21,24,03,05,06,16,29,31,22,,,1.28,0.65,1.10,1*0B
$GNGSA,A,3,26,27,29,08,09,30,,,,,,,1.28,0.65,1.10,4*04
$GNGSA,A,3,25,01,07,08,,,,,,,,,1.28,0.65,1.10,3*02
$GPGSV,4,1,15,03,08,281,35,05,10,128,35,06,20,287,35,16,32,325,36,0*63
$GPGSV,4,2
,15,18,30,138,36,21,71,032,36,22,16,170,35,24,26,038,36,0*68
$GPGSV,4,3,15,29,26,050,36,31,51,232,36,30,33,118,,42,49,127,,0*6D
$GPGSV,4,4,15,50,45,122,,40,21,256,,41,46,235,,0*51
$GBGSV,2,1,08,08,42,324,31,09,13,229,30,26,38,326,31,27,52,293,31,0*76
$GBGSV,2,2,08,29,48,308,31,30,49,356,31,04,35,111,,06,64,258,,0*75
$GAGSV,1,1,04,01,28,055,34,07,21,292,33,08,48,349,34,25,10,072,32,0*7E

$GNRMC,120416.00,A,2312.25990,N,11300.00012,E,161.939,0.01,010821,,,A,V*01
$GNGGA,120416.00,2312.25990,N,11300.00012,E,1,20,0.65,49.3,M,,M,,*66
$GNGSA,A,3,18,21,24,03,05,06,16,29,31,22,,,1.28,0.65,1.10,1*0B
$GNGSA,A,3,26,27,29,08,09,30,,,,,,,1.28,0.65,1.10,4*04
$GNGSA,A,3,25,01,07,08,,,,,,,,,1.28,0.65,1.10,3*02
$GPGSV,4,1,15,03,
08,281,34,05,10,128,35,06,20,287,35,16,32,325,36,0*62
$GPGSV,4,2,15,18,30,138,36,21,71,032,37,22,16,170,35,24,26,038,36,0*69
$GPGSV,4,3,15,29,26,050,35,31,51,232,36,30,33,118,,42,49,127,,0*6E
$GPGSV,4,4,15,50,45,122,,40,21,256,,41,46,235,,0*51
$GBGSV,2,1,08,08,42,324,31,09,13,229,30,26,38,326,31,27,52,293,31,0*76
$GBGSV,2,2,08,29,48,308,32,30,49,356,31,04,35,111,,06,64,258,,0*76
$GAGSV,1,1,04,01,28,055,34,07,21,292,34,08,48,349,34,25,10,072,33,0*78

$GNRMC,120417.00,A,2312.30503,N,11300.00012,E,161.975,359.99,010821,,,A,V*04
$GNGGA,120417.00,2312.30503,N,11300.00012,E,1,20,0.65,49.3,M,,M,,*65
$GNGSA,A,3,18,21,24,03,05,06,16,29,31,22,,,1.28,0.65,1.10,1*0B
$GNGSA,A,3,26,27,29,08,09,30,,,,,,,1.28,0.65,1.10,4*04
$GNGSA,A,3,25,01,07,08,,,,,,,,,1.28,0.65,1.10,3*02
$GPGSV,4,1,15,03,08,281,34,05,10,128,35,06,20,287,35,16,32,325,36,0*62
$GPGSV,4,2,15,1
8,30,138,36,21,71,032,37,22,16,170,35,24,26,038,35,0*6A
$GPGSV,4,3,15,29,26,050,36,31,51,232,36,30,33,118,,42,49,127,,0*6D
$GPGSV,4,4,15,50,45,122,,40,21,256,,41,46,235,,0*51
$GBGSV,2,1,08,08,42,324,31,09,13,229,30,26,38,326,31,27,52,293,31,0*76
$GBGSV,2,2,08,29,48,308,31,30,49,356,31,04,35,111,,06,64,258,,0*75
$GAGSV,1,1,04,01,28,055,33,07,21,292,33,08,48,349,33,25,10,072,33,0*7F

$GNRMC,120418.00,A,2312.35018,N,11300.00015,E,161.990,0.04,010821,,,A,V*06
$GNGGA,120418.00,2312.35018,N,11300.00015,E,1,20,0.65,49.3,M,,M,,*67
$GNGSA,A,3,18,21,24,03,05,06,16,29,31,22,,,1.28,0.65,1.10,1*0B
$GNGSA,A,3,26,27,29,08,09,30,,,,,,,1.28,0.65,1.10,4*04
$GNGSA,A,3,25,01,07,08,,,,,,,,,1.28,0.65,1.10,3*02
$GPGSV,4,1,15,03,08,281,35,05,10,128,35,06,20,287,36,16,32,325,35,0*63
$GPGSV,4,2,15,1
8,30,138,36,21,71,032,37,22,16,170,36,24,26,038,36,0*6A
$GPGSV,4,3,15,29,26,050,35,31,51,232,36,30,33,118,,42,49,127,,0*6E
$GPGSV,4,4,15,50,45,122,,40,21,256,,41,46,235,,0*51
$GBGSV,2,1,08,08,42,324,31,09,13,229,30,26,38,326,31,27,52,293,31,0*76
$GBGSV,2,2,08,29,48,308,31,30,49,356,32,04,35,111,,06,64,258,,0*76
$GAGSV,1,1,04,01,28,055,34,07,21,292,33,08,48,349,34,25,10,072,33,0*7F

$GNRMC,120419.00,A,2312.39533,N,11300.00016,E,161.959,0.01,010821,,,A,V*04
$GNGGA,120419.00,2312.39533,N,11300.00016,E,1,20,0.65,49.4,M,,M,,*62
$GNGSA,A,3,18,21,24,03,05,06,16,29,31,22,,,1.28,0.65,1.10,1*0B
$GNGSA,A,3,26,27,29,08,09,30,,,,,,,1.28,0.65,1.10,4*04
$GNGSA,A,3,25,01,07,08,,,,,,,,,1.28,0.65,1.10,3*02
$GPGSV,4,1,15,03,08,281,35,05,10,12
8,35,06,20,287,35,16,32,325,36,0*63
$GPGSV,4,2,15,18,30,138,36,21,71,032,37,22,16,170,35,24,26,038,36,0*69
$GPGSV,4,3,15,29,26,050,35,31,51,232,36,30,33,118,,42,49,127,,0*6E
$GPGSV,4,4,15,50,45,122,,40,21,256,,41,46,235,,0*51
$GBGSV,2,1,08,08,42,324,31,09,13,229,30,26,38,326,31,27,52,293,31,0*76
$GBGSV,2,2,08,29,48,308,32,30,49,356,32,04,35,111,,06,64,258,,0*75
$GAGSV,1,1,04,01,28,055,34,07,21,292,34,08,48,349,34,25,10,072,33,0*78

65,1.10,3*02
$GPGSV,4,1,15,03,08,281,35,05,10,128,35,06,20,287,36,16,32,325,35,0*63
$GPGSV,4,2,15,18,30,138,36,21,71,032,37,22,16,170,36,24,26,038,36,0*6A
$GPGSV,4,3,15,29,26,050,35,31,51,232,36,30,33,118,,42,49,127,,0*6E
$GPGSV,4,4,15,50,45,122,,40,21,256,,41,46,235,,0*51
$GBGSV,2,1,08,08,42,324,31,09,13,229,30,26,38,326,31,27,52,293,31,0*76
$GBGSV,2,2,08,29,4

$GNGSA,A,3,25,01,07,08,,,,,,,,,1.28,0.65,1.10,3*02
$GPGSV,4,1,15,03,08,281,35,05,10,128,35,06,20,287,35,16,32,325,36,0*63
$GPGSV,4,2,15,18,30,138,36,21,71,032,36,22,16,170,35,24,26,038,36,0*68
$GPGSV,4,3,15,29,26,050,36,31,51,232,36,30,33,118,,42,49,127,,0*6D
$GPGSV,4,4,15,50,45,122,,40,21,256,,41,46,235,,0*51
$GBGSV,2,1,08,08,42,324,31,09,13,229,30
$GNRMC,120422.00,A,2312.53081,N,11300.00019,E,162.096,0.02,010821,,,A,V*09
$GNGGA,120422.00,2312.53081,N,11300.00019,E,1,20,0.65,49.2,M,,M,,*63
$GNGSA,A,3,18,21,24,03,05,06,16,29,31,22,,,1.28,0.65,1.10,1*0B
$GNGSA,A,3,26,27,29,08,09,30,,,,,,,1.28,0.65,1.10,4*04
$GNGSA,A,3,25,01,07,08,,,,,,,,,1.28,0.65,1.10,3*02
$GPGSV,4,1,15,03,08,281,35,05,10,128,36,06,20,287,36,16,32,32
5,35,0*60
$GPGSV,4,2,15,18,30,138,36,21,71,032,36,22,16,170,34,24,26,038,35,0*6A
$GPGSV,4,3,15,29,26,050,35,31,51,232,36,30,33,119,,42,49,127,,0*6F
$GPGSV,4,4,15,50,45,122,,40,21,256,,41,46,235,,0*51
$GBGSV,2,1,08,08,42,324,30,09,13,229,30,26,38,326,31,27,52,293,31,0*77
$GBGSV,2,2,08,29,48,308,32,30,49,356,31,04,35,111,,06,64,258,,0*76
$GAGSV,1,1,04,01,28,055,34,07,21,292,33,08,48,349,34,25,10,072,33,0*7F

5,01,07,08,,,,,,,,,1.28,0.65,1.10,3*02
$GPGSV,4,1,15,03,08,281,35,05,10,128,35,06,20,287,35,16,32,325,35,0*60
$GPGSV,4,2,15,18,30,138,36,21,71,032,36,22,16,170,34,24,26,038,36,0*69
$GPGSV,4,3,15,29,26,050,35,31,51,232,36,30,33,119,,42,49,127,,0*6F
$GPGSV,4,4,15,50,45,122,,40,21,256,,41,46,235,,0*51
$GBGSV,2,1,08,08,42,324,31,09,13,229,30,26,38,326,31,27,52,293,31
$GNRMC,120424.00,A,2312.62110,N,11300.00019,E,162.010,0.01,010821,,,A,V*09
$GNGGA,120424.00,2312.62110,N,11300.00019,E,1,20,0.65,49.2,M,,M,,*6E
$GNGSA,A,3,18,21,24,03,05,06,16,29,31,22,,,1.28,0.65,1.10,1*0B
$GNGSA,A,3,26,27,29,08,09,30,,,,,,,1.28,0.65,1.10,4*04
$GNGSA,A,3,25,01,07,08,,,,,,,,,1.28,0.65,1.10,3*02
$GPGSV,4,1,15,03,08,281,35,05,10,1
28,35,06,20,287,35,16,32,325,36,0*63
$GPGSV,4,2,15,18,30,138,36,21,71,032,37,22,16,170,35,24,26,038,36,0*69
$GPGSV,4,3,15,29,26,050,35,31,51,232,36,30,33,119,,42,49,127,,0*6F
$GPGSV,4,4,15,50,45,122,,40,21,256,,41,46,235,,0*51
$GBGSV,2,1,08,08,42,324,31,09,13,229,30,26,38,326,31,27,52,293,31,0*76
$GBGSV,2,2,08,29,48,308,32,30,49,356,31,04,35,111,,06,64,258,,0*76
$GAGSV,1,1,04,01,28,055,34,07,21,292,33,08,48,349,34,25,10,072,33,0*7F

$GNRMC,120425.00,A,2312.66623,N,11300.00016,E,161.926,359.98,010821,,,A,V*04
$GNGGA,120425.00,2312.66623,N,11300.00016,E,1,20,0.65,49.3,M,,M,,*62
$GNGSA,A,3,18,21,24,03,05,06,16,29,31,22,,,1.28,0.65,1.10,1*0B
$GNGSA,A,3,26,27,29,08,09,30,,,,,,,1.28,0.65,1.10,4*04
$GNGSA,A,3,25,01,07,08,,,,,,,,,1.28,0.65,1.10,3*02
$GPGSV,4,1,15,03,08,281,35,05,10,128,35,06,20,287,35,16,32,325,36,0*63
$GPGSV,4,2,
15,18,30,138,35,21,71,032,36,22,16,170,35,24,26,038,35,0*68
$GPGSV,4,3,15,29,26,050,35,31,51,232,37,30,33,119,,42,49,127,,0*6E
$GPGSV,4,4,15,50,45,122,,40,21,256,,41,46,235,,0*51
$GBGSV,2,1,08,08,42,324,31,09,13,229,30,26,38,326,31,27,52,293,32,0*75
$GBGSV,2,2,08,29,48,308,31,30,49,356,31,04,35,111,,06,64,258,,0*75
$GAGSV,1,1,04,01,28,055,33,07,21,292,33,08,48,349,34,25,10,072,33,0*78

$GNRMC,120426.00,A,2312.71138,N,11300.00017,E,162.029,359.99,010821,,,A,V*09
$GNGGA,120426.00,2312.71138,N,11300.00017,E,1,20,0.65,49.3,M,,M,,*6B
$GNGSA,A,3,18,21,24,03,05,06,16,29,31,22,,,1.28,0.65,1.10,1*0B
$GNGSA,A,3,26,27,29,08,09,30,,,,,,,1.28,0.65,1.10,4*04
$GNGSA,A,3,25,01,07,08,,,,,,,,,1.28,0.65,1.10,3*02
$GPGSV,4,1,15,03,08,281,35,05,10,12
8,35,06,20,287,35,16,32,325,36,0*63
$GPGSV,4,2,15,18,30,138,35,21,71,032,37,22,16,170,35,24,26,038,36,0*6A
$GPGSV,4,3,15,29,26,050,36,31,51,232,37,30,33,119,,42,49,127,,0*6D
$GPGSV,4,4,15,50,45,122,,40,21,256,,41,46,235,,0*51
$GBGSV,2,1,08,08,42,324,31,09,13,229,30,26,38,326,31,27,52,293,31,0*76
$GBGSV,2,2,08,29,48,308,31,30,49,356,31,04,35,111,,06,64,258,,0*75
$GAGSV,1,1,04,01,28,055,33,07,21,292,33,08,48,349,34,25,10,072,32,0*79

$GNRMC,120427.00,A,2312.75653,N,11300.00019,E,162.006,359.99,010821,,,A,V*05
$GNGGA,120427.00,2312.75653,N,11300.00019,E,1,20,0.65,49.3,M,,M,,*6A
$GNGSA,A,3,18,21,24,03,05,06,16,29,31,22,,,1.28,0.65,1.10,1*0B
$GNGSA,A,3,26,27,29,08,09,30,,,,,,,1.28,0.65,1.10,4*04
$GNGSA,A,3,25,01,07,08,,,,,,,,,1.28,0.65,1.10,3*02
$GPGSV,4,1,15,03,08,281,35,05,10,128,34,06,20,287,35,16,32,325,36,0*62
$GPGSV,4,2,
15,18,30,137,36,21,71,032,37,22,16,170,35,24,26,038,35,0*65
$GPGSV,4,3,15,29,26,050,35,31,51,232,36,30,33,119,,42,49,127,,0*6F
$GPGSV,4,4,15,50,45,122,,40,21,256,,41,46,235,,0*51
$GBGSV,2,1,08,08,42,324,31,09,13,229,30,26,38,326,31,27,52,293,31,0*76
$GBGSV,2,2,08,29,48,308,31,30,49,356,31,04,35,111,,06,64,258,,0*75
$GAGSV,1,1,04,01,28,055,33,07,21,292,34,08,48,349,34,25,10,072,32,0*7E

0.65,1.10,3*02
$GPGSV,4,1,15,03,08,281,35,05,10,128,36,06,20,287,35,16,32,325,36,0*60
$GPGSV,4,2,15,18,30,137,35,21,71,032,37,22,16,170,35,24,26,038,35,0*66
$GPGSV,4,3,15,29,26,050,36,31,51,232,37,30,33,119,,42,49,127,,0*6D
$GPGSV,4,4,15,50,45,122,,40,21,256,,41,46,235,,0*51
$GBGSV,2,1,08,08,42,324,31,09,13,229,30,26,38,326,31,27,52,293,32,0*75
$GBGSV,2,2,08,29,4
$GNRMC,120429.00,A,2312.84682,N,11300.00018,E,161.944,0.01,010821,,,A,V*0A
$GNGGA,120429.00,2312.84682,N,11300.00018,E,1,20,0.65,49.2,M,,M,,*66
$GNGSA,A,3,18,21,24,03,05,06,16,29,31,22,,,1.28,0.65,1.10,1*0B
$GNGSA,A,3,26,27,29,08,09,30,,,,,,,1.28,0.65,1.10,4*04
$GNGSA,A,3,25,01,07,08,,,,,,,,,1.28,0.65,1.10,3*02
$GPGSV,4,1,15,03,08,281,35,05,10,128,35,06,20,287,35,16,32,325,3
6,0*63
$GPGSV,4,2,15,18,30,137,35,21,71,032,36,22,16,170,36,24,26,038,35,0*64
$GPGSV,4,3,15,29,26,050,36,31,51,232,36,30,33,119,,42,49,127,,0*6C
$GPGSV,4,4,15,50,45,122,,40,21,256,,41,46,235,,0*51
$GBGSV,2,1,08,08,42,324,31,09,13,229,30,26,38,326,32,27,52,293,31,0*75
$GBGSV,2,2,08,29,48,308,31,30,49,356,31,04,35,111,,06,64,258,,0*75
$GAGSV,1,1,04,01,28,055,34,07,21,292,33,08,48,349,34,25,10,072,33,0*7F

$GNRMC,120430.00,A,2312.89196,N,11300.00019,E,161.923,359.98,010821,,,A,V*02
$GNGGA,120430.00,2312.89196,N,11300.00019,E,1,20,0.67,49.2,M,,M,,*62
$GNGSA,A,3,18,21,24,03,05,06,16,29,31,22,,,1.35,0.67,1.17,1*02
$GNGSA,A,3,26,27,29,08,09,30,,,,,,,1.35,0.67,1.17,4*0D
$GNGSA,A,3,25,01,07,08,,,,,,,,,1.35,0.67,1.17,3*0B
$GPGSV,4,1,15,03,08,281,36,05,10,129
,35,06,20,287,35,16,32,325,35,0*62
$GPGSV,4,2,15,18,30,137,35,21,71,032,37,22,16,170,36,24,26,038,35,0*65
$GPGSV,4,3,15,29,26,050,35,31,51,232,36,30,33,119,,42,49,127,,0*6F
$GPGSV,4,4,15,50,45,122,,40,21,256,,41,46,235,,0*51
$GBGSV,2,1,08,08,42,324,31,09,13,229,30,26,38,326,31,27,52,293,31,0*76
$GBGSV,2,2,08,29,48,308,31,30,49,356,31,04,35,111,,06,64,258,,0*75
$GAGSV,1,1,04,01,28,055,33,07,21,292,33,08,48,349,34,25,10,072,33,0*78

,,1.28,0.65,1.10,4*04
$GNGSA,A,3,25,01,07,08,,,,,,,,,1.28,0.65,1.10,3*02
$GPGSV,4,1,15,03,08,281,35,05,10,129,35,06,20,287,35,16,32,325,36,0*62
$GPGSV,4,2,15,18,30,137,36,21,71,032,36,22,16,170,35,24,26,038,35,0*64
$GPGSV,4,3,15,29,26,050,36,31,51,232,36,30,33,119,,42,49,127,,0*6C
$GPGSV,4,4,15,50,45,122,,40,21,256,,41,46,235,,0*51
$GBGSV,2,1,08,08,42,3
$GNRMC,120432.00,A,2312.98226,N,11300.00020,E,161.976,359.99,010821,,,A,V*03
$GNGGA,120432.00,2312.98226,N,11300.00020,E,1,20,0.68,49.3,M,,M,,*6C
$GNGSA,A,3,18,21,24,03,05,06,16,29,31,22,,,1.30,0.68,1.11,1*0E
$GNGSA,A,3,26,27,29,08,09,30,,,,,,,1.30,0.68,1.11,4*01
$GNGSA,A,3,25,01,07,08,,,,,,,,,1.30,0.68,1.11,3*07
$GPGSV,4,1,15,03,08
,281,35,05,10,129,35,06,20,287,35,16,32,325,36,0*62
$GPGSV,4,2,15,18,30,137,36,21,71,032,36,22,16,170,35,24,26,038,35,0*64
$GPGSV,4,3,15,29,26,050,36,31,51,232,36,30,33,119,,42,49,127,,0*6C
$GPGSV,4,4,15,50,45,122,,40,21,256,,41,46,235,,0*51
$GBGSV,2,1,08,08,42,324,30,09,13,229,30,26,38,326,31,27,52,293,31,0*77
$GBGSV,2,2,08,29,48,308,31,30,49,356,31,04,35,111,,06,64,258,,0*75
$GAGSV,1,1,04,01,28,055,33,08,48,349,34,25,10,072,33,07,21,292,34,0*7F

$GNRMC,120433.00,A,2313.02739,N,11300.00020,E,161.952,359.99,010821,,,A,V*0D
$GNGGA,120433.00,2313.02739,N,11300.00020,E,1,20,0.65,49.3,M,,M,,*69
$GNGSA,A,3,18,21,24,03,05,06,16,29,31,22,,,1.28,0.65,1.10,1*0B
$GNGSA,A,3,26,27,29,08,09,30,,,,,,,1.28,0.65,1.10,4*04
$GNGSA,A,3,25,01,07,08,,,,,,,,,1.28,0.65,1.10,3*02
$GPGSV
,4,1,15,03,08,281,35,05,10,129,35,06,20,287,35,16,32,325,35,0*61
$GPGSV,4,2,15,18,30,137,36,21,71,032,37,22,16,170,35,24,26,038,36,0*66
$GPGSV,4,3,15,29,26,050,35,31,51,232,36,30,33,119,,42,49,127,,0*6F
$GPGSV,4,4,15,50,45,122,,40,21,256,,41,46,235,,0*51
$GBGSV,2,1,08,08,42,324,31,09,13,229,30,26,38,326,31,27,52,293,32,0*75
$GBGSV,2,2,08,29,48,308,32,30,49,357,31,04,35,111,,06,64,258,,0*77
$GAGSV,1,1,04,01,28,055,34,07,21,292,33,08,48,349,34,25,10,072,33,0*7F

,,,,,,,,1.28,0.65,1.10,3*02
$GPGSV,4,1,15,03,08,281,36,05,10,129,35,06,20,287,36,16,32,325,36,0*62
$GPGSV,4,2,15,18,30,137,36,21,71,032,37,22,16,170,35,24,26,038,35,0*65
$GPGSV,4,3,15,29,26,050,35,31,51,232,36,30,33,119,,42,49,127,,0*6F
$GPGSV,4,4,15,50,45,122,,40,21,256,,41,46,235,,0*51
$GBGSV,2,1,08,08,42,324,31,09,13,229,30,26,38,326,31,2
$GNRMC,120435.00,A,2313.11768,N,11300.00023,E,162.142,0.01,010821,,,A,V*0A
$GNGGA,120435.00,2313.11768,N,11300.00023,E,1,20,0.65,49.6,M,,M,,*6F
$GNGSA,A,3,18,21,24,03,05,06,16,29,31,22,,,1.28,0.65,1.10,1*0B
$GNGSA,A,3,26,27,29,08,09,30,,,,,,,1.28,0.65,1.10,4*04
$GNGSA,A,3,25,01,07,08,,,,,,,,,1.28,0.65,1.10,3*02
$GPGSV,4,1,15,03,08,281,34,05,10,129,34,06,20,287,35,16,32,325,36,
0*62
$GPGSV,4,2,15,18,30,137,35,21,71,032,36,22,16,170,35,24,26,038,35,0*67
$GPGSV,4,3,15,29,26,050,36,31,51,232,36,30,33,119,,42,49,127,,0*6C
$GPGSV,4,4,15,50,45,122,,40,21,256,,41,46,235,,0*51
$GBGSV,2,1,08,08,42,324,31,09,13,229,30,26,38,326,31,27,52,293,31,0*76
$GBGSV,2,2,08,29,48,308,32,30,49,357,32,04,35,111,,06,64,258,,0*74
$GAGSV,1,1,04,01,28,055,33,07,21,292,33,08,48,349,34,25,10,072,33,0*78

$GNRMC,120436.00,A,2313.16286,N,11300.00023,E,162.077,0.00,010821,,,A,V*0D
$GNGGA,120436.00,2313.16286,N,11300.00023,E,1,20,0.68,49.6,M,,M,,*63
$GNGSA,A,3,18,21,24,03,05,06,16,29,31,22,,,1.30,0.68,1.11,1*0E
$GNGSA,A,3,26,27,29,08,09,30,,,,,,,1.30,0.68,1.11,4*01
$GNGSA,A,3,25,01,07,08,,,,,,,,,1.30,0.68,1.11,3*07
$GPGSV,4,1,15,03,08,281,35,05,10,129,35,06,20,287,36,
16,32,325,36,0*61
$GPGSV,4,2,15,18,30,137,36,21,71,032,36,22,16,170,35,24,26,038,35,0*64
$GPGSV,4,3,15,29,26,050,35,31,51,232,36,30,33,119,,42,49,127,,0*6F
$GPGSV,4,4,15,50,45,122,,40,21,256,,41,46,235,,0*51
$GBGSV,2,1,08,08,42,324,31,09,13,229,30,26,38,326,31,27,52,293,32,0*75
$GBGSV,2,2,08,29,48,308,31,30,49,357,31,04,35,111,,06,64,258,,0*74
$GAGSV,1,1,04,01,28,055,33,08,48,349,34,25,10,072,33,07,21,292,33,0*78

,,,,,,,,,1.28,0.65,1.10,3*02
$GPGSV,4,1,15,03,08,281,35,05,10,129,34,06,20,287,35,16,32,325,36,0*63
$GPGSV,4,2,15,18,30,137,35,21,71,032,37,22,16,170,35,24,26,038,36,0*65
$GPGSV,4,3,15,29,26,050,35,31,51,232,36,30,33,119,,42,49,127,,0*6F
$GPGSV,4,4,15,50,45,122,,40,21,256,,41,46,235,,0*51
$GBGSV,2,1,08,08,42,324,31,09,13,229,30,26,38,326,31,27,52,293,32,0*
1.10,4*04
$GNGSA,A,3,25,01,07,08,,,,,,,,,1.28,0.65,1.10,3*02
$GPGSV,4,1,15,03,08,281,35,05,10,129,35,06,20,287,36,16,32,325,35,0*62
$GPGSV,4,2,15,18,30,137,36,21,71,032,37,22,16,170,36,24,26,038,36,0*65
$GPGSV,4,3,15,29,26,050,35,31,51,232,36,30,33,119,,42,49,127,,0*6F
$GPGSV,4,4,15,50,45,122,,40,21,256,,41,46,235,,0*51
$GBGSV,2,1,08,08,42,324,31,
$GNRMC,120439.00,A,2313.29831,N,11300.00031,E,161.991,0.02,010821,,,A,V*0B
$GNGGA,120439.00,2313.29831,N,11300.00031,E,1,20,0.65,49.5,M,,M,,*6B
$GNGSA,A,3,18,21,24,03,05,06,16,29,31,22,,,1.28,0.65,1.10,1*0B
$GNGSA,A,3,26,27,29,08,09,30,,,,,,,1.28,0.65,1.10,4*04
$GNGSA,A,3,25,01,07,08,,,,,,,,,1.28,0.65,1.10,3*02
$GPGSV,4,1,15,03,08,281,35,05,10,129,36,06,20,287,36,16,32,325,36,0*62
$GPGS
V,4,2,15,18,30,137,36,21,71,032,37,22,16,170,36,24,26,038,36,0*65
$GPGSV,4,3,15,29,26,050,35,31,51,232,37,30,33,119,,42,49,127,,0*6E
$GPGSV,4,4,15,50,45,122,,40,21,256,,41,46,235,,0*51
$GBGSV,2,1,08,08,42,324,30,09,13,229,30,26,38,326,31,27,52,293,31,0*77
$GBGSV,2,2,08,29,48,308,32,30,49,357,31,04,35,111,,06,64,258,,0*77
$GAGSV,1,1,04,01,28,055,33,07,21,292,33,08,48,349,34,25,10,072,32,0*79

$GNRMC,120440.00,A,2313.34344,N,11300.00030,E,161.923,359.99,010821,,,A,V*05
$GNGGA,120440.00,2313.34344,N,11300.00030,E,1,20,0.65,49.5,M,,M,,*61
$GNGSA,A,3,18,21,24,03,05,06,16,29,31,22,,,1.28,0.65,1.10,1*0B
$GNGSA,A,3,26,27,29,08,09,30,,,,,,,1.28,0.65,1.10,4*04
$GNGSA,A,3,25,01,07,08,,,,,,,,,1.28,0.65,1.10,3*02
$GPGSV,4,1,15,03,08,281,36,05,10
,129,36,06,20,287,36,16,32,325,35,0*62
$GPGSV,4,2,15,18,30,137,36,21,71,032,37,22,16,170,36,24,26,038,36,0*65
$GPGSV,4,3,15,29,26,050,35,31,51,232,36,30,33,119,,42,49,127,,0*6F
$GPGSV,4,4,15,50,45,122,,40,21,256,,41,46,235,,0*51
$GBGSV,2,1,08,08,42,324,31,09,13,229,30,26,38,326,31,27,52,293,31,0*76
$GBGSV,2,2,08,29,48,308,31,30,49,357,31,04,35,111,,06,64,258,,0*74
$GAGSV,1,1,04,01,28,055,34,07,21,292,33,08,48,349,33,25,10,072,33,0*78

,1.10,3*02
$GPGSV,4,1,15,03,08,281,35,05,10,129,35,06,20,287,36,16,32,325,35,0*62
$GPGSV,4,2,15,18,30,137,36,21,71,032,37,22,16,170,36,24,26,038,36,0*65
$GPGSV,4,3,15,29,26,050,35,31,51,232,37,30,33,119,,42,49,127,,0*6E
$GPGSV,4,4,15,50,45,122,,40,21,256,,41,46,235,,0*51
$GBGSV,2,1,08,08,42,324,30,09,13,229,30,26,38,326,31,27,52,293,31,0*77
$GBGSV,2,
0.65,1.10,3*02
$GPGSV,4,1,15,03,08,281,35,05,10,129,35,06,20,287,35,16,32,325,35,0*61
$GPGSV,4,2,15,18,30,137,36,21,71,032,36,22,16,170,35,24,26,038,35,0*64
$GPGSV,4,3,15,29,26,050,36,31,51,232,37,30,33,119,,42,49,127,,0*6D
$GPGSV,4,4,15,50,45,122,,40,21,256,,41,46,235,,0*51
$GBGSV,2,1,08,08,42,324,31,09,13,229,30,26,38,326,31,27,52,293,31,0*76
,08,,,,,,,,,1.28,0.65,1.10,3*02
$GPGSV,4,1,15,03,08,281,35,05,10,129,35,06,20,287,35,16,32,325,36,0*62
$GPGSV,4,2,15,18,30,137,36,21,71,032,37,22,16,170,35,24,26,038,36,0*66
$GPGSV,4,3,15,29,26,050,36,31,51,232,36,30,33,119,,42,49,127,,0*6C
$GPGSV,4,4,15,50,45,122,,40,21,256,,41,46,235,,0*51
$GBGSV,2,1,08,08,42,324,31,09,13,229,30,26,38,326,31,27,52,293,3
,,,,,1.28,0.65,1.10,3*02
$GPGSV,4,1,15,03,08,281,35,05,10,129,35,06,20,287,35,16,32,325,35,0*61
$GPGSV,4,2,15,18,30,137,35,21,71,032,37,22,16,170,35,24,26,038,36,0*65
$GPGSV,4,3,15,29,26,050,36,31,51,232,36,30,33,119,,42,49,127,,0*6C
$GPGSV,4,4,15,50,45,122,,40,21,256,,41,46,235,,0*51
$GBGSV,2,1,08,08,42,324,31,09,13,229,30,26,38,326,31,27,52,293,31,0*76
$
$GNRMC,120445.00,A,2313.56924,N,11300.00028,E,162.016,359.99,010821,,,A,V*0D
$GNGGA,120445.00,2313.56924,N,11300.00028,E,1,20,0.65,49.4,M,,M,,*64
$GNGSA,A,3,18,21,24,03,05,06,16,29,31,22,,,1.28,0.65,1.10,1*0B
$GNGSA,A,3,26,27,29,08,09,30,,,,,,,1.28,0.65,1.10,4*04
$GNGSA,A,3,25,01,07,08,,,,,,,,,1.28,0.65,1.10,3*02
$GPGSV,4,1,15,03,08,281,35,05,10,129,35,06,20,287,35,16,32,325
,36,0*62
$GPGSV,4,2,15,18,30,137,36,21,71,032,36,22,16,170,35,24,26,038,36,0*67
$GPGSV,4,3,15,29,26,050,35,31,51,232,36,30,33,119,,42,49,127,,0*6F
$GPGSV,4,4,15,50,45,122,,40,21,256,,41,46,235,,0*51
$GBGSV,2,1,08,08,42,324,30,09,13,229,30,26,38,326,31,27,52,293,32,0*74
$GBGSV,2,2,08,29,48,308,31,30,49,357,32,04,35,111,,06,64,258,,0*77
$GAGSV,1,1,04,01,28,055,33,07,21,292,33,08,48,349,34,25,10,072,33,0*78

,,,,,,1.28,0.65,1.10,3*02
$GPGSV,4,1,15,03,08,281,35,05,10,129,35,06,20,287,35,16,32,325,36,0*62
$GPGSV,4,2,15,18,30,137,36,21,71,032,37,22,16,170,35,24,26,038,36,0*66
$GPGSV,4,3,15,29,26,050,35,31,51,232,36,30,33,119,,42,49,127,,0*6F
$GPGSV,4,4,15,50,45,122,,40,21,256,,41,46,235,,0*51
$GBGSV,2,1,08,08,42,324,30,09,13,229,30,26,38,326,31,27,52
$GNRMC,120447.00,A,2313.65955,N,11300.00028,E,161.915,0.01,010821,,,A,V*0E
$GNGGA,120447.00,2313.65955,N,11300.00028,E,1,20,0.65,49.2,M,,M,,*66
$GNGSA,A,3,18,21,24,03,05,06,16,29,31,22,,,1.28,0.65,1.10,1*0B
$GNGSA,A,3,26,27,29,08,09,30,,,,,,,1.28,0.65,1.10,4*04
$GNGSA,A,3,25,01,07,08,,,,,,,,,1.28,0.65,1.10,3*02
$GPGSV,4,1,15,03,08,281,35,05,10,129,35,06,20,287,
35,16,32,325,36,0*62
$GPGSV,4,2,15,18,30,137,35,21,71,032,37,22,16,170,35,24,26,038,36,0*65
$GPGSV,4,3,15,29,26,050,36,31,51,232,36,30,33,119,,42,49,127,,0*6C
$GPGSV,4,4,15,50,45,122,,40,21,256,,41,46,235,,0*51
$GBGSV,2,1,08,08,42,324,31,09,13,229,30,26,38,326,31,27,52,293,32,0*75
$GBGSV,2,2,08,29,48,308,31,30,49,357,31,04,35,111,,06,64,258,,0*74
$GAGSV,1,1,04,01,28,055,33,07,21,292,34,08,48,349,34,25,10,072,33,0*7F

5,1.10,3*02
$GPGSV,4,1,15,03,08,281,35,05,10,129,35,06,20,287,36,16,32,325,36,0*61
$GPGSV,4,2,15,18,30,137,35,21,71,032,37,22,16,170,35,24,26,038,36,0*65
$GPGSV,4,3,15,29,26,050,35,31,51,232,37,30,33,119,,42,49,127,,0*6E
$GPGSV,4,4,15,50,45,122,,40,21,256,,41,46,235,,0*51
$GBGSV,2,1,08,08,42,324,30,09,13,229,30,26,38,326,30,27,52,293,31,0*7
$GNRMC,120449.00,A,2313.74040,N,11300.00056,E,122.054,0.21,010821,,,A,V*0D
$GNGGA,120449.00,2313.74040,N,11300.00056,E,1,20,0.65,49.7,M,,M,,*69
$GNGSA,A,3,18,21,24,03,05,06,16,29,31,22,,,1.28,0.65,1.10,1*0B
$GNGSA,A,3,26,27,29,08,09,30,,,,,,,1.28,0.65,1.10,4*04
$GNGSA,A,3,25,01,07,08,,,,,,,,,1.28,0.65,1.10,3*02
$GPGSV,4,1,15,03,08,281,35,05,10,129,35,06,20,287,35,16,32,325,36,0*62
$GPGSV
,4,2,15,18,30,137,35,21,71,032,36,22,16,170,35,24,26,038,35,0*67
$GPGSV,4,3,15,29,26,050,35,31,51,232,36,30,33,119,,42,49,127,,0*6F
$GPGSV,4,4,15,50,45,122,,40,21,256,,41,46,235,,0*51
$GBGSV,2,1,08,08,42,324,30,09,13,229,29,26,38,326,30,27,52,293,31,0*7E
$GBGSV,2,2,08,29,48,308,31,30,49,357,31,04,35,111,,06,64,258,,0*74
$GAGSV,1,1,04,01,28,055,33,07,21,292,33,08,48,349,34,25,10,072,33,0*78

0,4*04
$GNGSA,A,3,25,01,07,08,,,,,,,,,1.28,0.65,1.10,3*02
$GPGSV,4,1,15,03,08,281,35,05,10,129,36,06,20,287,36,16,32,325,35,0*61
$GPGSV,4,2,15,18,30,137,36,21,71,032,37,22,16,170,36,24,26,038,36,0*65
$GPGSV,4,3,15,29,26,051,35,31,51,232,37,30,33,119,,42,49,127,,0*6F
$GPGSV,4,4,15,50,45,122,,40,21,256,,41,46,235,,0*51
$GBGSV,2,1,08,08,42,324,31,09,13,229,29,26,3
$GNRMC,120451.00,A,2313.79294,N,11300.00055,E,66.673,0.07,010821,,,A,V*37
$GNGGA,120451.00,2313.79294,N,11300.00055,E,1,20,0.65,49.7,M,,M,,*65
$GNGSA,A,3,18,21,24,03,05,06,16,29,31,22,,,1.28,0.65,1.10,1*0B
$GNGSA,A,3,26,27,29,08,09,30,,,,,,,1.28,0.65,1.10,4*04
$GNGSA,A,3,25,01,07,08,,,,,,,,,1.28,0.65,1.10,3*02
$GPGSV,4,1,15,03,08,
281,35,05,10,129,35,06,20,287,35,16,32,325,35,0*61
$GPGSV,4,2,15,18,30,137,35,21,71,032,37,22,16,170,35,24,26,038,36,0*65
$GPGSV,4,3,15,29,26,051,36,31,51,232,37,30,33,119,,42,49,127,,0*6C
$GPGSV,4,4,15,50,45,122,,40,21,256,,41,46,235,,0*51
$GBGSV,2,1,08,08,42,324,30,09,13,229,30,26,38,326,31,27,52,293,31,0*77
$GBGSV,2,2,08,29,48,308,31,30,49,357,31,04,35,111,,06,64,259,,0*75
$GAGSV,1,1,04,01,28,055,34,07,21,293,33,08,48,349,34,25,10,072,33,0*7E

,,,,,1.28,0.65,1.10,3*02
$GPGSV,4,1,15,03,08,282,36,05,10,129,35,06,20,287,35,16,32,325,35,0*61
$GPGSV,4,2,15,18,30,137,36,21,71,032,36,22,16,170,35,24,26,038,35,0*64
$GPGSV,4,3,15,29,26,051,35,31,51,232,36,30,33,119,,42,49,127,,0*6E
$GPGSV,4,4,15,50,45,122,,40,21,256,,41,46,235,,0*51
$GBGSV,2,1,08,08,42,324,30,09,13,229,30,26,38,326,30,27,52,293,31,0*7
$GNRMC,120453.00,A,2313.81527,N,11300.00053,E,14.786,0.10,010821,,,A,V*33
$GNGGA,120453.00,2313.81527,N,11300.00053,E,1,20,0.65,49.7,M,,M,,*69
$GNGSA,A,3,18,21,24,03,05,06,16,29,31,22,,,1.28,0.65,1.10,1*0B
$GNGSA,A,3,26,27,29,08,09,30,,,,,,,1.28,0.65,1.10,4*04
$GNGSA,A,3,25,01,07,08,,,,,,,,,1.28,0.65,1.10,3*02
$GPGSV,4,1,15,03,08,282,35,05,10,129,35,06,20,287,35,16,32,325,35,0*6
2
$GPGSV,4,2,15,18,30,137,36,21,71,032,37,22,16,170,35,24,26,038,36,0*66
$GPGSV,4,3,15,29,26,051,36,31,51,232,37,30,33,119,,42,49,127,,0*6C
$GPGSV,4,4,15,50,45,122,,40,21,256,,41,46,235,,0*51
$GBGSV,2,1,08,08,42,324,30,09,13,229,30,26,38,326,31,27,52,293,32,0*74
$GBGSV,2,2,08,29,48,308,31,30,50,357,31,04,35,111,,06,64,259,,0*7D
$GAGSV,1,1,04,01,28,055,34,07,21,293,33,08,48,349,34,25,10,072,33,0*7E

$GNRMC,120454.00,A,2313.81860,N,11300.00116,E,9.341,24.41,010821,,,A,V*3B
$GNGGA,120454.00,2313.81860,N,11300.00116,E,1,20,0.65,50.7,M,,M,,*68
$GNGSA,A,3,18,21,24,03,05,06,16,29,31,22,,,1.28,0.65,1.10,1*0B
$GNGSA,A,3,26,27,29,08,09,30,,,,,,,1.28,0.65,1.10,4*04
$GNGSA,A,3,25,01,07,08,,,,,,,,,1.28,0.65,1.10,3*02
$GPGSV,4,1,15,03,08,282,35,05,10,129,35,06,20
,287,35,16,32,325,36,0*61
$GPGSV,4,2,15,18,30,137,35,21,71,032,37,22,16,170,35,24,26,038,35,0*66
$GPGSV,4,3,15,29,26,051,35,31,51,232,36,30,33,119,,42,49,127,,0*6E
$GPGSV,4,4,15,50,45,122,,40,21,256,,41,46,235,,0*51
$GBGSV,2,1,08,08,42,324,30,09,13,229,29,26,38,326,31,27,52,293,31,0*7F
$GBGSV,2,2,08,29,48,308,31,30,50,357,31,04,35,111,,06,64,259,,0*7D
$GAGSV,1,1,04,01,28,055,33,07,21,293,33,08,48,349,34,25,10,072,33,0*79

,0.67,1.17,4*0D
$GNGSA,A,3,25,01,07,08,,,,,,,,,1.35,0.67,1.17,3*0B
$GPGSV,4,1,15,03,08,282,34,05,10,129,35,06,20,287,35,16,32,325,35,0*63
$GPGSV,4,2,15,18,30,137,36,21,71,032,37,22,16,170,35,24,26,038,35,0*65
$GPGSV,4,3,15,29,26,051,36,31,51,232,36,30,33,119,,42,49,127,,0*6D
$GPGSV,4,4,15,50,45,122,,40,21,256,,41,46,235,,0*51
$GBGSV,2,1,08,08,42,324,31,09,13,22
$GNRMC,120456.00,A,2313.82422,N,11300.00818,E,16.413,72.64,010821,,,A,V*0D
$GNGGA,120456.00,2313.82422,N,11300.00818,E,1,20,0.65,50.4,M,,M,,*67
$GNGSA,A,3,18,21,24,03,05,06,16,29,31,22,,,1.28,0.65,1.10,1*0B
$GNGSA,A,3,26,27,29,08,09,30,,,,,,,1.28,0.65,1.10,4*04
$GNGSA,A,3,25,01,07,08,,,,,,,,,1.28,0.65,1.10,3*02
$GPGSV,4,1,15,03,08,282,35,05,10
,129,35,06,20,287,36,16,32,325,36,0*62
$GPGSV,4,2,15,18,30,137,36,21,71,032,37,22,16,170,35,24,26,038,35,0*65
$GPGSV,4,3,15,29,26,051,35,31,51,232,36,30,33,119,,42,49,127,,0*6E
$GPGSV,4,4,15,50,45,122,,40,21,256,,41,46,235,,0*51
$GBGSV,2,1,08,08,42,324,31,09,13,229,30,26,38,326,31,27,52,293,31,0*76
$GBGSV,2,2,08,29,48,308,31,30,50,357,31,04,35,111,,06,64,259,,0*7D
$GAGSV,1,1,04,01,28,055,33,07,21,293,33,08,48,349,34,25,10,072,32,0*78

5,01,07,08,,,,,,,,,1.28,0.65,1.10,3*02
$GPGSV,4,1,15,03,08,282,34,05,10,129,35,06,20,287,35,16,32,325,35,0*63
$GPGSV,4,2,15,18,30,137,36,21,71,032,36,22,16,170,35,24,26,038,36,0*67
$GPGSV,4,3,15,29,26,051,36,31,51,232,36,30,33,119,,42,49,127,,0*6D
$GPGSV,4,4,15,50,45,122,,40,21,256,,41,46,235,,0*51
$GBGSV,2,1,08,08,42,324,31,09,13,229,30,26,38,326,31,27,52,2
$GNRMC,120458.00,A,2313.82454,N,11300.02099,E,26.711,97.67,010821,,,A,V*0B
$GNGGA,120458.00,2313.82454,N,11300.02099,E,1,20,0.65,50.6,M,,M,,*69
$GNGSA,A,3,18,21,24,03,05,06,16,29,31,22,,,1.28,0.65,1.10,1*0B
$GNGSA,A,3,26,27,29,08,09,30,,,,,,,1.28,0.65,1.10,4*04
$GNGSA,A,3,25,01,07,08,,,,,,,,,1.28,0.65,1.10,3*02
$GPGSV,4,1,15,03,08,282,35,05,10,129,35,06,20,287,36,16,32,325,36,0*62
$GPGSV,4,2,15,18,30,13
7,35,21,71,032,37,22,16,170,35,24,26,038,35,0*66
$GPGSV,4,3,15,29,26,051,36,31,51,232,37,30,33,119,,42,49,127,,0*6C
$GPGSV,4,4,15,50,45,122,,40,21,256,,41,46,235,,0*51
$GBGSV,2,1,08,08,42,324,30,09,13,229,28,26,38,326,31,27,52,293,31,0*7E
$GBGSV,2,2,08,29,48,308,31,30,50,357,31,04,35,111,,06,64,259,,0*7D
$GAGSV,1,1,04,01,28,055,33,07,21,293,33,08,48,349,35,25,10,072,32,0*79

.65,1.10,3*02
$GPGSV,4,1,15,03,08,282,31,05,10,129,33,06,20,287,32,16,32,325,35,0*67
$GPGSV,4,2,15,18,30,137,34,21,71,032,36,22,16,170,35,24,26,038,34,0*67
$GPGSV,4,3,15,29,26,051,34,31,51,232,35,30,33,119,,42,49,127,,0*6C
$GPGSV,4,4,15,50,45,122,,40,21,256,,41,46,235,,0*51
$GBGSV,2,1,08,08,42,324,30,09,13,229,29,26,38,326,30,27,52,293,31,0*7E
$GBGSV,2,2,08,29,4
D
$GNGSA,A,3,25,01,07,08,,,,,,,,,1.35,0.67,1.17,3*0B
$GPGSV,4,1,15,03,08,282,31,05,10,129,33,06,20,287,32,16,32,325,36,0*64
$GPGSV,4,2,15,18,30,137,35,21,71,032,37,22,16,170,35,24,26,038,35,0*66
$GPGSV,4,3,15,29,26,051,34,31,51,232,36,30,33,119,,42,49,127,,0*6F
$GPGSV,4,4,15,50,45,122,,40,21,256,,41,46,235,,0*51
$GBGSV,2,1,08,08,42,324,31,09,13,229,29,26,38
,30,,,,,,,1.28,0.65,1.10,4*04
$GNGSA,A,3,25,01,07,08,,,,,,,,,1.28,0.65,1.10,3*02
$GPGSV,4,1,15,03,08,282,31,05,10,129,33,06,20,287,32,16,32,325,35,0*67
$GPGSV,4,2,15,18,30,137,35,21,71,032,37,22,16,170,35,24,26,038,35,0*66
$GPGSV,4,3,15,29,26,051,34,31,51,232,36,30,33,119,,42,49,127,,0*6F
$GPGSV,4,4,15,50,45,122,,40,21,256,,41,46,235,,0*51
$GBGSV,2,1,

$GNGSA,A,3,25,01,07,08,,,,,,,,,1.32,0.70,1.12,3*0F
$GPGSV,4,1,15,03,08,282,31,05,10,129,33,06,20,287,32,16,32,325,35,0*67
$GPGSV,4,2,15,18,30,137,36,21,71,032,37,22,16,170,35,29,26,051,34,0*66
$GPGSV,4,3,15,31,51,232,36,24,26,038,35,30,33,119,,42,49,127,,0*6C
$GPGSV,4,4,15,50,45,122,,40,21,256,,41,46,235,,0*51
$GBGSV,2,1,08,08,42,324,31,09,1
$GNRMC,120503.00,A,2313.82421,N,11300.19525,E,180.603,89.83,010821,,,A,V*34
$GNGGA,120503.00,2313.82421,N,11300.19525,E,1,20,0.67,52.4,M,,M,,*6E
$GNGSA,A,3,18,21,24,03,05,06,16,29,31,22,,,1.35,0.67,1.17,1*02
$GNGSA,A,3,26,27,29,08,09,30,,,,,,,1.35,0.67,1.17,4*0D
$GNGSA,A,3,25,01,07,08,,,,,,,,,1.35,0.67,1.17,3*0B
$GPGSV,4,1,15,03,08,282,33,05,10,129,34,06,20,287,34,16,32,325,35,0*64
$GPGSV,4,2,15,18,30,137,
35,21,71,032,36,22,16,170,35,24,26,038,34,0*66
$GPGSV,4,3,15,29,26,051,35,31,51,232,35,30,33,119,,42,49,127,,0*6D
$GPGSV,4,4,15,50,45,122,,40,21,256,,41,46,235,,0*51
$GBGSV,2,1,08,08,42,324,30,09,13,229,29,26,38,326,31,27,52,293,31,0*7F
$GBGSV,2,2,08,29,48,308,31,30,50,357,31,04,35,111,,06,64,259,,0*7D
$GAGSV,1,1,04,01,28,055,33,07,21,293,34,08,48,349,34,25,10,072,31,0*7C

2
$GPGSV,4,1,15,03,08,282,34,05,10,129,35,06,20,287,35,16,32,325,36,0*60
$GPGSV,4,2,15,18,30,137,36,21,71,032,36,22,16,170,35,24,26,038,35,0*64
$GPGSV,4,3,15,29,26,051,35,31,51,232,36,30,33,119,,42,49,127,,0*6E
$GPGSV,4,4,15,50,45,122,,40,21,256,,41,46,235,,0*51
$GBGSV,2,1,08,08,42,324,31,09,13,229,30,26,38,326,31,27,52,293,31,0*76
$GBGSV,2
$GNRMC,120505.00,A,2313.82410,N,11300.29356,E,161.988,90.01,010821,,,A,V*30
$GNGGA,120505.00,2313.82410,N,11300.29356,E,1,20,0.65,52.9,M,,M,,*64
$GNGSA,A,3,18,21,24,03,05,06,16,29,31,22,,,1.28,0.65,1.10,1*0B
$GNGSA,A,3,26,27,29,08,09,30,,,,,,,1.28,0.65,1.10,4*04
$GNGSA,A,3,25,01,07,08,,,,,,,,,1.28,0.65,1.10,3*02
$GPGSV,4,1,15,0
3,08,282,35,05,10,129,35,06,20,287,35,16,32,325,36,0*61
$GPGSV,4,2,15,18,30,137,35,21,71,032,37,22,16,170,35,24,26,038,35,0*66
$GPGSV,4,3,15,29,26,051,35,31,51,232,36,30,33,119,,42,49,127,,0*6E
$GPGSV,4,4,15,50,45,122,,40,21,256,,41,46,235,,0*51
$GBGSV,2,1,08,08,42,324,31,09,13,229,30,26,38,326,31,27,52,293,31,0*76
$GBGSV,2,2,08,29,48,308,31,30,50,357,31,04,35,111,,06,64,259,,0*7D
$GAGSV,1,1,04,01,28,055,34,07,21,293,34,08,48,349,34,25,10,072,33,0*79

1.28,0.65,1.10,4*04
$GNGSA,A,3,25,01,07,08,,,,,,,,,1.28,0.65,1.10,3*02
$GPGSV,4,1,15,03,08,282,35,05,10,129,34,06,20,287,35,16,32,325,36,0*60
$GPGSV,4,2,15,18,30,137,36,21,71,032,36,22,16,170,35,24,26,038,36,0*67
$GPGSV,4,3,15,29,26,051,35,31,51,232,36,30,33,119,,42,49,127,,0*6E
$GPGSV,4,4,15,50,45,122,,40,21,256,,41,46,235,,0*51
$GBGSV,2,1,08,08,42,324,3
$GNRMC,120507.00,A,2313.82430,N,11300.39121,E,161.948,90.05,010821,,,A,V*3B
$GNGGA,120507.00,2313.82430,N,11300.39121,E,1,20,0.65,52.4,M,,M,,*6A
$GNGSA,A,3,18,21,24,03,05,06,16,29,31,22,,,1.28,0.65,1.10,1*0B
$GNGSA,A,3,26,27,29,08,09,30,,,,,,,1.28,0.65,1.10,4*04
$GNGSA,A,3,25,01,07,08,,,,,,,,,1.28,0.65,1.10,3*02
$GPGSV,4,1,15,03,08,282,35,05,10,129,35,06,20,287,35,16,32,325
,36,0*61
$GPGSV,4,2,15,18,30,137,36,21,71,032,36,22,16,170,35,24,26,038,36,0*67
$GPGSV,4,3,15,29,26,051,35,31,51,232,36,30,33,119,,42,49,127,,0*6E
$GPGSV,4,4,15,50,45,122,,40,21,256,,41,46,235,,0*51
$GBGSV,2,1,08,08,42,324,31,09,13,229,30,26,38,326,31,27,52,293,31,0*76
$GBGSV,2,2,08,29,48,308,32,30,50,357,31,04,35,111,,06,64,259,,0*7E
$GAGSV,1,1,04,01,28,055,34,07,21,293,33,08,48,349,34,25,10,072,33,0*7E

,4*04
$GNGSA,A,3,25,01,07,08,,,,,,,,,1.28,0.65,1.10,3*02
$GPGSV,4,1,15,03,08,282,35,05,10,129,35,06,20,287,36,16,32,325,35,0*61
$GPGSV,4,2,15,18,30,137,36,21,71,032,37,22,16,170,35,24,26,038,36,0*66
$GPGSV,4,3,15,29,26,051,36,31,51,232,36,30,33,119,,42,49,127,,0*6D
$GPGSV,4,4,15,50,45,122,,40,21,256,,41,46,235,,0*51
$GBGSV,2,1,08,08,42,324,31,09,13,229,30,26,38,
$GNRMC,120509.00,A,2313.82453,N,11300.48946,E,161.885,90.07,010821,,,A,V*3D
$GNGGA,120509.00,2313.82453,N,11300.48946,E,1,20,0.65,52.0,M,,M,,*6A
$GNGSA,A,3,18,21,24,03,05,06,16,29,31,22,,,1.28,0.65,1.10,1*0B
$GNGSA,A,3,26,27,29,08,09,30,,,,,,,1.28,0.65,1.10,4*04
$GNGSA,A,3,25,01,07,08,,,,,,,,,1.28,0.65,1.10,3*02
$GPGSV,4,1,15,03,08,282,35,05,10,129,35,06,20,
287,34,16,32,325,35,0*63
$GPGSV,4,2,15,18,30,137,36,21,71,032,37,22,16,170,35,24,26,038,36,0*66
$GPGSV,4,3,15,29,26,051,36,31,51,232,37,30,33,119,,42,49,127,,0*6C
$GPGSV,4,4,15,50,45,122,,40,21,256,,41,46,235,,0*51
$GBGSV,2,1,08,08,42,324,31,09,13,229,30,26,38,326,31,27,52,293,31,0*76
$GBGSV,2,2,08,29,48,308,32,30,50,357,31,04,35,111,,06,64,259,,0*7E
$GAGSV,1,1,04,01,28,055,33,07,21,293,34,08,48,350,34,25,10,072,32,0*77

$GNRMC,120510.00,A,2313.82460,N,11300.53836,E,161.751,90.05,010821,,,A,V*3D
$GNGGA,120510.00,2313.82460,N,11300.53836,E,1,20,0.69,51.8,M,,M,,*69
$GNGSA,A,3,18,21,24,03,05,06,16,29,31,22,,,1.32,0.69,1.12,1*0E
$GNGSA,A,3,26,27,29,08,09,30,,,,,,,1.32,0.69,1.12,4*01
$GNGSA,A,3,25,01,07,08,,,,,,,,,1.32,0.69,1.12,3*07
$GPGSV,4,1,15,03,08,282,35,05,10,129,35,06,20,287,35,16,32,
325,35,0*62
$GPGSV,4,2,15,18,30,137,36,21,71,032,37,22,16,170,35,29,26,051,36,0*64
$GPGSV,4,3,15,31,51,232,36,24,26,038,35,30,33,119,,42,49,127,,0*6C
$GPGSV,4,4,15,50,45,122,,40,21,256,,41,46,235,,0*51
$GBGSV,2,1,08,08,42,324,31,09,13,229,31,26,38,326,31,27,52,293,31,0*77
$GBGSV,2,2,08,29,48,308,31,30,50,357,32,04,35,111,,06,64,259,,0*7E
$GAGSV,1,1,04,01,28,055,33,07,21,293,33,08,48,350,34,25,10,072,33,0*71

$GNRMC,120511.00,A,2313.82468,N,11300.58741,E,162.004,90.01,010821,,,A,V*30
$GNGGA,120511.00,2313.82468,N,11300.58741,E,1,20,0.67,51.7,M,,M,,*65
$GNGSA,A,3,18,21,24,03,05,06,16,29,31,22,,,1.35,0.67,1.17,1*02
$GNGSA,A,3,26,27,29,08,09,30,,,,,,,1.35,0.67,1.17,4*0D
$GNGSA,A,3,25,01,07,08,,,,,,,,,1.35,0.67,1.17,3*0B
$GPGSV,4,1
,15,03,08,282,35,05,10,129,35,06,20,287,36,16,32,325,36,0*62
$GPGSV,4,2,15,18,30,137,35,21,71,032,37,22,16,170,35,24,26,038,36,0*65
$GPGSV,4,3,15,29,26,051,35,31,51,232,36,30,33,119,,42,49,127,,0*6E
$GPGSV,4,4,15,50,45,122,,40,21,256,,41,46,235,,0*51
$GBGSV,2,1,08,08,42,324,31,09,13,229,30,26,38,326,31,27,52,293,32,0*75
$GBGSV,2,2,08,29,48,308,31,30,50,357,31,04,35,111,,06,64,259,,0*7D
$GAGSV,1,1,04,01,28,055,33,07,21,293,34,08,48,350,34,25,10,072,33,0*76

NGSA,A,3,25,01,07,08,,,,,,,,,1.28,0.65,1.10,3*02
$GPGSV,4,1,15,03,08,282,35,05,10,129,35,06,20,287,36,16,32,325,36,0*62
$GPGSV,4,2,15,18,30,137,35,21,71,032,37,22,16,170,35,24,26,038,36,0*65
$GPGSV,4,3,15,29,26,051,36,31,51,232,36,30,33,119,,42,49,127,,0*6D
$GPGSV,4,4,15,50,45,122,,40,21,256,,41,46,235,,0*51
$GBGSV,2,1,08,08,42,324,31,09,13,229,30,26,38,326,31,27,
$GNRMC,120513.00,A,2313.82493,N,11300.68547,E,161.952,90.00,010821,,,A,V*39
$GNGGA,120513.00,2313.82493,N,11300.68547,E,1,20,0.65,51.2,M,,M,,*63
$GNGSA,A,3,18,21,24,03,05,06,16,29,31,22,,,1.28,0.65,1.10,1*0B
$GNGSA,A,3,26,27,29,08,09,30,,,,,,,1.28,0.65,1.10,4*04
$GNGSA,A,3,25,01,07,08,,,,,,,,,1.28,0.65,1.10,3*02
$GPGSV,4,1,15,03,08,282,35,05,10,129,35,06,20,287,35,16,32,325,36,0*61
$GPGSV,4,2,15,1
8,30,137,36,21,71,032,37,22,16,170,35,24,26,038,36,0*66
$GPGSV,4,3,15,29,26,051,35,31,51,232,36,30,33,119,,42,49,127,,0*6E
$GPGSV,4,4,15,50,45,122,,40,21,256,,41,46,235,,0*51
$GBGSV,2,1,08,08,42,324,30,09,13,229,30,26,38,326,31,27,52,293,31,0*77
$GBGSV,2,2,08,29,48,308,31,30,50,357,31,04,35,111,,06,64,259,,0*7D
$GAGSV,1,1,04,01,28,055,33,07,21,293,33,08,48,350,34,25,10,072,33,0*71

02
$GPGSV,4,1,15,03,08,282,35,05,10,129,36,06,20,287,35,16,32,325,36,0*62
$GPGSV,4,2,15,18,30,137,36,21,71,032,36,22,16,170,35,24,26,038,36,0*67
$GPGSV,4,3,15,29,26,051,35,31,51,232,37,30,32,119,,42,49,127,,0*6E
$GPGSV,4,4,15,50,45,122,,40,21,256,,41,46,235,,0*51
$GBGSV,2,1,08,08,42,324,30,09,13,229,29,26,38,326,31,27,52,292,32,0*7D
$GBGSV,2,2
10,4*04
$GNGSA,A,3,25,01,07,08,,,,,,,,,1.28,0.65,1.10,3*02
$GPGSV,4,1,15,03,08,282,35,05,10,129,34,06,20,287,35,16,32,325,36,0*60
$GPGSV,4,2,15,18,30,137,36,21,71,032,36,22,16,170,35,24,26,038,36,0*67
$GPGSV,4,3,15,29,26,051,35,31,51,232,36,30,32,119,,42,49,127,,0*6F
$GPGSV,4,4,15,50,45,122,,40,21,256,,41,46,235,,0*51
$GBGSV,2,1,08,08,42,324,31,09,13,229,30,26,3
$GNRMC,120516.00,A,2313.82520,N,11300.83218,E,162.010,89.98,010821,,,A,V*38
$GNGGA,120516.00,2313.82520,N,11300.83218,E,1,20,0.65,50.7,M,,M,,*63
$GNGSA,A,3,18,21,24,03,05,06,16,29,31,22,,,1.28,0.65,1.10,1*0B
$GNGSA,A,3,26,27,29,08,09,30,,,,,,,1.28,0.65,1.10,4*04
$GNGSA,A,3,25,01,07,08,,,,,,,,,1.28,0.65,1.10,3*02
$GPGSV,4,1,15,03,08,
282,35,05,10,129,35,06,20,287,36,16,32,325,36,0*62
$GPGSV,4,2,15,18,30,137,36,21,71,032,36,22,16,170,35,24,26,038,35,0*64
$GPGSV,4,3,15,29,26,051,36,31,51,232,36,30,32,119,,42,49,127,,0*6C
$GPGSV,4,4,15,50,45,122,,40,21,256,,41,46,235,,0*51
$GBGSV,2,1,08,08,42,324,31,09,13,229,30,26,38,326,31,27,52,292,31,0*77
$GBGSV,2,2,08,29,48,308,31,30,50,357,31,04,35,111,,06,64,259,,0*7D
$GAGSV,1,1,04,01,28,055,34,07,21,293,33,08,48,350,34,25,10,072,32,0*77

07,08,,,,,,,,,1.28,0.65,1.10,3*02
$GPGSV,4,1,15,03,08,282,35,05,10,129,35,06,20,287,35,16,32,325,36,0*61
$GPGSV,4,2,15,18,30,137,35,21,71,032,36,22,16,170,35,24,26,038,35,0*67
$GPGSV,4,3,15,29,26,051,35,31,51,232,37,30,32,119,,42,49,127,,0*6E
$GPGSV,4,4,15,50,45,122,,40,21,256,,41,46,235,,0*51
$GBGSV,2,1,08,08,42,324,30,09,13,229,30,26,38,326,31,27,52,292,31,
*07
$GPGSV,4,1,15,03,08,282,36,05,10,129,35,06,20,287,36,16,32,325,35,0*62
$GPGSV,4,2,15,18,30,137,35,21,71,032,37,22,16,170,35,24,26,038,36,0*65
$GPGSV,4,3,15,29,26,051,35,31,51,231,36,30,32,119,,42,49,127,,0*6C
$GPGSV,4,4,15,50,45,122,,40,21,256,,41,46,235,,0*51
$GBGSV,2,1,08,08,42,324,30,09,13,229,30,26,38,326,31,27,52,292,32,0*75
$GBGSV,2,2,08,
,3*02
$GPGSV,4,1,15,03,08,282,35,05,10,129,35,06,20,287,35,16,32,325,36,0*61
$GPGSV,4,2,15,18,30,137,35,21,71,032,37,22,16,170,35,24,26,038,36,0*65
$GPGSV,4,3,15,29,26,051,36,31,51,231,36,30,32,119,,42,49,127,,0*6F
$GPGSV,4,4,15,50,45,122,,40,21,256,,41,46,235,,0*51
$GBGSV,2,1,08,08,42,324,30,09,13,229,30,26,38,326,31,27,52,292,32,0*75
$GBGSV,2,2,08,29,48,30
NGSA,A,3,25,01,07,08,,,,,,,,,1.28,0.65,1.10,3*02
$GPGSV,4,1,15,03,08,282,36,05,10,129,35,06,20,287,36,16,32,325,36,0*61
$GPGSV,4,2,15,18,30,137,35,21,71,032,36,22,16,170,36,24,26,038,36,0*67
$GPGSV,4,3,15,29,26,051,36,31,51,231,36,30,32,119,,42,49,127,,0*6F
$GPGSV,4,4,15,50,45,122,,40,21,256,,41,46,235,,0*51
$GBGSV,2,1,08,08,42,324,30,09,13,229,30,26,38,3
$GNRMC,120521.00,A,2313.82547,N,11301.07670,E,162.073,90.09,010821,,,A,V*3F
$GNGGA,120521.00,2313.82547,N,11301.07670,E,1,20,0.65,50.2,M,,M,,*64
$GNGSA,A,3,18,21,24,03,05,06,16,29,31,22,,,1.28,0.65,1.10,1*0B
$GNGSA,A,3,26,27,29,08,09,30,,,,,,,1.28,0.65,1.10,4*04
$GNGSA,A,3,25,01,07,08,,,,,,,,,1.28,0.65,1.10,3*02
$GPGSV,4,1,15,03,08
,282,35,05,09,129,35,06,20,287,36,16,32,325,36,0*6A
$GPGSV,4,2,15,18,30,137,36,21,71,032,37,22,16,170,35,24,26,038,35,0*65
$GPGSV,4,3,15,29,26,051,35,31,51,231,36,30,32,119,,42,49,127,,0*6C
$GPGSV,4,4,15,50,45,122,,40,21,256,,41,46,235,,0*51
$GBGSV,2,1,08,08,42,324,31,09,13,229,30,26,38,326,31,27,52,292,32,0*74
$GBGSV,2,2,08,29,48,308,31,30,50,357,31,04,35,111,,06,64,259,,0*7D
$GAGSV,1,1,04,01,28,055,33,07,21,293,33,08,48,350,34,25,10,072,33,0*71

04
$GNGSA,A,3,25,01,07,08,,,,,,,,,1.28,0.65,1.10,3*02
$GPGSV,4,1,15,03,08,282,35,05,09,129,36,06,20,287,36,16,32,325,36,0*69
$GPGSV,4,2,15,18,30,137,36,21,71,032,37,22,16,170,35,24,26,038,35,0*65
$GPGSV,4,3,15,29,26,051,35,31,51,231,36,30,32,119,,42,49,127,,0*6C
$GPGSV,4,4,15,50,45,122,,40,21,256,,41,46,235,,0*51
$GBGSV,2,1,08,08,42,324,31,0
$GNRMC,120523.00,A,2313.82551,N,11301.17457,E,162.046,90.04,010821,,,A,V*37
$GNGGA,120523.00,2313.82551,N,11301.17457,E,1,20,0.64,50.2,M,,M,,*66
$GNGSA,A,3,18,21,24,03,05,06,16,29,31,22,,,1.28,0.64,1.10,1*0A
$GNGSA,A,3,26,27,29,08,09,30,,,,,,,1.28,0.64,1.10,4*05
$GNGSA,A,3,25,01,07,08,,,,,,,,,1.28,0.64,1.10,3*03
$GPGSV,4,1,15,03,08,282,35,05,09,129,35,0
6,20,287,35,16,32,325,36,0*69
$GPGSV,4,2,15,18,30,137,35,21,71,032,37,22,16,170,35,24,26,038,36,0*65
$GPGSV,4,3,15,29,26,051,36,31,51,231,36,30,32,119,,42,49,127,,0*6F
$GPGSV,4,4,15,50,45,122,,40,21,256,,41,46,235,,0*51
$GBGSV,2,1,08,08,42,324,31,09,13,229,30,26,38,327,32,27,52,292,31,0*75
$GBGSV,2,2,08,29,48,308,31,30,50,357,31,04,35,111,,06,64,259,,0*7D
$GAGSV,1,1,04,01,28,055,33,07,21,293,34,08,48,350,34,25,10,072,32,0*77

3
$GPGSV,4,1,15,03,08,282,35,05,09,129,35,06,20,287,36,16,32,325,36,0*6A
$GPGSV,4,2,15,18,30,137,36,21,71,032,37,22,16,170,35,24,26,038,36,0*66
$GPGSV,4,3,15,29,26,051,35,31,51,231,36,30,32,119,,42,49,127,,0*6C
$GPGSV,4,4,15,50,45,122,,40,21,256,,41,46,235,,0*51
$GBGSV,2,1,08,08,42,324,30,09,13,229,30,26,38,327,31,27,52,292,31,0*77
$GBGSV,2,2,08,29,48
$GNRMC,120525.00,A,2313.82563,N,11301.27231,E,162.189,90.03,010821,,,A,V*30
$GNGGA,120525.00,2313.82563,N,11301.27231,E,1,20,0.64,49.9,M,,M,,*67
$GNGSA,A,3,18,21,24,03,05,06,16,29,31,22,,,1.28,0.64,1.10,1*0A
$GNGSA,A,3,26,27,29,08,09,30,,,,,,,1.28,0.64,1.10,4*05
$GNGSA,A,3,25,01,07,08,,,,,,,,,1.28,0.64,1.10,3*03
$GPGSV,4,1,15,03,08,282,34,05,09,129,35,06,20,287,35,16,3
2,325,36,0*68
$GPGSV,4,2,15,18,30,137,36,21,71,032,36,22,16,170,35,24,26,038,35,0*64
$GPGSV,4,3,15,29,26,051,35,31,51,231,36,30,32,119,,42,49,127,,0*6C
$GPGSV,4,4,15,50,45,122,,40,21,256,,41,46,235,,0*51
$GBGSV,2,1,08,08,42,324,31,09,13,229,30,26,38,327,31,27,52,292,32,0*75
$GBGSV,2,2,08,29,48,308,31,30,50,357,31,04,35,111,,06,64,259,,0*7D
$GAGSV,1,1,04,01,28,055,33,07,21,293,33,08,48,350,34,25,10,072,33,0*71

GNGSA,A,3,25,01,07,08,,,,,,,,,1.28,0.64,1.10,3*03
$GPGSV,4,1,15,03,08,282,35,05,09,129,35,06,20,287,36,16,32,325,36,0*6A
$GPGSV,4,2,15,18,30,137,36,21,71,032,37,22,16,170,35,24,26,038,36,0*66
$GPGSV,4,3,15,29,26,051,36,31,51,231,36,30,32,119,,42,49,127,,0*6F
$GPGSV,4,4,15,50,45,122,,40,21,256,,41,46,235,,0*51
$GBGSV,2,1,08,08,42,324,30,09,13,229,30,26,38,327,31,2
4,1.10,4*05
$GNGSA,A,3,25,01,07,08,,,,,,,,,1.28,0.64,1.10,3*03
$GPGSV,4,1,15,03,08,282,35,05,09,129,34,06,20,287,35,16,32,325,36,0*68
$GPGSV,4,2,15,18,30,137,36,21,71,032,36,22,16,170,35,24,26,038,35,0*64
$GPGSV,4,3,15,29,26,051,35,31,51,231,36,30,32,119,,42,49,127,,0*6C
$GPGSV,4,4,15,50,45,122,,40,21,256,,41,46,235,,0*51
$GBGSV,2,1,08,08,42,324,31,09,13,229,
$GNRMC,120528.00,A,2313.82578,N,11301.41891,E,162.049,90.01,010821,,,A,V*38
$GNGGA,120528.00,2313.82578,N,11301.41891,E,1,20,0.64,49.9,M,,M,,*60
$GNGSA,A,3,18,21,24,03,05,06,16,29,31,22,,,1.28,0.64,1.10,1*0A
$GNGSA,A,3,26,27,29,08,09,30,,,,,,,1.28,0.64,1.10,4*05
$GNGSA,A,3,25,01,07,08,,,,,,,,,1.28,0.64,1.10,3*03
$GPGSV,4,1,15,03,08,282,35,05,09,129,36,06,20
,287,36,16,32,325,36,0*69
$GPGSV,4,2,15,18,30,137,35,21,71,032,37,22,16,170,35,24,26,038,36,0*65
$GPGSV,4,3,15,29,26,051,36,31,51,231,37,30,32,119,,42,49,127,,0*6E
$GPGSV,4,4,15,50,45,122,,40,21,256,,41,46,235,,0*51
$GBGSV,2,1,08,08,42,324,31,09,13,229,30,26,38,327,31,27,52,292,31,0*76
$GBGSV,2,2,08,29,48,308,31,30,50,357,31,04,35,111,,06,64,259,,0*7D
$GAGSV,1,1,04,01,28,055,34,07,21,293,33,08,48,350,34,25,10,072,33,0*76

4,1.10,3*03
$GPGSV,4,1,15,03,08,282,34,05,09,129,35,06,20,287,35,16,32,325,35,0*6B
$GPGSV,4,2,15,18,30,137,35,21,71,032,37,22,16,170,35,24,26,038,36,0*65
$GPGSV,4,3,15,29,26,051,35,31,51,231,36,30,32,119,,42,49,127,,0*6C
$GPGSV,4,4,15,50,45,122,,40,21,256,,41,46,235,,0*51
$GBGSV,2,1,08,08,42,324,30,09,13,229,30,26,38,327,31,27,52,292,31,0*77
$GBGSV,2,2,08,29,48
,,,,,,1.28,0.64,1.10,3*03
$GPGSV,4,1,15,03,08,282,35,05,09,129,34,06,20,287,35,16,32,325,36,0*68
$GPGSV,4,2,15,18,30,137,35,21,71,032,37,22,16,170,34,24,26,038,36,0*64
$GPGSV,4,3,15,29,26,051,35,31,51,231,36,30,32,119,,42,49,127,,0*6C
$GPGSV,4,4,15,50,45,122,,40,21,256,,41,46,235,,0*51
$GBGSV,2,1,08,08,42,324,31,09,13,229,30,26,38,327,31,27,52
28,0.64,1.10,4*05
$GNGSA,A,3,25,01,07,08,,,,,,,,,1.28,0.64,1.10,3*03
$GPGSV,4,1,15,03,08,282,35,05,09,129,35,06,20,287,35,16,32,325,36,0*69
$GPGSV,4,2,15,18,30,137,35,21,71,032,36,22,16,170,35,24,26,038,35,0*67
$GPGSV,4,3,15,29,26,051,36,31,51,231,36,30,32,119,,42,49,127,,0*6F
$GPGSV,4,4,15,50,45,122,,40,21,256,,41,46,235,,0*51
$GBGSV,2,1,08,08,42,324,
$GNRMC,120532.00,A,2313.82581,N,11301.61441,E,161.962,89.94,010821,,,A,V*31
$GNGGA,120532.00,2313.82581,N,11301.61441,E,1,20,0.64,49.4,M,,M,,*63
$GNGSA,A,3,18,21,24,03,05,06,16,29,31,22,,,1.28,0.64,1.10,1*0A
$GNGSA,A,3,26,27,29,08,09,30,,,,,,,1.28,0.64,1.10,4*05
$GNGSA,A,3,25,01,07,08,,,,,,,,,1.28,0.64,1.10,3*03
$GPGSV,4,1,15,03,08,282,35,05,09,129,35,06,20,287,35,16,32,325,36,0*69
$GPG
SV,4,2,15,18,30,137,36,21,71,032,37,22,16,170,35,24,26,038,35,0*65
$GPGSV,4,3,15,29,26,051,35,31,50,231,36,30,32,119,,42,49,127,,0*6D
$GPGSV,4,4,15,50,45,122,,40,21,256,,41,46,235,,0*51
$GBGSV,2,1,08,08,42,324,31,09,13,229,30,26,38,327,31,27,52,292,31,0*76
$GBGSV,2,2,08,29,48,308,31,30,50,357,32,04,35,111,,06,64,259,,0*7E
$GAGSV,1,1,04,01,28,055,34,07,21,293,34,08,48,350,34,25,10,072,33,0*71

01,07,08,,,,,,,,,1.28,0.64,1.10,3*03
$GPGSV,4,1,15,03,08,282,35,05,09,129,35,06,20,287,36,16,32,325,36,0*6A
$GPGSV,4,2,15,18,30,137,36,21,71,032,37,22,16,170,35,24,26,038,35,0*65
$GPGSV,4,3,15,29,26,051,35,31,50,231,37,30,32,119,,42,49,127,,0*6C
$GPGSV,4,4,15,50,45,122,,40,21,256,,41,46,235,,0*51
$GBGSV,2,1,08,08,42,324,31,09,13,229,30,26,38,32
$GNRMC,120534.00,A,2313.82586,N,11301.71218,E,162.061,89.98,010821,,,A,V*3E
$GNGGA,120534.00,2313.82586,N,11301.71218,E,1,20,0.64,49.5,M,,M,,*68
$GNGSA,A,3,18,21,24,03,05,06,16,29,31,22,,,1.28,0.64,1.10,1*0A
$GNGSA,A,3,26,27,29,08,09,30,,,,,,,1.28,0.64,1.10,4*05
$GNGSA,A,3,25,01,07,08,,,,,,,,,1.28,0.64,1.10,3*03
$GPGSV,4,1,15,03,08,282,35,05,09,129,35,06,20,287,36,16,
32,325,36,0*6A
$GPGSV,4,2,15,18,30,137,36,21,71,032,36,22,16,170,35,24,26,038,35,0*64
$GPGSV,4,3,15,29,26,051,35,31,50,231,36,30,32,119,,42,49,127,,0*6D
$GPGSV,4,4,15,50,45,122,,40,21,256,,41,46,235,,0*51
$GBGSV,2,1,08,08,42,324,31,09,13,229,30,26,38,327,31,27,52,292,31,0*76
$GBGSV,2,2,08,29,48,308,31,30,50,357,31,04,35,111,,06,64,259,,0*7D
$GAGSV,1,1,04,01,28,055,33,07,21,293,33,08,48,350,34,25,10,072,33,0*71

,,,1.28,0.64,1.10,3*03
$GPGSV,4,1,15,03,08,282,35,05,09,129,35,06,20,287,35,16,32,325,35,0*6A
$GPGSV,4,2,15,18,30,137,36,21,71,032,36,22,16,170,35,24,26,038,36,0*67
$GPGSV,4,3,15,29,26,051,36,31,50,231,36,30,32,119,,42,49,127,,0*6E
$GPGSV,4,4,15,50,45,122,,40,21,256,,41,46,235,,0*51
$GBGSV,2,1,08,08,42,324,31,09,13,229,30,26,39,327,31,27,52,292,31,0*77
,,,,,,,1.28,0.64,1.10,3*03
$GPGSV,4,1,15,03,08,282,35,05,09,129,34,06,20,287,35,16,32,325,35,0*6B
$GPGSV,4,2,15,18,30,137,35,21,71,032,36,22,16,170,35,24,26,038,36,0*64
$GPGSV,4,3,15,29,26,051,36,31,50,231,36,30,32,119,,42,49,127,,0*6E
$GPGSV,4,4,15,50,45,122,,40,21,256,,41,46,235,,0*51
$GBGSV,2,1,08,08,42,324,31,09,13,229,30,26,39,327,31,27,52,292,31,0*77
$GBGS
1.28,0.64,1.10,4*05
$GNGSA,A,3,25,01,07,08,,,,,,,,,1.28,0.64,1.10,3*03
$GPGSV,4,1,15,03,08,282,35,05,09,129,35,06,20,287,36,16,32,325,35,0*69
$GPGSV,4,2,15,18,30,137,36,21,71,032,37,22,16,170,35,24,26,038,36,0*66
