$GNRMC,000229.00,A,3000.11078,N,12000.02707,E,75.663,24.06,230721,,,A,V*0A
$GNGGA,000229.00,3000.11078,N,12000.02707,E,1,09,1.04,-2.0,M,,M,,*7B
$GNGSA,A,3,,,,,,,,,,,,,2.05,1.04,1.77,1*02
$GNGSA,A,3,06,09,13,04,02,01,14,11,12,,,,2.05,1.04,1.77,4*0B
$GNGSA,A,3,,,,,,,,,,,,,2.05,1.04,1.77,3*00
$GPGSV,1,1,00,0*65
$GBGSV,3,1,0
9,01,37,122,35,02,50,173,35,04,36,125,35,06,36,215,35,0*78
$GBGSV,3,2,09,09,36,286,35,11,18,130,35,12,10,059,34,13,47,201,35,0*79
$GBGSV,3,3,09,14,08,164,34,0*47
$GAGSV,1,1,00,0*74

$GNRMC,000230.00,A,3000.12962,N,12000.03782,E,75.784,28.47,230721,,,A,V*0E
$GNGGA,000230.00,3000.12962,N,12000.03782,E,1,09,1.04,-2.0,M,,M,,*7E
$GNGSA,A,3,,,,,,,,,,,,,2.05,1.04,1.77,1*02
$GNGSA,A,3,06,09,13,04,02,01,14,11,12,,,,2.05,1.04,1.77,4*0B
$GNGSA,A,3,,,,,,,,,,,,,2.05,1.04,1.7
7,3*00
$GPGSV,1,1,00,0*65
$GBGSV,3,1,09,01,37,122,35,02,50,173,36,04,36,125,35,06,36,215,35,0*7B
$GBGSV,3,2,09,09,36,286,35,11,18,130,35,12,10,059,35,13,47,201,35,0*78
$GBGSV,3,3,09,14,08,164,34,0*47
$GAGSV,1,1,00,0*74

$GNRMC,000231.00,A,3000.14771,N,12000.05019,E,75.624,33.01,230721,,,A,V*05
$GNGGA,000231.00,3000.14771,N,12000.05019,E,1,09,1.04,-1.9,M,,M,,*7C
$GNGSA,A,3,,,,,,,,,,,,,2.05,1.04,1.77,1*02
$GNGSA,A,3,06,09,13,04,02,01,14,11,12,,,,2.05,1.04,1.77,4*0B
$GNGSA,A,3,,,,,,,,,,,,,2.05,1.04,1.77,3*00
$GPGSV,1,1,00,0*65
$GBGSV,3,1,09,01,37,122,36,02,50,173,36,04,36,125,35,0
6,36,215,35,0*78
$GBGSV,3,2,09,09,36,286,35,11,18,130,35,12,10,059,35,13,47,201,35,0*78
$GBGSV,3,3,09,14,08,164,34,0*47
$GAGSV,1,1,00,0*74

$GNRMC,000232.00,A,3000.16489,N,12000.06412,E,75.562,37.53,230721,,,A,V*0E
$GNGGA,000232.00,3000.16489,N,12000.06412,E,1,09,1.04,-2.1,M,,M,,*7E
$GNGSA,A,3,,,,,,,,,,,,,2.05,1.04,1.77,1*02
$GNGSA,A,3,06,09,13,04,02,01,14,11,12,,,,2.05,1.04,1.77,4*0B
$GNGSA,A,3,,,,,,,,,,,,,2.05,1.04,1.77,3*00
$GPGSV,1,1,00,0*65
$GBGSV,3,1,09,01,37,122,35,02,50,1
73,35,04,36,125,35,06,36,215,35,0*78
$GBGSV,3,2,09,09,36,286,35,11,18,130,34,12,10,059,35,13,47,201,35,0*79
$GBGSV,3,3,09,14,08,164,35,0*46
$GAGSV,1,1,00,0*74

$GNRMC,000233.00,A,3000.18104,N,12000.07958,E,75.616,41.95,230721,,,A,V*08
$GNGGA,000233.00,3000.18104,N,12000.07958,E,1,09,1.04,-1.9,M,,M,,*78
$GNGSA,A,3,,,,,,,,,,,,,2.05,1.04,1.77,1*02
$GNGSA,A,3,06,09,13,04,02,01,14,11,12,,,,2.05,1.04,1.77,4*0B
$GNGSA,A,3,,,,,,,,,,,,,2.05,1.04,1.77,3*00
$GPGSV,1,1,00,0*65
$GBGSV,3,1,09,01,37,122,35,02,50,173,35,04,36,12
5,36,06,36,215,35,0*7B
$GBGSV,3,2,09,09,36,286,35,11,18,130,35,12,10,059,35,13,47,201,35,0*78
$GBGSV,3,3,09,14,08,164,34,0*47
$GAGSV,1,1,00,0*74

$GNRMC,000234.00,A,3000.19613,N,12000.09639,E,75.555,46.32,230721,,,A,V*07
$GNGGA,000234.00,3000.19613,N,12000.09639,E,1,09,1.04,-2.1,M,,M,,*72
$GNGSA,A,3,,,,,,,,,,,,,2.05,1.04,1.77,1*02
$GNGSA,A,3,06,09,13,04,02,01,14,11,12,,,,2.05,1.04,1.77,4*0B
$GNGSA,A,3,,,,,,,,,,,,,2.05,1.04,1.77,3*00
$GPGSV,1,1,00,0*65
$GBGSV,3,1,09,01,37,122,
35,02,50,173,35,04,36,125,35,06,36,215,35,0*78
$GBGSV,3,2,09,09,36,286,34,11,18,130,35,12,10,059,35,13,47,201,35,0*79
$GBGSV,3,3,09,14,08,164,35,0*46
$GAGSV,1,1,00,0*74

$GNRMC,000235.00,A,3000.21004,N,12000.11449,E,75.609,50.78,230721,,,A,V*02
$GNGGA,000235.00,3000.21004,N,12000.11449,E,1,09,1.04,-2.2,M,,M,,*77
$GNGSA,A,3,,,,,,,,,,,,,2.05,1.04,1.77,1*02
$GNGSA,A,3,06,09,13,04,02,01,14,11,12,,,,2.05,1.04,1.77,4*0B
$GNGSA,A,3,,,,,,,,,,,,,2.05,1.04,1.77,3*00
$GPGSV,1,1,00,0*65
$GBGSV,3,1,09,01,37,12
2,36,02,50,173,35,04,36,125,35,06,36,215,35,0*7B
$GBGSV,3,2,09,09,36,286,36,11,18,130,35,12,10,059,35,13,47,201,35,0*7B
$GBGSV,3,3,09,14,08,164,34,0*47
$GAGSV,1,1,00,0*74

$GNRMC,000236.00,A,3000.22267,N,12000.13382,E,75.645,55.35,230721,,,A,V*03
$GNGGA,000236.00,3000.22267,N,12000.13382,E,1,09,1.04,-2.2,M,,M,,*72
$GNGSA,A,3,,,,,,,,,,,,,2.05,1.04,1.77,1*02
$GNGSA,A,3,06,09,13,04,02,01,14,11,12,,,,2.05,1.04,1.77,4*0B
$GNGSA,A,3,,,,,,,,,,,,,2.05,1.04,1.77,3*00
$GPGSV,1,1,00,0*65
$GBGSV,3,1,09,01,37,122,35,02,50,173,
35,04,36,125,35,06,36,215,35,0*78
$GBGSV,3,2,09,09,36,286,35,11,18,130,34,12,10,059,35,13,47,201,36,0*7A
$GBGSV,3,3,09,14,08,164,35,0*46
$GAGSV,1,1,00,0*74

$GNRMC,000237.00,A,3000.23396,N,12000.15421,E,75.609,59.76,230721,,,A,V*07
$GNGGA,000237.00,3000.23396,N,12000.15421,E,1,09,1.04,-2.3,M,,M,,*74
$GNGSA,A,3,,,,,,,,,,,,,2.05,1.04,1.77,1*02
$GNGSA,A,3,06,09,13,04,02,01,14,11,12,,,,2.05,1.04,1.77,4*0B
$GNGSA,A,3,,,,,,,,,,,,,2.05,1.04,1.77,3*00
$GPGSV,1,1,00,0*65
$GBGSV,3,1,09,01,37,122,35,02,50,1
73,35,04,36,125,35,06,36,215,35,0*78
$GBGSV,3,2,09,09,36,286,35,11,18,130,35,12,10,059,35,13,47,201,35,0*78
$GBGSV,3,3,09,14,08,164,35,0*46
$GAGSV,1,1,00,0*74

$GNRMC,000238.00,A,3000.24384,N,12000.17554,E,75.584,64.20,230721,,,A,V*06
$GNGGA,000238.00,3000.24384,N,12000.17554,E,1,09,1.04,-2.4,M,,M,,*79
$GNGSA,A,3,,,,,,,,,,,,,2.05,1.04,1.77,1*02
$GNGSA,A,3,06,09,13,04,02,01,14,11,12,,,,2.05,1.04,1.77,4*0B
$GNGSA,A,3,,,,,,,,,,,,,2.05,1.04,1.77,3*00
$GPGSV,1,1,00,0*65

$GBGSV,3,1,09,01,37,122,35,02,50,173,35,04,36,125,35,06,36,215,35,0*78
$GBGSV,3,2,09,09,36,286,35,11,18,130,35,12,10,059,34,13,47,201,35,0*79
$GBGSV,3,3,09,14,08,164,35,0*46
$GAGSV,1,1,00,0*74

$GNRMC,000239.00,A,3000.25224,N,12000.19767,E,75.506,68.61,230721,,,A,V*02
$GNGGA,000239.00,3000.25224,N,12000.19767,E,1,09,1.04,-2.6,M,,M,,*7C
$GNGSA,A,3,,,,,,,,,,,,,2.05,1.04,1.77,1*02
$GNGSA,A,3,06,09,13,04,02,01,14,11,12,,,,2.05,1.04,1.77,4*0B
$GNGSA,A,3,,,,,
,,,,,,,,2.05,1.04,1.77,3*00
$GPGSV,1,1,00,0*65
$GBGSV,3,1,09,01,37,122,35,02,50,173,36,04,36,125,35,06,36,215,35,0*7B
$GBGSV,3,2,09,09,36,286,35,11,18,130,35,12,10,059,35,13,47,201,35,0*78
$GBGSV,3,3,09,14,08,164,35,0*46
$GAGSV,1,1,00,0*74

$GNRMC,000240.00,A,3000.25913,N,12000.22049,E,75.587,73.15,230721,,,A,V*00
$GNGGA,000240.00,3000.25913,N,12000.22049,E,1,09,1.04,-2.7,M,,M,,*7F
$GNGSA,A,3,,,,,,,,,,,,,2.05,1.04,1.77,1*02
$GNGSA,A,3,06,09,13,04,02,01,14,11,12,,,,2.05,1.04,1.77,4*0B
$GNGSA,A,3,,,,,,,,,,,,,2.05,1.04,1.77,3*00
$GPGSV,1,1,00,0*65
$GBGSV,3,1,09,01,37,122,35,02,50,173,36,04,36,125,35,06,36,215,35,0*7B
$GBGSV,3,2,09,09,3
6,286,35,11,18,130,35,12,10,059,35,13,47,201,35,0*78
$GBGSV,3,3,09,14,08,164,35,0*46
$GAGSV,1,1,00,0*74

$GNRMC,000241.00,A,3000.26444,N,12000.24387,E,75.632,77.59,230721,,,A,V*0B
$GNGGA,000241.00,3000.26444,N,12000.24387,E,1,09,1.04,-2.5,M,,M,,*77
$GNGSA,A,3,,,,,,,,,,,,,2.05,1.04,1.77,1*02
$GNGSA,A,3,06,09,13,04,02,01,14,11,12,,,,2.05,1.04,1.77,4*0B
$GNGSA,A,3,,,,,,,,,,,,,2.05,1.04,1.77,3*00
$GPGSV,1,1,00,0*65
$GBGSV,3,1,09,01,37,122,35,02,50,17
3,35,04,36,125,35,06,36,215,35,0*78
$GBGSV,3,2,09,09,36,286,35,11,18,130,34,12,10,059,34,13,47,201,35,0*78
$GBGSV,3,3,09,14,08,164,34,0*47
$GAGSV,1,1,00,0*74

$GNRMC,000242.00,A,3000.26814,N,12000.26765,E,75.580,82.07,230721,,,A,V*00
$GNGGA,000242.00,3000.26814,N,12000.26765,E,1,09,1.04,-2.5,M,,M,,*77
$GNGSA,A,3,,,,,,,,,,,,,2.05,1.04,1.77,1*02
$GNGSA,A,3,06,09,13,04,02,01,14,11,12,,,,2.05,1.04,1.77,4*0B
$GNGSA,A,3,,,,,,,,,,,,,2.05,1.04,1.77,3*00
$GPGSV,1,1,00,0*65

$GBGSV,3,1,09,01,37,122,36,02,50,173,36,04,36,125,35,06,36,215,36,0*7B
$GBGSV,3,2,09,09,36,286,35,11,18,130,35,12,10,059,35,13,47,201,35,0*78
$GBGSV,3,3,09,14,08,164,34,0*47
$GAGSV,1,1,00,0*74

$GNRMC,000243.00,A,3000.27023,N,12000.29171,E,75.585,86.42,230721,,,A,V*00
$GNGGA,000243.00,3000.27023,N,12000.29171,E,1,09,1.04,-2.3,M,,M,,*71
$GNGSA,A,3,,,,,,,,,,,,,2.05,1.04,1.77,1*02
$GNGSA,A,3,06,09,13,04,02,01,14,11,12,,,,2.05,1.04,1.77,4*0B
$GNGSA,A,3,,,,,,,,,,,,,2.05,1.04,1.77,3*00
$GPGSV,1,1,00,0*65

$GBGSV,3,1,09,01,37,122,35,02,50,173,36,04,36,125,36,06,36,215,34,0*79
$GBGSV,3,2,09,09,36,286,35,11,18,130,35,12,10,059,35,13,47,201,35,0*78
$GBGSV,3,3,09,14,08,164,34,0*47
$GAGSV,1,1,00,0*74

$GNRMC,000244.00,A,3000.27072,N,12000.31588,E,75.736,90.94,230721,,,A,V*0E
$GNGGA,000244.00,3000.27072,N,12000.31588,E,1,09,1.04,-2.3,M,,M,,*79
$GNGSA,A,3,,,,,,,,,,,,,2.05,1.04,1.77,1*02
$GNGSA,A,3,06,09,13,04,02,01,14,11,12,,,,2.05,1.04,1.77,4*0B
$GNGSA,A,3,,,,,,,,,,,,,2.05,1.04,1.77,3*00
$GPGSV,1,1,00,0*65
$GBGSV,3,1,09,01,37,122,35,02,50,173,35,0
4,36,125,35,06,36,215,35,0*78
$GBGSV,3,2,09,09,36,286,35,11,18,130,35,12,10,059,34,13,47,201,35,0*79
$GBGSV,3,3,09,14,08,164,35,0*46
$GAGSV,1,1,00,0*74

$GNRMC,000245.00,A,3000.26953,N,12000.34002,E,75.656,95.39,230721,,,A,V*03
$GNGGA,000245.00,3000.26953,N,12000.34002,E,1,09,1.04,-2.4,M,,M,,*76
$GNGSA,A,3,,,,,,,,,,,,,2.05,1.04,1.77,1*02
$GNGSA,A,3,06,09,13,04,02,01,14,11,12,,,,2.05,1.04,1.77,4*0B
$GNGSA,A,3,,,,,,,,,,,,,2.05,1.04,1.77,3*00
$GPGS
V,1,1,00,0*65
$GBGSV,3,1,09,01,37,122,35,02,50,173,35,04,36,125,35,06,36,215,35,0*78
$GBGSV,3,2,09,09,36,286,35,11,18,130,35,12,10,059,35,13,47,201,35,0*78
$GBGSV,3,3,09,14,08,164,34,0*47
$GAGSV,1,1,00,0*74

$GNRMC,000246.00,A,3000.26673,N,12000.36399,E,75.652,99.88,230721,,,A,V*0C
$GNGGA,000246.00,3000.26673,N,12000.36399,E,1,09,1.04,-2.3,M,,M,,*7C
$GNGSA,A,3,,,,,,,,,,,,,2.05,1.04,1.77,1*02
$GNGSA,A,3,06,09,13,04,02,01,14,11,12,,,,2.05,1.04,1.77,4*0B
$GNGSA,A,3,,,,,,,,,,,,,2.05,1.04,1.77,3*00
$GPGSV,1,1,00,0*65
$GBGSV,3,1,09,01,37,
122,36,02,50,173,35,04,36,125,34,06,36,215,35,0*7A
$GBGSV,3,2,09,09,36,286,35,11,18,130,35,12,10,059,35,13,47,201,35,0*78
$GBGSV,3,3,09,14,08,164,35,0*46
$GAGSV,1,1,00,0*74

$GNRMC,000247.00,A,3000.26232,N,12000.38762,E,75.548,104.30,230721,,,A,V*3C
$GNGGA,000247.00,3000.26232,N,12000.38762,E,1,09,1.04,-2.4,M,,M,,*75
$GNGSA,A,3,,,,,,,,,,,,,2.05,1.04,1.77,1*02
$GNGSA,A,3,06,09,13,04,02,01,14,11,12,,,,2.05,1.04,1.77,4*0B
$GNGSA,A,3,,,,,,,,,,,,,2.05,1.04,1.77,3*00
$GPGSV,1,1,00,0*65
$GBGSV,3,1,09,01,37,122,36,02,50,1
73,35,04,36,125,35,06,36,215,35,0*7B
$GBGSV,3,2,09,09,36,286,35,11,18,130,35,12,10,059,35,13,47,201,35,0*78
$GBGSV,3,3,09,14,08,164,35,0*46
$GAGSV,1,1,00,0*74

$GNRMC,000248.00,A,3000.25634,N,12000.41078,E,75.616,108.74,230721,,,A,V*34
$GNGGA,000248.00,3000.25634,N,12000.41078,E,1,09,1.04,-2.5,M,,M,,*78
$GNGSA,A,3,,,,,,,,,,,,,2.05,1.04,1.77,1*02
$GNGSA,A,3,06,09,13,04,02,01,14,11,12,,,,2.05,1.04,1.77,4*0B
$GNGSA,A,3,,,,,,,,,,,,,2.05,1.04,1.77,3*00
$GPGSV,1,1,00,0*65
$GBGSV,3,1,09,01,37,122,35,02,50,1
73,36,04,36,125,36,06,36,215,35,0*78
$GBGSV,3,2,09,09,36,286,35,11,18,130,35,12,10,059,35,13,47,201,35,0*78
$GBGSV,3,3,09,14,08,164,34,0*47
$GAGSV,1,1,00,0*74

$GNRMC,000249.00,A,3000.24880,N,12000.43334,E,75.609,113.27,230721,,,A,V*3E
$GNGGA,000249.00,3000.24880,N,12000.43334,E,1,09,1.04,-2.5,M,,M,,*70
$GNGSA,A,3,,,,,,,,,,,,,2.05,1.04,1.77,1*02
$GNGSA,A,3,06,09,13,04,02,01,14,11,12,,,,2.05,1.04,1.77,4*0B
$GNGSA,A,3,,,,,,,,,,,,,2.05,1.04,1.77,3*00
$GPGSV,1,1,00,0*65
$GBGSV,3,1,09,01,37,122,35,02,50,173,36,04,36
,125,35,06,36,215,35,0*7B
$GBGSV,3,2,09,09,36,286,35,11,18,130,35,12,10,059,35,13,47,201,35,0*78
$GBGSV,3,3,09,14,08,164,34,0*47
$GAGSV,1,1,00,0*74

$GNRMC,000250.00,A,3000.23976,N,12000.45516,E,75.555,117.63,230721,,,A,V*37
$GNGGA,000250.00,3000.23976,N,12000.45516,E,1,09,1.04,-2.5,M,,M,,*77
$GNGSA,A,3,,,,,,,,,,,,,2.05,1.04,1.77,1*02
$GNGSA,A,3,06,09,13,04,02,01,14,11,12,,,,2.05,1.04,1.77,4*0B
$GNGSA,A,3,,,,,,,,,,,,,2.05,1.04,1.77,3*00
$GPGSV,1,1,00,0*65
$GBGSV,3,1,09,01,37,122,35,02,50,173,36,04,36,125,36,06,36,215,35,0*78
$GBGSV,3
,2,09,09,36,286,36,11,18,130,35,12,10,059,34,13,47,201,35,0*7A
$GBGSV,3,3,09,14,08,164,34,0*47
$GAGSV,1,1,00,0*74

$GNRMC,000251.00,A,3000.22927,N,12000.47612,E,75.524,122.06,230721,,,A,V*35
$GNGGA,000251.00,3000.22927,N,12000.47612,E,1,09,1.04,-2.5,M,,M,,*76
$GNGSA,A,3,,,,,,,,,,,,,2.05,1.04,1.77,1*02
$GNGSA,A,3,06,09,13,04,02,01,14,11,12,,,,2.05,1.04,1.77,4*0B
$GNGSA,A,3,,,,,,,,,,,,,2.05,1.04,1.77,3*00
$GPGSV,1,1,00,0*65
$GBGSV,3,1,09,01,37,122,35,02,50,173,35,04,36,125,36,06,36,215,35,0*7B
$GBGSV,3
,2,09,09,36,286,35,11,18,130,35,12,10,059,35,13,47,201,35,0*78
$GBGSV,3,3,09,14,08,164,34,0*47
$GAGSV,1,1,00,0*74

$GNRMC,000252.00,A,3000.21742,N,12000.49606,E,75.686,126.64,230721,,,A,V*38
$GNGGA,000252.00,3000.21742,N,12000.49606,E,1,09,1.04,-2.5,M,,M,,*70
$GNGSA,A,3,,,,,,,,,,,,,2.05,1.04,1.77,1*02
$GNGSA,A,3,06,09,13,04,02,01,14,11,12,,,,2.05,1.04,1.77,4*0B
$GNGSA,A,3,,,,,,,,,,,,,2.05,1.04,1.77,3*00
$GPGSV,1,1,00,0*65
$GBGSV,3,1,09,01,37,
122,36,02,50,173,35,04,36,125,36,06,36,215,35,0*78
$GBGSV,3,2,09,09,36,286,35,11,18,130,35,12,10,059,35,13,47,201,35,0*78
$GBGSV,3,3,09,14,08,164,34,0*47
$GAGSV,1,1,00,0*74

$GNRMC,000253.00,A,3000.20421,N,12000.51488,E,75.634,131.07,230721,,,A,V*39
$GNGGA,000253.00,3000.20421,N,12000.51488,E,1,09,1.04,-2.5,M,,M,,*7B
$GNGSA,A,3,,,,,,,,,,,,,2.05,1.04,1.77,1*02
$GNGSA,A,3,06,09,13,04,02,01,14,11,12,,,,2.05,1.04,1.77,4*0B
$GNGSA,A,3,,,,,,,,,,,,,2.05,1.04,1.77,3*00
$GPGSV,1,1,00,0*65
$GBGSV,3,1,09,01,37,122,35,02,50,173
,35,04,36,125,35,06,36,215,35,0*78
$GBGSV,3,2,09,09,36,286,35,11,19,130,35,12,10,059,34,13,47,201,35,0*78
$GBGSV,3,3,09,14,08,164,35,0*46
$GAGSV,1,1,00,0*74

$GNRMC,000254.00,A,3000.18980,N,12000.53247,E,75.565,135.44,230721,,,A,V*30
$GNGGA,000254.00,3000.18980,N,12000.53247,E,1,09,1.04,-2.4,M,,M,,*77
$GNGSA,A,3,,,,,,,,,,,,,2.05,1.04,1.77,1*02
$GNGSA,A,3,06,09,13,04,02,01,14,11,12,,,,2.05,1.04,1.77,4*0B
$GNGSA,A,3,,,,,,,,,,,,,2.05,1.04,1.77,3*00
$GPGSV,1,1,00,0*65
$GBGSV,3,1,09,01,37,1
22,35,02,50,173,35,04,36,125,35,06,36,215,35,0*78
$GBGSV,3,2,09,09,36,286,35,11,19,130,35,12,10,059,35,13,47,201,35,0*79
$GBGSV,3,3,09,14,08,164,34,0*47
$GAGSV,1,1,00,0*74

$GNRMC,000255.00,A,3000.17423,N,12000.54873,E,75.642,139.96,230721,,,A,V*35
$GNGGA,000255.00,3000.17423,N,12000.54873,E,1,09,1.04,-2.3,M,,M,,*70
$GNGSA,A,3,,,,,,,,,,,,,2.05,1.04,1.77,1*02
$GNGSA,A,3,06,09,13,04,02,01,14,11,12,,,,2.05,1.04,1.77,4*0B
$GNGSA,A,3,,,,,,,,,,,,,2.05,1.04,1.77,3*00
$GPGSV,1,1,00,0*65
$GBGSV,3,1,09,01,37,122,35,02,50,173,35,04,36,125,36,06,36,215,35,0*7B

$GBGSV,3,2,09,09,36,286,35,11,19,130,35,12,10,059,34,13,47,201,35,0*78
$GBGSV,3,3,09,14,08,164,34,0*47
$GAGSV,1,1,00,0*74

$GNRMC,000256.00,A,3000.15759,N,12000.56353,E,75.588,144.50,230721,,,A,V*34
$GNGGA,000256.00,3000.15759,N,12000.56353,E,1,09,1.04,-2.3,M,,M,,*74
$GNGSA,A,3,,,,,,,,,,,,,2.05,1.04,1.77,1*02
$GNGSA,A,3,06,09,13,04,02,01,14,11,12,,,,2.05,1.04,1.77,4*0B
$GNGSA,A,3,,,,,,,,,,,,,2.05,1.04,1.77,3*00
$GPGSV,1,1,00,0*65
$GBGSV,3,1,09,01,37,122,35,02,50,173,35,04,3
6,125,35,06,36,215,35,0*78
$GBGSV,3,2,09,09,36,286,35,11,19,130,35,12,10,059,35,13,47,201,35,0*79
$GBGSV,3,3,09,14,08,164,34,0*47
$GAGSV,1,1,00,0*74

$GNRMC,000257.00,A,3000.14003,N,12000.57681,E,75.636,148.82,230721,,,A,V*32
$GNGGA,000257.00,3000.14003,N,12000.57681,E,1,09,1.04,-2.3,M,,M,,*77
$GNGSA,A,3,,,,,,,,,,,,,2.05,1.04,1.77,1*02
$GNGSA,A,3,06,09,13,04,02,01,14,11,12,,,,2.05,1.04,1.77,4*0B
$GNGSA,A,3,,,,,,,,,,,,,2.05,1.04,1.77,3*00
$GPGSV,1,1,00,0*65
$GBGSV,3,1,09,01,37,122,35,02,50,173,35,04,36,125,34,06,36,215,35,0*79
$GBGSV,3,2,09,
09,36,286,35,11,19,130,35,12,10,059,34,13,47,201,35,0*78
$GBGSV,3,3,09,14,08,164,34,0*47
$GAGSV,1,1,00,0*74

$GNRMC,000258.00,A,3000.12161,N,12000.58850,E,75.655,153.33,230721,,,A,V*36
$GNGGA,000258.00,3000.12161,N,12000.58850,E,1,09,1.04,-2.3,M,,M,,*76
$GNGSA,A,3,,,,,,,,,,,,,2.05,1.04,1.77,1*02
$GNGSA,A,3,06,09,13,04,02,01,14,11,12,,,,2.05,1.04,1.77,4*0B
$GNGSA,A,3,,,,,,,,,,,,,2.05,1.04,1.77,3*00
$GPGSV,1,1,00,0*65
$GBGSV,3,1,09,01,37,122,35,02,50,173,36,04,36
,125,36,06,36,215,35,0*78
$GBGSV,3,2,09,09,36,286,35,11,19,130,35,12,10,059,35,13,47,201,35,0*79
$GBGSV,3,3,09,14,08,164,34,0*47
$GAGSV,1,1,00,0*74

$GNRMC,000259.00,A,3000.10245,N,12000.59849,E,75.645,157.83,230721,,,A,V*37
$GNGGA,000259.00,3000.10245,N,12000.59849,E,1,09,1.04,-2.3,M,,M,,*79
$GNGSA,A,3,,,,,,,,,,,,,2.05,1.04,1.77,1*02
$GNGSA,A,3,06,09,13,04,02,01,14,11,12,,,,2.05,1.04,1.77,4*0B
$GNGSA,A,3,,,,,,,,,,,,,2.05,1.04,1.77,3*00
$GPGSV,1,1,00,0*65
$GBGSV,3
,1,09,01,37,122,36,02,50,173,35,04,36,125,35,06,36,215,35,0*7B
$GBGSV,3,2,09,09,36,286,35,11,19,130,35,12,10,059,35,13,47,201,35,0*79
$GBGSV,3,3,09,14,08,164,35,0*46
$GAGSV,1,1,00,0*74

$GNRMC,000300.00,A,3000.08267,N,12000.60673,E,75.537,162.27,230721,,,A,V*30
$GNGGA,000300.00,3000.08267,N,12000.60673,E,1,09,1.04,-2.2,M,,M,,*71
$GNGSA,A,3,,,,,,,,,,,,,2.05,1.04,1.77,1*02
$GNGSA,A,3,06,09,13,04,02,01,14,11,12,,,,2.05,1.04,1.77,4*0B
$GNGSA,A,3,,,,,,,,,,,,,2.05,1.04,1.77,3*00
$GPGSV,1,1,00,
0*65
$GBGSV,3,1,09,01,37,122,36,02,50,173,35,04,36,125,35,06,36,215,35,0*7B
$GBGSV,3,2,09,09,36,286,35,11,19,130,35,12,10,059,34,13,47,201,35,0*78
$GBGSV,3,3,09,14,08,164,34,0*47
$GAGSV,1,1,00,0*74

$GNRMC,000301.00,A,3000.06242,N,12000.61319,E,75.722,166.69,230721,,,A,V*38
$GNGGA,000301.00,3000.06242,N,12000.61319,E,1,09,1.04,-2.2,M,,M,,*71
$GNGSA,A,3,,,,,,,,,,,,,2.05,1.04,1.76,1*03
$GNGSA,A,3,06,09,13,04,02,01,14,11,12,,,,2.05,1.04,1.76,4*0A
$GNGSA,A,3,,,,,,,,,,,,,
2.05,1.04,1.76,3*01
$GPGSV,1,1,00,0*65
$GBGSV,3,1,09,01,37,122,36,02,50,173,35,04,36,125,35,06,36,215,35,0*7B
$GBGSV,3,2,09,09,36,286,35,11,19,130,35,12,10,059,35,13,47,201,35,0*79
$GBGSV,3,3,09,14,08,164,35,0*46
$GAGSV,1,1,00,0*74

$GNRMC,000302.00,A,3000.04174,N,12000.61783,E,75.728,171.17,230721,,,A,V*3D
$GNGGA,000302.00,3000.04174,N,12000.61783,E,1,09,1.04,-2.1,M,,M,,*72
$GNGSA,A,3,,,,,,,,,,,,,2.05,1.04,1.76,1*03
$GNGSA,A,3,06,09,13,04,02,01,14,11,12,,,,2.05,1.04,1.76,4*0A
$GNGSA,A,3,,,,,,,,,,,,,2.05,1.04,1.76,3*01
$GPGSV,1,1,00,0*65
$GBGSV,3,1,09,01,37,122,35,02,50,173,35,04,36,125,36,06,36,215,35,0*7B
$GBGSV,3,2,
09,09,36,286,35,11,19,130,35,12,10,059,35,13,47,201,35,0*79
$GBGSV,3,3,09,14,08,164,35,0*46
$GAGSV,1,1,00,0*74

$GNRMC,000303.00,A,3000.02085,N,12000.62061,E,75.538,175.63,230721,,,A,V*39
$GNGGA,000303.00,3000.02085,N,12000.62061,E,1,09,1.04,-2.1,M,,M,,*72
$GNGSA,A,3,,,,,,,,,,,,,2.05,1.04,1.76,1*03
$GNGSA,A,3,06,09,13,04,02,01,14,11,12,,,,2
.05,1.04,1.76,4*0A
$GNGSA,A,3,,,,,,,,,,,,,2.05,1.04,1.76,3*01
$GPGSV,1,1,00,0*65
$GBGSV,3,1,09,01,37,122,35,02,50,173,36,04,36,125,35,06,36,215,35,0*7B
$GBGSV,3,2,09,09,36,286,35,11,19,130,35,12,10,059,35,13,47,201,35,0*79
$GBGSV,3,3,09,14,08,164,35,0*46
$GAGSV,1,1,00,0*74

$GNRMC,000304.00,A,2959.99984,N,12000.62152,E,75.547,180.08,230721,,,A,V*3E
$GNGGA,000304.00,2959.99984,N,12000.62152,E,1,09,1.04,-2.0,M,,M,,*7B
$GNGSA,A,3,,,,,,,,,,,,,2.05,1.04,1.76,1*03
$GNGSA,A,3,06,09,13,04,02,01,14,11,12,,,,2.05,1.04,1.76,4*0A
$GNGSA,A,3,,,,,,,,,,,,,2.05
,1.04,1.76,3*01
$GPGSV,1,1,00,0*65
$GBGSV,3,1,09,01,37,122,36,02,50,173,35,04,36,125,34,06,36,215,35,0*7A
$GBGSV,3,2,09,09,36,286,35,11,19,130,35,12,10,059,35,13,47,201,35,0*79
$GBGSV,3,3,09,14,08,164,34,0*47
$GAGSV,1,1,00,0*74

$GNRMC,000305.00,A,2959.97885,N,12000.62054,E,75.619,184.51,230721,,,A,V*36
$GNGGA,000305.00,2959.97885,N,12000.62054,E,1,09,1.04,-1.9,M,,M,,*79
$GNGSA,A,3,,,,,,,,,,,,,2.05,1.04,1.76,1*03
$GNGSA,A,3,06,09,13,04,02,01,14,11,12,,,,2.05,1.04,1.76,4*0A
$GNGSA,A,3,,,,,,,,,,,,,2.05,1.04,1.76,3*01
$GPGSV,1,1,00,0*65
$GBGSV,3,1,09,01,
37,122,36,02,50,173,35,04,36,125,36,06,36,215,35,0*78
$GBGSV,3,2,09,09,36,286,35,11,19,130,35,12,10,059,35,13,47,201,35,0*79
$GBGSV,3,3,09,14,08,164,34,0*47
$GAGSV,1,1,00,0*74

$GNRMC,000306.00,A,2959.95796,N,12000.61768,E,75.618,188.97,230721,,,A,V*36
$GNGGA,000306.00,2959.95796,N,12000.61768,E,1,09,1.04,-2.0,M,,M,,*74
$GNGSA,A,3,,,,,,,,,,,,,2.05,1.04,1.76,1*03
$GNGSA,A,3,06,09,13,04,02,01,14,11,12,,,,2.05,1.04,1.76,4*0A
$GNGSA,A,3,,,,,,,,,,,,,2.05,1.04,1.76
,3*01
$GPGSV,1,1,00,0*65
$GBGSV,3,1,09,01,37,122,36,02,50,173,35,04,36,125,35,06,36,215,35,0*7B
$GBGSV,3,2,09,09,36,286,34,11,19,130,35,12,10,059,35,13,47,201,35,0*78
$GBGSV,3,3,09,14,08,164,35,0*46
$GAGSV,1,1,00,0*74

$GNRMC,000307.00,A,2959.93734,N,12000.61300,E,75.582,193.40,230721,,,A,V*33
$GNGGA,000307.00,2959.93734,N,12000.61300,E,1,09,1.04,-1.8,M,,M,,*7A
$GNGSA,A,3,,,,,,,,,,,,,2.05,1.04,1.76,1*03
$GNGSA,A,3,06,09,13,04,02,01,14,11,12,,,,2.05,1.04,1.76,4*0A
$GNGSA,A,3,,,,,,,,,,,,
,2.05,1.04,1.76,3*01
$GPGSV,1,1,00,0*65
$GBGSV,3,1,09,01,37,122,35,02,50,173,35,04,36,125,35,06,36,215,35,0*78
$GBGSV,3,2,09,09,36,286,35,11,19,130,35,12,10,059,35,13,47,201,36,0*7A
$GBGSV,3,3,09,14,08,164,34,0*47
$GAGSV,1,1,00,0*74

$GNRMC,000308.00,A,2959.91712,N,12000.60647,E,75.360,198.06,230721,,,A,V*3E
$GNGGA,000308.00,2959.91712,N,12000.60647,E,1,09,1.04,-1.7,M,,M,,*7B
$GNGSA,A,3,,,,,,,,,,,,,2.05,1.04,1.76,1*03
$GNGSA,A,3,06,09,13,04,02,01,14,11,12,,,,2.05,1.04,1.76,4*0A
$GNGSA,A,3,,,,,,,,,,,,,2.05,1.04,1.76,3*01
$GPGSV,1,1,00,0*65
$GBGSV,3,1,09,01,37,122,36,02,50,173,35,04,36,125
,36,06,36,215,35,0*78
$GBGSV,3,2,09,09,36,286,36,11,19,130,35,12,10,059,35,13,47,201,35,0*7A
$GBGSV,3,3,09,14,08,164,35,0*46
$GAGSV,1,1,00,0*74

$GNRMC,000309.00,A,2959.89741,N,12000.59814,E,75.678,202.20,230721,,,A,V*3A
$GNGGA,000309.00,2959.89741,N,12000.59814,E,1,09,1.04,-1.7,M,,M,,*77
$GNGSA,A,3,,,,,,,,,,,,,2.05,1.04,1.76,1*03
$GNGSA,A,3,06,09,13,04,02,01,14,11,12,,,,2.05,1.04,1.76,4*0A
$GNGSA,A,3,,,,,,,,,,,,,2.05,1.04,1.76,3*01
$GPGSV,1,1,00,0*65
$GBGSV,3,1,09,01,37,122,36,02,50,173,35,04,36,125,36,06,36,215,35,0*78
$GBGSV,3
,2,09,09,36,286,35,11,19,130,35,12,10,059,35,13,47,201,35,0*79
$GBGSV,3,3,09,14,08,164,34,0*47
$GAGSV,1,1,00,0*74

$GNRMC,000310.00,A,2959.87829,N,12000.58807,E,75.647,206.80,230721,,,A,V*3C
$GNGGA,000310.00,2959.87829,N,12000.58807,E,1,09,1.04,-1.7,M,,M,,*73
$GNGSA,A,3,,,,,,,,,,,,,2.05,1.04,1.76,1*03
$GNGSA,A,3,06,09,13,04,02,01,14,11,12,,,,2.05,1.04,1.76,4*0A
$GNGSA,A,3,,,,,,,,,,,,,2.05,1.04,1.76,3*01
$GPGSV,1,1,00,0*65
$GBGSV,3,1,09,01,37,122,35,0
2,50,173,35,04,36,125,35,06,36,215,35,0*78
$GBGSV,3,2,09,09,36,286,35,11,19,130,35,12,10,059,35,13,47,201,35,0*79
$GBGSV,3,3,09,14,08,164,35,0*46
$GAGSV,1,1,00,0*74

$GNRMC,000311.00,A,2959.85992,N,12000.57635,E,75.521,211.27,230721,,,A,V*36
$GNGGA,000311.00,2959.85992,N,12000.57635,E,1,09,1.04,-1.6,M,,M,,*70
$GNGSA,A,3,,,,,,,,,,,,,2.05,1.04,1.76,1*03
$GNGSA,A,3,06,09,13,04,02,01,14,11,12,,,,2.05,1.04,1.76,4*0A
$GNGSA,A,3,,,,,,,,,,,,,2.05,1.04,1.76,3*01
$GPGS
V,1,1,00,0*65
$GBGSV,3,1,09,01,37,122,35,02,50,173,35,04,36,125,35,06,36,215,35,0*78
$GBGSV,3,2,09,09,36,286,35,11,19,130,35,12,10,059,35,13,47,201,35,0*79
$GBGSV,3,3,09,14,08,164,34,0*47
$GAGSV,1,1,00,0*74

$GNRMC,000312.00,A,2959.84235,N,12000.56303,E,75.638,215.76,230721,,,A,V*38
$GNGGA,000312.00,2959.84235,N,12000.56303,E,1,09,1.04,-1.6,M,,M,,*75
$GNGSA,A,3,,,,,,,,,,,,,2.05,1.04,1.76,1*03
$GNGSA,A,3,06,09,13,04,02,01,14,11,12,,,,2.05,1.04,1.76,4*0A
$GNGSA,A,3,,,,,,,,,,,,,2.05,1.04,1.76,3*01
$GPGSV,1,1,00,0*65
$GBGSV,3
,1,09,01,37,122,35,02,50,173,36,04,36,125,36,06,36,215,35,0*78
$GBGSV,3,2,09,09,36,286,35,11,19,130,35,12,10,059,35,13,47,201,35,0*79
$GBGSV,3,3,09,14,08,164,34,0*47
$GAGSV,1,1,00,0*74

$GNRMC,000313.00,A,2959.82577,N,12000.54816,E,75.626,220.17,230721,,,A,V*3D
$GNGGA,000313.00,2959.82577,N,12000.54816,E,1,09,1.04,-1.6,M,,M,,*7E
$GNGSA,A,3,,,,,,,,,,,,,2.05,1.04,1.76,1*03
$GNGSA,A,3,06,09,13,04,02,01,14,11,12,,,,2.05,1.04,1.76,4*0A
$GNGSA,A,3,,,,,,,,,,,,,2.05,1.04,1.76,3*01
$GPGSV,1,1,00,0*65
$G
BGSV,3,1,09,01,37,122,35,02,50,173,36,04,36,125,35,06,36,215,35,0*7B
$GBGSV,3,2,09,09,36,286,35,11,19,130,35,12,10,059,35,13,47,201,35,0*79
$GBGSV,3,3,09,14,08,164,35,0*46
$GAGSV,1,1,00,0*74

$GNRMC,000314.00,A,2959.81025,N,12000.53186,E,75.604,224.58,230721,,,A,V*33
$GNGGA,000314.00,2959.81025,N,12000.53186,E,1,09,1.04,-1.5,M,,M,,*7C
$GNGSA,A,3,,,,,,,,,,,,,2.05,1.04,1.76,1*03
$GNGSA,A,3,06,09,13,04,02,01,14,11,12,,,,2.05,1.04,1.76,4*0A
$GNGSA,A,3,,,,,,,,,,,,,2.05,1.04,1.76,3*01
$GPGSV,1,1,00,0*65
$GBGSV,3,1,09,01,37,122,35,02,
50,173,36,04,36,125,36,06,36,215,35,0*78
$GBGSV,3,2,09,09,36,286,35,11,19,130,35,12,10,059,35,13,47,201,35,0*79
$GBGSV,3,3,09,14,08,164,35,0*46
$GAGSV,1,1,00,0*74

$GNRMC,000315.00,A,2959.79587,N,12000.51422,E,75.632,229.10,230721,,,A,V*35
$GNGGA,000315.00,2959.79587,N,12000.51422,E,1,09,1.04,-1.5,M,,M,,*7E
$GNGSA,A,3,,,,,,,,,,,,,2.05,1.04,1.76,1*03
$GNGSA,A,3,06,09,13,04,02,01,14,11,12,,,,2.05,1.04,1.76,4*0A
$GNGSA,A,3,,,,,,,,,,,,,2.05,1.04,1.76,3*01
$GPGSV,1,1,00
,0*65
$GBGSV,3,1,09,01,37,122,35,02,50,173,36,04,36,125,36,06,36,215,35,0*78
$GBGSV,3,2,09,09,36,286,35,11,19,130,35,12,10,059,35,13,47,201,36,0*7A
$GBGSV,3,3,09,14,08,164,35,0*46
$GAGSV,1,1,00,0*74

$GNRMC,000316.00,A,2959.78272,N,12000.49536,E,75.577,233.56,230721,,,A,V*3C
$GNGGA,000316.00,2959.78272,N,12000.49536,E,1,09,1.04,-1.5,M,,M,,*7C
$GNGSA,A,3,,,,,,,,,,,,,2.05,1.04,1.76,1*03
$GNGSA,A,3,06,09,13,04,02,01,14,11,12,,,,2.05,1.04,1.76,4*0A
$GNGSA,A,3,,,,,,,,,,,,,2.05,1.04,1.76,3*01

$GPGSV,1,1,00,0*65
$GBGSV,3,1,09,01,37,122,35,02,50,173,36,04,36,125,35,06,36,215,35,0*7B
$GBGSV,3,2,09,09,36,286,35,11,19,130,35,12,10,059,35,13,47,201,35,0*79
$GBGSV,3,3,09,14,08,164,34,0*47
$GAGSV,1,1,00,0*74

$GNRMC,000317.00,A,2959.77090,N,12000.47538,E,75.592,238.01,230721,,,A,V*3E
$GNGGA,000317.00,2959.77090,N,12000.47538,E,1,09,1.04,-1.5,M,,M,,*7C
$GNGSA,A,3,,,,,,,,,,,,,2.05,1.04,1.76,1*03
$GNGSA,A,3,06,09,13,04,02,01,14,11,12,,,,2.05,1.04,1.76,4*0A
$GNGSA,A,
3,,,,,,,,,,,,,2.05,1.04,1.76,3*01
$GPGSV,1,1,00,0*65
$GBGSV,3,1,09,01,37,122,35,02,50,173,35,04,36,125,35,06,36,215,35,0*78
$GBGSV,3,2,09,09,36,286,35,11,19,130,35,12,10,059,35,13,47,201,35,0*79
$GBGSV,3,3,09,14,08,164,34,0*47
$GAGSV,1,1,00,0*74

$GNRMC,000318.00,A,2959.76048,N,12000.45441,E,75.582,242.49,230721,,,A,V*38
$GNGGA,000318.00,2959.76048,N,12000.45441,E,1,09,1.04,-1.5,M,,M,,*7A
$GNGSA,A,3,,,,,,,,,,,,,2.04,1.04,1.76,1*02
$GNGSA,A,3,06,09,13,04,02,01,14,11,12,,,,2.04,1.04,1.76,4*0B
$GNGSA,A,3,,,,,,,,,,,,,2.04,
1.04,1.76,3*00
$GPGSV,1,1,00,0*65
$GBGSV,3,1,09,01,37,122,35,02,50,173,35,04,36,125,35,06,36,215,35,0*78
$GBGSV,3,2,09,09,36,286,35,11,19,130,35,12,10,059,35,13,47,201,35,0*79
$GBGSV,3,3,09,14,08,164,34,0*47
$GAGSV,1,1,00,0*74

$GNRMC,000319.00,A,2959.75150,N,12000.43256,E,75.580,246.95,230721,,,A,V*33
$GNGGA,000319.00,2959.75150,N,12000.43256,E,1,09,1.04,-1.6,M,,M,,*75
$GNGSA,A,3,,,,,,,,,,,,,2.04,1.04,1.76,1*02
$GNGSA,A,3,06,09,13,04,02,01,14,11,12,,,,2.04,1.04,1.7
6,4*0B
$GNGSA,A,3,,,,,,,,,,,,,2.04,1.04,1.76,3*00
$GPGSV,1,1,00,0*65
$GBGSV,3,1,09,01,37,122,35,02,50,173,35,04,36,125,36,06,36,215,35,0*7B
$GBGSV,3,2,09,09,36,286,35,11,19,130,35,12,10,059,34,13,47,201,35,0*78
$GBGSV,3,3,09,14,08,164,34,0*47
$GAGSV,1,1,00,0*74

$GNRMC,000320.00,A,2959.74402,N,12000.40998,E,75.626,251.38,230721,,,A,V*3E
$GNGGA,000320.00,2959.74402,N,12000.40998,E,1,09,1.04,-1.6,M,,M,,*76
$GNGSA,A,3,,,,,,,,,,,,,2.04,1.04,1.76,1*02
$GNGSA,A,3,06,09,13,04,02,01,14,11,12,,,,2.04,1.04,1.76,4*0B
$GNGSA,A,3,,,,,,,,,,,,,2.04,1.04,1.76,3*00
$GPGSV,1,1,00,0*65
$GBGS
V,3,1,09,01,37,122,35,02,50,173,35,04,36,125,35,06,36,215,35,0*78
$GBGSV,3,2,09,09,36,286,35,11,19,130,35,12,10,059,35,13,47,201,35,0*79
$GBGSV,3,3,09,14,08,164,35,0*46
$GAGSV,1,1,00,0*74

$GNRMC,000321.00,A,2959.73807,N,12000.38678,E,75.699,255.80,230721,,,A,V*3C
$GNGGA,000321.00,2959.73807,N,12000.38678,E,1,09,1.04,-1.7,M,,M,,*76
$GNGSA,A,3,,,,,,,,,,,,,2.04,1.04,1.76,1*02
$GNGSA,A,3,06,09,13,04,02,01,14,11,12,,,,2.04,1.04,1.76,4*0B
$GNGSA,A,3,,,,,,,
,,,,,,2.04,1.04,1.76,3*00
$GPGSV,1,1,00,0*65
$GBGSV,3,1,09,01,37,122,35,02,50,173,35,04,36,125,35,06,36,215,35,0*78
$GBGSV,3,2,09,09,36,286,35,11,19,130,35,12,10,059,35,13,47,201,35,0*79
$GBGSV,3,3,09,14,08,164,35,0*46
$GAGSV,1,1,00,0*74

$GNRMC,000322.00,A,2959.73373,N,12000.36312,E,75.641,260.28,230721,,,A,V*31
$GNGGA,000322.00,2959.73373,N,12000.36312,E,1,09,1.04,-1.7,M,,M,,*7A
$GNGSA,A,3,,,,,,,,,,,,,2.04,1.04,1.76,1*02
$GNGSA,A,3,06,09,13,04,02,01,14,11,12,,,,2.04,1.04,1.76,4*0B
$GNGSA,A,3,,,,,,,,,,,,,2
.04,1.04,1.76,3*00
$GPGSV,1,1,00,0*65
$GBGSV,3,1,09,01,37,122,35,02,50,173,35,04,36,125,35,06,36,215,35,0*78
$GBGSV,3,2,09,09,36,286,35,11,19,130,35,12,10,059,35,13,47,201,35,0*79
$GBGSV,3,3,09,14,08,164,34,0*47
$GAGSV,1,1,00,0*74

$GNRMC,000323.00,A,2959.73101,N,12000.33914,E,75.722,264.78,230721,,,A,V*3B
$GNGGA,000323.00,2959.73101,N,12000.33914,E,1,09,1.04,-1.7,M,,M,,*75
$GNGSA,A,3,,,,,,,,,,,,,2.04,1.04,1.76,1*02
$GNGSA,A,3,06,09,13,04,02,01,14,11,12,,,,2.04,1.04,1.76,4*0B
$GNGSA,A,3,,,,,,,,,,,,,2.04,1.04,1.76,3*00
$GPGSV,1,1,00,0*65
$GBGSV,3,1,09,01,37,122,35,02,50,173,36,0
4,36,125,35,06,36,215,35,0*7B
$GBGSV,3,2,09,09,36,286,35,11,19,130,35,12,10,059,34,13,47,201,35,0*78
$GBGSV,3,3,09,14,08,164,34,0*47
$GAGSV,1,1,00,0*74

$GNRMC,000324.00,A,2959.72989,N,12000.31499,E,75.670,269.17,230721,,,A,V*3D
$GNGGA,000324.00,2959.72989,N,12000.31499,E,1,09,1.04,-1.8,M,,M,,*7E
$GNGSA,A,3,,,,,,,,,,,,,2.04,1.04,1.76,1*02
$GNGSA,A,3,06,09,13,04,02,01,14,11,12,,,,2.04,1.04,1.76,4*0B
$GNGSA,A,3,,,,,,,,,,,,,2.04,1.04,1.76,3*00
$GPGSV,1,1,00,0*65
$GBGSV,3,1,09,01,37,122,35,02,50,173,35,04,
36,125,36,06,36,215,35,0*7B
$GBGSV,3,2,09,09,36,286,35,11,19,130,35,12,10,059,35,13,47,201,35,0*79
$GBGSV,3,3,09,14,08,164,34,0*47
$GAGSV,1,1,00,0*74

$GNRMC,000325.00,A,2959.73042,N,12000.29083,E,75.732,273.64,230721,,,A,V*3D
$GNGGA,000325.00,2959.73042,N,12000.29083,E,1,09,1.04,-1.8,M,,M,,*76
$GNGSA,A,3,,,,,,,,,,,,,2.04,1.04,1.76,1*02
$GNGSA,A,3,06,09,13,04,02,01,14,11,12,,,,2.04,1.04,1.76,4*0B
$GNGSA,A,3,,,,,,,
,,,,,,2.04,1.04,1.76,3*00
$GPGSV,1,1,00,0*65
$GBGSV,3,1,09,01,37,122,35,02,50,173,35,04,36,125,35,06,36,215,35,0*78
$GBGSV,3,2,09,09,36,286,35,11,19,130,34,12,10,059,35,13,47,201,36,0*7B
$GBGSV,3,3,09,14,08,164,34,0*47
$GAGSV,1,1,00,0*74

$GNRMC,000326.00,A,2959.73258,N,12000.26680,E,75.613,278.10,230721,,,A,V*37
$GNGGA,000326.00,2959.73258,N,12000.26680,E,1,09,1.04,-1.6,M,,M,,*78
$GNGSA,A,3,,,,,,,,,,,,,2.04,1.04,1.76,1*02
$GNGSA,A,3,06,09,13,04,02,01,14,11,12,,,,2.04,1.04,1.76,4*0B
$GNGSA,A,3,,,,,,,,,,,,,
2.04,1.04,1.76,3*00
$GPGSV,1,1,00,0*65
$GBGSV,3,1,09,01,37,122,36,02,50,173,35,04,36,125,36,06,36,215,35,0*78
$GBGSV,3,2,09,09,36,286,35,11,19,130,35,12,10,059,35,13,47,201,35,0*79
$GBGSV,3,3,09,14,08,164,34,0*47
$GAGSV,1,1,00,0*74

$GNRMC,000327.00,A,2959.73636,N,12000.24300,E,75.551,282.50,230721,,,A,V*31
$GNGGA,000327.00,2959.73636,N,12000.24300,E,1,09,1.04,-1.8,M,,M,,*74
$GNGSA,A,3,,,,,,,,,,,,,2.04,1.04,1.76,1*02
$GNGSA,A,3,06,09,13,04,02,01,14,11,12,,,,2.04,1.04,1.76,4*0B
$GNGSA,A,3,,,,,,,,,,,,,2.04,1.04,1.76,3*00
$GPGSV,1,1,00,0*65
$GBGSV,3,1,09,01,37,122,36,02,50,173,36,04,36,125,35,06,36,215,35,0*78
$GBGSV,3,2,09,09,
36,286,35,11,19,130,35,12,10,059,35,13,47,201,35,0*79
$GBGSV,3,3,09,14,08,164,34,0*47
$GAGSV,1,1,00,0*74

$GNRMC,000328.00,A,2959.74173,N,12000.21965,E,75.592,287.02,230721,,,A,V*3E
$GNGGA,000328.00,2959.74173,N,12000.21965,E,1,09,1.04,-1.9,M,,M,,*77
$GNGSA,A,3,,,,,,,,,,,,,2.04,1.04,1.76,1*02
$GNGSA,A,3,06,09,13,04,02,01,14,11,12,,,,2.04,1.04,1.76,4*0B
$GNGSA
,A,3,,,,,,,,,,,,,2.04,1.04,1.76,3*00
$GPGSV,1,1,00,0*65
$GBGSV,3,1,09,01,37,122,35,02,50,173,35,04,36,125,35,06,36,215,35,0*78
$GBGSV,3,2,09,09,36,286,35,11,19,130,35,12,10,059,35,13,47,201,35,0*79
$GBGSV,3,3,09,14,08,164,35,0*46
$GAGSV,1,1,00,0*74

$GNRMC,000329.00,A,2959.74867,N,12000.19685,E,75.609,291.50,230721,,,A,V*38
$GNGGA,000329.00,2959.74867,N,12000.19685,E,1,09,1.04,-1.9,M,,M,,*70
$GNGSA,A,3,,,,,,,,,,,,,2.04,1.04,1.76,1*02
$GNGSA,A,3,06,09,13,04,02,01,14,11,12,,,,2.04,1.04,1.76,4*0B
$GNGSA,A,3,,,,,,,,,,,,,2.04,1.04,1.76,3*00
$GPGSV,1,1,00,0*65
$GBGSV,3,1,09,01,37,122,36,02,50,173,35,04,36,125,35,06,36,215,35,0*7B
$GBGSV,3,2,09,09,36,286,35
,11,19,130,35,12,10,059,35,13,47,201,35,0*79
$GBGSV,3,3,09,14,08,164,35,0*46
$GAGSV,1,1,00,0*74

$GNRMC,000330.00,A,2959.75713,N,12000.17475,E,75.649,296.00,230721,,,A,V*38
$GNGGA,000330.00,2959.75713,N,12000.17475,E,1,09,1.04,-1.9,M,,M,,*76
$GNGSA,A,3,,,,,,,,,,,,,2.04,1.04,1.76,1*02
$GNGSA,A,3,06,09,13,04,02,01,14,11,12,,,,2.04,1.04,1.76,4*0B

$GNGSA,A,3,,,,,,,,,,,,,2.04,1.04,1.76,3*00
$GPGSV,1,1,00,0*65
$GBGSV,3,1,09,01,37,122,35,02,50,173,36,04,36,125,36,06,36,215,35,0*78
$GBGSV,3,2,09,09,36,286,35,11,19,130,35,12,10,059,35,13,47,201,35,0*79
$GBGSV,3,3,09,14,08,164,35,0*46
$GAGSV,1,1,00,0*74

$GNRMC,000331.00,A,2959.76707,N,12000.15346,E,75.550,300.37,230721,,,A,V*3B
$GNGGA,000331.00,2959.76707,N,12000.15346,E,1,09,1.04,-1.9,M,,M,,*74
$GNGSA,A,3,,,,,,,,,,,,,2.04,1.04,1.76,1*02
$GNGSA,A,3,06,09,13,04,02,01,14,11,12,,,,2.04,1.04,1.76,4*0B
$GNGSA,A,3,,,,,,,,,,
,,,2.04,1.04,1.76,3*00
$GPGSV,1,1,00,0*65
$GBGSV,3,1,09,01,37,122,35,02,50,173,35,04,36,125,35,06,36,215,36,0*7B
$GBGSV,3,2,09,09,36,286,35,11,19,130,35,12,10,059,35,13,47,201,35,0*79
$GBGSV,3,3,09,14,08,164,34,0*47
$GAGSV,1,1,00,0*74

$GNRMC,000332.00,A,2959.77841,N,12000.13311,E,75.566,304.80,230721,,,A,V*3D
$GNGGA,000332.00,2959.77841,N,12000.13311,E,1,09,1.04,-1.9,M,,M,,*7F
$GNGSA,A,3,,,,,,,,,,,,,2.04,1.04,1.76,1*02
$GNGSA,A,3,06,09,13,04,02,01,14,11,12,,,,2.04,1.04,1.76,4*0B
$GNGSA,A,3,,,,,,,,,,,,,2.04,1.04,1.76,3*00
$GPGSV,1,1,00,0*65
$GBGSV,3,1,09,01,37,122,35,02,
50,173,36,04,36,125,36,06,36,215,34,0*79
$GBGSV,3,2,09,09,36,286,35,11,19,130,35,12,10,059,35,13,47,201,35,0*79
$GBGSV,3,3,09,14,08,164,35,0*46
$GAGSV,1,1,00,0*74

$GNRMC,000333.00,A,2959.79108,N,12000.11385,E,75.593,309.35,230721,,,A,V*30
$GNGGA,000333.00,2959.79108,N,12000.11385,E,1,09,1.04,-1.8,M,,M,,*7A
$GNGSA,A,3,,,,,,,,,,,,,2.04,1.04,1.76,1*02
$GNGSA,A,3,06,09,13,04,02,01,14,11,12,,,,2.04,1.04,1.76,4*0B
$GNGSA,A,3,,,,,,,,,,,,,2.04,1.04,1.76,3*00
$GPGSV,1,1,00,0*65
$GBGSV,3,1,09,01,37,122,35,02,50,173,36,04,36,125,35,06,36,215,35,0*7B
$GBGSV,3,2,09
,09,36,286,35,11,19,130,35,12,10,059,35,13,47,201,35,0*79
$GBGSV,3,3,09,14,08,164,34,0*47
$GAGSV,1,1,00,0*74

$GNRMC,000334.00,A,2959.80505,N,12000.09579,E,75.740,313.82,230721,,,A,V*3F
$GNGGA,000334.00,2959.80505,N,12000.09579,E,1,09,1.04,-1.8,M,,M,,*7E
$GNGSA,A,3,,,,,,,,,,,,,2.04,1.04,1.76,1*02
$GNGSA,A,3,06,09,13,04,02,01,14,11,12,,,,2.04,1.04,1.76,4*0B
$GNGSA,A,3,,,,,,,,
,,,,,2.04,1.04,1.76,3*00
$GPGSV,1,1,00,0*65
$GBGSV,3,1,09,01,37,122,35,02,50,173,36,04,36,125,35,06,36,215,35,0*7B
$GBGSV,3,2,09,09,36,286,35,11,19,130,35,12,10,059,35,13,47,201,35,0*79
$GBGSV,3,3,09,14,08,164,34,0*47
$GAGSV,1,1,00,0*74

$GNRMC,000335.00,A,2959.82021,N,12000.07900,E,75.643,318.23,230721,,,A,V*31
$GNGGA,000335.00,2959.82021,N,12000.07900,E,1,09,1.04,-1.7,M,,M,,*7D
$GNGSA,A,3,,,,,,,,,,,,,2.04,1.04,1.76,1*02
$GNGSA,A,3,06,09,13,04,02,01,14,11,12,,,,2.04,1.04,1.76,4*0B
$GNGSA,A,3,,,,,,,,,,,,,2.04,1.04,1.76,3*00
$GPGSV,1,1,00,0*65
$GBGSV,3,1,09,01,37,122,35,02
,50,173,35,04,36,125,35,06,36,215,35,0*78
$GBGSV,3,2,09,09,36,286,35,11,19,130,35,12,10,059,35,13,47,201,35,0*79
$GBGSV,3,3,09,14,07,164,35,0*49
$GAGSV,1,1,00,0*74

$GNRMC,000336.00,A,2959.83644,N,12000.06361,E,75.600,322.66,230721,,,A,V*35
$GNGGA,000336.00,2959.83644,N,12000.06361,E,1,09,1.04,-1.7,M,,M,,*76
$GNGSA,A,3,,,,,,,,,,,,,2.04,1.04,1.76,1*02
$GNGSA,A,3,06,09,13,04,02,01,14,11,12,,,,2.04,1.04,1.76,4*0B
$GNGSA,A,3,,,,,,,,,,,,,2.04,1.04,1.76,3*00
$GPGSV,1,1,00,0*65
$GBGSV,3,1,09,01,37,122,35,02,
50,173,36,04,36,125,35,06,36,215,35,0*7B
$GBGSV,3,2,09,09,36,286,35,11,19,130,35,12,10,059,34,13,47,201,35,0*78
$GBGSV,3,3,09,14,07,164,35,0*49
$GAGSV,1,1,00,0*74

$GNRMC,000337.00,A,2959.85364,N,12000.04972,E,75.591,327.14,230721,,,A,V*34
$GNGGA,000337.00,2959.85364,N,12000.04972,E,1,09,1.04,-1.7,M,,M,,*7C
$GNGSA,A,3,,,,,,,,,,,,,2.04,1.04,1.76,1*02
$GNGSA,A,3,06,09,13,04,02,01,14,11,12,,,,2.04,1.04,1.76,4*0B
$GNGSA,A,3,,,,,,,,,,,,,2.04,1.04,1.76,3*00
$GPGSV,1,1,00,0*65
$GBGSV,3,1,09,01,37,122,35,02,50,173,36,
04,36,125,36,06,36,215,35,0*78
$GBGSV,3,2,09,09,36,286,35,11,19,130,35,12,10,059,34,13,47,201,35,0*78
$GBGSV,3,3,09,14,07,164,34,0*48
$GAGSV,1,1,00,0*74

$GNRMC,000338.00,A,2959.87173,N,12000.03740,E,75.626,331.53,230721,,,A,V*3E
$GNGGA,000338.00,2959.87173,N,12000.03740,E,1,09,1.04,-1.7,M,,M,,*7D
$GNGSA,A,3,,,,,,,,,,,,,2.04,1.04,1.76,1*02
$GNGSA,A,3,06,09,13,04,02,01,14,11,12,,,,2.04,1.04,1.76,4*0B
$GNGSA,A,3,,,,,,,,,,,,,2.04,1.04,1.76,3*00
$GPGSV,1,1,00,0*65
$GBGSV,3,1,09,01,37,122,35,02
,50,173,35,04,36,125,35,06,36,215,35,0*78
$GBGSV,3,2,09,09,36,286,35,11,19,130,35,12,10,059,35,13,47,201,35,0*79
$GBGSV,3,3,09,14,07,164,35,0*49
$GAGSV,1,1,00,0*74

$GNRMC,000339.00,A,2959.89059,N,12000.02673,E,75.609,336.01,230721,,,A,V*35
$GNGGA,000339.00,2959.89059,N,12000.02673,E,1,09,1.04,-1.8,M,,M,,*74
$GNGSA,A,3,,,,,,,,,,,,,2.04,1.04,1.76,1*02
$GNGSA,A,3,06,09,13,04,02,01,14,11,12,,,,2.04,1.04,1.76,4*0B
$GNGSA,A,3,,,,,,,,,,,,,2.04,1.04,1.76
,3*00
$GPGSV,1,1,00,0*65
$GBGSV,3,1,09,01,37,122,35,02,50,173,36,04,36,125,35,06,36,215,35,0*7B
$GBGSV,3,2,09,09,36,286,35,11,19,130,35,12,10,059,35,13,47,201,35,0*79
$GBGSV,3,3,09,14,07,164,35,0*49
$GAGSV,1,1,00,0*74

$GNRMC,000340.00,A,2959.91013,N,12000.01779,E,75.584,340.44,230721,,,A,V*32
$GNGGA,000340.00,2959.91013,N,12000.01779,E,1,09,1.04,-1.8,M,,M,,*75
$GNGSA,A,3,,,,,,,,,,,,,2.04,1.04,1.76,1*02
$GNGSA,A,3,06,09,13,04,02,01,14,11,12,,,,2.04,1.04,1.76,4*0B
$GNGSA,A,3,,,,,,,,,,,,,2.04,
1.04,1.76,3*00
$GPGSV,1,1,00,0*65
$GBGSV,3,1,09,01,37,122,36,02,50,173,35,04,36,125,35,06,36,215,35,0*7B
$GBGSV,3,2,09,09,36,286,35,11,19,130,35,12,10,059,34,13,47,201,35,0*78
$GBGSV,3,3,09,14,07,164,34,0*48
$GAGSV,1,1,00,0*74

$GNRMC,000341.00,A,2959.93021,N,12000.01061,E,75.633,344.97,230721,,,A,V*3B
$GNGGA,000341.00,2959.93021,N,12000.01061,E,1,09,1.04,-1.7,M,,M,,*76
$GNGSA,A,3,,,,,,,,,,,,,2.04,1.04,1.76,1*02
$GNGSA,A,3,06,09,13,04,02,01,14,11,12,,,,2.04,1.04,1.76,4*0B
$GNGSA,A,3,,,,,,,,,,,,,2.04,1.04,1.76,3*00
$GPGSV,1,1,00,0*65
$GBGSV,3,1,09,01,37,122,36,02,50,173,35,04,36
,125,35,06,36,215,35,0*7B
$GBGSV,3,2,09,09,36,286,35,11,19,130,35,12,10,059,34,13,47,201,35,0*78
$GBGSV,3,3,09,14,07,164,35,0*49
$GAGSV,1,1,00,0*74

$GNRMC,000342.00,A,2959.95071,N,12000.00527,E,75.576,349.45,230721,,,A,V*3D
$GNGGA,000342.00,2959.95071,N,12000.00527,E,1,09,1.04,-1.8,M,,M,,*7F
$GNGSA,A,3,,,,,,,,,,,,,2.04,1.04,1.76,1*02
$GNGSA,A,3,06,09,13,04,02,01,14,11,12,,,,2.04,1.04,1.76,4*0B
$GNGSA,A,3,,,,,,,,,,,,,2.04,1.04,1.76,3*00
$GPGSV,1,1,00,0*65
$GBGSV,3,1,09,01,37,122,36,02,50,173,35,04,36,125,35,06,36,215,35,0*7B
$GBGSV,3,2,09,09
,36,286,35,11,19,130,35,12,10,059,34,13,47,201,35,0*78
$GBGSV,3,3,09,14,07,164,35,0*49
$GAGSV,1,1,00,0*74

$GNRMC,000343.00,A,2959.97151,N,12000.00179,E,75.661,353.87,230721,,,A,V*32
$GNGGA,000343.00,2959.97151,N,12000.00179,E,1,09,1.04,-1.8,M,,M,,*70
$GNGSA,A,3,,,,,,,,,,,,,2.04,1.04,1.76,1*02
$GNGSA,A,3,06,09,13,04,02,01,14,11,12,,,,2.04,1.04,1.76,4*0B
$GNGSA,A,3,,,,,,,,,,,,,2.04,1.04,1.76,3*00
$GPGSV,1,1,00,0*65
$GBGSV,3,1,09,01,37,122,35,02,50,173,35,04,36,125,36
,06,36,215,36,0*78
$GBGSV,3,2,09,09,36,286,35,11,19,130,35,12,10,059,34,13,47,201,35,0*78
$GBGSV,3,3,09,14,07,164,35,0*49
$GAGSV,1,1,00,0*74

$GNRMC,000344.00,A,2959.99250,N,12000.00014,E,75.478,358.30,230721,,,A,V*3E
$GNGGA,000344.00,2959.99250,N,12000.00014,E,1,09,1.04,-1.7,M,,M,,*7E
$GNGSA,A,3,,,,,,,,,,,,,2.04,1.04,1.76,1*02
$GNGSA,A,3,06,09,13,04,02,01,14,11,12,,,,2.04,1.04,1.76,4*0B
$GNGSA,A,3,,,,,,,
,,,,,,2.04,1.04,1.76,3*00
$GPGSV,1,1,00,0*65
$GBGSV,3,1,09,01,37,122,35,02,50,173,35,04,36,125,35,06,36,215,36,0*7B
$GBGSV,3,2,09,09,36,286,35,11,19,130,35,12,10,059,35,13,47,201,35,0*79
$GBGSV,3,3,09,14,07,164,35,0*49
$GAGSV,1,1,00,0*74

$GNRMC,000345.00,A,3000.01352,N,12000.00039,E,75.640,2.84,230721,,,A,V*3C
$GNGGA,000345.00,3000.01352,N,12000.00039,E,1,09,1.04,-1.6,M,,M,,*77
$GNGSA,A,3,,,,,,,,,,,,,2.04,1.04,1.76,1*02
$GNGSA,A,3,06,09,13,04,02,01,14,11,12,,,,2.04,1.04,1.76,4*0B
$GNGSA,A,3,,,,,,,,,,,,,2.04,1.04,1.76,3*00
$GPGSV,1,1,00,
0*65
$GBGSV,3,1,09,01,37,122,35,02,50,173,35,04,36,125,35,06,36,215,35,0*78
$GBGSV,3,2,09,09,36,286,35,11,19,130,35,12,10,059,35,13,47,201,35,0*79
$GBGSV,3,3,09,14,07,164,35,0*49
$GAGSV,1,1,00,0*74

$GNRMC,000346.00,A,3000.03448,N,12000.00253,E,75.684,7.27,230721,,,A,V*3B
$GNGGA,000346.00,3000.03448,N,12000.00253,E,1,09,1.04,-1.7,M,,M,,*75
$GNGSA,A,3,,,,,,,,,,,,,2.04,1.04,1.76,1*02
$GNGSA,A,3,06,09,13,04,02,01,14,11,12,,,,2.04,1.04,1.76,4*0B
$GNGSA,A,3,,,,,,,,,,,,,2.04,1.04,1.76,3
*00
$GPGSV,1,1,00,0*65
$GBGSV,3,1,09,01,37,122,36,02,50,173,34,04,36,125,35,06,36,215,35,0*7A
$GBGSV,3,2,09,09,36,286,35,11,19,130,35,12,10,059,35,13,47,201,35,0*79
$GBGSV,3,3,09,14,07,164,34,0*48
$GAGSV,1,1,00,0*74

$GNRMC,000347.00,A,3000.05524,N,12000.00654,E,75.665,11.73,230721,,,A,V*0D
$GNGGA,000347.00,3000.05524,N,12000.00654,E,1,09,1.04,-1.7,M,,M,,*7A
$GNGSA,A,3,,,,,,,,,,,,,2.04,1.04,1.76,1*02
$GNGSA,A,3,06,09,13,04,02,01,14,11,12,,,,2.04,1.04,1.76,4*0B
$GNGSA,A,3,,,,,,,,,,,,,2.04,1.04,1.76,3*00
$GPGSV,1
,1,00,0*65
$GBGSV,3,1,09,01,37,122,35,02,50,173,35,04,36,125,35,06,36,215,36,0*7B
$GBGSV,3,2,09,09,36,286,35,11,19,130,35,12,10,059,35,13,47,201,35,0*79
$GBGSV,3,3,09,14,07,164,34,0*48
$GAGSV,1,1,00,0*74

$GNRMC,000348.00,A,3000.07566,N,12000.01236,E,75.626,16.16,230721,,,A,V*04
$GNGGA,000348.00,3000.07566,N,12000.01236,E,1,09,1.03,-1.7,M,,M,,*77
$GNGSA,A,3,,,,,,,,,,,,,2.04,1.03,1.76,1*05
$GNGSA,A,3,06,09,13,04,02,01,14,11,12,,,,2.04,1.03,1.76,4*0C
$GNGSA,A,3,,,,,,,,,,,,,2.04,1.03,1.76,3*07
$GPGSV,1,1,00,0*65
$GBGSV,3,1,09,01,37,122,36,02,50,173,35,04,36,125,35,06,36,215,35,0*7B
$GBGSV,3,
2,09,09,36,286,35,11,19,130,35,12,10,059,35,13,47,201,35,0*79
$GBGSV,3,3,09,14,07,164,35,0*49
$GAGSV,1,1,00,0*74

$GNRMC,000349.00,A,3000.09563,N,12000.01999,E,75.644,20.66,230721,,,A,V*06
$GNGGA,000349.00,3000.09563,N,12000.01999,E,1,09,1.03,-1.8,M,,M,,*7C
$GNGSA,A,3,,,,,,,,,,,,,2.04,1.03,1.76,1*05
$GNGSA,A,3,06,09,13,04,02,01,14,11,12,,,,2.04,1.03,1.76,4*0C
$GNGSA,A,3,,,,,,,,,,,,
,2.04,1.03,1.76,3*07
$GPGSV,1,1,00,0*65
$GBGSV,3,1,09,01,37,122,35,02,50,173,36,04,36,125,35,06,36,215,35,0*7B
$GBGSV,3,2,09,09,36,286,35,11,19,130,35,12,10,059,35,13,47,201,35,0*79
$GBGSV,3,3,09,14,07,164,34,0*48
$GAGSV,1,1,00,0*74

$GNRMC,000350.00,A,3000.11501,N,12000.02939,E,75.645,25.04,230721,,,A,V*0A
$GNGGA,000350.00,3000.11501,N,12000.02939,E,1,09,1.03,-1.6,M,,M,,*7E
$GNGSA,A,3,,,,,,,,,,,,,2.04,1.03,1.76,1*05
$GNGSA,A,3,06,09,13,04,02,01,14,11,12,,,,2.04,1.03,1.76,4*0C
$GNGSA,A,3,,,,,,,,,,,,,2.04,1.03,1.76,3*07
$GPGSV,1,1,00,0*65
$GBGSV,3,1,09,01,37,122
,35,02,50,173,35,04,36,125,36,06,36,215,35,0*7B
$GBGSV,3,2,09,09,36,286,35,11,19,130,34,12,10,059,35,13,47,201,35,0*78
$GBGSV,3,3,09,14,07,164,34,0*48
$GAGSV,1,1,00,0*74

$GNRMC,000351.00,A,3000.13370,N,12000.04048,E,75.862,29.22,230721,,,A,V*03
$GNGGA,000351.00,3000.13370,N,12000.04048,E,1,09,1.03,-1.7,M,,M,,*75
$GNGSA,A,3,,,,,,,,,,,,,2.04,1.03,1.76,1*05
$GNGSA,A,3,06,09,13,04,02,01,14,11,12,,,,2.04,1.03,1.76,4*0C
$GNGSA,A,3,,,,,,,,,,,,,2.04,
1.03,1.76,3*07
$GPGSV,1,1,00,0*65
$GBGSV,3,1,09,01,37,122,35,02,50,173,34,04,36,125,35,06,36,215,35,0*79
$GBGSV,3,2,09,09,36,286,36,11,19,130,35,12,10,059,35,13,47,201,35,0*7A
$GBGSV,3,3,09,14,07,164,35,0*49
$GAGSV,1,1,00,0*74

$GNRMC,000352.00,A,3000.15163,N,12000.05316,E,75.562,34.04,230721,,,A,V*0A
$GNGGA,000352.00,3000.15163,N,12000.05316,E,1,09,1.03,-1.8,M,,M,,*76
$GNGSA,A,3,,,,,,,,,,,,,2.04,1.03,1.76,1*05
$GNGSA,A,3,06,09,13,04,02,01,14,11,12,,,,2.04,1.03,1.76,4*0C
$GNGSA,A,3,
,,,,,,,,,,,,2.04,1.03,1.76,3*07
$GPGSV,1,1,00,0*65
$GBGSV,3,1,09,01,37,122,35,02,50,173,35,04,36,125,35,06,36,215,36,0*7B
$GBGSV,3,2,09,09,36,286,35,11,19,130,35,12,10,059,35,13,47,201,35,0*79
$GBGSV,3,3,09,14,07,164,35,0*49
$GAGSV,1,1,00,0*74

$GNRMC,000353.00,A,3000.16859,N,12000.06747,E,75.650,38.54,230721,,,A,V*00
$GNGGA,000353.00,3000.16859,N,12000.06747,E,1,09,1.03,-1.6,M,,M,,*79
$GNGSA,A,3,,,,,,,,,,,,,2.04,1.03,1.76,1*05
$GNGSA,A,3,06,09,13,04,02,01,14,11,12,,,,2.04,1.03,1.76,4*0C
$GNGSA,A,3,,,,,,,,,,,,,2.04,1.03,1.76,3*07
$GPGSV,1,1,00,0*65
$GBGSV,3,1,09,01,37,122,35,02,50,173,36,04,36,125,35,06,36,215,35,0*7B
$GBGSV,3,2,09,09
,36,286,35,11,19,130,35,12,10,059,35,13,47,201,35,0*79
$GBGSV,3,3,09,14,07,164,35,0*49
$GAGSV,1,1,00,0*74

$GNRMC,000354.00,A,3000.18454,N,12000.08326,E,75.770,42.96,230721,,,A,V*05
$GNGGA,000354.00,3000.18454,N,12000.08326,E,1,09,1.03,-1.5,M,,M,,*7F
$GNGSA,A,3,,,,,,,,,,,,,2.04,1.03,1.76,1*05
$GNGSA,A,3,06,09,13,04,02,01,14,11,12,,,,2.04,
1.03,1.76,4*0C
$GNGSA,A,3,,,,,,,,,,,,,2.04,1.03,1.76,3*07
$GPGSV,1,1,00,0*65
$GBGSV,3,1,09,01,37,122,35,02,50,173,36,04,36,125,36,06,36,215,36,0*7B
$GBGSV,3,2,09,09,36,286,35,11,19,130,35,12,10,059,34,13,47,201,35,0*78
$GBGSV,3,3,09,14,07,164,35,0*49
$GAGSV,1,1,00,0*74

$GNRMC,000355.00,A,3000.19937,N,12000.10042,E,75.730,47.33,230721,,,A,V*0B
$GNGGA,000355.00,3000.19937,N,12000.10042,E,1,09,1.03,-1.4,M,,M,,*7E
$GNGSA,A,3,,,,,,,,,,,,,2.04,1.03,1.76,1*05
$GNGSA,A,3,06,09,13,04,02,01,14,11,12,,,,2.04,1.03,1.76,4*0C
$GNGSA,A,3,,,,,,,,,,,,,2.04,1.03,1.76,3*07
$GPGSV,1,1,00,0*65
$GBGSV,3,1,09,01,37,122,36,02,50,173,36,04,36,125,36,06,36,215,35,0*7B
$GBGSV,3
,2,09,09,36,286,35,11,19,130,35,12,10,059,35,13,47,201,35,0*79
$GBGSV,3,3,09,14,07,164,35,0*49
$GAGSV,1,1,00,0*74

$GNRMC,000356.00,A,3000.21302,N,12000.11882,E,75.627,51.80,230721,,,A,V*02
$GNGGA,000356.00,3000.21302,N,12000.11882,E,1,09,1.03,-1.4,M,,M,,*7F
$GNGSA,A,3,,,,,,,,,,,,,2.04,1.03,1.76,1*05
$GNGSA,A,3,06,09,13,04,02,01,14,11,12,,,,2.04,1.03,1.76,4*0C
$GNGSA,A,3,,,,,,,,,,,,,2.04,1.03,1.76,3*07
$GPGSV,1,1,00,0
*65
$GBGSV,3,1,09,01,37,122,36,02,50,173,35,04,36,125,36,06,36,215,34,0*79
$GBGSV,3,2,09,09,36,286,35,11,19,130,35,12,10,059,34,13,47,201,34,0*79
$GBGSV,3,3,09,14,07,164,35,0*49
$GAGSV,1,1,00,0*74

$GNRMC,000357.00,A,3000.22536,N,12000.13837,E,75.588,56.29,230721,,,A,V*0F
$GNGGA,000357.00,3000.22536,N,12000.13837,E,1,09,1.03,-1.4,M,,M,,*70
$GNGSA,A,3,,,,,,,,,,,,,2.04,1.03,1.76,1*05
$GNGSA,A,3,06,09,13,04,02,01,14,11,12,,,,2.04,1.03,1.76,4*0C
$GNGSA,A,3,,,,,,,,,,,,,2.04,1.03,1.76,3*07

$GPGSV,1,1,00,0*65
$GBGSV,3,1,09,01,37,122,35,02,50,173,36,04,36,125,35,06,36,215,36,0*78
$GBGSV,3,2,09,09,36,286,35,11,19,130,35,12,10,059,34,13,47,201,35,0*78
$GBGSV,3,3,09,14,07,164,35,0*49
$GAGSV,1,1,00,0*74

$GNRMC,000358.00,A,3000.23635,N,12000.15897,E,75.645,60.71,230721,,,A,V*07
$GNGGA,000358.00,3000.23635,N,12000.15897,E,1,09,1.03,-1.5,M,,M,,*73
$GNGSA,A,3,,,,,,,,,,,,,2.04,1.03,1.76,1*05
$GNGSA,A,3,06,09,13,04,02,01,14,11,12,,,,2.04,1.03,1.76,4*0C
$GNGSA,A,3,,,,,,,,,,,,,2.04,1.03,1.76,3*07
$GPGSV,1,1,00,0*65
$GBGSV,3,1,09,01,37,122,35,02,50,173,35,04,36,125,35,06,36,215,3
5,0*78
$GBGSV,3,2,09,09,36,286,35,11,19,130,35,12,10,059,35,13,47,201,35,0*79
$GBGSV,3,3,09,14,07,164,35,0*49
$GAGSV,1,1,00,0*74

$GNRMC,000359.00,A,3000.24590,N,12000.18051,E,75.664,65.21,230721,,,A,V*01
$GNGGA,000359.00,3000.24590,N,12000.18051,E,1,09,1.03,-1.4,M,,M,,*77
$GNGSA,A,3,,,,,,,,,,,,,2.04,1.03,1.76,1*05
$GNGSA,A,3,06,09,13,04,02,01,14,11,12,,,,2.04,1.03,1.76,4*0C
$GNGSA,A,3,,,,,,,,,,,,,2.04,1.03,1.76,3*07
$GPGSV,1,1,00,0*65
$GBGSV,3,1,09,01
,37,122,35,02,50,173,36,04,36,125,35,06,36,215,34,0*7A
$GBGSV,3,2,09,09,36,286,35,11,19,130,35,12,10,059,35,13,47,201,34,0*78
$GBGSV,3,3,09,14,07,164,34,0*48
$GAGSV,1,1,00,0*74

$GNRMC,000400.00,A,3000.25398,N,12000.20284,E,75.686,69.60,230721,,,A,V*01
$GNGGA,000400.00,3000.25398,N,12000.20284,E,1,09,1.03,-1.4,M,,M,,*72
$GNGSA,A,3,,,,,,,,,,,,,2.04,1.03,1.76,1*05
$GNGSA,A,3,06,09,13,04,02,01,14,11,12,,,,2.04,1.03,1.76,4*0C
$GNGSA,A,3,,,,,,,,,,,,,2.04,1.03,1.76,3*07
$GPGSV,1,1,00,0*65
$GBGSV,3,1,09,01
,37,122,35,02,50,173,35,04,36,125,35,06,36,215,35,0*78
$GBGSV,3,2,09,09,36,286,35,11,19,130,35,12,10,059,35,13,47,201,35,0*79
$GBGSV,3,3,09,14,07,164,35,0*49
$GAGSV,1,1,00,0*74

$GNRMC,000401.00,A,3000.26055,N,12000.22580,E,75.661,73.99,230721,,,A,V*04
$GNGGA,000401.00,3000.26055,N,12000.22580,E,1,09,1.03,-1.4,M,,M,,*73
$GNGSA,A,3,,,,,,,,,,,,,2.04,1.03,1.76,1*05
$GNGSA,A,3,06,09,13,04,02,01,14,11,12,,,,2.04,1.03,1.76,4*0C
$GNGSA,A,3,,,,
,,,,,,,,,2.04,1.03,1.76,3*07
$GPGSV,1,1,00,0*65
$GBGSV,3,1,09,01,37,122,36,02,50,173,35,04,36,125,35,06,36,215,35,0*7B
$GBGSV,3,2,09,09,36,286,35,11,19,130,35,12,10,059,35,13,47,201,35,0*79
$GBGSV,3,3,09,14,07,164,34,0*48
$GAGSV,1,1,00,0*74

$GNRMC,000402.00,A,3000.26555,N,12000.24929,E,75.676,78.48,230721,,,A,V*0A
$GNGGA,000402.00,3000.26555,N,12000.24929,E,1,09,1.03,-1.4,M,,M,,*7C
$GNGSA,A,3,,,,,,,,,,,,,2.04,1.03,1.76,1*05
$GNGSA,A,3,06,09,13,04,02,01,14,11,12,,,,2.04,1.03,1.76,4*0C
$GNGSA,A,3,,,,,,,,,,,,
,2.04,1.03,1.76,3*07
$GPGSV,1,1,00,0*65
$GBGSV,3,1,09,01,37,122,35,02,50,173,35,04,36,125,35,06,36,215,35,0*78
$GBGSV,3,2,09,09,36,286,35,11,19,130,35,12,10,059,34,13,47,201,35,0*78
$GBGSV,3,3,09,14,07,164,35,0*49
$GAGSV,1,1,00,0*74

$GNRMC,000403.00,A,3000.26891,N,12000.27315,E,75.638,83.03,230721,,,A,V*09
$GNGGA,000403.00,3000.26891,N,12000.27315,E,1,09,1.03,-1.3,M,,M,,*79
$GNGSA,A,3,,,,,,,,,,,,,2.04,1.03,1.76,1*05
$GNGSA,A,3,06,09,13,04,02,01,14,11,12,,,,2.04,1.03,1.76,4*0C
$GNGSA,A,3,,,,,,,,,,,,,2.04,1.03,1.76,3*07
$GPGSV,1,1,00,0*65
$GBGSV,3,1,09,01,37,122,36,02,50,173,35,04,36,125,35,06,36,215,35,0*
7B
$GBGSV,3,2,09,09,36,286,35,11,19,130,35,12,10,059,35,13,47,201,35,0*79
$GBGSV,3,3,09,14,07,164,35,0*49
$GAGSV,1,1,00,0*74

$GNRMC,000404.00,A,3000.27062,N,12000.29724,E,75.647,87.53,230721,,,A,V*0A
$GNGGA,000404.00,3000.27062,N,12000.29724,E,1,09,1.03,-1.4,M,,M,,*74
$GNGSA,A,3,,,,,,,,,,,,,2.04,1.03,1.76,1*05
$GNGSA,A,3,06,09,13,04,02,01,14,11,12,,,,2.04,1.03,1.76,4*0C
$GNG
SA,A,3,,,,,,,,,,,,,2.04,1.03,1.76,3*07
$GPGSV,1,1,00,0*65
$GBGSV,3,1,09,01,37,122,35,02,50,173,35,04,36,125,35,06,36,215,35,0*78
$GBGSV,3,2,09,09,36,286,35,11,19,130,35,12,10,059,34,13,47,201,35,0*78
$GBGSV,3,3,09,14,07,164,35,0*49
$GAGSV,1,1,00,0*74

$GNRMC,000405.00,A,3000.27072,N,12000.32140,E,75.634,91.95,230721,,,A,V*0D
$GNGGA,000405.00,3000.27072,N,12000.32140,E,1,09,1.03,-1.5,M,,M,,*7B
$GNGSA,A,3,,,,,,,,,,,,,2.04,1.03,1.76,1*05
$GNGSA,A,3,06,09,13,04,02,01,14,11,12,,,,2.04,1.03,1.76,4*0C
$GNGSA,A,3,,,,,,,,,,,,,2.04,1.03,1.76,3*07
$GPGSV,1,1,00,0*65
$GBGSV,3,1,09,01,37,122,3
5,02,50,173,36,04,36,125,35,06,36,215,35,0*7B
$GBGSV,3,2,09,09,36,286,35,11,19,130,35,12,10,059,35,13,47,201,35,0*79
$GBGSV,3,3,09,14,07,164,34,0*48
$GAGSV,1,1,00,0*74

$GNRMC,000406.00,A,3000.26918,N,12000.34547,E,75.495,96.42,230721,,,A,V*0B
$GNGGA,000406.00,3000.26918,N,12000.34547,E,1,09,1.03,-1.5,M,,M,,*79
$GNGSA,A,3,,,,,,,,,,,,,2.04,1.03,1.76,1*05
$GNGSA,A,3,06,09,13,04,02,01,14,11,12,,,,2.04,1.03,1.76,4*0C
$GNGSA,A,3,,,,,,,,,,,,,2.04,1.03,1.76,3*07
$GPGSV,1,1,00,0*65
$GBGSV,3,1,09,01,37,122,35,02,50,173,35,04,36,1
25,35,06,36,215,34,0*79
$GBGSV,3,2,09,09,36,286,35,11,19,129,35,12,10,059,34,13,47,201,35,0*70
$GBGSV,3,3,09,14,07,164,34,0*48
$GAGSV,1,1,00,0*74

$GNRMC,000407.00,A,3000.26603,N,12000.36935,E,75.662,100.82,230721,,,A,V*3C
$GNGGA,000407.00,3000.26603,N,12000.36935,E,1,09,1.03,-1.4,M,,M,,*77
$GNGSA,A,3,,,,,,,,,,,,,2.04,1.03,1.76,1*05
$GNGSA,A,3,06,09,13,04,02,01,14,11,12,,,,2.04,1.03,1.76,4*0C
$GNGSA,A,3,,,,,,,,,,,,,2.04,1.03,1.76,3*07
$GPGSV,1,1,00,0*65
$GBGSV,3,1,09,01,37,122,35,02,50,173,35,04,36,125,35,06,36,215,34,0*79

$GBGSV,3,2,09,09,36,286,35,11,19,129,35,12,10,059,35,13,47,201,35,0*71
$GBGSV,3,3,09,14,07,164,35,0*49
$GAGSV,1,1,00,0*74

$GNRMC,000408.00,A,3000.26127,N,12000.39292,E,75.586,105.21,230721,,,A,V*3E
$GNGGA,000408.00,3000.26127,N,12000.39292,E,1,09,1.03,-1.3,M,,M,,*77
$GNGSA,A,3,,,,,,,,,,,,,2.04,1.03,1.76,1*05
$GNGSA,A,3,06,09,13,04,02,01,14,11,12,,,,2.04,
1.03,1.76,4*0C
$GNGSA,A,3,,,,,,,,,,,,,2.04,1.03,1.76,3*07
$GPGSV,1,1,00,0*65
$GBGSV,3,1,09,01,37,122,34,02,50,173,35,04,36,125,35,06,36,215,35,0*79
$GBGSV,3,2,09,09,36,286,35,11,19,129,35,12,10,059,35,13,47,201,35,0*71
$GBGSV,3,3,09,14,07,164,35,0*49
$GAGSV,1,1,00,0*74

$GNRMC,000409.00,A,3000.25495,N,12000.41596,E,75.671,109.74,230721,,,A,V*3B
$GNGGA,000409.00,3000.25495,N,12000.41596,E,1,09,1.03,-1.3,M,,M,,*75
$GNGSA,A,3,,,,,,,,,,,,,2.04,1.03,1.75,1*06
$GNGSA,A,3,06,09,13,04,02,01,14,11,12,,,,2.04,1.03,1.75,4*0F
$GNGSA,A,3,,,,,,,,,,,,,2.04,1.03,1.75,3*04
$GPGSV,1,1,00,0*65
$GBGSV,3,1,09,01,37,122,35,02,50,173,35,04,36,125,35,06,36,215,35,0*78
$GBGSV,
3,2,09,09,36,286,35,11,19,129,34,12,10,059,35,13,47,201,35,0*70
$GBGSV,3,3,09,14,07,164,35,0*49
$GAGSV,1,1,00,0*74

$GNRMC,000410.00,A,3000.24707,N,12000.43837,E,75.653,114.21,230721,,,A,V*32
$GNGGA,000410.00,3000.24707,N,12000.43837,E,1,09,1.03,-1.2,M,,M,,*71
$GNGSA,A,3,,,,,,,,,,,,,2.04,1.03,1.75,1*06
$GNGSA,A,3,06,09,13,04,02,01,14,11,12,,,,2.04,1.03,1.75,4*0F
$GNGSA,A,3,,,,,,,,,,,,,2.04
,1.03,1.75,3*04
$GPGSV,1,1,00,0*65
$GBGSV,3,1,09,01,37,122,35,02,50,173,36,04,36,125,35,06,36,215,35,0*7B
$GBGSV,3,2,09,09,36,286,35,11,19,129,35,12,10,059,35,13,47,201,35,0*71
$GBGSV,3,3,09,14,07,164,34,0*48
$GAGSV,1,1,00,0*74

$GNRMC,000411.00,A,3000.23770,N,12000.46000,E,75.607,118.68,230721,,,A,V*3D
$GNGGA,000411.00,3000.23770,N,12000.46000,E,1,09,1.03,-1.3,M,,M,,*7F
$GNGSA,A,3,,,,,,,,,,,,,2.04,1.03,1.75,1*06
$GNGSA,A,3,06,09,13,04,02,01,14,11,12,,,,2.04,1.03,1.75,4*0F
$GNGSA,A,3,,,,,,,,,,,,,2.04,1.03,1.75,3*04
$GPGSV,1,1,00,0*
65
$GBGSV,3,1,09,01,37,122,35,02,50,173,35,04,36,125,35,06,36,215,35,0*78
$GBGSV,3,2,09,09,36,286,35,11,19,129,35,12,10,059,35,13,46,201,35,0*70
$GBGSV,3,3,09,14,07,164,35,0*49
$GAGSV,1,1,00,0*74

$GNRMC,000412.00,A,3000.22689,N,12000.48075,E,75.627,123.08,230721,,,A,V*38
$GNGGA,000412.00,3000.22689,N,12000.48075,E,1,09,1.03,-1.2,M,,M,,*77
$GNGSA,A,3,,,,,,,,,,,,,2.04,1.03,1.75,1*06
$GNGSA,A,3,06,09,13,04,02,01,14,11,12,,,,2.04,1.03,1.75,4*0F
$GNGSA,A,3,,,,,,,,,,,,,2.04,1.03,1.75,3*04
$GPGSV,1,1,00,0*65
$GBGSV,3,1,09,01,37,122,35,02,50,173,35,04,36,125,35,06,36,215,35,0*78
$GBGSV,3,2,09,09,
36,286,35,11,19,129,35,12,10,059,35,13,46,201,35,0*70
$GBGSV,3,3,09,14,07,164,34,0*48
$GAGSV,1,1,00,0*74

$GNRMC,000413.00,A,3000.21474,N,12000.50045,E,75.572,127.55,230721,,,A,V*3F
$GNGGA,000413.00,3000.21474,N,12000.50045,E,1,09,1.03,-1.2,M,,M,,*7F
$GNGSA,A,3,,,,,,,,,,,,,2.04,1.03,1.75,1*06
$GNGSA,A,3,06,09,13,04,02,01,14,11,12,,,,2.04,1.03,1.75,4*0F
$GNGSA,A,3,,,,,,,,,,,,,2.04,1.03,1.75,3*04
$GPGSV,1,1,00,0*65
$GBGSV,3,1,09,01,37,122,35,02,50,173,36,04,36,125,36,06,36,215,35,0
*78
$GBGSV,3,2,09,09,36,286,35,11,19,129,35,12,10,059,34,13,46,201,35,0*71
$GBGSV,3,3,09,14,07,164,34,0*48
$GAGSV,1,1,00,0*74

$GNRMC,000414.00,A,3000.20127,N,12000.51900,E,75.701,132.08,230721,,,A,V*39
$GNGGA,000414.00,3000.20127,N,12000.51900,E,1,09,1.03,-1.2,M,,M,,*73
$GNGSA,A,3,,,,,,,,,,,,,2.04,1.03,1.75,1*06
$GNGSA,A,3,06,09,13,04,02,01,14,11,12,,,,2.04,1.03,1.75,4*0F
$GNGSA,A,3,,,,,,,,,,,,,2.04,1.03,1.75,3*04
$GPGSV,1,1,00,0*65
$GBGSV,3,1,09,01,37,122,35,02,50,173,35,04,36
,125,36,06,36,215,35,0*7B
$GBGSV,3,2,09,09,36,286,35,11,19,129,35,12,10,059,34,13,46,201,35,0*71
$GBGSV,3,3,09,14,07,164,35,0*49
$GAGSV,1,1,00,0*74

$GNRMC,000415.00,A,3000.18658,N,12000.53630,E,75.564,136.47,230721,,,A,V*3C
$GNGGA,000415.00,3000.18658,N,12000.53630,E,1,09,1.03,-1.3,M,,M,,*79
$GNGSA,A,3,,,,,,,,,,,,,2.04,1.03,1.75,1*06
$GNGSA,A,3,06,09,13,04,02,01,14,11,12,,,,2.04,1.03,1.75,4*0F
$GNGSA,A,3,,,,,,,,,,,,,2.04,1.03,1.75,3*04
$GPGSV,1,1,00,0*65
$GBGSV,3,1,09,01,37,122,35,02,50,173,36,04,36,125,36,06,36,215,35,0*78
$GBGSV
,3,2,09,09,36,286,35,11,19,129,35,12,10,059,35,13,46,201,35,0*70
$GBGSV,3,3,09,14,07,164,35,0*49
$GAGSV,1,1,00,0*74

$GNRMC,000416.00,A,3000.17077,N,12000.55224,E,75.563,141.00,230721,,,A,V*38
$GNGGA,000416.00,3000.17077,N,12000.55224,E,1,09,1.03,-1.3,M,,M,,*79
$GNGSA,A,3,,,,,,,,,,,,,2.04,1.03,1.75,1*06
$GNGSA,A,3,06,09,13,04,02,01,14,11,12,,,,2.04,1.03,1.75,4*0F
$GNGSA,A,3,,,,,,,,,,,,,2.04,1.03,1.75,3*04
$GPGSV,1,1,00,0*65
$GBGSV,3,1,09,01,37,122,36,02,50,173,36,04,36,125,36,06,36,215,35,0*7B
$
GBGSV,3,2,09,09,36,286,35,11,19,129,35,12,10,059,35,13,46,201,35,0*70
$GBGSV,3,3,09,14,07,164,34,0*48
$GAGSV,1,1,00,0*74

$GNRMC,000417.00,A,3000.15394,N,12000.56671,E,75.629,145.39,230721,,,A,V*31
$GNGGA,000417.00,3000.15394,N,12000.56671,E,1,09,1.03,-1.3,M,,M,,*73
$GNGSA,A,3,,,,,,,,,,,,,2.04,1.03,1.75,1*06
$GNGSA,A,3,06,09,13,04,02,01,14,11,12,,,,2.04,1.03,1.75,4*0F
$GNGSA,A,3,,,,,,,,,,,,,2.04,1.03,1.75,3*04
$GPGSV,1,1,00,0*65
$GBGSV,3,1,09,01,37,122,35,02,50,173,35,04,36,125,36,06,36
,215,35,0*7B
$GBGSV,3,2,09,09,36,286,35,11,19,129,35,12,10,059,34,13,46,201,35,0*71
$GBGSV,3,3,09,14,07,164,35,0*49
$GAGSV,1,1,00,0*74

$GNRMC,000418.00,A,3000.13618,N,12000.57964,E,75.600,149.90,230721,,,A,V*37
$GNGGA,000418.00,3000.13618,N,12000.57964,E,1,09,1.03,-1.2,M,,M,,*70
$GNGSA,A,3,,,,,,,,,,,,,2.04,1.03,1.75,1*06
$GNGSA,A,3,06,09,13,04,02,01,14,11,12,,,,2.04,1.03,1.75,4*0F
$GNGSA,A,3,,,,,,,,,,,,,2.04,1.03,1.75,3*04
$GPGSV,1,1,00,0*65
$GBGSV,3,1,09,01,37,122,35,02,50,173,35,04,36,125,36,06,36,215,35,0*
7B
$GBGSV,3,2,09,09,36,286,35,11,19,129,35,12,10,059,34,13,46,201,35,0*71
$GBGSV,3,3,09,14,07,164,35,0*49
$GAGSV,1,1,00,0*74

$GNRMC,000419.00,A,3000.11759,N,12000.59094,E,75.657,154.33,230721,,,A,V*3F
$GNGGA,000419.00,3000.11759,N,12000.59094,E,1,09,1.03,-1.1,M,,M,,*7C
$GNGSA,A,3,,,,,,,,,,,,,2.03,1.03,1.75,1*01
$GNGSA,A,3,06,09,13,04,02,01,14,11,12,,,,2.03,1.03,1.75,4*08
$GNGSA,A,3,,,,,,,,,,,,,2.03,1.03,1.75,3*03
$GPGSV,1,1,00,0*65
$GBGSV,3,1,09,01,37,122,35,02,50,173,35,04,36,125,35,06,36,215,35,0*78
$GBGSV,3,2,09,09,3
6,286,35,11,19,129,35,12,10,059,35,13,46,201,35,0*70
$GBGSV,3,3,09,14,07,164,34,0*48
$GAGSV,1,1,00,0*74

$GNRMC,000420.00,A,3000.09828,N,12000.60055,E,75.681,158.82,230721,,,A,V*3F
$GNGGA,000420.00,3000.09828,N,12000.60055,E,1,09,1.03,-1.1,M,,M,,*71
$GNGSA,A,3,,,,,,,,,,,,,2.03,1.03,1.75,1*01
$GNGSA,A,3,06,09,13,04,02,01,14,11,12,,,,2.03,1.03,1.75,4*08
$GNGSA,A,3,,,,,,
,,,,,,,2.03,1.03,1.75,3*03
$GPGSV,1,1,00,0*65
$GBGSV,3,1,09,01,37,122,35,02,50,173,35,04,36,125,35,06,36,215,35,0*78
$GBGSV,3,2,09,09,36,286,35,11,19,129,35,12,10,059,35,13,46,201,35,0*70
$GBGSV,3,3,09,14,07,164,34,0*48
$GAGSV,1,1,00,0*74

$GNRMC,000421.00,A,3000.07837,N,12000.60841,E,75.593,163.26,230721,,,A,V*35
$GNGGA,000421.00,3000.07837,N,12000.60841,E,1,09,1.03,-1.1,M,,M,,*7D
$GNGSA,A,3,,,,,,,,,,,,,2.03,1.03,1.75,1*01
$GNGSA,A,3,06,09,13,04,02,01,14,11,12,,,,2.03,1.03
,1.75,4*08
$GNGSA,A,3,,,,,,,,,,,,,2.03,1.03,1.75,3*03
$GPGSV,1,1,00,0*65
$GBGSV,3,1,09,01,37,122,36,02,50,173,36,04,36,125,35,06,36,215,35,0*78
$GBGSV,3,2,09,09,36,286,35,11,19,129,35,12,10,059,35,13,46,201,35,0*70
$GBGSV,3,3,09,14,07,164,35,0*49
$GAGSV,1,1,00,0*74

$GNRMC,000422.00,A,3000.05805,N,12000.61447,E,75.631,167.67,230721,,,A,V*34
$GNGGA,000422.00,3000.05805,N,12000.61447,E,1,09,1.03,-1.1,M,,M,,*76
$GNGSA,A,3,,,,,,,,,,,,,2.03,1.03,1.75,1*01
$GNGSA,A,3,06,09,13,04,02,01,14,11,12,,,,2.03,1.03,1.75,4*08
$GNGSA,A,3,,,,,,,,,,,,,2.03,1.03,1.75,3*03

$GPGSV,1,1,00,0*65
$GBGSV,3,1,09,01,37,122,36,02,50,173,36,04,36,125,36,06,36,215,35,0*7B
$GBGSV,3,2,09,09,36,286,35,11,19,129,35,12,10,059,35,13,46,201,36,0*73
$GBGSV,3,3,09,14,07,164,34,0*48
$GAGSV,1,1,00,0*74

$GNRMC,000423.00,A,3000.03735,N,12000.61870,E,75.584,172.14,230721,,,A,V*3A
$GNGGA,000423.00,3000.03735,N,12000.61870,E,1,09,1.03,-1.2,M,,M,,*76
$GNGSA,A,3,,,,,,,,,,,,,2.03,1.03,1.75,1*01
$GNGSA,A,3,06,09,13,04,02,01,14,11,12,,,,2.03,1.03
,1.75,4*08
$GNGSA,A,3,,,,,,,,,,,,,2.03,1.03,1.75,3*03
$GPGSV,1,1,00,0*65
$GBGSV,3,1,09,01,37,122,35,02,50,173,35,04,36,125,36,06,36,215,36,0*78
$GBGSV,3,2,09,09,36,286,35,11,19,129,35,12,10,059,35,13,46,201,35,0*70
$GBGSV,3,3,09,14,07,164,35,0*49
$GAGSV,1,1,00,0*74

$GNRMC,000424.00,A,3000.01642,N,12000.62106,E,75.618,176.62,230721,,,A,V*36
$GNGGA,000424.00,3000.01642,N,12000.62106,E,1,09,1.03,-1.2,M,,M,,*79
$GNGSA,A,3,,,,,,,,,,,,,2.03,1.03,1.75,1*01
$GNGSA,A,3,06,09,13,04,02,01,14,11,12,,,,2.03,1.03,1.75,
4*08
$GNGSA,A,3,,,,,,,,,,,,,2.03,1.03,1.75,3*03
$GPGSV,1,1,00,0*65
$GBGSV,3,1,09,01,37,122,36,02,50,173,36,04,36,125,35,06,36,215,35,0*78
$GBGSV,3,2,09,09,36,286,35,11,19,129,35,12,10,059,35,13,46,201,35,0*70
