$GNRMC,000026.00,A,2959.92518,N,12000.61009,E,75.695,195.95,230721,,,A,V*3F
$GNGGA,000026.00,2959.92518,N,12000.61009,E,1,09,1.02,-2.3,M,,M,,*73
$GNGSA,A,3,04,07,13,02,08,20,23,25,27,,,,1.86,1.02,1.56,1*05
$GNGSA,A,3,,,,,,,,,,,,,1.86,1.02,1.56,4*0A
$GNGSA,A,3,,,,,,,,,,,,,1.86,1.02,1.56,3*0D
$GPGSV,4,1,14,02,32,299,35,04,51,247,36,07,84,117,36,08,47,207,35,0*67
$GPGSV,4,2,
14,13,49,030,36,20,23,121,35,23,27,056,35,25,66,042,37,0*6C
$GPGSV,4,3,14,27,18,218,35,16,01,039,,42,48,143,,50,45,136,,0*66
$GPGSV,4,4,14,40,13,256,,41,36,236,,0*60
$GBGSV,3,1,11,01,37,121,,02,50,170,,06,37,215,,09,37,287,,0*77
$GBGSV,3,2,11,11,18,131,,12,10,060,,13,48,202,,14,09,164,,0*79
$GBGSV,3,3,11,23,50,143,,24,24,076,,29,06,278,,0*44
$GAGSV,1,1,00,0*74

$GNRMC,000027.00,A,2959.90501,N,12000.60250,E,75.859,200.47,230721,,,A,V*35
$GNGGA,000027.00,2959.90501,N,12000.60250,E,1,09,1.02,-2.0,M,,M,,*74
$GNGSA,A,3,04,07,13,02,08,20,23,25,27,,,,1.86,1.02,1.56,1*05
$GNGSA,A,3,,,,,,,,,,,,,1.86,1.02,1.56,4*0A
$GNGSA,A,3,,,,,,,,,,,,,1.86,1.02,1.56,3*0D
$GPGSV,4,1
,14,02,32,299,35,04,51,247,36,07,84,117,36,08,47,207,36,0*64
$GPGSV,4,2,14,13,49,030,36,20,23,121,35,23,27,056,35,25,66,042,37,0*6C
$GPGSV,4,3,14,27,18,218,35,16,01,039,,42,48,143,,50,45,136,,0*66
$GPGSV,4,4,14,40,13,256,,41,36,236,,0*60
$GBGSV,3,1,11,01,37,121,,02,50,170,,06,37,215,,09,37,287,,0*77
$GBGSV,3,2,11,11,18,131,,12,10,060,,13,48,202,,14,09,164,,0*79
$GBGSV,3,3,11,23,50,143,,24,24,076,,29,06,278,,0*44
$GAGSV,1,1,00,0*74

$GNRMC,000028.00,A,2959.88565,N,12000.59306,E,75.748,204.74,230721,,,A,V*32
$GNGGA,000028.00,2959.88565,N,12000.59306,E,1,09,1.02,-1.8,M,,M,,*73
$GNGSA,A,3,04,07,13,02,08,20,23,25,27,,,,1.86,1.02,1.56,1*05
$GNGSA,A,3,,,,,,,,,,,,,1.86,1.02,1.56,4*0A
$GNGSA,A,3,,,,,,,,,,,,,1.86,1.02,1.56,3*0D
$GPGSV,4,1,14,02,32,299,36,04,51,247,36,07,84,117,36,08,47,207,36,0*67
$GPGSV,4,2,
14,13,49,030,36,20,23,121,35,23,27,056,36,25,66,042,36,0*6E
$GPGSV,4,3,14,27,18,218,35,16,01,039,,42,48,143,,50,45,136,,0*66
$GPGSV,4,4,14,40,13,256,,41,36,236,,0*60
$GBGSV,3,1,11,01,37,121,,02,50,170,,06,37,215,,09,37,287,,0*77
$GBGSV,3,2,11,11,18,131,,12,10,060,,13,48,202,,14,09,164,,0*79
$GBGSV,3,3,11,23,50,143,,24,24,076,,29,06,278,,0*44
$GAGSV,1,1,00,0*74

$GNRMC,000029.00,A,2959.86698,N,12000.58196,E,75.426,209.31,230721,,,A,V*31
$GNGGA,000029.00,2959.86698,N,12000.58196,E,1,10,1.02,-1.9,M,,M,,*7E
$GNGSA,A,3,04,07,13,02,08,20,23,25,27,,,,1.86,1.02,1.56,1*05
$GNGSA,A,3,06,,,,,,,,,,,,1.86,1.02,1.56,4*0C
$GNGSA,A,3,,,,,
,,,,,,,,1.86,1.02,1.56,3*0D
$GPGSV,4,1,14,02,32,299,36,04,51,247,36,07,84,117,37,08,47,207,36,0*66
$GPGSV,4,2,14,13,49,030,35,20,23,121,35,23,27,056,35,25,66,042,37,0*6F
$GPGSV,4,3,14,27,18,218,35,16,01,039,,42,48,143,,50,45,136,,0*66
$GPGSV,4,4,14,40,13,256,,41,36,236,,0*60
$GBGSV,3,1,11,01,37,121,,02,50,170,,06,37,215,32,09,37,287,,0*76
$GBGSV,3,2,11,11,18,131,,12,10,060,,13,48,202,,14,09,164,,0*79
$GBGSV,3,3,11,23,50,143,,24,24,076,,29,06,278,,0*44
$GAGSV,1,1,00,0*74

$GNRMC,000030.00,A,2959.84929,N,12000.56925,E,75.800,213.58,230721,,,A,V*3C
$GNGGA,000030.00,2959.84929,N,12000.56925,E,1,10,1.02,-2.1,M,,M,,*74
$GNGSA,A,3,04,07,13,02,08,20,23,25,27,,,,1.86,1.02,1.56,1*05
$GNGSA,A,3,06,,,,,,,,,,,,1.86,1.02,1.56,4*0C
$GNGSA,A,3,,,,,,,,,,,,,1.86,1.02,1.56,3*0D
$GPGSV,4,1,14,02,32,299,36,04,51,247,36,07,84,117,37,08,47,207,36,0*66
$GPGSV,4,2,14,13,49,030,36,2
0,23,121,35,23,27,056,35,25,66,042,36,0*6D
$GPGSV,4,3,14,27,18,218,35,16,01,039,,42,48,143,,50,45,136,,0*66
$GPGSV,4,4,14,40,13,256,,41,36,236,,0*60
$GBGSV,3,1,11,01,37,121,,02,50,170,,06,37,215,31,09,37,287,,0*75
$GBGSV,3,2,11,11,18,131,,12,10,060,,13,48,202,,14,09,164,,0*79
$GBGSV,3,3,11,23,50,143,,24,24,076,,29,06,278,,0*44
$GAGSV,1,1,00,0*74

$GNRMC,000031.00,A,2959.83229,N,12000.55492,E,75.662,218.49,230721,,,A,V*32
$GNGGA,000031.00,2959.83229,N,12000.55492,E,1,10,1.02,-2.3,M,,M,,*79
$GNGSA,A,3,04,07,13,02,08,20,23,25,27,,,,1.86,1.02,1.56,1*05
$GNGSA,A,3,06,,,,,,,,,,,,1.86,1.02,1.56,4*0C
$GNGSA,A,3,,,,,,,,,,,,,1.86,1.02,1.56,3*0D
$GPGSV,4,1,14,02,32,299,35,04,51,247,36,07,84,117,36,08,47,207,36,0*64
$GPGSV,4,2,14,13,49,030,37,20,23,121,35,23
,27,056,35,25,66,042,36,0*6C
$GPGSV,4,3,14,27,18,218,35,16,01,039,,42,48,143,,50,45,136,,0*66
$GPGSV,4,4,14,40,13,256,,41,36,236,,0*60
$GBGSV,3,1,11,01,37,121,,02,50,170,,06,37,215,31,09,37,287,,0*75
$GBGSV,3,2,11,11,18,131,,12,10,060,,13,48,202,,14,09,164,,0*79
$GBGSV,3,3,11,23,50,143,,24,24,076,,29,06,278,,0*44
$GAGSV,1,1,00,0*74

$GNRMC,000032.00,A,2959.81640,N,12000.53913,E,75.543,223.00,230721,,,A,V*3F
$GNGGA,000032.00,2959.81640,N,12000.53913,E,1,10,1.02,-1.7,M,,M,,*76
$GNGSA,A,3,04,07,13,02,08,20,23,25,27,,,,1.86,1.02,1.56,1*05
$GNGSA,A,3,06,,,,,,,,,,,,1.86,1.02,1.56,4*0C
$GNGSA,A,3,,,,,,,,,,,,,1.86,1.02,1.56,3*0D
$GP
GSV,4,1,14,02,32,299,36,04,51,247,35,07,84,117,36,08,47,207,36,0*64
$GPGSV,4,2,14,13,49,030,36,20,23,121,35,23,27,056,35,25,66,042,36,0*6D
$GPGSV,4,3,14,27,18,218,35,16,01,039,,42,48,143,,50,45,136,,0*66
$GPGSV,4,4,14,40,13,256,,41,36,236,,0*60
$GBGSV,3,1,11,01,37,121,,02,50,170,,06,37,215,31,09,37,287,,0*75
$GBGSV,3,2,11,11,18,131,,12,10,060,,13,48,202,,14,09,164,,0*79
$GBGSV,3,3,11,23,50,143,,24,24,076,,29,06,278,,0*44
$GAGSV,1,1,00,0*74

$GNRMC,000033.00,A,2959.80162,N,12000.52214,E,75.725,227.23,230721,,,A,V*32
$GNGGA,000033.00,2959.80162,N,12000.52214,E,1,10,1.02,-1.9,M,,M,,*72
$GNGSA,A,3,04,07,13,02,08,20,23,25,27,,,,1.86,1.02,1.56,1*05
$GNGSA,A,3,06,,,,,,,,,,,,1.86,1.02,1.56,4*0C
$GNGSA,A,3,,,,,,,,,,,,,1.86,1.02,1.56,3*0D
$GPGSV,4,1,14,02,32,299,36,04,51,247,36,07,84,116,37,08,47,207,36,0*67
$GPGSV,4,2,14,13,49,030,36,20,23,1
21,36,23,27,056,36,25,66,042,36,0*6D
$GPGSV,4,3,14,27,18,218,35,16,01,039,,42,48,143,,50,45,136,,0*66
$GPGSV,4,4,14,40,13,256,,41,36,236,,0*60
$GBGSV,3,1,11,01,37,121,,02,50,170,,06,37,215,31,09,37,287,,0*75
$GBGSV,3,2,11,11,18,131,,12,10,060,,13,48,202,,14,09,164,,0*79
$GBGSV,3,3,11,23,50,143,,24,24,076,,29,06,278,,0*44
$GAGSV,1,1,00,0*74

$GNRMC,000034.00,A,2959.78808,N,12000.50389,E,75.653,231.30,230721,,,A,V*35
$GNGGA,000034.00,2959.78808,N,12000.50389,E,1,10,1.02,-1.7,M,,M,,*7E
$GNGSA,A,3,04,07,13,02,08,20,23,25,27,,,,1.86,1.02,1.56,1*05
$GNGSA,A,3,06,,,,,,,,,,,,1.86,1.02,1.56,4*0C
$GNGSA,A,3,,,,,,,,,,,,,1.86,1.02,1.56,3*0D
$GPGSV,4,1,14,02,32,299,35,04,51,247,36,07,84,116,37,08,47,207,36,0*64
$GPGSV,4,2,14,13,49,030,36,20,23,121,35
,23,27,056,35,25,66,042,36,0*6D
$GPGSV,4,3,14,27,18,218,35,16,01,039,,42,48,143,,50,45,136,,0*66
$GPGSV,4,4,14,40,13,256,,41,36,236,,0*60
$GBGSV,3,1,11,01,37,121,,02,50,170,,06,37,215,31,09,36,287,,0*74
$GBGSV,3,2,11,11,18,131,,12,10,060,,13,48,202,,14,09,164,,0*79
$GBGSV,3,3,11,23,50,143,,24,24,076,,29,06,278,,0*44
$GAGSV,1,1,00,0*74

$GNRMC,000035.00,A,2959.77571,N,12000.48441,E,75.789,236.01,230721,,,A,V*31
$GNGGA,000035.00,2959.77571,N,12000.48441,E,1,10,1.02,-2.1,M,,M,,*7C
$GNGSA,A,3,04,07,13,02,08,20,23,25,27,,,,1.86,1.02,1.56,1*05
$GNGSA,A,3,06,,,,,,,,,,,,1.86,1.02,1.56,4*0C
$GNGSA,A,3,,,,,,,,,,,,,1.86,1.02,1.56,3*0D
$GPGSV,4,1,13,02,32,299,35,04,51,247,36,07,
84,116,37,08,47,207,36,0*63
$GPGSV,4,2,13,13,49,030,35,20,23,121,35,23,27,056,35,25,66,042,36,0*69
$GPGSV,4,3,13,27,18,218,35,42,48,143,,50,45,136,,40,13,256,,0*6A
$GPGSV,4,4,13,41,36,236,,0*50
$GBGSV,3,1,11,01,37,121,,02,50,170,,06,37,215,31,09,36,287,,0*74
$GBGSV,3,2,11,11,18,131,,12,10,060,,13,48,202,,14,09,164,,0*79
$GBGSV,3,3,11,23,50,143,,24,24,076,,29,06,278,,0*44
$GAGSV,1,1,00,0*74

$GNRMC,000036.00,A,2959.76474,N,12000.46374,E,75.574,240.65,230721,,,A,V*3B
$GNGGA,000036.00,2959.76474,N,12000.46374,E,1,10,1.02,-2.3,M,,M,,*77
$GNGSA,A,3,04,07,13,02,08,20,23,25,27,,,,1.86,1.02,1.56,1*05
$GNGSA,A,3,06,,,,,,,,,,,,1.86,1.02,1.56,4*0C
$GNGSA,A,3,,,,,,,,,,,,,1.86,1.02,1.56,3*0D
$GPGSV,4,1,13,02,32,299,36,04,51,247,36,07,84,116,37,08,47,207,3
6,0*60
$GPGSV,4,2,13,13,49,030,36,20,23,121,35,23,27,056,36,25,66,042,36,0*69
$GPGSV,4,3,13,27,18,218,35,42,48,143,,50,45,136,,40,13,256,,0*6A
$GPGSV,4,4,13,41,36,236,,0*50
$GBGSV,3,1,11,01,37,121,,02,50,170,,06,37,215,31,09,36,287,32,0*75
$GBGSV,3,2,11,11,18,131,,12,10,060,,13,48,202,30,14,09,164,,0*7A
$GBGSV,3,3,11,23,50,143,,24,24,076,,29,06,278,,0*44
$GAGSV,1,1,00,0*74

$GNRMC,000037.00,A,2959.75515,N,12000.44223,E,75.450,244.97,230721,,,A,V*30
$GNGGA,000037.00,2959.75515,N,12000.44223,E,1,10,1.02,-2.3,M,,M,,*72
$GNGSA,A,3,04,07,13,02,08,20,23,25,27,,,,1.86,1.02,1.56,1*05
$GNGSA,A,3,06,,,,,,,,,,,,1.86,1.02,1.56,4*0C
$GNGSA,A,3,,,,,,,,,,,,,1.86,1.02,1.56,3*0D
$GPGSV,4,1,13,02,32,299,35,04,51,247,36,07,84,116,37,08,47,207,36,0*63
$GPGSV,4,2,13,13,49,030,36,20,
23,121,35,23,27,056,35,25,66,042,36,0*6A
$GPGSV,4,3,13,27,18,218,35,42,48,143,,50,45,136,,40,13,256,,0*6A
$GPGSV,4,4,13,41,36,236,,0*50
$GBGSV,3,1,11,01,37,121,,02,50,170,,06,37,215,31,09,36,287,32,0*75
$GBGSV,3,2,11,11,18,131,,12,10,060,,13,48,202,32,14,09,164,,0*78
$GBGSV,3,3,11,23,50,143,,24,24,076,,29,06,278,,0*44
$GAGSV,1,1,00,0*74

$GNRMC,000038.00,A,2959.74700,N,12000.41991,E,75.953,249.57,230721,,,A,V*30
$GNGGA,000038.00,2959.74700,N,12000.41991,E,1,10,1.02,-1.6,M,,M,,*7B
$GNGSA,A,3,04,07,13,02,08,20,23,25,27,,,,1.86,1.02,1.56,1*05
$GNGSA,A,3,06,,,,,,,,,,,,1.86,1.02,1.56,4*0C
$GNGSA,A,3,,,,,,,,,,,,,1.86,1.02,1.56,3*0D

$GPGSV,4,1,13,02,32,299,36,04,51,247,36,07,84,116,36,08,47,207,36,0*61
$GPGSV,4,2,13,13,49,030,36,20,23,121,35,23,27,056,36,25,66,042,36,0*69
$GPGSV,4,3,13,27,18,218,35,42,48,143,,50,45,136,,40,13,256,,0*6A
$GPGSV,4,4,13,41,36,236,,0*50
$GBGSV,3,1,11,01,37,121,,02,50,170,,06,37,215,32,09,36,287,32,0*76
$GBGSV,3,2,11,11,18,131,,12,10,060,,13,48,202,32,14,09,164,,0*78
$GBGSV,3,3,11,23,50,143,,24,24,076,,29,06,278,,0*44
$GAGSV,1,1,00,0*74

$GNRMC,000039.00,A,2959.74045,N,12000.39680,E,75.847,254.11,230721,,,A,V*3D
$GNGGA,000039.00,2959.74045,N,12000.39680,E,1,10,1.02,-1.9,M,,M,,*73
$GNGSA,A,3,04,07,13,02,08,20,23,25,27,,,,1.86,1.02,1.56,1*05
$GNGSA,A,3,06,,,,,,,,,,,,1.86,1.02,1.56,4*0C
$GNGSA,A,3,,,,,,,,,,,,,1.86,1.02,1.56,3*0D
$GPG
SV,4,1,13,02,32,299,36,04,51,247,36,07,84,116,37,08,47,207,35,0*63
$GPGSV,4,2,13,13,49,030,35,20,23,121,36,23,27,056,35,25,66,042,36,0*6A
$GPGSV,4,3,13,27,18,218,35,42,48,143,,50,45,136,,40,13,256,,0*6A
$GPGSV,4,4,13,41,36,236,,0*50
$GBGSV,3,1,11,01,37,121,,02,50,170,,06,37,215,32,09,36,287,32,0*76
$GBGSV,3,2,11,11,18,131,,12,10,060,,13,48,202,32,14,09,164,,0*78
$GBGSV,3,3,11,23,50,143,,24,24,076,,29,06,278,,0*44
$GAGSV,1,1,00,0*74

$GNRMC,000040.00,A,2959.73538,N,12000.37334,E,75.476,258.51,230721,,,A,V*39
$GNGGA,000040.00,2959.73538,N,12000.37334,E,1,10,1.02,-1.8,M,,M,,*70
$GNGSA,A,3,04,07,13,02,08,20,23,25,27,,,,1.86,1.02,1.56,1*05
$GNGSA,A,3,06,,,,,,,,,,,,1.86,1.02,1.56,4*0C
$GNGSA,A,3,,,,,,,,,,,,,1
.86,1.02,1.56,3*0D
$GPGSV,4,1,13,02,32,299,35,04,51,247,36,07,84,116,36,08,47,207,36,0*62
$GPGSV,4,2,13,13,49,030,36,20,23,121,35,23,27,056,36,25,66,042,37,0*68
$GPGSV,4,3,13,27,18,218,35,42,48,143,,50,45,136,,40,13,256,,0*6A
$GPGSV,4,4,13,41,36,236,,0*50
$GBGSV,3,1,11,01,37,121,,02,50,170,,06,37,215,31,09,36,287,31,0*76
$GBGSV,3,2,11,11,18,131,,12,10,060,,13,48,202,32,14,09,164,,0*78
$GBGSV,3,3,11,23,50,143,,24,24,076,,29,06,278,,0*44
$GAGSV,1,1,00,0*74

$GNRMC,000041.00,A,2959.73190,N,12000.34949,E,75.578,262.80,230721,,,A,V*37
$GNGGA,000041.00,2959.73190,N,12000.34949,E,1,10,1.02,-1.6,M,,M,,*7A
$GNGSA,A,3,04,07,13,02,08,20,23,25,27,,,,1.86,1.02,1.56,1*05
$GNGSA,A,3,06,,,,,,,,,,,,1.86,1.02,1.56,4*0C
$GNGSA,A,3,,,,,,,,,,,,,1.86,1.02,1.56,3*0D
$GPGSV,4,1,13,02,32,299,35,04,51,247,36,07,84,116,
37,08,47,207,36,0*63
$GPGSV,4,2,13,13,49,030,36,20,23,121,35,23,27,056,35,25,66,042,36,0*6A
$GPGSV,4,3,13,27,18,218,35,42,48,143,,50,45,136,,40,13,256,,0*6A
$GPGSV,4,4,13,41,36,236,,0*50
$GBGSV,3,1,11,01,37,121,,02,50,170,,06,37,215,31,09,36,287,32,0*75
$GBGSV,3,2,11,11,18,131,32,12,10,060,,13,48,202,32,14,09,164,,0*79
$GBGSV,3,3,11,23,50,143,,24,24,076,,29,06,278,,0*44
$GAGSV,1,1,00,0*74

$GNRMC,000042.00,A,2959.73009,N,12000.32544,E,75.555,267.29,230721,,,A,V*3B
$GNGGA,000042.00,2959.73009,N,12000.32544,E,1,10,1.02,-1.3,M,,M,,*7A
$GNGSA,A,3,04,07,13,02,08,20,23,25,27,,,,1.86,1.02,1.56,1*05
$GNGSA,A,3,06,,,,,,,,,,,,1.86,1.02,1.56,4*0C
$GNGSA,A,3,,,,,,,,,,,,,1.86,1.02,1.56,3*0D
$GPGSV,4,1,13,02,32,299,36,04,51,2
46,35,07,84,116,36,08,47,207,36,0*63
$GPGSV,4,2,13,13,49,030,35,20,23,121,35,23,27,056,35,25,66,042,36,0*69
$GPGSV,4,3,13,27,18,218,34,42,48,143,,50,45,136,,40,13,256,,0*6B
$GPGSV,4,4,13,41,36,236,,0*50
$GBGSV,3,1,11,01,37,121,,02,50,170,32,06,37,215,32,09,36,287,31,0*74
$GBGSV,3,2,11,11,18,131,31,12,10,060,,13,48,202,32,14,09,164,,0*7A
$GBGSV,3,3,11,23,50,143,,24,24,076,,29,06,278,,0*44
$GAGSV,1,1,00,0*74

$GNRMC,000043.00,A,2959.72986,N,12000.30135,E,75.598,271.79,230721,,,A,V*36
$GNGGA,000043.00,2959.72986,N,12000.30135,E,1,10,1.02,-0.7,M,,M,,*71
$GNGSA,A,3,04,07,13,02,08,20,23,25,27,,,,1.86,1.02,1.56,1*05
$GNGSA,A,3,06,,,,,,,,,,,,1.86,1.02,1.56,4*0C
$GNGSA,A,3,,,,,,,,,,,,,1.86,1.02,1.56,3*0D
$GPGSV,4,1,13,02,32,299,35,04,51,246,36,07,84,116,36,08,47,207,36,0*63
$GPGSV,4,2,13,13,49,030,35,20,23,
121,35,23,27,056,36,25,66,042,36,0*6A
$GPGSV,4,3,13,27,18,218,35,42,48,143,,50,45,136,,40,13,256,,0*6A
$GPGSV,4,4,13,41,36,236,,0*50
$GBGSV,3,1,11,01,37,121,,02,50,170,34,06,37,215,31,09,36,287,31,0*71
$GBGSV,3,2,11,11,18,131,32,12,10,060,,13,48,202,32,14,09,164,,0*79
$GBGSV,3,3,11,23,50,143,,24,24,076,,29,06,278,,0*44
$GAGSV,1,1,00,0*74

$GNRMC,000044.00,A,2959.73136,N,12000.27728,E,75.607,276.18,230721,,,A,V*3A
$GNGGA,000044.00,2959.73136,N,12000.27728,E,1,10,1.02,-0.7,M,,M,,*78
$GNGSA,A,3,04,07,13,02,08,20,23,25,27,,,,1.86,1.02,1.56,1*05
$GNGSA,A,3,06,,,,,,,,,,,,1.86,1.02,1.56,4*0C
$
GNGSA,A,3,,,,,,,,,,,,,1.86,1.02,1.56,3*0D
$GPGSV,4,1,13,02,32,299,35,04,51,246,36,07,84,115,36,08,47,207,35,0*63
$GPGSV,4,2,13,13,49,030,36,20,23,121,35,23,27,056,35,25,66,042,36,0*6A
$GPGSV,4,3,13,27,18,218,35,42,48,143,,50,45,136,,40,13,256,,0*6A
$GPGSV,4,4,13,41,36,236,,0*50
$GBGSV,3,1,11,01,37,121,,02,50,170,33,06,37,215,31,09,36,287,31,0*76
$GBGSV,3,2,11,11,18,131,31,12,10,060,,13,48,202,32,14,09,164,,0*7A
$GBGSV,3,3,11,23,50,143,,24,24,076,,29,06,278,,0*44
$GAGSV,1,1,00,0*74

$GNRMC,000045.00,A,2959.73447,N,12000.25337,E,75.580,280.67,230721,,,A,V*3D
$GNGGA,000045.00,2959.73447,N,12000.25337,E,1,10,1.02,-0.4,M,,M,,*71
$GNGSA,A,3,04,07,13,02,08,20,23,25,27,,,,1.86,1.02,1.56,1*05
$GNGSA,A,3,06,,,,,,,,,,,,1.86,1.02,1.56,4*0C
$GNGSA,A,3,,,,,,,,,,,,,1.86,1.02,1.56,3*0D
$GPGSV,4,1,13,02,
32,299,36,04,51,246,36,07,84,115,36,08,47,207,36,0*63
$GPGSV,4,2,13,13,49,030,36,20,23,121,35,23,27,056,35,25,66,042,36,0*6A
$GPGSV,4,3,13,27,18,218,35,42,48,143,,50,45,136,,40,13,256,,0*6A
$GPGSV,4,4,13,41,36,236,,0*50
$GBGSV,3,1,11,01,37,121,,02,50,170,32,06,37,215,32,09,36,287,31,0*74
$GBGSV,3,2,11,11,18,131,32,12,10,060,,13,48,202,32,14,09,164,,0*79
$GBGSV,3,3,11,23,50,143,,24,24,076,,29,06,278,,0*44
$GAGSV,1,1,00,0*74

$GNRMC,000046.00,A,2959.73912,N,12000.22973,E,75.637,285.09,230721,,,A,V*3C
$GNGGA,000046.00,2959.73912,N,12000.22973,E,1,10,1.02,0.1,M,,M,,*5A
$GNGSA,A,3,04,07,13,02,08,20,23,25,27,,,,1.87,1.02,1.56,1*04
$GNGSA,A,3,06,,,,,,,,,,,,1.87,1.02,1.56,4*0D
$GNGSA,A,3,,,,,,,,,,,,,1.87,1.02,1.56,3*0C
$GPGSV,4
,1,13,02,32,299,36,04,51,246,36,07,84,115,37,08,47,207,36,0*62
$GPGSV,4,2,13,13,49,030,36,20,23,121,35,23,27,056,35,25,66,042,36,0*6A
$GPGSV,4,3,13,27,18,218,35,42,48,143,,50,45,136,,40,13,256,,0*6A
$GPGSV,4,4,13,41,36,236,,0*50
$GBGSV,3,1,11,01,37,121,,02,50,170,32,06,37,215,31,09,36,287,31,0*77
$GBGSV,3,2,11,11,18,131,31,12,10,060,,13,48,202,32,14,09,164,,0*7A
$GBGSV,3,3,11,23,50,143,,24,24,076,,29,06,278,,0*44
$GAGSV,1,1,00,0*74

$GNRMC,000047.00,A,2959.74530,N,12000.20662,E,75.590,289.58,230721,,,A,V*3D
$GNGGA,000047.00,2959.74530,N,12000.20662,E,1,10,1.02,0.3,M,,M,,*5F
$GNGSA,A,3,04,07,13,02,08,20,23,25,27,,,,1.87,1.02,1.56,1*04
$GNGSA,A,3,06,,,,,,,,,,,,1.87,1.02,1.56,4*0D
$GNGSA,A,3,,,,,,,,,,,,,1.87,1.02,1.56,3*0C
$GPGSV,4,1,13,02,32,299,35,04,51,246,36,07,84,115,36,08,47
,207,36,0*60
$GPGSV,4,2,13,13,49,030,36,20,23,121,35,23,27,056,35,25,66,042,36,0*6A
$GPGSV,4,3,13,27,18,218,35,42,48,143,,50,45,136,,40,13,256,,0*6A
$GPGSV,4,4,13,41,36,236,,0*50
$GBGSV,3,1,11,01,37,121,,02,50,170,32,06,37,215,31,09,36,287,31,0*77
$GBGSV,3,2,11,11,18,131,31,12,10,060,31,13,48,202,32,14,09,164,,0*78
$GBGSV,3,3,11,23,50,143,,24,24,076,,29,06,278,,0*44
$GAGSV,1,1,00,0*74

$GNRMC,000048.00,A,2959.75306,N,12000.18424,E,75.568,294.01,230721,,,A,V*3C
$GNGGA,000048.00,2959.75306,N,12000.18424,E,1,10,1.02,0.4,M,,M,,*5E
$GNGSA,A,3,04,07,13,02,08,20,23,25,27,,,,1.87,1.02,1.56,1*04
$GNGSA,A,3,06,,,,,,,,,,,,1.87
,1.02,1.56,4*0D
$GNGSA,A,3,,,,,,,,,,,,,1.87,1.02,1.56,3*0C
$GPGSV,4,1,13,02,32,299,35,04,51,246,36,07,84,115,36,08,47,207,35,0*63
$GPGSV,4,2,13,13,49,030,36,20,23,121,34,23,27,056,36,25,66,042,36,0*68
$GPGSV,4,3,13,27,18,218,36,42,48,143,,50,45,136,,40,13,256,,0*69
$GPGSV,4,4,13,41,36,236,,0*50
$GBGSV,3,1,11,01,37,121,,02,50,170,32,06,37,215,32,09,36,286,32,0*76
$GBGSV,3,2,11,11,18,131,31,12,10,060,31,13,48,202,32,14,09,164,,0*78
$GBGSV,3,3,11,23,50,143,,24,24,076,,29,06,278,,0*44
$GAGSV,1,1,00,0*74

$GNRMC,000049.00,A,2959.76245,N,12000.16247,E,75.552,298.44,230721,,,A,V*31
$GNGGA,000049.00,2959.76245,N,12000.16247,E,1,10,1.02,0.1,M,,M,,*52
$GNGSA,A,3,04,07,13,02,08,20,23,25,27,,,,1.87,1.02,1.56,1*04
$GNGSA,A,3,06,,,,,,,,,,,,1.87,1.02,1.56,4*0D
$GNGSA,A,3,,,,,,,,,,,,,1.87,1.02,1.56,3*0C
$GPGSV,4,1,13,02,32,299,35,04,51,246,36,07,84,115,37,08,47,207,36,0*61

$GPGSV,4,2,13,13,49,030,36,20,23,121,35,23,27,056,35,25,66,042,36,0*6A
$GPGSV,4,3,13,27,18,218,35,42,48,143,,50,45,136,,40,13,256,,0*6A
$GPGSV,4,4,13,41,36,236,,0*50
$GBGSV,3,1,11,01,37,121,,02,50,170,32,06,37,215,31,09,36,286,31,0*76
$GBGSV,3,2,11,11,18,131,31,12,10,060,31,13,48,202,32,14,09,164,,0*78
$GBGSV,3,3,11,23,50,143,,24,24,076,,29,06,278,,0*44
$GAGSV,1,1,00,0*74

$GNRMC,000050.00,A,2959.77320,N,12000.14166,E,75.629,302.99,230721,,,A,V*35
$GNGGA,000050.00,2959.77320,N,12000.14166,E,1,10,1.02,0.0,M,,M,,*5A
$GNGSA,A,3,04,07,13,02,08,20,23,25,27,,,,1.87,1.02,1.56,1*04
$GNGSA,A,3,06,,,,,,,,,,,,1.87,1
.02,1.56,4*0D
$GNGSA,A,3,,,,,,,,,,,,,1.87,1.02,1.56,3*0C
$GPGSV,4,1,13,02,32,299,35,04,51,246,36,07,84,115,37,08,47,207,36,0*61
$GPGSV,4,2,13,13,49,030,36,20,23,121,34,23,27,056,36,25,66,042,36,0*68
$GPGSV,4,3,13,27,18,218,35,42,48,143,,50,45,136,,40,13,256,,0*6A
$GPGSV,4,4,13,41,36,236,,0*50
$GBGSV,3,1,11,01,37,121,,02,50,170,32,06,37,215,31,09,36,286,32,0*75
$GBGSV,3,2,11,11,18,131,31,12,10,060,31,13,48,202,32,14,08,164,,0*79
$GBGSV,3,3,11,23,51,143,,24,24,077,,29,06,278,,0*44
$GAGSV,1,1,00,0*74

$GNRMC,000051.00,A,2959.78538,N,12000.12189,E,75.645,307.45,230721,,,A,V*3D
$GNGGA,000051.00,2959.78538,N,12000.12189,E,1,10,1.02,-0.1,M,,M,,*70
$GNGSA,A,3,04,07,13,02,08,20,23,25,27,,,,1.87,1.02,1.56,1*04
$GNGSA,A,3,06,,,,,,,,,,,,1.87,1.02,1.56,4*0D
$GNGSA,A,3,,,,,,,,,,,,,1.87,1.02,1.56,3*0C
$GPGSV,4,1,13,02,32,299,36,04,51,246,36,07,84,115,
37,08,47,207,36,0*62
$GPGSV,4,2,13,13,49,030,36,20,23,121,35,23,27,056,35,25,66,042,36,0*6A
$GPGSV,4,3,13,27,18,218,35,42,48,143,,50,45,136,,40,13,256,,0*6A
$GPGSV,4,4,13,41,36,236,,0*50
$GBGSV,3,1,11,01,37,121,,02,50,170,32,06,37,215,31,09,36,286,31,0*76
$GBGSV,3,2,11,11,18,131,31,12,10,060,31,13,48,202,32,14,08,164,,0*79
$GBGSV,3,3,11,23,51,143,,24,24,077,,29,06,278,,0*44
$GAGSV,1,1,00,0*74

$GNRMC,000052.00,A,2959.79883,N,12000.10329,E,75.544,311.84,230721,,,A,V*30
$GNGGA,000052.00,2959.79883,N,12000.10329,E,1,10,1.02,-0.1,M,,M,,*75
$GNGSA,A,3,04,07,13,02,08,20,23,25,27,,,,1.87,1.02,1.56,1*04
$GNGSA,A,3,06,,,,,,,,,,,,1.87,1.02,1.56,4*0D
$GNGSA,A,3,,,,,,,,,,,,,1.87,1.02,1.56,3*0C
$GPGSV,4,1,13,02,32,299,35,04,51,246,36,07,84,115,37,08,47,207,35,0*62
$GPGSV,4,2,13,
13,49,030,36,20,23,121,35,23,27,056,35,25,66,042,36,0*6A
$GPGSV,4,3,13,27,18,218,35,42,48,143,,50,45,136,,40,13,256,,0*6A
$GPGSV,4,4,13,41,36,236,,0*50
$GBGSV,3,1,11,01,37,121,,02,50,170,31,06,37,215,31,09,36,286,31,0*75
$GBGSV,3,2,11,11,18,131,31,12,10,060,31,13,48,202,32,14,08,164,,0*79
$GBGSV,3,3,11,23,51,143,,24,24,077,,29,06,278,,0*44
$GAGSV,1,1,00,0*74

$GNRMC,000053.00,A,2959.81352,N,12000.08596,E,75.675,316.25,230721,,,A,V*37
$GNGGA,000053.00,2959.81352,N,12000.08596,E,1,10,1.02,-0.3,M,,M,,*7D
$GNGSA,A,3,04,07,13,02,08,20,23,25,27,,,,1.87,1.02,1.56,1*04
$GNGSA,A,3,06,,,,,,,,,,,,1.87,1.02,1.56,4*0D
$GNGSA,A,3,,,,,,,,,,,,,1.87,1.02,1.56,3*0C
$GPGSV,4,1,13,02,32,299,35,04,51,246,36,07,84,115,37,08,47,207,35,0*62
$GPGSV,4,2,13,13,49,030,36
,20,23,121,35,23,27,056,35,25,66,042,36,0*6A
$GPGSV,4,3,13,27,18,219,35,42,48,143,,50,45,136,,40,13,256,,0*6B
$GPGSV,4,4,13,41,36,236,,0*50
$GBGSV,3,1,11,01,37,121,,02,50,170,31,06,37,215,31,09,36,286,31,0*75
$GBGSV,3,2,11,11,18,131,31,12,10,060,31,13,48,202,32,14,08,164,31,0*7B
$GBGSV,3,3,11,23,51,143,,24,24,077,,29,06,278,,0*44
$GAGSV,1,1,00,0*74

$GNRMC,000054.00,A,2959.82933,N,12000.06997,E,75.590,320.75,230721,,,A,V*35
$GNGGA,000054.00,2959.82933,N,12000.06997,E,1,10,1.02,-0.4,M,,M,,*70
$GNGSA,A,3,04,07,13,02,08,20,23,25,27,,,,1.87,1.02,1.56,1*04
$GNGSA,A,3,06,,,,,,,,,,,,1.87,1.
02,1.56,4*0D
$GNGSA,A,3,,,,,,,,,,,,,1.87,1.02,1.56,3*0C
$GPGSV,4,1,13,02,32,299,35,04,51,246,36,07,84,115,37,08,47,207,36,0*61
$GPGSV,4,2,13,13,49,030,36,20,23,121,35,23,27,056,35,25,66,042,36,0*6A
$GPGSV,4,3,13,27,18,219,35,42,48,143,,50,45,136,,40,13,256,,0*6B
$GPGSV,4,4,13,41,36,236,,0*50
$GBGSV,3,1,11,01,37,121,,02,50,170,31,06,37,215,32,09,36,286,31,0*76
$GBGSV,3,2,11,11,18,131,31,12,10,060,31,13,48,202,32,14,08,164,31,0*7B
$GBGSV,3,3,11,23,51,143,,24,24,077,,29,06,278,,0*44
$GAGSV,1,1,00,0*74

$GNRMC,000055.00,A,2959.84616,N,12000.05546,E,75.604,325.18,230721,,,A,V*39
$GNGGA,000055.00,2959.84616,N,12000.05546,E,1,10,1.02,-0.6,M,,M,,*7E
$GNGSA,A,3,04,07,13,02,08,20,23,25,27,,,,1.87,1.02,1.56,1*04
$GNGSA,A,3,06,,,,,,,,,,,,1.87,1.02,1.56,4*0D
$GNGSA,A,3,,,,,,,,,,,,,1.87,1.02,1.56,3*0C
$GPGSV,4,1,13,02,32,299,35,04,51,246,36,07
,84,114,36,08,47,207,36,0*61
$GPGSV,4,2,13,13,49,030,36,20,23,121,35,23,27,056,35,25,66,042,36,0*6A
$GPGSV,4,3,13,27,18,219,35,42,48,143,,50,45,136,,40,13,256,,0*6B
$GPGSV,4,4,13,41,36,236,,0*50
$GBGSV,3,1,11,01,37,121,,02,50,170,31,06,37,215,32,09,36,286,31,0*76
$GBGSV,3,2,11,11,18,131,31,12,10,060,31,13,48,202,32,14,08,164,31,0*7B
$GBGSV,3,3,11,23,51,143,,24,24,077,,29,06,278,,0*44
$GAGSV,1,1,00,0*74

$GNRMC,000056.00,A,2959.86392,N,12000.04248,E,75.569,329.68,230721,,,A,V*3A
$GNGGA,000056.00,2959.86392,N,12000.04248,E,1,10,1.02,-0.7,M,,M,,*7F
$GNGSA,A,3,04,07,13,02,08,20,23,25,27,,,,1.87,1.02,1.56,1*04
$GNGSA,A,3,06,,,,,,,,,,,,1.87,1.02,1.56,4*0D
$GNGSA,A,3,,,,,,,,,,,,,1.87,1.02,1.56,3*0C
$GPGSV,4,1,13,02,32,299,35,04,51,246,36,07,84,114,36,08,47,207,35,0*62
$GPGSV,4,2,1
3,13,49,030,36,20,23,121,35,23,27,056,36,25,66,042,36,0*69
$GPGSV,4,3,13,27,18,219,35,42,48,143,,50,45,136,,40,13,256,,0*6B
$GPGSV,4,4,13,41,36,236,,0*50
$GBGSV,3,1,11,01,37,121,,02,50,170,31,06,37,215,31,09,36,286,31,0*75
$GBGSV,3,2,11,11,18,131,31,12,10,060,31,13,48,202,32,14,08,164,31,0*7B
$GBGSV,3,3,11,23,51,143,,24,24,077,,29,06,278,,0*44
$GAGSV,1,1,00,0*74

$GNRMC,000057.00,A,2959.88248,N,12000.03113,E,75.637,334.15,230721,,,A,V*37
$GNGGA,000057.00,2959.88248,N,12000.03113,E,1,10,1.02,-0.7,M,,M,,*7C
$GNGSA,A,3,04,07,13,02,08,20,23,25,27,,,,1.87,1.02,1.56,1*04
$GNGSA,A,3,06,,,,,,,,,,,,1.87,1.02,1.56,4*0D
$GNGSA,A,3,,,,,,,,,,,,,1.87,1.02,1.56,3*0C

$GPGSV,4,1,13,02,32,299,36,04,51,246,35,07,84,114,37,08,47,207,36,0*60
$GPGSV,4,2,13,13,49,031,36,20,23,121,35,23,27,056,35,25,66,042,36,0*6B
$GPGSV,4,3,13,27,18,219,35,42,48,143,,50,45,136,,40,13,256,,0*6B
$GPGSV,4,4,13,41,36,236,,0*50
$GBGSV,3,1,11,01,37,121,,02,50,170,31,06,37,215,31,09,36,286,31,0*75
$GBGSV,3,2,11,11,18,131,31,12,10,060,31,13,48,202,32,14,08,164,31,0*7B
$GBGSV,3,3,11,23,51,143,,24,24,077,,29,06,278,,0*44
$GAGSV,1,1,00,0*74

$GNRMC,000058.00,A,2959.90177,N,12000.02147,E,75.649,338.68,230721,,,A,V*31
$GNGGA,000058.00,2959.90177,N,12000.02147,E,1,10,1.02,-0.8,M,,M,,*7A
$GNGSA,A,3,04,07,13,02,08,20,23,25,27,,,,1.87,1.02,1.56,1*04
$GNGSA,A,3,06,,,,,,,,,,,,1.87,1.02,1.56,4*0D
$GNGSA,A,3,,,,,,,,,,,,,1.87,1.02,1.56,3*0C

$GPGSV,4,1,13,02,32,299,35,04,51,246,37,07,84,114,36,08,47,207,36,0*60
$GPGSV,4,2,13,13,49,031,36,20,23,121,36,23,27,056,36,25,66,042,36,0*6B
$GPGSV,4,3,13,27,18,219,34,42,48,143,,50,45,136,,40,13,256,,0*6A
$GPGSV,4,4,13,41,36,236,,0*50
$GBGSV,3,1,11,01,37,121,14,02,50,170,31,06,37,215,31,09,36,286,31,0*70
$GBGSV,3,2,11,11,18,131,31,12,10,060,31,13,48,202,32,14,08,164,31,0*7B
$GBGSV,3,3,11,23,51,143,,24,24,077,,29,06,278,,0*44
$GAGSV,1,1,00,0*74

$GNRMC,000059.00,A,2959.92166,N,12000.01356,E,75.634,343.06,230721,,,A,V*3D
$GNGGA,000059.00,2959.92166,N,12000.01356,E,1,10,1.02,-0.9,M,,M,,*79
$GNGSA,A,3,04,07,13,02,08,20,23,25,27,,,,1.87,1.02,1.56,1*04
$GNGSA,A,3,06,,,,,,,,,,,,1.87,1.02,1.56,4*0D

$GNGSA,A,3,,,,,,,,,,,,,1.87,1.02,1.56,3*0C
$GPGSV,4,1,13,02,32,299,36,04,51,246,36,07,84,114,36,08,47,207,36,0*62
$GPGSV,4,2,13,13,49,031,36,20,22,121,35,23,27,056,35,25,66,042,36,0*6A
$GPGSV,4,3,13,27,18,219,35,42,48,143,,50,45,136,,40,13,256,,0*6B
$GPGSV,4,4,13,41,36,236,,0*50
$GBGSV,3,1,11,01,37,121,29,02,50,170,31,06,37,215,32,09,36,286,31,0*7D
$GBGSV,3,2,11,11,18,130,32,12,10,060,31,13,48,202,32,14,08,164,31,0*79
$GBGSV,3,3,11,23,51,143,,24,24,077,,29,06,278,,0*44
$GAGSV,1,1,00,0*74

$GNRMC,000100.00,A,2959.94204,N,12000.00742,E,75.771,347.49,230721,,,A,V*3E
$GNGGA,000100.00,2959.94204,N,12000.00742,E,1,10,1.02,-1.0,M,,M,,*7D
$GNGSA,A,3,04,07,13,02,08,20,23,25,27,,,,1.87,1.02,1.56,1*04
$GNGSA,A,3,06,,,,,,,,,,,,1.87,1.02,1.56,
4*0D
$GNGSA,A,3,,,,,,,,,,,,,1.87,1.02,1.56,3*0C
$GPGSV,4,1,13,02,32,299,36,04,51,246,36,07,84,114,37,08,47,207,35,0*60
$GPGSV,4,2,13,13,49,031,37,20,22,121,34,23,27,056,35,25,66,042,36,0*6A
$GPGSV,4,3,13,27,18,219,35,42,48,143,,50,45,136,,40,13,256,,0*6B
$GPGSV,4,4,13,41,36,236,,0*50
$GBGSV,3,1,11,01,37,121,,02,50,170,32,06,37,215,31,09,36,286,31,0*76
$GBGSV,3,2,11,11,18,130,32,12,10,060,31,13,48,202,32,14,08,164,31,0*79
$GBGSV,3,3,11,23,51,143,,24,24,077,,29,06,278,,0*44
$GAGSV,1,1,00,0*74

$GNRMC,000101.00,A,2959.96276,N,12000.00312,E,75.550,351.94,230721,,,A,V*3F
$GNGGA,000101.00,2959.96276,N,12000.00312,E,1,10,1.02,-1.1,M,,M,,*7B
$GNGSA,A,3,04,07,13,02,08,20,23,25,27,,,,1.87,1.02,1.56,1*04
$GNGSA,A,3,06,,,,,,,,,,,,1.87,1.02,1.56,4*0D
$GNGSA,A,3,,,,,,,,,,,,,1.87,1.02,1
.56,3*0C
$GPGSV,4,1,13,02,32,299,36,04,51,246,36,07,84,114,37,08,47,207,36,0*63
$GPGSV,4,2,13,13,49,031,36,20,22,121,35,23,27,056,35,25,66,042,36,0*6A
$GPGSV,4,3,13,27,18,219,35,42,48,143,,50,45,136,,40,13,256,,0*6B
$GPGSV,4,4,13,41,36,236,,0*50
$GBGSV,3,1,11,01,37,121,,02,50,170,32,06,37,215,31,09,36,286,32,0*75
$GBGSV,3,2,11,11,18,130,32,12,10,060,31,13,48,202,32,14,08,164,31,0*79
$GBGSV,3,3,11,23,51,143,,24,24,077,,29,06,278,,0*44
$GAGSV,1,1,00,0*74

$GNRMC,000102.00,A,2959.98368,N,12000.00066,E,75.609,356.36,230721,,,A,V*3C
$GNGGA,000102.00,2959.98368,N,12000.00066,E,1,10,1.02,-1.1,M,,M,,*78
$GNGSA,A,3,04,07,13,02,08,20,23,25,27,,,,1.87,1.02,1.56,1*04
$GNGSA,A,3,06,,,,,,,,,,,,1.87,1.02,1.56,4*0D
$GNGSA,A,3,,,,,,,,,,,,,1.87,1.02,1.56,3*0C
$GPGSV,4,1,13,02,32,299,36,04,51,246,36,07,84,114,36,08,47,207,36,0*62
$GPGSV,4,2,13,
13,49,031,36,20,22,121,35,23,27,056,35,25,66,042,36,0*6A
$GPGSV,4,3,13,27,18,219,35,42,48,143,,50,45,136,,40,13,256,,0*6B
$GPGSV,4,4,13,41,36,236,,0*50
$GBGSV,3,1,11,01,37,121,,02,50,170,31,06,37,215,31,09,36,286,31,0*75
$GBGSV,3,2,11,11,18,130,31,12,10,060,31,13,48,202,32,14,08,164,31,0*7A
$GBGSV,3,3,11,23,51,143,,24,24,077,,29,06,278,,0*44
$GAGSV,1,1,00,0*74

$GNRMC,000103.00,A,3000.00470,N,12000.00009,E,75.500,0.87,230721,,,A,V*3F
$GNGGA,000103.00,3000.00470,N,12000.00009,E,1,10,1.02,-1.2,M,,M,,*78
$GNGSA,A,3,04,07,13,02,08,20,23,25,27,,,,1.87,1.02,1.56,1*04
$GNGSA,A,3,06,,,,,,,,,,,,1.87,1.02,1.56,4*0D
$GNGSA,A,3,,,,,
,,,,,,,,1.87,1.02,1.56,3*0C
$GPGSV,4,1,13,02,32,299,36,04,51,246,35,07,84,114,36,08,47,207,37,0*60
$GPGSV,4,2,13,13,49,031,36,20,22,121,35,23,27,056,35,25,66,042,37,0*6B
$GPGSV,4,3,13,27,18,219,35,42,48,143,,50,45,136,,40,13,256,,0*6B
$GPGSV,4,4,13,41,36,236,,0*50
$GBGSV,3,1,11,01,37,121,,02,50,170,31,06,37,215,31,09,36,286,32,0*76
$GBGSV,3,2,11,11,18,130,31,12,10,060,31,13,48,202,32,14,08,164,31,0*7A
$GBGSV,3,3,11,23,51,143,,24,24,077,,29,06,278,,0*44
$GAGSV,1,1,00,0*74

$GNRMC,000104.00,A,3000.02568,N,12000.00141,E,75.640,5.34,230721,,,A,V*35
$GNGGA,000104.00,3000.02568,N,12000.00141,E,1,10,1.02,-1.1,M,,M,,*7B
$GNGSA,A,3,04,07,13,02,08,20,23,25,27,,,,1.87,1.02,1.56,1*04
$GNGSA,A,3,06,,,,,,,,,,,,1.87,1.02,1.56,4*0D
$GNGSA,A,3,,,,,,,,,,,,,1.87,1.02,1.56,3*0C
$GPGSV,4,1,13,02,32,299,35,04,51,246,36,07,84,114,36,08,47,207,36,0*61
$GPGSV,4,2,13,
13,49,031,36,20,22,121,35,23,27,056,35,25,66,042,37,0*6B
$GPGSV,4,3,13,27,18,219,35,42,48,143,,50,45,136,,40,13,256,,0*6B
$GPGSV,4,4,13,41,36,236,,0*50
$GBGSV,3,1,11,01,37,121,,02,50,170,31,06,37,215,31,09,36,286,32,0*76
$GBGSV,3,2,11,11,18,130,31,12,10,060,31,13,48,202,32,14,08,164,31,0*7A
$GBGSV,3,3,11,23,51,143,,24,24,077,,29,06,278,,0*44
$GAGSV,1,1,00,0*74

$GNRMC,000105.00,A,3000.04655,N,12000.00461,E,75.655,9.79,230721,,,A,V*39
$GNGGA,000105.00,3000.04655,N,12000.00461,E,1,10,1.02,-1.2,M,,M,,*75
$GNGSA,A,3,04,07,13,02,08,20,23,25,27,,,,1.87,1.02,1.56,1*04
$GNGSA,A,3,06,,,,,,,,,,,,1.87,1.02,1.56,4*0D
$GNGSA,A,3,,,,,,,,,,,,,1.87,1.02,1.56,3*0C
$GPGSV,4,1,13,02,3
2,299,36,04,51,246,36,07,84,114,36,08,47,207,36,0*62
$GPGSV,4,2,13,13,49,031,36,20,22,121,35,23,27,056,35,25,66,042,36,0*6A
$GPGSV,4,3,13,27,18,219,35,42,48,143,,50,45,136,,40,13,256,,0*6B
$GPGSV,4,4,13,41,36,236,,0*50
$GBGSV,3,1,11,01,37,121,,02,50,170,32,06,37,215,32,09,36,286,31,0*75
$GBGSV,3,2,11,11,18,130,31,12,10,060,31,13,48,202,32,14,08,164,31,0*7A
$GBGSV,3,3,11,23,51,143,,24,24,077,,29,06,278,,0*44
$GAGSV,1,1,00,0*74

$GNRMC,000106.00,A,3000.06712,N,12000.00964,E,75.498,14.25,230721,,,A,V*04
$GNGGA,000106.00,3000.06712,N,12000.00964,E,1,10,1.02,-1.2,M,,M,,*7E
$GNGSA,A,3,04,07,13,02,08,20,23,25,27,,,,1.87,1.02,1.56,1*04
$GNGSA,A,3,06,,,,,,,,,,,,1.87,1.02,1.56,4*0D
$GNGSA,A,3,,,,,,,,,,,,,1.87,1.02,1.56,3*0C
$GPGSV,4,1,13,02,32,299,36,04,51,246,36,07,84,114,36,08,47,207,36,0*62

$GPGSV,4,2,13,13,49,031,35,20,22,121,36,23,27,056,35,25,66,042,37,0*6B
$GPGSV,4,3,13,27,18,219,35,42,48,143,,50,45,136,,40,13,256,,0*6B
$GPGSV,4,4,13,41,36,236,,0*50
$GBGSV,3,1,11,01,37,121,,02,50,170,31,06,37,215,32,09,36,286,31,0*76
$GBGSV,3,2,11,11,18,130,31,12,10,060,31,13,48,202,32,14,08,164,31,0*7A
$GBGSV,3,3,11,23,51,143,,24,24,077,,29,06,278,,0*44
$GAGSV,1,1,00,0*74

$GNRMC,000107.00,A,3000.08729,N,12000.01649,E,75.686,18.64,230721,,,A,V*06
$GNGGA,000107.00,3000.08729,N,12000.01649,E,1,10,1.02,-1.2,M,,M,,*78
$GNGSA,A,3,04,07,13,02,08,20,23,25,27,,,,1.87,1.02,1.56,1*04
$GNGSA,A,3,06,,,,,,,,,,,,1.87,1.02,1.56,4*0D
$GNGSA,A,3,,,,,,,,,,,,,1.87,1.02,1.56,3*0C
$GPGSV,
4,1,13,02,32,299,35,04,51,246,36,07,84,113,36,08,47,207,36,0*66
$GPGSV,4,2,13,13,49,031,36,20,22,121,35,23,27,056,35,25,66,042,36,0*6A
$GPGSV,4,3,13,27,18,219,35,42,48,143,,50,45,136,,40,13,256,,0*6B
$GPGSV,4,4,13,41,36,236,,0*50
$GBGSV,3,1,11,01,37,121,,02,50,170,31,06,37,215,31,09,36,286,32,0*76
$GBGSV,3,2,11,11,18,130,31,12,10,060,31,13,48,202,32,14,08,164,31,0*7A
$GBGSV,3,3,11,23,51,143,,24,24,077,,29,06,278,,0*44
$GAGSV,1,1,00,0*74

$GNRMC,000108.00,A,3000.10695,N,12000.02513,E,75.595,23.19,230721,,,A,V*0A
$GNGGA,000108.00,3000.10695,N,12000.02513,E,1,10,1.02,-1.2,M,,M,,*77
$GNGSA,A,3,04,07,13,02,08,20,23,25,27,,,,1.87,1.02,1.56,1*04
$GNGSA,A,3,06,,,,,,,,,,,,1.87,1.02,1.56,4*0D
$GNGSA,A,3,,,,,,,,,,,,,1.87,1.02,1.56,3*0C
$GPGSV,4,1,13,02,32,299,35,04,51,246,36,07,84,113,36,08,47,207,36,0*66
$GPGSV,4,2,13,13,49,031,36,20,22,121,35,23,27,05
7,35,25,66,042,37,0*6A
$GPGSV,4,3,13,27,18,219,35,42,48,143,,50,45,136,,40,13,256,,0*6B
$GPGSV,4,4,13,41,36,236,,0*50
$GBGSV,3,1,11,01,37,121,,02,50,170,31,06,37,215,32,09,36,286,31,0*76
$GBGSV,3,2,11,11,18,130,31,12,10,060,31,13,48,202,32,14,08,164,31,0*7A
$GBGSV,3,3,11,23,51,143,,24,24,077,,29,06,278,,0*44
$GAGSV,1,1,00,0*74

$GNRMC,000109.00,A,3000.12594,N,12000.03551,E,75.576,27.65,230721,,,A,V*0E
$GNGGA,000109.00,3000.12594,N,12000.03551,E,1,12,0.90,-1.2,M,,M,,*79
$GNGSA,A,3,04,07,13,02,08,20,23,25,27,,,,1.75,0.90,1.50,1*05
$GNGSA,A,3,06,09,13,,,,,,,,,,1.75,0.90,1.50,
4*07
$GNGSA,A,3,,,,,,,,,,,,,1.75,0.90,1.50,3*0D
$GPGSV,4,1,13,02,32,299,35,04,51,246,37,07,84,113,37,08,47,207,35,0*65
$GPGSV,4,2,13,13,49,031,36,20,22,121,35,23,27,057,36,25,66,042,36,0*68
$GPGSV,4,3,13,27,18,219,35,42,48,143,,50,45,136,,40,13,256,,0*6B
$GPGSV,4,4,13,41,36,236,,0*50
$GBGSV,3,1,11,06,37,215,31,09,36,286,31,13,48,202,32,01,37,121,,0*79
$GBGSV,3,2,11,02,50,170,31,11,18,130,31,12,10,060,31,14,08,164,31,0*76
$GBGSV,3,3,11,23,51,143,,24,24,077,,29,06,278,,0*44
$GAGSV,1,1,00,0*74

$GNRMC,000110.00,A,3000.14418,N,12000.04751,E,75.547,31.86,230721,,,A,V*08
$GNGGA,000110.00,3000.14418,N,12000.04751,E,1,12,0.90,-1.3,M,,M,,*76
$GNGSA,A,3,04,07,13,02,08,20,23,25,27,,,,1.75,0.90,1.50,1*05
$GNGSA,A,3,06,09,13,,,,,,,,,,1.75,0.90,1.50,4*07
$GNGSA,A,3,,,,,,,,,,,,,1.75,0.90,1.50,3*0D
$GPGSV,4,1,13,02,32,299,36,04,51,246,36,07,84,113,36,08,
47,207,36,0*65
$GPGSV,4,2,13,13,49,031,36,20,22,121,35,23,27,057,35,25,66,042,36,0*6B
$GPGSV,4,3,13,27,18,219,35,42,48,143,,50,45,136,,40,13,256,,0*6B
$GPGSV,4,4,13,41,36,236,,0*50
$GBGSV,3,1,11,06,37,215,32,09,36,286,31,13,48,202,32,01,37,121,,0*7A
$GBGSV,3,2,11,02,50,170,32,11,18,130,31,12,10,060,30,14,08,164,31,0*74
$GBGSV,3,3,11,23,51,143,,24,24,077,,29,06,278,,0*44
$GAGSV,1,1,00,0*74

$GNRMC,000111.00,A,3000.16161,N,12000.06107,E,75.715,36.26,230721,,,A,V*0F
$GNGGA,000111.00,3000.16161,N,12000.06107,E,1,12,0.90,-1.4,M,,M,,*7E
$GNGSA,A,3,04,07,13,02,08,20,23,25,27,,,,1.75,0.90,1.50,1*05
$GNGSA,A,3,06,09,13,,,,,,,,,,1.75,0.90,1.50,4*07
$GNGSA,A,3,,,,,,,,,,,,,1.75,0.90,1.50,3*0D
$GPGSV,4,1,13,02,32,299,35,04,51,246,35,07,84,113,36,08,47,207,36,0*65
$GPGSV,4,2,13,13,49,031,35,20,22,121,35
,23,27,057,36,25,66,042,36,0*6B
$GPGSV,4,3,13,27,18,219,34,42,48,143,,50,45,136,,40,13,256,,0*6A
$GPGSV,4,4,13,41,36,236,,0*50
$GBGSV,3,1,11,06,37,215,32,09,36,286,31,13,48,202,32,01,37,121,,0*7A
$GBGSV,3,2,11,02,50,170,32,11,18,130,31,12,10,060,31,14,08,164,31,0*75
$GBGSV,3,3,11,23,51,143,,24,24,077,,29,06,278,,0*44
$GAGSV,1,1,00,0*74

$GNRMC,000112.00,A,3000.17806,N,12000.07619,E,75.767,40.89,230721,,,A,V*0D
$GNGGA,000112.00,3000.17806,N,12000.07619,E,1,12,0.90,-1.4,M,,M,,*7D
$GNGSA,A,3,04,07,13,02,08,20,23,25,27,,,,1.75,0.90,1.50,1*05
$GNGSA,A,3,06,09,13,,,,,,,,,,1.75,0.90,1.50,4*07
$GNGSA,A,3,,,,,,,,,,,,,1.75,0.90,1.50,3*0D
$GPGSV,4,1,13,02,32,299,35,04,51,246,36,07,
84,113,37,08,47,207,36,0*67
$GPGSV,4,2,13,13,49,031,36,20,22,121,35,23,27,057,35,25,66,042,36,0*6B
$GPGSV,4,3,13,27,18,219,36,42,48,143,,50,45,136,,40,13,256,,0*68
$GPGSV,4,4,13,41,36,236,,0*50
$GBGSV,3,1,11,06,37,215,31,09,36,286,31,13,48,202,32,01,37,121,,0*79
$GBGSV,3,2,11,02,50,170,32,11,18,130,31,12,10,060,31,14,08,164,31,0*75
$GBGSV,3,3,11,23,51,143,,24,24,077,,29,06,278,,0*44
$GAGSV,1,1,00,0*74

$GNRMC,000113.00,A,3000.19338,N,12000.09279,E,75.615,45.60,230721,,,A,V*0E
$GNGGA,000113.00,3000.19338,N,12000.09279,E,1,12,0.90,-1.3,M,,M,,*7F
$GNGSA,A,3,04,07,13,02,08,20,23,25,27,,,,1.75,0.90,1.50,1*05
$GNGSA,A,3,06,09,13,,,,,,,,,,1.75,0.90,1.50,4*07
$GNGSA,A,3,,,,,,,,,,,,,1.75,0.90,1.50,3*0D
$GPGSV,4,1,13,02,32,299,35,04,51,246,36,07,84,113,36,08,
47,207,36,0*66
$GPGSV,4,2,13,13,49,031,36,20,22,121,35,23,27,057,35,25,66,042,36,0*6B
$GPGSV,4,3,13,27,18,219,35,42,48,143,,50,45,136,,40,13,256,,0*6B
$GPGSV,4,4,13,41,36,236,,0*50
$GBGSV,3,1,11,06,37,215,32,09,36,286,31,13,48,202,32,01,37,121,,0*7A
$GBGSV,3,2,11,02,50,170,32,11,18,130,31,12,10,060,31,14,08,164,31,0*75
$GBGSV,3,3,11,23,51,143,,24,24,077,,29,06,278,,0*44
$GAGSV,1,1,00,0*74

$GNRMC,000114.00,A,3000.20753,N,12000.11070,E,75.713,49.84,230721,,,A,V*09
$GNGGA,000114.00,3000.20753,N,12000.11070,E,1,12,0.90,-1.2,M,,M,,*78
$GNGSA,A,3,04,07,13,02,08,20,23,25,27,,,,1.75,0.90,1.50,1*05
$GNGSA,A,3,06,09,13,,,,,,,,,,1.75,0.90,1.50,4*07
$GNGSA,A,3,,,,,,,,,,,,,1.75,0.90,1.50,3*0D
$GPGS
V,4,1,13,02,32,299,35,04,51,246,36,07,84,113,36,08,47,207,36,0*66
$GPGSV,4,2,13,13,49,031,36,20,22,121,35,23,27,057,35,25,66,042,36,0*6B
$GPGSV,4,3,13,27,18,219,35,42,48,143,,50,45,136,,40,13,256,,0*6B
$GPGSV,4,4,13,41,36,236,,0*50
$GBGSV,3,1,12,06,37,215,32,09,36,286,31,13,48,202,32,01,37,121,,0*79
$GBGSV,3,2,12,02,50,170,31,11,18,130,31,12,10,060,31,14,08,164,31,0*75
$GBGSV,3,3,12,23,51,143,,24,24,077,,29,06,278,,04,,,31,0*41
$GAGSV,1,1,00,0*74

$GNRMC,000115.00,A,3000.22044,N,12000.12981,E,75.684,54.34,230721,,,A,V*07
$GNGGA,000115.00,3000.22044,N,12000.12981,E,1,15,0.75,-1.2,M,,M,,*72
$GNGSA,A,3,04,07,13,02,08,20,23,25,27,,,,1.47,0.75,1.26,1*0E
$GNGSA,A,3,06,09,13,11,12,14,,,,,,,1.47,0.75,1.26,4*0A
$GNGSA,A,3,,,,,,,,,,,,,1.47,0.75,1.26,3*06
$GPGSV,4,1,13,02,32,2
99,35,04,51,246,36,07,84,113,36,08,47,207,36,0*66
$GPGSV,4,2,13,13,49,031,36,20,22,121,35,23,27,057,36,25,66,042,36,0*68
$GPGSV,4,3,13,27,18,219,35,42,48,143,,50,45,136,,40,13,256,,0*6B
$GPGSV,4,4,13,41,36,236,,0*50
$GBGSV,3,1,11,06,37,215,32,09,36,286,31,11,18,130,31,12,10,060,31,0*7D
$GBGSV,3,2,11,13,48,202,32,14,08,164,31,01,37,121,,02,50,170,32,0*72
$GBGSV,3,3,11,23,51,143,,24,24,077,,29,06,278,,0*44
$GAGSV,1,1,00,0*74

$GNRMC,000116.00,A,3000.23199,N,12000.15001,E,75.618,58.86,230721,,,A,V*02
$GNGGA,000116.00,3000.23199,N,12000.15001,E,1,15,0.75,-1.2,M,,M,,*77
$GNGSA,A,3,04,07,13,02,08,20,23,25,27,,,,1.47,0.75,1.26,1*0E
$GNGSA,A,3,06,09,13,11,12,14,,,,,,,1.47,0.75,1.26,4*0A
$G
NGSA,A,3,,,,,,,,,,,,,1.47,0.75,1.26,3*06
$GPGSV,4,1,13,02,32,299,36,04,51,246,36,07,84,113,36,08,47,207,36,0*65
$GPGSV,4,2,13,13,49,031,36,20,22,121,35,23,27,057,35,25,66,042,36,0*6B
$GPGSV,4,3,13,27,18,219,35,42,48,143,,50,45,136,,40,13,256,,0*6B
$GPGSV,4,4,13,41,36,236,,0*50
$GBGSV,3,1,11,06,37,215,31,09,36,286,31,11,18,130,31,12,10,060,31,0*7E
$GBGSV,3,2,11,13,48,202,32,14,08,164,31,01,37,121,,02,50,170,32,0*72
$GBGSV,3,3,11,23,51,143,,24,24,077,,29,06,278,,0*44
$GAGSV,1,1,00,0*74

$GNRMC,000117.00,A,3000.24213,N,12000.17113,E,75.593,63.21,230721,,,A,V*00
$GNGGA,000117.00,3000.24213,N,12000.17113,E,1,15,0.75,-1.3,M,,M,,*71
$GNGSA,A,3,04,07,13,02,08,20,23,25,27,,,,1.47,0.75,1.26,1*0E
$GNGSA,A,3,06,09,13,11,12,14,,,,,,,1.47,0.75,1.26,4*0A
$GNGSA,A,3,,,,,,,,,,,,,1.47,0.75,1.26,3*06
$GPGSV,4,1,13,02,32,299,35,04,51,246,36,07,84,113,36,
08,47,207,36,0*66
$GPGSV,4,2,13,13,49,031,36,20,22,121,35,23,27,057,36,25,66,042,36,0*68
$GPGSV,4,3,13,27,18,219,35,42,48,143,,50,45,136,,40,13,256,,0*6B
$GPGSV,4,4,13,41,36,236,,0*50
$GBGSV,3,1,11,06,37,215,31,09,36,286,31,11,18,130,31,12,10,060,30,0*7F
$GBGSV,3,2,11,13,48,202,32,14,08,164,31,01,37,121,,02,50,170,32,0*72
$GBGSV,3,3,11,23,51,143,,24,24,077,,29,06,278,,0*44
$GAGSV,1,1,00,0*74

$GNRMC,000118.00,A,3000.25088,N,12000.19308,E,75.580,67.62,230721,,,A,V*09
$GNGGA,000118.00,3000.25088,N,12000.19308,E,1,15,0.75,-1.4,M,,M,,*7E
$GNGSA,A,3,04,07,13,02,08,20,23,25,27,,,,1.47,0.75,1.26,1*0E
$GNGSA,A,3,06,09,13,11,12,14,,,,,,,1.47,0.75,1.26,4*0A
$GNGSA,A,3,,,,,,,,
,,,,,1.47,0.75,1.26,3*06
$GPGSV,4,1,14,02,32,299,35,04,51,246,37,07,84,112,37,08,47,207,35,0*63
$GPGSV,4,2,14,13,49,031,37,20,22,121,34,23,27,057,36,25,66,042,35,0*6C
$GPGSV,4,3,14,27,18,219,36,10,01,310,,42,48,143,,50,45,136,,0*6A
$GPGSV,4,4,14,40,13,256,,41,36,236,,0*60
$GBGSV,3,1,11,06,37,215,31,09,36,286,31,11,18,130,31,12,10,060,30,0*7F
$GBGSV,3,2,11,13,48,202,32,14,08,164,31,01,37,121,,02,50,170,32,0*72
$GBGSV,3,3,11,23,51,143,,24,24,077,,29,06,278,,0*44
$GAGSV,1,1,00,0*74

$GNRMC,000119.00,A,3000.25809,N,12000.21578,E,75.690,72.19,230721,,,A,V*09
$GNGGA,000119.00,3000.25809,N,12000.21578,E,1,15,0.75,-1.3,M,,M,,*73
$GNGSA,A,3,04,07,13,02,08,20,23,25,27,,,,1.47,0.75,1.26,1*0E
$GNGSA,A,3,06,09,13,11,12,14,,,,,,,1.47,0.75,1.26,4*0A
$GNGSA,A,3,,,,,,,,,,,,,1.47,0.75,1.
26,3*06
$GPGSV,4,1,14,02,32,299,36,04,51,246,36,07,84,112,36,08,47,207,36,0*63
$GPGSV,4,2,14,13,49,031,36,20,22,121,35,23,27,057,35,25,66,042,36,0*6C
$GPGSV,4,3,14,27,18,219,35,10,01,310,,42,48,143,,50,45,136,,0*69
$GPGSV,4,4,14,40,13,256,,41,36,236,,0*60
$GBGSV,3,1,11,06,37,215,31,09,36,286,31,11,18,130,31,12,10,060,30,0*7F
$GBGSV,3,2,11,13,48,202,32,14,08,164,31,01,37,121,,02,50,170,32,0*72
$GBGSV,3,3,11,23,51,143,,24,24,077,,29,06,278,,0*44
$GAGSV,1,1,00,0*74

$GNRMC,000120.00,A,3000.26376,N,12000.23906,E,75.638,76.51,230721,,,A,V*0E
$GNGGA,000120.00,3000.26376,N,12000.23906,E,1,15,0.75,-1.3,M,,M,,*7E
$GNGSA,A,3,04,07,13,02,08,20,23,25,27,,,,1.47,0.75,1.26,1*0E
$GNGSA,A,3,06,09,13,11,12,14,,,,,,,1.47,0.75,1.26,4*0A
$GNGSA,A,3,,,,,,,,,,,,,1.47,0.75,1.26,3*06
$GPGSV,4,1,14
,02,32,299,35,04,51,246,36,07,84,112,36,08,47,207,35,0*63
$GPGSV,4,2,14,13,49,031,36,20,22,121,35,23,27,057,36,25,66,042,36,0*6F
$GPGSV,4,3,14,27,18,219,36,10,01,310,,42,48,143,,50,45,136,,0*6A
$GPGSV,4,4,14,40,13,256,,41,36,236,,0*60
$GBGSV,3,1,11,06,37,215,31,09,36,286,31,11,18,130,31,12,10,060,31,0*7E
$GBGSV,3,2,11,13,48,202,32,14,08,164,31,01,37,121,,02,50,170,32,0*72
$GBGSV,3,3,11,23,51,143,,24,24,077,,29,06,278,,0*44
$GAGSV,1,1,00,0*74

$GNRMC,000121.00,A,3000.26785,N,12000.26274,E,75.640,81.10,230721,,,A,V*0E
$GNGGA,000121.00,3000.26785,N,12000.26274,E,1,15,0.75,-1.3,M,,M,,*7C
$GNGSA,A,3,04,07,13,02,08,20,23,25,27,,,,1.47,0.75,1.26,1*0E
$GNGSA,A,3,06,09,13,11,12,14,,,,,,,1.47,0.75,1.26,4*0A
$GNGSA,A,3,,,,,,,,,,,,,1.47,0.75,1.26,3*06
$GPGSV,4,1,14,02,32,299,35,04,51,246,36,07,84,112,36,08,47,207
,36,0*60
$GPGSV,4,2,14,13,49,031,36,20,22,121,35,23,27,057,35,25,66,042,36,0*6C
$GPGSV,4,3,14,27,18,219,35,10,01,310,,42,48,143,,50,45,136,,0*69
$GPGSV,4,4,14,40,13,256,,41,36,236,,0*60
$GBGSV,3,1,11,06,37,215,31,09,36,286,31,11,18,130,31,12,10,060,31,0*7E
$GBGSV,3,2,11,13,48,202,32,14,08,164,31,01,37,121,,02,50,170,32,0*72
$GBGSV,3,3,11,23,51,143,,24,24,077,,29,06,278,,0*44
$GAGSV,1,1,00,0*74

$GNRMC,000122.00,A,3000.27029,N,12000.28675,E,75.660,85.63,230721,,,A,V*04
$GNGGA,000122.00,3000.27029,N,12000.28675,E,1,15,0.75,-1.3,M,,M,,*74
$GNGSA,A,3,04,07,13,02,08,20,23,25,27,,,,1.47,0.75,1.26,1*0E
$GNGSA,A,3,06,09,13,11,12,14,,,,,,,1.47,0.75,1.26,4*0A
$GNGSA,A,3,,,,,,,,,,,,,1.47,0.75,1.26,3*06
$GPGSV,4,1,14,02,32,299,35,04,51,246,36,07,84,112,37,08,47,207,35,0*62
$GPGSV,4,2,14,13,
49,031,36,20,22,121,35,23,27,057,34,25,66,042,36,0*6D
$GPGSV,4,3,14,27,18,219,36,10,01,310,,42,48,143,,50,45,136,,0*6A
$GPGSV,4,4,14,40,13,256,,41,36,236,,0*60
$GBGSV,3,1,11,06,37,215,31,09,36,286,31,11,18,130,31,12,10,060,31,0*7E
$GBGSV,3,2,11,13,48,202,32,14,08,164,31,01,37,121,,02,50,170,31,0*71
$GBGSV,3,3,11,23,51,143,,24,24,077,,29,06,277,,0*4B
$GAGSV,1,1,00,0*74

$GNRMC,000123.00,A,3000.27107,N,12000.31092,E,75.648,89.97,230721,,,A,V*02
$GNGGA,000123.00,3000.27107,N,12000.31092,E,1,15,0.75,-1.3,M,,M,,*7F
$GNGSA,A,3,04,07,13,02,08,20,23,25,27,,,,1.47,0.75,1.26,1*0E
$GNGSA,A,3,06,09,13,11,12,14,,,,,,,1.47,0.75,1.26,4*0A
$GNGSA,A,3,,,,,,,,,,,,,1.47,0.75,1.26,3*06

$GPGSV,4,1,14,02,32,299,35,04,51,246,36,07,84,112,37,08,47,207,36,0*61
$GPGSV,4,2,14,13,49,031,36,20,22,121,35,23,27,057,35,25,66,042,36,0*6C
$GPGSV,4,3,14,27,18,219,36,10,01,310,,42,48,143,,50,45,136,,0*6A
$GPGSV,4,4,14,40,13,256,,41,36,236,,0*60
$GBGSV,3,1,11,06,37,215,31,09,36,286,31,11,18,130,31,12,10,060,31,0*7E
$GBGSV,3,2,11,13,48,202,32,14,08,164,31,01,37,121,,02,50,170,32,0*72
$GBGSV,3,3,11,23,51,143,,24,24,077,,29,06,277,,0*4B
$GAGSV,1,1,00,0*74

$GNRMC,000124.00,A,3000.27025,N,12000.33509,E,75.729,94.43,230721,,,A,V*02
$GNGGA,000124.00,3000.27025,N,12000.33509,E,1,15,0.75,-1.3,M,,M,,*7C
$GNGSA,A,3,04,07,13,02,08,20,23,25,27,,,,1.47,0.75,1.26,1*0E
$GNGSA,A,3,06,09,13,11,12,14,,,,,,,1.47,0.75,1.26,4*0A
$GNGSA,A,3,,,,,,,,,,,,,1.47,0.75,1.26,3*06

$GPGSV,4,1,14,02,32,299,35,04,51,246,36,07,84,112,37,08,47,207,36,0*61
$GPGSV,4,2,14,13,49,031,36,20,22,121,35,23,27,057,35,25,66,042,36,0*6C
$GPGSV,4,3,14,27,18,219,35,10,01,310,,42,48,143,,50,45,136,,0*69
$GPGSV,4,4,14,40,13,256,,41,36,236,,0*60
$GBGSV,3,1,11,06,37,215,31,09,36,286,31,11,18,130,31,12,10,060,31,0*7E
$GBGSV,3,2,11,13,48,202,32,14,08,164,31,01,37,121,,02,50,170,32,0*72
$GBGSV,3,3,11,23,51,143,,24,24,077,,29,06,277,,0*4B
$GAGSV,1,1,00,0*74

$GNRMC,000125.00,A,3000.26780,N,12000.35911,E,75.543,98.86,230721,,,A,V*02
$GNGGA,000125.00,3000.26780,N,12000.35911,E,1,15,0.75,-1.2,M,,M,,*76
$GNGSA,A,3,04,07,13,02,08,20,23,25,27,,,,1.47,0.75,1.26,1*0E
$GNGSA,A,3,06,09,13,11,12,14,,,,,,,1.47,0.75,1.26,4*0A
$GNGSA,A,3,,,,,,,,,,,,,1.47,0.75,1.26,3*06
$GPGSV,4,1,14,02,32,299,36,04
,51,246,36,07,84,112,36,08,47,207,36,0*63
$GPGSV,4,2,14,13,49,031,36,20,22,121,35,23,27,057,35,25,66,042,36,0*6C
$GPGSV,4,3,14,27,18,219,34,10,01,310,,42,48,143,,50,45,136,,0*68
$GPGSV,4,4,14,40,13,256,,41,36,236,,0*60
$GBGSV,3,1,11,06,37,215,32,09,36,286,31,11,18,130,31,12,10,060,31,0*7D
$GBGSV,3,2,11,13,48,202,32,14,08,164,30,01,37,121,,02,50,170,32,0*73
$GBGSV,3,3,11,23,51,143,,24,24,077,,29,06,277,,0*4B
$GAGSV,1,1,00,0*74

$GNRMC,000126.00,A,3000.26375,N,12000.38282,E,75.586,103.30,230721,,,A,V*34
$GNGGA,000126.00,3000.26375,N,12000.38282,E,1,15,0.75,-1.1,M,,M,,*74
$GNGSA,A,3,04,07,13,02,08,20,23,25,27,,,,1.47,0.75,1.26,1*0E
$GNGSA,A,3,06,09,13,11,12,14,,,,,,,1.47,0.75,1.26,4*0A
$GNGSA,A,3,,,,,,,,,,,,,1.47,0.75,1.26,3*06
$GPGSV,4,1,14,02,32,299,35,04,51,246,36,07,84,112,36,08,47,207,35,0*63
$GPGSV,4,2,14,13,49,031,36
,20,22,121,35,23,27,057,35,25,66,042,36,0*6C
$GPGSV,4,3,14,27,18,219,35,10,01,310,,42,48,143,,50,45,136,,0*69
$GPGSV,4,4,14,40,13,256,,41,36,236,,0*60
$GBGSV,3,1,11,06,37,215,31,09,36,286,31,11,18,130,31,12,10,060,31,0*7E
$GBGSV,3,2,11,13,48,202,32,14,08,164,31,01,37,121,,02,50,170,32,0*72
$GBGSV,3,3,11,23,51,143,,24,24,077,,29,06,277,,0*4B
$GAGSV,1,1,00,0*74

$GNRMC,000127.00,A,3000.25809,N,12000.40610,E,75.621,107.79,230721,,,A,V*31
$GNGGA,000127.00,3000.25809,N,12000.40610,E,1,15,0.75,-1.1,M,,M,,*76
$GNGSA,A,3,04,07,13,02,08,20,23,25,27,,,,1.47,0.75,1.26,1*0E
$GNGSA,A,3,06,09,13,11,12,14,,,
,,,,1.47,0.75,1.26,4*0A
$GNGSA,A,3,,,,,,,,,,,,,1.47,0.75,1.26,3*06
$GPGSV,4,1,14,02,32,299,35,04,51,246,36,07,84,112,36,08,47,207,36,0*60
$GPGSV,4,2,14,13,49,031,35,20,22,121,35,23,27,057,35,25,66,042,36,0*6F
$GPGSV,4,3,14,27,18,219,35,10,01,310,,42,48,143,,50,45,136,,0*69
$GPGSV,4,4,14,40,13,256,,41,36,236,,0*60
$GBGSV,3,1,11,06,37,215,31,09,36,286,31,11,18,130,31,12,10,060,31,0*7E
$GBGSV,3,2,11,13,48,202,32,14,08,164,30,01,37,121,,02,50,170,32,0*73
$GBGSV,3,3,11,23,51,143,,24,24,077,,29,06,277,,0*4B
$GAGSV,1,1,00,0*74

$GNRMC,000128.00,A,3000.25089,N,12000.42879,E,75.513,112.24,230721,,,A,V*33
$GNGGA,000128.00,3000.25089,N,12000.42879,E,1,15,0.75,-1.2,M,,M,,*79
$GNGSA,A,3,04,07,13,02,08,20,23,25,27,,,,1.47,0.75,1.26,1*0E
$GNGSA,A,3,06,09,13,11,12,14,,,,,,,1.47,0.75,1.26,4*0A
$GNGSA,A,3,,,,,,
,,,,,,,1.47,0.75,1.26,3*06
$GPGSV,4,1,14,02,32,299,35,04,51,246,36,07,84,112,36,08,47,207,35,0*63
$GPGSV,4,2,14,13,49,031,36,20,22,121,36,23,27,057,35,25,66,042,36,0*6F
$GPGSV,4,3,14,27,18,219,34,10,01,310,,42,48,143,,50,45,136,,0*68
$GPGSV,4,4,14,40,13,256,,41,36,236,,0*60
$GBGSV,3,1,11,06,37,215,31,09,36,286,32,11,18,130,31,12,10,060,31,0*7D
$GBGSV,3,2,11,13,48,202,32,14,08,164,31,01,37,121,,02,50,170,32,0*72
$GBGSV,3,3,11,23,51,143,,24,24,077,,29,06,277,,0*4B
$GAGSV,1,1,00,0*74

$GNRMC,000129.00,A,3000.24215,N,12000.45079,E,75.647,116.68,230721,,,A,V*35
$GNGGA,000129.00,3000.24215,N,12000.45079,E,1,15,0.75,-1.1,M,,M,,*72
$GNGSA,A,3,04,07,13,02,08,20,23,25,27,,,,1.47,0.75,1.26,1*0E
$GNGSA,A,3,06,09,13,11,12,14,,,,,,,1.47,0.75,1.26,4*0A
$GNGSA,A,3,,,,,,,,,,,,,1.47,0.75,1.26,3*06
$GPGSV,4,1,14,02,32,299,35,04,51,246,36,07,84,112,37,08,47,207,36,0
*61
$GPGSV,4,2,14,13,49,031,36,20,22,121,35,23,27,057,35,25,66,042,36,0*6C
$GPGSV,4,3,14,27,18,219,35,10,01,310,,42,48,143,,50,45,136,,0*69
$GPGSV,4,4,14,40,13,256,,41,36,236,,0*60
$GBGSV,3,1,11,06,37,215,31,09,36,286,31,11,18,130,31,12,10,060,31,0*7E
$GBGSV,3,2,11,13,48,202,32,14,08,164,31,01,37,121,,02,50,170,32,0*72
$GBGSV,3,3,11,23,51,143,,24,24,077,,29,06,277,,0*4B
$GAGSV,1,1,00,0*74

$GNRMC,000130.00,A,3000.23195,N,12000.47194,E,75.615,121.22,230721,,,A,V*3C
$GNGGA,000130.00,3000.23195,N,12000.47194,E,1,15,0.75,-1.2,M,,M,,*75
$GNGSA,A,3,04,07,13,02,08,20,23,25,27,,,,1.47,0.75,1.26,1*0E
$GNGSA,A,3,06,09,13,11,12,14,,,,,,,1.47,0.75,1.26,4*0A
$GNGSA,A,3,,,,,,,
,,,,,,1.47,0.75,1.26,3*06
$GPGSV,4,1,14,02,32,299,36,04,51,246,36,07,84,111,37,08,47,207,35,0*62
$GPGSV,4,2,14,13,49,031,36,20,22,121,34,23,27,057,35,25,66,042,36,0*6D
$GPGSV,4,3,14,27,18,219,35,10,01,310,,42,48,143,,50,45,136,,0*69
$GPGSV,4,4,14,40,13,256,,41,36,236,,0*60
$GBGSV,3,1,11,06,37,215,31,09,36,286,32,11,18,130,32,12,10,060,31,0*7E
$GBGSV,3,2,11,13,48,202,32,14,08,164,31,01,37,121,,02,50,170,32,0*72
$GBGSV,3,3,11,23,51,143,,24,24,077,,29,06,277,,0*4B
$GAGSV,1,1,00,0*74

$GNRMC,000131.00,A,3000.22034,N,12000.49210,E,75.654,125.66,230721,,,A,V*36
$GNGGA,000131.00,3000.22034,N,12000.49210,E,1,15,0.75,-1.4,M,,M,,*78
$GNGSA,A,3,04,07,13,02,08,20,23,25,27,,,,1.47,0.75,1.26,1*0E
$GNGSA,A,3,06,09,13,11,12,14,,,,,,,1.47,0.75,1.26,4*0A
$GNGSA,A,3,,,,,,,,,,,,,1.47,0.75,1.26,3*06
$GPGSV,4,1,14,02,32,299,36,04,51
,246,36,07,84,111,37,08,47,207,36,0*61
$GPGSV,4,2,14,13,49,031,36,20,22,121,35,23,27,057,35,25,66,042,37,0*6D
$GPGSV,4,3,14,27,18,219,35,10,01,310,,42,48,143,,50,45,136,,0*69
$GPGSV,4,4,14,40,13,256,,41,36,236,,0*60
$GBGSV,3,1,12,06,37,215,31,09,36,286,32,11,18,130,32,12,10,060,31,0*7D
$GBGSV,3,2,12,13,48,202,32,14,08,164,31,01,37,121,,02,50,170,32,0*71
$GBGSV,3,3,12,23,51,143,,24,24,077,,29,06,277,,04,,,23,0*4D
$GAGSV,1,1,00,0*74

$GNRMC,000132.00,A,3000.20739,N,12000.51118,E,75.670,130.11,230721,,,A,V*3D
$GNGGA,000132.00,3000.20739,N,12000.51118,E,1,15,0.75,-1.4,M,,M,,*71
$GNGSA,A,3,04,07,13,02,08,20,23,25,27,,,,1.47,0.75,1.26,1*0E
$GNGSA,A,3,06,09,13,11,12,14,,,,,,,1.47,0.
75,1.26,4*0A
$GNGSA,A,3,,,,,,,,,,,,,1.47,0.75,1.26,3*06
$GPGSV,4,1,14,02,32,299,35,04,51,246,37,07,84,111,37,08,47,207,35,0*60
$GPGSV,4,2,14,13,49,031,36,20,22,121,35,23,27,057,35,25,66,042,36,0*6C
$GPGSV,4,3,14,27,18,219,35,10,01,310,,42,48,143,,50,45,136,,0*69
$GPGSV,4,4,14,40,13,256,,41,36,236,,0*60
$GBGSV,3,1,11,06,37,215,31,09,36,286,32,11,18,130,31,12,10,060,31,0*7D
$GBGSV,3,2,11,13,48,202,32,14,08,164,31,01,37,121,,02,50,170,32,0*72
$GBGSV,3,3,11,23,51,143,,24,24,077,,29,06,277,,0*4B
$GAGSV,1,1,03,10,,,34,11,,,34,12,,,33
,0*75

$GNRMC,000133.00,A,3000.19319,N,12000.52908,E,75.695,134.49,230721,,,A,V*38
$GNGGA,000133.00,3000.19319,N,12000.52908,E,1,15,0.75,-1.3,M,,M,,*71
$GNGSA,A,3,04,07,13,02,08,20,23,25,27,,,,1.47,0.75,1.26,1*0E
$GNGSA,A,3,06,09,13,11,12,14,,,,,,,1.47,0.75,1.26,4*0A
$GNGSA,A,3,,,,,,,,,,,,,1.47,0.75,1.26,3*06
$GPGSV,4,1,14,02,32,299,36,04,51,246,36,0
7,84,111,36,08,47,207,36,0*60
$GPGSV,4,2,14,13,49,031,36,20,22,121,36,23,27,057,35,25,66,042,37,0*6E
$GPGSV,4,3,14,27,18,219,34,10,01,310,,42,48,143,,50,45,136,,0*68
$GPGSV,4,4,14,40,13,256,,41,36,236,,0*60
$GBGSV,3,1,11,06,37,215,31,09,36,286,32,11,18,130,31,12,10,060,31,0*7D
$GBGSV,3,2,11,13,48,202,32,14,08,164,31,01,37,121,,02,50,170,32,0*72
$GBGSV,3,3,11,23,51,143,,24,24,077,,29,06,277,,0*4B
$GAGSV,1,1,03,10,,,35,11,,,33,12,,,32,0*72

$GNRMC,000134.00,A,3000.17786,N,12000.54565,E,75.658,139.00,230721,,,A,V*33
$GNGGA,000134.00,3000.17786,N,12000.54565,E,1,15,0.75,-1.3,M,,M,,*7B
$GNGSA,A,3,04,07,13,02,08,20,23,25,27,,,,1.47,0.75,1.26,1*0E
$GNGSA,A,3,06,09,13,11,12,14,,,,,,,1.47,0.75,1.26,4*0A
$GNGSA,A,3,,,,,,,,,,
,,,1.47,0.75,1.26,3*06
$GPGSV,4,1,14,02,32,299,35,04,51,246,36,07,84,111,36,08,47,207,36,0*63
$GPGSV,4,2,14,13,49,031,36,20,22,121,35,23,27,057,35,25,66,042,36,0*6C
$GPGSV,4,3,14,27,18,219,35,10,01,310,,42,48,143,,50,45,136,,0*69
$GPGSV,4,4,14,40,13,256,,41,36,236,,0*60
$GBGSV,3,1,11,06,37,215,31,09,36,286,31,11,18,130,31,12,10,060,31,0*7E
$GBGSV,3,2,11,13,48,202,32,14,08,164,31,01,37,121,,02,50,170,32,0*72
$GBGSV,3,3,11,23,51,143,,24,24,077,,29,06,277,,0*4B
$GAGSV,1,1,03,10,,,33,11,,,35,12,,,30,0*70

$GNRMC,000135.00,A,3000.16146,N,12000.56078,E,75.547,143.49,230721,,,A,V*3F
$GNGGA,000135.00,3000.16146,N,12000.56078,E,1,15,0.75,-1.4,M,,M,,*7D
$GNGSA,A,3,04,07,13,02,08,20,23,25,27,,,,1.47,0.75,1.26,1*0E
$GNGSA,A,3,06,09,13,11,12,14,,,,,,,1.47,0.75,1.26,4*0A
$GNGSA,A,3,,,,,,,,,,,,,1.47,0.75,1.26,3*06
$GPGSV,4,1,14,02,32,299,35,04,51,246,36,07,84,111,36,08,47,207,36,0*63
$GPGSV,4,2,14,13,49,031
,36,20,22,121,35,23,27,057,35,25,66,042,36,0*6C
$GPGSV,4,3,14,27,18,219,35,10,01,310,,42,48,143,,50,45,136,,0*69
$GPGSV,4,4,14,40,13,256,,41,36,236,,0*60
$GBGSV,3,1,11,06,37,215,32,09,36,286,31,11,18,130,31,12,10,060,31,0*7D
$GBGSV,3,2,11,13,48,202,32,14,08,164,31,01,37,121,,02,50,170,32,0*72
$GBGSV,3,3,11,23,51,143,,24,24,077,,29,06,277,,0*4B
$GAGSV,1,1,03,10,,,34,11,,,34,12,,,32,0*74

$GNRMC,000136.00,A,3000.14405,N,12000.57441,E,75.827,147.97,230721,,,A,V*3F
$GNGGA,000136.00,3000.14405,N,12000.57441,E,1,15,0.75,-1.4,M,,M,,*71
$GNGSA,A,3,04,07,13,02,08,20,23,25,27,,,,1.47,0.75,1.26,1*0E
$GNGSA,A,3,06,09,13,11,12,14,,,,,,,1.47,0.75,
1.26,4*0A
$GNGSA,A,3,,,,,,,,,,,,,1.47,0.75,1.26,3*06
$GPGSV,4,1,14,02,32,299,35,04,51,246,36,07,84,111,37,08,47,207,36,0*62
$GPGSV,4,2,14,13,49,031,36,20,22,121,35,23,27,057,36,25,66,042,36,0*6F
$GPGSV,4,3,14,27,18,219,36,10,01,310,,42,48,143,,50,45,136,,0*6A
$GPGSV,4,4,14,40,13,256,,41,36,236,,0*60
$GBGSV,3,1,11,06,37,215,31,09,36,286,31,11,18,130,31,12,10,060,31,0*7E
$GBGSV,3,2,11,13,48,202,32,14,08,164,31,01,37,121,,02,50,170,32,0*72
$GBGSV,3,3,11,23,51,143,,24,24,077,,29,06,277,,0*4B
$GAGSV,1,1,03,10,,,34,11,,,34,12,,,33,0*
75

$GNRMC,000137.00,A,3000.12577,N,12000.58644,E,75.623,152.36,230721,,,A,V*31
$GNGGA,000137.00,3000.12577,N,12000.58644,E,1,15,0.75,-1.3,M,,M,,*7D
$GNGSA,A,3,04,07,13,02,08,20,23,25,27,,,,1.47,0.75,1.26,1*0E
$GNGSA,A,3,06,09,13,11,12,14,,,,,,,1.47,0.75,1.26,4*0A
$
GNGSA,A,3,,,,,,,,,,,,,1.47,0.75,1.26,3*06
$GPGSV,4,1,14,02,32,299,35,04,51,246,36,07,84,111,36,08,47,207,36,0*63
$GPGSV,4,2,14,13,49,031,36,20,22,121,35,23,27,057,35,25,66,042,36,0*6C
$GPGSV,4,3,14,27,18,219,35,10,01,310,,42,48,143,,50,45,136,,0*69
$GPGSV,4,4,14,40,13,256,,41,36,236,,0*60
$GBGSV,3,1,11,06,37,215,31,09,36,286,31,11,18,130,31,12,10,060,31,0*7E
$GBGSV,3,2,11,13,48,202,32,14,08,164,31,01,37,121,,02,50,170,32,0*72
$GBGSV,3,3,11,23,51,143,,24,24,077,,29,06,277,,0*4B
$GAGSV,1,1,03,10,,,34,11,,,34,12,,,33,0*75

$GNRMC,000138.00,A,3000.10679,N,12000.59677,E,75.483,156.90,230721,,,A,V*30
$GNGGA,000138.00,3000.10679,N,12000.59677,E,1,15,0.75,-1.3,M,,M,,*7C
$GNGSA,A,3,04,07,13,02,08,20,23,25,27,,,,1.47,0.75,1.26,1*0E
$GNGSA,A,3,06,09,13,11,12,14,,,,,,,1.47,0.75,1.26,4*0A
$GNGSA,A,3,,,,,,,,,,,,,1.47,0.75,1.26,3*06
$GPGSV,4,1,14,02,32,299,35,
04,51,246,36,07,84,111,36,08,47,207,36,0*63
$GPGSV,4,2,14,13,49,031,36,20,22,121,35,23,27,057,35,25,66,042,36,0*6C
$GPGSV,4,3,14,27,18,219,35,10,01,310,,42,48,143,,50,45,136,,0*69
$GPGSV,4,4,14,40,13,256,,41,36,236,,0*60
$GBGSV,3,1,11,06,37,215,31,09,36,286,31,11,18,130,31,12,10,060,31,0*7E
$GBGSV,3,2,11,13,48,202,32,14,08,164,31,01,37,121,,02,50,170,32,0*72
$GBGSV,3,3,11,23,51,143,,24,24,077,,29,06,277,,0*4B
$GAGSV,1,1,03,10,,,34,11,,,34,12,,,32,0*74

$GNRMC,000139.00,A,3000.08715,N,12000.60536,E,75.690,161.39,230721,,,A,V*38
$GNGGA,000139.00,3000.08715,N,12000.60536,E,1,15,0.75,-1.2,M,,M,,*72
$GNGSA,A,3,04,07,13,02,08,20,23,25,27,,,,1.47,0.75,1.26,1*0E
$GNGSA,A,3,06,09,13,11,12,14,,,,,,,1.47,0.75,1.26,4*0A
$GNGSA,A,3,,,,,,,,,,,,,1.47,0.75,1.26,3*06
$GPGSV,4,1,14,02
,32,299,35,04,51,246,36,07,84,111,37,08,47,207,35,0*61
$GPGSV,4,2,14,13,49,031,37,20,22,121,35,23,27,057,36,25,66,042,36,0*6E
$GPGSV,4,3,14,27,18,219,35,10,01,310,,42,48,143,,50,45,136,,0*69
$GPGSV,4,4,14,40,13,256,,41,36,236,,0*60
$GBGSV,3,1,11,06,37,215,31,09,36,286,31,11,18,130,32,12,10,060,31,0*7D
$GBGSV,3,2,11,13,48,202,32,14,08,164,31,01,37,121,,02,50,170,32,0*72
$GBGSV,3,3,11,23,51,143,,24,24,077,,29,06,277,,0*4B
$GAGSV,1,1,03,10,,,34,11,,,34,12,,,33,0*75

$GNRMC,000140.00,A,3000.06694,N,12000.61219,E,75.917,165.77,230721,,,A,V*35
$GNGGA,000140.00,3000.06694,N,12000.61219,E,1,15,0.75,-1.0,M,,M,,*73
$GNGSA,A,3,04,07,13,02,08,20,23,25,27,,,,1.47,0.75,1.26,1*0E
$GNGSA,A,3,06,09,13,11,12,14,,,,,,,1.47,0.75,1.26,4*0A
$GNGSA,A,3,,,,,,,,,,,,,1.47,0.75,1.26,3*06
$GPG
SV,4,1,14,02,32,299,35,04,51,246,36,07,84,110,37,08,47,207,36,0*63
$GPGSV,4,2,14,13,49,031,36,20,22,121,35,23,27,057,35,25,66,041,36,0*6F
$GPGSV,4,3,14,27,18,219,36,10,01,310,,42,48,143,,50,45,136,,0*6A
$GPGSV,4,4,14,40,13,256,,41,36,236,,0*60
$GBGSV,3,1,11,06,37,215,31,09,36,286,31,11,18,130,31,12,10,060,31,0*7E
$GBGSV,3,2,11,13,48,202,32,14,08,164,31,01,37,121,,02,50,170,32,0*72
$GBGSV,3,3,11,23,51,143,,24,24,077,,29,06,277,,0*4B
$GAGSV,1,1,03,10,,,34,11,,,34,12,,,32,0*74

$GNRMC,000141.00,A,3000.04635,N,12000.61724,E,75.682,170.11,230721,,,A,V*31
$GNGGA,000141.00,3000.04635,N,12000.61724,E,1,15,0.75,-1.0,M,,M,,*70
$GNGSA,A,3,04,07,13,02,08,20,23,25,27,,,,1.47,0.75,1.26,1*0E
$GNGSA,A,3,06,09,13,11,12,14,,,,,,,1.47,0.75,1.26,4*0A
$GNGSA,A,3,,,,,,,,,,,,,1.47,0.75,1.26,3*06
$GPGSV,4,1,14,02,32,299,35,04,51,246,36,07,84,1
10,36,08,47,207,36,0*62
$GPGSV,4,2,14,13,49,031,36,20,22,121,35,23,27,057,35,25,66,041,36,0*6F
$GPGSV,4,3,14,27,18,219,35,10,01,310,,42,48,143,,50,45,136,,0*69
$GPGSV,4,4,14,40,13,256,,41,36,236,,0*60
$GBGSV,3,1,11,06,36,215,31,09,36,286,31,11,18,130,31,12,10,060,31,0*7F
$GBGSV,3,2,11,13,48,202,32,14,08,164,31,01,37,121,,02,50,170,32,0*72
$GBGSV,3,3,11,23,51,143,,24,24,077,,29,06,277,,0*4B
$GAGSV,1,1,03,10,,,34,11,,,34,12,,,33,0*75

$GNRMC,000142.00,A,3000.02553,N,12000.62043,E,75.412,174.68,230721,,,A,V*33
$GNGGA,000142.00,3000.02553,N,12000.62043,E,1,15,0.75,-1.1,M,,M,,*72
$GNGSA,A,3,04,07,13,02,08,20,23,25,27,,,,1.47,0.75,1.26,1*0E
$GNGSA,A,3,06,09,13,11,12,14,,
,,,,,1.47,0.75,1.26,4*0A
$GNGSA,A,3,,,,,,,,,,,,,1.47,0.75,1.26,3*06
$GPGSV,4,1,14,02,32,299,36,04,51,246,36,07,84,110,36,08,47,207,35,0*62
$GPGSV,4,2,14,13,49,031,35,20,22,121,36,23,27,057,35,25,66,041,37,0*6E
$GPGSV,4,3,14,27,18,219,35,10,01,310,,42,48,143,,50,45,136,,0*69
$GPGSV,4,4,14,40,13,256,,41,36,236,,0*60
$GBGSV,3,1,11,06,36,215,31,09,36,286,31,11,18,130,31,12,10,060,31,0*7F
$GBGSV,3,2,11,13,48,202,32,14,08,164,31,01,37,121,,02,50,170,31,0*71
$GBGSV,3,3,11,23,51,143,,24,24,077,,29,06,277,,0*4B
$GAGSV,1,1,03,10,,,33,11,,,33,12,,,3
3,0*75

$GNRMC,000143.00,A,3000.00457,N,12000.62171,E,75.528,179.19,230721,,,A,V*36
$GNGGA,000143.00,3000.00457,N,12000.62171,E,1,15,0.75,-1.3,M,,M,,*76
$GNGSA,A,3,04,07,13,02,08,20,23,25,27,,,,1.47,0.75,1.26,1*0E
$GNGSA,A,3,06,09,13,11,12,14,,,,,,,1.47,0.75,1.26,4*0A
$GNGSA,A,3,,,,,,,,,,,,,1.47,0.75,1.26,3*06
$GPGSV,4,1,14,02
,32,299,35,04,51,246,35,07,84,110,36,08,47,207,36,0*61
$GPGSV,4,2,14,13,49,031,36,20,22,121,35,23,27,057,35,25,66,041,36,0*6F
$GPGSV,4,3,14,27,18,219,35,10,01,310,,42,48,143,,50,45,136,,0*69
$GPGSV,4,4,14,40,13,256,,41,36,236,,0*60
$GBGSV,3,1,11,06,36,215,32,09,36,286,31,11,18,130,31,12,10,060,31,0*7C
$GBGSV,3,2,11,13,48,202,32,14,08,164,31,01,37,121,,02,50,170,32,0*72
$GBGSV,3,3,11,23,51,143,,24,24,077,,29,06,277,,0*4B
$GAGSV,1,1,03,10,,,34,11,,,34,12,,,33,0*75

