GBGSV,3,1,09,06,36,215,31,09,36,286,31,13,46,201,31,14,07,164,31,0*7B
$GBGSV,3,2,09,01,37,122,31,02,50,173,32,04,36,125,31,11,19,129,,0*7D
$GBGSV,3,3,09,12,10,059,,0*40
$GAGSV,1,1,00,0*74

$GNRMC,000421.00,A,3000.00053,N,12000.00049,E,0.673,,230721,,,A,V*1F
$GNGGA,000421.00,3000.00053,N,12000.00049,E,1,04,4.97,-1.0,M,,M,,*72
$GNGSA,A,3,,,,,,,,,,,,,6.33,4.97,3.92,1*05
$GNGSA,A,3,06,09,13,14,,,,,,,,,6.33,4.97,3.92,4*08
$GNGSA,A,3,,,,,,,,,,,,,6.33,4.97,3.92,3*07

$GPGSV,1,1,00,0*65
$GBGSV,3,1,09,06,36,215,31,09,36,286,31,13,46,201,32,14,07,164,30,0*79
$GBGSV,3,2,09,01,37,122,31,02,50,173,32,04,36,125,31,11,19,129,,0*7D
$GBGSV,3,3,09,12,10,059,,0*40
$GAGSV,1,1,00,0*74

$GNRMC,000422.00,A,3000.00043,N,12000.00025,E,1.297,,230721,,,A,V*18
$GNGGA,000422.00,3000.00043,N,12000.00025,E,1,04,4.97,-1.0,M,,M,,*7A
$GNGSA,A,3,,,,,,,,,,,,,6.33,4.97,3.92,1*05
$GNGSA,A,3,06,09,13,14,,,,,,,,,6.33,4.97,3.92,4*08
$GNGSA,
A,3,,,,,,,,,,,,,6.33,4.97,3.92,3*07
$GPGSV,1,1,00,0*65
$GBGSV,3,1,09,06,36,215,31,09,36,286,31,13,46,201,32,14,07,164,31,0*78
$GBGSV,3,2,09,01,37,122,31,02,50,173,31,04,36,125,31,11,19,129,,0*7E
$GBGSV,3,3,09,12,10,059,,0*40
$GAGSV,1,1,00,0*74

$GNRMC,000423.00,A,3000.00041,N,12000.00030,E,0.324,,230721,,,A,V*17
$GNGGA,000423.00,3000.00041,N,12000.00030,E,1,04,4.97,-1.0,M,,M,,*7D
$GNGSA,A,3,,,,,,,,,,,,,6.33,4.97,3.92,1*05
$GNGSA,A,3,06,09,13,14,,,,,,,,,6.33,4.97,3.92,4*08
$GNGSA,A,3,,,,,,,,,,,,,6.33,4.97,3.92,3*07

$GPGSV,1,1,00,0*65
$GBGSV,3,1,09,06,36,215,31,09,36,286,31,13,46,201,32,14,07,164,31,0*78
$GBGSV,3,2,09,01,37,122,31,02,50,173,31,04,36,125,31,11,19,129,,0*7E
$GBGSV,3,3,09,12,10,059,,0*40
$GAGSV,1,1,00,0*74

$GNRMC,000424.00,A,3000.00034,N,12000.00049,E,1.134,,230721,,,A,V*1E
$GNGGA,000424.00,3000.00034,N,12000.00049,E,1,04,4.97,-1.0,M,,M,,*76
$GNGSA,A,3,,,,,,,,,,,,,6.33,4.97,3.92,1*05
$GNGSA,A,3,06,09,13,14,,,,,,,,,6.33,4.97,3.92,4*08
$GNGSA,A,3,,,,,,,,,,,,,6.33,4.97,3.92,
3*07
$GPGSV,1,1,00,0*65
$GBGSV,3,1,09,06,36,215,31,09,36,286,31,13,46,201,32,14,07,164,31,0*78
$GBGSV,3,2,09,01,37,122,31,02,50,173,31,04,36,125,31,11,19,129,,0*7E
$GBGSV,3,3,09,12,10,059,,0*40
$GAGSV,1,1,00,0*74

$GNRMC,000425.00,A,3000.00045,N,12000.00076,E,0.897,,230721,,,A,V*14
$GNGGA,000425.00,3000.00045,N,12000.00076,E,1,04,4.97,-1.0,M,,M,,*7D
$GNGSA,A,3,,,,,,,,,,,,,6.33,4.97,3.92,1*05
$GNGSA,A,3,06,09,13,14,,,,,,,,,6.33,4.97,3.92,4*08

$GNGSA,A,3,,,,,,,,,,,,,6.33,4.97,3.92,3*07
$GPGSV,1,1,00,0*65
$GBGSV,3,1,09,06,36,215,31,09,36,286,31,13,46,201,32,14,07,164,31,0*78
$GBGSV,3,2,09,01,37,122,31,02,50,173,32,04,36,125,31,11,19,129,,0*7D
$GBGSV,3,3,09,12,10,059,,0*40
$GAGSV,1,1,00,0*74

$GNRMC,000426.00,A,3000.00062,N,12000.00099,E,0.963,,230721,,,A,V*19
$GNGGA,000426.00,3000.00062,N,12000.00099,E,1,04,4.97,-1.0,M,,M,,*7A
$GNGSA,A,3,,,,,,,,,,,,,6.33,4.97,3.92,1*05
$GNGSA,A,3,06,09,13,14,,,,,,,,,6.33,4.97,3.92,4*08
$GNGS
A,A,3,,,,,,,,,,,,,6.33,4.97,3.92,3*07
$GPGSV,1,1,00,0*65
$GBGSV,3,1,09,06,36,215,31,09,36,286,31,13,46,201,32,14,07,164,31,0*78
$GBGSV,3,2,09,01,37,122,31,02,50,173,32,04,36,125,31,11,19,129,,0*7D
$GBGSV,3,3,09,12,10,059,,0*40
$GAGSV,1,1,00,0*74

$GNRMC,000427.00,A,3000.00045,N,12000.00078,E,0.546,,230721,,,A,V*19
$GNGGA,000427.00,3000.00045,N,12000.00078,E,1,04,4.97,-1.0,M,,M,,*71
$GNGSA,A,3,,,,,,,,,,,,,6.33,4.97,3.92,1*05
$GNGSA,A,3,06,09,13,14,,,,,,,,,6.33,4.97,3.92,4*08
$GNGSA,A,3,,,,,,,,,,,,,6.33,4.97,3.92,3*07
$GPGSV,1,1,00,0*65
$GBGSV,3,1,09,06,36,215,31,09,36,286,31,13,46,201,32,14,07,164,31,0*78

$GBGSV,3,2,09,01,37,122,31,02,50,173,31,04,36,125,31,11,19,129,,0*7E
$GBGSV,3,3,09,12,10,059,,0*40
$GAGSV,1,1,00,0*74

$GNRMC,000428.00,A,3000.00044,N,12000.00082,E,0.800,,230721,,,A,V*1D
$GNGGA,000428.00,3000.00044,N,12000.00082,E,1,04,4.97,-1.0,M,,M,,*7A
$GNGSA,A,3,,,,,,,,,,,,,6.33,4.97,3.92,1*05
$GNGSA,A,3,06,09,13,14,,,,,,,,,6.33,4.97,3.92,4*08
$GNGSA,A,3,,,,,,,,,,,,,6.33
,4.97,3.92,3*07
$GPGSV,1,1,00,0*65
$GBGSV,3,1,09,06,36,215,31,09,36,286,31,13,46,201,32,14,07,164,31,0*78
$GBGSV,3,2,09,01,37,122,31,02,50,173,31,04,36,125,31,11,19,129,,0*7E
$GBGSV,3,3,09,12,10,059,,0*40
$GAGSV,1,1,00,0*74

$GNRMC,000429.00,A,3000.00027,N,12000.00072,E,0.551,,230721,,,A,V*1F
$GNGGA,000429.00,3000.00027,N,12000.00072,E,1,04,4.97,-1.0,M,,M,,*71
$GNGSA,A,3,,,,,,,,,,,,,6.33,4.97,3.92,1*05
$GNGSA,A,3,06,09,13,14,,,,,,,,,6.33,4.97,3.92,4*08
$GNGSA,A,3,,,,,,,,,,,,,6.33,4.97,3.92,3*07
$GPGSV,1,1,00,0*65
$GBGSV,3,1,09,06,36,215,31,09,36,286,31,13,46,201,32
,14,07,164,31,0*78
$GBGSV,3,2,09,01,37,122,31,02,50,173,31,04,36,125,31,11,19,129,,0*7E
$GBGSV,3,3,09,12,10,059,,0*40
$GAGSV,1,1,00,0*74

$GNRMC,000430.00,A,3000.00030,N,12000.00074,E,0.916,,230721,,,A,V*18
$GNGGA,000430.00,3000.00030,N,12000.00074,E,1,04,4.97,-1.0,M,,M,,*79
$GNGSA,A,3,,,,,,,,,,,,,6.33,4.97,3.92,1*05
$GNGSA,A,3,06,09,13,14,,,,,,,,,6.33,4.97,3.92,4*08
$GNGSA,A,3,,,,,,,,,,,,,6.33,4.97,3.92,3*07
$GPGSV,1,1,00,0*65
$GBGSV,3,1,09,06,36,215,31,09,36,286,31,13,46,201,32,14,07,164,31,0*78
$GBGSV,3,2,09,01,37,122,31,02,50,173,31,04,36,125,31,11,19,129
,,0*7E
$GBGSV,3,3,09,12,10,059,,0*40
$GAGSV,1,1,00,0*74

$GNRMC,000431.00,A,3000.00019,N,12000.00053,E,0.610,,230721,,,A,V*1E
$GNGGA,000431.00,3000.00019,N,12000.00053,E,1,04,4.97,-1.0,M,,M,,*76
$GNGSA,A,3,,,,,,,,,,,,,6.33,4.97,3.92,1*05
$GNGSA,A,3,06,09,13,14,,,,,,,,,6.33,4.97,3.92,4*08
$GNGSA,A,3,,,,,,,,,,,,,6.33,4.97,3.92,3*07
$GPGSV,1,1,00,0*65
$GBGSV,3,1,09,06,36,215,31,09,36,286,32,13,46,201,32,14,07,164,30,0*7A
$G
BGSV,3,2,09,01,37,122,31,02,50,173,31,04,36,125,31,11,19,129,,0*7E
$GBGSV,3,3,09,12,10,059,,0*40
$GAGSV,1,1,00,0*74

$GNRMC,000432.00,A,3000.00005,N,12000.00034,E,0.369,,230721,,,A,V*1A
$GNGGA,000432.00,3000.00005,N,12000.00034,E,1,04,4.97,-1.0,M,,M,,*79
$GNGSA,A,3,,,,,,,,,,,,,6.33,4.97,3.92,1*05
$GNGSA,A,3,06,09,13,14,,,,,,,,,6.33,4.97,3.92,4*08
$GNGSA,A,3,,,,,,,,,,,,,6.33,4.97,3.92,3*07

$GPGSV,1,1,00,0*65
$GBGSV,3,1,09,06,36,215,31,09,36,286,31,13,46,201,32,14,07,164,31,0*78
$GBGSV,3,2,09,01,37,122,31,02,50,173,31,04,36,125,31,11,19,129,,0*7E
$GBGSV,3,3,09,12,10,059,,0*40
$GAGSV,1,1,00,0*74

$GNRMC,000433.00,A,3000.00043,N,12000.00066,E,1.957,,230721,,,A,V*18
$GNGGA,000433.00,3000.00043,N,12000.00066,E,1,04,4.98,-1.0,M,,M,,*72
$GNGSA,A,3,,,,,,,,,,,,,6.33,4.98,3.92,1*0A
$GNGSA,A,3,06,09,13,14,,,,,,,,,6.33,4.98,3.92,4*07
$GNGSA,A,3,,,,,,,,,,,,,6.33,4.98,3.92,3*08
$GPGSV,1,1,00,0*65
$GBGSV,3,1,09,06,36,215,31,09,36,286,31,13,46,201,32,14,07,164,31,0*
78
$GBGSV,3,2,09,01,37,122,32,02,50,173,31,04,36,125,31,11,19,129,,0*7D
$GBGSV,3,3,09,12,10,059,,0*40
$GAGSV,1,1,00,0*74

$GNRMC,000434.00,A,3000.00069,N,12000.00061,E,0.794,,230721,,,A,V*10
$GNGGA,000434.00,3000.00069,N,12000.00061,E,1,04,4.98,-1.0,M,,M,,*7A
$GNGSA,A,3,,,,,,,,,,,,,6.33,4.98,3.92,1*0A
$GNGSA,A,3,06,09,13,14,,,,,,,,,6.33,4.98,3.92,4*07
$GNGSA,A,3,,,,,,,,,,,,,6.33,4.98,3.92,3*08
$GPGSV,1,1,00,0*65
$GBGSV,3,1,09,06,36,215,31,09,36,286,31,13,46,20
1,32,14,07,164,31,0*78
$GBGSV,3,2,09,01,37,122,31,02,50,173,31,04,36,125,31,11,19,129,,0*7E
$GBGSV,3,3,09,12,10,059,,0*40
$GAGSV,1,1,00,0*74

$GNRMC,000435.00,A,3000.00048,N,12000.00025,E,1.334,,230721,,,A,V*1D
$GNGGA,000435.00,3000.00048,N,12000.00025,E,1,04,4.98,-1.0,M,,M,,*78
$GNGSA,A,3,,,,,,,,,,,,,6.33,4.98,3.92,1*0A
$GNGSA,A,3,06,09,13,14,,,,,,,,,6.33,4.98,3.92,4*07
$GNGSA,A,3,,,,,,,,,,,,,6.33,4.98,3.92,3*08
$GPGSV,1,1,00,0*65
$GBGSV,3,1,09,06,36,215,31,09,36,286,30,13,46,201,32,14,07,164,31,0*79
$GBGSV,3
,2,09,01,37,122,32,02,50,173,31,04,36,125,31,11,19,129,,0*7D
$GBGSV,3,3,09,12,10,059,,0*40
$GAGSV,1,1,00,0*74

$GNRMC,000436.00,A,3000.00023,N,12000.00005,E,0.889,,230721,,,A,V*1D
$GNGGA,000436.00,3000.00023,N,12000.00005,E,1,04,4.98,-1.0,M,,M,,*74
$GNGSA,A,3,,,,,,,,,,,,,6.33,4.98,3.92,1*0A
$GNGSA,A,3,06,09,13,14,,,,,,,,,6.33,4.98,3.92,4*07
$GNGSA,A,3,,,,,,,,,,,,,6.33,4.98,3.92,3*08
$GPGSV,1,1,00,0*65
$GBGSV,3,1,09,06,36,215,31,09,36,286,31,13,46,201,32,14,07,164,31,0*78
$GBGSV,3,2,09,01,37,122,31,02,50,17
3,32,04,36,125,31,11,19,129,,0*7D
$GBGSV,3,3,09,12,10,059,,0*40
$GAGSV,1,1,00,0*74

$GNRMC,000437.00,A,3000.00019,N,11959.99998,E,0.686,,230721,,,A,V*1F
$GNGGA,000437.00,3000.00019,N,11959.99998,E,1,04,4.98,-1.0,M,,M,,*77
$GNGSA,A,3,,,,,,,,,,,,,6.33,4.98,3.92,1*0A
$GNGSA,A,3,06,09,13,14,,,,,,,,,6.33,4.98,3.92,4*07
$GNGSA,A,3,,,,,,,,,,,,,6.33,4.98,3.92,3*08
$GPGSV,1,1,00,0*65
$GBGSV,3,1,09,06,36,215,31,09,36,286,31,13,46,201,32,14,07,164,31,0*78
$GBGSV,3,2,09,01,37,122,3
1,02,50,173,32,04,36,125,31,11,19,129,,0*7D
$GBGSV,3,3,09,12,10,059,,0*40
$GAGSV,1,1,00,0*74

$GNRMC,000438.00,A,3000.00038,N,12000.00019,E,0.554,,230721,,,A,V*19
$GNGGA,000438.00,3000.00038,N,12000.00019,E,1,04,4.98,-1.0,M,,M,,*7D
$GNGSA,A,3,,,,,,,,,,,,,6.34,4.98,3.92,1*0D
$GNGSA,A,3,06,09,13,14,,,,,,,,,6.34,4.98,3.92,4*00
$GNGSA,A
,3,,,,,,,,,,,,,6.34,4.98,3.92,3*0F
$GPGSV,1,1,00,0*65
$GBGSV,3,1,09,06,36,215,31,09,36,286,31,13,46,201,32,14,07,164,31,0*78
$GBGSV,3,2,09,01,37,122,31,02,50,173,32,04,36,125,31,11,19,129,,0*7D
$GBGSV,3,3,09,12,10,059,,0*40
$GAGSV,1,1,00,0*74

$GNRMC,000439.00,A,3000.00059,N,12000.00045,E,0.273,,230721,,,A,V*14
$GNGGA,000439.00,3000.00059,N,12000.00045,E,1,04,4.98,-1.0,M,,M,,*72
$GNGSA,A,3,,,,,,,,,,,,,6.34,4.98,3.92,1*0D
$GNGSA,A,3,06,09,13,14,,,,,,,,,6.34,4.98,3.92,4*00
$GNGSA,A,3,,,,,,,,,,,,,6.34,4.98,3.92,3*0F
$GPGSV,1,1,00,0*65
$GBGSV,3,1,09,06,36,215,31,0
9,36,286,31,13,46,201,32,14,07,164,30,0*79
$GBGSV,3,2,09,01,37,122,31,02,50,173,32,04,36,125,31,11,19,129,,0*7D
$GBGSV,3,3,09,12,10,059,,0*40
$GAGSV,1,1,00,0*74

$GNRMC,000440.00,A,3000.00059,N,12000.00032,E,0.272,,230721,,,A,V*1B
$GNGGA,000440.00,3000.00059,N,12000.00032,E,1,04,4.98,-1.0,M,,M,,*7C
$GNGSA,A,3,,,,,,,,,,,,,6.34,4.98,3.92,1*0D
$GNGSA,A,3,06,09,13,14,,,,,,,,,6.34,4.98,3.92,4*00
$GNGSA,A,3,,,,,,,,,,,,,6.34,4.98,3.92,3*0F
$GPGSV,1,1,00,0*65
$GBGSV,3,1,09,06,36,215,31,09,36,286,31,13,46,201,32,14
,07,164,30,0*79
$GBGSV,3,2,09,01,37,122,31,02,50,173,32,04,36,125,31,11,19,129,,0*7D
$GBGSV,3,3,09,12,10,059,,0*40
$GAGSV,1,1,00,0*74

$GNRMC,000441.00,A,3000.00064,N,12000.00028,E,0.184,,230721,,,A,V*15
$GNGGA,000441.00,3000.00064,N,12000.00028,E,1,04,4.98,-1.0,M,,M,,*78
$GNGSA,A,3,,,,,,,,,,,,,6.34,4.98,3.92,1*0D
$GNGSA,A,3,06,09,13,14,,,,,,,,,6.34,4.98,3.92,4*00
$GNGSA,A,3,,,,,,,,,,,,,6.34,4.98,3.92,3*0F
$GPGSV,1,1,00,0*65
$GBGSV,3,1,09,06,36,215,31,09,36,286,32,13,46,201,32,14,07,
164,30,0*7A
$GBGSV,3,2,09,01,37,122,31,02,50,173,31,04,36,125,31,11,19,129,,0*7E
$GBGSV,3,3,09,12,10,059,,0*40
$GAGSV,1,1,00,0*74

$GNRMC,000442.00,A,3000.00063,N,12000.00023,E,0.493,,230721,,,A,V*19
$GNGGA,000442.00,3000.00063,N,12000.00023,E,1,04,4.98,-1.0,M,,M,,*77
$GNGSA,A,3,,,,,,,,,,,,,6.34,4.98,3.92,1*0D
$GNGSA,A,3,06,09,13,14,,,,,,,,,6.34,4.98,3.92,4*00
$GNGSA,A,3,,,,,,,,,,,,,6.34,4.98,3.92,3*0F
$GPGSV,1,1,00,0*65
$GBGSV,3,1,09,06,36,215,31,09,36,286,31,13,46,
201,32,14,07,164,30,0*79
$GBGSV,3,2,09,01,37,122,31,02,50,173,32,04,36,125,31,11,19,129,,0*7D
$GBGSV,3,3,09,12,10,059,,0*40
$GAGSV,1,1,00,0*74

$GNRMC,000443.00,A,3000.00056,N,12000.00027,E,0.508,,230721,,,A,V*19
$GNGGA,000443.00,3000.00056,N,12000.00027,E,1,04,4.98,-1.0,M,,M,,*74
$GNGSA,A,3,,,,,,,,,,,,,6.34,4.98,3.92,1*0D
$GNGSA,A,3,06,09,13,14,,,,,,,,,6.34,4.98,3.92,4*00
$GNGSA,A,3,,,,,,,,,,,,,6.34,4.98,3.92,3*0
F
$GPGSV,1,1,00,0*65
$GBGSV,3,1,09,06,36,215,31,09,36,286,31,13,46,201,32,14,07,164,31,0*78
$GBGSV,3,2,09,01,37,122,31,02,50,173,32,04,36,125,31,11,19,129,,0*7D
$GBGSV,3,3,09,12,10,059,,0*40
$GAGSV,1,1,00,0*74

$GNRMC,000444.00,A,3000.00051,N,12000.00024,E,0.438,,230721,,,A,V*18
$GNGGA,000444.00,3000.00051,N,12000.00024,E,1,04,4.98,-1.0,M,,M,,*77
$GNGSA,A,3,,,,,,,,,,,,,6.34,4.98,3.92,1*0D
$GNGSA,A,3,06,09,13,14,,,,,,,,,6.34,4.98,3.92,4*00
$GNGSA,A,3,,,,,,,,,,,,,6.34,4.98,3.92,3*0F
$GPGSV,1,1,00,0*65
$GBGSV,3,1,09,06,36,215,31,09,36,286,31,13,46,201,32,14,07,164,31,0*78
$GBGSV,3
,2,09,01,37,122,31,02,50,173,32,04,36,125,31,11,19,129,,0*7D
$GBGSV,3,3,09,12,10,059,,0*40
$GAGSV,1,1,00,0*74

$GNRMC,000445.00,A,3000.00024,N,11959.99991,E,0.888,,230721,,,A,V*1D
$GNGGA,000445.00,3000.00024,N,11959.99991,E,1,04,4.98,-1.0,M,,M,,*75
$GNGSA,A,3,,,,,,,,,,,,,6.34,4.98,3.92,1*0D
$GNGSA,A,3,06,09,13,14,,,,,,,,,6.34,4.98,3.92,4*00
$GNGSA,A,3,,,,,,,,,,,,,6.34,4.98,3.92,3*0F
$GPGSV,1,1,00,0*65
$GBGSV,3,1,09,06,36,215,31,09,36,286,31,13,46,201,3
2,14,07,164,30,0*79
$GBGSV,3,2,09,01,37,122,31,02,50,173,32,04,36,125,31,11,19,129,,0*7D
$GBGSV,3,3,09,12,10,059,,0*40
$GAGSV,1,1,00,0*74

$GNRMC,000446.00,A,2959.99994,N,11959.99964,E,0.797,,230721,,,A,V*13
$GNGGA,000446.00,2959.99994,N,11959.99964,E,1,04,4.98,-1.0,M,,M,,*7A
$GNGSA,A,3,,,,,,,,,,,,,6.34,4.98,3.92,1*0D
$GNGSA,A,3,06,09,13,14,,,,,,,,,6.34,4.98,3.92,4*00
$GNGSA,A,3,,,,,,,,,,,,,6.34,4.98,3.92,3*0F
$GPGSV,1,1
,00,0*65
$GBGSV,3,1,09,06,36,215,31,09,36,286,31,13,46,201,32,14,07,164,30,0*79
$GBGSV,3,2,09,01,37,122,31,02,50,173,32,04,36,125,31,11,19,129,,0*7D
$GBGSV,3,3,09,12,10,059,,0*40
$GAGSV,1,1,00,0*74

$GNRMC,000447.00,A,2959.99995,N,11959.99986,E,0.355,,230721,,,A,V*15
$GNGGA,000447.00,2959.99995,N,11959.99986,E,1,04,4.98,-1.0,M,,M,,*76
$GNGSA,A,3,,,,,,,,,,,,,6.34,4.98,3.92,1*0D
$GNGSA,A,3,06,09,13,14,,,,,,,,,6.34,4.98,3.92,4*00
$GNGSA,A,3,,,,,,,,,,,,,6.34,4.98,3.92,3*0F
$GPGSV,1,1,00,0*65
$GBGSV,3,1,09,06,36,215,32,09,36,286
,31,13,46,201,32,14,07,164,30,0*7A
$GBGSV,3,2,09,01,37,122,31,02,50,173,32,04,36,125,31,11,19,129,,0*7D
$GBGSV,3,3,09,12,10,059,,0*40
$GAGSV,1,1,00,0*74

$GNRMC,000448.00,A,2959.99972,N,11959.99966,E,0.797,,230721,,,A,V*17
$GNGGA,000448.00,2959.99972,N,11959.99966,E,1,04,4.98,-1.0,M,,M,,*7E
$GNGSA,A,3,,,,,,,,,,,,,6.34,4.98,3.92,1*0D
$GNGSA,A,3,06,09,13,14,,,,,,,,,6.34,4.98,3.92,4*00
$GNGSA,A,3,,,,,,,,,,,,,6.34,4.98,3.92,3*0F
$GPGSV,1,1,00,0*65
$GBGSV,3,1,09,06,36,215,31,09,36,286,31,13,46,201,32,14,
07,164,30,0*79
$GBGSV,3,2,09,01,37,122,31,02,50,173,31,04,36,125,31,11,19,129,,0*7E
$GBGSV,3,3,09,12,10,059,,0*40
$GAGSV,1,1,00,0*74

$GNRMC,000449.00,A,2959.99942,N,11959.99925,E,1.291,,230721,,,A,V*10
$GNGGA,000449.00,2959.99942,N,11959.99925,E,1,04,4.98,-1.0,M,,M,,*7B
$GNGSA,A,3,,,,,,,,,,,,,6.34,4.98,3.92,1*0D
$GNGSA,A,3,06,09,13,14,,,,,,,,,6.34,4.98,3.92,4*00
$GNGSA,A,3,,,,,,,,,,,,,6.34,4.98,3.92,3*0F
$GPGSV,1,1,00,0*65
$GBGSV,
3,1,09,06,36,215,31,09,36,286,31,13,46,201,31,14,07,164,31,0*7B
$GBGSV,3,2,09,01,37,122,31,02,50,173,31,04,36,125,31,11,19,129,,0*7E
$GBGSV,3,3,09,12,10,059,,0*40
$GAGSV,1,1,00,0*74

$GNRMC,000450.00,A,2959.99922,N,11959.99891,E,0.045,,230721,,,A,V*1A
$GNGGA,000450.00,2959.99922,N,11959.99891,E,1,04,4.98,-1.0,M,,M,,*7B
$GNGSA,A,3,,,,,,,,,,,,,6.34,4.98,3.92,1*0D
$GNGSA,A,3,06,09,13,14,,,,,,,,,6.34,4.98,3.92,4*00
$GNGSA,A,3,,,,,,,,,,,,,6.34,4.98,3.92,3*0F
$GPGSV,1,1,00,0*6
5
$GBGSV,3,1,09,06,36,215,31,09,36,286,31,13,46,201,32,14,07,164,31,0*78
$GBGSV,3,2,09,01,37,122,31,02,50,173,31,04,36,125,31,11,19,129,,0*7E
$GBGSV,3,3,09,12,10,059,,0*40
$GAGSV,1,1,00,0*74

$GNRMC,000451.00,A,2959.99943,N,11959.99914,E,0.403,,230721,,,A,V*16
$GNGGA,000451.00,2959.99943,N,11959.99914,E,1,04,4.98,-1.0,M,,M,,*71
$GNGSA,A,3,,,,,,,,,,,,,6.34,4.98,3.92,1*0D
$GNGSA,A,3,06,09,13,14,,,,,,,,,6.34,4.98,3.92,4*00
$GNGSA,A,3,,,,,,,,,,,,,6.34,4.98,3.92,3*0F
$GPGSV,1,1,00,0*65
$GBGSV,3,1,09,06,36,215,32,09,36,286,31,13,46,20
1,32,14,07,164,31,0*7B
$GBGSV,3,2,09,01,37,122,31,02,50,173,31,04,36,125,31,11,19,129,,0*7E
$GBGSV,3,3,09,12,10,059,,0*40
$GAGSV,1,1,00,0*74

$GNRMC,000452.00,A,2959.99942,N,11959.99928,E,0.647,,230721,,,A,V*19
$GNGGA,000452.00,2959.99942,N,11959.99928,E,1,04,4.98,-1.0,M,,M,,*7C
$GNGSA,A,3,,,,,,,,,,,,,6.34,4.98,3.93,1*0C
$GNGSA,A,3,06,09,13,14,,,,,,,,,6.34,4.98,3.93,4*01
$GNGSA,A,3,,,,,,,,,,,,,6.34,4.98,3.93,3*0E
$GPGSV,1,1,00,0*65
$GBGSV,3,1,09,06,36,215,31,09,36,2
86,31,13,46,201,32,14,07,164,31,0*78
$GBGSV,3,2,09,01,37,122,31,02,50,173,32,04,36,125,31,11,19,129,,0*7D
$GBGSV,3,3,09,12,10,059,,0*40
$GAGSV,1,1,00,0*74

$GNRMC,000453.00,A,2959.99918,N,11959.99917,E,0.517,,230721,,,A,V*1D
$GNGGA,000453.00,2959.99918,N,11959.99917,E,1,04,4.98,-1.0,M,,M,,*7E
$GNGSA,A,3,,,,,,,,,,,,,6.34,4.98,3.93,1*0C
$GNGSA,A,3,06,09,13,14,,,,,,,,,6.34,4.98,3.93,4*01
$GNGSA,A,3,,,,,,,,,,,,,6.34,4.98,3.93,3*0E
$GPGSV,1,1,00,0*65
$GBGSV,3,1,09,06,36,215,32,09,36,286,31,13,46,201,32,14,07,164,31,0*7B

$GBGSV,3,2,09,01,37,122,31,02,50,173,32,04,36,125,31,11,19,129,,0*7D
$GBGSV,3,3,09,12,10,059,,0*40
$GAGSV,1,1,00,0*74

$GNRMC,000454.00,A,2959.99909,N,11959.99922,E,0.347,,230721,,,A,V*1F
$GNGGA,000454.00,2959.99909,N,11959.99922,E,1,04,4.98,-1.0,M,,M,,*7F
$GNGSA,A,3,,,,,,,,,,,,,6.34,4.98,3.93,1*0C
$GNGSA,A,3,06,09,13,14,,,,,,,,,6.34,4.98,3.93,4*01
$GNGSA,A,3,,,,,,,,,,,,,6.34,4.98,3.93,3*0E
$GPGSV,1,1,00,0*65
$GBGSV,3,1,09,06,36,215,3
1,09,36,286,31,13,46,201,32,14,07,164,31,0*78
$GBGSV,3,2,09,01,37,122,31,02,50,173,32,04,36,125,31,11,19,129,,0*7D
$GBGSV,3,3,09,12,10,059,,0*40
$GAGSV,1,1,00,0*74

$GNRMC,000455.00,A,2959.99904,N,11959.99918,E,0.500,,230721,,,A,V*1F
$GNGGA,000455.00,2959.99904,N,11959.99918,E,1,04,4.98,-1.0,M,,M,,*7A
$GNGSA,A,3,,,,,,,,,,,,,6.34,4.98,3.93,1*0C
$GNGSA,A,3,06,09,13,14,,,,,,,,,6.34,4.98,3.93,4*01
$GNGSA,A,3,,,,,,,,,,,,,6.34,4.98,3.93,3*0E
$GPGSV,1,1,00,0*65
$GBGSV,3,1,
09,06,36,215,31,09,36,286,31,13,46,201,32,14,07,164,31,0*78
$GBGSV,3,2,09,01,37,122,31,02,50,173,32,04,36,125,31,11,19,129,,0*7D
$GBGSV,3,3,09,12,10,059,,0*40
$GAGSV,1,1,00,0*74

$GNRMC,000456.00,A,2959.99899,N,11959.99908,E,0.381,,230721,,,A,V*17
$GNGGA,000456.00,2959.99899,N,11959.99908,E,1,04,4.98,-1.0,M,,M,,*7D
$GNGSA,A,3,,,,,,,,,,,,,6.34,4.98,3.93,1*0C
$GNGSA,A,3,06,09,13,14,,,,,,,,,6.34,4.98,3.93,4*01
$GNGSA,A,3,,,,,,,,,,,,,6.34,4.98,3.93,3*0E
$GPGSV,1,1,00,0*65
$GBGSV,3,1,09,06,36,215,31,09,36,286,31,13,46,201
,32,14,07,164,31,0*78
$GBGSV,3,2,09,01,37,122,31,02,50,173,32,04,36,125,31,11,19,129,,0*7D
$GBGSV,3,3,09,12,10,059,,0*40
$GAGSV,1,1,00,0*74

$GNRMC,000457.00,A,2959.99901,N,11959.99909,E,0.634,,230721,,,A,V*1C
$GNGGA,000457.00,2959.99901,N,11959.99909,E,1,04,4.98,-1.0,M,,M,,*7D
$GNGSA,A,3,,,,,,,,,,,,,6.34,4.98,3.93,1*0C
$GNGSA,A,3,06,09,13,14,,,,,,,,,6.34,4.98,3.93,4*01
$GNGSA,A,3,,,,,,,,,,,,,6.34,4.98,3.93,3*0E
$GPGSV,1,1,00,0*65
$GBGSV,3,1,09,06,36,215,31,09,36,286,31,13,46,201,32,14,07,164,31,0*78
$GBGSV,3,2,09,01,37,122,31,02,50,173,32,0
4,36,125,31,11,19,129,,0*7D
$GBGSV,3,3,09,12,10,059,,0*40
$GAGSV,1,1,00,0*74

$GNRMC,000458.00,A,2959.99891,N,11959.99891,E,0.711,,230721,,,A,V*1D
$GNGGA,000458.00,2959.99891,N,11959.99891,E,1,04,4.98,-1.0,M,,M,,*7A
$GNGSA,A,3,,,,,,,,,,,,,6.34,4.98,3.93,1*0C
$GNGSA,A,3,06,09,13,14,,,,,,,,,6.34,4.98,3.93,4*01
$GNGSA,A,3,,,,,,,,,,,,,6.34,4.98,3.93,3*0E
$GPGSV,1,1,00,0*65
$GBGSV,3,1,09,06,36,215,32,09,36,286,32,13,46,201,32,14,07,164,31,0*78
$GBGSV,3,2,09,01,37,122,32,02,50,
173,31,04,36,125,31,11,19,129,,0*7D
$GBGSV,3,3,09,12,10,058,,0*41
$GAGSV,1,1,00,0*74

$GNRMC,000459.00,A,2959.99865,N,11959.99845,E,0.651,,230721,,,A,V*1B
$GNGGA,000459.00,2959.99865,N,11959.99845,E,1,04,4.98,-1.0,M,,M,,*79
$GNGSA,A,3,,,,,,,,,,,,,6.34,4.98,3.93,1*0C
$GNGSA,A,3,06,09,13,14,,,,,,,,,6.34,4.98,3.93,4*01
$GNGSA,
A,3,,,,,,,,,,,,,6.34,4.98,3.93,3*0E
$GPGSV,1,1,00,0*65
$GBGSV,3,1,09,06,36,215,31,09,36,286,31,13,46,201,32,14,07,164,31,0*78
$GBGSV,3,2,09,01,37,122,31,02,50,173,31,04,36,125,31,11,19,129,,0*7E
$GBGSV,3,3,09,12,10,058,,0*41
$GAGSV,1,1,00,0*74

$GNRMC,000500.00,A,2959.99852,N,11959.99820,E,1.151,,230721,,,A,V*17
$GNGGA,000500.00,2959.99852,N,11959.99820,E,1,04,4.98,-1.0,M,,M,,*73
$GNGSA,A,3,,,,,,,,,,,,,6.34,4.98,3.93,1*0C
$GNGSA,A,3,06,09,13,14,,,,,,,,,6.34,4.98,3.93,4*01
$GNGSA,A,3,,,,,,,,,,,,,6.34,4.98,3.93,3*0E
$GPGSV,1,1,00,0*65
$GBGSV,3,1,09,06,36,215,31,09,36,285,32,13,46,201,31,14,07,164,31,0*7B
$GBGSV,3,2,09,01,37,122,31,02,50,17
3,31,04,36,125,31,11,19,129,,0*7E
$GBGSV,3,3,09,12,10,058,,0*41
$GAGSV,1,1,00,0*74

$GNRMC,000501.00,A,2959.99845,N,11959.99816,E,1.108,,230721,,,A,V*19
$GNGGA,000501.00,2959.99845,N,11959.99816,E,1,04,4.98,-1.0,M,,M,,*71
$GNGSA,A,3,,,,,,,,,,,,,6.34,4.98,3.93,1*0C
$GNGSA,A,3,06,09,13,14,,,,,,,,,6.34,4.98,3.93,4*01
$GNGSA,A,3,,,,,,,,,,,,,6.34,4.98,3.93,3*0E
$GPGSV,1,1,00,0*65
$GBGSV,3,1,09,06,36,215,31,09,36,285,31,13,46,201,32,14,07,164,30,0*7A
$GBGSV,3,2,09,01,37,122,31,02,50,17
3,31,04,36,125,31,11,19,129,,0*7E
$GBGSV,3,3,09,12,10,058,,0*41
$GAGSV,1,1,00,0*74

$GNRMC,000502.00,A,2959.99825,N,11959.99782,E,1.172,,230721,,,A,V*13
$GNGGA,000502.00,2959.99825,N,11959.99782,E,1,04,4.98,-1.0,M,,M,,*76
$GNGSA,A,3,,,,,,,,,,,,,6.34,4.98,3.93,1*0C
$GNGSA,A,3,06,09,13,14,,,,,,,,,6.34,4.98,3.93,4*01
$GNGSA,A,3,,,,,,,,,,,,,6.34,4.98,3.93,3*0E
$GPGSV,1,1,00,0*65
$GBGSV,3,1,09,06,36,215,31,09,36,285,31,13,46,201,32,14,07,164,30,0*7A
$GBGSV,3,2,09,01,37,122,3
1,02,50,173,31,04,36,125,31,11,19,129,,0*7E
$GBGSV,3,3,09,12,10,058,,0*41
$GAGSV,1,1,00,0*74

$GNRMC,000503.00,A,2959.99823,N,11959.99782,E,0.183,,230721,,,A,V*1B
$GNGGA,000503.00,2959.99823,N,11959.99782,E,1,04,4.98,-1.0,M,,M,,*71
$GNGSA,A,3,,,,,,,,,,,,,6.34,4.98,3.93,1*0C
$GNGSA,A,3,06,09,13,14,,,,,,,,,6.34,4.98,3.93,4*01
$GNGSA,A,3,,,,,,,,,,,,,6.34,4.98,3.93,3*0E
$GPGSV,1,1,00,0*65
$GBGSV,3,1,09,06,36,215,31,09,36,285,31,13,46,201,32,14,07,164,31,0*7B

$GBGSV,3,2,09,01,37,122,31,02,50,173,31,04,36,125,31,11,19,129,,0*7E
$GBGSV,3,3,09,12,10,058,,0*41
$GAGSV,1,1,00,0*74

$GNRMC,000504.00,A,2959.99829,N,11959.99781,E,0.424,,230721,,,A,V*1D
$GNGGA,000504.00,2959.99829,N,11959.99781,E,1,04,4.98,-1.0,M,,M,,*7F
$GNGSA,A,3,,,,,,,,,,,,,6.34,4.98,3.93,1*0C
$GNGSA,A,3,06,09,13,14,,,,,,,,,6.34,4.98,3.93,4*01
$GNGSA,A,3,,,,,,,,,,,,,6.34,4.
98,3.93,3*0E
$GPGSV,1,1,00,0*65
$GBGSV,3,1,09,06,36,215,31,09,36,285,31,13,46,201,32,14,07,164,30,0*7A
$GBGSV,3,2,09,01,37,122,31,02,50,173,31,04,36,125,31,11,19,129,,0*7E
$GBGSV,3,3,09,12,10,058,,0*41
$GAGSV,1,1,00,0*74

$GNRMC,000505.00,A,2959.99840,N,11959.99790,E,0.190,,230721,,,A,V*19
$GNGGA,000505.00,2959.99840,N,11959.99790,E,1,04,4.98,-1.0,M,,M,,*71
$GNGSA,A,3,,,,,,,,,,,,,6.34,4.98,3.93,1*0C
$GNGSA,A,3,06,09,13,14,,,,,,,,,6.34,4.98,3.93,4*01
$GNGSA,A,3,,,,,,,,,,,
,,6.34,4.98,3.93,3*0E
$GPGSV,1,1,00,0*65
$GBGSV,3,1,09,06,36,215,31,09,36,285,31,13,46,201,32,14,07,164,31,0*7B
$GBGSV,3,2,09,01,37,122,31,02,50,173,31,04,36,125,31,11,19,129,,0*7E
$GBGSV,3,3,09,12,10,058,,0*41
$GAGSV,1,1,00,0*74

$GNRMC,000506.00,A,2959.99842,N,11959.99797,E,0.474,,230721,,,A,V*10
$GNGGA,000506.00,2959.99842,N,11959.99797,E,1,04,4.98,-1.0,M,,M,,*77
$GNGSA,A,3,,,,,,,,,,,,,6.34,4.98,3.93,1*0C
$GNGSA,A,3,06,09,13,14,,,,,,,,,6.34,4.98,3.93,4*01
$GNGSA,A,3,,,,,,,,,,,,,6.34,4.98,3.93,3*0E
$GPGSV,1,1,00,0*65
$GBGSV,3,1,09,06,36,215,31,09,36,285,31,13,46,201,31,14,07,164
,30,0*79
$GBGSV,3,2,09,01,37,122,31,02,50,173,31,04,36,125,31,11,19,129,,0*7E
$GBGSV,3,3,09,12,10,058,,0*41
$GAGSV,1,1,00,0*74

$GNRMC,000507.00,A,2959.99842,N,11959.99809,E,1.051,,230721,,,A,V*1B
$GNGGA,000507.00,2959.99842,N,11959.99809,E,1,04,4.98,-1.0,M,,M,,*7E
$GNGSA,A,3,,,,,,,,,,,,,6.34,4.98,3.93,1*0C
$GNGSA,A,3,06,09,13,14,,,,,,,,,6.34,4.98,3.93,4*01
$GNGSA,A,3,,,,,,,,,,,,,6.34,4.98,3.93,3
*0E
$GPGSV,1,1,00,0*65
$GBGSV,3,1,09,06,36,215,31,09,36,285,31,13,46,201,32,14,07,164,31,0*7B
$GBGSV,3,2,09,01,37,122,31,02,50,173,31,04,36,125,31,11,19,129,,0*7E
$GBGSV,3,3,09,12,10,058,,0*41
$GAGSV,1,1,00,0*74

$GNRMC,000508.00,A,2959.99838,N,11959.99816,E,0.268,,230721,,,A,V*1E
$GNGGA,000508.00,2959.99838,N,11959.99816,E,1,04,4.98,-1.0,M,,M,,*72
$GNGSA,A,3,,,,,,,,,,,,,6.35,4.98,3.93,1*0D
$GNGSA,A,3,06,09,13,14,,,,,,,,,6.35,4.98,3.93,4*00
$GNGSA,A,3,,,,,,,,,,,,,6.3
5,4.98,3.93,3*0F
$GPGSV,1,1,00,0*65
$GBGSV,3,1,09,06,36,215,31,09,36,285,31,13,46,201,32,14,07,164,31,0*7B
$GBGSV,3,2,09,01,37,122,31,02,50,173,31,04,36,125,31,11,19,129,,0*7E
$GBGSV,3,3,09,12,10,058,,0*41
$GAGSV,1,1,00,0*74

$GNRMC,000509.00,A,2959.99817,N,11959.99796,E,0.964,,230721,,,A,V*12
$GNGGA,000509.00,2959.99817,N,11959.99796,E,1,04,4.98,-1.0,M,,M,,*79
$GNGSA,A,3,,,,,,,,,,,,,6.35,4.98,3.93,1*0D
$GNGSA,A,3,06,09,13,14,,,,,,,,,6.35,4.98,3.93,4*00
$GNGSA,A,3,,,,,,,,,,,,,6.35,4.98,3.93,3*0F
$GPGSV,1,1,00,0*65
$GBGSV,3,1,09,06,36,215,31,09,36,285,31,13,4
6,201,32,14,07,164,30,0*7A
$GBGSV,3,2,09,01,37,122,31,02,50,173,31,04,36,125,31,11,19,129,,0*7E
$GBGSV,3,3,09,12,10,058,,0*41
$GAGSV,1,1,00,0*74

$GNRMC,000510.00,A,2959.99843,N,11959.99821,E,0.506,,230721,,,A,V*10
$GNGGA,000510.00,2959.99843,N,11959.99821,E,1,04,4.98,-1.0,M,,M,,*73
$GNGSA,A,3,,,,,,,,,,,,,6.35,4.98,3.93,1*0D
$GNGSA,A,3,06,09,13,14,,,,,,,,,6.35,4.98,3.93,4*00
$GNGSA,A,3,,,,,,,,,,,,,6.35,4.98,3.93,3*0F
$GPGSV,1,1,00,0*65
$GBGSV,3,1,09,06,36,215,31,09,36,285,31,13,46,201,32,14,07,164,31,0*7B
$GBGSV,3,2,09,01,37,122,31,
02,50,173,31,04,36,125,31,11,19,129,,0*7E
$GBGSV,3,3,09,12,10,058,,0*41
$GAGSV,1,1,00,0*74

$GNRMC,000511.00,A,2959.99855,N,11959.99821,E,0.521,,230721,,,A,V*13
$GNGGA,000511.00,2959.99855,N,11959.99821,E,1,04,4.98,-1.0,M,,M,,*75
$GNGSA,A,3,,,,,,,,,,,,,6.35,4.98,3.93,1*0D
$GNGSA,A,3,06,09,13,14,,,,,,,,,6.35,4.98,3.93,4*00
$GNGSA,A,3,,,,,,,,,,,,,6.35,4.98,3.93,3*0F
$GPGSV,1,1,00,0*65
$GBGSV,3,1,09,06,36,215,31,09,36,285,31,13,46,201,32,14,07,164,31,0*7
B
$GBGSV,3,2,09,01,37,122,31,02,50,173,32,04,36,125,31,11,19,129,,0*7D
$GBGSV,3,3,09,12,10,058,,0*41
$GAGSV,1,1,00,0*74

$GNRMC,000512.00,A,2959.99862,N,11959.99837,E,0.763,,230721,,,A,V*17
$GNGGA,000512.00,2959.99862,N,11959.99837,E,1,04,4.98,-1.0,M,,M,,*75
$GNGSA,A,3,,,,,,,,,,,,,6.35,4.98,3.93,1*0D
$GNGSA,A,3,06,09,13,14,,,,,,,,,6.35,4.98,3.93,4*00
$GNGSA,A,3,,,,,,,,,,,,,6.35,4.98,3.93,3*0F
$GPGSV,1,1,00,0*65
$GBGSV,3,1,09,06,36,215,31,09,36,285,31,13,46,201,32,14,07,164,31,0*7B
$GBGSV,3,2,09,01,37,12
2,31,02,50,173,31,04,36,125,31,11,19,129,,0*7E
$GBGSV,3,3,09,12,10,058,,0*41
$GAGSV,1,1,00,0*74

$GNRMC,000513.00,A,2959.99856,N,11959.99843,E,0.629,,230721,,,A,V*1D
$GNGGA,000513.00,2959.99856,N,11959.99843,E,1,04,4.98,-1.0,M,,M,,*70
$GNGSA,A,3,,,,,,,,,,,,,6.35,4.98,3.93,1*0D
$GNGSA,A,3,06,09,13,14,,,,,,,,,6.35,4.98,3.93,4*00
$GNGSA,A,3,,,,,,,,,,,,,6.35,4.98,3.93,3*0F
$GPGSV,1,1,00,0*65
$GBGSV,3,1,09,06,36,215,31,09,36,285,31,13,46,201,32,14,07,164
,31,0*7B
$GBGSV,3,2,09,01,37,122,31,02,50,173,31,04,36,125,31,11,19,129,,0*7E
$GBGSV,3,3,09,12,10,058,,0*41
$GAGSV,1,1,00,0*74

$GNRMC,000514.00,A,2959.99855,N,11959.99852,E,0.363,,230721,,,A,V*12
$GNGGA,000514.00,2959.99855,N,11959.99852,E,1,04,4.98,-1.0,M,,M,,*74
$GNGSA,A,3,,,,,,,,,,,,,6.35,4.98,3.93,1*0D
$GNGSA,A,3,06,09,13,14,,,,,,,,,6.35,4.98,3.93,4*00
$GNGSA,A,3,,,,,,,,,,,,,6.35,4.98,3.93,3*0F
$GPGSV,1,1,00,0*65
$GBGSV,3,1,09,06,36,215,31,09,36,285,31,13,46,201,32,14,07,164,30,0*7A
$GBGSV,3,2,09,01,37,122,31,02,50,17
3,31,04,36,125,31,11,19,129,,0*7E
$GBGSV,3,3,09,12,10,058,,0*41
$GAGSV,1,1,00,0*74

$GNRMC,000515.00,A,2959.99850,N,11959.99845,E,0.422,,230721,,,A,V*12
$GNGGA,000515.00,2959.99850,N,11959.99845,E,1,04,4.98,-1.0,M,,M,,*76
$GNGSA,A,3,,,,,,,,,,,,,6.35,4.98,3.93,1*0D
$GNGSA,A,3,06,09,13,14,,,,,,,,,6.35,4.98,3.93,4*00
$GNGSA,A,3,,,,,,,,,,,,,6.35,4.98,3.93,3*0F
$GPGSV,1,1,00,0*65
$GBGSV,3,1,09
,06,36,215,31,09,36,285,31,13,46,201,32,14,07,164,30,0*7A
$GBGSV,3,2,09,01,37,122,31,02,50,173,31,04,36,125,31,11,19,129,,0*7E
$GBGSV,3,3,09,12,10,058,,0*41
$GAGSV,1,1,00,0*74

$GNRMC,000516.00,A,2959.99865,N,11959.99856,E,0.719,,230721,,,A,V*1E
$GNGGA,000516.00,2959.99865,N,11959.99856,E,1,04,4.98,-1.0,M,,M,,*71
$GNGSA,A,3,,,,,,,,,,,,,6.35,4.98,3.93,1*0D
$GNGSA,A,3,06,09,13,14,,,,,,,,,6.35,4.98,3.93,4*00
$GNGSA,A,3,,,,,,,,,,,,,6.35,4.98,3.93,3*0F
$GPGSV,1,1,00,0*65
$GBGSV,3,1,09,06,36,215,31,09,36,285,31,13,46,201,32,14,07,164,30,0*7A
$GBGSV,3,2,09,01,37,122,31,02,50,173,31,04,36,
125,31,11,19,129,,0*7E
$GBGSV,3,3,09,12,10,058,,0*41
$GAGSV,1,1,00,0*74

$GNRMC,000517.00,A,2959.99874,N,11959.99875,E,0.297,,230721,,,A,V*1D
$GNGGA,000517.00,2959.99874,N,11959.99875,E,1,04,4.98,-1.0,M,,M,,*71
$GNGSA,A,3,,,,,,,,,,,,,6.35,4.98,3.93,1*0D
$GNGSA,A,3,06,09,13,14,,,,,,,,,6.35,4.98,3.93,4*00
$GNGSA,A,3,,,,,,,,,,,,,6.35,4.98,3.93,3*0F
$GPGSV,1,1,00,0*65
$GBGSV,3,1,09,06,36,215,31,09,36,285,31,13,46,20
1,32,14,07,164,30,0*7A
$GBGSV,3,2,09,01,37,122,31,02,50,173,32,04,36,125,31,11,19,129,,0*7D
$GBGSV,3,3,09,12,10,058,,0*41
$GAGSV,1,1,00,0*74

$GNRMC,000518.00,A,2959.99890,N,11959.99899,E,0.563,,230721,,,A,V*16
$GNGGA,000518.00,2959.99890,N,11959.99899,E,1,04,4.98,-1.0,M,,M,,*76
$GNGSA,A,3,,,,,,,,,,,,,6.35,4.98,3.93,1*0D
$GNGSA,A,3,06,09,13,14,,,,,,,,,6.35,4.98,3.93,4*00
$GNGSA,A,3,,,,,,,,,,,,,6.35,4.98,3.93,3*0F
$GPGSV,1,1,00,0*65
$GBGSV,3,1,09,06,36,215,31,09,36,285,31,13
,46,201,32,14,07,164,31,0*7B
$GBGSV,3,2,09,01,37,122,31,02,50,173,32,04,36,125,31,11,19,129,,0*7D
$GBGSV,3,3,09,12,10,058,,0*41
$GAGSV,1,1,00,0*74

$GNRMC,000519.00,A,2959.99909,N,11959.99929,E,0.526,,230721,,,A,V*1D
$GNGGA,000519.00,2959.99909,N,11959.99929,E,1,04,4.98,-1.0,M,,M,,*7C
$GNGSA,A,3,,,,,,,,,,,,,6.35,4.98,3.93,1*0D
$GNGSA,A,3,06,09,13,14,,,,,,,,,6.35,4.98,3.93,4*00
$GNGSA,A,3,,,,,,,,,,,,,6.35,4.98,3.93,3*0F
$GPGSV,1,1,00,0*65

$GBGSV,3,1,09,06,36,215,31,09,36,285,31,13,46,201,32,14,07,164,31,0*7B
$GBGSV,3,2,09,01,37,122,31,02,50,173,31,04,36,125,31,11,19,129,,0*7E
$GBGSV,3,3,09,12,10,058,,0*41
$GAGSV,1,1,00,0*74

$GNRMC,000520.00,A,2959.99917,N,11959.99952,E,1.165,,230721,,,A,V*16
$GNGGA,000520.00,2959.99917,N,11959.99952,E,1,04,4.98,-1.0,M,,M,,*75
$GNGSA,A,3,,,,,,,,,,,,,6.35,4.98,3.93,1*0D
$GNGSA,A,3,06,09,13,14,,,,,,,,,6.35,4.98,3.93,4*00
$GNGSA,A,3,,,,,,,,,,,,,6.35,4.98,3.93,3*0F
$GPGSV,1,1,00,0*65
$GBGSV,3,1,09,06,36,215,32,09,36,285,31,13,46,201,32,14,07,164,31,0*78
$GBGSV,3,2,09,01,37,122,31,0
2,50,173,31,04,36,125,31,11,19,129,,0*7E
$GBGSV,3,3,09,12,10,058,,0*41
$GAGSV,1,1,00,0*74

$GNRMC,000521.00,A,2959.99924,N,11959.99957,E,0.303,,230721,,,A,V*11
$GNGGA,000521.00,2959.99924,N,11959.99957,E,1,04,4.98,-1.0,M,,M,,*71
$GNGSA,A,3,,,,,,,,,,,,,6.35,4.98,3.93,1*0D
$GNGSA,A,3,06,09,13,14,,,,,,,,,6.35,4.98,3.93,4*00
$GNGSA,A,3,,,,,,,,,,,,
,6.35,4.98,3.93,3*0F
$GPGSV,1,1,00,0*65
$GBGSV,3,1,09,06,36,215,31,09,36,285,31,13,46,201,32,14,07,164,31,0*7B
$GBGSV,3,2,09,01,37,122,31,02,50,173,31,04,36,125,31,11,19,129,,0*7E
$GBGSV,3,3,09,12,10,058,,0*41
$GAGSV,1,1,00,0*74

$GNRMC,000522.00,A,2959.99930,N,11959.99983,E,0.752,,230721,,,A,V*1E
$GNGGA,000522.00,2959.99930,N,11959.99983,E,1,04,4.98,-1.0,M,,M,,*7E
$GNGSA,A,3,,,,,,,,,,,,,6.35,4.98,3.94,1*0A
$GNGSA,A,3,06,09,13,14,,,,,,,,,6.35,4.98,3.94,4*07
$GNGSA,A,3,,,,,,,,,,,,,6.35,4.98,3.94,3*08
$GPGSV,1,1,00,0*65
$GBGSV,3,1,09,06,36,215,31,09,36,285,
31,13,46,201,32,14,07,164,31,0*7B
$GBGSV,3,2,09,01,37,122,31,02,50,173,32,04,36,125,31,11,19,129,,0*7D
$GBGSV,3,3,09,12,10,058,,0*41
$GAGSV,1,1,00,0*74

$GNRMC,000523.00,A,2959.99934,N,12000.00009,E,0.564,,230721,,,A,V*11
$GNGGA,000523.00,2959.99934,N,12000.00009,E,1,04,4.98,-1.0,M,,M,,*76
$GNGSA,A,3,,,,,,,,,,,,,6.35,4.98,3.94,1*0A
$GNGSA,A,3,06,09,13,14,,,,,,,,,6.35,4.98,3.94,4*07
$GNGSA,A,3,,,,,,,,,,,,,6.35,4.98,3.94,3*08

$GPGSV,1,1,00,0*65
$GBGSV,3,1,09,06,36,215,31,09,36,285,31,13,46,201,32,14,07,164,30,0*7A
$GBGSV,3,2,09,01,37,122,31,02,50,173,32,04,36,125,31,11,19,129,,0*7D
$GBGSV,3,3,09,12,10,058,,0*41
$GAGSV,1,1,00,0*74

$GNRMC,000524.00,A,2959.99947,N,12000.00018,E,1.430,,230721,,,A,V*13
$GNGGA,000524.00,2959.99947,N,12000.00018,E,1,04,4.98,-1.0,M,,M,,*75
$GNGSA,A,3,,,,,,,,,,,,,6.35,4.98,3.94,1*0A
$GNGSA,A,3,06,09,13,14,,,,,,,,,6.35,4.98,3.94,4*07
$GNGSA,A,3,,,,,,,,,,,,,6.35,4.98,3.94,3*08
$GPGSV,1,1,00,0*65
$GBGSV,3,1,09,06,36,215,31,09,36,285,31,13,46,201,32,14,07,164,30,0*7A
$GBGSV,3,2,09,01,37,122,31,02,50
,173,32,04,36,125,31,11,19,129,,0*7D
$GBGSV,3,3,09,12,10,058,,0*41
$GAGSV,1,1,00,0*74

$GNRMC,000525.00,A,2959.99945,N,11959.99994,E,0.346,,230721,,,A,V*1C
$GNGGA,000525.00,2959.99945,N,11959.99994,E,1,04,4.98,-1.0,M,,M,,*7D
$GNGSA,A,3,,,,,,,,,,,,,6.35,4.98,3.94,1*0A
$GNGSA,A,3,06,09,13,14,,,,,,,,,6.35,4.98,3.94,4*07
$GNGSA,A,3,,,,,,,,,,,,,6.35,4.98,3.94,3*08
$GPGSV,1,1,00,0*65
$GBGSV,3,1,09,06,36,215,31,09,36,285,31,13,46,201,32,14,07,164,30,0*7A
$GBGSV,3,2,09,01,37,122,31,02,50,
173,32,04,36,125,31,11,19,129,,0*7D
$GBGSV,3,3,09,12,10,058,,0*41
$GAGSV,1,1,00,0*74

$GNRMC,000526.00,A,2959.99932,N,11959.99971,E,0.580,,230721,,,A,V*18
$GNGGA,000526.00,2959.99932,N,11959.99971,E,1,04,4.98,-1.0,M,,M,,*75
$GNGSA,A,3,,,,,,,,,,,,,6.35,4.98,3.94,1*0A
$GNGSA,A,3,06,09,13,14,,,,,,,,,6.35,4.98,3.94,4*07
$GNGSA,A,3,,,,,,,,,,,,,6.35,4.98,3.94,3*08
$
GPGSV,1,1,00,0*65
$GBGSV,3,1,09,06,36,215,31,09,36,285,31,13,46,201,32,14,07,164,31,0*7B
$GBGSV,3,2,09,01,37,122,31,02,50,173,31,04,36,125,31,11,19,129,,0*7E
$GBGSV,3,3,09,12,10,058,,0*41
$GAGSV,1,1,00,0*74

$GNRMC,000527.00,A,2959.99930,N,11959.99956,E,0.510,,230721,,,A,V*17
$GNGGA,000527.00,2959.99930,N,11959.99956,E,1,04,4.98,-1.0,M,,M,,*73
$GNGSA,A,3,,,,,,,,,,,,,6.35,4.98,3.94,1*0A
$GNGSA,A,3,06,09,13,14,,,,,,,,,6.35,4.98,3.94,4*07
$GNGSA,A,3,,,,,,,,,,,,
,6.35,4.98,3.94,3*08
$GPGSV,1,1,00,0*65
$GBGSV,3,1,09,06,36,215,31,09,36,285,32,13,46,201,32,14,07,164,30,0*79
$GBGSV,3,2,09,01,37,122,31,02,50,173,31,04,36,125,31,11,19,129,,0*7E
$GBGSV,3,3,09,12,10,058,,0*41
$GAGSV,1,1,00,0*74

$GNRMC,000528.00,A,2959.99955,N,11959.99985,E,0.927,,230721,,,A,V*1D
$GNGGA,000528.00,2959.99955,N,11959.99985,E,1,04,4.98,-1.0,M,,M,,*71
$GNGSA,A,3,,,,,,,,,,,,,6.35,4.98,3.94,1*0A
$GNGSA,A,3,06,09,13,14,,,,,,,,,6.35,4.98,3.94,4*07
$GNGSA,A,3,,,,,,,,,,,,,6.35,4.98,3.94,3*08
$GPGSV,1,1,00,0*65
$GBGSV,3,1,09,06,36,215,31,09,36,285,31,13,46,201,32,14,07,164,31,0*7B
$GBGSV,3,2,09,01,37,12
2,31,02,50,173,31,04,36,125,31,11,19,129,,0*7E
$GBGSV,3,3,09,12,10,058,,0*41
$GAGSV,1,1,00,0*74

$GNRMC,000529.00,A,2959.99961,N,11959.99997,E,0.721,,230721,,,A,V*10
$GNGGA,000529.00,2959.99961,N,11959.99997,E,1,04,4.98,-1.0,M,,M,,*74
$GNGSA,A,3,,,,,,,,,,,,,6.35,4.98,3.94,1*0A
$GNGSA,A,3,06,09,13,14,,,,,,,,,6.35,4.98,3.94,4*07
$GNGSA,A,3,,,,,,,,,,,,,6.35,4.98,3.94,3*08
$GPGSV,1,1,00,0*65
$GBGSV,3,1,09,06,36,215,31,09,36,285,31,13,
46,201,32,14,07,164,31,0*7B
$GBGSV,3,2,09,01,37,122,31,02,50,173,31,04,36,125,31,11,19,129,,0*7E
$GBGSV,3,3,09,12,10,058,,0*41
$GAGSV,1,1,00,0*74

$GNRMC,000530.00,A,2959.99954,N,11959.99984,E,0.664,,230721,,,A,V*1C
$GNGGA,000530.00,2959.99954,N,11959.99984,E,1,04,4.99,-1.0,M,,M,,*79
$GNGSA,A,3,,,,,,,,,,,,,6.35,4.99,3.94,1*0B
$GNGSA,A,3,06,09,13,14,,,,,,,,,6.35,4.99,3.94,4*06
$GNGSA,A,3,,,,,,,,,,,,,6.35,4.99,3.94,3*09
$GPGSV,1,1,00,
0*65
$GBGSV,3,1,09,06,36,215,31,09,36,285,31,13,46,201,32,14,07,164,31,0*7B
$GBGSV,3,2,09,01,37,122,31,02,50,173,31,04,36,125,31,11,19,129,,0*7E
$GBGSV,3,3,09,12,10,058,,0*41
$GAGSV,1,1,00,0*74

$GNRMC,000531.00,A,2959.99956,N,11959.99993,E,0.297,,230721,,,A,V*11
$GNGGA,000531.00,2959.99956,N,11959.99993,E,1,04,4.99,-1.0,M,,M,,*7C
$GNGSA,A,3,,,,,,,,,,,,,6.35,4.99,3.94,1*0B
$GNGSA,A,3,06,09,13,14,,,,,,,,,6.35,4.99,3.94,4*06
$GNGSA,A,3,,,,,,,,,,,,,6.35,4.99,3.94,3*09
$GPGSV,1,1,00,0*65
$GBGSV,3,1,09
,06,36,215,31,09,36,285,31,13,46,201,32,14,07,164,30,0*7A
$GBGSV,3,2,09,01,37,122,31,02,50,173,31,04,36,125,31,11,19,129,,0*7E
$GBGSV,3,3,09,12,10,058,,0*41
$GAGSV,1,1,00,0*74

$GNRMC,000532.00,A,2959.99943,N,11959.99985,E,0.343,,230721,,,A,V*19
$GNGGA,000532.00,2959.99943,N,11959.99985,E,1,04,4.99,-1.0,M,,M,,*7C
$GNGSA,A,3,,,,,,,,,,,,,6.35,4.99,3.94,1*0B
$GNGSA,A,3,06,09,13,14,,,,,,,,,6.35,4.99,3.94,4*06
$GNGSA,A,3,,,,,,,,,,,,,6.35,4.99,3.94,3*09
$GPGSV,1,1,00,0*
65
$GBGSV,3,1,09,06,36,215,31,09,36,285,32,13,46,201,32,14,07,164,31,0*78
$GBGSV,3,2,09,01,37,122,31,02,50,173,31,04,36,125,31,11,19,129,,0*7E
$GBGSV,3,3,09,12,10,058,,0*41
$GAGSV,1,1,00,0*74

$GNRMC,000533.00,A,2959.99948,N,11959.99997,E,0.886,,230721,,,A,V*12
$GNGGA,000533.00,2959.99948,N,11959.99997,E,1,04,4.99,-1.0,M,,M,,*75
$GNGSA,A,3,,,,,,,,,,,,,6.35,4.99,3.94,1*0B
$GNGSA,A,3,06,09,13,14,,,,,,,,,6.35,4.99,3.94,4*06
$GNGSA,A,3,,,,,,,,,,,,,6.35,4.99,3.94,3*09
$GPGSV,1,1,00,0*65
$GBGSV,3,1,09
,06,36,215,31,09,36,285,31,13,46,201,32,14,07,164,31,0*7B
$GBGSV,3,2,09,01,37,122,31,02,50,173,31,04,36,125,31,11,19,129,,0*7E
$GBGSV,3,3,09,12,10,058,,0*41
$GAGSV,1,1,00,0*74

$GNRMC,000534.00,A,2959.99957,N,11959.99993,E,0.456,,230721,,,A,V*1E
$GNGGA,000534.00,2959.99957,N,11959.99993,E,1,04,4.99,-1.0,M,,M,,*78
$GNGSA,A,3,,,,,,,,,,,,,6.35,4.99,3.94,1*0B
$GNGSA,A,3,06,09,13,14,,,,,,,,,6.35,4.99,3.94,4*06
$GNGSA,A,3,,,,,,,,,,,,,6.35,4.99,3.94,3*09
$GPGSV,1,1,00,0*65
$GBGSV,3,1,09,06,36,215,31,09,36,285,31,13,46,201,32,14,07,164,30,0*7A
$GBGS
V,3,2,09,01,37,122,31,02,50,173,31,04,36,125,31,11,19,129,,0*7E
$GBGSV,3,3,09,12,10,058,,0*41
$GAGSV,1,1,00,0*74

$GNRMC,000535.00,A,2959.99947,N,11959.99967,E,0.943,,230721,,,A,V*1C
$GNGGA,000535.00,2959.99947,N,11959.99967,E,1,04,4.99,-1.0,M,,M,,*73
$GNGSA,A,3,,,,,,,,,,,,,6.35,4.99,3.94,1*0B
$GNGSA,A,3,06,09,13,14,,,,,,,,,6.35,4.99,3.94,4*06
$GNGSA,A,3,,,,,,
,,,,,,,6.35,4.99,3.94,3*09
$GPGSV,1,1,00,0*65
$GBGSV,3,1,09,06,36,215,31,09,36,285,31,13,46,201,32,14,07,164,31,0*7B
$GBGSV,3,2,09,01,37,122,31,02,50,173,32,04,36,125,31,11,19,129,,0*7D
$GBGSV,3,3,09,12,10,058,,0*41
$GAGSV,1,1,00,0*74

$GNRMC,000536.00,A,2959.99944,N,11959.99957,E,0.492,,230721,,,A,V*1E
$GNGGA,000536.00,2959.99944,N,11959.99957,E,1,04,4.99,-1.0,M,,M,,*70
$GNGSA,A,3,,,,,,,,,,,,,6.35,4.99,3.94,1*0B
$GNGSA,A,3,06,09,13,14,,,,,,,,,6.35,4.99,3.94,4*06
$GNGSA,A,3,,,,,,,,,,,,,6.35,4.99,3.94,3*09
$GPGSV,1,1,00,0*65
$GBGSV,3,1,09,
06,36,215,31,09,36,285,31,13,46,201,32,14,07,164,31,0*7B
$GBGSV,3,2,09,01,37,122,31,02,50,173,31,04,36,125,31,11,19,129,,0*7E
$GBGSV,3,3,09,12,10,058,,0*41
$GAGSV,1,1,00,0*74

$GNRMC,000537.00,A,2959.99924,N,11959.99948,E,0.701,,230721,,,A,V*1E
$GNGGA,000537.00,2959.99924,N,11959.99948,E,1,04,4.99,-1.0,M,,M,,*79
$GNGSA,A,3,,,,,,,,,,,,,6.35,4.99,3.94,1*0B
$GNGSA,A,3,06,09,13,14,,,,,,,,,6.35,4.99,3.94,4*06
$GNGSA,A,3,,,,,,,,,,,,,6.35,4.99,3.94,3*09
$GPGSV,1,1,00,0*65
$GBGSV,3,1,09,06,36,215,31,09,36,285,31,13,46,201,32,14,07,164,31,0*7B
$GBGSV,3,2,09
,01,37,122,31,02,50,173,31,04,36,125,31,11,19,129,,0*7E
$GBGSV,3,3,09,12,10,058,,0*41
$GAGSV,1,1,00,0*74

$GNRMC,000538.00,A,2959.99933,N,11959.99968,E,0.488,,230721,,,A,V*17
$GNGGA,000538.00,2959.99933,N,11959.99968,E,1,04,4.99,-1.0,M,,M,,*72
$GNGSA,A,3,,,,,,,,,,,,,6.36,4.99,3.94,1*08
$GNGSA,A,3,06,09,13,14,,,,,,,,,6.36,4.99,3.94,4*05
$GNGSA,A,3,,,,,,,,,,,,,6.36,4.99,3.94,3*0A
$GPGSV,1,1,00,0*65
$GBGSV,3,1,09,06,36,215,31,09,36,285,31,13,46,201,32,14,07,164,31,0*7B
$GBGSV,3,2,09,01,37,122,31,02,50,173,32
,04,36,125,31,11,19,129,,0*7D
$GBGSV,3,3,09,12,10,058,,0*41
$GAGSV,1,1,00,0*74

$GNRMC,000539.00,A,2959.99935,N,11959.99961,E,0.832,,230721,,,A,V*14
$GNGGA,000539.00,2959.99935,N,11959.99961,E,1,04,4.99,-1.0,M,,M,,*7C
$GNGSA,A,3,,,,,,,,,,,,,6.36,4.99,3.94,1*08
$GNGSA,A,3,06,09,13,14,,,,,,,,,6.36,4.99,3.94,4*05
$GNGSA,A,3,,,,,,,,,,,,,6.36,4.99,3.94,3*0A
$GPGSV,1,1,00,0*65
$GBGSV,3,1,09,06,36,215,31,09,36,285,31,13,46,201,32,14,07,164,31,0*7B
$GBGSV,3,2,09,01,37,122,31,02,50,
173,32,04,36,125,31,11,19,129,,0*7D
$GBGSV,3,3,09,12,10,058,,0*41
$GAGSV,1,1,00,0*74

$GNRMC,000540.00,A,2959.99944,N,11959.99973,E,0.411,,230721,,,A,V*12
$GNGGA,000540.00,2959.99944,N,11959.99973,E,1,04,4.99,-1.0,M,,M,,*77
$GNGSA,A,3,,,,,,,,,,,,,6.36,4.99,3.94,1*08
$GNGSA,A,3,06,09,13,14,,,,,,,,,6.36,4.99,3.94,4*05
$GNGSA,A,3,,,,,,,,,,,,,6.36,4.99,3.94,3*0A
$GPGSV,1,1,00,0*65
$GBGSV,3,1,09,06,36,215,31,09,36,285,31,
13,46,201,32,14,07,164,30,0*7A
$GBGSV,3,2,09,01,37,122,31,02,50,173,31,04,36,125,31,11,19,129,,0*7E
$GBGSV,3,3,09,12,10,058,,0*41
$GAGSV,1,1,00,0*74

$GNRMC,000541.00,A,2959.99943,N,11959.99973,E,1.015,,230721,,,A,V*15
$GNGGA,000541.00,2959.99943,N,11959.99973,E,1,04,4.99,-1.0,M,,M,,*71
$GNGSA,A,3,,,,,,,,,,,,,6.36,4.99,3.94,1*08
$GNGSA,A,3,06,09,13,14,,,,,,,,,6.36,4.99,3.94,4*05
$GNGSA,A,3,,,,,,,,,,,,,6.36,4.99,3.94,3*0A
$GPGSV,1,1,00,0*65
$GBGSV,3,1,09
,06,36,215,31,09,36,285,31,13,46,201,32,14,07,164,31,0*7B
$GBGSV,3,2,09,01,37,122,31,02,50,173,31,04,36,125,31,11,19,129,,0*7E
$GBGSV,3,3,09,12,10,058,,0*41
$GAGSV,1,1,00,0*74

$GNRMC,000542.00,A,2959.99944,N,11959.99979,E,0.824,,230721,,,A,V*10
$GNGGA,000542.00,2959.99944,N,11959.99979,E,1,04,4.99,-1.0,M,,M,,*7F
$GNGSA,A,3,,,,,,,,,,,,,6.36,4.99,3.94,1*08
$GNGSA,A,3,06,09,13,14,,,,,,,,,6.36,4.99,3.94,4*05
$GNGSA,A,3,,,,,,,,,,,,,6.36,4.99,3.94,3*0A
$GPGSV,1,1,00,0*65
$GBGSV,3,1,09,06,36,215,31,09,36,285,31,13,46,201,32,14,07,164,31,0*7B
$GBGSV,3,2,09,01,37,122,32,02,50,17
3,31,04,36,125,31,11,19,129,,0*7D
$GBGSV,3,3,09,12,10,058,,0*41
$GAGSV,1,1,00,0*74

$GNRMC,000543.00,A,2959.99935,N,11959.99973,E,1.168,,230721,,,A,V*1D
$GNGGA,000543.00,2959.99935,N,11959.99973,E,1,04,4.99,-1.0,M,,M,,*72
$GNGSA,A,3,,,,,,,,,,,,,6.36,4.99,3.94,1*08
$GNGSA,A,3,06,09,13,14,,,,,,,,,6.36,4.99,3.94,4*05
$GNGSA,A,3,,,,,,,,,,,,,6.36,4.99,3.94,3*
0A
$GPGSV,1,1,00,0*65
$GBGSV,3,1,09,06,35,215,31,09,36,285,31,13,46,201,32,14,07,164,30,0*79
$GBGSV,3,2,09,01,37,122,31,02,50,173,31,04,36,125,31,11,19,129,,0*7E
$GBGSV,3,3,09,12,10,058,,0*41
$GAGSV,1,1,00,0*74

$GNRMC,000544.00,A,2959.99915,N,11959.99955,E,1.809,,230721,,,A,V*12
$GNGGA,000544.00,2959.99915,N,11959.99955,E,1,04,4.99,-1.0,M,,M,,*73
$GNGSA,A,3,,,,,,,,,,,,,6.36,4.99,3.94,1*08
$GNGSA,A,3,06,09,13,14,,,,,,,,,6.36,4.99,3.94,4*05
$GNGSA,A,3,,,,,,,,,,,,,6.36,4.99,3.94,3*0A
$GPGSV,1,1,00,0*65
$GBGSV,3,1,09,06,35,215,31,09,36,285,31,13,46,201,32,14,07,164,31,0*78
$GBGSV,3,2,09,01,37
,122,31,02,50,173,32,04,36,125,31,11,19,129,,0*7D
$GBGSV,3,3,09,12,10,058,,0*41
$GAGSV,1,1,00,0*74

$GNRMC,000545.00,A,2959.99917,N,11959.99955,E,0.747,,230721,,,A,V*15
$GNGGA,000545.00,2959.99917,N,11959.99955,E,1,04,4.99,-1.0,M,,M,,*70
$GNGSA,A,3,,,,,,,,,,,,,6.36,4.99,3.94,1*08
$GNGSA,A,3,06,09,13,14,,,,,,,,,6.36,4.99,3.94,4*05
$GNGSA,A,3,,,,,,,,,,,,,6.36,4.99,3.94,3*0
A
$GPGSV,1,1,00,0*65
$GBGSV,3,1,09,06,35,215,31,09,36,285,31,13,46,201,32,14,07,164,31,0*78
$GBGSV,3,2,09,01,37,122,31,02,50,173,31,04,36,125,31,11,19,129,,0*7E
$GBGSV,3,3,09,12,10,058,,0*41
$GAGSV,1,1,00,0*74

$GNRMC,000546.00,A,2959.99946,N,11959.99988,E,1.053,,230721,,,A,V*11
$GNGGA,000546.00,2959.99946,N,11959.99988,E,1,04,4.99,-1.0,M,,M,,*77
$GNGSA,A,3,,,,,,,,,,,,,6.36,4.99,3.94,1*08
$GNGSA,A,3,06,09,13,14,,,,,,,,,6.36,4.99,3.94,4*05
$GNGSA,A,3,,,,,,,,,,,,,6.36,4.99,3.94,3*0A
$GPGSV,1,1,00,0*65
$GBGSV,3,1,09,06,35,215,31,09,36,285,31,13,46,201,32,14,07,164,30,0*79
$GBGSV,3,
2,09,01,37,122,31,02,50,173,32,04,36,125,31,11,19,129,,0*7D
$GBGSV,3,3,09,12,10,058,,0*41
$GAGSV,1,1,00,0*74

$GNRMC,000547.00,A,2959.99951,N,11959.99990,E,0.673,,230721,,,A,V*1A
$GNGGA,000547.00,2959.99951,N,11959.99990,E,1,04,4.99,-1.0,M,,M,,*79
$GNGSA,A,3,,,,,,,,,,,,,6.36,4.99,3.94,1*08
$GNGSA,A,3,06,09,13,14,,,,,,,,,6.36,4.99,3.94,4*05
$GNGSA,A,3,,,,,,,,,,,,,6.36,4.99,3
.94,3*0A
$GPGSV,1,1,00,0*65
$GBGSV,3,1,09,06,35,215,31,09,36,285,31,13,46,201,32,14,07,164,31,0*78
$GBGSV,3,2,09,01,37,122,31,02,50,173,31,04,36,125,31,11,19,129,,0*7E
$GBGSV,3,3,09,12,10,058,,0*41
$GAGSV,1,1,00,0*74

$GNRMC,000548.00,A,2959.99950,N,11959.99999,E,0.522,,230721,,,A,V*1A
$GNGGA,000548.00,2959.99950,N,11959.99999,E,1,04,4.99,-1.0,M,,M,,*7E
$GNGSA,A,3,,,,,,,,,,,,,6.36,4.99,3.94,1*08
$GNGSA,A,3,06,09,13,14,,,,,,,,,6.36,4.99,3.94,4*05
$GNGSA,A,3,,,,,,,,,,,,,6.36,4.99,3.94,3*0A
$GPGSV,1,1,00,0*65
$GBGSV,3,1,09,06,35,215,31,09,36,285,31,13,46,201,32,14,07,164,31,0*78
$GBGSV,3,2,
09,01,37,122,31,02,50,173,31,04,36,125,31,11,19,129,,0*7E
$GBGSV,3,3,09,12,10,058,,0*41
$GAGSV,1,1,00,0*74

$GNRMC,000549.00,A,2959.99940,N,12000.00001,E,0.516,,230721,,,A,V*13
$GNGGA,000549.00,2959.99940,N,12000.00001,E,1,04,4.99,-1.0,M,,M,,*70
$GNGSA,A,3,,,,,,,,,,,,,6.36,4.99,3.94,1*08
$GNGSA,A,3,06,09,13,14,,,,,,,,,6.36,4.99,3.94,4*05
$GNGSA,A,3,,,,,,,,,,,,,6.36,4.99,3.94,3*0A
$GPGS
V,1,1,00,0*65
$GBGSV,3,1,09,06,35,215,31,09,36,285,31,13,46,201,32,14,07,164,31,0*78
$GBGSV,3,2,09,01,37,122,31,02,50,173,31,04,36,125,31,11,19,129,,0*7E
$GBGSV,3,3,09,12,10,058,,0*41
$GAGSV,1,1,00,0*74

$GNRMC,000550.00,A,2959.99933,N,11959.99997,E,0.132,,230721,,,A,V*1D
$GNGGA,000550.00,2959.99933,N,11959.99997,E,1,04,4.99,-1.0,M,,M,,*7C
$GNGSA,A,3,,,,,,,,,,,,,6.36,4.99,3.94,1*08
$GNGSA,A,3,06,09,13,14,,,,,,,,,6.36,4.99,3.94,4*05
$GNGSA,A,3,,,,,,,,,,,,,6.36,4.99,3.94,3*0A
$GPGSV,1,1,00,0*65
$GBGSV,3,1,09,06,35,215,31,09,36,285,31,13,46
,201,32,14,07,164,30,0*79
$GBGSV,3,2,09,01,37,122,31,02,50,173,31,04,36,125,31,11,19,129,,0*7E
$GBGSV,3,3,09,12,10,058,,0*41
$GAGSV,1,1,00,0*74

$GNRMC,000551.00,A,2959.99926,N,11959.99982,E,0.217,,230721,,,A,V*18
$GNGGA,000551.00,2959.99926,N,11959.99982,E,1,04,4.99,-1.0,M,,M,,*7D
$GNGSA,A,3,,,,,,,,,,,,,6.36,4.99,3.94,1*08
$GNGSA,A,3,06,09,13,14,,,,,,,,,6.36,4.99,3.94,4*05

$GNGSA,A,3,,,,,,,,,,,,,6.36,4.99,3.94,3*0A
$GPGSV,1,1,00,0*65
$GBGSV,3,1,09,06,35,215,31,09,36,285,31,13,46,201,32,14,07,164,31,0*78
$GBGSV,3,2,09,01,37,122,31,02,50,173,31,04,36,125,31,11,19,129,,0*7E
$GBGSV,3,3,09,12,10,058,,0*41
$GAGSV,1,1,00,0*74

$GNRMC,000552.00,A,2959.99915,N,11959.99950,E,0.948,,230721,,,A,V*15
$GNGGA,000552.00,2959.99915,N,11959.99950,E,1,04,4.99,-1.0,M,,M,,*71
$GNGSA,A,3,,,,,,,,,,,,,6.36,4.99,3.94,1*08
$GNGSA,A,3,06,09,13,14,,,,,,,,,6.36,4.99,3.94,4*05
$GNGSA,A,3,,,,,,,,,,,,,6.36,4.99,3.94,3*0A
$GPGSV,1,1,00,0*65
$GBGSV,3,1,09,06,35,215,31,09,36,285,31,13,46,201,32,14,07,164,30,0*79
$GBGSV,3,2
,09,01,37,122,31,02,50,173,31,04,36,125,31,11,19,129,,0*7E
$GBGSV,3,3,09,12,10,058,,0*41
$GAGSV,1,1,00,0*74

$GNRMC,000553.00,A,2959.99908,N,11959.99933,E,1.019,,230721,,,A,V*11
$GNGGA,000553.00,2959.99908,N,11959.99933,E,1,04,4.99,-1.0,M,,M,,*79
$GNGSA,A,3,,,,,,,,,,,,,6.36,4.99,3.95,1*09
$GNGSA,A,3,06,09,13,14,,,,,,,,,6.36,4.99,3.95,4*04
$GNGSA,A,3,,,,,,,,,,,,,6.36,4.99,3.95,3*0B
$GPGSV,1,1,00,0*65
$GBGSV,3,1,09,06,35,215,31,09,36,285,31,13,46,201,32,14,07,164,31,0*78
$GBGSV,3,2,09,01,37,122,31,0
2,50,173,31,04,36,125,31,11,19,129,,0*7E
$GBGSV,3,3,09,12,10,058,,0*41
$GAGSV,1,1,00,0*74

$GNRMC,000554.00,A,2959.99871,N,11959.99902,E,1.363,,230721,,,A,V*15
$GNGGA,000554.00,2959.99871,N,11959.99902,E,1,04,4.99,-1.0,M,,M,,*73
$GNGSA,A,3,,,,,,,,,,,,,6.36,4.99,3.95,1*09
$GNGSA,A,3,06,09,13,14,,,,,,,,,6.36,4.99,3.95,4*04
$GNGSA,A,3,,,,,,,,,,,,,6.36,4.99,3.95,3*0B
$GPGSV,1,1,00,0*65
$GBGSV,3,1,09,06,35,215,31,09,36,285,31,13,46,201,32,14,07,164,30,0*79
$GBGSV,3,2,09,01,37,122,31,02,50,173
,31,04,36,125,31,11,19,129,,0*7E
$GBGSV,3,3,09,12,10,058,,0*41
$GAGSV,1,1,00,0*74

$GNRMC,000555.00,A,2959.99871,N,11959.99904,E,0.148,,230721,,,A,V*18
$GNGGA,000555.00,2959.99871,N,11959.99904,E,1,04,4.99,-1.0,M,,M,,*74
$GNGSA,A,3,,,,,,,,,,,,,6.36,4.99,3.95,1*09
$GNGSA,A,3,06,09,13,14,,,,,,,,,6.36,4.99,3.95,4*04
$GNGSA,A,3,,,,,,,,,,,,,6.36,4.99,3.95,3*0B
$GPGSV,1,1,00,0*65
$GBGSV,3,1,09,06,35,215,32,09,36,285,31,13,46,201,32,14,07,164,31,0*7B
$GBGSV,3,2,09,01,37,122,31,02
,50,173,31,04,36,125,31,11,19,129,,0*7E
$GBGSV,3,3,09,12,10,058,,0*41
$GAGSV,1,1,00,0*74

$GNRMC,000556.00,A,2959.99879,N,11959.99914,E,0.173,,230721,,,A,V*1A
$GNGGA,000556.00,2959.99879,N,11959.99914,E,1,04,4.99,-1.0,M,,M,,*7E
$GNGSA,A,3,,,,,,,,,,,,,6.36,4.99,3.95,1*09
$GNGSA,A,3,06,09,13,14,,,,,,,,,6.36,4.99,3.95,4*04
$GNGSA,A,3,,,,,,,,,,,,,6.36,4.99,3.95,3*0B
$GPGSV,1,1,00,0*65
$GBGSV,3,1,09,06,35,215,31,09,36,285,31,13,46,201,32,14,07,
164,31,0*78
$GBGSV,3,2,09,01,37,122,31,02,50,173,31,04,36,125,31,11,19,129,,0*7E
$GBGSV,3,3,09,12,10,058,,0*41
$GAGSV,1,1,00,0*74

$GNRMC,000557.00,A,2959.99888,N,11959.99912,E,0.327,,230721,,,A,V*10
$GNGGA,000557.00,2959.99888,N,11959.99912,E,1,04,4.99,-1.0,M,,M,,*77
$GNGSA,A,3,,,,,,,,,,,,,6.36,4.99,3.95,1*09
$GNGSA,A,3,06,09,13,14,,,,,,,,,6.36,4.99,3.95,4*04
$GNGSA,A,3,,,,,,,,,,,,,6.36,4.99,3.95,3*0B
$GPGSV,1,1,00,0*65
$GBGSV,3,1,09,06,35,215,31,09,36,285,3
1,13,46,201,32,14,07,164,31,0*78
$GBGSV,3,2,09,01,37,122,31,02,50,173,31,04,36,125,31,11,19,129,,0*7E
$GBGSV,3,3,09,12,10,058,,0*41
$GAGSV,1,1,00,0*74

$GNRMC,000558.00,A,2959.99897,N,11959.99902,E,0.587,,230721,,,A,V*1C
$GNGGA,000558.00,2959.99897,N,11959.99902,E,1,04,4.99,-1.0,M,,M,,*77
$GNGSA,A,3,,,,,,,,,,,,,6.36,4.99,3.95,1*09
$GNGSA,A,3,06,09,13,14,,,,,,,,,6.36,4.99,3.95,4*04
$GNGSA,A,3,,,,,,
,,,,,,,6.36,4.99,3.95,3*0B
$GPGSV,1,1,00,0*65
$GBGSV,3,1,09,06,35,215,31,09,36,285,31,13,46,201,32,14,07,164,31,0*78
$GBGSV,3,2,09,01,37,122,31,02,50,173,31,04,36,125,31,11,19,129,,0*7E
$GBGSV,3,3,09,12,10,058,,0*41
$GAGSV,1,1,00,0*74

$GNRMC,000559.00,A,2959.99898,N,11959.99883,E,0.733,,230721,,,A,V*17
$GNGGA,000559.00,2959.99898,N,11959.99883,E,1,04,4.99,-1.0,M,,M,,*71
$GNGSA,A,3,,,,,,,,,,,,,6.36,4.99,3.95,1*09
$GNGSA,A,3,06,09,13,14,,,,,,,,,6.36,4.99,3.95,4*04
$GNGSA,A,3,,,,,,,,,,,,,6.36,4.99,3.95,3*0B
$GPGSV,1,1,00,0*65
$GBGSV,3,1,09,06,35,215,31,09,36,285,31,13,46,201,32,14,07,164,30,0*79
$GBGSV,3,2
,09,01,37,122,31,02,50,173,32,04,36,125,31,11,19,129,,0*7D
$GBGSV,3,3,09,12,10,058,,0*41
$GAGSV,1,1,00,0*74

$GNRMC,000600.00,A,2959.99917,N,11959.99886,E,0.619,,230721,,,A,V*12
$GNGGA,000600.00,2959.99917,N,11959.99886,E,1,04,4.99,-1.0,M,,M,,*7D
$GNGSA,A,3,,,,,,,,,,,,,6.36,4.99,3.95,1*09
$GNGSA,A,3,06,09,13,14,,,,,,,,,6.36,4.99,3.95,4*04
$GNGSA,A,3,,,,,,,,,,,,,6.36,4.99,3.95,3*0B
$GPGSV,1,1,00,0*65
$GBGSV,3,1,09,06,35,215,32,09,36,285
,31,13,46,201,32,14,07,164,31,0*7B
$GBGSV,3,2,09,01,37,122,32,02,50,173,32,04,36,125,31,11,19,129,,0*7E
$GBGSV,3,3,09,12,10,058,,0*41
$GAGSV,1,1,00,0*74

$GNRMC,000601.00,A,2959.99946,N,11959.99910,E,0.158,,230721,,,A,V*1B
$GNGGA,000601.00,2959.99946,N,11959.99910,E,1,04,4.99,-1.0,M,,M,,*76
$GNGSA,A,3,,,,,,,,,,,,,6.36,4.99,3.95,1*09
$GNGSA,A,3,06,09,13,14,,,,,,,,,6.36,4.99,3.95,4*04
$GNGSA,
A,3,,,,,,,,,,,,,6.36,4.99,3.95,3*0B
$GPGSV,1,1,00,0*65
$GBGSV,3,1,09,06,35,215,31,09,36,285,32,13,46,201,32,14,07,164,31,0*7B
$GBGSV,3,2,09,01,37,122,31,02,50,173,31,04,36,125,31,11,19,129,,0*7E
$GBGSV,3,3,09,12,10,058,,0*41
$GAGSV,1,1,00,0*74

$GNRMC,000602.00,A,2959.99970,N,11959.99941,E,0.668,,230721,,,A,V*1D
$GNGGA,000602.00,2959.99970,N,11959.99941,E,1,04,4.99,-1.0,M,,M,,*74
$GNGSA,A,3,,,,,,,,,,,,,6.36,4.99,3.95,1*09
$GNGSA,A,3,06,09,13,14,,,,,,,,,6.36,4.99,3.95,4*04
$GNGSA,A,3,,,,,,,,,,,,,6.36,4.99,3.95,3*0B

$GPGSV,1,1,00,0*65
$GBGSV,3,1,09,06,35,215,31,09,36,285,31,13,46,201,32,14,07,164,31,0*78
$GBGSV,3,2,09,01,37,122,31,02,50,173,31,04,36,125,32,11,19,129,,0*7D
$GBGSV,3,3,09,12,10,058,,0*41
$GAGSV,1,1,00,0*74

$GNRMC,000603.00,A,2959.99956,N,11959.99921,E,0.666,,230721,,,A,V*10
$GNGGA,000603.00,2959.99956,N,11959.99921,E,1,04,4.99,-1.0,M,,M,,*77
$GNGSA,A,3,,,,,,,,,,,,,6.36,4.99,3.95,1*09
$GNGSA,A,3,06,09,13,14,,,,,,,,,6.36,4.99,3.95,4*04
$GNGSA,A,3,,,,,,,,,,,,,6.36,4.99,3.95,3*0B
$GPGS
V,1,1,00,0*65
$GBGSV,3,1,09,06,35,215,31,09,36,285,31,13,46,201,32,14,07,164,31,0*78
$GBGSV,3,2,09,01,37,122,31,02,50,173,32,04,36,125,31,11,19,129,,0*7D
$GBGSV,3,3,09,12,10,058,,0*41
$GAGSV,1,1,00,0*74

$GNRMC,000604.00,A,2959.99984,N,11959.99956,E,0.767,,230721,,,A,V*18
$GNGGA,000604.00,2959.99984,N,11959.99956,E,1,04,4.99,-1.0,M,,M,,*7F
$GNGSA,A,3,,,,,,,,,,,,,6.36,4.99,3.95,1*09
$GNGSA,A,3,06,09,13,14,,,,,,,,,6.36,4.99,3.95,4*04
$GNGSA,A,3,,,,,,,,,,,,,6.36,4.99,3.95,
3*0B
$GPGSV,1,1,00,0*65
$GBGSV,3,1,09,06,35,215,31,09,36,285,31,13,46,201,32,14,07,164,31,0*78
$GBGSV,3,2,09,01,37,122,31,02,50,173,31,04,36,125,31,11,19,129,,0*7E
$GBGSV,3,3,09,12,10,058,,0*41
$GAGSV,1,1,00,0*74

$GNRMC,000605.00,A,3000.00006,N,11959.99991,E,0.791,,230721,,,A,V*1C
$GNGGA,000605.00,3000.00006,N,11959.99991,E,1,04,4.99,-1.0,M,,M,,*72
$GNGSA,A,3,,,,,,,,,,,,,6.36,4.99,3.95,1*09
$GNGSA,A,3,06,09,13,14,,,,,,,,,6.36,4.99,3.95,4*04
$GNGSA,A,3,,,,,,,,,,,,,6.36,4.99,3.95,3*0B
$G
PGSV,1,1,00,0*65
$GBGSV,3,1,09,06,35,215,31,09,36,285,31,13,46,201,32,14,07,164,31,0*78
$GBGSV,3,2,09,01,37,122,31,02,50,173,32,04,36,125,31,11,19,129,,0*7D
$GBGSV,3,3,09,12,10,058,,0*41
$GAGSV,1,1,00,0*74

$GNRMC,000606.00,A,3000.00018,N,12000.00000,E,0.285,,230721,,,A,V*17
$GNGGA,000606.00,3000.00018,N,12000.00000,E,1,04,4.99,-1.0,M,,M,,*79
$GNGSA,A,3,,,,,,,,,,,,,6.36,4.99,3.95,1*09
$GNGSA,A,3,06,09,13,14,,,,,,,,,6.36,4.99,3.95,4*04
$GNGSA,A,3,,,,,,,,,,,,,6.36,4.99,3.95,3*0B
$GPGSV,1,1,00,0*65
$GBGSV,3,1,09,06,35,215,31,09,36,285,31,13,46,201,32,14,07,164,31
,0*78
$GBGSV,3,2,09,01,37,122,31,02,50,173,32,04,36,125,31,11,19,129,,0*7D
$GBGSV,3,3,09,12,10,058,,0*41
$GAGSV,1,1,00,0*74

$GNRMC,000607.00,A,3000.00034,N,12000.00016,E,0.789,,230721,,,A,V*16
$GNGGA,000607.00,3000.00034,N,12000.00016,E,1,04,4.99,-1.0,M,,M,,*71
$GNGSA,A,3,,,,,,,,,,,,,6.37,4.99,3.95,1*08
$GNGSA,A,3,06,09,13,14,,,,,,,,,6.37,4.99,3.95,4*05
$GNGSA,A,3,,,,,,,,,,,,,6.37,4.99,3.95,3*0A
$GPGSV,1,1,00,0*65
$GBGSV,3,1,09,06,35,215,31,09,36,285,3
1,13,46,201,32,14,07,164,31,0*78
$GBGSV,3,2,09,01,37,122,31,02,50,173,31,04,36,125,31,11,19,129,,0*7E
$GBGSV,3,3,09,12,10,058,,0*41
$GAGSV,1,1,00,0*74

$GNRMC,000608.00,A,3000.00030,N,12000.00005,E,0.951,,230721,,,A,V*14
$GNGGA,000608.00,3000.00030,N,12000.00005,E,1,04,4.99,-1.0,M,,M,,*78
$GNGSA,A,3,,,,,,,,,,,,,6.37,4.99,3.95,1*08
$GNGSA,A,3,06,09,13,14,,,,,,,,,6.37,4.99,3.95,4*05
$GNGSA,A,3,,,,,,,,,,,,,6.37,4.99,3.95,3*0A
$GPGSV,1,1,00,0*65
$GBGSV,3,1,09,06,35,215,31,09,36,285,31,13,46,2
01,32,14,07,164,31,0*78
$GBGSV,3,2,09,01,37,122,31,02,50,173,31,04,36,125,31,11,19,129,,0*7E
$GBGSV,3,3,09,12,10,058,,0*41
$GAGSV,1,1,00,0*74

$GNRMC,000609.00,A,3000.00019,N,11959.99991,E,0.535,,230721,,,A,V*12
$GNGGA,000609.00,3000.00019,N,11959.99991,E,1,04,4.99,-1.0,M,,M,,*70
$GNGSA,A,3,,,,,,,,,,,,,6.37,4.99,3.95,1*08
$GNGSA,A,3,06,09,13,14,,,,,,,,,6.37,4.99,3.95,4*05
$
GNGSA,A,3,,,,,,,,,,,,,6.37,4.99,3.95,3*0A
$GPGSV,1,1,00,0*65
$GBGSV,3,1,09,06,35,215,31,09,36,285,32,13,46,201,32,14,07,164,31,0*7B
$GBGSV,3,2,09,01,37,122,31,02,50,173,31,04,36,125,31,11,19,129,,0*7E
$GBGSV,3,3,09,12,10,058,,0*41
$GAGSV,1,1,00,0*74

$GNRMC,000610.00,A,3000.00011,N,11959.99988,E,0.547,,230721,,,A,V*1F
$GNGGA,000610.00,3000.00011,N,11959.99988,E,1,04,4.99,-1.0,M,,M,,*78
$GNGSA,A,3,,,,,,,,,,,,,6.37,4.99,3.95,1*08
$GNGSA,A,3,06,09,13,14,,,,,,,,,6.37,4.99,3.95,4*05
$GNGSA,A,3,,,,,,,,,,,,,6.37,4.99,3.95,3*0A
$GPGSV,1,1,00,0*65
$GBGSV,3,1,09,06,35,215,31,09,36,285,31,13,46,201,32,14,07
,164,31,0*78
$GBGSV,3,2,09,01,37,122,31,02,50,173,31,04,36,125,31,11,19,129,,0*7E
$GBGSV,3,3,09,12,10,058,,0*41
$GAGSV,1,1,00,0*74

$GNRMC,000611.00,A,2959.99979,N,11959.99957,E,1.045,,230721,,,A,V*19
$GNGGA,000611.00,2959.99979,N,11959.99957,E,1,04,4.99,-1.0,M,,M,,*78
$GNGSA,A,3,,,,,,,,,,,,,6.37,4.99,3.95,1*08
$GNGSA,A,3,06,09,13,14,,,,,,,,,6.37,4.99,3.95,4*05
$GNGSA,A,3,,,,,,,,,,,,,6.37,4
.99,3.95,3*0A
$GPGSV,1,1,00,0*65
$GBGSV,3,1,09,06,35,215,31,09,36,285,31,13,46,201,32,14,07,164,31,0*78
$GBGSV,3,2,09,01,37,122,31,02,50,173,32,04,36,125,31,11,19,129,,0*7D
$GBGSV,3,3,09,12,10,058,,0*41
$GAGSV,1,1,00,0*74

$GNRMC,000612.00,A,2959.99956,N,11959.99940,E,0.215,,230721,,,A,V*17
$GNGGA,000612.00,2959.99956,N,11959.99940,E,1,04,4.99,-1.0,M,,M,,*70
$GNGSA,A,3,,,,,,,,,,,,,6.37,4.99,3.95,1*08
$GNGSA,A,3,06,09,13,14,,,,,,,,,6.37,4.99,3.95,4*05
$GNGSA,A
,3,,,,,,,,,,,,,6.37,4.99,3.95,3*0A
$GPGSV,1,1,00,0*65
$GBGSV,3,1,09,06,35,215,31,09,36,285,31,13,46,201,32,14,07,164,31,0*78
$GBGSV,3,2,09,01,37,122,31,02,50,173,31,04,36,125,31,11,19,129,,0*7E
$GBGSV,3,3,09,12,10,058,,0*41
$GAGSV,1,1,00,0*74

$GNRMC,000613.00,A,2959.99960,N,11959.99960,E,0.403,,230721,,,A,V*10
$GNGGA,000613.00,2959.99960,N,11959.99960,E,1,04,4.99,-1.0,M,,M,,*76
$GNGSA,A,3,,,,,,,,,,,,,6.37,4.99,3.95,1*08
$GNGSA,A,3,06,09,13,14,,,,,,,,,6.37,4.99,3.95,4*05
$GNGSA,A,3,,,,,,,,,,,,,6.37,4.99,3.95,
3*0A
$GPGSV,1,1,00,0*65
$GBGSV,3,1,09,06,35,215,32,09,36,285,31,13,46,201,32,14,07,164,31,0*7B
$GBGSV,3,2,09,01,37,122,31,02,50,173,31,04,36,125,31,11,19,129,,0*7E
$GBGSV,3,3,09,12,10,058,,0*41
$GAGSV,1,1,00,0*74

$GNRMC,000614.00,A,2959.99955,N,11959.99956,E,0.978,,230721,,,A,V*15
$GNGGA,000614.00,2959.99955,N,11959.99956,E,1,04,4.99,-1.0,M,,M,,*72
$GNGSA,A,3,,,,,,,,,,,,,6.37,4.99,3.95,1*08
$GNGSA,A,3,06,09,13,14,,,,,,,,,6.37,4.99,3.95,4*05
$GNGSA,A,3,,,,,,,,,,,,,6.37,4.99,3.95,3*0A
$GPGSV,1,1,00,0*65
$GBGSV,3,1,09,06,35,215,31,09,36,285,31,13,46,201,32,14,07,164,31,0*
78
$GBGSV,3,2,09,01,37,122,31,02,50,173,31,04,36,125,31,11,19,129,,0*7E
$GBGSV,3,3,09,12,10,058,,0*41
$GAGSV,1,1,00,0*74

$GNRMC,000615.00,A,2959.99942,N,11959.99939,E,0.721,,230721,,,A,V*19
$GNGGA,000615.00,2959.99942,N,11959.99939,E,1,04,4.99,-1.0,M,,M,,*7C
$GNGSA,A,3,,,,,,,,,,,,,6.37,4.99,3.95,1*08
$GNGSA,A,3,06,09,13,14,,,,,,,,,6.37,4.99,3.95,4*05
$GNGSA,A,3,,,,,,,,,,,,,6.37,4.99,3.95,3*0A
$GPGSV,1,1,00,0*65
$GBGSV,3,1,09,06,35,215,31,09,36,285,31,13,46,201,32,14,07,164,31,0*78
$GBGSV,3,
2,09,01,37,122,31,02,50,173,31,04,36,125,31,11,19,129,,0*7E
$GBGSV,3,3,09,12,10,058,,0*41
$GAGSV,1,1,00,0*74

$GNRMC,000616.00,A,2959.99948,N,11959.99948,E,0.303,,230721,,,A,V*12
$GNGGA,000616.00,2959.99948,N,11959.99948,E,1,04,4.99,-1.0,M,,M,,*73
$GNGSA,A,3,,,,,,,,,,,,,6.37,4.99,3.95,1*08
$GNGSA,A,3,06,09,13,14,,,,,,,,,6.37,4.99,3.95,4*05
$GNGSA,A,3,,,,,,,,,,,,,6.37,4.99,3.95,3*0A
$GPGSV,1,1,00,0*65
$GBGSV,3,1,09,06,35,215,31,09,36,285,31,13,46,201,32,14,07,164,31,0*78
$GBGSV,3,2,09,01,37,122,31,0
2,50,173,32,04,36,125,31,11,19,129,,0*7D
$GBGSV,3,3,09,12,10,058,,0*41
$GAGSV,1,1,00,0*74

$GNRMC,000617.00,A,2959.99939,N,11959.99939,E,0.536,,230721,,,A,V*13
$GNGGA,000617.00,2959.99939,N,11959.99939,E,1,04,4.99,-1.0,M,,M,,*72
$GNGSA,A,3,,,,,,,,,,,,,6.37,4.99,3.95,1*08
$GNGSA,A,3,06,09,13,14,,,,,,,,,6.37,4.99,3.95,4*05
$GNGSA,A,3,,,,,,,,,,,,,6.37,4.99,3.95,3*0A
$GPGSV,1,1,00,0*65
$GBGSV,3,1,09,06,35,215,31,09,36,285,31,13,46,201,32,14,07,164,30,0*7
9
$GBGSV,3,2,09,01,37,122,31,02,50,173,31,04,36,125,31,11,19,129,,0*7E
$GBGSV,3,3,09,12,10,058,,0*41
$GAGSV,1,1,00,0*74

$GNRMC,000618.00,A,2959.99935,N,11959.99927,E,0.761,,230721,,,A,V*1F
$GNGGA,000618.00,2959.99935,N,11959.99927,E,1,04,4.99,-1.0,M,,M,,*7E
$GNGSA,A,3,,,,,,,,,,,,,6.37,4.99,3.95,1*08
$GNGSA,A,3,06,09,13,14,,,,,,,,,6.37,4.99,3.95,4*05
$GNGSA,A,3,,,,,,,,,,,,,6.37,4.99,3.95,3*0A
$GPGSV,1,1,00,0*65
$GBGSV,3,1,09,06,35,215,31,09,36,285,31,13,46,201,32,14,07,164,30,0*79
$GBGSV,3,2,09,01,37,122,31,02,50,1
73,31,04,36,125,31,11,19,129,,0*7E
$GBGSV,3,3,09,12,10,058,,0*41
$GAGSV,1,1,00,0*74

$GNRMC,000619.00,A,2959.99915,N,11959.99890,E,1.479,,230721,,,A,V*1A
$GNGGA,000619.00,2959.99915,N,11959.99890,E,1,04,4.99,-1.0,M,,M,,*70
$GNGSA,A,3,,,,,,,,,,,,,6.37,4.99,3.95,1*08
$GNGSA,A,3,06,09,13,14,,,,,,,,,6.37,4.99,3.95,4*05
$GNGSA,A,3,,,,,,,,,,,,,6.37,4.99,3.95,3*0A
$GPGSV,1,1,00,0*65
$GBGSV,3,1,09,06,35,215,31,09
,36,285,31,13,46,201,32,14,07,164,31,0*78
$GBGSV,3,2,09,01,37,122,31,02,50,173,32,04,36,125,31,11,19,129,,0*7D
$GBGSV,3,3,09,12,10,058,,0*41
$GAGSV,1,1,00,0*74

$GNRMC,000620.00,A,2959.99877,N,11959.99833,E,0.986,,230721,,,A,V*10
$GNGGA,000620.00,2959.99877,N,11959.99833,E,1,04,4.99,-1.0,M,,M,,*76
$GNGSA,A,3,,,,,,,,,,,,,6.37,4.99,3.95,1*08
$GNGSA,A,3,06,09,13,14,,,,,,,,,6.37,4.99,3.95,4*05
$GNGSA,A,3,,,,,,,,,,,,,6.37,4.99,3.95,3*0A
$GPGSV,1,1,00,0*65
$GBGSV,3
,1,09,06,35,215,31,09,36,285,31,13,46,201,32,14,07,164,30,0*79
$GBGSV,3,2,09,01,37,122,31,02,50,173,31,04,36,125,31,11,19,129,,0*7E
$GBGSV,3,3,09,12,10,058,,0*41
$GAGSV,1,1,00,0*74

$GNRMC,000621.00,A,2959.99885,N,11959.99839,E,0.272,,230721,,,A,V*16
$GNGGA,000621.00,2959.99885,N,11959.99839,E,1,04,4.99,-1.0,M,,M,,*70
