$GNRMC,120225.00,A,2300.00000,N,11300.11865,E,9.739,90.60,010821,,,A,V*34
$GNGGA,120225.00,2300.00000,N,11300.11865,E,1,23,0.56,9.4,M,,M,,*5C
$GNGSA,A,3,05,21,22,24,31,03,06,16,18,29,,,1.19,0.56,1.05,1*0D
$GNGSA,A,3,30,08,09,26,34,27,,,,,,,1.19,0.56,1.05,4*0E
$GNGSA,A,3,01,07,08,13,17,18,14,,,,,,1.19,0.56,1.05,3*0B
$GPGSV,4,1,15,03,07,281,34,05,11,128,35,06,19,286,35,16,31,325,36,0
*64
$GPGSV,4,2,15,18,29,138,36,21,72,033,36,22,15,171,35,24,27,038,35,0*62
$GPGSV,4,3,15,29,26,049,36,31,52,234,36,30,34,117,,42,49,127,,0*68
$GPGSV,4,4,15,50,45,121,,40,21,256,,41,47,236,,0*50
$GBGSV,4,1,14,08,41,325,31,09,13,228,30,26,38,325,31,27,51,295,31,0*78
$GBGSV,4,2,14,30,49,355,31,34,04,200,30,01,33,113,,02,64,149,31,0*75
$GBGSV,4,3,14,04,35,11
$GNRMC,120226.00,A,2259.99996,N,11300.12158,E,9.739,90.45,010821,,,A,V*3F
$GNGGA,120226.00,2259.99996,N,11300.12158,E,1,23,0.56,9.4,M,,M,,*50
$GNGSA,A,3,05,21,22,24,31,03,06,16,18,29,,,1.19,0.56,1.05,1*0D
$GNGSA,A,3,30,08,09,26,34,27,,,,,,,1.19,0.56,1.05,4*0E
$GNGSA,A,3,01,07,08,13,17,18,14,,,,,,1.19,0.56,1.05,3*0B
$GPGSV,4,1,15,03,07,281,35,05,11,128,36,06,19,286,35,16,31,325,35,0*
65
$GPGSV,4,2,15,18,29,138,36,21,72,033,36,22,15,171,35,24,27,038,36,0*61
$GPGSV,4,3,15,29,26,049,35,31,52,234,36,30,33,117,,42,49,127,,0*6C
$GPGSV,4,4,15,50,45,121,,40,21,256,,41,47,236,,0*50
$GBGSV,4,1,14,08,41,325,31,09,13,228,30,26,38,325,31,27,51,295,31,0*78
$GBGSV,4,2,14,30,49,355,31,34,04,200,30,01,33,113,,02,64,149,31,0*75
$GBGSV,4,3,14,04,35,111,,06,64,258,,13,35,039,,20,33,171,,0*76
$GBGSV,4,4,14,29,48,307,,35,01,276,,0*75
$GAGSV,3,1,11,01,28,054,33,07,21,292,33,08,48,348,35,13,24,170,33,0*7E
$GAGSV,
$GNRMC,120227.00,A,2259.99996,N,11300.12451,E,9.706,89.79,010821,,,A,V*39
$GNGGA,120227.00,2259.99996,N,11300.12451,E,1,23,0.56,9.3,M,,M,,*5A
$GNGSA,A,3,05,21,22,24,31,03,06,16,18,29,,,1.19,0.56,1.05,1*0D
$GNGSA,A,3,30,08,09,26,34,27,,,,,,,1.19,0.56,1.05,4*0E
$GNGSA,A,3,01,07,08,13,17,18,14,,,,,,1.19,0.56,1.05,3*0B
$GPGSV,4,1,15,03,07,281,35,05,11,128,35,06,1
9,286,35,16,31,325,35,0*66
$GPGSV,4,2,15,18,29,138,35,21,72,033,37,22,15,171,35,24,27,038,35,0*60
$GPGSV,4,3,15,29,26,049,35,31,52,234,36,30,33,117,,42,49,127,,0*6C
$GPGSV,4,4,15,50,45,121,,40,21,256,,41,47,236,,0*50
$GBGSV,4,1,14,08,41,325,31,09,13,228,30,26,38,325,31,27,51,295,31,0*78
$GBGSV,4,2,14,30,49,355,31,34,04,200,30,01,33,113,,02,64,149,31,0*75
$GBGS
,,,1.19,0.56,1.05,3*0B
$GPGSV,4,1,15,03,07,281,34,05,11,128,34,06,19,286,35,16,31,325,36,0*65
$GPGSV,4,2,15,18,29,138,35,21,72,033,36,22,15,171,35,24,27,038,36,0*62
$GPGSV,4,3,15,29,26,049,36,31,52,234,37,30,33,117,,42,49,127,,0*6E
$GPGSV,4,4,15,50,45,121,,40,21,256,,41,47,236,,0*50
$GBGSV,4,1,14,08,41,325,31,09,13,228,30,26,38,325,31,27,51,295
$GNRMC,120229.00,A,2259.99998,N,11300.13039,E,9.720,89.79,010821,,,A,V*36
$GNGGA,120229.00,2259.99998,N,11300.13039,E,1,23,0.56,9.3,M,,M,,*51
$GNGSA,A,3,05,21,22,24,31,03,06,16,18,29,,,1.19,0.56,1.05,1*0D
$GNGSA,A,3,30,08,09,26,34,27,,,,,,,1.19,0.56,1.05,4*0E
$GNGSA,A,3,01,07,08,13,17,18,14,,,,,,1.19,0.56,1.05,3*0B
$GPGSV,4,1,15,03,07,281,34,0
5,11,128,35,06,19,286,36,16,31,325,36,0*67
$GPGSV,4,2,15,18,29,138,36,21,72,033,37,22,15,171,35,24,27,038,36,0*60
$GPGSV,4,3,15,29,26,049,36,31,52,234,36,30,33,117,,42,49,127,,0*6F
$GPGSV,4,4,15,50,45,121,,40,21,256,,41,47,236,,0*50
$GBGSV,4,1,14,08,41,325,31,09,13,228,30,26,38,326,31,27,51,295,31,0*7B
$GBGSV,4,2,14,30,49,355,31,34,04,200,30,01,33,113,,02,64,149,31,0*75
$GBGSV,4,3,14,04,35,111,,06,64,258,,13,35,039,,20,33,171,,0*76
$GBGSV,4,4,14,29,48,307,,35,01,276,,0*75
$GAGSV,3,1,11,01,28,054,33,07,21,292,33,08,48,34
,0.56,1.05,4*0E
$GNGSA,A,3,01,07,08,13,17,18,14,,,,,,1.19,0.56,1.05,3*0B
$GPGSV,4,1,15,03,07,281,34,05,11,128,35,06,19,286,35,16,31,325,36,0*64
$GPGSV,4,2,15,18,29,138,35,21,72,033,37,22,15,171,36,24,27,038,36,0*60
$GPGSV,4,3,15,29,26,049,35,31,52,234,36,30,33,118,,42,49,127,,0*63
$GPGSV,4,4,15,50,45,121,,40,21,256,,41,47,236,,0*50
$GBGSV,4,1,14,08,41
$GPGSV,4,1,15,03,07,281,35,05,11,128,35,06,19,286,36,16,31,325,35,0*65
$GPGSV,4,2,15,18,29,138,36,21,72,033,37,22,15,171,35,24,27,038,36,0*60
$GPGSV,4,3,15,29,26,049,35,31,52,234,36,30,33,118,,42,49,127,,0*63
$GPGSV,4,4,15,50,45,121,,40,21,256,,41,47,236,,0*50
$GBGSV,4,1,14,08,41,325,31,09,13,228,30,26,38,326,31,27,51,295,31,0*7B
$GBGSV,4,2,14
$GNRMC,120232.00,A,2259.99996,N,11300.13915,E,9.641,91.13,010821,,,A,V*36
$GNGGA,120232.00,2259.99996,N,11300.13915,E,1,23,0.56,9.3,M,,M,,*52
$GNGSA,A,3,05,21,22,24,31,03,06,16,18,29,,,1.19,0.56,1.05,1*0D
$GNGSA,A,3,30,08,09,26,34,27,,,,,,,1.19,0.56,1.05,4*0E
$GNGSA,A,3,01,07,08,13,17,18,14,,,,,,1.19,0.56,1.05,3*0B
$GPGSV,4,1,15,03,07,281,35,05,11,128,35,06,19,286,36,16,31,32
5,36,0*66
$GPGSV,4,2,15,18,29,138,36,21,72,033,37,22,15,171,35,24,27,038,36,0*60
$GPGSV,4,3,15,29,26,049,36,31,52,234,36,30,33,118,,42,49,127,,0*60
$GPGSV,4,4,15,50,45,121,,40,21,256,,41,47,236,,0*50
$GBGSV,4,1,14,08,41,325,31,09,13,228,30,26,38,326,31,27,51,295,31,0*7B
$GBGSV,4,2,14,30,49,355,32,34,04,200,30,01,33,113,,02,64,149,31,0*76
$GBGSV,4,3,14,04,35,111,,06,64,258,,13,35,039,,20,33,171,,0*76
$GBGSV,4,4,14,29,48,307,,35,01,276,,0*75
$GAGSV,3,1,11,01,28,054,34,07,21,292,33,08,48,348,34,13,24,170,33,0*78
$GAGSV,3,2,11,14,4
9,0.56,1.05,3*0B
$GPGSV,4,1,15,03,07,281,35,05,11,128,34,06,19,286,35,16,31,325,35,0*67
$GPGSV,4,2,15,18,29,138,36,21,72,033,37,22,15,171,36,24,27,038,36,0*63
$GPGSV,4,3,15,29,26,049,35,31,52,234,36,30,33,118,,42,49,127,,0*63
$GPGSV,4,4,15,50,45,121,,40,21,256,,41,47,236,,0*50
$GBGSV,4,1,14,08,41,325,31,09,13,228,30,26,38,326,31,27,51,295,31,0*7B
$GBGSV,4,2,14,3
$GNRMC,120234.00,A,2259.99995,N,11300.14498,E,9.831,90.16,010821,,,A,V*31
$GNGGA,120234.00,2259.99995,N,11300.14498,E,1,23,0.56,9.4,M,,M,,*5F
$GNGSA,A,3,05,21,22,24,31,03,06,16,18,29,,,1.19,0.56,1.05,1*0D
$GNGSA,A,3,30,08,09,26,34,27,,,,,,,1.19,0.56,1.05,4*0E
$GNGSA,A,3,01,07,08,13,17,18,14,,,,,,1.19,0.56,1.05,3*0B
$GPGSV,4,1,15,03,07,281,35,05,11,128,35,06,19,2
86,35,16,31,325,36,0*65
$GPGSV,4,2,15,18,29,138,36,21,72,033,37,22,15,171,35,24,27,038,35,0*63
$GPGSV,4,3,15,29,26,049,36,31,52,234,36,30,33,118,,42,49,127,,0*60
$GPGSV,4,4,15,50,45,121,,40,21,256,,41,47,236,,0*50
$GBGSV,4,1,14,08,41,325,31,09,13,228,30,26,38,326,31,27,51,295,31,0*7B
$GBGSV,4,2,14,30,49,355,32,34,04,200,30,01,33,113,,02,64,149,31,0*76
$GBGSV,4,3,14,04,35,111,,06,64,258,,13,35,039,,20,33,171,,0*76
$GBGSV,4,4,14,29,48,307,,35,01,276,,0*75
$GAGSV,3,1,11,01,28,054,33,07,21,292,34,08,48,348,34,13,24,17
1,07,08,13,17,18,14,,,,,,1.19,0.56,1.05,3*0B
$GPGSV,4,1,15,03,07,281,35,05,11,128,35,06,19,286,35,16,31,325,35,0*66
$GPGSV,4,2,15,18,29,138,36,21,72,033,37,22,15,171,36,24,27,038,35,0*60
$GPGSV,4,3,15,29,26,049,36,31,52,234,37,30,33,118,,42,49,127,,0*61
$GPGSV,4,4,15,50,45,121,,40,21,256,,41,47,236,,0*50
$GBGSV,4,1,14,08,41,325,31,09,13,228,30,26,38
$GNRMC,120236.00,A,2259.99997,N,11300.15084,E,9.727,89.15,010821,,,A,V*3A
$GNGGA,120236.00,2259.99997,N,11300.15084,E,1,24,0.53,9.3,M,,M,,*52
$GNGSA,A,3,05,21,22,24,31,03,06,16,18,29,,,1.12,0.53,0.99,1*07
$GNGSA,A,3,30,08,09,26,34,27,,,,,,,1.12,0.53,0.99,4*04
$GNGSA,A,3,01,07,08,13,17,18,14,15,,,,,1.12,0.53,0.99,3*05
$GPGSV,4,1,15,03,07,281,34,05,11,128,35,06,19,2
86,35,16,31,325,36,0*64
$GPGSV,4,2,15,18,29,138,36,21,72,033,36,22,15,171,35,24,27,038,36,0*61
$GPGSV,4,3,15,29,26,049,36,31,52,234,36,30,33,118,,42,49,127,,0*60
$GPGSV,4,4,15,50,45,121,,40,21,256,,41,47,236,,0*50
$GBGSV,4,1,14,08,41,325,31,09,13,228,31,26,38,326,31,27,51,295,31,0*7A
$GBGSV,4,2,14,30,49,355,31,34,04,200,30,01,33,113,,02,64,149,31,0*75
$GBGSV,4,3,14,04,35,111,,06,64,258,,13,35,039,,20,33,171,,0*76
$GBGSV,4,4,14,29,48,307,,35,01,276,,0*75
$GAGSV,3,1,11,01,28,054,34,07,21,292,33,08,48,348,34,13,24,170,33,0*78
$GA
*04
$GNGSA,A,3,01,07,08,13,17,18,14,15,,,,,1.12,0.53,0.99,3*05
$GPGSV,4,1,15,03,07,281,35,05,11,128,35,06,19,286,35,16,31,325,36,0*65
$GPGSV,4,2,15,18,29,138,36,21,72,033,37,22,15,171,36,24,27,038,36,0*63
$GPGSV,4,3,15,29,26,049,35,31,52,234,36,30,33,118,,42,49,127,,0*63
$GPGSV,4,4,15,50,45,121,,40,21,256,,41,47,236,,0*50
$GBGSV,4,1,14,08,41,325,30,09,13,228,30
$GNRMC,120238.00,A,2259.99997,N,11300.15665,E,9.659,90.50,010821,,,A,V*3C
$GNGGA,120238.00,2259.99997,N,11300.15665,E,1,24,0.53,9.2,M,,M,,*54
$GNGSA,A,3,05,21,22,24,31,03,06,16,18,29,,,1.12,0.53,0.99,1*07
$GNGSA,A,3,30,08,09,26,34,27,,,,,,,1.12,0.53,0.99,4*04
$GNGSA,A,3,01,07,08,13,17,18,14,15,,,,,1.12,0.53,0.99,3*05
$GPGSV,4,1,15,03,07,281,35,05,11,128,35,06,19,28
6,35,16,31,325,35,0*66
$GPGSV,4,2,15,18,29,138,36,21,72,032,37,22,15,171,35,24,27,038,36,0*61
$GPGSV,4,3,15,29,26,049,35,31,52,234,36,30,33,118,,42,49,127,,0*63
$GPGSV,4,4,15,50,45,121,,40,21,256,,41,47,236,,0*50
$GBGSV,4,1,14,08,41,325,31,09,13,228,30,26,38,326,31,27,51,295,31,0*7B
$GBGSV,4,2,14,30,49,355,31,34,04,200,30,01,33,113,,02,64,149,31,0*75
$GBGSV,4,3,14,04,35,111,,06,64,258,,13,35,039,,20,33,171,,0*76
$GBGSV,4,4,14,29,48,307,,35,01,276,,0*75
$GAGSV,3,1,11,01,28,054,34,07,21,292,33,08,48,348,35,13
$GNRMC,120239.00,A,2259.99998,N,11300.15962,E,9.741,90.04,010821,,,A,V*33
$GNGGA,120239.00,2259.99998,N,11300.15962,E,1,24,0.53,9.2,M,,M,,*52
$GNGSA,A,3,05,21,22,24,31,03,06,16,18,29,,,1.12,0.53,0.99,1*07
$GNGSA,A,3,30,08,09,26,34,27,,,,,,,1.12,0.53,0.99,4*04
$GNGSA,A,3,01,07,08,13,17,18,14,15,,,,,1.12,0.53,0.99,3*05
$GPGSV,4,1,15,03,07,281,34,05,11,128,35,06,19,286,35,16,31,325,35,0*67
$GPGSV,4,2,15,18,29,
138,36,21,72,032,36,22,15,171,36,24,27,038,35,0*60
$GPGSV,4,3,15,29,26,049,35,31,52,234,37,30,33,118,,42,49,127,,0*62
$GPGSV,4,4,15,50,45,121,,40,21,256,,41,47,236,,0*50
$GBGSV,4,1,14,08,41,325,31,09,13,228,30,26,38,326,31,27,51,295,31,0*7B
$GBGSV,4,2,14,30,49,355,31,34,04,200,30,01,33,113,,02,64,149,31,0*75
$GBGSV,4,3,14,04,35,111,,06,64,258,,13,35,039,,20,33,171,,0*76
$GBGSV,4,4,14,29,48,307,,35,01,276,,0*75
$GAGSV,3,1,11,01,28,054,34,07,21,292,33,08,48,348,34,13,24,170,33,0*78
$GAGSV,3,2,11,14,41,109,34,15,18,054,33,17,4
08,13,17,18,14,15,,,,,1.12,0.53,0.99,3*05
$GPGSV,4,1,15,03,07,281,35,05,11,128,35,06,19,286,36,16,31,325,36,0*66
$GPGSV,4,2,15,18,29,138,36,21,72,032,36,22,15,171,35,24,27,038,36,0*60
$GPGSV,4,3,15,29,26,049,36,31,52,234,37,30,33,118,,42,49,127,,0*61
$GPGSV,4,4,15,50,45,121,,40,21,256,,41,47,236,,0*50
$GBGSV,4,1,15,08,41,325,31,09,13,228,30,2
$GNRMC,120241.00,A,2259.99999,N,11300.16542,E,9.647,89.87,010821,,,A,V*34
$GNGGA,120241.00,2259.99999,N,11300.16542,E,1,24,0.53,9.3,M,,M,,*50
$GNGSA,A,3,05,21,22,24,31,03,06,16,18,29,,,1.12,0.53,0.99,1*07
$GNGSA,A,3,30,08,09,26,34,27,,,,,,,1.12,0.53,0.99,4*04
$GNGSA,A,3,01,07,08,13,17,18,14,15,,,,,1.12,0.53,0.99,3*05
$GPGSV,4,1,15,03,07,281,35,05,11,128,35,06,19,286,35,16,31,325,36,0*
65
$GPGSV,4,2,15,18,29,138,35,21,72,032,37,22,15,171,35,24,27,038,36,0*62
$GPGSV,4,3,15,29,26,049,36,31,52,234,36,30,33,118,,42,49,127,,0*60
$GPGSV,4,4,15,50,45,121,,40,21,256,,41,47,236,,0*50
$GBGSV,4,1,15,08,41,325,30,09,13,228,31,26,38,326,31,27,51,295,31,0*7A
$GBGSV,4,2,15,30,49,355,31,34,04,200,30,01,33,113,,02,64,149,31,0*74
$GBGSV,4,3,15,04,35,111,,06,64,258,,13,35,039,,20,33,171,,0*77
$GBGSV,4,4,15,25,01,253,,29,48,307,,35,01,276,,0*46
$GAGSV,3,1,11,01,28,054,34,07,21,292,33,08,48,348,34,13,24,170,34,0*7F
$GAGSV,3,2,11,14,41,109
18,14,15,,,,,1.12,0.53,0.99,3*05
$GPGSV,4,1,15,03,07,281,36,05,10,128,35,06,19,286,35,16,31,325,36,0*67
$GPGSV,4,2,15,18,29,138,35,21,72,032,37,22,15,171,35,24,27,038,36,0*62
$GPGSV,4,3,15,29,26,049,36,31,52,234,36,30,33,118,,42,49,127,,0*60
$GPGSV,4,4,15,50,45,121,,40,21,256,,41,47,236,,0*50
$GBGSV,4,1,15,08,41,325,31,09,13,228,30,26,38,326,31,27,51,29
,1.12,0.53,0.99,3*05
$GPGSV,4,1,15,03,07,281,36,05,10,128,35,06,19,286,36,16,31,325,36,0*64
$GPGSV,4,2,15,18,29,138,36,21,72,032,36,22,15,171,35,24,27,038,35,0*63
$GPGSV,4,3,15,29,26,049,35,31,52,234,36,30,33,118,,42,49,127,,0*63
$GPGSV,4,4,15,50,45,121,,40,21,256,,41,47,236,,0*50
$GBGSV,4,1,15,08,41,325,31,09,13,228,30,26,38,326,31,27,51,295,31,0*7A
$GBGSV
$GNRMC,120244.00,A,2259.99997,N,11300.17419,E,9.711,90.51,010821,,,A,V*30
$GNGGA,120244.00,2259.99997,N,11300.17419,E,1,24,0.54,9.2,M,,M,,*53
$GNGSA,A,3,05,21,22,24,31,03,06,16,18,29,,,1.19,0.54,1.06,1*0C
$GNGSA,A,3,30,08,09,26,34,27,,,,,,,1.19,0.54,1.06,4*0F
$GNGSA,A,3,01,07,08,13,17,18,14,15,,,,,1.19,0.54,1.06,3*0E
$GPGSV,4,1,15,03,07,281,34,05,10,12
8,35,06,19,286,36,16,31,325,36,0*66
$GPGSV,4,2,15,18,29,138,36,21,72,032,36,22,16,171,36,24,27,038,36,0*60
$GPGSV,4,3,15,29,26,050,36,31,52,233,36,30,33,118,,42,49,127,,0*6F
$GPGSV,4,4,15,50,45,121,,40,21,256,,41,47,236,,0*50
$GBGSV,4,1,15,08,41,325,31,09,13,228,30,26,38,326,31,27,51,295,31,0*7A
$GBGSV,4,2,15,30,49,355,31,01,33,113,,02,64,149,31,04,35,111,,0*75
$GBGSV,4,3,15,06,64,258,,13,35,039,,20,33,171,,25,01,253,,0*76
$GBGSV,4,4,15,29,48,307,,34,04,200,16,35,01,276,,0*42
$GAGSV,3,1,11,01,28,054,34,07,21,292,3
$GNRMC,120245.00,A,2259.99997,N,11300.17713,E,9.730,89.86,010821,,,A,V*39
$GNGGA,120245.00,2259.99997,N,11300.17713,E,1,24,0.54,9.2,M,,M,,*5B
$GNGSA,A,3,05,21,22,24,31,03,06,16,18,29,,,1.19,0.54,1.06,1*0C
$GNGSA,A,3,30,08,09,26,34,27,,,,,,,1.19,0.54,1.06,4*0F
$GNGSA,A,3,01,07,08,13,17,18,14,15,,,,,1.19,0.54,1.06,3*0E
$GPGSV,4,1,15,03,07,281,35,05,10,128,35,06,19,286,36,16,31,325,36,0
*67
$GPGSV,4,2,15,18,29,138,36,21,72,032,37,22,16,171,36,24,27,038,35,0*62
$GPGSV,4,3,15,29,26,050,36,31,52,233,36,30,33,118,,42,49,127,,0*6F
$GPGSV,4,4,15,50,45,121,,40,21,256,,41,47,236,,0*50
$GBGSV,4,1,15,08,41,325,30,09,13,228,30,26,38,326,31,27,51,294,31,0*7A
$GBGSV,4,2,15,30,49,355,31,01,33,113,,02,64,149,31,04,35,111,,0*75
$GBGSV,4,3,15,06,64,258,,13,35,039,,20,33,171,,25,01,253,,0*76
$GBGSV,4,4,15,29,48,307,,34,04,200,13,35,01,276,,0*47
$GAGSV,3,1,11,01,28,054,34,07,21,292,33,08,48,348,34,13,24,170,34,0*7F
$GAGSV,3,2,11,14,4
.19,0.54,1.06,3*0E
$GPGSV,4,1,15,03,07,281,35,05,10,128,35,06,19,286,35,16,31,325,36,0*64
$GPGSV,4,2,15,18,29,138,36,21,72,032,36,22,16,171,35,24,27,038,35,0*60
$GPGSV,4,3,15,29,26,050,36,31,52,233,36,30,33,118,,42,49,127,,0*6F
$GPGSV,4,4,15,50,45,121,,40,21,256,,41,47,236,,0*50
$GBGSV,4,1,15,08,41,325,31,09,13,228,30,26,38,326,31,27,51,294,31,0*7B
$GNRMC,120247.00,A,2259.99994,N,11300.18298,E,9.737,90.29,010821,,,A,V*3B
$GNGGA,120247.00,2259.99994,N,11300.18298,E,1,24,0.54,9.4,M,,M,,*55
$GNGSA,A,3,05,21,22,24,31,03,06,16,18,29,,,1.19,0.54,1.06,1*0C
$GNGSA,A,3,30,08,09,26,34,27,,,,,,,1.19,0.54,1.06,4*0F
$GNGSA,A,3,01,07,08,13,17,18,14,15,,,,,1.19,0.54,1.06,3*0E
$GPGSV,4,1,15,03,07,281,35,05,10,128,35,06,19,286,35,16,31,325,36,0*64
$G
PGSV,4,2,15,18,29,138,36,21,72,032,36,22,16,171,35,24,27,038,36,0*63
$GPGSV,4,3,15,29,26,050,36,31,52,233,36,30,33,118,,42,49,127,,0*6F
$GPGSV,4,4,15,50,45,121,,40,21,256,,41,47,236,,0*50
$GBGSV,4,1,15,08,41,325,31,09,13,228,30,26,38,326,31,27,51,294,31,0*7B
$GBGSV,4,2,15,30,49,356,31,01,33,113,,02,64,149,31,04,35,111,,0*76
$GBGSV,4,3,15,06,64,258,,13,35,039,,20,33,171,,25,01,253,,0*76
$GBGSV,4,4,15,29,48,307,,34,04,200,12,35,01,276,,0*46
$GAGSV,3,1,11,01,28,054,34,07,21,292,33,08,48,348,33,13,24,170,34,0*78
$GAGSV,3
,17,18,14,15,,,,,1.19,0.54,1.06,3*0E
$GPGSV,4,1,15,03,07,281,35,05,10,128,35,06,19,286,35,16,31,325,36,0*64
$GPGSV,4,2,15,18,29,138,36,21,72,032,36,22,16,171,36,24,27,038,35,0*63
$GPGSV,4,3,15,29,26,050,36,31,52,233,36,30,33,118,,42,49,127,,0*6F
$GPGSV,4,4,15,50,45,121,,40,21,256,,41,47,236,,0*50
$GBGSV,4,1,15,08,41,325,31,09,13,228,30,26,38,326,31,27,51,29
$GNRMC,120249.00,A,2300.00001,N,11300.18885,E,9.731,89.56,010821,,,A,V*3D
$GNGGA,120249.00,2300.00001,N,11300.18885,E,1,24,0.54,9.3,M,,M,,*52
$GNGSA,A,3,05,21,22,24,31,03,06,16,18,29,,,1.19,0.54,1.06,1*0C
$GNGSA,A,3,30,08,09,26,34,27,,,,,,,1.19,0.54,1.06,4*0F
$GNGSA,A,3,01,07,08,13,17,18,14,15,,,,,1.19,0.54,1.06,3*0E
$GPGSV,4,1,15,03,07,281,35,05,10,128,35,06,19,286,36,16,31,325,36,0*67
$GPGSV,4,2,15,
18,29,138,35,21,72,032,37,22,16,171,35,24,27,038,36,0*61
$GPGSV,4,3,15,29,26,050,35,31,52,233,36,30,33,118,,42,49,127,,0*6C
$GPGSV,4,4,15,50,45,121,,40,21,256,,41,47,236,,0*50
$GBGSV,4,1,15,08,41,325,31,09,13,228,30,26,38,326,32,27,51,294,32,0*7B
$GBGSV,4,2,15,30,49,356,31,01,33,113,,02,64,149,31,04,35,111,,0*76
$GBGSV,4,3,15,06,64,258,,13,35,039,,20,33,171,,25,01,253,,0*76
$GBGSV,4,4,15,29,48,307,,34,04,200,12,35,01,276,,0*46
$GAGSV,3,1,11,01,28,054,33,07,21,292,33,08,48,348,34,13,24,170,33,0*7F
$GAGSV,3,2,11,14,41,109,34
3*0E
$GPGSV,4,1,15,03,07,281,35,05,10,128,34,06,19,286,35,16,31,325,35,0*66
$GPGSV,4,2,15,18,29,138,36,21,72,032,36,22,16,171,36,24,27,038,35,0*63
$GPGSV,4,3,15,29,26,050,35,31,52,233,37,30,33,118,,42,49,127,,0*6D
$GPGSV,4,4,15,50,45,121,,40,21,256,,41,47,236,,0*50
$GBGSV,4,1,15,08,41,325,31,09,13,228,30,26,38,326,31,27,51,294,31,0*7B
$GBGSV,4,2,
$GNRMC,120251.00,A,2300.00011,N,11300.19469,E,9.755,89.40,010821,,,A,V*3F
$GNGGA,120251.00,2300.00011,N,11300.19469,E,1,24,0.54,9.5,M,,M,,*53
$GNGSA,A,3,05,21,22,24,31,03,06,16,18,29,,,1.19,0.54,1.06,1*0C
$GNGSA,A,3,30,08,09,26,34,27,,,,,,,1.19,0.54,1.06,4*0F
$GNGSA,A,3,01,07,08,13,17,18,14,15,,,,,1.19,0.54,1.06,3*0E
$GPGSV,4,1,15,03,07,281,35,05,10,128,35,06,19,286,35,16,31,325,35,0*67
$GPGSV,4,2,15,18,29,1
38,36,21,72,032,37,22,16,171,35,24,27,038,36,0*62
$GPGSV,4,3,15,29,26,050,36,31,52,233,36,30,33,118,,42,49,127,,0*6F
$GPGSV,4,4,15,50,45,121,,40,21,256,,41,47,236,,0*50
$GBGSV,4,1,15,08,41,325,31,09,13,228,30,26,38,326,31,27,51,294,31,0*7B
$GBGSV,4,2,15,30,49,356,31,01,33,113,,02,64,149,31,04,35,111,,0*76
$GBGSV,4,3,15,06,64,258,,13,35,039,,20,33,171,,25,01,253,,0*76
$GBGSV,4,4,15,29,48,307,,34,04,200,11,35,01,276,,0*45
$GAGSV,3,1,11,01,28,054,33,07,21,292,33,08,48,348,34,13,24,170,33,0*7F
$GAGSV,3,2,11,14,41,109,34,15,18,054,33,17,42
$GNRMC,120252.00,A,2300.00012,N,11300.19764,E,9.684,89.92,010821,,,A,V*33
$GNGGA,120252.00,2300.00012,N,11300.19764,E,1,24,0.54,9.6,M,,M,,*5E
$GNGSA,A,3,05,21,22,24,31,03,06,16,18,29,,,1.19,0.54,1.06,1*0C
$GNGSA,A,3,30,08,09,26,34,27,,,,,,,1.19,0.54,1.06,4*0F
$GNGSA,A,3,01,07,08,13,17,18,14,15,,,,,1.19,0.54,1.06,3*0E
$GPGSV,4,1,
15,03,07,281,34,05,10,128,35,06,19,286,35,16,31,325,35,0*66
$GPGSV,4,2,15,18,29,138,36,21,72,032,37,22,16,171,35,24,27,038,36,0*62
$GPGSV,4,3,15,29,26,050,35,31,52,233,36,30,33,118,,42,49,127,,0*6C
$GPGSV,4,4,15,50,45,121,,40,21,256,,41,47,236,,0*50
$GBGSV,4,1,15,08,41,325,31,09,13,228,30,26,38,326,31,27,51,294,32,0*78
$GBGSV,4,2,15,30,49,356,31,01,33,113,,02,64,149,31,04,35,111,,0*76
$GBGSV,4,3,15,06,64,258,,13,35,039,,20,33,171,,25,01,253,,0*76
$GBGSV,4,4,15,29,48,307,,34,04,200,10,35,01,276,,0*44
$GAGSV,3,1,11,01,28,054,33,07,21
0.54,1.06,3*0E
$GPGSV,4,1,15,03,07,281,34,05,10,128,35,06,19,286,35,16,31,325,35,0*66
$GPGSV,4,2,15,18,29,138,36,21,72,032,37,22,16,171,35,24,27,038,36,0*62
$GPGSV,4,3,15,29,26,050,36,31,52,233,36,30,33,118,,42,49,127,,0*6F
$GPGSV,4,4,15,50,45,121,,40,21,256,,41,47,236,,0*50
$GBGSV,4,1,15,08,41,325,31,09,13,228,30,26,38,326,31,27,51,294,31,0*7B
$GNRMC,120254.00,A,2300.00015,N,11300.20348,E,9.741,89.65,010821,,,A,V*32
$GNGGA,120254.00,2300.00015,N,11300.20348,E,1,24,0.54,9.4,M,,M,,*5D
$GNGSA,A,3,05,21,22,24,31,03,06,16,18,29,,,1.19,0.54,1.06,1*0C
$GNGSA,A,3,30,08,09,26,34,27,,,,,,,1.19,0.54,1.06,4*0F
$GNGSA,A,3,01,07,08,13,17,18,14,15,,,,,1.19,0.54,1.06,3*0E
$GPGSV,4,1,
15,03,07,281,35,05,10,128,35,06,19,286,35,16,31,325,35,0*67
$GPGSV,4,2,15,18,29,138,36,21,72,032,37,22,16,171,35,24,27,038,36,0*62
$GPGSV,4,3,15,29,26,050,35,31,52,233,36,30,33,118,,42,49,127,,0*6C
$GPGSV,4,4,15,50,45,121,,40,21,256,,41,47,236,,0*50
$GBGSV,4,1,15,08,41,325,31,09,13,228,30,26,38,326,31,27,51,294,31,0*7B
$GBGSV,4,2,15,30,49,356,31,01,33,113,,02,64,149,31,04,35,111,,0*76
$GBGSV,4,3,15,06,64,258,,13,35,039,,20,33,171,,25,01,253,,0*76
$GBGSV,4,4,15,29,48,307,,34,04,200,10,35,01,275,,0*47
$GAGSV,3,1,11,01
,4*0F
$GNGSA,A,3,01,07,08,13,17,18,14,15,,,,,1.19,0.54,1.06,3*0E
$GPGSV,4,1,15,03,07,281,35,05,10,128,36,06,19,286,36,16,31,325,35,0*67
$GPGSV,4,2,15,18,29,138,35,21,72,032,37,22,16,171,35,24,27,038,36,0*61
$GPGSV,4,3,15,29,26,050,36,31,52,233,36,30,33,118,,42,49,127,,0*6F
$GPGSV,4,4,15,50,45,121,,40,21,256,,41,47,236,,0*50
$GBGSV,4,1,15,08,41,325,31,09
$GNRMC,120256.00,A,2300.00013,N,11300.20935,E,9.780,90.57,010821,,,A,V*32
$GNGGA,120256.00,2300.00013,N,11300.20935,E,1,23,0.54,9.4,M,,M,,*5E
$GNGSA,A,3,05,21,22,24,31,03,06,16,18,29,,,1.19,0.54,1.06,1*0C
$GNGSA,A,3,30,08,09,26,27,,,,,,,,1.19,0.54,1.06,4*08
$GNGSA,A,3,01,07,08,13,17,18,14,15,,,,,1.19,0.54,1.06,3*0E
$GPGSV,4,1,15,03,07,281,35,05,10,128,35,0
6,19,286,36,16,31,325,36,0*67
$GPGSV,4,2,15,18,29,138,36,21,72,032,37,22,16,171,35,24,27,038,36,0*62
$GPGSV,4,3,15,29,26,050,36,31,51,233,37,30,33,118,,42,49,127,,0*6D
$GPGSV,4,4,15,50,45,121,,40,21,256,,41,47,236,,0*50
$GBGSV,4,1,15,08,41,325,30,09,13,228,30,26,38,326,31,27,51,294,31,0*7A
$GBGSV,4,2,15,30,49,356,31,01,33,113,,02,64,149,31,04,35,111,,0*76
$GBGSV,4,3,15,06,64,258,,13,35,039,,20,33,171,,25,01,253,,0*76
$GBGSV,4,4,15,29,48,307,,34,04,200,,35,01,275,,0*46
$GAGSV,3,1,11,01,28,054,33,07,21,292,34,08,48,348,34,13,24,170
8
$GNGSA,A,3,01,07,08,13,17,18,14,15,,,,,1.19,0.54,1.06,3*0E
$GPGSV,4,1,15,03,07,281,35,05,10,128,35,06,19,286,36,16,31,325,35,0*64
$GPGSV,4,2,15,18,29,138,36,21,72,032,37,22,16,171,35,24,27,038,36,0*62
$GPGSV,4,3,15,29,26,050,35,31,51,233,36,30,33,118,,42,49,127,,0*6F
$GPGSV,4,4,15,50,45,121,,40,21,256,,41,47,236,,0*50
$GBGSV,4,1,15,08,41,325,31,09,13
V,4,1,15,03,07,281,35,05,10,128,34,06,19,286,35,16,31,325,36,0*65
$GPGSV,4,2,15,18,29,138,35,21,72,032,36,22,16,171,35,24,27,038,36,0*60
$GPGSV,4,3,15,29,26,050,37,31,51,233,37,30,33,118,,42,49,127,,0*6C
$GPGSV,4,4,15,50,45,121,,40,21,256,,41,47,236,,0*50
$GBGSV,4,1,14,08,41,325,31,09,13,228,30,26,38,326,31,27,51,294,32,0*79
$GBGSV,4,2,14,30,49,356,31,
8
$GNGSA,A,3,01,07,08,13,17,18,14,15,,,,,1.19,0.54,1.06,3*0E
$GPGSV,4,1,15,03,07,281,34,05,10,128,35,06,19,286,35,16,31,325,36,0*65
$GPGSV,4,2,15,18,29,138,35,21,72,032,37,22,16,171,36,24,27,038,36,0*62
$GPGSV,4,3,15,29,26,050,36,31,51,233,36,30,33,118,,42,49,127,,0*6C
$GPGSV,4,4,15,50,45,121,,40,21,256,,41,47,236,,0*50
$GBGSV,4,1,14,08,41,325,31,09,
,1.19,0.54,1.06,3*0E
$GPGSV,4,1,15,03,07,281,35,05,10,128,36,06,19,286,36,16,31,325,35,0*67
$GPGSV,4,2,15,18,29,138,35,21,72,032,36,22,16,171,35,24,27,038,36,0*60
$GPGSV,4,3,15,29,26,050,35,31,51,233,36,30,33,118,,42,49,127,,0*6F
$GPGSV,4,4,15,50,45,121,,40,21,256,,41,47,236,,0*50
$GBGSV,4,1,14,08,41,325,31,09,13,228,30,26,38,326,31,27,51,294,3
SA,A,3,01,07,08,13,17,18,14,15,,,,,1.19,0.54,1.06,3*0E
$GPGSV,4,1,15,03,07,281,35,05,10,128,35,06,19,286,35,16,31,325,36,0*64
$GPGSV,4,2,15,18,29,138,35,21,72,032,37,22,16,171,35,24,27,038,36,0*61
$GPGSV,4,3,15,29,26,050,36,31,51,233,36,30,33,118,,42,49,127,,0*6C
$GPGSV,4,4,15,50,45,121,,40,21,256,,41,47,236,,0*50
$GBGSV,4,1,14,08,41,325,30,09,13,228,31,26,38,326
$GNRMC,120302.00,A,2300.00011,N,11300.22690,E,9.648,90.25,010821,,,A,V*32
$GNGGA,120302.00,2300.00011,N,11300.22690,E,1,23,0.54,9.4,M,,M,,*5E
$GNGSA,A,3,05,21,22,24,31,03,06,16,18,29,,,1.19,0.54,1.06,1*0C
$GNGSA,A,3,30,08,09,26,27,,,,,,,,1.19,0.54,1.06,4*08
$GNGSA,A,3,01,07,08,13,17,18,14,15,,,,,1.19,0.54,1.06,3*0E
$GPGSV,4,1,15,03,07,281,35,05,10,128,35,06,19,286,35,16,31,325,36,0*64
$GPGSV,4,2
,15,18,29,138,36,21,72,032,36,22,16,171,35,24,27,038,35,0*60
$GPGSV,4,3,15,29,26,050,36,31,51,233,36,30,33,118,,42,49,127,,0*6C
$GPGSV,4,4,15,50,45,121,,40,21,256,,41,47,236,,0*50
$GBGSV,4,1,14,08,41,325,30,09,13,228,30,26,38,326,31,27,51,294,31,0*7B
$GBGSV,4,2,14,30,49,356,31,01,33,113,,02,64,149,31,04,35,111,,0*77
$GBGSV,4,3,14,06,64,258,,13,35,039,,20,33,171,,25,01,253,,0*77
$GBGSV,4,4,14,29,48,307,,34,04,200,,0*70
$GAGSV,3,1,11,01,28,054,33,07,21,292,34,08,48,348,34,13,24,170,34,0*7F
$GAGSV,3,2,11,14,41,109,34,15,18,054,33,17,
4*08
$GNGSA,A,3,01,07,08,13,17,18,14,15,,,,,1.19,0.54,1.06,3*0E
$GPGSV,4,1,15,03,07,281,35,05,10,128,35,06,19,286,35,16,31,325,36,0*64
$GPGSV,4,2,15,18,29,138,36,21,72,032,37,22,16,171,35,24,27,038,35,0*61
$GPGSV,4,3,15,29,26,050,35,31,51,233,36,30,33,118,,42,49,127,,0*6F
$GPGSV,4,4,15,50,45,121,,40,21,256,,41,47,236,,0*50
$GBGSV,4,1,14,08,41,325,31,0
4,1.06,3*0E
$GPGSV,4,1,15,03,07,281,35,05,10,128,35,06,19,287,35,16,31,325,36,0*65
$GPGSV,4,2,15,18,29,138,36,21,72,032,36,22,16,171,35,24,27,038,35,0*60
$GPGSV,4,3,15,29,26,050,35,31,51,233,37,30,33,118,,42,49,127,,0*6E
$GPGSV,4,4,15,50,45,121,,40,21,256,,41,47,236,,0*50
$GBGSV,4,1,14,08,41,325,31,09,13,228,30,26,38,326,31,27,51,294,31,0*7A
$GBGS
8
$GNGSA,A,3,01,07,08,13,17,18,14,15,,,,,1.19,0.54,1.06,3*0E
$GPGSV,4,1,15,03,07,281,35,05,10,128,35,06,19,287,36,16,31,325,36,0*66
$GPGSV,4,2,15,18,29,138,35,21,72,032,36,22,16,171,36,24,27,038,36,0*63
$GPGSV,4,3,15,29,26,050,35,31,51,233,36,30,33,118,,42,49,127,,0*6F
$GPGSV,4,4,15,50,45,121,,40,21,256,,41,47,236,,0*50
$GBGSV,4,1,14,08,41,325,30,09,13,228,3
$GNRMC,120306.00,A,2300.00013,N,11300.23862,E,9.695,90.90,010821,,,A,V*38
$GNGGA,120306.00,2300.00013,N,11300.23862,E,1,23,0.54,9.3,M,,M,,*5D
$GNGSA,A,3,05,21,22,24,31,03,06,16,18,29,,,1.19,0.54,1.06,1*0C
$GNGSA,A,3,30,08,09,26,27,,,,,,,,1.19,0.54,1.06,4*08
$GNGSA,A,3,01,07,08,13,17,18,14,15,,,,,1.19,0.54,1.06,3*0E
$GPGSV,4,1,15,03,07,281,35,05,10,128,35,06,19,
287,35,16,31,325,36,0*65
$GPGSV,4,2,15,18,29,138,36,21,72,032,36,22,16,171,35,24,27,038,35,0*60
$GPGSV,4,3,15,29,26,050,35,31,51,233,36,30,33,118,,42,49,127,,0*6F
$GPGSV,4,4,15,50,45,121,,40,21,256,,41,47,236,,0*50
$GBGSV,4,1,14,08,41,325,30,09,13,228,30,26,38,326,31,27,51,294,31,0*7B
$GBGSV,4,2,14,30,49,356,31,01,33,113,,02,64,149,31,04,35,111,,0*77
$GBGSV,4,3,14,06,64,258,,13,35,039,,20,33,171,,25,01,253,,0*77
$GBGSV,4,4,14,29,48,307,,34,04,200,,0*70
$GAGSV,3,1,11,01,28,054,33,07,21,292,33,08,48,348,34,13,24,170,34,0*7
8
$GNGSA,A,3,01,07,08,13,17,18,14,15,,,,,1.19,0.54,1.06,3*0E
$GPGSV,4,1,15,03,07,281,35,05,10,128,35,06,19,287,35,16,31,325,36,0*65
$GPGSV,4,2,15,18,29,138,36,21,72,032,37,22,16,171,35,24,27,038,36,0*62
$GPGSV,4,3,15,29,26,050,35,31,51,233,36,30,33,118,,42,49,127,,0*6F
$GPGSV,4,4,15,50,45,121,,40,21,256,,41,47,236,,0*50
$GBGSV,4,1,14,08,41,325,31,09,1
$GNRMC,120308.00,A,2300.00012,N,11300.24449,E,9.748,89.96,010821,,,A,V*3A
$GNGGA,120308.00,2300.00012,N,11300.24449,E,1,23,0.54,9.5,M,,M,,*56
$GNGSA,A,3,05,21,22,24,31,03,06,16,18,29,,,1.19,0.54,1.06,1*0C
$GNGSA,A,3,30,08,09,26,27,,,,,,,,1.19,0.54,1.06,4*08
$GNGSA,A,3,01,07,08,13,17,18,14,15,,,,,1.19,0.54,1.06,3*0E
$GPGSV
,4,1,15,03,07,281,35,05,10,128,35,06,19,287,35,16,31,325,36,0*65
$GPGSV,4,2,15,18,29,138,36,21,72,032,36,22,16,170,35,24,27,038,35,0*61
$GPGSV,4,3,15,29,26,050,36,31,51,233,36,30,33,118,,42,49,127,,0*6C
$GPGSV,4,4,15,50,45,121,,40,21,256,,41,47,236,,0*50
$GBGSV,4,1,14,08,41,325,31,09,13,228,30,26,38,326,31,27,51,294,31,0*7A
$GBGSV,4,2,14,30,49,356,31,01,33,113,,02,64,149,31,04,35,111,,0*77
$GBGSV,4,3,14,06,64,258,,13,35,039,,20,33,171,,25,01,253,,0*77
$GBGSV,4,4,14,29,48,307,,34,04,200,,0*70
$GAGSV,3,1,11,01,28,054,34,07,21,292,34,0
,A,3,01,07,08,13,17,18,14,15,,,,,1.19,0.54,1.06,3*0E
$GPGSV,4,1,15,03,07,281,35,05,10,128,35,06,19,287,36,16,31,325,37,0*67
$GPGSV,4,2,15,18,29,138,35,21,72,032,37,22,16,170,34,24,27,038,36,0*61
$GPGSV,4,3,15,29,26,050,36,31,51,233,36,30,33,118,,42,49,127,,0*6C
$GPGSV,4,4,15,50,45,121,,40,21,256,,41,47,236,,0*50
$GBGSV,4,1,14,08,41,325,31,09,13
$GNRMC,120310.00,A,2300.00012,N,11300.25039,E,9.724,89.97,010821,,,A,V*3A
$GNGGA,120310.00,2300.00012,N,11300.25039,E,1,23,0.54,9.5,M,,M,,*5D
$GNGSA,A,3,05,21,22,24,31,03,06,16,18,29,,,1.19,0.54,1.06,1*0C
$GNGSA,A,3,30,08,09,26,27,,,,,,,,1.19,0.54,1.06,4*08
$GNGSA,A,3,01,07,08,13,17,18,14,15,,,,,1.19,0.54,1.06,3*0E
$GPGSV,4,1,15,03,07,281,35,05,10,128,35,
06,19,287,36,16,31,325,36,0*66
$GPGSV,4,2,15,18,29,138,35,21,72,032,37,22,16,170,35,24,26,038,36,0*61
$GPGSV,4,3,15,29,26,050,36,31,51,233,36,30,33,118,,42,49,127,,0*6C
$GPGSV,4,4,15,50,45,121,,40,21,256,,41,47,236,,0*50
$GBGSV,4,1,14,08,41,325,31,09,13,228,30,26,38,326,31,27,51,294,32,0*79
$GBGSV,4,2,14,30,49,356,31,01,33,113,,02,64,149,31,04,35,111,,0*77
$GBGSV,4,3,14,06,64,258,,13,35,039,,20,33,171,,25,01,253,,0*77
$GBGSV,4,4,14,29,48,307,,34,04,200,,0*70
$GAGSV,3,1,11,01,28,054,33,07,21,292,34,08,48,349,34,13,24,170,34,0*
,A,3,01,07,08,13,17,18,14,15,,,,,1.19,0.54,1.06,3*0E
$GPGSV,4,1,15,03,07,281,35,05,10,128,35,06,19,287,35,16,31,325,35,0*66
$GPGSV,4,2,15,18,29,138,36,21,72,032,37,22,16,170,35,24,26,038,36,0*62
$GPGSV,4,3,15,29,26,050,36,31,51,233,36,30,33,118,,42,49,127,,0*6C
$GPGSV,4,4,15,50,45,121,,40,21,256,,41,47,236,,0*50
$GBGSV,4,1,14,08,41,325,31,09,13,228,30,2
$GNRMC,120312.00,A,2300.00010,N,11300.25619,E,9.630,91.16,010821,,,A,V*3A
$GNGGA,120312.00,2300.00010,N,11300.25619,E,1,23,0.54,9.6,M,,M,,*5A
$GNGSA,A,3,05,21,22,24,31,03,06,16,18,29,,,1.19,0.54,1.06,1*0C
$GNGSA,A,3,30,08,09,26,27,,,,,,,,1.19,0.54,1.06,4*08
$GNGSA,A,3,01,07,08,13,17,18,14,15,,,,,1.19,0.54,1.06,3*0E
$GPGSV,4,1,15,03,07,281,35,05,10,128,35,06,19,287,35,16,31,325,36,0*65
$GP
GSV,4,2,15,18,29,138,36,21,72,032,37,22,16,170,34,24,26,038,36,0*63
$GPGSV,4,3,15,29,26,050,36,31,51,233,36,30,33,118,,42,49,127,,0*6C
$GPGSV,4,4,15,50,45,121,,40,21,256,,41,47,236,,0*50
$GBGSV,4,1,14,08,41,325,31,09,13,228,30,26,38,326,31,27,51,294,32,0*79
$GBGSV,4,2,14,30,49,356,31,01,33,113,,02,64,149,31,04,35,111,,0*77
$GBGSV,4,3,14,06,64,258,,13,35,039,,20,33,171,,25,01,253,,0*77
$GBGSV,4,4,14,29,48,307,,34,04,200,,0*70
$GAGSV,3,1,11,01,28,054,33,07,21,292,33,08,48,349,35,13,24,170,34,0*78
$GAGSV,3,2,11,14
8,13,17,18,14,15,,,,,1.19,0.54,1.06,3*0E
$GPGSV,4,1,15,03,07,281,35,05,10,128,35,06,19,287,36,16,31,325,36,0*66
$GPGSV,4,2,15,18,29,138,35,21,72,032,37,22,16,170,35,24,26,038,36,0*61
$GPGSV,4,3,15,29,26,050,36,31,51,233,36,30,33,118,,42,49,127,,0*6C
$GPGSV,4,4,15,50,45,121,,40,21,256,,41,47,236,,0*50
$GBGSV,4,1,14,08,41,325,31,09,13,228,30,26,38,326,31,27,51,294,32
0.54,1.06,4*08
$GNGSA,A,3,01,07,08,13,17,18,14,15,,,,,1.19,0.54,1.06,3*0E
$GPGSV,4,1,15,03,07,281,35,05,10,128,35,06,19,287,35,16,31,325,36,0*65
$GPGSV,4,2,15,18,29,138,36,21,72,032,37,22,16,170,35,24,26,038,36,0*62
$GPGSV,4,3,15,29,26,050,35,31,51,233,36,30,33,118,,42,49,127,,0*6F
$GPGSV,4,4,15,50,45,121,,40,21,256,,41,47,236,,0*50
$GBGSV,4,
,17,18,14,15,,,,,1.19,0.54,1.06,3*0E
$GPGSV,4,1,15,03,07,281,35,05,10,128,35,06,19,287,35,16,31,325,36,0*65
$GPGSV,4,2,15,18,29,138,36,21,72,032,36,22,16,170,35,24,26,038,36,0*63
$GPGSV,4,3,15,29,26,050,35,31,51,233,36,30,33,118,,42,49,127,,0*6F
$GPGSV,4,4,15,50,45,121,,40,21,256,,41,47,236,,0*50
$GBGSV,4,1,14,08,41,325,30,09,13,228,30,26,38,32
$GNRMC,120316.00,A,2300.00007,N,11300.26788,E,9.796,89.66,010821,,,A,V*31
$GNGGA,120316.00,2300.00007,N,11300.26788,E,1,23,0.54,9.8,M,,M,,*5C
$GNGSA,A,3,05,21,22,24,31,03,06,16,18,29,,,1.19,0.54,1.06,1*0C
$GNGSA,A,3,30,08,09,26,27,,,,,,,,1.19,0.54,1.06,4*08
$GNGSA,A,3,01,07,08,13,17,18,14,15,,,,,1.19,0.54,1.06,3*0E
$GPGSV,4,1,15,03,07,28
1,35,05,10,128,35,06,19,287,35,16,31,325,36,0*65
$GPGSV,4,2,15,18,29,138,35,21,72,032,37,22,16,170,35,24,26,038,35,0*62
$GPGSV,4,3,15,29,26,050,36,31,51,233,36,30,33,118,,42,49,127,,0*6C
$GPGSV,4,4,15,50,45,121,,40,21,256,,41,47,236,,0*50
$GBGSV,4,1,14,08,41,325,30,09,13,228,31,26,38,326,31,27,51,294,32,0*79
$GBGSV,4,2,14,30,49,356,31,01,33,113,,02,64,149,31,04,35,111,,0*77
$GBGSV,4,3,14,06,64,258,,13,35,039,,20,33,171,,25,01,253,,0*77
$GBGSV,4,4,14,29,48,307,,34,04,200,,0*70
$GAGSV,3,1,11,01,28,054,33,07,21,292,33,08,48,349,34,13,25,170,33,
1.21,0.55,1.08,4*0C
$GNGSA,A,3,01,07,08,13,17,18,14,15,,,,,1.21,0.55,1.08,3*0A
$GPGSV,4,1,15,03,07,281,35,05,10,128,35,06,19,287,36,16,31,325,36,0*66
$GPGSV,4,2,15,18,29,138,36,21,72,032,37,22,16,170,35,24,26,038,35,0*61
$GPGSV,4,3,15,29,26,050,36,31,51,233,37,30,33,118,,42,49,127,,0*6D
$GPGSV,4,4,15,50,45,121,,40,21,256,,41,47,236,,0*50
$GBGSV,4,1
$GNRMC,120318.00,A,2300.00007,N,11300.27375,E,9.647,90.70,010821,,,A,V*3A
$GNGGA,120318.00,2300.00007,N,11300.27375,E,1,23,0.54,10.0,M,,M,,*65
$GNGSA,A,3,05,21,22,24,31,03,06,16,18,29,,,1.19,0.54,1.06,1*0C
$GNGSA,A,3,30,08,09,26,27,,,,,,,,1.19,0.54,1.06,4*08
$GNGSA,A,3,01,07,08,13,17,18,14,15,,,,,1.19,0.54,1.06,3*0E
$GPGSV,4,1,15,03,07,281,35,05,10,128,35,06,19,287,35,16,31,325,36,0*65
$
GPGSV,4,2,15,18,29,138,36,21,72,032,36,22,16,170,35,24,26,038,35,0*60
$GPGSV,4,3,15,29,26,050,36,31,51,233,37,30,33,118,,42,49,127,,0*6D
$GPGSV,4,4,15,50,45,121,,40,21,256,,41,47,236,,0*50
$GBGSV,4,1,14,08,41,325,31,09,13,228,30,26,38,326,31,27,51,294,31,0*7A
$GBGSV,4,2,14,30,49,356,31,01,33,113,,02,64,149,31,04,35,111,,0*77
$GBGSV,4,3,14,06,64,258,,13,35,039,,20,33,171,,25,01,253,,0*77
$GBGSV,4,4,14,29,48,307,,34,04,200,,0*70
$GAGSV,3,1,11,01,28,054,33,07,21,292,33,08,48,349,35,13,25,170,34,0*79
$GAGSV,3,2,11,14,41,109,34,15,18,054
V,4,1,15,03,07,281,35,05,10,128,36,06,19,287,36,16,31,325,36,0*65
$GPGSV,4,2,15,18,29,138,35,21,72,032,36,22,16,170,35,24,26,038,36,0*60
$GPGSV,4,3,15,29,26,050,36,31,51,233,36,30,33,118,,42,49,127,,0*6C
$GPGSV,4,4,15,50,45,121,,40,21,256,,41,47,236,,0*50
$GBGSV,4,1,14,08,41,325,31,09,13,228,30,26,38,326,31,27,51,294,31,0*7A
$GBGSV,4,2,14,30,4
$GNRMC,120320.00,A,2300.00004,N,11300.27958,E,9.669,90.06,010821,,,A,V*3A
$GNGGA,120320.00,2300.00004,N,11300.27958,E,1,23,0.56,9.9,M,,M,,*5B
$GNGSA,A,3,05,21,22,24,31,03,06,16,18,29,,,1.21,0.56,1.07,1*04
$GNGSA,A,3,30,08,09,26,27,,,,,,,,1.21,0.56,1.07,4*00
$GNGSA,A,3,01,07,08,13,17,18,14,15,,,,,1.21,0.56,1.07,3*06
$GPGSV,4,1,15,03,07,281,34,05,10,128,3
4,06,19,287,35,16,31,325,35,0*66
$GPGSV,4,2,15,18,29,138,36,21,72,032,36,22,16,170,36,24,26,038,35,0*63
$GPGSV,4,3,15,29,26,050,35,31,51,233,36,30,33,118,,42,49,127,,0*6F
$GPGSV,4,4,15,50,45,121,,40,21,256,,41,47,236,,0*50
$GBGSV,4,1,14,08,41,325,31,09,13,228,30,26,38,326,31,27,51,294,31,0*7A
$GBGSV,4,2,14,30,49,356,31,01,33,113,,02,64,149,31,04,35,111,,0*77
$GBGSV,4,3,14,06,64,258,,13,35,039,,20,33,171,,25,01,253,,0*77
$GBGSV,4,4,14,29,48,307,,34,04,200,,0*70
$GAGSV,3,1,11,01,28,054,33,07,21,292,33,08,48,349,34,13,25,17
.54,1.06,4*08
$GNGSA,A,3,01,07,08,13,17,18,14,15,,,,,1.19,0.54,1.06,3*0E
$GPGSV,4,1,15,03,07,281,35,05,10,128,34,06,19,287,35,16,31,325,36,0*64
$GPGSV,4,2,15,18,29,138,36,21,72,032,37,22,16,170,35,24,26,038,36,0*62
$GPGSV,4,3,15,29,26,050,36,31,51,233,37,30,33,118,,42,49,127,,0*6D
$GPGSV,4,4,15,50,45,121,,40,21,256,,41,47,236,,0*50
$GBGSV,4,1,14,08,41,3
*0E
$GPGSV,4,1,15,03,07,281,34,05,10,128,34,06,19,287,35,16,31,325,35,0*66
$GPGSV,4,2,15,18,29,138,37,21,72,032,37,22,16,170,35,24,26,038,36,0*63
$GPGSV,4,3,15,29,26,050,35,31,51,233,36,30,33,118,,42,49,127,,0*6F
$GPGSV,4,4,15,50,45,121,,40,21,256,,41,47,236,,0*50
$GBGSV,4,1,14,08,41,325,31,09,13,228,30,26,38,326,31,27,51,294,31,0*7A
$GBGSV,4,2,14,30,49,356,31
14,15,,,,,1.19,0.54,1.06,3*0E
$GPGSV,4,1,15,03,07,281,34,05,10,128,35,06,19,287,35,16,31,325,35,0*67
$GPGSV,4,2,15,18,29,138,36,21,72,032,37,22,16,170,35,24,26,038,35,0*61
$GPGSV,4,3,15,29,26,050,36,31,51,233,36,30,33,118,,42,49,127,,0*6C
$GPGSV,4,4,15,50,45,121,,40,21,256,,41,47,236,,0*50
$GBGSV,4,1,14,08,41,325,31,09,13,228,30,26,38,326,32,27,51,294,
$GNRMC,120324.00,A,2300.00008,N,11300.29122,E,9.624,90.10,010821,,,A,V*37
$GNGGA,120324.00,2300.00008,N,11300.29122,E,1,23,0.54,9.7,M,,M,,*54
$GNGSA,A,3,05,21,22,24,31,03,06,16,18,29,,,1.19,0.54,1.06,1*0C
$GNGSA,A,3,30,08,09,26,27,,,,,,,,1.19,0.54,1.06,4*08
$GNGSA,A,3,01,07,08,13,17,18,14,15,,,,,1.19,0.54,1.06,3*0E
$GPGSV,4,1,15,03,07,281,35,05,10,128,35,06,19,287,35,16,31,325,36,0*65
$GPGSV,4,2,15,
18,29,138,36,21,72,032,37,22,16,170,36,24,26,038,36,0*61
$GPGSV,4,3,15,29,26,050,35,31,51,233,36,30,33,118,,42,49,127,,0*6F
$GPGSV,4,4,15,50,45,121,,40,21,256,,41,47,236,,0*50
$GBGSV,4,1,14,08,41,325,31,09,13,228,30,26,38,326,31,27,51,294,31,0*7A
$GBGSV,4,2,14,30,49,356,32,01,33,113,,02,64,149,31,04,35,111,,0*74
$GBGSV,4,3,14,06,64,258,,13,35,039,,20,33,171,,25,01,253,,0*77
$GBGSV,4,4,14,29,48,307,,34,04,200,,0*70
$GAGSV,3,1,10,01,28,054,34,07,21,292,33,08,48,349,34,13,25,170,33,0*79
$GAGSV,3,2,10,14,41,109,34,15,18
.06,3*0E
$GPGSV,4,1,15,03,07,281,35,05,10,128,35,06,19,287,35,16,31,325,36,0*65
$GPGSV,4,2,15,18,30,138,35,21,72,032,37,22,16,170,35,24,26,038,36,0*69
$GPGSV,4,3,15,29,26,050,36,31,51,233,36,30,33,118,,42,49,127,,0*6C
$GPGSV,4,4,15,50,45,121,,40,21,256,,41,47,236,,0*50
$GBGSV,4,1,14,08,41,325,31,09,13,228,30,26,38,326,31,27,51,294,31,0*7A
$GBGSV,4,2,14,
$GNRMC,120326.00,A,2300.00012,N,11300.29708,E,9.816,89.56,010821,,,A,V*35
$GNGGA,120326.00,2300.00012,N,11300.29708,E,1,23,0.54,9.9,M,,M,,*5D
$GNGSA,A,3,05,21,22,24,31,03,06,16,18,29,,,1.19,0.54,1.06,1*0C
$GNGSA,A,3,30,08,09,26,27,,,,,,,,1.19,0.54,1.06,4*08
$GNGSA,A,3,01,07,08,13,17,18,14,15,,,,,1.19,0.54,1.06,3*0E
$GPGSV,4,1,15,03,07,281,35,05,10,128,35,06,19,287,
35,16,31,325,36,0*65
$GPGSV,4,2,15,18,30,138,36,21,72,032,36,22,16,170,35,24,26,038,36,0*6B
$GPGSV,4,3,15,29,26,050,35,31,51,233,36,30,33,118,,42,49,127,,0*6F
$GPGSV,4,4,15,50,45,121,,40,21,256,,41,47,236,,0*50
$GBGSV,4,1,14,08,41,325,30,09,13,228,30,26,38,326,31,27,51,294,31,0*7B
$GBGSV,4,2,14,30,49,356,31,01,33,113,,02,64,149,31,04,35,111,,0*77
$GBGSV,4,3,14,06,64,258,,13,35,039,,20,33,171,,25,01,253,,0*77
$GBGSV,4,4,14,29,48,307,,34,04,200,,0*70
$GAGSV,3,1,10,01,28,054,33,07,21,292,33,08,48,349,34,13,25,170,34,0*79

15,,,,,1.19,0.54,1.06,3*0E
$GPGSV,4,1,15,03,07,281,36,05,10,128,36,06,19,287,36,16,31,325,36,0*66
$GPGSV,4,2,15,18,30,138,36,21,72,032,37,22,16,170,35,24,26,038,36,0*6A
$GPGSV,4,3,15,29,26,050,35,31,51,233,36,30,33,118,,42,49,127,,0*6F
$GPGSV,4,4,15,50,45,121,,40,21,256,,41,47,236,,0*50
$GBGSV,4,1,14,08,42,325,30,09,13,228,30,26,38,326,31,27,
$GNRMC,120328.00,A,2300.00012,N,11300.30294,E,9.671,91.05,010821,,,A,V*33
$GNGGA,120328.00,2300.00012,N,11300.30294,E,1,23,0.54,10.0,M,,M,,*6A
$GNGSA,A,3,05,21,22,24,31,03,06,16,18,29,,,1.19,0.54,1.06,1*0C
$GNGSA,A,3,30,08,09,26,27,,,,,,,,1.19,0.54,1.06,4*08
$GNGSA,A,3,01,07,08,13,17,18,14,15,,,,,1.19,0.54,1.06,3*0E
$GPGSV,4,1,15,03,07,281,34,05,10,128,35,06
,19,287,35,16,31,325,36,0*64
$GPGSV,4,2,15,18,30,138,35,21,72,032,37,22,16,170,35,24,26,038,36,0*69
$GPGSV,4,3,15,29,26,050,36,31,51,233,36,30,33,118,,42,49,127,,0*6C
$GPGSV,4,4,15,50,45,121,,40,21,256,,41,47,236,,0*50
$GBGSV,4,1,14,08,42,325,31,09,13,228,30,26,38,326,31,27,51,294,31,0*79
$GBGSV,4,2,14,30,49,356,31,01,33,113,,02,64,149,31,04,35,111,,0*77
$GBGSV,4,3,14,06,64,258,,13,35,039,,20,33,171,,25,01,253,,0*77
$GBGSV,4,4,14,29,48,307,,34,04,200,,0*70
$GAGSV,3,1,10,01,28,054,33,07,21,292,33,08,48,349,35,13,25,170,33,0*7F
$G
13,17,18,14,15,,,,,1.19,0.54,1.06,3*0E
$GPGSV,4,1,15,03,07,281,35,05,10,128,35,06,19,287,35,16,31,325,36,0*65
$GPGSV,4,2,15,18,30,138,35,21,72,032,37,22,16,170,36,24,26,038,36,0*6A
$GPGSV,4,3,15,29,26,050,36,31,51,233,36,30,33,118,,42,49,127,,0*6C
$GPGSV,4,4,15,50,45,121,,40,21,256,,41,47,236,,0*50
$GBGSV,4,1,14,08,42,325,31,09,13,228,30,26,38,326,31,2
$GNRMC,120330.00,A,2300.00007,N,11300.30881,E,9.769,90.58,010821,,,A,V*31
$GNGGA,120330.00,2300.00007,N,11300.30881,E,1,23,0.54,10.0,M,,M,,*69
$GNGSA,A,3,05,21,22,24,31,03,06,16,18,29,,,1.19,0.54,1.06,1*0C
$GNGSA,A,3,30,08,09,26,27,,,,,,,,1.19,0.54,1.06,4*08
$GNGSA,A,3,01,07,08,13,17,18,14,15,,,,,1.19,0.54,1.06,3*0E
$GPGSV,4,1,15,03,07,281,34
,05,10,128,35,06,19,287,35,16,31,325,35,0*67
$GPGSV,4,2,15,18,30,138,35,21,72,032,36,22,16,170,36,24,26,038,36,0*6B
$GPGSV,4,3,15,29,26,050,35,31,51,233,36,30,33,118,,42,49,127,,0*6F
$GPGSV,4,4,15,50,45,121,,40,21,256,,41,47,236,,0*50
$GBGSV,4,1,14,08,42,325,30,09,13,228,30,26,38,326,31,27,51,294,31,0*78
$GBGSV,4,2,14,30,49,356,31,01,33,113,,02,64,149,31,04,35,111,,0*77
$GBGSV,4,3,14,06,64,258,,13,35,039,,20,33,171,,25,01,253,,0*77
$GBGSV,4,4,14,29,48,307,,34,04,200,,0*70
$GAGSV,3,1,10,01,28,055,33,07,21,292,33,08,48,349,34,13,
,A,3,01,07,08,13,17,18,14,15,,,,,1.19,0.54,1.06,3*0E
$GPGSV,4,1,15,03,07,281,35,05,10,128,35,06,19,287,35,16,31,325,36,0*65
$GPGSV,4,2,15,18,30,138,36,21,72,032,37,22,16,170,35,24,26,038,36,0*6A
$GPGSV,4,3,15,29,26,050,36,31,51,233,36,30,33,118,,42,49,127,,0*6C
$GPGSV,4,4,15,50,45,121,,40,21,256,,41,47,236,,0*50
$GBGSV,4,1,14,08,42,325,31,09,13
,15,,,,,1.19,0.54,1.06,3*0E
$GPGSV,4,1,15,03,07,281,35,05,10,128,35,06,19,287,35,16,31,325,36,0*65
$GPGSV,4,2,15,18,30,138,36,21,72,032,37,22,16,170,35,24,26,038,36,0*6A
$GPGSV,4,3,15,29,26,050,36,31,51,233,36,30,33,118,,42,49,127,,0*6C
$GPGSV,4,4,15,50,45,121,,40,21,256,,41,47,236,,0*50
$GBGSV,4,1,14,08,42,325,31,09,13,228,30,26,38,326,31,27,51,294,31
$GNRMC,120333.00,A,2300.00007,N,11300.31764,E,9.829,89.92,010821,,,A,V*32
$GNGGA,120333.00,2300.00007,N,11300.31764,E,1,23,0.54,10.0,M,,M,,*6F
$GNGSA,A,3,05,21,22,24,31,03,06,16,18,29,,,1.19,0.54,1.06,1*0C
$GNGSA,A,3,30,08,09,26,27,,,,,,,,1.19,0.54,1.06,4*08
$GNGSA,A,3,01,07,08,13,17,18,14,15,,,,,1.19,0.54,1.06,3*0E
$GPGSV,4,1,15,03,07,281,35,05,10,128
,35,06,19,287,35,16,31,325,36,0*65
$GPGSV,4,2,15,18,30,138,36,21,72,032,37,22,16,170,35,24,26,038,36,0*6A
$GPGSV,4,3,15,29,26,050,36,31,51,233,37,30,33,118,,42,49,127,,0*6D
$GPGSV,4,4,15,50,45,121,,40,21,256,,41,47,236,,0*50
$GBGSV,4,1,14,08,42,325,31,09,13,228,30,26,38,326,31,27,51,294,32,0*7A
$GBGSV,4,2,14,30,49,356,31,01,33,113,,02,64,149,31,04,35,111,,0*77
$GBGSV,4,3,14,06,64,258,,13,34,039,,20,33,171,,25,01,253,,0*76
$GBGSV,4,4,14,29,48,307,,34,04,200,,0*70
$GAGSV,3,1,10,01,28,055,34,07,21,292,33,08,48,349,34,13,25,170,34,
4*08
$GNGSA,A,3,01,07,08,13,17,18,14,15,,,,,1.19,0.54,1.06,3*0E
$GPGSV,4,1,15,03,07,281,35,05,10,128,35,06,19,287,36,16,31,325,36,0*66
$GPGSV,4,2,15,18,30,138,35,21,72,032,37,22,16,170,36,24,26,038,36,0*6A
$GPGSV,4,3,15,29,26,050,35,31,51,233,36,30,33,118,,42,49,127,,0*6F
$GPGSV,4,4,15,50,45,121,,40,21,256,,41,47,236,,0*50
$GBGSV,4,1,14,08,42
$GNRMC,120335.00,A,2300.00007,N,11300.32353,E,9.689,89.95,010821,,,A,V*34
$GNGGA,120335.00,2300.00007,N,11300.32353,E,1,23,0.54,10.1,M,,M,,*6B
$GNGSA,A,3,05,21,22,24,31,03,06,16,18,29,,,1.19,0.54,1.06,1*0C
$GNGSA,A,3,30,08,09,26,27,,,,,,,,1.19,0.54,1.06,4*08
$GNGSA,A,3,01,07,08,13,17,18,14,15,,,,,1.19,0.54,1.06,3*0E
$GPGSV,4,1,15,03,07,281,
35,05,10,128,35,06,19,287,35,16,31,325,36,0*65
$GPGSV,4,2,15,18,30,138,36,21,72,032,37,22,16,170,35,24,26,038,36,0*6A
$GPGSV,4,3,15,29,26,050,36,31,51,233,36,30,33,118,,42,49,127,,0*6C
$GPGSV,4,4,15,50,45,121,,40,21,256,,41,47,236,,0*50
$GBGSV,4,1,14,08,42,325,31,09,13,228,30,26,38,326,31,27,51,294,32,0*7A
$GBGSV,4,2,14,30,49,356,31,01,33,113,,02,64,149,31,04,35,111,,0*77
$GBGSV,4,3,14,06,64,258,,13,34,039,,20,33,171,,25,01,253,,0*76
$GBGSV,4,4,14,29,48,307,,34,04,200,,0*70
$GAGSV,3,1,10,01,28,055,33,07,21,292,34,08,48,349,
6,4*08
$GNGSA,A,3,01,07,08,13,17,18,14,15,,,,,1.19,0.54,1.06,3*0E
$GPGSV,4,1,15,03,07,281,35,05,10,128,35,06,19,287,35,16,32,325,36,0*66
$GPGSV,4,2,15,18,30,138,36,21,72,032,37,22,16,170,35,24,26,038,36,0*6A
$GPGSV,4,3,15,29,26,050,36,31,51,233,37,30,33,118,,42,49,127,,0*6D
$GPGSV,4,4,15,50,45,121,,40,21,256,,41,47,236,,0*50
$GBGSV,4,1,14,08,42,325,31,
6,3*0E
$GPGSV,4,1,15,03,07,281,35,05,10,128,35,06,19,287,35,16,32,325,36,0*66
$GPGSV,4,2,15,18,30,138,36,21,72,032,37,22,16,170,35,24,26,038,36,0*6A
$GPGSV,4,3,15,29,26,050,36,31,51,233,36,30,33,118,,42,49,127,,0*6C
$GPGSV,4,4,15,50,45,121,,40,21,256,,41,47,236,,0*50
$GBGSV,4,1,14,08,42,325,31,09,13,228,30,26,38,326,31,27,51,294,31,0*79
$GBGSV,4,2,14,30,49,356,
1.19,0.54,1.06,3*0E
$GPGSV,4,1,15,03,07,281,35,05,10,128,35,06,19,287,35,16,32,325,36,0*66
$GPGSV,4,2,15,18,30,138,36,21,72,032,36,22,16,170,35,24,26,038,35,0*68
$GPGSV,4,3,15,29,26,050,35,31,51,233,37,30,33,118,,42,49,127,,0*6E
$GPGSV,4,4,15,50,45,121,,40,21,256,,41,47,236,,0*50
$GBGSV,4,1,14,08,42,325,31,09,13,228,30,26,38,326,31,27,51,294,32
*08
$GNGSA,A,3,01,07,08,13,17,18,14,15,,,,,1.19,0.54,1.06,3*0E
$GPGSV,4,1,15,03,07,281,35,05,10,128,35,06,19,287,36,16,32,325,36,0*65
$GPGSV,4,2,15,18,30,138,35,21,72,032,37,22,16,170,35,24,26,038,36,0*69
$GPGSV,4,3,15,29,26,050,36,31,51,233,36,30,33,118,,42,49,127,,0*6C
$GPGSV,4,4,15,50,45,121,,40,21,256,,41,47,236,,0*50
$GBGSV,4,1,14,08,42,325,31,09,13
$GNRMC,120340.00,A,2300.00001,N,11300.33807,E,9.644,90.39,010821,,,A,V*34
$GNGGA,120340.00,2300.00001,N,11300.33807,E,1,23,0.54,9.9,M,,M,,*54
$GNGSA,A,3,05,21,22,24,31,03,06,16,18,29,,,1.19,0.54,1.06,1*0C
$GNGSA,A,3,30,08,09,26,27,,,,,,,,1.19,0.54,1.06,4*08
$GNGSA,A,3,01,07,08,13,17,18,14,15,,,,,1.19,0.54,1.06,3*0E
$GPGSV,4,1,15,03,07,281,34,05,10,128
,35,06,19,287,35,16,32,325,36,0*67
$GPGSV,4,2,15,18,30,138,36,21,72,032,37,22,16,170,36,24,26,038,36,0*69
$GPGSV,4,3,15,29,26,050,35,31,51,233,36,30,33,118,,42,49,127,,0*6F
$GPGSV,4,4,15,50,45,121,,40,21,256,,41,47,236,,0*50
$GBGSV,4,1,14,08,42,325,31,09,13,228,30,26,38,326,31,27,51,294,32,0*7A
$GBGSV,4,2,14,30,49,356,31,01,33,113,,02,64,149,31,04,35,111,,0*77
$GBGSV,4,3,14,06,64,258,,13,34,039,,20,34,171,,25,01,253,,0*71
$GBGSV,4,4,14,29,48,307,,34,04,200,,0*70
$GAGSV,3,1,10,01,28,055,33,07,21,292,34,08,48,349,34,13,25,170,34,0*7F
SA,A,3,01,07,08,13,17,18,14,15,,,,,1.19,0.54,1.06,3*0E
$GPGSV,4,1,15,03,07,281,35,05,10,128,35,06,19,287,35,16,32,325,36,0*66
$GPGSV,4,2,15,18,30,138,36,21,71,032,37,22,16,170,35,24,26,038,36,0*69
$GPGSV,4,3,15,29,26,050,36,31,51,233,36,30,33,118,,42,49,127,,0*6C
$GPGSV,4,4,15,50,45,121,,40,21,256,,41,47,236,,0*50
$GBGSV,4,1,14,08,42,325,31,09,13,228,30,26,38,32
06,3*0E
$GPGSV,4,1,15,03,07,281,35,05,10,128,35,06,19,287,35,16,32,325,36,0*66
$GPGSV,4,2,15,18,30,138,36,21,71,032,36,22,16,170,36,24,26,038,35,0*68
$GPGSV,4,3,15,29,26,050,36,31,51,233,37,30,33,118,,42,49,127,,0*6D
$GPGSV,4,4,15,50,45,121,,40,21,256,,41,47,236,,0*50
$GBGSV,4,1,14,08,42,325,31,09,13,228,30,26,38,326,31,27,51,294,32,0*7A
$GBGSV,4,2,14,30,49,
$GNRMC,120343.00,A,2300.00001,N,11300.34681,E,9.736,90.19,010821,,,A,V*36
$GNGGA,120343.00,2300.00001,N,11300.34681,E,1,23,0.54,9.9,M,,M,,*50
$GNGSA,A,3,05,21,22,24,31,03,06,16,18,29,,,1.19,0.54,1.06,1*0C
$GNGSA,A,3,30,08,09,26,27,,,,,,,,1.19,0.54,1.06,4*08
$GNGSA,A,3,01,07,08,13,17,18,14,15,,,,,1.19,0.54,1.06,3*0E
$GPGSV,4,1,15,03,07,281,35,05,10,128,35,06,20,287,35,16,32,325,36,0*6C
$GPGSV,4,2,15,18
,30,138,35,21,71,032,37,22,16,170,35,24,26,038,36,0*6A
$GPGSV,4,3,15,29,26,050,35,31,51,233,36,30,33,118,,42,49,127,,0*6F
$GPGSV,4,4,15,50,45,121,,40,21,256,,41,47,236,,0*50
$GBGSV,4,1,14,08,42,325,31,09,13,228,30,26,38,326,31,27,51,294,31,0*79
$GBGSV,4,2,14,30,49,356,32,01,33,113,,02,64,149,31,04,35,111,,0*74
$GBGSV,4,3,14,06,64,258,,13,34,039,,20,34,171,,25,01,253,,0*71
$GBGSV,4,4,14,29,48,307,,34,04,200,,0*70
$GAGSV,3,1,10,01,28,055,34,07,21,292,33,08,48,349,34,13,25,170,34,0*7F
$GAGSV,3,2,10,14,41,109,34,15,18,054,33,17,42,270,34,1
15,,,,,1.19,0.54,1.06,3*0E
$GPGSV,4,1,15,03,07,281,34,05,10,128,35,06,20,287,35,16,32,325,36,0*6D
$GPGSV,4,2,15,18,30,138,36,21,71,032,36,22,16,170,35,24,26,038,36,0*68
$GPGSV,4,3,15,29,26,050,36,31,51,233,36,30,33,118,,42,49,127,,0*6C
$GPGSV,4,4,15,50,45,121,,40,21,256,,41,47,236,,0*50
$GBGSV,4,1,14,08,42,325,30,09,13,228,30,26,38,326,31,27,51,
$GNRMC,120345.00,A,2300.00000,N,11300.35263,E,9.679,90.28,010821,,,A,V*30
$GNGGA,120345.00,2300.00000,N,11300.35263,E,1,23,0.54,9.8,M,,M,,*5F
$GNGSA,A,3,05,21,22,24,31,03,06,16,18,29,,,1.19,0.54,1.06,1*0C
$GNGSA,A,3,30,08,09,26,27,,,,,,,,1.19,0.54,1.06,4*08
$GNGSA,A,3,01,07,08,13,17,18,14,15,,,,,1.19,0.54,1.06,3*0E
$GPGSV,4,1,15,03,07,281,35,05,10,128,35,06,20
,287,36,16,32,325,35,0*6C
$GPGSV,4,2,15,18,30,138,36,21,71,032,37,22,16,170,35,24,26,038,36,0*69
$GPGSV,4,3,15,29,26,050,35,31,51,233,37,30,33,118,,42,49,127,,0*6E
$GPGSV,4,4,15,50,45,121,,40,21,256,,41,47,236,,0*50
$GBGSV,4,1,14,08,42,325,31,09,13,228,30,26,38,326,31,27,51,294,32,0*7A
$GBGSV,4,2,14,30,49,356,32,01,33,113,,02,64,149,31,04,35,111,,0*74
$GBGSV,4,3,14,06,64,258,,13,34,039,,20,34,171,,25,01,253,,0*71
$GBGSV,4,4,14,29,48,308,,34,04,200,,0*7F
$GAGSV,3,1,10,01,28,055,34,07,21,292,33,08,48,349,34,1
$GNRMC,120346.00,A,2300.00000,N,11300.35555,E,9.610,89.93,010821,,,A,V*36
$GNGGA,120346.00,2300.00000,N,11300.35555,E,1,23,0.54,9.8,M,,M,,*5E
$GNGSA,A,3,05,21,22,24,31,03,06,16,18,29,,,1.19,0.54,1.06,1*0C
$GNGSA,A,3,30,08,09,26,27,,,,,,,,1.19,0.54,1.06,4*08
$GNGSA,A,3,01,07,08,13,17,18,14,15,,,,,1.19,0.54,1.06,3*0E
$GPGSV,4,1,15,03,07,281,35,05,10,128,35,06,20,287,35
,16,32,325,36,0*6C
$GPGSV,4,2,15,18,30,138,36,21,71,032,37,22,16,170,35,24,26,038,35,0*6A
$GPGSV,4,3,15,29,26,050,36,31,51,233,36,30,33,118,,42,49,127,,0*6C
$GPGSV,4,4,15,50,45,121,,40,21,256,,41,47,236,,0*50
$GBGSV,4,1,14,08,42,325,30,09,13,228,30,26,38,326,31,27,51,294,32,0*7B
$GBGSV,4,2,14,30,49,356,32,01,33,113,,02,64,149,31,04,35,111,,0*74
$GBGSV,4,3,14,06,64,258,,13,34,039,,20,34,171,,25,01,253,,0*71
$GBGSV,4,4,14,29,48,308,,34,04,200,,0*7F
$GAGSV,3,1,10,01,28,055,34,07,21,292,33,08,48,349,35,13,25,170,33,0*79
$GA
0.54,1.06,4*08
$GNGSA,A,3,01,07,08,13,17,18,14,15,,,,,1.19,0.54,1.06,3*0E
$GPGSV,4,1,15,03,07,281,35,05,10,128,35,06,20,287,35,16,32,325,36,0*6C
$GPGSV,4,2,15,18,30,138,36,21,71,032,37,22,16,170,35,24,26,038,35,0*6A
$GPGSV,4,3,15,29,26,050,36,31,51,233,36,30,33,118,,42,49,127,,0*6C
$GPGSV,4,4,15,50,45,121,,40,21,256,,41,47,236,,0*50
$GBGSV,4,1,14,08
,0.54,1.06,3*0E
$GPGSV,4,1,15,03,07,281,34,05,10,128,35,06,20,287,35,16,32,325,35,0*6E
$GPGSV,4,2,15,18,30,138,36,21,71,032,36,22,16,170,35,24,26,038,35,0*6B
$GPGSV,4,3,15,29,26,050,35,31,51,233,36,30,33,118,,42,49,127,,0*6F
$GPGSV,4,4,15,50,45,121,,40,21,256,,41,47,236,,0*50
$GBGSV,4,1,14,08,42,325,31,09,13,228,30,26,38,326,31,27,51,294,31,0*79
$GBG
,1.06,4*08
$GNGSA,A,3,01,07,08,13,17,18,14,15,,,,,1.19,0.54,1.06,3*0E
$GPGSV,4,1,15,03,07,281,35,05,10,128,35,06,20,287,35,16,32,325,36,0*6C
$GPGSV,4,2,15,18,30,138,35,21,71,032,37,22,16,170,35,24,26,038,36,0*6A
$GPGSV,4,3,15,29,26,050,36,31,51,233,36,30,33,118,,42,49,127,,0*6C
$GPGSV,4,4,15,50,45,121,,40,21,256,,41,47,236,,0*50
$GBGSV,4,1,14,08,42,32
*0E
$GPGSV,4,1,15,03,07,281,34,05,10,128,35,06,20,287,35,16,32,325,35,0*6E
$GPGSV,4,2,15,18,30,138,36,21,71,032,36,22,16,170,35,24,26,038,35,0*6B
$GPGSV,4,3,15,29,26,050,35,31,51,233,37,30,33,118,,42,49,127,,0*6E
$GPGSV,4,4,15,50,45,121,,40,21,256,,41,47,236,,0*50
$GBGSV,4,1,14,08,42,325,31,09,13,228,30,26,38,326,31,27,51,294,32,0*7A
$GBGSV,4,2,14,30,49,356,31,01
3*0E
$GPGSV,4,1,15,03,07,281,34,05,10,128,35,06,20,287,35,16,32,325,36,0*6D
$GPGSV,4,2,15,18,30,138,36,21,71,032,37,22,16,170,35,24,26,038,36,0*69
$GPGSV,4,3,15,29,26,050,36,31,51,233,36,30,33,118,,42,49,127,,0*6C
$GPGSV,4,4,15,50,45,121,,40,21,256,,41,47,236,,0*50
$GBGSV,4,1,14,08,42,325,30,09,13,228,30,26,38,326,31,27,51,294,31,0*78
$GBGSV,4,2,14,
$GNRMC,120352.00,A,2300.00005,N,11300.37320,E,9.685,89.81,010821,,,A,V*3F
$GNGGA,120352.00,2300.00005,N,11300.37320,E,1,23,0.54,9.8,M,,M,,*58
$GNGSA,A,3,05,21,22,24,31,03,06,16,18,29,,,1.19,0.54,1.06,1*0C
$GNGSA,A,3,30,08,09,26,27,,,,,,,,1.19,0.54,1.06,4*08
$GNGSA,A,3,01,07,08,13,17,18,14,15,,,,,1.19,0.54,1.06,3*0E
$GPGSV,4,1,15,03,08,281,34,05,10,128,35,06,2
0,287,35,16,32,325,35,0*61
$GPGSV,4,2,15,18,30,138,36,21,71,032,37,22,16,170,35,24,26,038,36,0*69
$GPGSV,4,3,15,29,26,050,35,31,51,233,37,30,33,118,,42,49,127,,0*6E
$GPGSV,4,4,15,50,45,121,,40,21,256,,41,47,236,,0*50
$GBGSV,4,1,14,08,42,325,30,09,13,228,30,26,38,326,31,27,51,294,31,0*78
$GBGSV,4,2,14,30,49,356,31,01,33,113,,02,64,149,31,04,35,111,,0*77
$GBGSV,4,3,14,06,64,258,,13,34,039,,20,34,171,,25,01,253,,0*71
$GBGSV,4,4,14,29,48,308,,34,04,200,,0*7F
$GAGSV,3,1,10,01,28,055,34,07,21,292,33,08,48,349,34,13,25,170,34,0*7F
$GAGSV
3,17,18,14,15,,,,,1.19,0.54,1.06,3*0E
$GPGSV,4,1,15,03,08,281,34,05,10,128,35,06,20,287,35,16,32,325,36,0*62
$GPGSV,4,2,15,18,30,138,36,21,71,032,37,22,16,170,35,24,26,038,35,0*6A
$GPGSV,4,3,15,29,26,050,36,31,51,233,36,30,33,118,,42,49,127,,0*6C
$GPGSV,4,4,15,50,45,121,,40,21,256,,41,47,236,,0*50
$GBGSV,4,1,14,08,42,325,30,09,13,229,30,26,38,326,31,27,
E
$GPGSV,4,1,15,03,08,281,35,05,10,128,35,06,20,287,36,16,32,325,36,0*60
$GPGSV,4,2,15,18,30,138,35,21,71,032,37,22,16,170,35,24,26,038,36,0*6A
$GPGSV,4,3,15,29,26,050,36,31,51,233,36,30,33,118,,42,49,127,,0*6C
$GPGSV,4,4,15,50,45,121,,40,21,256,,41,47,236,,0*50
$GBGSV,4,1,14,08,42,325,30,09,13,229,30,26,38,326,31,27,51,294,31,0*79
$GBGSV,4,2,14,30,49,
$GNRMC,120355.00,A,2300.00004,N,11300.38199,E,9.671,89.83,010821,,,A,V*3F
$GNGGA,120355.00,2300.00004,N,11300.38199,E,1,23,0.54,9.7,M,,M,,*5E
$GNGSA,A,3,05,21,22,24,31,03,06,16,18,29,,,1.19,0.54,1.06,1*0C
$GNGSA,A,3,30,08,09,26,27,,,,,,,,1.19,0.54,1.06,4*08
$GNGSA,A,3,01,07,08,13,17,18,14,15,,,,,1.19,0.54,1.06,3*0E
$GPGSV,4,1,15,03,08,281,35,05
,10,128,35,06,20,287,35,16,32,325,35,0*60
$GPGSV,4,2,15,18,30,138,35,21,71,032,37,22,16,170,35,24,26,038,35,0*69
$GPGSV,4,3,15,29,26,050,36,31,51,233,36,30,33,118,,42,49,127,,0*6C
$GPGSV,4,4,15,50,45,121,,40,21,256,,41,47,236,,0*50
$GBGSV,4,1,14,08,42,325,30,09,13,229,30,26,38,326,31,27,51,294,31,0*79
$GBGSV,4,2,14,30,49,356,31,01,33,113,,02,64,149,31,04,35,111,,0*77
$GBGSV,4,3,14,06,64,259,,13,34,039,,20,34,171,,25,01,253,,0*70
$GBGSV,4,4,14,29,48,308,,34,04,200,,0*7F
$GAGSV,3,1,10,01,28,055,33,07,21,292,33,08,48,349,
$GNRMC,120356.00,A,2300.00002,N,11300.38489,E,9.705,90.02,010821,,,A,V*3D
$GNGGA,120356.00,2300.00002,N,11300.38489,E,1,23,0.54,9.6,M,,M,,*5E
$GNGSA,A,3,05,21,22,24,31,03,06,16,18,29,,,1.19,0.54,1.06,1*0C
$GNGSA,A,3,30,08,09,26,27,,,,,,,,1.19,0.54,1.06,4*08
$GNGSA,A,3,01,07,08,13,17,18,14,15,,,,,1.19,0.54,1.06,3*0E
$GPGSV,4,1,15,03,08,281,35,05,10,128,35,06,20,287,35,16,32,325,
36,0*63
$GPGSV,4,2,15,18,30,138,36,21,71,032,36,22,16,170,35,24,26,038,35,0*6B
$GPGSV,4,3,15,29,26,050,36,31,51,233,36,30,33,118,,42,49,127,,0*6C
$GPGSV,4,4,15,50,45,121,,40,21,256,,41,47,236,,0*50
$GBGSV,4,1,14,08,42,325,31,09,13,229,30,26,38,326,31,27,51,294,31,0*78
$GBGSV,4,2,14,30,49,356,31,01,33,113,,02,64,149,31,04,35,111,,0*77
$GBGSV,4,3,14,06,64,259,,13,34,039,,20,34,171,,25,01,253,,0*70
$GBGSV,4,4,14,29,48,308,,34,04,200,,0*7F
$GAGSV,3,1,10,01,28,055,34,07,21,292,34,08,48,349,34,13,25,169,33,0*77
$GAGSV,3,2,1
,01,07,08,13,17,18,14,15,,,,,1.19,0.54,1.06,3*0E
$GPGSV,4,1,15,03,08,281,35,05,10,128,35,06,20,287,36,16,32,325,36,0*60
$GPGSV,4,2,15,18,30,138,36,21,71,032,37,22,16,170,36,24,26,038,35,0*69
$GPGSV,4,3,15,29,26,050,35,31,51,233,36,30,33,118,,42,49,127,,0*6F
$GPGSV,4,4,15,50,45,121,,40,21,256,,41,47,236,,0*50
$GBGSV,4,1,14,08,42,325,31,09,13,229,30,26
$GNRMC,120358.00,A,2259.99999,N,11300.39075,E,9.727,90.75,010821,,,A,V*33
$GNGGA,120358.00,2259.99999,N,11300.39075,E,1,23,0.54,9.6,M,,M,,*50
$GNGSA,A,3,05,21,22,24,31,03,06,16,18,29,,,1.19,0.54,1.06,1*0C
$GNGSA,A,3,30,08,09,26,27,,,,,,,,1.19,0.54,1.06,4*08
$GNGSA,A,3,01,07,08,13,17,18,14,15,,,,,1.19,0.54,1.06,3*0E
$GPGSV,4,1,15,03,08,281,35,0
5,10,128,35,06,20,287,35,16,32,325,36,0*63
$GPGSV,4,2,15,18,30,138,35,21,71,032,37,22,16,170,35,24,26,038,36,0*6A
$GPGSV,4,3,15,29,26,050,36,31,51,233,37,30,33,118,,42,49,127,,0*6D
$GPGSV,4,4,15,50,45,121,,40,21,256,,41,47,236,,0*50
$GBGSV,4,1,14,08,42,325,31,09,13,229,30,26,38,326,31,27,51,294,31,0*78
$GBGSV,4,2,14,30,49,356,31,01,33,113,,02,64,149,31,04,35,111,,0*77
$GBGSV,4,3,14,06,64,259,,13,34,038,,20,34,171,,25,01,253,,0*71
$GBGSV,4,4,14,29,48,308,,34,04,200,,0*7F
$GAGSV,3,1,10,01,28,055,34,07,21,292,33,08,48,349,3
,14,15,,,,,1.19,0.54,1.06,3*0E
$GPGSV,4,1,15,03,08,281,35,05,10,128,35,06,20,287,36,16,32,325,36,0*60
$GPGSV,4,2,15,18,30,138,35,21,71,032,37,22,16,170,35,24,26,038,36,0*6A
$GPGSV,4,3,15,29,26,050,36,31,51,233,36,30,33,118,,42,49,127,,0*6C
$GPGSV,4,4,15,50,45,121,,40,21,256,,41,47,236,,0*50
$GBGSV,4,1,14,08,42,325,31,09,13,229,30,26,38,326,31,27,51,294,32,0*7B

$GNRMC,120400.00,A,2300.00002,N,11300.39668,E,9.787,90.42,010821,,,A,V*3B
$GNGGA,120400.00,2300.00002,N,11300.39668,E,1,23,0.54,9.4,M,,M,,*54
$GNGSA,A,3,05,21,22,24,31,03,06,16,18,29,,,1.19,0.54,1.06,1*0C
$GNGSA,A,3,30,08,09,26,27,,,,,,,,1.19,0.54,1.06,4*08
$GNGSA,A,3,01,07,08,13,17,18,14,15,,,,,1.19,0.54,1.06,3*0E
$GPGSV,4,1,15,03,08,2
81,34,05,10,128,35,06,20,287,36,16,32,325,35,0*62
$GPGSV,4,2,15,18,30,138,35,21,71,032,36,22,16,170,36,24,26,038,36,0*68
$GPGSV,4,3,15,29,26,050,35,31,51,233,36,30,33,118,,42,49,127,,0*6F
$GPGSV,4,4,15,50,45,121,,40,21,256,,41,47,236,,0*50
$GBGSV,4,1,14,08,42,325,31,09,13,229,30,26,38,326,31,27,51,294,32,0*7B
$GBGSV,4,2,14,30,49,356,32,01,33,113,,02,64,149,31,04,35,111,,0*74
$GBGSV,4,3,14,06,64,259,,13,34,038,,20,34,171,,25,01,253,,0*71
$GBGSV,4,4,14,29,48,308,,34,04,200,,0*7F
$GAGSV,3,1,10,01,28,055,34,07,21,292,34,08,48,3
$GNRMC,120401.00,A,2300.00001,N,11300.39958,E,9.600,90.16,010821,,,A,V*3A
$GNGGA,120401.00,2300.00001,N,11300.39958,E,1,23,0.54,9.4,M,,M,,*5A
$GNGSA,A,3,05,21,22,24,31,03,06,16,18,29,,,1.19,0.54,1.06,1*0C
$GNGSA,A,3,30,08,09,26,27,,,,,,,,1.19,0.54,1.06,4*08
$GNGSA,A,3,01,07,08,13,17,18,14,15,,,,,1.19,0.54,1.06,3*0E
$GPGSV,4,1,15,03,08,281,35,05,10,128,35,06,20,287,36,16,32,325,36,0*60
$GPGSV,4,2
,15,18,30,138,36,21,71,032,37,22,16,170,35,24,26,038,36,0*69
$GPGSV,4,3,15,29,26,050,36,31,51,233,36,30,33,118,,42,49,127,,0*6C
$GPGSV,4,4,15,50,45,121,,40,21,256,,41,47,236,,0*50
$GBGSV,4,1,14,08,42,325,31,09,13,229,30,26,38,326,31,27,51,294,31,0*78
$GBGSV,4,2,14,30,49,356,31,01,33,113,,02,64,149,31,04,35,111,,0*77
$GBGSV,4,3,14,06,64,259,,13,34,038,,20,34,171,,25,01,253,,0*71
$GBGSV,4,4,14,29,48,308,,34,04,200,,0*7F
$GAGSV,3,1,10,01,28,055,33,07,21,292,34,08,48,349,34,13,25,169,33,0*70
$GAGSV,3,2,10,14,42,108,34,15,18,054,33,17
,3*0E
$GPGSV,4,1,15,03,08,281,35,05,10,128,35,06,20,287,36,16,32,325,35,0*63
$GPGSV,4,2,15,18,30,138,36,21,71,032,37,22,16,170,35,24,26,038,35,0*6A
$GPGSV,4,3,15,29,26,050,36,31,51,233,36,30,33,118,,42,49,127,,0*6C
$GPGSV,4,4,15,50,45,121,,40,21,256,,41,47,236,,0*50
$GBGSV,4,1,14,08,42,325,31,09,13,229,30,26,38,326,31,27,51,294,31,0*78
$GBGSV,4,2,14,3
$GNRMC,120403.00,A,2259.99996,N,11300.40540,E,9.643,90.18,010821,,,A,V*30
$GNGGA,120403.00,2259.99996,N,11300.40540,E,1,23,0.54,9.4,M,,M,,*59
$GNGSA,A,3,05,21,22,24,31,03,06,16,18,29,,,1.19,0.54,1.06,1*0C
$GNGSA,A,3,30,08,09,26,27,,,,,,,,1.19,0.54,1.06,4*08
$GNGSA,A,3,01,07,08,13,17,18,14,15,,,,,1.19,0.54,1.06,3*0E
$GPGSV,4,1,15,03,08,281,35,05,10,128,35,06,20,287,35,1
6,32,325,35,0*60
$GPGSV,4,2,15,18,30,138,36,21,71,032,36,22,16,170,35,24,26,038,36,0*68
$GPGSV,4,3,15,29,26,050,36,31,51,233,36,30,33,118,,42,49,127,,0*6C
$GPGSV,4,4,15,50,45,121,,40,21,256,,41,47,236,,0*50
$GBGSV,4,1,14,08,42,325,31,09,13,229,30,26,38,326,31,27,51,294,31,0*78
$GBGSV,4,2,14,30,49,356,31,01,33,113,,02,64,149,31,04,35,111,,0*77
$GBGSV,4,3,14,06,64,259,,13,34,038,,20,34,171,,25,01,253,,0*71
$GBGSV,4,4,14,29,48,308,,34,04,200,,0*7F
$GAGSV,3,1,10,01,28,055,33,07,21,292,33,08,48,349,34,13,25,169,33,0*77
$GAGSV,3,2,10,14,42,108,3
17,18,14,15,,,,,1.19,0.54,1.06,3*0E
$GPGSV,4,1,15,03,08,281,35,05,10,128,35,06,20,287,35,16,32,325,36,0*63
$GPGSV,4,2,15,18,30,138,36,21,71,032,36,22,16,170,35,24,26,038,35,0*6B
$GPGSV,4,3,15,29,26,050,35,31,51,233,36,30,33,118,,42,49,127,,0*6F
$GPGSV,4,4,15,50,45,121,,40,21,256,,41,47,236,,0*50
$GBGSV,4,1,14,08,42,325,31,09,13,229,30,26,38,326,32,27,51,294,31,0*
4*08
$GNGSA,A,3,01,07,08,13,17,18,14,15,,,,,1.19,0.54,1.06,3*0E
$GPGSV,4,1,15,03,08,281,35,05,10,128,35,06,20,287,35,16,32,325,35,0*60
$GPGSV,4,2,15,18,30,138,36,21,71,032,37,22,16,170,35,24,26,038,36,0*69
$GPGSV,4,3,15,29,26,050,35,31,51,233,37,30,33,118,,42,49,127,,0*6E
$GPGSV,4,4,15,50,45,121,,40,21,256,,41,47,236,,0*50
$GBGSV,4,1,14,08,42,325,30,09,13,229,30,
0.56,1.07,3*06
