,5.33,2.24,4.84,3*0A
$GPGSV,2,1,06,02,32,299,36,04,51,247,36,07,84,116,37,08,47,207,37,0*63
$GPGSV,2,2,06,13,49,030,37,25,66,042,37,0*6E
$GBGSV,1,1,00,0*77
$GAGSV,1,1,00,0*74

$GNGSA,A,3,,,,,,,,,,,,,5.33,2.24,4.84,3*0A
$GPGSV,2,1,06,02,32,299,35,04,51,247,37,07,84,116,36,08,47,207,36,0*61
$GPGSV,2,2,06,13,49,030,36,25,66,042,36,0*6E
$GBGSV,1,1,00,0*77
$GAGSV,1,1,00,0*74

$GNRMC,000039.00,A,3000.00087,N,11959.99943,E,0.084,,230721,,,A,V*10
$GNGGA,000039.00,3000.00087,N,11959.99943,E,1,06,2.24,3.0,M,,M,,*50
$GNGSA,A,3,02,04,07,13,25,08,,,,,,,5.33,2.24,4.84,1*04
$GNGSA,A,3,,,,,,,,,,,,,5.33,2.24,4.84,4*0D
$GNGSA,A,3,,,,,,,,,,,,,5.33,2.24,4.84,3*0A
$GPGSV,2,1,06,02,32,299,35,04,51,247,36,07,84,116,37,08,47,207,37,0*60
$GPGSV,2,2,06,13,49,030,36,25,66,04
2,36,0*6E
$GBGSV,1,1,00,0*77
$GAGSV,1,1,00,0*74

D
$GNGSA,A,3,,,,,,,,,,,,,5.33,2.24,4.84,3*0A
$GPGSV,2,1,06,02,32,299,36,04,51,247,36,07,84,116,37,08,47,207,36,0*62
$GPGSV,2,2,06,13,49,030,36,25,66,042,37,0*6F
$GBGSV,1,1,00,0*77
$GAGSV,1,1,00,0*74

$GNRMC,000041.00,A,3000.00092,N,11959.99956,E,0.021,,230721,,,A,V*10
$GNGGA,000041.00,3000.00092,N,11959.99956,E,1,06,2.24,3.5,M,,M,,*5A
$GNGSA,A,3,02,04,07,13,25,08,,,,,,,5.33,2.24,4.84,1*04
$GNGSA,A,3,,,,,,,,,,,,,5.33,2.24,4.84,4*0D
$GNGSA,A,3,,,,,,,,,,,,,5.33,2.24,4.84,3*0A
$GPGSV,2,1,06,02,32,299,36,04,51,246,37,07,84,116,37,08,47,207,36,0*62
$GPGSV,2,2,06,13,49,030,36,25,66,042,36,0*6E
$GBGSV,1,1,00,0*77
$GAGSV
,,,,,,,,,,,5.34,2.24,4.84,3*0D
$GPGSV,2,1,06,02,32,299,36,04,51,246,36,07,84,116,37,08,47,207,36,0*63
$GPGSV,2,2,06,13,49,030,37,25,66,042,37,0*6E
$GBGSV,1,1,00,0*77
$GAGSV,1,1,00,0*74

,,,,,,,,,,,,,5.34,2.24,4.84,3*0D
$GPGSV,2,1,06,02,32,299,36,04,51,246,36,07,84,116,37,08,47,207,36,0*63
$GPGSV,2,2,06,13,49,030,36,25,66,042,37,0*6F
$GBGSV,1,1,00,0*77
$GAGSV,1,1,00,0*74

$GNRMC,000044.00,A,3000.00078,N,11959.99963,E,0.311,,230721,,,A,V*17
$GNGGA,000044.00,3000.00078,N,11959.99963,E,1,06,2.24,3.0,M,,M,,*58
$GNGSA,A,3,02,04,07,13,25,08,,,,,,,5.34,2.24,4.84,1*03
$GNGSA,A,3,,,,,,,,,,,,,5.34,2.24,4.84,4*0A
$GNGSA,A,3,,,,,,,,,,,,,5.34,2.24,4.84,3*0D
$GPGSV,2,1,06,02,32,299,36,04,51,246,37,07,84,115,37,08,47,207,36,0*61
$GPGSV,2,2,06,13,49,030,36,25,66,042,37,0*6F
$
GBGSV,1,1,00,0*77
$GAGSV,1,1,00,0*74

$GNRMC,000045.00,A,3000.00066,N,11959.99963,E,0.177,,230721,,,A,V*1B
$GNGGA,000045.00,3000.00066,N,11959.99963,E,1,06,2.24,2.8,M,,M,,*5F
$GNGSA,A,3,02,04,07,13,25,08,,,,,,,5.34,2.24,4.85,1*02
$GNGSA,A,3,,,,,,,,,,,,,5.34,2.24,4.85,4*0B
$GNGSA,A,3,,,,,,,,,,,,,5.34,2.24,4.85,3*0C
$GPGSV,2,1,06,02,32,299,36,04,51,246,36,07,84,
115,37,08,47,207,36,0*60
$GPGSV,2,2,06,13,49,030,36,25,66,042,37,0*6F
$GBGSV,1,1,00,0*77
$GAGSV,1,1,00,0*74

$GNRMC,000046.00,A,3000.00072,N,11959.99957,E,0.242,,230721,,,A,V*1F
$GNGGA,000046.00,3000.00072,N,11959.99957,E,1,06,2.24,3.3,M,,M,,*54
$GNGSA,A,3,02,04,07,13,25,08,,,,,,,5.34,2.24,4.85,1*02
$GNGSA,A,3,,,,,,,,,,,,,5.34,2.24,4.85,4*0B
$GNGSA,A,3,,,,,,,,,,,,,5.34,2.24,4.85,3*0C
$GPGSV,2,1,06,02,32,299,36,04,51,2
46,36,07,84,115,37,08,47,207,36,0*60
$GPGSV,2,2,06,13,49,030,36,25,66,042,36,0*6E
$GBGSV,1,1,00,0*77
$GAGSV,1,1,00,0*74

$GNRMC,000047.00,A,3000.00079,N,11959.99938,E,0.357,,230721,,,A,V*19
$GNGGA,000047.00,3000.00079,N,11959.99938,E,1,06,2.24,3.9,M,,M,,*5D
$GNGSA,A,3,02,04,07,13,25,08,,,,,,,5.34,2.24,4.85,1*02
$GNGSA,A,3,,,,,,,,,,,,,5.34,2.24,4.85,4*0B
$GNGSA,A,3,,,,,,,,,,,,,5.34,2.24,4.85,3*0C
$GPGSV,2
,1,06,02,32,299,36,04,51,246,36,07,84,115,37,08,47,207,36,0*60
$GPGSV,2,2,06,13,49,030,37,25,66,042,37,0*6E
$GBGSV,1,1,00,0*77
$GAGSV,1,1,00,0*74

$GNRMC,000048.00,A,3000.00082,N,11959.99949,E,0.326,,230721,,,A,V*12
$GNGGA,000048.00,3000.00082,N,11959.99949,E,1,06,2.24,3.9,M,,M,,*50
$GNGSA,A,3,02,04,07,13,25,08,,,,,,,5.34,2.24,4.85,1*02
$GNGSA,A,3,,,,,,,,,,,,,5.34,2.24,4.85,4*0B
$GNGSA,A,3,,,,,,,,,,,,,5.34,2.24,4.85,3*0C
$GPGSV,2,1,06,02,32,299,36,04,51,246,37,07,84,115,37,08,47,207,36,0*61
$GPGSV,
2,2,06,13,49,030,36,25,66,042,37,0*6F
$GBGSV,1,1,00,0*77
$GAGSV,1,1,00,0*74

$GNRMC,000049.00,A,3000.00081,N,11959.99955,E,0.168,,230721,,,A,V*15
$GNGGA,000049.00,3000.00081,N,11959.99955,E,1,06,2.24,3.9,M,,M,,*5F
$GNGSA,A,3,02,04,07,13,25,08,,,,,,,5.34,2.24,4.85,1*02
$GNGSA,A,3,,,,,,,,,,,,,5.34,2.24,4.85,4*0B
$GNGSA,A,3,,,,,,,,,,,,,5.34,2.24,4.85,3*0C
$GPGSV,2,1,06,02,32,299,36,04,51,246,36,07,84,115,37,08,47,207,36,0*60
$GPGSV,2,2,06,13,49,030,37,25,66,042,37,0*6E
$GBGSV,1,1,00,0*7
7
$GAGSV,1,1,00,0*74

$GNRMC,000050.00,A,3000.00086,N,11959.99946,E,0.339,,230721,,,A,V*1E
$GNGGA,000050.00,3000.00086,N,11959.99946,E,1,06,2.24,4.1,M,,M,,*5D
$GNGSA,A,3,02,04,07,13,25,08,,,,,,,5.34,2.24,4.85,1*02
$GNGSA,A,3,,,,,,,,,,,,,5.34,2.24,4.85,4*0B
$GNGSA,A,3,,,,,,,,,,,,,5.34,2.24,4.85,3*0C
$GPGSV,2,1,06,02,32,299,36,04,51,246,36,07,84,115,36,08,47,207,36,0*61
$GPGSV,2,2,06,13,49,030,36,25,66,042,36,0*6E
$GBGSV,1,1,00,0*77
$GAGSV,1,1,00,0*74

*0A
$GNGSA,A,3,,,,,,,,,,,,,5.35,2.24,4.85,3*0D
$GPGSV,2,1,06,02,32,299,36,04,51,246,36,07,84,115,37,08,47,207,36,0*60
$GPGSV,2,2,06,13,49,030,37,25,66,042,37,0*6E
$GBGSV,1,1,00,0*77
$GAGSV,1,1,00,0*74

$GNRMC,000052.00,A,3000.00099,N,11959.99966,E,0.625,,230721,,,A,V*18
$GNGGA,000052.00,3000.00099,N,11959.99966,E,1,06,2.24,4.1,M,,M,,*53
$GNGSA,A,3,02,04,07,13,25,08,,,,,,,5.35,2.24,4.85,1*03
$GNGSA,A,3,,,,,,,,,,,,,5.35,2.24,4.85,4*0A
$GNGSA,A,3,,,,,,,,,,,,,5.35,2.24,4.85,3*0D
$GPGSV,2,1,06,02,32,299,35,04,51,246,37,07,84,115,37,08,47,207,36,0*62
$GPGSV,2,2,06,13,
49,030,36,25,66,042,36,0*6E
$GBGSV,1,1,00,0*77
$GAGSV,1,1,00,0*74

$GNRMC,000053.00,A,3000.00106,N,11959.99968,E,0.167,,230721,,,A,V*11
$GNGGA,000053.00,3000.00106,N,11959.99968,E,1,06,2.24,4.2,M,,M,,*58
$GNGSA,A,3,02,04,07,13,25,08,,,,,,,5.35,2.24,4.85,1*03
$GNGSA,A,3,,,,,,,,,,,,,5.35,2.24,4.85,4*0A
$GNGSA,A,3,,,,,,,,,,,,,5.35,2.24,4.85,3*0D
$GPGSV,2,1,06,02,32,299,36,04,51,246,37,07,84,115,37,08,47,207,37,0*60
$GPGSV,2,2,06,13,49,030,36,25,66,042,37,0*6F
$GBGSV,1,1,00,0*77
$GAGSV,1,1,00,0*74

$GNRMC,000054.00,A,3000.00112,N,11959.99973,E,0.546,,230721,,,A,V*1E
$GNGGA,000054.00,3000.00112,N,11959.99973,E,1,06,2.24,3.9,M,,M,,*5C
$GNGSA,A,3,02,04,07,13,25,08,,,,,,,5.35,2.24,4.86,1*00
$GNGSA,A,3,,,,,,,,,,,,,5.35,2.24,4.86,4*09
$GNGSA,A,3,,,,,,,,,,,,,5.35,2.24,4.86,3*0E
$GPGSV,2,1,06,02,32,299,36,04
,51,246,36,07,84,115,37,08,47,207,36,0*60
$GPGSV,2,2,06,13,49,030,36,25,66,042,37,0*6F
$GBGSV,1,1,00,0*77
$GAGSV,1,1,00,0*74

E
$GPGSV,2,1,06,02,32,299,36,04,51,246,36,07,84,114,37,08,47,207,37,0*60
$GPGSV,2,2,06,13,49,030,36,25,66,042,36,0*6E
$GBGSV,1,1,00,0*77
$GAGSV,1,1,00,0*74

$GNRMC,000056.00,A,3000.00110,N,11959.99982,E,0.474,,230721,,,A,V*10
$GNGGA,000056.00,3000.00110,N,11959.99982,E,1,06,2.24,3.8,M,,M,,*53
$GNGSA,A,3,02,04,07,13,25,08,,,,,,,5.35,2.24,4.86,1*00
$GNGSA,A,3,,,,,,,,,,,,,5.35,2.24,4.86,4*09
$GNGSA,A,3,,,,,,,,,,,,,5.35,2.24,4.86,3*0E
$GPGSV,2,1,06,02,32,299,36,04,51,246,36,07,84,114,37,08,47,207,36,0*61
$GPGSV,2,2,06,13,49,030,37,25
,66,042,37,0*6E
$GBGSV,1,1,00,0*77
$GAGSV,1,1,00,0*74

$GNRMC,000057.00,A,3000.00103,N,11959.99989,E,0.618,,230721,,,A,V*10
$GNGGA,000057.00,3000.00103,N,11959.99989,E,1,06,2.25,3.8,M,,M,,*5A
$GNGSA,A,3,02,04,07,13,25,08,,,,,,,5.35,2.25,4.86,1*01
$GNGSA,A,3,,,,,,,,,,,,,5.35,2.25,4.86,4*08
$GNGSA,A,3,,,,,,,,,,,,,5.35,2.25,4.86,3*0F
$GPGSV,2,1,06,02,32,299,36,04,51,246,37,07,84,114,37,08,47,207,36,0*60
$GPGSV,2,2,06,13,49,031,36,25,66,042,37,0*6E
$GBGSV,1
,1,00,0*77
$GAGSV,1,1,00,0*74

$GNRMC,000058.00,A,3000.00095,N,11959.99993,E,0.127,,230721,,,A,V*11
$GNGGA,000058.00,3000.00095,N,11959.99993,E,1,06,2.25,3.8,M,,M,,*50
$GNGSA,A,3,02,04,07,13,25,08,,,,,,,5.35,2.25,4.86,1*01
$GNGSA,A,3,,,,,,,,,,,,,5.35,2.25,4.86,4*08
$GNGSA,A,3,,,,,,,,,,,,,5.35,2.25,4.86,3*0F
$GPGSV,2,1,06,02,32,299,35,04,51,246,37,07,84,114,37,08,47,207,36,0
*63
$GPGSV,2,2,06,13,49,031,36,25,66,042,37,0*6E
$GBGSV,1,1,00,0*77
$GAGSV,1,1,00,0*74

$GNRMC,000059.00,A,3000.00092,N,11959.99993,E,0.167,,230721,,,A,V*13
$GNGGA,000059.00,3000.00092,N,11959.99993,E,1,06,2.25,3.6,M,,M,,*58
$GNGSA,A,3,02,04,07,13,25,08,,,,,,,5.36,2.25,4.86,1*02
$GNGSA,A,3,,,,,,,,,,,,,5.36,2.25,4.86,4*0B
$GNGSA,A,3,,,,,,,,,,,,,5.36,2.25,4.86,3*0C
$GPGSV,2,1,06,02,32,299,36,04,51,246,37,07,84,114,37,08,47,207,36,0*60
$GPGSV,2,2,06,13,49,031,37,25,66,042,37,0*6F
$GBGSV,1,1,00,0*77
$
GAGSV,1,1,00,0*74

$GNRMC,000100.00,A,3000.00080,N,12000.00000,E,0.331,,230721,,,A,V*19
$GNGGA,000100.00,3000.00080,N,12000.00000,E,1,06,2.25,3.5,M,,M,,*50
$GNGSA,A,3,02,04,07,13,25,08,,,,,,,5.36,2.25,4.86,1*02
$GNGSA,A,3,,,,,,,,,,,,,5.36,2.25,4.86,4*0B
$GNGSA,A,3,,,,,,,,,,,,,5.36,2.25,4.86,3*0C
$GPGSV,2,1,06,02,32,299,36,04,51,246,37,07,84,114,36,08,47,207,36,0*61
$GPGSV,2,2,06,13,49,031,36,25,66,
042,36,0*6F
$GBGSV,1,1,00,0*77
$GAGSV,1,1,00,0*74

$GNRMC,000101.00,A,3000.00075,N,12000.00007,E,1.066,,230721,,,A,V*15
$GNGGA,000101.00,3000.00075,N,12000.00007,E,1,06,2.25,3.6,M,,M,,*5F
$GNGSA,A,3,02,04,07,13,25,08,,,,,,,5.36,2.25,4.86,1*02
$GNGSA,A,3,,,,,,,,,,,,,5.36,2.25,4.86,4*0B
$GNGSA,A,3,,,,,,,,,,,,,5.36,2.25,4.86,3*0C
$GPGSV,2,1,06,02,32,299,36,04,51,246,36,07,84,114,36,08,47,2
07,36,0*60
$GPGSV,2,2,06,13,49,031,36,25,66,042,36,0*6F
$GBGSV,1,1,00,0*77
$GAGSV,1,1,00,0*74

B
$GNGSA,A,3,,,,,,,,,,,,,5.36,2.25,4.86,3*0C
$GPGSV,2,1,06,02,32,299,36,04,51,246,37,07,84,114,36,08,47,207,37,0*60
$GPGSV,2,2,06,13,49,031,36,25,66,042,37,0*6E
$GBGSV,1,1,00,0*77
$GAGSV,1,1,00,0*74

$GNRMC,000103.00,A,3000.00069,N,12000.00019,E,0.324,,230721,,,A,V*11
$GNGGA,000103.00,3000.00069,N,12000.00019,E,1,06,2.25,3.5,M,,M,,*5C
$GNGSA,A,3,02,04,07,13,25,08,,,,,,,5.36,2.25,4.87,1*03
$GNGSA,A,3,,,,,,,,,,,,,5.36,2.25,4.87,4*0A
$GNGSA,A,3,,,,,,,,,,,,,5.36,2.25,4.87,3*0D
$GPGSV,2,1,06,02,32,299,36,04,51,246,36,07,84,114,36
,08,47,207,36,0*60
$GPGSV,2,2,06,13,49,031,36,25,66,042,37,0*6E
$GBGSV,1,1,00,0*77
$GAGSV,1,1,00,0*74

NGSA,A,3,,,,,,,,,,,,,5.36,2.25,4.87,3*0D
$GPGSV,2,1,06,02,32,299,36,04,51,246,36,07,84,114,37,08,47,207,37,0*60
$GPGSV,2,2,06,13,49,031,36,25,66,042,36,0*6F
$GBGSV,1,1,00,0*77
$GAGSV,1,1,00,0*74

$GNRMC,000105.00,A,3000.00083,N,12000.00011,E,0.304,,230721,,,A,V*19
$GNGGA,000105.00,3000.00083,N,12000.00011,E,1,06,2.25,3.3,M,,M,,*50
$GNGSA,A,3,02,04,07,13,25,08,,,,,,,5.36,2.25,4.87,1*03
$GNGSA,A,3,,,,,,,,,,,,,5.36,2.25,4.87,4*0A
$GNGSA,A,3,,,,,,,,,,,,,5.36,2.25,4.87,3*0D
$GPGSV,2,1,06,02,32,299,36,04,51,246,36,07,84,114,37,08,47,207,37,0*60
$GPGSV,2,2,06,13,49,031,36,25,66,042,36,0*6F
$GBGS
V,1,1,00,0*77
$GAGSV,1,1,00,0*74

$GNRMC,000106.00,A,3000.00091,N,12000.00005,E,0.402,,230721,,,A,V*1D
$GNGGA,000106.00,3000.00091,N,12000.00005,E,1,06,2.25,3.3,M,,M,,*55
$GNGSA,A,3,02,04,07,13,25,08,,,,,,,5.36,2.25,4.87,1*03
$GNGSA,A,3,,,,,,,,,,,,,5.36,2.25,4.87,4*0A
$GNGSA,A,3,,,,,,,,,,,,,5.36,2.25,4.87,3*0D
$GPGSV,2,1,06,02,32,299,36,04,51,246,37,07,84,114,37,08,47,207,36,0*60
$GPGSV,2,2,06,13,49,031,37,25,66,042,37,0*6F
$GBGSV,1,1,00,0
*77
$GAGSV,1,1,00,0*74

$GNRMC,000107.00,A,3000.00091,N,11959.99996,E,0.340,,230721,,,A,V*18
$GNGGA,000107.00,3000.00091,N,11959.99996,E,1,06,2.25,3.2,M,,M,,*50
$GNGSA,A,3,02,04,07,13,25,08,,,,,,,5.36,2.25,4.87,1*03
$GNGSA,A,3,,,,,,,,,,,,,5.36,2.25,4.87,4*0A
$GNGSA,A,3,,,,,,,,,,,,,5.36,2.25,4.87,3*0D
$GPGSV,2,1,06,02,32,299,
35,04,51,246,36,07,84,113,37,08,47,207,36,0*65
$GPGSV,2,2,06,13,49,031,36,25,66,042,36,0*6F
$GBGSV,1,1,00,0*77
$GAGSV,1,1,00,0*74

.25,4.87,3*0C
$GPGSV,2,1,06,02,32,299,36,04,51,246,36,07,84,113,37,08,47,207,36,0*66
$GPGSV,2,2,06,13,49,031,36,25,66,042,36,0*6F
$GBGSV,1,1,00,0*77
$GAGSV,1,1,00,0*74

$GNRMC,000109.00,A,3000.00074,N,11959.99996,E,0.257,,230721,,,A,V*1A
$GNGGA,000109.00,3000.00074,N,11959.99996,E,1,06,2.25,3.4,M,,M,,*53
$GNGSA,A,3,02,04,07,13,25,08,,,,,,,5.37,2.25,4.87,1*02
$GNGSA,A,3,,,,,,,,,,,,,5.37,2.25,4.87,4*0B
$GNGSA,A,3,,,,,,,,,,,,,5.37,2.25,4.87,3*0C
$GPGSV,2,1,06,02,32,299,36,04,51,246,36,07,84,113,37,08,47,207,37,0*67
$GPGSV,2,2,06,13,49,031,36,25,66,042,37,0*6E
$GBGSV,
1,1,00,0*77
$GAGSV,1,1,00,0*74

$GNRMC,000110.00,A,3000.00060,N,11959.99994,E,0.330,,230721,,,A,V*15
$GNGGA,000110.00,3000.00060,N,11959.99994,E,1,06,2.25,3.4,M,,M,,*5C
$GNGSA,A,3,02,04,07,13,25,08,,,,,,,5.37,2.25,4.87,1*02
$GNGSA,A,3,,,,,,,,,,,,,5.37,2.25,4.87,4*0B
$GNGSA,A,3,,,,,,,,,,,,,5.37,2.25,4.87,3*0C
$GPGSV,2,1,06,02,32,299,39,04,51,246,39,07,84,113,39,08,47,207,39,0*67
$GPGSV,2,2,06,13,49,031,40,25,66,042,39,0*61
$GBGS
V,1,1,00,0*77
$GAGSV,1,1,00,0*74

GSA,A,3,,,,,,,,,,,,,5.37,2.25,4.87,3*0C
$GPGSV,2,1,06,02,32,299,39,04,51,246,40,07,84,113,39,08,47,207,40,0*67
$GPGSV,2,2,06,13,49,031,40,25,66,042,40,0*6F
$GBGSV,1,1,00,0*77
$GAGSV,1,1,00,0*74

$GNRMC,000112.00,A,3000.00052,N,11959.99961,E,0.441,,230721,,,A,V*1D
$GNGGA,000112.00,3000.00052,N,11959.99961,E,1,06,2.25,3.5,M,,M,,*54
$GNGSA,A,3,02,04,07,13,25,08,,,,,,,5.37,2.25,4.88,1*0D
$GNGSA,A,3,,,,,,,,,,,,,5.37,2.25,4.88,4*04
$GNGSA,A,3,,,,,,,,,,,,,5.37,2.25,4.88,3*03
$GPGSV,2,1,06,02,32,299,39,04,51,246,40,07,84,113,40,08,4
7,207,40,0*69
$GPGSV,2,2,06,13,49,031,39,25,66,042,40,0*61
$GBGSV,1,1,00,0*77
$GAGSV,1,1,00,0*74

$GNRMC,000113.00,A,3000.00056,N,11959.99947,E,0.070,,230721,,,A,V*1A
$GNGGA,000113.00,3000.00056,N,11959.99947,E,1,06,2.25,3.5,M,,M,,*55
$GNGSA,A,3,02,04,07,13,25,08,,,,,,,5.37,2.25,4.88,1*0D
$GNGSA,A,3,,,,,,,,,,,,,5.37,2.25,4.88,4*04
$GNGSA,A,3,,,,,,,,,,,,,5.37,2.25,4.88,3*03
$GPGSV,2,1,06,02,32,299,40,04,51,246,40,07,84,113,39,08,47,207,40,0*69
$GPGSV,2,2,06,13,49,031,40,25,66,042,39,0*61
$GBGSV,1,1,00,0*77
$GAGSV,1,1,00,0*74

GSA,A,3,,,,,,,,,,,,,5.37,2.25,4.88,3*03
$GPGSV,2,1,06,02,32,299,39,04,51,246,40,07,84,113,39,08,47,207,39,0*69
$GPGSV,2,2,06,13,49,031,40,25,66,042,39,0*61
$GBGSV,1,1,00,0*77
$GAGSV,1,1,00,0*74

SV,2,1,06,02,32,299,39,04,51,246,40,07,84,113,40,08,47,207,39,0*67
$GPGSV,2,2,06,13,49,031,39,25,66,042,40,0*61
$GBGSV,1,1,00,0*77
$GAGSV,1,1,00,0*74

$GNRMC,000116.00,A,3000.00033,N,11959.99945,E,0.198,,230721,,,A,V*19
$GNGGA,000116.00,3000.00033,N,11959.99945,E,1,06,2.25,3.3,M,,M,,*57
$GNGSA,A,3,02,04,07,13,25,08,,,,,,,5.37,2.25,4.88,1*0D
$GNGSA,A,3,,,,,,,,,,,,,5.37,2.25,4.88,4*04
$GNGSA,A,3,,,,,,,,,,,,,5.37,2.25,4.88,3*03
$GPGSV,2,1,06,02,32,299,40,04,51,246,40,07,84,113,40,08,47,207,40,0*67
$GPGSV,2,2,06,13,49,031,40,25,66,042,40,0*6F
$GBGSV,1,1,00,0*77
$GAGSV,1,1,00,0*74

$GNRMC,000117.00,A,3000.00024,N,11959.99947,E,0.266,,230721,,,A,V*1E
$GNGGA,000117.00,3000.00024,N,11959.99947,E,1,06,2.25,3.2,M,,M,,*53
$GNGSA,A,3,02,04,07,13,25,08,,,,,,,5.38,2.25,4.88,1*02
$GNGSA,A,3,,,,,,,,,,,,,5.38,2.25,4.88,4*0B
$GNGSA,A,3,,,,,,,,,,,,,5.38,2.25,4.88,3*0C
$GPGSV,2,1,06,02,32,299,40,04,51,246,40,07,84,113,40,08,47,207,40,0*67
$GPGSV,2,2,06,13,49,031,39,25,66,042,40,0*61
$GBGSV,1,1,00,0*77
$GAGSV,1,1,00,0*74

$GNRMC,000118.00,A,3000.00028,N,11959.99972,E,1.433,,230721,,,A,V*1C
$GNGGA,000118.00,3000.00028,N,11959.99972,E,1,06,2.25,3.2,M,,M,,*56
$GNGSA,A,3,02,04,07,13,25,08,,,,,,,5.38,2.25,4.88,1*02
$GNGSA,A,3,,,,,,,,,,,,,5.38,2.25,4.88,4*0B
$GNGSA,A,3,,,,,,,,,,,,,5.38,2.25,4.88,3*0C
$GPGSV,2,1,06,02,32,299,40,04,51,246,39,07,84,112,40,08,47,207,39,0*66
$GPGSV,2,2,06,13,49,031,39,25,66,042,39,0*6F
$GBGSV,1,1,00,0*77
$GAGSV,1,1,00,0*74

$GNRMC,000119.00,A,3000.00029,N,11959.99985,E,0.221,,230721,,,A,V*10
$GNGGA,000119.00,3000.00029,N,11959.99985,E,1,06,2.25,3.2,M,,M,,*5E
$GNGSA,A,3,02,04,07,13,25,08,,,,,,,5.38,2.25,4.88,1*02
$GNGSA,A,3,,,,,,,,,,,,,5.38,2.25,4.88,4*0B
$GNGSA,A,3,,,,,,,,,,,,,5.38,2.25,4.88,3*0C
$GPGSV,2,1,06,02,32,299,40,04,51,246,40,07,84,112,40,08,47,207,39,0*68
$GPGSV,2,2,06,13,49,031,40,25,66,042,40,0*6F
$GBGSV,1,1,00,0*77
$GAGSV,1,1,00,0*74

,3,,,,,,,,,,,,,5.38,2.25,4.88,3*0C
$GPGSV,2,1,06,02,32,299,39,04,51,246,40,07,84,112,39,08,47,207,40,0*66
$GPGSV,2,2,06,13,49,031,39,25,66,042,39,0*6F
$GBGSV,1,1,00,0*77
$GAGSV,1,1,00,0*74

$GNRMC,000121.00,A,3000.00021,N,11959.99986,E,0.100,,230721,,,A,V*10
$GNGGA,000121.00,3000.00021,N,11959.99986,E,1,06,2.25,3.2,M,,M,,*5E
$GNGSA,A,3,02,04,07,13,25,08,,,,,,,5.38,2.25,4.89,1*03
$GNGSA,A,3,,,,,,,,,,,,,5.38,2.25,4.89,4*0A
$GNGSA,A,3,,,,,,,,,,,,,5.38,2.25,4.89,3*0D
$GPGSV,2,1,06,02,32,299,39,04,51,246,40,07,84,112,39,08,47,207,39,0*68
$GPGSV,2,2,06,13,49,031,40,25,66,042,39,0*61

$GBGSV,1,1,00,0*77
$GAGSV,1,1,00,0*74

A,A,3,,,,,,,,,,,,,5.38,2.25,4.89,3*0D
$GPGSV,2,1,06,02,32,299,40,04,51,246,40,07,84,112,40,08,47,207,40,0*66
$GPGSV,2,2,06,13,49,031,40,25,66,042,40,0*6F
$GBGSV,1,1,00,0*77
$GAGSV,1,1,00,0*74

,,5.38,2.25,4.89,3*0D
$GPGSV,2,1,06,02,32,299,40,04,51,246,40,07,84,112,40,08,47,207,40,0*66
$GPGSV,2,2,06,13,49,031,40,25,66,042,39,0*61
$GBGSV,1,1,00,0*77
$GAGSV,1,1,00,0*74

.89,4*0A
$GNGSA,A,3,,,,,,,,,,,,,5.38,2.25,4.89,3*0D
$GPGSV,2,1,06,02,32,299,39,04,51,246,40,07,84,112,39,08,47,207,40,0*66
$GPGSV,2,2,06,13,49,031,40,25,66,042,39,0*61
$GBGSV,1,1,00,0*77
$GAGSV,1,1,00,0*74

$GNRMC,000125.00,A,3000.00018,N,12000.00002,E,0.280,,230721,,,A,V*16
$GNGGA,000125.00,3000.00018,N,12000.00002,E,1,06,2.26,3.2,M,,M,,*50
$GNGSA,A,3,02,04,07,13,25,08,,,,,,,5.39,2.26,4.89,1*01
$GNGSA,A,3,,,,,,,,,,,,,5.39,2.26,4.89,4*08
$GNGSA,A,3,,,,,,,,,,,,,5.39,2.26,4.89,3*0F
$GPGSV,2,1,06,02,32,299,40,04,51,246,40,07,84,112,40,08,47,20
7,40,0*66
$GPGSV,2,2,06,13,49,031,39,25,66,042,40,0*61
$GBGSV,1,1,00,0*77
$GAGSV,1,1,00,0*74

A,A,3,,,,,,,,,,,,,5.39,2.26,4.89,3*0F
$GPGSV,2,1,06,02,32,299,40,04,51,246,40,07,84,112,39,08,47,207,39,0*66
$GPGSV,2,2,06,13,49,031,40,25,66,042,39,0*61
$GBGSV,1,1,00,0*77
$GAGSV,1,1,00,0*74

$GNRMC,000127.00,A,3000.00030,N,12000.00023,E,0.246,,230721,,,A,V*17
$GNGGA,000127.00,3000.00030,N,12000.00023,E,1,06,2.26,3.1,M,,M,,*58
$GNGSA,A,3,02,04,07,13,25,08,,,,,,,5.39,2.26,4.89,1*01
$GNGSA,A,3,,,,,,,,,,,,,5.39,2.26,4.89,4*08
$GNGSA,A,3,,,,,,,,,,,,,5.39,2.26,4.89,3*0F
$GPGSV,2,1,06,02,32,299,40,04,51,246,40,07,84,112,40,08,47,207,39,0*68
$GPGSV,2,2,06,13,49,031,40,25,66,042,40,0*6F
$GBGSV,1,1,00,0*7
7
$GAGSV,1,1,00,0*74

$GNRMC,000128.00,A,3000.00031,N,12000.00015,E,0.229,,230721,,,A,V*15
$GNGGA,000128.00,3000.00031,N,12000.00015,E,1,06,2.26,3.1,M,,M,,*53
$GNGSA,A,3,02,04,07,13,25,08,,,,,,,5.39,2.26,4.89,1*01
$GNGSA,A,3,,,,,,,,,,,,,5.39,2.26,4.89,4*08
$GNGSA,A,3,,,,,,,,,,,,,5.39,2.26,4.89,3*0F
$GPGSV,2,1,06,02,32,299,39,04,51,246,40,07,84,112,40,08,47,207,40,0*68
$GPGSV,2,2,06,13,49,031,39,25,66,042,40,0*61
$GBGSV,1,1,00,0*77
$GAGSV,1,1,00,0*74

NGSA,A,3,,,,,,,,,,,,,5.39,2.26,4.89,3*0F
$GPGSV,2,1,06,02,32,299,40,04,51,246,40,07,84,111,40,08,47,207,40,0*65
$GPGSV,2,2,06,13,49,031,40,25,66,042,40,0*6F
$GBGSV,1,1,00,0*77
$GAGSV,1,1,00,0*74

$GNRMC,000130.00,A,3000.00024,N,12000.00005,E,0.289,,230721,,,A,V*13
$GNGGA,000130.00,3000.00024,N,12000.00005,E,1,06,2.26,3.1,M,,M,,*5F
$GNGSA,A,3,02,04,07,13,25,08,,,,,,,5.39,2.26,4.90,1*09
$GNGSA,A,3,,,,,,,,,,,,,5.39,2.26,4.90,4*00
$GNGSA,A,3,,,,,,,,,,,,,5.39,2.26,4.90,3*07
$GPGSV,2,1,06,02,32,299,40,04,51,246,40,07,84,111
,40,08,47,207,40,0*65
$GPGSV,2,2,06,13,49,031,39,25,66,042,40,0*61
$GBGSV,1,1,00,0*77
$GAGSV,1,1,00,0*74

$GNRMC,000131.00,A,3000.00014,N,12000.00000,E,0.217,,230721,,,A,V*13
$GNGGA,000131.00,3000.00014,N,12000.00000,E,1,06,2.26,3.1,M,,M,,*58
$GNGSA,A,3,02,04,07,13,25,08,,,,,,,5.39,2.26,4.90,1*09
$GNGSA,A,3,,,,,,,,,,,,,5.39,2.26,4.90,4*00
$GNGSA,A,3,,,,,,,,,,,,,5.39,2.26,4.90,3*07
$GPGSV,2,1,06,02,32,299,40,04,51,246
,40,07,84,111,40,08,47,207,40,0*65
$GPGSV,2,2,06,13,49,031,39,25,66,042,39,0*6F
$GBGSV,1,1,00,0*77
$GAGSV,1,1,00,0*74

$GNRMC,000132.00,A,3000.00017,N,12000.00006,E,0.152,,230721,,,A,V*17
$GNGGA,000132.00,3000.00017,N,12000.00006,E,1,06,2.26,3.1,M,,M,,*5E
$GNGSA,A,3,02,04,07,13,25,08,,,,,,,5.39,2.26,4.90,1*09
$GNGSA,A,3,,,,,,,,,,,,,5.39,2.26,4.90,4*00
$GNGSA,A,3,,,,,,,,,,,,,5.39,2.26,4.90,3*07
$GPGSV,2,1,06,02,32,299,40,04,51,246,40,07,84,111,40,08,47,207,40,0*65
$GPGSV,2,2,06,13,49,031,40,25,66,042,40,0*6F
$GBGSV,1,1,00,0*77

$GAGSV,1,1,00,0*74


$GNGSA,A,3,,,,,,,,,,,,,5.39,2.26,4.90,3*07
$GPGSV,2,1,06,02,32,299,40,04,51,246,40,07,84,111,40,08,47,207,40,0*65
$GPGSV,2,2,06,13,49,031,39,25,66,042,39,0*6F
$GBGSV,1,1,00,0*77
$GAGSV,1,1,00,0*74

,,,5.40,2.26,4.90,3*09
$GPGSV,2,1,06,02,32,299,39,04,51,246,40,07,84,111,39,08,47,207,40,0*65
$GPGSV,2,2,06,13,49,031,40,25,66,042,40,0*6F
$GBGSV,1,1,00,0*77
$GAGSV,1,1,00,0*74

$GNRMC,000135.00,A,3000.00011,N,12000.00001,E,0.055,,230721,,,A,V*17
$GNGGA,000135.00,3000.00011,N,12000.00001,E,1,06,2.26,3.1,M,,M,,*58
$GNGSA,A,3,02,04,07,13,25,08,,,,,,,5.40,2.26,4.90,1*07
$GNGSA,A,3,,,,,,,,,,,,,5.40,2.26,4.90,4*0E
$GNGSA,A,3,,,,,,,,,,,,,5.40,2.26,4.90,3*09
$GPGSV,2,1,06,02,32,299,39,04,51,246,39,07,84,111,40,08,47,207,40,0*65
$GPGSV,2,2,06,13,49,031,39,25,66,042
,39,0*6F
$GBGSV,1,1,00,0*77
$GAGSV,1,1,00,0*74

$GNRMC,000136.00,A,3000.00011,N,11959.99991,E,0.377,,230721,,,A,V*11
$GNGGA,000136.00,3000.00011,N,11959.99991,E,1,06,2.26,3.1,M,,M,,*5D
$GNGSA,A,3,02,04,07,13,25,08,,,,,,,5.40,2.26,4.90,1*07
$GNGSA,A,3,,,,,,,,,,,,,5.40,2.26,4.90,4*0E
$GNGSA,A,3,,,,,,,,,,,,,5.40,2.26,4.90,3*09
$GPGSV,2,1,06,02,32,299,39,04,51,246,40,07,84,111,40,08,47,207,40,0*6B
$
GPGSV,2,2,06,13,49,031,40,25,66,042,40,0*6F
$GBGSV,1,1,00,0*77
$GAGSV,1,1,00,0*74

NGSA,A,3,,,,,,,,,,,,,5.40,2.26,4.90,3*09
$GPGSV,2,1,06,02,32,299,39,04,51,246,40,07,84,111,40,08,47,207,40,0*6B
$GPGSV,2,2,06,13,49,031,39,25,66,042,40,0*61
$GBGSV,1,1,00,0*77
$GAGSV,1,1,00,0*74

$GNRMC,000138.00,A,3000.00018,N,11959.99983,E,0.210,,230721,,,A,V*15
$GNGGA,000138.00,3000.00018,N,11959.99983,E,1,06,2.26,3.0,M,,M,,*58
$GNGSA,A,3,02,04,07,13,25,08,,,,,,,5.40,2.26,4.90,1*07
$GNGSA,A,3,,,,,,,,,,,,,5.40,2.26,4.90,4*0E
$GNGSA,A,3,,,,,,,,,,,,,5.40,2.26,4.90,3*09
$GPGSV,2,1,06,02,32,29
9,39,04,51,246,40,07,84,111,40,08,47,207,40,0*6B
$GPGSV,2,2,06,13,49,031,40,25,66,042,40,0*6F
$GBGSV,1,1,00,0*77
$GAGSV,1,1,00,0*74

$GNRMC,000139.00,A,3000.00023,N,11959.99984,E,0.144,,230721,,,A,V*19
$GNGGA,000139.00,3000.00023,N,11959.99984,E,1,06,2.26,3.1,M,,M,,*57
$GNGSA,A,3,02,04,07,13,25,08,,,,,,,5.40,2.26,4.91,1*06
$GNGSA,A,3,,,,,,,,,,,,,5.40,2.26,4.91,4*0F
$GNGSA,A,3,,,,,,,,,,,,,5.40,2.26,4.91,3*08
$GPGSV,2,1,06,02,32,299,40,04,51,246,39,07,84,111,39,08,47,207,39,0*6B
$GPGSV,2,2,06,13,49,031,39,25,66,042,40,0*61
$GBGSV,1,1,00,0*77
$GAGSV,1,1,00,0*74

$GNRMC,000140.00,A,3000.00021,N,11959.99986,E,0.128,,230721,,,A,V*1D
$GNGGA,000140.00,3000.00021,N,11959.99986,E,1,06,2.26,3.0,M,,M,,*58
$GNGSA,A,3,02,04,07,13,25,08,,,,,,,5.40,2.26,4.91,1*06
$GNGSA,A,3,,,,,,,,,,,,,5.40,2.26,4.91,4*0F
$GNGSA,A,3,,,,,,,,,,,,,5.40,2.26,4.91,3*08
$GPGSV,2,1,06,02,32,299,40,04,51,246,40,07,84,110,40,08,47,207,39,0*6A
$GPGSV,2,2,06,13,49,031,39,25,66,042,40,0*61

$GBGSV,1,1,00,0*77
$GAGSV,1,1,00,0*74

$GNRMC,000141.00,A,3000.00025,N,11959.99992,E,0.037,,230721,,,A,V*12
$GNGGA,000141.00,3000.00025,N,11959.99992,E,1,06,2.26,3.0,M,,M,,*58
$GNGSA,A,3,02,04,07,13,25,08,,,,,,,5.40,2.26,4.91,1*06
$GNGSA,A,3,,,,,,,,,,,,,5.40,2.26,4.91,4*0F
$GNGSA,A,3,,,,,,,,,,,,,5.40,2.26,4.91,3*08
$GPGSV,2,1,06,02,32,299,39,04,51,246,40,07,84,110,40,08,47,207,40,0*6A
$GPGSV,2,2,06,13,49,031,40,25,66,042,40,0*6F
$GBGSV,1,1,00,0*77
$GAGSV,1,1,00,0*74

SA,A,3,,,,,,,,,,,,,5.40,2.26,4.91,3*08
$GPGSV,2,1,06,02,32,299,40,04,51,246,39,07,84,110,40,08,47,207,39,0*64
$GPGSV,2,2,06,13,49,031,40,25,66,041,40,0*6C
$GBGSV,1,1,00,0*77
$GAGSV,1,1,00,0*74

$GNRMC,000143.00,A,3000.00025,N,12000.00006,E,1.007,,230721,,,A,V*10
$GNGGA,000143.00,3000.00025,N,12000.00006,E,1,06,2.26,3.0,M,,M,,*58
$GNGSA,A,3,02,04,07,13,25,08,,,,,,,5.41,2.26,4.91,1*07
$GNGSA,A,3,,,,,,,,,,,,,5.41,2.26,4.91,4*0E
$GNGSA,A,3,,,,,,,,,,,,,5.41,2.26,4.91,3*09
$GPGSV,2,1,06,02,32,299,40,04,51,246,40,07,84,110,39,
08,47,207,39,0*64
$GPGSV,2,2,06,13,49,031,39,25,66,041,40,0*62
$GBGSV,1,1,00,0*77
$GAGSV,1,1,00,0*74

$GNRMC,000144.00,A,3000.00031,N,12000.00002,E,0.369,,230721,,,A,V*1C
$GNGGA,000144.00,3000.00031,N,12000.00002,E,1,06,2.26,3.1,M,,M,,*5F
$GNGSA,A,3,02,04,07,13,25,08,,,,,,,5.41,2.26,4.91,1*07
$GNGSA,A,3,,,,,,,,,,,,,5.41,2.26,4.91,4*0E
$GNGSA,A,3,,,,,,,,,,,,,5.41,2.26,4.91,3*09
$GPGSV,2,1,06,02,32,299,39,04,51,246,39,07,84,110,40,08,47,207,40,0*64
$GPGSV,2,2,06,13,49,031,39,25,66,041,39,0*6C
$GBGSV,1,1,00,0*
77
$GAGSV,1,1,00,0*74

$GNRMC,000145.00,A,3000.00036,N,11959.99995,E,0.172,,230721,,,A,V*13
$GNGGA,000145.00,3000.00036,N,11959.99995,E,1,06,2.26,3.0,M,,M,,*59
$GNGSA,A,3,02,04,07,13,25,08,,,,,,,5.41,2.26,4.91,1*07
$GNGSA,A,3,,,,,,,,,,,,,5.41,2.26,4.91,4*0E
$GNGSA,A,3,,,,,,,,,,,,,5.41,2.26,4.91,3*09
$GPGSV,2,1,06,02,32,299,39,04,5
1,246,40,07,84,110,40,08,47,207,40,0*6A
$GPGSV,2,2,06,13,49,031,40,25,66,041,39,0*62
$GBGSV,1,1,00,0*77
$GAGSV,1,1,00,0*74

$GNRMC,000146.00,A,3000.00035,N,11959.99997,E,0.231,,230721,,,A,V*15
$GNGGA,000146.00,3000.00035,N,11959.99997,E,1,06,2.26,3.0,M,,M,,*5B
$GNGSA,A,3,02,04,07,13,25,08,,,,,,,5.41,2.26,4.91,1*07
$GNGSA,A,3,,,,,,,,,,,,,5.41,2.26,4.91,4*0E
$GNGSA,A,3,,,,,,,,,,,,,5.41,2.26,4.91,3*09
$GPGSV,2,1,06,02,32,298,40,04,51,246,39,07,84,110,39,08,47,207,40,0*65
$GPGSV,2,2,06,13,49,031,40,25,66,041,40
,0*6C
$GBGSV,1,1,00,0*77
$GAGSV,1,1,00,0*74

A,3,,,,,,,,,,,,,5.41,2.26,4.91,3*09
$GPGSV,2,1,06,02,32,298,39,04,51,246,40,07,84,110,40,08,47,207,40,0*6B
$GPGSV,2,2,06,13,49,031,40,25,66,041,39,0*62
$GBGSV,1,1,00,0*77
$GAGSV,1,1,00,0*74

1,2.26,4.92,3*0A
$GPGSV,2,1,06,02,32,298,40,04,51,246,40,07,84,110,40,08,47,207,40,0*65
$GPGSV,2,2,06,13,49,031,40,25,66,041,40,0*6C
$GBGSV,1,1,00,0*77
$GAGSV,1,1,00,0*74

$GNRMC,000149.00,A,3000.00036,N,12000.00005,E,0.094,,230721,,,A,V*10
$GNGGA,000149.00,3000.00036,N,12000.00005,E,1,06,2.26,2.9,M,,M,,*5B
$GNGSA,A,3,02,04,07,13,25,08,,,,,,,5.41,2.26,4.92,1*04
$GNGSA,A,3,,,,,,,,,,,,,5.41,2.26,4.92,4*0D
$GNGSA,A,3,,,,,,,,,,,,,5.41,2.26,4.92,3*0A
$GPGSV,2,1,06,02,32,298,40,04,51,246,39,07,84,110,40,08,47,207,40,0*6B
$GPGSV,2,2,06,13,49,031,40,25,6
6,041,40,0*6C
$GBGSV,1,1,00,0*77
$GAGSV,1,1,00,0*74

,,,,,,,,,,5.41,2.26,4.92,3*0A
$GPGSV,2,1,06,02,32,298,40,04,51,246,40,07,84,109,39,08,47,207,39,0*6D
$GPGSV,2,2,06,13,49,031,39,25,66,041,40,0*62
$GBGSV,1,1,00,0*77
$GAGSV,1,1,00,0*74

$GNRMC,000151.00,A,3000.00027,N,12000.00026,E,1.365,,230721,,,A,V*14
$GNGGA,000151.00,3000.00027,N,12000.00026,E,1,06,2.26,2.9,M,,M,,*53
$GNGSA,A,3,02,04,07,13,25,08,,,,,,,5.42,2.26,4.92,1*07
$GNGSA,A,3,,,,,,,,,,,,,5.42,2.26,4.92,4*0E
$GNGSA,A,3,,,,,,,,,,,,,5.42,2.26,4.92,3*09
$GPGSV,2,1,06,02,32
,298,40,04,51,246,39,07,84,109,40,08,47,207,40,0*63
$GPGSV,2,2,06,13,49,031,40,25,66,041,39,0*62
$GBGSV,1,1,00,0*77
$GAGSV,1,1,00,0*74

4.92,3*09
$GPGSV,2,1,06,02,32,298,40,04,51,246,39,07,84,109,39,08,47,207,39,0*63
$GPGSV,2,2,06,13,49,031,40,25,66,041,39,0*62
$GBGSV,1,1,00,0*77
$GAGSV,1,1,00,0*74

$GNRMC,000153.00,A,3000.00015,N,12000.00019,E,0.096,,230721,,,A,V*15
$GNGGA,000153.00,3000.00015,N,12000.00019,E,1,06,2.26,2.9,M,,M,,*5C
$GNGSA,A,3,02,04,07,13,25,08,,,,,,,5.42,2.26,4.92,1*07
$GNGSA,A,3,,,,,,,,,,,,,5.42,2.26,4.92,4*0E
$GNGSA,A,3,,,,,,,,,,,,,5.42,2.26,4.92,3*09
$GPGSV,2,1,06,02,32,298,40,04,51,246,40,07,84,109,40,08,47,207,
40,0*6D
$GPGSV,2,2,06,13,49,031,40,25,66,041,39,0*62
$GBGSV,1,1,00,0*77
$GAGSV,1,1,00,0*74

*08
$GPGSV,2,1,06,02,32,298,39,04,51,246,40,07,84,109,39,08,47,207,40,0*6D
$GPGSV,2,2,06,13,49,031,40,25,66,041,40,0*6C
$GBGSV,1,1,00,0*77
$GAGSV,1,1,00,0*74

$GNRMC,000155.00,A,3000.00012,N,12000.00021,E,0.224,,230721,,,A,V*14
$GNGGA,000155.00,3000.00012,N,12000.00021,E,1,06,2.27,2.9,M,,M,,*57
$GNGSA,A,3,02,04,07,13,25,08,,,,,,,5.42,2.27,4.92,1*06
$GNGSA,A,3,,,,,,,,,,,,,5.42,2.27,4.92,4*0F
$GNGSA,A,3,,,,,,,,,,,,,5.42,2.27,4.92,3*08
$GPGSV,2,1,06,02,32,298,40,04,51,246,40,07,84,109,40,08,47,207,39,0*63
$GPGSV,2,2,06,13,49,031,39,25,66,041,40,0*62
$GB
GSV,1,1,00,0*77
$GAGSV,1,1,00,0*74

$GNRMC,000156.00,A,3000.00015,N,12000.00024,E,0.109,,230721,,,A,V*19
$GNGGA,000156.00,3000.00015,N,12000.00024,E,1,06,2.27,2.9,M,,M,,*56
$GNGSA,A,3,02,04,07,13,25,08,,,,,,,5.42,2.27,4.92,1*06
$GNGSA,A,3,,,,,,,,,,,,,5.42,2.27,4.92,4*0F
$GNGSA,A,3,,,,,,,,,,,,,5.42,2.27,4.92,3*08
$GPGSV,2,1,06,02,32,298
,40,04,51,246,39,07,84,109,40,08,48,207,39,0*62
$GPGSV,2,2,06,13,49,031,40,25,66,041,39,0*62
$GBGSV,1,1,00,0*77
$GAGSV,1,1,00,0*74

,,,,,,,,,,5.42,2.27,4.93,3*09
$GPGSV,2,1,06,02,32,298,40,04,51,246,40,07,84,109,39,08,48,207,39,0*62
$GPGSV,2,2,06,13,49,031,39,25,66,041,40,0*62
$GBGSV,1,1,00,0*77
$GAGSV,1,1,00,0*74


$GPGSV,2,1,06,02,32,298,40,04,51,246,39,07,84,109,39,08,48,207,40,0*62
$GPGSV,2,2,06,13,49,031,39,25,66,041,40,0*62
$GBGSV,1,1,00,0*77
$GAGSV,1,1,00,0*74

2,2.27,4.93,3*09
$GPGSV,2,1,06,02,32,298,40,04,51,246,39,07,84,109,40,08,48,207,40,0*6C
$GPGSV,2,2,06,13,49,031,40,25,66,041,40,0*6C
$GBGSV,1,1,00,0*77
$GAGSV,1,1,00,0*74

$GNRMC,000200.00,A,3000.00032,N,12000.00012,E,0.606,,230721,,,A,V*11
$GNGGA,000200.00,3000.00032,N,12000.00012,E,1,06,2.27,2.8,M,,M,,*57
$GNGSA,A,3,02,04,07,13,25,08,,,,,,,5.43,2.27,4.93,1*06
$GNGSA,A,3,,,,,,,,,,,,,5.43,2.27,4.93,4*0F
$GNGSA,A,3,,,,,,,,,,,,,5.43,2.27,4.93,3*08
$GPGSV,2,1,06,02,32,298,40,04,51,246,40,07,84,109,39,08,48,207,40,0*6C
$GPGSV,2,2,06,13,49,031,39,25,66,041,39,0*6C

$GBGSV,1,1,00,0*77
$GAGSV,1,1,00,0*74

$GNRMC,000201.00,A,3000.00039,N,12000.00025,E,0.373,,230721,,,A,V*18
$GNGGA,000201.00,3000.00039,N,12000.00025,E,1,06,2.27,2.8,M,,M,,*59
$GNGSA,A,3,02,04,07,13,25,08,,,,,,,5.43,2.27,4.93,1*06
$GNGSA,A,3,,,,,,,,,,,,,5.43,2.27,4.93,4*0F
$GNGSA,A,3,,,,,,,,,,,,,5.43,2.27,4.93,3*08
$GPGSV,2,1,06,02,32,298,40,04,51,246,40,07,84,108,40,08,48,207,40,0*63
$GPGSV,2,2,06,13,49,0
31,40,25,66,041,39,0*62
$GBGSV,1,1,00,0*77
$GAGSV,1,1,00,0*74

$GNGSA,A,3,,,,,,,,,,,,,5.43,2.27,4.93,3*08
$GPGSV,2,1,06,02,32,298,39,04,51,246,40,07,84,108,40,08,48,207,39,0*63
$GPGSV,2,2,06,13,49,031,40,25,66,041,39,0*62
$GBGSV,1,1,00,0*77
$GAGSV,1,1,00,0*74

$GNRMC,000203.00,A,3000.00034,N,12000.00039,E,0.135,,230721,,,A,V*1A
$GNGGA,000203.00,3000.00034,N,12000.00039,E,1,06,2.27,2.8,M,,M,,*5B
$GNGSA,A,3,02,04,07,13,25,08,,,,,,,5.43,2.27,4.93,1*06
$GNGSA,A,3,,,,,,,,,,,,,5.43,2.27,4.93,4*0F
$GNGSA,A,3,,,,,,,,,,,,,5.43,2.27,4.93,3*08
$GPGSV,2,1,06,02,32,298,40,04,51,245,40,07,84,108,40,08,48,207,39,0*6E
$GPGSV,2,2,06,13,49,031,40,25,66,041,39,0*62
$GBGSV,
1,1,00,0*77
$GAGSV,1,1,00,0*74

$GNRMC,000204.00,A,3000.00037,N,12000.00030,E,0.150,,230721,,,A,V*14
$GNGGA,000204.00,3000.00037,N,12000.00030,E,1,06,2.27,2.8,M,,M,,*56
$GNGSA,A,3,02,04,07,13,25,08,,,,,,,5.43,2.27,4.93,1*06
$GNGSA,A,3,,,,,,,,,,,,,5.43,2.27,4.93,4*0F
$GNGSA,A,3,,,,,,,,,,,,,5.43,2.27,4.93,3*08
$GPGSV,2,1,06,02,32,298,40,04,51,245,40,07,84,108,40,08,48,207,40,0*60
$GPGSV,2
,2,06,13,49,031,40,25,66,041,39,0*62
$GBGSV,1,1,00,0*77
$GAGSV,1,1,00,0*74

$GNRMC,000205.00,A,3000.00042,N,12000.00025,E,0.218,,230721,,,A,V*1C
$GNGGA,000205.00,3000.00042,N,12000.00025,E,1,06,2.27,2.8,M,,M,,*51
$GNGSA,A,3,02,04,07,13,25,08,,,,,,,5.43,2.27,4.93,1*06
$GNGSA,A,3,,,,,,,,,,,,,5.43,2.27,4.93,4*0F
$GNGSA,A,3,,,,,,,,,,,,,5.43,2.27,4.93,3*08
$GPGSV,2,1,06,02,32,298,40,04,51,245,40,07,84,108,39,08,48,207,40,0*6E
$GPGSV,2,2,06,13,49,031,39,25,66,041
,40,0*62
$GBGSV,1,1,00,0*77
$GAGSV,1,1,00,0*74

4.94,3*0F
$GPGSV,2,1,06,02,32,298,40,04,51,245,40,07,84,108,40,08,48,207,40,0*60
$GPGSV,2,2,06,13,49,031,40,25,65,041,40,0*6F
$GBGSV,1,1,00,0*77
$GAGSV,1,1,00,0*74

SA,A,3,,,,,,,,,,,,,5.43,2.27,4.94,3*0F
$GPGSV,2,1,06,02,32,298,40,04,51,245,40,07,84,108,40,08,48,207,40,0*60
$GPGSV,2,2,06,13,49,031,40,25,65,041,39,0*61
$GBGSV,1,1,00,0*77
$GAGSV,1,1,00,0*74

.43,2.27,4.94,3*0F
$GPGSV,2,1,06,02,32,298,39,04,51,245,40,07,84,108,40,08,48,207,40,0*6E
$GPGSV,2,2,06,13,49,031,39,25,65,041,40,0*61
$GBGSV,1,1,00,0*77
$GAGSV,1,1,00,0*74

GSA,A,3,,,,,,,,,,,,,5.44,2.27,4.94,3*08
$GPGSV,2,1,06,02,32,298,40,04,51,245,40,07,84,108,39,08,48,207,40,0*6E
$GPGSV,2,2,06,13,49,031,40,25,65,041,40,0*6F
$GBGSV,1,1,00,0*77
$GAGSV,1,1,00,0*74

PGSV,2,1,06,02,32,298,39,04,51,245,39,07,84,108,40,08,48,207,39,0*6E
$GPGSV,2,2,06,13,49,031,40,25,65,041,39,0*61
$GBGSV,1,1,00,0*77
$GAGSV,1,1,00,0*74

$GNRMC,000211.00,A,3000.00054,N,12000.00031,E,0.035,,230721,,,A,V*16
$GNGGA,000211.00,3000.00054,N,12000.00031,E,1,06,2.27,2.8,M,,M,,*56
$GNGSA,A,3,02,04,07,13,25,08,,,,,,,5.44,2.27,4.94,1*06
$GNGSA,A,3,,,,,,,,,,,,,5.44,2.27,4.94,4*0F
$GNGSA,A,3,,,,,,,,,,,,,5.44,2.27,4.94,3*08
$GPGSV,2,1,06,02,32,298,40,04,51,
245,40,07,84,108,40,08,48,207,39,0*6E
$GPGSV,2,2,06,13,49,031,40,25,65,041,40,0*6F
$GBGSV,1,1,00,0*77
$GAGSV,1,1,00,0*74

,3,,,,,,,,,,,,,5.44,2.27,4.94,3*08
$GPGSV,2,1,06,02,32,298,39,04,51,245,39,07,84,107,40,08,48,207,40,0*6F
$GPGSV,2,2,06,13,49,031,40,25,65,041,40,0*6F
$GBGSV,1,1,00,0*77
$GAGSV,1,1,00,0*74

$GNRMC,000213.00,A,3000.00052,N,12000.00018,E,0.250,,230721,,,A,V*18
$GNGGA,000213.00,3000.00052,N,12000.00018,E,1,06,2.27,2.7,M,,M,,*56
$GNGSA,A,3,02,04,07,13,25,08,,,,,,,5.44,2.27,4.94,1*06
$GNGSA,A,3,,,,,,,,,,,,,5.44,2.27,4.94,4*0F
$GNGSA,A,3,,,,,,,,,,,,,5.44,2.27,4.94,3*08
$GPGSV,2,1,06,02,32,298,40,04,51,245,39,07,84,107,40,08,48,207,39,0*6F
$GPGSV,2,2,06,13,49,031,40,25,65,041,40,0*6F
$GBGSV,1,1,00,0*77
$GAGSV,1,1,00,0*74

$GNRMC,000214.00,A,3000.00050,N,12000.00015,E,0.064,,230721,,,A,V*15
$GNGGA,000214.00,3000.00050,N,12000.00015,E,1,06,2.27,2.7,M,,M,,*5E
$GNGSA,A,3,02,04,07,13,25,08,,,,,,,5.44,2.27,4.94,1*06
$GNGSA,A,3,,,,,,,,,,,,,5.44,2.27,4.94,4*0F
$GNGSA,A,3,,,,,,,,,,,,,5.44,2.27,4.94,3*08
$GPGSV,2,1,06,02,32,298,39,04,51,245,40,07,84,107,40,08,48,207,39,0*6F
$GPGSV,2,2,06,13,49,031,39,25,65,041,40,0*61
$GBGSV,1,1,00,0*77
$GAGSV,1,1,00,0*74

,,,,,,,,,,,,5.44,2.27,4.94,3*08
$GPGSV,2,1,06,02,32,298,40,04,51,245,40,07,84,107,40,08,48,207,39,0*61
$GPGSV,2,2,06,13,49,031,40,25,65,041,40,0*6F
$GBGSV,1,1,00,0*77
$GAGSV,1,1,00,0*74

NGSA,A,3,,,,,,,,,,,,,5.44,2.27,4.95,3*09
$GPGSV,2,1,06,02,32,298,40,04,51,245,39,07,84,107,40,08,48,207,40,0*61
$GPGSV,2,2,06,13,49,031,40,25,65,041,40,0*6F
$GBGSV,1,1,00,0*77
$GAGSV,1,1,00,0*74

$GNRMC,000217.00,A,3000.00041,N,12000.00005,E,0.080,,230721,,,A,V*1D
$GNGGA,000217.00,3000.00041,N,12000.00005,E,1,06,2.27,2.7,M,,M,,*5C
$GNGSA,A,3,02,04,07,13,25,08,,,,,,,5.44,2.27,4.95,1*07
$GNGSA,A,3,,,,,,,,,,,,,5.44,2.27,4.95,4*0E
$GNGSA,A,3,,,,,,,,,,,,,5.44,2.27,4.95,3*09
$GPGSV,2,1,06,02,32,298,40,04,51,245,40,07,84,107,40,08,48,207,40,0*6F
$GPGSV,2,2,06,13,49,031,39,25,
65,041,40,0*61
$GBGSV,1,1,00,0*77
$GAGSV,1,1,00,0*74

$GNRMC,000218.00,A,3000.00036,N,12000.00010,E,0.288,,230721,,,A,V*1C
$GNGGA,000218.00,3000.00036,N,12000.00010,E,1,06,2.27,2.7,M,,M,,*57
$GNGSA,A,3,02,04,07,13,25,08,,,,,,,5.45,2.27,4.95,1*06
$GNGSA,A,3,,,,,,,,,,,,,5.45,2.27,4.95,4*0F
$GNGSA,A,3,,,,,,,,,,,,,5.45,2.27,4.95,3*08
$GPGSV
,2,1,06,02,32,298,40,04,51,245,39,07,84,107,39,08,48,207,39,0*61
$GPGSV,2,2,06,13,49,031,40,25,65,041,39,0*61
$GBGSV,1,1,00,0*77
$GAGSV,1,1,00,0*74

$GNRMC,000219.00,A,3000.00026,N,12000.00011,E,0.096,,230721,,,A,V*10
$GNGGA,000219.00,3000.00026,N,12000.00011,E,1,06,2.27,2.7,M,,M,,*56
$GNGSA,A,3,02,04,07,13,25,08,,,,,,,5.45,2.27,4.95,1*06
$GNGSA,A,3,,,,,,,,,,,,,5.45,2.27,4.95,4*0F
$GNGSA,A,3,,,,,,,,,,,,,5.45,2.27,4.95,3*08
$GPGSV,2,1,06,02,32,298,39,04,51,245,40,07,84,107,40,08
,48,207,40,0*61
$GPGSV,2,2,06,13,49,031,39,25,65,041,40,0*61
$GBGSV,1,1,00,0*77
$GAGSV,1,1,00,0*74

$GNRMC,000220.00,A,3000.00026,N,12000.00007,E,0.179,,230721,,,A,V*1D
$GNGGA,000220.00,3000.00026,N,12000.00007,E,1,06,2.27,2.7,M,,M,,*5B
$GNGSA,A,3,02,04,07,13,25,08,,,,,,,5.45,2.27,4.95,1*06
$GNGSA,A,3,,,,,,,,,,,,,5.45,2.27,4.95,4*0F
$GNGSA,A,3,,,,,,,,,,,,,5.45,2.27,4.95,3*08
$GPGSV,2,1,06,02,32,298,39,04,51,245,40,07,84,107,40,08,48,207,40,0*61
$GPGSV,2,2,06,13,49,031,40,25,65,
041,39,0*61
$GBGSV,1,1,00,0*77
$GAGSV,1,1,00,0*74

,5.45,2.27,4.95,3*08
$GPGSV,2,1,06,02,32,298,40,04,51,245,40,07,84,107,40,08,48,207,40,0*6F
$GPGSV,2,2,06,13,49,031,40,25,65,041,39,0*61
$GBGSV,1,1,00,0*77
$GAGSV,1,1,00,0*74

$GNRMC,000222.00,A,3000.00027,N,11959.99997,E,0.138,,230721,,,A,V*1D
$GNGGA,000222.00,3000.00027,N,11959.99997,E,1,06,2.28,2.7,M,,M,,*51
$GNGSA,A,3,02,04,07,13,25,08,,,,,,,5.45,2.28,4.95,1*09
$GNGSA,A,3,,,,,,,,,,,,,5.45,2.28,4.95,4*00
$GNGSA,A,3,,,,,,,,,,,,,5.45,2.28,4.95,3*07
$GPGSV,
2,1,06,02,32,298,39,04,51,245,39,07,84,107,39,08,48,207,39,0*6F
$GPGSV,2,2,06,13,49,031,40,25,65,041,40,0*6F
$GBGSV,1,1,00,0*77
$GAGSV,1,1,00,0*74

$GNRMC,000223.00,A,3000.00017,N,11959.99997,E,0.217,,230721,,,A,V*11
$GNGGA,000223.00,3000.00017,N,11959.99997,E,1,06,2.28,2.7,M,,M,,*53
$GNGSA,A,3,02,04,07,13,25,08,,,,,,,5.45,2.28,4.95,1*09
$GNGSA,A,3,,,,,,,,,,,,,5.45,2.28,4.95,4*00
$GNGSA,A,3,,,,,,,,,,,,,5.45,2.28,4.95,3*07
$GPGSV,2,1,06,02,32,298,40,04,51,245,40,07,84,106,40,08,48,207,40,0*6E
$GPGSV,2,2,06,13,49,031,39,25,65,041,40,0*61
$GBGSV,1
,1,00,0*77
$GAGSV,1,1,00,0*74

$GNRMC,000224.00,A,3000.00013,N,12000.00001,E,0.178,,230721,,,A,V*18
$GNGGA,000224.00,3000.00013,N,12000.00001,E,1,06,2.28,2.7,M,,M,,*50
$GNGSA,A,3,02,04,07,13,25,08,,,,,,,5.45,2.28,4.95,1*09
$GNGSA,A,3,,,,,,,,,,,,,5.45,2.28,4.95,4*00
$GNGSA,A,3,,,,,,,,,,,,,5.45,2.28,4.95,3*07
$GPGSV,2,1,06,02,32,298,39,04,51,245,39,07,84,106,40,08,48,207,40,0*6E
$GPGSV,2,2,06,13,49,031,40,25,65,041,39,0*61
$GBGSV,1,1,00,0*77
$GAGSV,1,1,00,0*74

A,3,,,,,,,,,,,,,5.45,2.28,4.96,3*04
$GPGSV,2,1,06,02,32,298,40,04,51,245,39,07,84,106,40,08,48,207,40,0*60
$GPGSV,2,2,06,13,49,031,39,25,65,041,40,0*61
$GBGSV,1,1,00,0*77
$GAGSV,1,1,00,0*74

$GNRMC,000226.00,A,3000.00025,N,12000.00007,E,0.729,,230721,,,A,V*1B
$GNGGA,000226.00,3000.00025,N,12000.00007,E,1,06,2.28,2.7,M,,M,,*51
$GNGSA,A,3,02,04,07,13,25,08,,,,,,,5.45,2.28,4.96,1*0A
$GNGSA,A,3,,,,,,,,,,,,,5.45,2.28,4.96,4*03
$GNGSA,A,3,,,,,,,,,,,,,5.45,2.28,4.96,3*04
$GPGSV,2,1,06,02,32,298,40,04,51,245,39,07,84,106,39,08,48,207,40,
0*6E
$GPGSV,2,2,06,13,49,031,39,25,65,041,40,0*61
$GBGSV,1,1,00,0*77
$GAGSV,1,1,00,0*74

A,A,3,,,,,,,,,,,,,5.46,2.28,4.96,3*07
$GPGSV,2,1,06,02,32,298,40,04,51,245,39,07,84,106,40,08,48,207,40,0*60
$GPGSV,2,2,06,13,49,031,39,25,65,041,40,0*61
$GBGSV,1,1,00,0*77
$GAGSV,1,1,00,0*74

$GNRMC,000228.00,A,3000.00033,N,12000.00008,E,0.157,,230721,,,A,V*12
$GNGGA,000228.00,3000.00033,N,12000.00008,E,1,06,2.28,2.7,M,,M,,*57
$GNGSA,A,3,02,04,07,13,25,08,,,,,,,5.46,2.28,4.96,1*09
$GNGSA,A,3,,,,,,,,,,,,,5.46,2.28,4.96,4*00
$GNGSA,A,3,,,,,,,,,,,,,5.46,2.28,4.96,3*07
$GPGSV,2,1,06,02,32,298,40,04,51,245,40,07,84,10
6,39,08,48,207,40,0*60
$GPGSV,2,2,06,13,49,031,40,25,65,041,40,0*6F
$GBGSV,1,1,00,0*77
$GAGSV,1,1,00,0*74

$GNRMC,000229.00,A,3000.00035,N,12000.00008,E,0.165,,230721,,,A,V*14
$GNGGA,000229.00,3000.00035,N,12000.00008,E,1,06,2.28,2.7,M,,M,,*50
$GNGSA,A,3,02,04,07,13,25,08,,,,,,,5.46,2.28,4.96,1*09
$GNGSA,A,3,,,,,,,,,,,,,5.46,2.28,4.96,4*00
$GNGSA,A,3,,,,,,,,,,,,,5.46,2.28,4.96,3*07
$GPGSV,2,1,06,02,32,298,40,04,51,245,40,07,84,106,40,08,48,207,40,0*6E
$GPGSV,2,2,06,13,49,031,40,25,65,041,40,0*6F
$GBGSV,1,1,00,0*77
$GA
GSV,1,1,00,0*74


$GNGSA,A,3,,,,,,,,,,,,,5.46,2.28,4.96,3*07
$GPGSV,2,1,06,02,32,298,40,04,51,245,40,07,84,106,40,08,48,207,39,0*60
$GPGSV,2,2,06,13,49,031,39,25,65,041,39,0*6F
$GBGSV,1,1,00,0*77
$GAGSV,1,1,00,0*74

$GNRMC,000231.00,A,3000.00032,N,12000.00013,E,0.267,,230721,,,A,V*11
$GNGGA,000231.00,3000.00032,N,12000.00013,E,1,06,2.28,2.7,M,,M,,*54
$GNGSA,A,3,02,04,07,13,25,08,,,,,,,5.46,2.28,4.96,1*09
$GNGSA,A,3,,,,,,,,,,,,,5.46,2.28,4.96,4*00
$GNGSA,A,3,,,,,,,,,,,,,5.46,2.28,4.96,3*07
$GPGSV,2,1,06,02,32,298,40,04,51,245,39,07,84,106,40,08,48,207,39,0*6E
$GPGSV,2,2,06,13,49,031,40,25,65,041,40,0*6F
$GBGSV,1,1,00,0*77
$GAGSV,1,1,00,0*74

$GNRMC,000232.00,A,3000.00029,N,12000.00012,E,0.220,,230721,,,A,V*1A
$GNGGA,000232.00,3000.00029,N,12000.00012,E,1,06,2.28,2.7,M,,M,,*5C
$GNGSA,A,3,02,04,07,13,25,08,,,,,,,5.46,2.28,4.96,1*09
$GNGSA,A,3,,,,,,,,,,,,,5.46,2.28,4.96,4*00
$GNGSA,A,3,,,,,,,,,,,,,5.46,2.28,4.96,3*07
$GPGSV,2,1,06,02,32,298,40,04,51,245,40,07,84,106,39,08,48,207,40,0*60
$GPGSV,2,
2,06,13,49,031,39,25,65,041,40,0*61
$GBGSV,1,1,00,0*77
$GAGSV,1,1,00,0*74

$GNRMC,000233.00,A,3000.00025,N,12000.00012,E,0.342,,230721,,,A,V*12
$GNGGA,000233.00,3000.00025,N,12000.00012,E,1,06,2.28,2.7,M,,M,,*51
$GNGSA,A,3,02,04,07,13,25,08,,,,,,,5.46,2.28,4.96,1*09
$GNGSA,A,3,,,,,,,,,,,,,5.46,2.28,4.96,4*00
$GNGSA,A,3,,,,,,,,,,,,,5.46,2.28,4.96,3*07
$GPGSV,2,1,06,02,32
,298,40,04,51,245,39,07,84,106,40,08,48,207,40,0*60
$GPGSV,2,2,06,13,49,031,40,25,65,041,40,0*6F
$GBGSV,1,1,00,0*77
$GAGSV,1,1,00,0*74

$GNRMC,000234.00,A,3000.00024,N,12000.00036,E,1.463,,230721,,,A,V*17
$GNGGA,000234.00,3000.00024,N,12000.00036,E,1,06,2.28,2.7,M,,M,,*51
$GNGSA,A,3,02,04,07,13,25,08,,,,,,,5.46,2.28,4.96,1*09
$GNGSA,A,3,,,,,,,,,,,,,5.46,2.28,4.96,4*00
$GNGSA,A,3,,,,,,,,,,,,,5.46,2.28,4.96,3*07
$GPGSV,2,1,06,02,32,298,39,04,51,245,40,07,84,105,40,08,4
8,207,40,0*63
$GPGSV,2,2,06,13,49,031,40,25,65,041,40,0*6F
$GBGSV,1,1,00,0*77
$GAGSV,1,1,00,0*74

$GNRMC,000235.00,A,3000.00024,N,12000.00040,E,0.292,,230721,,,A,V*1E
$GNGGA,000235.00,3000.00024,N,12000.00040,E,1,06,2.28,2.7,M,,M,,*51
$GNGSA,A,3,02,04,07,13,25,08,,,,,,,5.46,2.28,4.97,1*08
$GNGSA,A,3,,,,,,,,,,,,,5.46,2.28,4.97,4*01
$GNGSA,A,3,,,,,,,,,,,,,5.46,2.28,4.97,3*06
$GPGSV,2,1,0
6,02,32,298,40,04,51,245,40,07,84,105,40,08,48,207,40,0*6D
$GPGSV,2,2,06,13,49,031,39,25,65,041,40,0*61
$GBGSV,1,1,00,0*77
$GAGSV,1,1,00,0*74

4.97,3*07
$GPGSV,2,1,06,02,32,298,40,04,51,245,39,07,84,105,40,08,48,207,40,0*63
$GPGSV,2,2,06,13,49,031,40,25,65,041,40,0*6F
$GBGSV,1,1,00,0*77
$GAGSV,1,1,00,0*74

$GPGSV,2,1,06,02,32,298,40,04,51,245,40,07,84,105,40,08,48,207,39,0*63
$GPGSV,2,2,06,13,49,031,40,25,65,041,40,0*6F
$GBGSV,1,1,00,0*77
$GAGSV,1,1,00,0*74

$GNRMC,000238.00,A,3000.00024,N,12000.00017,E,0.050,,230721,,,A,V*1D
$GNGGA,000238.00,3000.00024,N,12000.00017,E,1,06,2.28,2.7,M,,M,,*5E
$GNGSA,A,3,02,04,07,13,25,08,,,,,,,5.47,2.28,4.97,1*09
$GNGSA,A,3,,,,,,,,,,,,,5.47,2.28,4.97,4*00
$GNGSA,A,3,,,,,,,,,,,,,5.47,2.28,4.97,3*07
$GPGSV,2,1,06,02,32,298,39,04,51,245,40,07,84,105,40,08,48,207,39,0*6D
$GPGSV,2,2,06,13,49
,031,40,25,65,041,40,0*6F
$GBGSV,1,1,00,0*77
$GAGSV,1,1,00,0*74

$GNRMC,000239.00,A,3000.00023,N,12000.00025,E,0.239,,230721,,,A,V*17
$GNGGA,000239.00,3000.00023,N,12000.00025,E,1,06,2.28,2.7,M,,M,,*59
$GNGSA,A,3,02,04,07,13,25,08,,,,,,,5.47,2.28,4.97,1*09
$GNGSA,A,3,,,,,,,,,,,,,5.47,2.28,4.97,4*00
$GNGSA,A,3,,,,,,,,,,,,,5.47,2.28,4.97,3*07
$GPGSV,2,1,06,02,32,298,40,04,51,245,40,07,84,105,40,08,48,207,40,0*6D
$GPG
SV,2,2,06,13,49,031,40,25,65,041,40,0*6F
$GBGSV,1,1,00,0*77
$GAGSV,1,1,00,0*74

$GNRMC,000240.00,A,3000.00021,N,12000.00030,E,0.268,,230721,,,A,V*1B
$GNGGA,000240.00,3000.00021,N,12000.00030,E,1,06,2.28,2.7,M,,M,,*51
$GNGSA,A,3,02,04,07,13,25,08,,,,,,,5.47,2.28,4.97,1*09
$GNGSA,A,3,,,,,,,,,,,,,5.47,2.28,4.97,4*00
$GNGSA,A,3,,,,,,,,,,,,,5.47,2.28,4.97,3*07
$GPGSV,2,1,06,02,32,298,39,04,51,245,40,07,84,105,39,08,48,207,40,0*6D
$GPGSV,2,2,06,13,49,031,40,25,65,041,40,0*6F
$GBGSV,1,1,00,0*77
$GAGSV,1,1,00,0*74

$GNRMC,000241.00,A,3000.00021,N,12000.00023,E,0.105,,230721,,,A,V*10
$GNGGA,000241.00,3000.00021,N,12000.00023,E,1,06,2.28,2.7,M,,M,,*52
$GNGSA,A,3,02,04,07,13,25,08,,,,,,,5.47,2.28,4.97,1*09
$GNGSA,A,3,,,,,,,,,,,,,5.47,2.28,4.97,4*00
$GNGSA,A,3,,,,,,,,,,,,,5.47,2.28,4.97,3*07
$GPGSV,2,1,06,02,32,298,40,04,51,245,39,07,84,105,40,08,48,207,40,0*63
$GPGSV,2,2,06,13,49,031,39,25,65,04
1,39,0*6F
$GBGSV,1,1,00,0*77
$GAGSV,1,1,00,0*74

3,,,,,,,,,,,,,5.47,2.28,4.97,3*07
$GPGSV,2,1,06,02,32,298,40,04,51,245,40,07,84,105,40,08,48,207,40,0*6D
$GPGSV,2,2,06,13,49,031,40,25,65,041,40,0*6F
$GBGSV,1,1,00,0*77
$GAGSV,1,1,00,0*74

$GNRMC,000243.00,A,3000.00024,N,12000.00014,E,0.191,,230721,,,A,V*1E
$GNGGA,000243.00,3000.00024,N,12000.00014,E,1,06,2.28,2.6,M,,M,,*50
$GNGSA,A,3,02,04,07,13,25,08,,,,,,,5.47,2.28,4.97,1*09
$GNGSA,A,3,,,,,,,,,,,,,5.47,2.28,4.97,4*00
$GNGSA,A,3,,,,,,,,,,,,,5.47,2.28,4.97,3*07
$GPGSV,2,1,06,02,32,298,40,04,51,245,39,07,84,105,
40,08,48,207,40,0*63
$GPGSV,2,2,06,13,49,031,39,25,65,041,40,0*61
$GBGSV,1,1,00,0*77
$GAGSV,1,1,00,0*74

NGSA,A,3,,,,,,,,,,,,,5.47,2.28,4.98,3*08
$GPGSV,2,1,06,02,32,298,39,04,51,245,40,07,84,104,39,08,48,207,39,0*62
$GPGSV,2,2,06,13,49,031,40,25,65,041,40,0*6F
$GBGSV,1,1,00,0*77
$GAGSV,1,1,00,0*74

$GNRMC,000245.00,A,3000.00014,N,11959.99997,E,0.317,,230721,,,A,V*13
$GNGGA,000245.00,3000.00014,N,11959.99997,E,1,06,2.28,2.6,M,,M,,*51
$GNGSA,A,3,02,04,07,13,25,08,,,,,,,5.48,2.28,4.98,1*09
$GNGSA,A,3,,,,,,,,,,,,,5.48,2.28,4.98,4*00
$GNGSA,A,3,,,,,,,,,,,,,5.48,2.28,4.98,3*07
$GPGSV,2,1,06,02,32,298,40,04,51,245,40,07,84,104,40,08,48,207,40,0*6C
$GPGSV,2,2,06,13,49,031,40,25,65,041,40,0*6F
$GBGSV,1,1,00,0*77
$GAGSV,1,1,00,0*74

$GNRMC,000246.00,A,3000.00012,N,11959.99994,E,0.389,,230721,,,A,V*12
$GNGGA,000246.00,3000.00012,N,11959.99994,E,1,06,2.28,2.6,M,,M,,*57
$GNGSA,A,3,02,04,07,13,25,08,,,,,,,5.48,2.28,4.98,1*09
$GNGSA,A,3,,,,,,,,,,,,,5.48,2.28,4.98,4*00
$GNGSA,A,3,,,,,,,,,,,,,5.48,2.28,4.98,3*07
$GPGSV,2,1,06,02,32,298,39,04,51,245,39,07,84,104,40,08,48,207,40,0*6C
$GPGSV,2,2,06,13,49,032,40,25,65,041,39,0*62
$GBGS
V,1,1,00,0*77
$GAGSV,1,1,00,0*74

$GNRMC,000247.00,A,3000.00002,N,11959.99999,E,0.250,,230721,,,A,V*1A
$GNGGA,000247.00,3000.00002,N,11959.99999,E,1,06,2.28,2.6,M,,M,,*5A
$GNGSA,A,3,02,04,07,13,25,08,,,,,,,5.48,2.28,4.98,1*09
$GNGSA,A,3,,,,,,,,,,,,,5.48,2.28,4.98,4*00
$GNGSA,A,3,,,,,,,,,,,,,5.48,2.28,4.98,3*07
$GPGSV,2,1,06,02,32,298,40,04,51,245,39,07,84,104,40,08,48,207,40,0*62
$GPGSV,2,2,06,13,49,032,40,25,65,041,39,0*62
$GBGSV,1,1,00,0*77
$GAGSV,1,1,00,0*74

$GNRMC,000248.00,A,3000.00001,N,12000.00001,E,0.075,,230721,,,A,V*1D
$GNGGA,000248.00,3000.00001,N,12000.00001,E,1,06,2.28,2.6,M,,M,,*58
$GNGSA,A,3,02,04,07,13,25,08,,,,,,,5.48,2.28,4.98,1*09
$GNGSA,A,3,,,,,,,,,,,,,5.48,2.28,4.98,4*00
$GNGSA,A,3,,,,,,,,,,,,,5.48,2.28,4.98,3*07
$GPGSV,2,1,06,02,32,298,40,04,51,245,40,07,84,104,40,08,48,207,39,0*62
$GPGSV,2,2,06,13,49,032,40,25,65,041,39,0*62
$GBGSV,1,1,00,0*77
$GAGSV,1,1,00,0*74

$GNRMC,000249.00,A,3000.00003,N,12000.00003,E,0.178,,230721,,,A,V*10
$GNGGA,000249.00,3000.00003,N,12000.00003,E,1,06,2.28,2.6,M,,M,,*59
$GNGSA,A,3,02,04,07,13,25,08,,,,,,,5.48,2.28,4.98,1*09
$GNGSA,A,3,,,,,,,,,,,,,5.48,2.28,4.98,4*00
$GNGSA,A,3,,,,,,,,,,,,,5.48,2.28,4.98,3*07
$GPGSV,2,1,06,02,32,298,40,04,51,245,39,07,84,104,39,08,48,207,40,0*6C
$GPGSV,2,2,06,13,48,032,40,25,65,041,40,0*6D
$GBGSV,1,
1,00,0*77
$GAGSV,1,1,00,0*74

$GNRMC,000250.00,A,3000.00010,N,11959.99992,E,0.423,,230721,,,A,V*16
$GNGGA,000250.00,3000.00010,N,11959.99992,E,1,06,2.29,2.6,M,,M,,*55
$GNGSA,A,3,02,04,07,13,25,08,,,,,,,5.48,2.29,4.98,1*08
$GNGSA,A,3,,,,,,,,,,,,,5.48,2.29,4.98,4*01
$GNGSA,A,3,,,,,,,,,,,,,5.48,2.29,4.98,3*06
$GPGSV,2,1,06,02,32,298,40,04,51,245,39,07,84,104,40,08,48,207,39,0*6C
$GPGSV,2,2,06,13,48,032,40,25,65,041,39,0*63
$GBGSV,1,1,00,0*77
$GAGSV,1,1,00,0*74

$GNRMC,000251.00,A,3000.00015,N,11959.99999,E,0.625,,230721,,,A,V*1D
$GNGGA,000251.00,3000.00015,N,11959.99999,E,1,06,2.29,2.6,M,,M,,*5A
$GNGSA,A,3,02,04,07,13,25,08,,,,,,,5.48,2.29,4.98,1*08
$GNGSA,A,3,,,,,,,,,,,,,5.48,2.29,4.98,4*01
$GNGSA,A,3,,,,,,,,,,,,,5.48,2.29,4.98,3*06
$GPGSV,2,1,06,02,32,298,39,04,51,245,40,
07,84,104,39,08,48,207,40,0*6C
$GPGSV,2,2,06,13,48,032,40,25,65,041,39,0*63
$GBGSV,1,1,00,0*77
$GAGSV,1,1,00,0*74

GSV,2,1,06,02,32,298,39,04,51,245,40,07,84,104,40,08,48,207,40,0*62
$GPGSV,2,2,06,13,48,032,40,25,65,041,40,0*6D
$GBGSV,1,1,00,0*77
$GAGSV,1,1,00,0*74

$GNRMC,000253.00,A,3000.00005,N,12000.00008,E,0.370,,230721,,,A,V*1C
$GNGGA,000253.00,3000.00005,N,12000.00008,E,1,06,2.29,2.6,M,,M,,*5E
$GNGSA,A,3,02,04,07,13,25,08,,,,,,,5.48,2.29,4.98,1*08
$GNGSA,A,3,,,,,,,,,,,,,5.48,2.29,4.98,4*01
$GNGSA,A,3,,,,,,,,,,,,,5.48,2.29,4.98,3*06
$GPGSV,2,1,06,02,32,298,40,04,51,245,40,07,
84,104,40,08,48,207,40,0*6C
$GPGSV,2,2,06,13,48,032,39,25,65,041,40,0*63
$GBGSV,1,1,00,0*77
$GAGSV,1,1,00,0*74

$GNRMC,000254.00,A,2959.99998,N,12000.00000,E,0.128,,230721,,,A,V*15
$GNGGA,000254.00,2959.99998,N,12000.00000,E,1,06,2.29,2.6,M,,M,,*58
$GNGSA,A,3,02,04,07,13,25,08,,,,,,,5.48,2.29,4.99,1*09
$GNGSA,A,3,,,,,,,,,,,,,5.48,2.29,4.99,4*00
$GNGSA,A,3,,,,,,,,,,,,,5.48,2.29,4.99,3*07
$GPGSV,2,1,06,02,32,298,40,04,51,245,39,07,84,104,40,08,48,207,39,0*6C
$GPGSV,2,2,06,13,48,
032,40,25,65,041,40,0*6D
$GBGSV,1,1,00,0*77
$GAGSV,1,1,00,0*74

99,3*06
$GPGSV,2,1,06,02,32,298,40,04,51,245,40,07,84,103,39,08,48,207,40,0*65
$GPGSV,2,2,06,13,48,032,40,25,65,041,40,0*6D
$GBGSV,1,1,00,0*77
$GAGSV,1,1,00,0*74

A,3,,,,,,,,,,,,,5.49,2.29,4.99,3*06
$GPGSV,2,1,06,02,32,298,39,04,51,245,39,07,84,103,39,08,48,207,39,0*6B
$GPGSV,2,2,06,13,48,032,40,25,65,041,39,0*63
$GBGSV,1,1,00,0*77
$GAGSV,1,1,00,0*74

GNGSA,A,3,,,,,,,,,,,,,5.49,2.29,4.99,3*06
$GPGSV,2,1,06,02,32,298,40,04,51,245,40,07,84,103,40,08,48,207,39,0*65
$GPGSV,2,2,06,13,48,032,39,25,65,041,40,0*63
$GBGSV,1,1,00,0*77
$GAGSV,1,1,00,0*74

$GNRMC,000258.00,A,2959.99988,N,12000.00006,E,0.129,,230721,,,A,V*1F
$GNGGA,000258.00,2959.99988,N,12000.00006,E,1,06,2.29,2.6,M,,M,,*53
$GNGSA,A,3,02,04,07,13,25,08,,,,,,,5.49,2.29,4.99,1*08
$GNGSA,A,3,,,,,,,,,,,,,5.49,2.29,4.99,4*01
$GNGSA,A,3,,,,,,,,,,,,,5.49,2.29,4.99,3*06
$GPGSV,2,1,06,02,32,298,40,04,51,245,39,07,84,103,40,08,48,207,39,0*6B
$GPGSV,2,2,06,13,48,032,39,25,65,041,40,0*63
$GBGSV,1,1,00,0*77
$GAGSV,1,1,00,0*74

$GNRMC,000259.00,A,2959.99991,N,12000.00024,E,1.310,,230721,,,A,V*1F
$GNGGA,000259.00,2959.99991,N,12000.00024,E,1,06,2.29,2.6,M,,M,,*5A
$GNGSA,A,3,02,04,07,13,25,08,,,,,,,5.49,2.29,4.99,1*08
$GNGSA,A,3,,,,,,,,,,,,,5.49,2.29,4.99,4*01
$GNGSA,A,3,,,,,,,,,,,,,5.49,2.29,4.99,3*06
$GPGSV,2,1,06,02,32,298,40,04,51,245,40,07,84,103,40,08,48,207,40,0*6B
$GPGSV,2,2,06,13,48
,032,39,25,65,041,39,0*6D
$GBGSV,1,1,00,0*77
$GAGSV,1,1,00,0*74

$GNRMC,000300.00,A,2959.99992,N,12000.00026,E,0.174,,230721,,,A,V*12
$GNGGA,000300.00,2959.99992,N,12000.00026,E,1,06,2.29,2.6,M,,M,,*56
$GNGSA,A,3,02,04,07,13,25,08,,,,,,,5.49,2.29,4.99,1*08
$GNGSA,A,3,,,,,,,,,,,,,5.49,2.29,4.99,4*01
$GNGSA,A,3,,,,,,,,,,,,,5.49,2.29,4.99,3*06
$GPGSV,2,1,06,02,32,298,40,04,
51,245,40,07,84,103,40,08,48,207,40,0*6B
$GPGSV,2,2,06,13,48,032,39,25,65,041,40,0*63
$GBGSV,1,1,00,0*77
$GAGSV,1,1,00,0*74

$GNRMC,000301.00,A,2959.99992,N,12000.00021,E,0.246,,230721,,,A,V*16
$GNGGA,000301.00,2959.99992,N,12000.00021,E,1,06,2.29,2.6,M,,M,,*50
$GNGSA,A,3,02,04,07,13,25,08,,,,,,,5.49,2.29,4.99,1*08
$GNGSA,A,3,,,,,,,,,,,,,5.49,2.29,4.99,4*01
$GNGSA,A,3,,,,,,,,,,,,,5.49,2.29,4.99,3*06
$GPGSV,2,1,06,02,33,298,40,04,51,245,40,07,84,103,40,08,48,207,39,0*64
$GPGSV,2,2,06,13,48,032,40,25,65,041,40,0*6D
$GBGSV,1,1,00,0*77
$GAGSV
$GNRMC,000302.00,A,2959.99994,N,12000.00018,E,0.107,,230721,,,A,V*1F
$GNGGA,000302.00,2959.99994,N,12000.00018,E,1,06,2.29,2.6,M,,M,,*5F
$GNGSA,A,3,02,04,07,13,25,08,,,,,,,5.49,2.29,4.99,1*08
$GNGSA,A,3,,,,,,,,,,,,,5.49,2.29,4.99,4*01
$GNGSA,A,3,,,,,,,,,,,,,5.49,2.29,4.99,3*06
$GPGSV,2,1,06,02,33,298,40,04,51,245,40,07,84,103,40,08,48,207,40,0*6A
$GPGSV,2,2,06,13,48,032,40,25,65,041,40,0*6D
$GBGSV,1,1,00,0*77
$GAGSV,1,1,00,0*74

$GNRMC,000303.00,A,2959.99991,N,12000.00023,E,0.359,,230721,,,A,V*1A
$GNGGA,000303.00,2959.99991,N,12000.00023,E,1,06,2.29,2.6,M,,M,,*53
$GNGSA,A,3,02,04,07,13,25,08,,,,,,,5.49,2.29,4.99,1*08
$GNGSA,A,3,,,,,,,,,,,,,5.49,2.29,4.99,4*01
$GNGSA,A,3,,,,,,,,,,,,,5.49,2.29,4.99,3*06
$GPGSV,2,1,06,
02,33,298,39,04,51,245,40,07,84,103,40,08,48,207,40,0*64
$GPGSV,2,2,06,13,48,032,40,25,65,041,39,0*63
$GBGSV,1,1,00,0*77
$GAGSV,1,1,00,0*74

$GNRMC,000304.00,A,2959.99992,N,12000.00019,E,0.168,,230721,,,A,V*17
$GNGGA,000304.00,2959.99992,N,12000.00019,E,1,06,2.29,2.6,M,,M,,*5E
$GNGSA,A,3,02,04,07,13,25,08,,,,,,,5.50,2.29,5.00,1*01
$GNGSA,A,3,,,,,,,,,,,,,5.50,2.29,5.00,4*08
$GNGSA,A,3,,,,,,,,,,,,,5.50,2.29,5.00,3*0F
$GPGSV,2,1,06,02,33,298,40,04,51,245,39,07,84,103,39,08,48,207,40,0*6A
$GPGSV,
2,2,06,13,48,032,40,25,65,041,40,0*6D
$GBGSV,1,1,00,0*77
$GAGSV,1,1,00,0*74

2.29,5.00,3*0F
$GPGSV,2,1,06,02,33,298,40,04,51,245,40,07,84,103,40,08,48,207,40,0*6A
$GPGSV,2,2,06,13,48,032,40,25,65,041,40,0*6D
$GBGSV,1,1,00,0*77
$GAGSV,1,1,00,0*74

$GNRMC,000306.00,A,2959.99995,N,12000.00018,E,0.139,,230721,,,A,V*17
$GNGGA,000306.00,2959.99995,N,12000.00018,E,1,06,2.29,2.6,M,,M,,*5A
$GNGSA,A,3,02,04,07,13,25,08,,,,,,,5.50,2.29,5.00,1*01
$GNGSA,A,3,,,,,,,,,,,,,5.50,2.29,5.00,4*08
$GNGSA,A,3,,,,,,,,,,,,,5.50,2.29,5.00,3*0F
$GPGSV,2,1,06,02,33,298,39,04,51,245,40,07,84,102,39,08,48,207,39,0*65
$GPGSV,2,2,06,13,48,032,39,25,65,041,40,0*63
$GBGSV,1,1,00,0*77
$GAGSV,1,1,00,0*74

$GNRMC,000307.00,A,2959.99996,N,12000.00015,E,0.323,,230721,,,A,V*11
$GNGGA,000307.00,2959.99996,N,12000.00015,E,1,06,2.29,2.6,M,,M,,*55
$GNGSA,A,3,02,04,07,13,25,08,,,,,,,5.50,2.29,5.00,1*01
$GNGSA,A,3,,,,,,,,,,,,,5.50,2.29,5.00,4*08
$GNGSA,A,3,,,,,,,,,,,,,5.50,2.29,5.00,3*0F
$GPGSV,2,1,06,02,33,298,39,04,51,245,40,07,84,102,40,08,48,207,40,0*65
$GPGSV,2,2,06,13,48,032,40,25,65,041,39,0*63
$GBGSV,1,1,00,0*77
$GAGSV,1,1,00,0*74

$GNRMC,000308.00,A,2959.99995,N,12000.00019,E,0.298,,230721,,,A,V*10
$GNGGA,000308.00,2959.99995,N,12000.00019,E,1,06,2.29,2.6,M,,M,,*55
$GNGSA,A,3,02,04,07,13,25,08,,,,,,,5.50,2.29,5.00,1*01
$GNGSA,A,3,,,,,,,,,,,,,5.50,2.29,5.00,4*08
$GNGSA,A,3,,,,,,,,,,,,,5.50,2.29,5.00,3*0F
$GPGSV,2,1,06,02,
33,298,39,04,51,245,40,07,84,102,39,08,48,207,40,0*6B
$GPGSV,2,2,06,13,48,032,40,25,65,041,40,0*6D
$GBGSV,1,1,00,0*77
$GAGSV,1,1,00,0*74

,A,3,,,,,,,,,,,,,5.50,2.29,5.00,3*0F
$GPGSV,2,1,06,02,33,298,39,04,51,245,40,07,84,102,40,08,48,207,39,0*6B
$GPGSV,2,2,06,13,48,032,39,25,65,041,39,0*6D
$GBGSV,1,1,00,0*77
$GAGSV,1,1,00,0*74

$GNRMC,000310.00,A,2959.99994,N,12000.00018,E,0.380,,230721,,,A,V*11
$GNGGA,000310.00,2959.99994,N,12000.00018,E,1,06,2.29,2.6,M,,M,,*5C
$GNGSA,A,3,02,04,07,13,25,08,,,,,,,5.50,2.29,5.00,1*01
$GNGSA,A,3,,,,,,,,,,,,,5.50,2.29,5.00,4*08
$GNGSA,A,3,,,,,,,,,,,,,5.50,2.29,5.00,3*0F
$GPGSV,2
,1,06,02,33,298,39,04,51,245,40,07,84,102,39,08,48,207,40,0*6B
$GPGSV,2,2,06,13,48,032,40,25,65,041,40,0*6D
$GBGSV,1,1,00,0*77
$GAGSV,1,1,00,0*74

$GNRMC,000311.00,A,3000.00003,N,12000.00007,E,0.345,,230721,,,A,V*14
$GNGGA,000311.00,3000.00003,N,12000.00007,E,1,06,2.29,2.6,M,,M,,*50
$GNGSA,A,3,02,04,07,13,25,08,,,,,,,5.50,2.29,5.00,1*01
$GNGSA,A,3,,,,,,,,,,,,,5.50,2.29,5.00,4*08
$GNGSA,A,3,,,,,,,,,,,,,5.50,2.29,5.00,3*0F
$GPGSV,2,1,06,02,33,298,40,04,51,245,40,07,84,102,40,08,48,207,39,0*65
$GPGSV,2,2,06,13,48,032,39,25,65,
041,40,0*63
$GBGSV,1,1,00,0*77
$GAGSV,1,1,00,0*74

$GNRMC,000312.00,A,3000.00003,N,12000.00006,E,0.323,,230721,,,A,V*16
$GNGGA,000312.00,3000.00003,N,12000.00006,E,1,06,2.29,2.6,M,,M,,*52
$GNGSA,A,3,02,04,07,13,25,08,,,,,,,5.50,2.29,5.00,1*01
$GNGSA,A,3,,,,,,,,,,,,,5.50,2.29,5.00,4*08
$GNGSA,A,3,,,,,,,,,,,,,5.50,2.29,5.00,3*0F
$GPGSV,2,1,06,02,33,298,39,04,51,245,40,07,84,102,40,08,48,207,40,0*65
$GPGSV,2,2,06
,13,48,032,40,25,65,041,40,0*6D
$GBGSV,1,1,00,0*77
$GAGSV,1,1,00,0*74

3,,,,,,,,,,,,,5.50,2.29,5.00,3*0F
$GPGSV,2,1,06,02,33,298,40,04,51,245,40,07,84,102,40,08,48,207,40,0*6B
$GPGSV,2,2,06,13,48,032,39,25,65,041,40,0*63
$GBGSV,1,1,00,0*77
$GAGSV,1,1,00,0*74

9,5.01,3*0F
$GPGSV,2,1,06,02,33,298,40,04,51,245,40,07,84,102,39,08,48,207,39,0*6B
$GPGSV,2,2,06,13,48,032,39,25,65,041,40,0*63
$GBGSV,1,1,00,0*77
$GAGSV,1,1,00,0*74


$GNGSA,A,3,,,,,,,,,,,,,5.51,2.29,5.01,3*0F
$GPGSV,2,1,06,02,33,298,40,04,51,245,39,07,84,102,40,08,48,207,39,0*6B
$GPGSV,2,2,06,13,48,032,40,25,65,041,39,0*63
$GBGSV,1,1,00,0*77
$GAGSV,1,1,00,0*74

$GNRMC,000316.00,A,3000.00012,N,12000.00012,E,0.120,,230721,,,A,V*16
$GNGGA,000316.00,3000.00012,N,12000.00012,E,1,06,2.29,2.6,M,,M,,*53
$GNGSA,A,3,02,04,07,13,25,08,,,,,,,5.51,2.29,5.01,1*01
$GNGSA,A,3,,,,,,,,,,,,,5.51,2.29,5.01,4*08
$GNGSA,A,3,,,,,,,,,,,,,5.51,2.29,5.01,3*0F
$GPGSV,2,1,06,02,33,298,40,04,51,245,40,07,84,102,40,08,48,207,40,0*6B
$GPGSV,2,2,06,13,48,032,40,25,65,041,40,0*6
D
$GBGSV,1,1,00,0*77
$GAGSV,1,1,00,0*74

0F
$GPGSV,2,1,06,02,33,298,40,04,51,245,39,07,84,101,40,08,48,207,39,0*68
$GPGSV,2,2,06,13,48,032,39,25,65,041,40,0*63
$GBGSV,1,1,00,0*77
$GAGSV,1,1,00,0*74

,A,3,,,,,,,,,,,,,5.51,2.30,5.01,3*07
$GPGSV,2,1,06,02,33,298,40,04,51,245,40,07,84,101,40,08,48,207,39,0*66
$GPGSV,2,2,06,13,48,032,40,25,65,041,40,0*6D
$GBGSV,1,1,00,0*77
$GAGSV,1,1,00,0*74

$GNRMC,000319.00,A,2959.99986,N,12000.00041,E,0.090,,230721,,,A,V*15
$GNGGA,000319.00,2959.99986,N,12000.00041,E,1,06,2.30,2.6,M,,M,,*52
$GNGSA,A,3,02,04,07,13,25,08,,,,,,,5.51,2.30,5.01,1*09
$GNGSA,A,3,,,,,,,,,,,,,5.51,2.30,5.01,4*00
$GNGSA,A,3,,,,,,,,,,,,,5.51,2.30,5.01,3*07
$GPGSV,2,1,06,02,33,298,40,04,51,245,40,07,84,101,40,08,48,207,39,0*66
$GPGSV,2,2,06,13,48,032,39,25,65,041,40
,0*63
$GBGSV,1,1,00,0*77
$GAGSV,1,1,00,0*74

$GNRMC,000320.00,A,2959.99990,N,12000.00032,E,0.191,,230721,,,A,V*1C
$GNGGA,000320.00,2959.99990,N,12000.00032,E,1,06,2.30,2.6,M,,M,,*5B
$GNGSA,A,3,02,04,07,13,25,08,,,,,,,5.51,2.30,5.01,1*09
$GNGSA,A,3,,,,,,,,,,,,,5.51,2.30,5.01,4*00
$GNGSA,A,3,,,,,,,,,,,,,5.51,2.30,5.01,3*07
$GPGSV,2,1,06,02,33,298,39,04,51,245,40,07,84,101,39,08,48,207,39,0*66
$GPGSV,2,2,06,13,48,032,39,25,6
5,041,39,0*6D
$GBGSV,1,1,00,0*77
$GAGSV,1,1,00,0*74

$GNRMC,000321.00,A,2959.99999,N,12000.00026,E,0.059,,230721,,,A,V*14
$GNGGA,000321.00,2959.99999,N,12000.00026,E,1,06,2.30,2.6,M,,M,,*56
$GNGSA,A,3,02,04,07,13,25,08,,,,,,,5.51,2.30,5.01,1*09
$GNGSA,A,3,,,,,,,,,,,,,5.51,2.30,5.01,4*00
$GNGSA,A,3,,,,,,,,,,,,,5.51,2.30,5.01,3*07
$GPGSV,2,1,06,02,33,298,39,04,51,245,39,07,84,101,39,08,48,207,40,
0*66
$GPGSV,2,2,06,13,48,032,39,25,65,041,40,0*63
$GBGSV,1,1,00,0*77
$GAGSV,1,1,00,0*74

30,5.01,3*07
$GPGSV,2,1,06,02,33,298,40,04,51,245,39,07,84,101,39,08,48,207,40,0*68
$GPGSV,2,2,06,13,48,032,39,25,65,041,40,0*63
$GBGSV,1,1,00,0*77
$GAGSV,1,1,00,0*74

GNGSA,A,3,,,,,,,,,,,,,5.52,2.30,5.01,3*04
$GPGSV,2,1,06,02,33,298,40,04,51,245,40,07,84,101,39,08,48,207,40,0*66
$GPGSV,2,2,06,13,48,032,39,25,65,041,40,0*63
$GBGSV,1,1,00,0*77
$GAGSV,1,1,00,0*74

$GNRMC,000324.00,A,3000.00015,N,12000.00014,E,0.088,,230721,,,A,V*15
$GNGGA,000324.00,3000.00015,N,12000.00014,E,1,06,2.30,2.6,M,,M,,*5B
$GNGSA,A,3,02,04,07,13,25,08,,,,,,,5.52,2.30,5.02,1*09
$GNGSA,A,3,,,,,,,,,,,,,5.52,2.30,5.02,4*00
$GNGSA,A,3,,,,,,,,,,,,,5.52,2.30,5.02,3*07
$GPGSV,2,
1,06,02,33,298,40,04,51,245,40,07,84,101,40,08,48,207,40,0*68
$GPGSV,2,2,06,13,48,032,39,25,65,041,40,0*63
$GBGSV,1,1,00,0*77
$GAGSV,1,1,00,0*74

$GNRMC,000325.00,A,3000.00026,N,12000.00016,E,0.128,,230721,,,A,V*1D
$GNGGA,000325.00,3000.00026,N,12000.00016,E,1,06,2.30,2.6,M,,M,,*58
$GNGSA,A,3,02,04,07,13,25,08,,,,,,,5.52,2.30,5.02,1*09
$GNGSA,A,3,,,,,,,,,,,,,5.52,2.30,5.02,4*00
$GNGSA,A,3,,,,,,,,,,,,,5.52,2.30,5.02,3*07
$GPGSV,2,1,06,02,33,298,39,04,51,245,40,07,84,101,39,08,48,207,40,0*68
$GPGSV,2,2,06,13,48,032,40,25,65,041,39,0*63
$GBGSV,1,1,00,0*77
$GAGSV,1,1,00,0*74

,3,,,,,,,,,,,,,5.52,2.30,5.02,3*07
$GPGSV,2,1,06,02,33,298,39,04,51,244,39,07,84,101,40,08,48,207,40,0*69
$GPGSV,2,2,06,13,48,032,39,25,65,041,39,0*6D
$GBGSV,1,1,00,0*77
$GAGSV,1,1,00,0*74

.30,5.02,3*07
$GPGSV,2,1,06,02,33,298,40,04,51,244,40,07,84,100,39,08,48,207,39,0*68
$GPGSV,2,2,06,13,48,032,40,25,65,041,39,0*63
$GBGSV,1,1,00,0*77
$GAGSV,1,1,00,0*74

SV,2,1,06,02,33,298,39,04,51,244,39,07,84,100,40,08,48,207,39,0*66
