$GNRMC,000020.00,A,2959.99988,N,12000.00063,E,0.062,,230721,,,A,V*1F
$GNGGA,000020.00,2959.99988,N,12000.00063,E,1,15,0.96,-0.6,M,,M,,*76
$GNGSA,A,3,07,13,02,04,08,25,,,,,,,1.73,0.96,1.43,1*01
$GNGSA,A,3,13,06,09,14,,,,,,,,,1.73,0.96,1.43,4*00
$GNGSA,A,3,10,11,17
,24,27,,,,,,,,1.73,0.96,1.43,3*0B
$GPGSV,4,1,14,02,32,299,36,04,51,247,35,07,84,118,36,08,47,207,35,0*68
$GPGSV,4,2,14,13,49,030,36,25,66,042,35,16,01,039,,20,23,121,,0*65
$GPGSV,4,3,14,23,27,056,,27,18,218,,42,48,143,,50,45,136,,0*6B
$GPGSV,4,4,14,40,13,256,,41,36,236,,0*60
$GBGSV,3,1,09,06,37,215,31,09,37,287,31,13,48,202,32,14,09,164,31,0*7A
$GBGSV,3,2,09,01,37,122,31,02,50,173,32,04,36,125,,11,18,131,,0*77
$GBGSV,3,3,09,12,10,060,,0*4A
$GAGSV,2,1,08,10,63,334,34,11,56,116,35,17,31,039,33,24,85,020,34,0*7B
$GAGSV,2,2,08,27,30,125,35,09,13,316,,12,06,130,,23,38,222,,0*7A

$GNRMC,000021.00,A,2959.99991,N,12000.00067,E,0.130,,230721,,,A,V*14
$GNGGA,000021.00,2959.99991,N,12000.00067,E,1,15,0.96,-1.6,M,,M,,*7A
$GNGSA,A,3,07,13,02,04,08,25,,,,,,,1.73,0.96,1.43,1*01
$GNGSA,A,3,13,06,09,14,,,,,,,,,1.73,0.96,1.43,4*00
$GNGSA,A,3,10,11,17,24,27,,,,,,,,1.73,0.96,1.43,3*0B
$GPGSV,4,1,1
4,02,32,299,35,04,51,247,36,07,84,118,36,08,47,207,36,0*6B
$GPGSV,4,2,14,13,49,030,36,25,66,042,36,16,01,039,,20,23,121,,0*66
$GPGSV,4,3,14,23,27,056,,27,18,218,,42,48,143,,50,45,136,,0*6B
$GPGSV,4,4,14,40,13,256,,41,36,236,,0*60
$GBGSV,3,1,09,06,37,215,31,09,37,287,31,13,48,202,32,14,09,164,31,0*7A
$GBGSV,3,2,09,01,37,122,31,02,50,173,32,04,36,125,,11,18,131,,0*77
$GBGSV,3,3,09,12,10,060,,0*4A
$GAGSV,2,1,08,10,63,334,34,11,56,116,34,17,31,039,34,24,85,020,34,0*7D
$GAGSV,2,2,08,27,30,125,34,09,13,316,,12,06,130,,23,38,222,35,0*7D

$GNRMC,000022.00,A,2959.99989,N,12000.00068,E,0.091,,230721,,,A,V*1B
$GNGGA,000022.00,2959.99989,N,12000.00068,E,1,16,0.96,-1.4,M,,M,,*7E
$GNGSA,A,3,07,13,02,04,08,25,,,,,,,1.73,0.96,1.43,1*01
$GNGSA,A,3,13,06,09,14,,,,,,,,,1.73,0.96,1.43,4*00
$GNGSA,A,3,10,11,17,24,27,23,,,,,,,1.
73,0.96,1.43,3*0A
$GPGSV,4,1,14,02,32,299,36,04,51,247,36,07,84,117,36,08,47,207,35,0*64
$GPGSV,4,2,14,13,49,030,36,25,66,042,36,16,01,039,,20,23,121,,0*66
$GPGSV,4,3,14,23,27,056,,27,18,218,,42,48,143,,50,45,136,,0*6B
$GPGSV,4,4,14,40,13,256,,41,36,236,,0*60
$GBGSV,3,1,09,06,37,215,31,09,37,287,32,13,48,202,32,14,09,164,31,0*79
$GBGSV,3,2,09,01,37,122,31,02,50,173,32,04,36,125,,11,18,131,,0*77
$GBGSV,3,3,09,12,10,060,,0*4A
$GAGSV,2,1,08,10,63,334,34,11,56,116,34,17,31,039,33,24,85,020,34,0*7A
$GAGSV,2,2,08,27,30,125,34,09,13,316,,12,06,130,,23,38,222,35,0*7D

$GNRMC,000023.00,A,2959.99987,N,12000.00058,E,0.466,,230721,,,A,V*1B
$GNGGA,000023.00,2959.99987,N,12000.00058,E,1,16,0.85,-1.5,M,,M,,*71
$GNGSA,A,3,07,13,02,04,08,25,,,,,,,1.64,0.85,1.40,1*06
$GNGSA,A,3,13,06,09,14,,,,,,,,,1.64,0.85,1.40,4*07
$GNGSA,A,3,10,11,17,24,27,23,,,,,,,1.64,0.85,1.40,3*0
D
$GPGSV,4,1,14,02,32,299,35,04,51,247,36,07,84,117,37,08,47,207,36,0*65
$GPGSV,4,2,14,13,49,030,36,25,66,042,37,16,01,039,,20,23,121,,0*67
$GPGSV,4,3,14,23,27,056,,27,18,218,,42,48,143,,50,45,136,,0*6B
$GPGSV,4,4,14,40,13,256,,41,36,236,,0*60
$GBGSV,3,1,09,06,37,215,31,09,37,287,31,13,48,202,32,14,09,164,31,0*7A
$GBGSV,3,2,09,01,37,122,31,02,50,173,32,04,36,125,,11,18,131,,0*77
$GBGSV,3,3,09,12,10,060,,0*4A
$GAGSV,2,1,08,10,63,334,34,11,56,116,34,17,31,039,33,23,38,222,34,0*7B
$GAGSV,2,2,08,24,85,020,34,27,30,125,33,09,13,316,,12,06,130,,0*7A

$GNRMC,000024.00,A,2959.99991,N,12000.00053,E,0.200,,230721,,,A,V*16
$GNGGA,000024.00,2959.99991,N,12000.00053,E,1,16,0.85,-1.3,M,,M,,*7C
$GNGSA,A,3,07,13,02,04,08,25,,,,,,,1.64,0.85,1.40,1*06
$GNGSA,A,3,13,06,09,14,,,,,,,,,1.64,0.85,1.40,4*07
$GNGSA,A,3,10,11,17,24,27,23,,,,,,,1.64,0.85,1.40,3*0D
$GPGSV,4,1,14,02,32,299,36,04,51,247,36,07,84,117,36,08,47,207,36,0*67
$GPGSV,4,2,14,13,
49,030,35,25,66,042,36,16,01,039,,20,23,121,,0*65
$GPGSV,4,3,14,23,27,056,,27,18,218,,42,48,143,,50,45,136,,0*6B
$GPGSV,4,4,14,40,13,256,,41,36,236,,0*60
$GBGSV,3,1,09,06,37,215,31,09,37,287,31,13,48,202,32,14,09,164,31,0*7A
$GBGSV,3,2,09,01,37,122,31,02,50,173,31,04,36,125,,11,18,131,,0*74
$GBGSV,3,3,09,12,10,060,,0*4A
$GAGSV,2,1,08,10,63,334,34,11,56,117,34,17,31,039,33,23,38,222,34,0*7A
$GAGSV,2,2,08,24,85,020,34,27,30,125,33,09,13,316,,12,06,130,,0*7A

$GNRMC,000025.00,A,3000.00012,N,12000.00040,E,0.307,,230721,,,A,V*15
$GNGGA,000025.00,3000.00012,N,12000.00040,E,1,16,0.85,-0.3,M,,M,,*78
$GNGSA,A,3,07,13,02,04,08,25,,,,,,,1.64,0.85,1.40,1*06
$GNGSA,A,3,13,06,09,14,,,,,,,,,1.64,0.85,1.40,4*07
$GNGSA,A,3,10,11,17,24,27,23,,,,,,,1.64,0.85,1.40,3*0D
$GPGSV,4,1,14,02,32,299,35,04,51,247,36,07,84,117,36,08,47,
207,36,0*64
$GPGSV,4,2,14,13,49,030,36,25,66,042,36,16,01,039,,20,23,121,,0*66
$GPGSV,4,3,14,23,27,056,,27,18,218,,42,48,143,,50,45,136,,0*6B
$GPGSV,4,4,14,40,13,256,,41,36,236,,0*60
$GBGSV,3,1,09,06,37,215,31,09,37,287,31,13,48,202,32,14,09,164,31,0*7A
$GBGSV,3,2,09,01,37,122,31,02,50,173,31,04,36,125,,11,18,131,,0*74
$GBGSV,3,3,09,12,10,060,,0*4A
$GAGSV,2,1,08,10,63,334,34,11,56,117,34,17,31,039,33,23,38,222,34,0*7A
$GAGSV,2,2,08,24,85,020,34,27,30,126,33,09,13,316,,12,06,130,,0*79

$GNRMC,000026.00,A,3000.00018,N,12000.00052,E,0.131,,230721,,,A,V*18
$GNGGA,000026.00,3000.00018,N,12000.00052,E,1,16,0.85,-0.4,M,,M,,*75
$GNGSA,A,3,07,13,02,04,08,25,,,,,,,1.64,0.85,1.40,1*06
$GNGSA,A,3,13,06,09,14,,,,,,,,,1.64,0.85,1.40,4*
07
$GNGSA,A,3,10,11,17,24,27,23,,,,,,,1.64,0.85,1.40,3*0D
$GPGSV,4,1,14,02,32,299,35,04,51,247,36,07,84,117,36,08,47,207,35,0*67
$GPGSV,4,2,14,13,49,030,36,25,66,042,36,16,01,039,,20,23,121,,0*66
$GPGSV,4,3,14,23,27,056,,27,18,218,,42,48,143,,50,45,136,,0*6B
$GPGSV,4,4,14,40,13,256,,41,36,236,,0*60
$GBGSV,3,1,09,06,37,215,31,09,37,287,31,13,48,202,32,14,09,164,31,0*7A
$GBGSV,3,2,09,01,37,122,31,02,50,173,31,04,36,125,,11,18,131,,0*74
$GBGSV,3,3,09,12,10,060,,0*4A
$GAGSV,2,1,08,10,63,334,34,11,56,117,34,17,31,039,34,23,38,222,33,0*7A
$GAGSV,2,2,08,24,85,020,34,27,30,126,33,09,13,316,,12,06,130,,0*79

$GNRMC,000027.00,A,3000.00007,N,12000.00037,E,0.239,,230721,,,A,V*1F
$GNGGA,000027.00,3000.00007,N,12000.00037,E,1,16,0.85,-0.2,M,,M,,*7F
$GNGSA,A,3,07,13,02,04,08,25,,,,,,,1.64,0.85,1.40,1*06
$GNGSA,A,3,13,06,09,14,,,,,,,,,1.64,0.85,1.40,4*07
$GNGSA,A,3,10,11,17,24,27,23,,,,,,,1.64,0.85,1.40,3*0D
$GPGSV,4,1,14,02,32,299,35,04,51,247,36,07,84,117,36,08,47,207,36,0*64
$GPGSV,4,2,14,
13,49,030,35,25,66,042,37,16,01,039,,20,23,121,,0*64
$GPGSV,4,3,14,23,27,056,,27,18,218,,42,48,143,,50,45,136,,0*6B
$GPGSV,4,4,14,40,13,256,,41,36,236,,0*60
$GBGSV,3,1,09,06,37,215,32,09,37,287,31,13,48,202,32,14,09,164,31,0*79
$GBGSV,3,2,09,01,37,122,31,02,50,173,31,04,36,125,,11,18,131,,0*74
$GBGSV,3,3,09,12,10,060,,0*4A
$GAGSV,2,1,08,10,63,334,35,11,56,117,34,17,31,039,33,23,38,222,33,0*7C
$GAGSV,2,2,08,24,85,020,34,27,30,126,33,09,13,316,,12,06,130,,0*79

$GNRMC,000028.00,A,3000.00007,N,12000.00023,E,0.247,,230721,,,A,V*1C
$GNGGA,000028.00,3000.00007,N,12000.00023,E,1,16,0.85,0.2,M,,M,,*58
$GNGSA,A,3,07,13,02,04,08,25,,,,,,,1.64,0.85,1.40,1*06
$GNGSA,A,3,13,06,09,14,,,,,,,,,1.64,0.85,1.40,4*07
$GNGSA,A,3,10,11,17,24,27,23,,,,,,,1.64,0.85,1.40,3*0D
$GPGSV,4,1,14,02,32,299,35,04,51,247,35,07,84,117,37,08,47,207,35,0*65
$GPGSV,4,2,14,
13,49,030,36,25,66,042,36,16,01,039,,20,23,121,,0*66
$GPGSV,4,3,14,23,27,056,,27,18,218,,42,48,143,,50,45,136,,0*6B
$GPGSV,4,4,14,40,13,256,,41,36,236,,0*60
$GBGSV,3,1,09,06,37,215,32,09,37,287,31,13,48,202,32,14,09,164,31,0*79
$GBGSV,3,2,09,01,37,122,31,02,50,173,31,04,36,125,,11,18,131,,0*74
$GBGSV,3,3,09,12,10,060,,0*4A
$GAGSV,2,1,08,10,63,334,34,11,56,117,34,17,31,039,33,23,38,222,34,0*7A
$GAGSV,2,2,08,24,85,020,34,27,30,126,33,09,13,316,,12,06,130,,0*79

$GNRMC,000029.00,A,3000.00017,N,12000.00023,E,0.154,,230721,,,A,V*1D
$GNGGA,000029.00,3000.00017,N,12000.00023,E,1,16,0.85,0.1,M,,M,,*5B
$GNGSA,A,3,07,13,02,04,08,25,,,,,,,1.64,0.85,1.40,1*06
$GNGSA,A,3,13,06,09,14,,,,,,,,,1.64,0.85,1.40,4*07
$GNGSA,A,3,10,11,17,24,27,23,,,,,,,1.64,0.85,1.40,3*0D
$GPGSV,4,1,14,02,32,
299,35,04,51,247,36,07,84,117,37,08,47,207,36,0*65
$GPGSV,4,2,14,13,49,030,36,25,66,042,36,16,01,039,,20,23,121,,0*66
$GPGSV,4,3,14,23,27,056,,27,18,218,,42,48,143,,50,45,136,,0*6B
$GPGSV,4,4,14,40,13,256,,41,36,236,,0*60
$GBGSV,3,1,09,06,37,215,31,09,37,287,31,13,48,202,32,14,09,164,31,0*7A
$GBGSV,3,2,09,01,37,122,31,02,50,173,31,04,36,125,,11,18,131,,0*74
$GBGSV,3,3,09,12,10,060,,0*4A
$GAGSV,2,1,08,10,63,334,34,11,56,117,34,17,31,039,34,23,38,222,34,0*7D
$GAGSV,2,2,08,24,85,020,34,27,30,126,34,09,13,316,,12,06,130,,0*7E

$GNRMC,000030.00,A,3000.00016,N,12000.00011,E,0.111,,230721,,,A,V*14
$GNGGA,000030.00,3000.00016,N,12000.00011,E,1,16,0.85,0.5,M,,M,,*57
$GNGSA,A,3,07,13,02,04,08,25,,,,,,,1.64,0.85,1.40,1*06
$GNGSA,A,3,13,06,09,14,,,,,,,,,1.64,0.85,1.40,4*07
$GNGSA,A,3,10,11,17,24
,27,23,,,,,,,1.64,0.85,1.40,3*0D
$GPGSV,4,1,14,02,32,299,35,04,51,247,36,07,84,117,36,08,47,207,36,0*64
$GPGSV,4,2,14,13,49,030,36,25,66,042,36,16,01,039,,20,23,121,,0*66
$GPGSV,4,3,14,23,27,056,,27,18,218,,42,48,143,,50,45,136,,0*6B
$GPGSV,4,4,14,40,13,256,,41,36,236,,0*60
$GBGSV,3,1,09,06,37,215,31,09,37,287,31,13,48,202,32,14,09,164,31,0*7A
$GBGSV,3,2,09,01,37,122,31,02,50,173,31,04,36,125,,11,18,131,,0*74
$GBGSV,3,3,09,12,10,060,,0*4A
$GAGSV,2,1,08,10,63,334,34,11,56,117,34,17,31,039,33,23,38,222,33,0*7D
$GAGSV,2,2,08,24,85,020,34,27,30,126,32,09,13,316,,12,06,130,,0*78

$GNRMC,000031.00,A,3000.00013,N,12000.00009,E,0.203,,230721,,,A,V*19
$GNGGA,000031.00,3000.00013,N,12000.00009,E,1,16,0.85,0.5,M,,M,,*5A
$GNGSA,A,3,07,13,02,04,08,25,,,,,,,1.64,0.85,1.40,1*06
$GNGSA,A,3,13,06,09,14,,,,,,,,,1.64,0.85,1.40,4*07
$GNGSA,A,3,10,11,17,24,27,23,,,,,,,1.64,0.85,1.40,3*0D
$GPGSV,4,1,14,02,32,299,35,04,51,247,36,07,84,117,37,08,47,207,36,0*65
$GPGSV,4,2,14,13,49,030,36,25,
66,042,36,16,01,039,,20,23,121,,0*66
$GPGSV,4,3,14,23,27,056,,27,18,218,,42,48,143,,50,45,136,,0*6B
$GPGSV,4,4,14,40,13,256,,41,36,236,,0*60
$GBGSV,3,1,09,06,37,215,31,09,37,287,31,13,48,202,32,14,09,164,31,0*7A
$GBGSV,3,2,09,01,37,122,31,02,50,173,31,04,36,125,,11,18,131,,0*74
$GBGSV,3,3,09,12,10,060,,0*4A
$GAGSV,2,1,08,10,63,334,34,11,56,117,34,17,31,039,33,23,38,222,33,0*7D
$GAGSV,2,2,08,24,85,020,34,27,30,126,33,09,13,316,,12,06,130,,0*79

$GNRMC,000032.00,A,3000.00016,N,12000.00011,E,0.159,,230721,,,A,V*1A
$GNGGA,000032.00,3000.00016,N,12000.00011,E,1,16,0.85,0.9,M,,M,,*59
$GNGSA,A,3,07,13,02,04,08,25,,,,,,,1.64,0.85,1.40,1*06
$GNGSA,A,3,13,06,09,14,,,,,,,,,1.64,0.85,1.40,4*07
$GNGSA,A,3,10,11,17,24,27,23,,,,,,,1
.64,0.85,1.40,3*0D
$GPGSV,4,1,14,02,32,299,36,04,51,247,36,07,84,117,36,08,47,207,36,0*67
$GPGSV,4,2,14,13,49,030,36,25,66,042,36,16,01,039,,20,23,121,,0*66
$GPGSV,4,3,14,23,27,056,,27,18,218,,42,48,143,,50,45,136,,0*6B
$GPGSV,4,4,14,40,13,256,,41,36,236,,0*60
$GBGSV,3,1,09,06,37,215,31,09,37,287,31,13,48,202,32,14,09,164,31,0*7A
$GBGSV,3,2,09,01,37,122,32,02,50,173,31,04,36,125,,11,18,131,,0*77
$GBGSV,3,3,09,12,10,060,,0*4A
$GAGSV,2,1,08,10,63,334,34,11,56,117,34,17,31,039,33,23,38,222,33,0*7D
$GAGSV,2,2,08,24,85,020,34,27,30,126,33,09,13,316,,12,06,130,,0*79

$GNRMC,000033.00,A,3000.00010,N,12000.00010,E,0.161,,230721,,,A,V*17
$GNGGA,000033.00,3000.00010,N,12000.00010,E,1,16,0.85,0.9,M,,M,,*5F
$GNGSA,A,3,07,13,02,04,08,25,,,,,,,1.64,0.85,1.40,1*06
$GNGSA,A,3,13,06,09,14,,,,,,,,,1.64,0.85,1.40,4*07
$GNGSA,A,3,10,11,17,24,27,23,,,,,,,1.64,0.85,1.40,3*0D
$GPGSV,4,1,14,02,32,299,36,04,51,247,35,07,84,116,36,08,47,207,36,0*65
$GPGSV,4,2,14,1
3,49,030,36,25,66,042,36,16,01,039,,20,23,121,,0*66
$GPGSV,4,3,14,23,27,056,,27,18,218,,42,48,143,,50,45,136,,0*6B
$GPGSV,4,4,14,40,13,256,,41,36,236,,0*60
$GBGSV,3,1,09,06,37,215,31,09,37,287,31,13,48,202,32,14,09,164,30,0*7B
$GBGSV,3,2,09,01,37,122,31,02,50,173,31,04,36,125,,11,18,131,,0*74
$GBGSV,3,3,09,12,10,060,,0*4A
$GAGSV,2,1,08,10,63,334,34,11,56,117,34,17,31,039,33,23,38,222,33,0*7D
$GAGSV,2,2,08,24,85,020,34,27,30,126,33,09,13,316,,12,06,130,,0*79

$GNRMC,000034.00,A,3000.00010,N,12000.00015,E,0.163,,230721,,,A,V*17
$GNGGA,000034.00,3000.00010,N,12000.00015,E,1,16,0.85,0.6,M,,M,,*52
$GNGSA,A,3,07,13,02,04,08,25,,,,,,,1.64,0.85,1.40,1*06
$GNGSA,A,3,13,06,09,14,,,,,,,,,1.64,0.85,1.40,4*07
$GNGSA,
A,3,10,11,17,24,27,23,,,,,,,1.64,0.85,1.40,3*0D
$GPGSV,4,1,13,02,32,299,36,04,51,247,36,07,84,116,36,08,47,207,36,0*61
$GPGSV,4,2,13,13,49,030,36,25,66,042,36,20,23,121,,23,27,056,,0*6A
$GPGSV,4,3,13,27,18,218,,42,48,143,,50,45,136,,40,13,256,,0*6C
$GPGSV,4,4,13,41,36,236,,0*50
$GBGSV,3,1,09,06,37,215,31,09,37,287,31,13,48,202,32,14,09,164,30,0*7B
$GBGSV,3,2,09,01,37,122,31,02,50,173,31,04,36,125,,11,18,131,,0*74
$GBGSV,3,3,09,12,10,060,,0*4A
$GAGSV,2,1,08,10,63,334,34,11,56,117,34,17,31,039,33,23,38,222,34,0*7A
$GAGSV,2,2,08,24,85,020,34,27,30,126,33,09,13,316,,12,06,130,,0*79

$GNRMC,000035.00,A,3000.00008,N,12000.00021,E,0.080,,230721,,,A,V*14
$GNGGA,000035.00,3000.00008,N,12000.00021,E,1,16,0.85,0.4,M,,M,,*5F
$GNGSA,A,3,07,13,02,04,08,25,,,,,,,1.64,0.85,1.40,1*06
$GNGSA,A,3,13,06,09,14,,,,,,,,,1.64,0.85,1.40,4*07
$GNGSA,A,3,10,11,17,24,27,23,,,,,,,1.64,0.85,1.40,3*0D
$GPGSV,4,1,13,02,32,299,35,04,51,247,36,07,84,116,36,08,47,207,36,0*62
$GPGSV,4,2,13,13,49,03
0,36,25,66,042,37,20,23,121,,23,27,056,,0*6B
$GPGSV,4,3,13,27,18,218,,42,48,143,,50,45,136,,40,13,256,,0*6C
$GPGSV,4,4,13,41,36,236,,0*50
$GBGSV,3,1,09,06,37,215,31,09,37,287,31,13,48,202,32,14,09,164,31,0*7A
$GBGSV,3,2,09,01,37,122,31,02,50,173,31,04,36,125,,11,18,131,,0*74
$GBGSV,3,3,09,12,10,060,,0*4A
$GAGSV,2,1,08,10,63,334,34,11,56,117,34,17,31,039,33,23,38,222,34,0*7A
$GAGSV,2,2,08,24,85,020,34,27,30,126,33,09,13,316,,12,06,130,,0*79

$GNRMC,000036.00,A,3000.00009,N,12000.00023,E,0.042,,230721,,,A,V*1A
$GNGGA,000036.00,3000.00009,N,12000.00023,E,1,16,0.85,0.4,M,,M,,*5F
$GNGSA,A,3,07,13,02,04,08,25,,,,,,,1.64,0.85,1.40,1*06
$GNGSA,A,3,13,06,09,14,,,,,,,,,1.64,0.85,1.40,4*07
$GNGSA,A,3,10,11,17,24,27,23,,,,,,,1.64,0.85,1.40,3*0D
$GPGSV
,4,1,13,02,32,299,36,04,51,247,36,07,84,116,36,08,47,207,35,0*62
$GPGSV,4,2,13,13,49,030,36,25,66,042,36,20,23,121,,23,27,056,,0*6A
$GPGSV,4,3,13,27,18,218,,42,48,143,,50,45,136,,40,13,256,,0*6C
$GPGSV,4,4,13,41,36,236,,0*50
$GBGSV,3,1,09,06,37,215,31,09,37,287,31,13,48,202,32,14,09,164,31,0*7A
$GBGSV,3,2,09,01,37,122,31,02,50,173,31,04,36,125,,11,18,131,,0*74
$GBGSV,3,3,09,12,10,060,,0*4A
$GAGSV,2,1,08,10,63,334,34,11,56,117,34,17,31,039,33,23,38,222,34,0*7A
$GAGSV,2,2,08,24,85,020,34,27,30,126,33,09,13,316,,12,06,130,,0*79

$GNRMC,000037.00,A,3000.00007,N,12000.00024,E,0.119,,230721,,,A,V*1D
$GNGGA,000037.00,3000.00007,N,12000.00024,E,1,16,0.85,0.6,M,,M,,*55
$GNGSA,A,3,07,13,02,04,08,25,,,,,,,1.64,0.85,1.40,1*06
$GNGSA,A,3,13,06,09,14,,,,,,,,,1.64,0.85,1.40,4*07
$GNGSA,A,3,10,11,17,24,27,23,,,,
,,,1.64,0.85,1.40,3*0D
$GPGSV,4,1,13,02,32,299,35,04,51,247,36,07,84,116,36,08,47,207,36,0*62
$GPGSV,4,2,13,13,49,030,36,25,66,042,36,20,23,121,,23,27,056,,0*6A
$GPGSV,4,3,13,27,18,218,,42,48,143,,50,45,136,,40,13,256,,0*6C
$GPGSV,4,4,13,41,36,236,,0*50
$GBGSV,3,1,09,06,37,215,31,09,37,287,31,13,48,202,32,14,09,164,31,0*7A
$GBGSV,3,2,09,01,37,122,31,02,50,173,32,04,36,125,,11,18,131,,0*77
$GBGSV,3,3,09,12,10,060,,0*4A
$GAGSV,2,1,08,10,63,334,34,11,56,117,34,17,31,039,34,23,38,222,34,0*7D
$GAGSV,2,2,08,24,85,020,34,27,30,126,33,09,13,316,,12,06,130,,0*79

$GNRMC,000038.00,A,3000.00005,N,12000.00022,E,0.039,,230721,,,A,V*15
$GNGGA,000038.00,3000.00005,N,12000.00022,E,1,16,0.85,0.7,M,,M,,*5F
$GNGSA,A,3,07,13,02,04,08,25,,,,,,,1.64,0.85,1.40,1*06
$GNGSA,A,3,13,06,09,14,,,,,,,,,1.64,0.85,1.40,4*07
$GNGSA,A,3,10,11,17,24,27,23,,,,,,,1.64,0.85,1.40,3*0D
$GPGSV,4,1,13,02,32,299,36,04,51,247,36,07,84,116,36,08,47,207,36,0*61
$GPGSV,4,2,13,13,49,030,36,25,66,0
42,36,20,23,121,,23,27,056,,0*6A
$GPGSV,4,3,13,27,18,218,,42,48,143,,50,45,136,,40,13,256,,0*6C
$GPGSV,4,4,13,41,36,236,,0*50
$GBGSV,3,1,09,06,37,215,31,09,37,287,31,13,48,202,32,14,09,164,31,0*7A
$GBGSV,3,2,09,01,37,122,31,02,50,173,31,04,36,125,,11,18,131,,0*74
$GBGSV,3,3,09,12,10,060,,0*4A
$GAGSV,2,1,08,10,63,334,34,11,56,117,34,17,31,039,33,23,38,222,33,0*7D
$GAGSV,2,2,08,24,85,020,35,27,30,126,33,09,13,316,,12,06,130,,0*78

$GNRMC,000039.00,A,3000.00002,N,12000.00013,E,0.101,,230721,,,A,V*1B
$GNGGA,000039.00,3000.00002,N,12000.00013,E,1,16,0.85,0.9,M,,M,,*55
$GNGSA,A,3,07,13,02,04,08,25,,,,,,,1.64,0.85,1.40,1*06
$GNGSA,A,3,13,06,09,14,,,,,,,,,1.64,0.85,1.40,4*07
$GNGSA,A,3,10,11,17,24,27,23,,
,,,,,1.64,0.85,1.40,3*0D
$GPGSV,4,1,13,02,32,299,36,04,51,247,36,07,84,116,36,08,47,207,35,0*62
$GPGSV,4,2,13,13,49,030,36,25,66,042,36,20,23,121,,23,27,056,,0*6A
$GPGSV,4,3,13,27,18,218,,42,48,143,,50,45,136,,40,13,256,,0*6C
$GPGSV,4,4,13,41,36,236,,0*50
$GBGSV,3,1,09,06,37,215,31,09,37,287,31,13,48,202,32,14,09,164,31,0*7A
$GBGSV,3,2,09,01,37,122,31,02,50,173,32,04,36,125,,11,18,131,,0*77
$GBGSV,3,3,09,12,10,060,,0*4A
$GAGSV,2,1,08,10,63,334,34,11,56,117,34,17,31,039,33,23,38,222,34,0*7A
$GAGSV,2,2,08,24,85,020,34,27,30,126,33,09,13,316,,12,06,130,,0*79

$GNRMC,000040.00,A,3000.00000,N,12000.00013,E,0.118,,230721,,,A,V*1F
$GNGGA,000040.00,3000.00000,N,12000.00013,E,1,16,0.85,0.9,M,,M,,*59
$GNGSA,A,3,07,13,02,04,08,25,,,,,,,1.64,0.85,1.40,1*06
$GNGSA,A,3,13,06,09,14,,,,,,,,,1.64,0.85,1.40,4*07
$GNGSA,A,3,10,11,17,24,27,23,,,,,,,1.64,0.85,1.40,3*0D
$GPGSV,4,1,13,02,32,299,35,04,51,247,36,07,84,116,36,08,47,207,36,0*62
$
GPGSV,4,2,13,13,49,030,36,25,66,042,36,20,23,121,,23,27,056,,0*6A
$GPGSV,4,3,13,27,18,218,,42,48,143,,50,45,136,,40,13,256,,0*6C
$GPGSV,4,4,13,41,36,236,,0*50
$GBGSV,3,1,09,06,37,215,31,09,36,287,31,13,48,202,32,14,09,164,31,0*7B
$GBGSV,3,2,09,01,37,122,31,02,50,173,31,04,36,125,,11,18,131,,0*74
$GBGSV,3,3,09,12,10,060,,0*4A
$GAGSV,2,1,08,10,63,334,34,11,56,117,34,17,31,039,34,23,38,222,34,0*7D
$GAGSV,2,2,08,24,85,020,35,27,30,126,33,09,13,316,,12,06,130,,0*78

$GNRMC,000041.00,A,3000.00004,N,12000.00009,E,0.230,,230721,,,A,V*18
$GNGGA,000041.00,3000.00004,N,12000.00009,E,1,16,0.85,0.7,M,,M,,*59
$GNGSA,A,3,07,13,02,04,08,25,,,,,,,1.64,0.85,1.40,1*06
$GNGSA,A,3,13,06,09,14,,,,,,,,,1.64,0.85,1.40,4*07
$GNGSA,A,3,10,11,17,24,27,23,,,,,,,1.64,0.85,1.40,3*0D
$GPGSV,4,1,13,02,32,299,35,04,51,246,36,07,84,116,36,08,47,207,35,0*60
$GPGSV,4,2,13,13,49,030,36,
25,66,042,36,20,23,121,,23,27,056,,0*6A
$GPGSV,4,3,13,27,18,218,,42,48,143,,50,45,136,,40,13,256,,0*6C
$GPGSV,4,4,13,41,36,236,,0*50
$GBGSV,3,1,09,06,37,215,31,09,36,287,31,13,48,202,32,14,09,164,31,0*7B
$GBGSV,3,2,09,01,37,122,31,02,50,173,31,04,36,125,,11,18,131,,0*74
$GBGSV,3,3,09,12,10,060,,0*4A
$GAGSV,2,1,08,10,63,334,34,11,56,117,34,17,30,039,33,23,38,222,34,0*7B
$GAGSV,2,2,08,24,85,020,34,27,30,126,33,09,13,316,,12,06,130,,0*79

$GNRMC,000042.00,A,3000.00006,N,12000.00008,E,0.115,,230721,,,A,V*1C
$GNGGA,000042.00,3000.00006,N,12000.00008,E,1,16,0.85,0.6,M,,M,,*58
$GNGSA,A,3,07,13,02,04,08,25,,,,,,,1.64,0.85,1.40,1*06
$GNGSA,A,3,13,06,09,14,,,,,,,,,1.64,0.85,1.40,4*07
$GNGSA,A,3,10,11,17,24,27,23,,,,,,,1.64,0.85,1.40,3*0D
$GPGSV,4,1,13,02,32,299,35,04,51,246,36,07,84,116,37,08,4
7,207,36,0*62
$GPGSV,4,2,13,13,49,030,35,25,66,042,37,20,23,121,,23,27,056,,0*68
$GPGSV,4,3,13,27,18,218,,42,48,143,,50,45,136,,40,13,256,,0*6C
$GPGSV,4,4,13,41,36,236,,0*50
$GBGSV,3,1,09,06,37,215,31,09,36,287,31,13,48,202,32,14,09,164,31,0*7B
$GBGSV,3,2,09,01,37,122,31,02,50,173,31,04,36,125,,11,18,131,,0*74
$GBGSV,3,3,09,12,10,060,,0*4A
$GAGSV,2,1,08,10,63,334,34,11,56,117,34,17,30,039,34,23,38,222,33,0*7B
$GAGSV,2,2,08,24,85,020,34,27,30,126,34,09,13,316,,12,06,130,,0*7E

$GNRMC,000043.00,A,3000.00011,N,12000.00014,E,0.080,,230721,,,A,V*1B
$GNGGA,000043.00,3000.00011,N,12000.00014,E,1,16,0.85,0.3,M,,M,,*57
$GNGSA,A,3,07,13,02,04,08,25,,,,,,,1.64,0.85,1.40,1*06
$GNGSA,A,3,13,06,09,14,,,,,,,,,1.64,0.85,1.40,4*07

$GNGSA,A,3,10,11,17,24,27,23,,,,,,,1.64,0.85,1.40,3*0D
$GPGSV,4,1,13,02,32,299,36,04,51,246,36,07,84,116,37,08,47,207,36,0*61
$GPGSV,4,2,13,13,49,030,36,25,66,042,36,20,23,121,,23,27,056,,0*6A
$GPGSV,4,3,13,27,18,218,,42,48,143,,50,45,136,,40,13,256,,0*6C
$GPGSV,4,4,13,41,36,236,,0*50
$GBGSV,3,1,09,06,37,215,31,09,36,287,32,13,48,202,32,14,09,164,31,0*78
$GBGSV,3,2,09,01,37,122,31,02,50,173,32,04,36,125,,11,18,131,,0*77
$GBGSV,3,3,09,12,10,060,,0*4A
$GAGSV,2,1,08,10,63,334,34,11,56,117,34,17,30,039,33,23,38,222,34,0*7B
$GAGSV,2,2,08,24,85,020,34,27,30,126,33,09,13,316,,12,06,130,,0*79

$GNRMC,000044.00,A,3000.00006,N,12000.00017,E,0.021,,230721,,,A,V*12
$GNGGA,000044.00,3000.00006,N,12000.00017,E,1,16,0.85,0.3,M,,M,,*55
$GNGSA,A,3,07,13,02,04,08,25,,,,,,,1.64,0.85,1.40,1*06
$GNGSA,A,3,13,06,09,14,,,,,,,,,1.64,0.85,1.40,4*07
$GNGSA,A,3,10,11,17,24,27,23,,
,,,,,1.64,0.85,1.40,3*0D
$GPGSV,4,1,13,02,32,299,36,04,51,246,36,07,84,115,36,08,47,207,35,0*60
$GPGSV,4,2,13,13,49,030,36,25,66,042,36,20,23,121,,23,27,056,,0*6A
$GPGSV,4,3,13,27,18,218,,42,48,143,,50,45,136,,40,13,256,,0*6C
$GPGSV,4,4,13,41,36,236,,0*50
$GBGSV,3,1,09,06,37,215,31,09,36,287,32,13,48,202,32,14,09,164,31,0*78
$GBGSV,3,2,09,01,37,122,31,02,50,173,31,04,36,125,,11,18,131,,0*74
$GBGSV,3,3,09,12,10,060,,0*4A
$GAGSV,2,1,08,10,63,334,34,11,56,117,34,17,30,039,33,23,38,222,33,0*7C
$GAGSV,2,2,08,24,85,020,34,27,30,126,33,09,13,316,,12,06,130,,0*79

$GNRMC,000045.00,A,3000.00009,N,12000.00016,E,0.179,,230721,,,A,V*11
$GNGGA,000045.00,3000.00009,N,12000.00016,E,1,16,0.85,0.5,M,,M,,*5C
$GNGSA,A,3,07,13,02,04,08,25,,,,,,,1.64,0.85,1.40,1*06
$GNGSA,A,3,13,06,09,14,,,,,,,,,1.64,0.85,1.40,4*07
$GNGSA,A,3,1
0,11,17,24,27,23,,,,,,,1.64,0.85,1.40,3*0D
$GPGSV,4,1,13,02,32,299,35,04,51,246,36,07,84,115,36,08,47,207,36,0*60
$GPGSV,4,2,13,13,49,030,36,25,66,042,36,20,23,121,,23,27,056,,0*6A
$GPGSV,4,3,13,27,18,218,,42,48,143,,50,45,136,,40,13,256,,0*6C
$GPGSV,4,4,13,41,36,236,,0*50
$GBGSV,3,1,09,06,37,215,31,09,36,287,31,13,48,202,32,14,09,164,31,0*7B
$GBGSV,3,2,09,01,37,122,31,02,50,173,32,04,36,125,,11,18,131,,0*77
$GBGSV,3,3,09,12,10,060,,0*4A
$GAGSV,2,1,08,10,63,334,34,11,56,117,34,17,30,039,33,23,38,222,33,0*7C
$GAGSV,2,2,08,24,85,020,34,27,30,126,34,09,13,316,,12,06,130,,0*7E

$GNRMC,000046.00,A,3000.00006,N,12000.00011,E,0.087,,230721,,,A,V*1A
$GNGGA,000046.00,3000.00006,N,12000.00011,E,1,16,0.85,0.8,M,,M,,*5A
$GNGSA,A,3,07,13,02,04,08,25,,,,,,,1.64,0.85,1.40,1*06
$GNGSA,A,3,13,06,09,14,,,,,,,,,1.64,0.85,1.40,4*07
$GNGSA,A,3,10,11,17,24,27,23,,,,,,,1.64,0.85,1.40,3*0D
$GPGSV,4,1,13,02,32,299,35,04,51,246,36,07,84,115,36,08,47,207,36,0*60
$GPGSV,4,2,13,13,49,030,3
6,25,66,042,36,20,23,121,,23,27,056,,0*6A
$GPGSV,4,3,13,27,18,218,,42,48,143,,50,45,136,,40,13,256,,0*6C
$GPGSV,4,4,13,41,36,236,,0*50
$GBGSV,3,1,09,06,37,215,31,09,36,286,32,13,48,202,32,14,09,164,30,0*78
$GBGSV,3,2,09,01,37,122,31,02,50,173,32,04,36,125,,11,18,131,,0*77
$GBGSV,3,3,09,12,10,060,,0*4A
$GAGSV,2,1,08,10,63,334,34,11,56,117,34,17,30,039,33,23,38,222,34,0*7B
$GAGSV,2,2,08,24,85,020,34,27,30,126,33,09,13,316,,12,06,130,,0*79

$GNRMC,000047.00,A,3000.00006,N,12000.00016,E,0.058,,230721,,,A,V*1E
$GNGGA,000047.00,3000.00006,N,12000.00016,E,1,16,0.85,1.1,M,,M,,*54
$GNGSA,A,3,07,13,02,04,08,25,,,,,,,1.64,0.85,1.40,1*06
$GNGSA,A,3,13,06,09,14,,,,,,,,,1.64,0.85,1.40,4*07
$GNGSA,A,3,10,11,17,24,27,23,,,,,,,1.64,0.85,1.40,3*0D
$GPGSV,4,1,13,02,32,299,36,04,51,246,35,07,84,115,36,08,47,207,35,0*63
$GPGSV,4,2,13,13,4
9,030,36,25,66,042,36,20,23,121,,23,27,056,,0*6A
$GPGSV,4,3,13,27,18,218,,42,48,143,,50,45,136,,40,13,256,,0*6C
$GPGSV,4,4,13,41,36,236,,0*50
$GBGSV,3,1,09,06,37,215,31,09,36,286,31,13,48,202,32,14,09,164,30,0*7B
$GBGSV,3,2,09,01,37,122,31,02,50,173,32,04,36,125,,11,18,131,,0*77
$GBGSV,3,3,09,12,10,060,,0*4A
$GAGSV,2,1,08,10,63,334,34,11,56,117,34,17,30,039,33,23,38,222,33,0*7C
$GAGSV,2,2,08,24,85,020,34,27,30,126,33,09,13,316,,12,06,130,,0*79

$GNRMC,000048.00,A,3000.00009,N,12000.00020,E,0.090,,230721,,,A,V*1F
$GNGGA,000048.00,3000.00009,N,12000.00020,E,1,16,0.85,0.9,M,,M,,*58
$GNGSA,A,3,07,13,02,04,08,25,,,,,,,1.64,0.85,1.40,1*06
$GNGSA,A,3,13,06,09,14,,,,,,,,,1.64,0.85,1.40,4*07
$GNGSA,A,3,10,11,17,24,27,23,,,,,,,1.64,0.85,1.40,3*0D
$GPGSV,4,1,13,02,32,299,36,04,51,246,35,07,84,115,36,08,47,207,35,0*63

$GPGSV,4,2,13,13,49,030,36,25,66,042,36,20,23,121,,23,27,056,,0*6A
$GPGSV,4,3,13,27,18,218,,42,48,143,,50,45,136,,40,13,256,,0*6C
$GPGSV,4,4,13,41,36,236,,0*50
$GBGSV,3,1,09,06,37,215,31,09,36,286,32,13,48,202,32,14,09,164,31,0*79
$GBGSV,3,2,09,01,37,122,31,02,50,173,32,04,36,125,,11,18,131,,0*77
$GBGSV,3,3,09,12,10,060,,0*4A
$GAGSV,2,1,08,10,63,334,34,11,56,117,34,17,30,039,33,23,38,222,33,0*7C
$GAGSV,2,2,08,24,85,020,34,27,30,126,33,09,13,316,,12,06,130,,0*79

$GNRMC,000049.00,A,3000.00006,N,12000.00022,E,0.080,,230721,,,A,V*12
$GNGGA,000049.00,3000.00006,N,12000.00022,E,1,16,0.85,0.9,M,,M,,*54
$GNGSA,A,3,07,13,02,04,08,25,,,,,,,1.64,0.85,1.40,1*06
$GNGSA,A,3,13,06,09,14,,,,,,,,,1.64,0.85,1.40,4*07
$GNGSA,A,3,10,11,17,24,27,23,,,,,,,1.64,0.85,1.40,3*0D
$GPGSV,4,1,13,02,32,299,36,04,51,246,36,07,84,115,36,08,47,20
7,36,0*63
$GPGSV,4,2,13,13,49,030,36,25,66,042,36,20,23,121,,23,27,056,,0*6A
$GPGSV,4,3,13,27,18,218,,42,48,143,,50,45,136,,40,13,256,,0*6C
$GPGSV,4,4,13,41,36,236,,0*50
$GBGSV,3,1,09,06,37,215,31,09,36,286,31,13,48,202,32,14,08,164,31,0*7B
$GBGSV,3,2,09,01,37,122,31,02,50,173,32,04,36,125,,11,18,131,,0*77
$GBGSV,3,3,09,12,10,060,,0*4A
$GAGSV,2,1,08,10,63,334,34,11,56,117,34,17,30,039,33,23,38,222,33,0*7C
$GAGSV,2,2,08,24,85,020,34,27,30,126,33,09,13,316,,12,06,130,,0*79

$GNRMC,000050.00,A,3000.00007,N,12000.00026,E,0.306,,230721,,,A,V*12
$GNGGA,000050.00,3000.00007,N,12000.00026,E,1,16,0.85,0.6,M,,M,,*56
$GNGSA,A,3,07,13,02,04,08,25,,,,,,,1.64,0.85,1.40,1*06
$GNGSA,A,3,13,06,09,14,,,,,,,,,1.64,0.85,1.40,4*07
$GNGSA,A,3,10,11,17,24,27,23,,,,,,,1.64,0.85,1.40,3*0D
$GPGSV,4,1,13,02,32,299,36,04,51,246,35,07,84,115,35,08,47,207,36,0*63
$G
PGSV,4,2,13,13,49,030,36,25,66,042,35,20,23,121,,23,27,056,,0*69
$GPGSV,4,3,13,27,18,218,,42,48,143,,50,45,136,,40,13,256,,0*6C
$GPGSV,4,4,13,41,36,236,,0*50
$GBGSV,3,1,09,06,37,215,31,09,36,286,31,13,48,202,32,14,08,164,31,0*7B
$GBGSV,3,2,09,01,37,122,31,02,50,173,31,04,36,125,,11,18,131,,0*74
$GBGSV,3,3,09,12,10,060,,0*4A
$GAGSV,2,1,08,10,63,334,34,11,56,117,34,17,30,039,34,23,38,222,34,0*7C
$GAGSV,2,2,08,24,85,020,34,27,30,126,34,09,13,316,,12,06,130,,0*7E

$GNRMC,000051.00,A,3000.00003,N,12000.00034,E,0.236,,230721,,,A,V*16
$GNGGA,000051.00,3000.00003,N,12000.00034,E,1,16,0.85,0.4,M,,M,,*52
$GNGSA,A,3,07,13,02,04,08,25,,,,,,,1.64,0.85,1.40,1*06
$GNGSA,A,3,13,06,09,14,,,,,,,,,1.64,0.85,1.40,4*07
$GNGSA,A,3,10,11,17,24,27,23,,,,,,,1.64,0.85,1.40,3*0D
$GPGSV,4,
1,13,02,32,299,36,04,51,246,36,07,84,115,37,08,47,207,36,0*62
$GPGSV,4,2,13,13,49,030,36,25,66,042,36,20,23,121,,23,27,056,,0*6A
$GPGSV,4,3,13,27,18,218,,42,48,143,,50,45,136,,40,13,256,,0*6C
$GPGSV,4,4,13,41,36,236,,0*50
$GBGSV,3,1,09,06,37,215,31,09,36,286,32,13,48,202,32,14,08,164,31,0*78
$GBGSV,3,2,09,01,37,122,31,02,50,173,31,04,36,125,,11,18,131,,0*74
$GBGSV,3,3,09,12,10,060,,0*4A
$GAGSV,2,1,08,10,63,334,34,11,56,117,34,17,30,039,33,23,38,222,33,0*7C
$GAGSV,2,2,08,24,85,020,34,27,30,126,33,09,13,316,,12,06,130,,0*79

$GNRMC,000052.00,A,3000.00000,N,12000.00034,E,0.100,,230721,,,A,V*10
$GNGGA,000052.00,3000.00000,N,12000.00034,E,1,16,0.85,0.5,M,,M,,*53
$GNGSA,A,3,07,13,02,04,08,25,,,,,,,1.64,0.85,1.40,1*06
$GNGSA,A,3,13,06,09,14,,,,,,,,,1.64,0.85,1.40,4*07
$GNGSA,A,3,10,11,17,24,27,23,,,,,,,1.64,0.85,1.40,3*0D
$GPGSV,4,1,13,02,32,299,36,04,51,246,36,07,84,115,36,08,47,207,35,0*60
$GPGSV,4,2,13,13,49,030
,36,25,66,042,36,20,23,121,,23,27,056,,0*6A
$GPGSV,4,3,13,27,18,218,,42,48,143,,50,45,136,,40,13,256,,0*6C
$GPGSV,4,4,13,41,36,236,,0*50
$GBGSV,3,1,09,06,37,215,31,09,36,286,31,13,48,202,32,14,08,164,31,0*7B
$GBGSV,3,2,09,01,37,122,31,02,50,173,31,04,36,125,,11,18,131,,0*74
$GBGSV,3,3,09,12,10,060,,0*4A
$GAGSV,2,1,08,10,63,334,34,11,56,117,35,17,30,039,33,23,38,222,33,0*7D
$GAGSV,2,2,08,24,85,020,34,27,30,126,33,09,13,316,,12,06,130,,0*79

$GNRMC,000053.00,A,3000.00000,N,12000.00034,E,0.047,,230721,,,A,V*13
$GNGGA,000053.00,3000.00000,N,12000.00034,E,1,16,0.87,0.4,M,,M,,*51
$GNGSA,A,3,07,13,02,04,08,25,,,,,,,1.68,0.87,1.43,1*0B
$GNGSA,A,3,13,06,09,14,,,,,,,,,1.68,0.87,1.43,4*0A
$GNGSA,A,3,10,11,17,24,27,23,,,,,,,1.68,0.87,1.43,3*00
$GPGSV,4,1,13,02,32,299,35,04,51,246,36,07,84,115,36,08,47,207,35,0*63
$GPGS
V,4,2,13,13,49,030,36,25,66,042,36,20,23,121,,23,27,056,,0*6A
$GPGSV,4,3,13,27,18,218,,42,48,143,,50,45,136,,40,13,256,,0*6C
$GPGSV,4,4,13,41,36,236,,0*50
$GBGSV,3,1,09,06,37,215,31,09,36,286,31,13,48,202,32,14,08,164,31,0*7B
$GBGSV,3,2,09,01,37,122,31,02,50,173,31,04,36,125,,11,18,131,,0*74
$GBGSV,3,3,09,12,10,060,,0*4A
$GAGSV,2,1,08,10,63,334,34,17,30,039,33,23,38,222,33,24,85,020,34,0*71
$GAGSV,2,2,08,27,30,126,33,09,13,316,,11,56,117,34,12,06,130,,0*74

$GNRMC,000054.00,A,3000.00001,N,12000.00037,E,0.032,,230721,,,A,V*14
$GNGGA,000054.00,3000.00001,N,12000.00037,E,1,16,0.85,0.4,M,,M,,*56
$GNGSA,A,3,07,13,02,04,08,25,,,,,,,1.64,0.85,1.40,1*06
$GNGSA,A,3,13,06,09,14,,,,,,,,,1.64,0.85,1.40,4*07
$GNGSA,A,3,10,11,17,24,27,23,,,,,,,1.64,0.85,1.40,3*0D
$GPGSV,4,1,13
,02,32,299,36,04,51,246,36,07,84,115,36,08,47,207,36,0*63
$GPGSV,4,2,13,13,49,030,36,25,66,042,36,20,23,121,,23,27,056,,0*6A
$GPGSV,4,3,13,27,18,219,,42,48,143,,50,45,136,,40,13,256,,0*6D
$GPGSV,4,4,13,41,36,236,,0*50
$GBGSV,3,1,09,06,37,215,31,09,36,286,31,13,48,202,32,14,08,164,31,0*7B
$GBGSV,3,2,09,01,37,122,31,02,50,173,31,04,36,125,,11,18,131,,0*74
$GBGSV,3,3,09,12,10,060,,0*4A
$GAGSV,2,1,08,10,63,334,34,11,56,117,34,17,30,039,33,23,38,222,34,0*7B
$GAGSV,2,2,08,24,85,020,34,27,30,126,33,09,13,316,,12,06,130,,0*79

$GNRMC,000055.00,A,3000.00003,N,12000.00038,E,0.039,,230721,,,A,V*13
$GNGGA,000055.00,3000.00003,N,12000.00038,E,1,16,0.85,0.1,M,,M,,*5F
$GNGSA,A,3,07,13,02,04,08,25,,,,,,,1.64,0.85,1.40,1*06
$GNGSA,A,3,13,06,09,14,,,,,,,,,1.64,0.85,1.40,4*07
$GNGSA,A,3,10,11,17,24,27,23,,,,,,,1.64,0.85,1.40,3*0D
$GPGSV,4,1,13,02,32,299,35,04,
51,246,36,07,84,114,36,08,47,207,36,0*61
$GPGSV,4,2,13,13,49,030,36,25,66,042,36,20,23,121,,23,27,056,,0*6A
$GPGSV,4,3,13,27,18,219,,42,48,143,,50,45,136,,40,13,256,,0*6D
$GPGSV,4,4,13,41,36,236,,0*50
$GBGSV,3,1,09,06,37,215,31,09,36,286,31,13,48,202,32,14,08,164,31,0*7B
$GBGSV,3,2,09,01,37,122,31,02,50,173,31,04,36,125,,11,18,131,,0*74
$GBGSV,3,3,09,12,10,060,,0*4A
$GAGSV,2,1,08,10,63,334,34,11,56,117,33,17,30,039,33,23,38,222,34,0*7C
$GAGSV,2,2,08,24,85,020,34,27,30,126,33,09,13,316,,12,06,130,,0*79

$GNRMC,000056.00,A,3000.00006,N,12000.00036,E,0.055,,230721,,,A,V*11
$GNGGA,000056.00,3000.00006,N,12000.00036,E,1,16,0.85,0.2,M,,M,,*54
$GNGSA,A,3,07,13,02,04,08,25,,,,,,,1.64,0.85,1.40,1*06
$GNGSA,A,3,13,06,09,14,,,,,,,,,1.64,0.85,1.40,4*07
$GNGSA,A,3,10,11,17,24,27,23,,,,,,,1.64,0.85,1.40,3*0D
$GPGSV,4,1,13,02,32,299,35,04,51,246,36,07,84,114,36,08,47,207,36,0*61
$GPGSV,4,
2,13,13,49,030,36,25,66,042,36,20,23,121,,23,27,056,,0*6A
$GPGSV,4,3,13,27,18,219,,42,48,143,,50,45,136,,40,13,256,,0*6D
$GPGSV,4,4,13,41,36,236,,0*50
$GBGSV,3,1,09,06,37,215,32,09,36,286,31,13,48,202,32,14,08,164,31,0*78
$GBGSV,3,2,09,01,37,122,31,02,50,173,31,04,36,125,,11,18,131,,0*74
$GBGSV,3,3,09,12,10,060,,0*4A
$GAGSV,2,1,08,10,63,334,34,11,56,117,34,17,30,039,33,23,38,222,33,0*7C
$GAGSV,2,2,08,24,85,020,34,27,30,126,33,09,13,316,,12,06,130,,0*79

$GNRMC,000057.00,A,3000.00009,N,12000.00035,E,0.115,,230721,,,A,V*19
$GNGGA,000057.00,3000.00009,N,12000.00035,E,1,16,0.85,0.1,M,,M,,*5A
$GNGSA,A,3,07,13,02,04,08,25,,,,,,,1.64,0.85,1.40,1*06
$GNGSA,A,3,13,06,09,14,,,,,,,,,1.64,0.85,1.40,4*07
$GNGSA,A,3,
10,11,17,24,27,23,,,,,,,1.64,0.85,1.40,3*0D
$GPGSV,4,1,13,02,32,299,35,04,51,246,36,07,84,114,36,08,47,207,36,0*61
$GPGSV,4,2,13,13,49,031,36,25,66,042,37,20,23,121,,23,27,056,,0*6A
$GPGSV,4,3,13,27,18,219,,42,48,143,,50,45,136,,40,13,256,,0*6D
$GPGSV,4,4,13,41,36,236,,0*50
$GBGSV,3,1,09,06,37,215,31,09,36,286,31,13,48,202,32,14,08,164,31,0*7B
$GBGSV,3,2,09,01,37,122,31,02,50,173,31,04,36,125,,11,18,131,,0*74
$GBGSV,3,3,09,12,10,060,,0*4A
$GAGSV,2,1,08,10,63,334,34,11,56,117,34,17,30,039,33,23,38,222,33,0*7C
$GAGSV,2,2,08,24,85,020,34,27,30,126,34,09,13,316,,12,06,130,,0*7E

$GNRMC,000058.00,A,3000.00012,N,12000.00032,E,0.200,,230721,,,A,V*1C
$GNGGA,000058.00,3000.00012,N,12000.00032,E,1,16,0.85,0.1,M,,M,,*58
$GNGSA,A,3,07,13,02,04,08,25,,,,,,,1.64,0.85,1.40,1*06
$GNGSA,A,3,13,06,09,14,,,,,,,,,1.64,0.85,1.40,4*07
$GNGSA,A,3,10,11,17,24,27,23,,,,,,,1.64,0.85,1.40,3*0D
$GPGSV,4,1,13,02,32,299,36,04,51,246,35,07,84,114,36,08,47,207,36,0*61
$GPGSV,4,2,13,13,49,031,36,25,66,04
2,36,20,23,121,,23,27,056,,0*6B
$GPGSV,4,3,13,27,18,219,,42,48,143,,50,45,136,,40,13,256,,0*6D
$GPGSV,4,4,13,41,36,236,,0*50
$GBGSV,3,1,09,06,37,215,31,09,36,286,31,13,48,202,32,14,08,164,31,0*7B
$GBGSV,3,2,09,01,37,122,31,02,50,173,31,04,36,125,,11,18,131,,0*74
$GBGSV,3,3,09,12,10,060,,0*4A
$GAGSV,2,1,08,10,63,334,34,11,56,117,34,17,30,039,33,23,38,222,33,0*7C
$GAGSV,2,2,08,24,85,019,34,27,30,126,33,09,13,316,,12,06,130,,0*73

$GNRMC,000059.00,A,3000.00009,N,12000.00028,E,0.207,,230721,,,A,V*1B
$GNGGA,000059.00,3000.00009,N,12000.00028,E,1,16,0.85,0.2,M,,M,,*5B
$GNGSA,A,3,07,13,02,04,08,25,,,,,,,1.64,0.85,1.40,1*06
$GNGSA,A,3,13,06,09,14,,,,,,,,,1.64,0.85,1.40,4*07
$GNGSA,A,3,10,11,17,24,27,23,,,,,,,1.64,0.85,1.40,3*0D
$GPGSV,4,1,13,02,32,299
,35,04,51,246,36,07,84,114,36,08,47,207,36,0*61
$GPGSV,4,2,13,13,49,031,36,25,66,042,36,20,22,121,,23,27,056,,0*6A
$GPGSV,4,3,13,27,18,219,,42,48,143,,50,45,136,,40,13,256,,0*6D
$GPGSV,4,4,13,41,36,236,,0*50
$GBGSV,3,1,09,06,37,215,31,09,36,286,31,13,48,202,32,14,08,164,31,0*7B
$GBGSV,3,2,09,01,37,122,31,02,50,173,31,04,36,125,,11,18,130,,0*75
$GBGSV,3,3,09,12,10,060,,0*4A
$GAGSV,2,1,08,10,63,334,34,11,56,117,34,17,30,039,33,23,38,222,34,0*7B
$GAGSV,2,2,08,24,85,019,34,27,30,126,33,09,13,316,,12,06,130,,0*73

$GNRMC,000100.00,A,3000.00005,N,12000.00031,E,0.102,,230721,,,A,V*14
$GNGGA,000100.00,3000.00005,N,12000.00031,E,1,16,0.85,0.0,M,,M,,*50
$GNGSA,A,3,07,13,02,04,08,25,,,,,,,1.64,0.85,1.40,1*06
$GNGSA,A,3,13,06,09,14,,,,,,,,,1.64,0.85,1.40,4*07
$GNGSA,A,3,10,11,17,24,27,23,,,,,,,1.64,0.85,1.40,3*0D
$GPGSV,4,1,13,02,32,299,35,04,51,246,36,07,84,114,36,08,47,207,35,0*62
$GPGSV,4,2,13,13,49,031,3
6,25,66,042,36,20,22,121,,23,27,056,,0*6A
$GPGSV,4,3,13,27,18,219,,42,48,143,,50,45,136,,40,13,256,,0*6D
$GPGSV,4,4,13,41,36,236,,0*50
$GBGSV,3,1,09,06,37,215,31,09,36,286,31,13,48,202,32,14,08,164,31,0*7B
$GBGSV,3,2,09,01,37,122,31,02,50,173,31,04,36,125,,11,18,130,,0*75
$GBGSV,3,3,09,12,10,060,,0*4A
$GAGSV,2,1,08,10,63,334,35,11,56,117,34,17,30,039,33,23,38,222,34,0*7A
$GAGSV,2,2,08,24,85,019,34,27,30,126,33,09,13,316,,12,06,130,,0*73

$GNRMC,000101.00,A,3000.00003,N,12000.00034,E,0.085,,230721,,,A,V*18
$GNGGA,000101.00,3000.00003,N,12000.00034,E,1,16,0.85,-0.1,M,,M,,*7E
$GNGSA,A,3,07,13,02,04,08,25,,,,,,,1.64,0.85,1.40,1*06
$GNGSA,A,3,13,06,09,14,,,,,,,,,1.64,0.85,1.40,4*07
$GNGSA,A,3,10,11,17,24,27,23,,,,,,,1.64,0.85,1.40,3*0D
$GPGSV,4,1,13,02,32,299,35,04,51,246,36,07,84,114,36,08,
47,207,36,0*61
$GPGSV,4,2,13,13,49,031,36,25,66,042,36,20,22,121,,23,27,056,,0*6A
$GPGSV,4,3,13,27,18,219,,42,48,143,,50,45,136,,40,13,256,,0*6D
$GPGSV,4,4,13,41,36,236,,0*50
$GBGSV,3,1,09,06,37,215,31,09,36,286,31,13,48,202,32,14,08,164,31,0*7B
$GBGSV,3,2,09,01,37,122,31,02,50,173,31,04,36,125,,11,18,130,,0*75
$GBGSV,3,3,09,12,10,060,,0*4A
$GAGSV,2,1,08,10,63,334,34,11,56,117,34,17,30,039,33,23,38,222,33,0*7C
$GAGSV,2,2,08,24,85,019,34,27,30,126,33,09,13,316,,12,06,130,,0*73

$GNRMC,000102.00,A,3000.00003,N,12000.00035,E,0.069,,230721,,,A,V*18
$GNGGA,000102.00,3000.00003,N,12000.00035,E,1,16,0.85,-0.1,M,,M,,*7C
$GNGSA,A,3,07,13,02,04,08,25,,,,,,,1.64,0.85,1.40,1*06
$GNGSA,A,3,13,06,09,14,,,,,,,,,1.64,0.85,1.40,4*07
$GNGSA,A,3,10,11,17,24,27,23,,,,,,,1.64,0.85,1.40,3*0D
$GPGSV,4,1,13,02,32,299,35,04,51,246,36,07,84,114,37,08,47,207,35,0*63
$GPGSV,4,2,13,13,49,031,
36,25,66,042,36,20,22,121,,23,27,056,,0*6A
$GPGSV,4,3,13,27,18,219,,42,48,143,,50,45,136,,40,13,256,,0*6D
$GPGSV,4,4,13,41,36,236,,0*50
$GBGSV,3,1,09,06,37,215,31,09,36,286,31,13,48,202,32,14,08,164,31,0*7B
$GBGSV,3,2,09,01,37,122,31,02,50,173,31,04,36,125,,11,18,130,,0*75
$GBGSV,3,3,09,12,10,060,,0*4A
$GAGSV,2,1,08,10,63,334,34,11,56,117,34,17,30,039,33,23,38,222,33,0*7C
$GAGSV,2,2,08,24,85,019,34,27,30,126,33,09,13,316,,12,06,130,,0*73

$GNRMC,000103.00,A,3000.00004,N,12000.00029,E,0.272,,230721,,,A,V*1B
$GNGGA,000103.00,3000.00004,N,12000.00029,E,1,16,0.85,-0.1,M,,M,,*77
$GNGSA,A,3,07,13,02,04,08,25,,,,,,,1.64,0.85,1.40,1*06
$GNGSA,A,3,13,06,09,14,,,,,,,,,1.64,0.85,1.40,4*07
$GNGSA,A,3,10,11,17,24,27,23,,,,,,,1.64,0.85
,1.40,3*0D
$GPGSV,4,1,13,02,32,299,35,04,51,246,36,07,84,114,37,08,47,207,36,0*60
$GPGSV,4,2,13,13,49,031,35,25,66,042,36,20,22,121,,23,27,056,,0*69
$GPGSV,4,3,13,27,18,219,,42,48,143,,50,45,136,,40,13,256,,0*6D
$GPGSV,4,4,13,41,36,236,,0*50
$GBGSV,3,1,09,06,37,215,31,09,36,286,31,13,48,202,32,14,08,164,31,0*7B
$GBGSV,3,2,09,01,37,122,31,02,50,173,31,04,36,125,,11,18,130,,0*75
$GBGSV,3,3,09,12,10,060,,0*4A
$GAGSV,2,1,08,10,63,334,34,11,56,117,34,17,30,039,33,23,38,222,34,0*7B
$GAGSV,2,2,08,24,85,019,34,27,30,126,33,09,13,316,,12,06,130,,0*73

$GNRMC,000104.00,A,3000.00009,N,12000.00029,E,0.168,,230721,,,A,V*19
$GNGGA,000104.00,3000.00009,N,12000.00029,E,1,16,0.85,0.0,M,,M,,*51
$GNGSA,A,3,07,13,02,04,08,25,,,,,,,1.64,0.85,1.40,1*06
$GNGSA,A,3,13,06,09,14,,,,,,,,,1.64,0.85,1.40,4*07
$GNGSA,A,3,10,11,17,24,27,23,,,,,,,1.64,0.85,1.40,3*0D
$GPGSV,4,1,13,02,32,299,35,04,51,246,36,07,84,114,37,08,47,207,36,0*60
$GPGSV,4,2,13,13,49,0
31,36,25,66,042,36,20,22,121,,23,27,056,,0*6A
$GPGSV,4,3,13,27,18,219,,42,48,143,,50,45,136,,40,13,256,,0*6D
$GPGSV,4,4,13,41,36,236,,0*50
$GBGSV,3,1,09,06,37,215,31,09,36,286,31,13,48,202,32,14,08,164,31,0*7B
$GBGSV,3,2,09,01,37,122,31,02,50,173,31,04,36,125,,11,18,130,,0*75
$GBGSV,3,3,09,12,10,060,,0*4A
$GAGSV,2,1,08,10,63,334,34,11,56,117,33,17,30,039,33,23,38,222,33,0*7B
$GAGSV,2,2,08,24,85,019,34,27,30,126,32,09,13,316,,12,06,130,,0*72

$GNRMC,000105.00,A,3000.00008,N,12000.00028,E,0.128,,230721,,,A,V*1C
$GNGGA,000105.00,3000.00008,N,12000.00028,E,1,16,0.85,0.0,M,,M,,*50
$GNGSA,A,3,07,13,02,04,08,25,,,,,,,1.64,0.85,1.40,1*06
$GNGSA,A,3,13,06,09,14,,,,,,,,,1.64,0.85,1.40,4*07
$GNGSA,A,3,10,11,17,24,27,23,,,,,,,1.64,0.85,1.40,3*0D
$GPGSV,4,1,13,02,32,299,35,04,51,246,36,07,84,114,37,08,47,207,36,0*60
$GPGSV,4,2,13,13,49,031,36,2
5,66,042,36,20,22,121,,23,27,056,,0*6A
$GPGSV,4,3,13,27,18,219,,42,48,143,,50,45,136,,40,13,256,,0*6D
$GPGSV,4,4,13,41,36,236,,0*50
$GBGSV,3,1,09,06,37,215,31,09,36,286,31,13,48,202,32,14,08,164,30,0*7A
$GBGSV,3,2,09,01,37,122,31,02,50,173,31,04,36,125,,11,18,130,,0*75
$GBGSV,3,3,09,12,10,060,,0*4A
$GAGSV,2,1,08,10,63,334,34,11,56,117,34,17,30,039,34,23,38,222,33,0*7B
$GAGSV,2,2,08,24,85,019,34,27,30,126,33,09,13,316,,12,06,130,,0*73

$GNRMC,000106.00,A,3000.00007,N,12000.00028,E,0.048,,230721,,,A,V*17
$GNGGA,000106.00,3000.00007,N,12000.00028,E,1,16,0.85,-0.2,M,,M,,*73
$GNGSA,A,3,07,13,02,04,08,25,,,,,,,1.64,0.85,1.40,1*06
$GNGSA,A,3,13,06,09,14,,,,,,,,,1.64,0.85
,1.40,4*07
$GNGSA,A,3,10,11,17,24,27,23,,,,,,,1.64,0.85,1.40,3*0D
$GPGSV,4,1,13,02,32,299,35,04,51,246,36,07,84,114,36,08,47,207,36,0*61
$GPGSV,4,2,13,13,49,031,36,25,66,042,37,20,22,121,,23,27,056,,0*6B
$GPGSV,4,3,13,27,18,219,,42,48,143,,50,45,136,,40,13,256,,0*6D
$GPGSV,4,4,13,41,36,236,,0*50
$GBGSV,3,1,09,06,37,215,31,09,36,286,31,13,48,202,32,14,08,164,31,0*7B
$GBGSV,3,2,09,01,37,122,31,02,50,173,31,04,36,125,,11,18,130,,0*75
$GBGSV,3,3,09,12,10,060,,0*4A
$GAGSV,2,1,08,10,63,334,34,11,56,117,33,17,30,039,33,23,38,222,34,0*7C
$GAGSV,2,2,08,24,85,019,34,27,30,126,34,09,13,316,,12,06,130,,0*74

$GNRMC,000107.00,A,3000.00011,N,12000.00025,E,0.196,,230721,,,A,V*1E
$GNGGA,000107.00,3000.00011,N,12000.00025,E,1,16,0.85,-0.5,M,,M,,*7F
$GNGSA,A,3,07,13,02,04,08,25,,,,,,,1.64,0.85,1.40,1*06
$GNGSA,A,3,13,06,09,14,,,,,,,,,1.64,0.85,1.40,4*07
$GNGSA,A,3,10,11,17,24,27,23,,,,
,,,1.64,0.85,1.40,3*0D
$GPGSV,4,1,13,02,32,299,36,04,51,246,36,07,84,113,36,08,47,207,36,0*65
$GPGSV,4,2,13,13,49,031,36,25,66,042,36,20,22,121,,23,27,056,,0*6A
$GPGSV,4,3,13,27,18,219,,42,48,143,,50,45,136,,40,13,256,,0*6D
$GPGSV,4,4,13,41,36,236,,0*50
$GBGSV,3,1,09,06,37,215,31,09,36,286,31,13,48,202,32,14,08,164,31,0*7B
$GBGSV,3,2,09,01,37,122,31,02,50,173,31,04,36,125,,11,18,130,,0*75
$GBGSV,3,3,09,12,10,060,,0*4A
$GAGSV,2,1,08,10,63,334,34,11,56,117,34,17,30,039,33,23,38,222,33,0*7C
$GAGSV,2,2,08,24,85,019,34,27,30,126,33,09,13,316,,12,06,130,,0*73

$GNRMC,000108.00,A,3000.00014,N,12000.00028,E,0.098,,230721,,,A,V*16
$GNGGA,000108.00,3000.00014,N,12000.00028,E,1,16,0.85,-0.7,M,,M,,*7A
$GNGSA,A,3,07,13,02,04,08,25,,,,,,,1.64,0.85,1.40,1*06
$GNGSA,A,3,13,06,09,14,,,,,,,,,1.64,0.85,1.40,4*07

$GNGSA,A,3,10,11,17,24,27,23,,,,,,,1.64,0.85,1.40,3*0D
$GPGSV,4,1,13,02,32,299,35,04,51,246,35,07,84,113,37,08,47,207,36,0*64
$GPGSV,4,2,13,13,49,031,36,25,66,042,36,20,22,121,,23,27,057,,0*6B
$GPGSV,4,3,13,27,18,219,,42,48,143,,50,45,136,,40,13,256,,0*6D
$GPGSV,4,4,13,41,36,236,,0*50
$GBGSV,3,1,09,06,37,215,31,09,36,286,31,13,48,202,32,14,08,164,31,0*7B
$GBGSV,3,2,09,01,37,122,31,02,50,173,31,04,36,125,,11,18,130,,0*75
$GBGSV,3,3,09,12,10,060,,0*4A
$GAGSV,2,1,08,10,63,334,34,11,56,117,33,17,30,039,33,23,38,222,34,0*7C
$GAGSV,2,2,08,24,85,019,34,27,30,126,33,09,13,316,,12,06,130,,0*73

$GNRMC,000109.00,A,3000.00015,N,12000.00024,E,0.180,,230721,,,A,V*12
$GNGGA,000109.00,3000.00015,N,12000.00024,E,1,16,0.85,-0.5,M,,M,,*74
$GNGSA,A,3,07,13,02,04,08,25,,,,,,,1.64,0.85,1.40,1*06
$GNGSA,A,3,13,06,09,14,,,,,,,,,1.64,0.85,1.40,4*07
$GNGSA,A,3,10,11,17,24,27,23,,,,,,,1.64,0.85,1.40,3*0D
$GPGSV,4,1,13,02,32,299,36,04,51,246,36,07,84,113,36,08,47,207,36,0*65
$GPG
SV,4,2,13,13,49,031,36,25,66,042,35,20,22,121,,23,27,057,,0*68
$GPGSV,4,3,13,27,18,219,,42,48,143,,50,45,136,,40,13,256,,0*6D
$GPGSV,4,4,13,41,36,236,,0*50
$GBGSV,3,1,09,06,37,215,32,09,36,286,31,13,48,202,32,14,08,164,30,0*79
$GBGSV,3,2,09,01,37,122,31,02,50,173,31,04,36,125,,11,18,130,,0*75
$GBGSV,3,3,09,12,10,060,,0*4A
$GAGSV,2,1,08,10,63,334,34,11,56,117,33,17,30,039,34,23,38,222,34,0*7B
$GAGSV,2,2,08,24,85,019,34,27,30,126,33,09,13,316,,12,06,130,,0*73

$GNRMC,000110.00,A,3000.00016,N,12000.00025,E,0.201,,230721,,,A,V*12
$GNGGA,000110.00,3000.00016,N,12000.00025,E,1,16,0.85,-0.6,M,,M,,*7D
$GNGSA,A,3,07,13,02,04,08,25,,,,,,,1.64,0.85,1.40,1*06
$GNGSA,A,3,13,06,09,14,,,,,,,,,1.64,0.85,1.40,4*07
$GNGSA,A,3,10,11,17,24,27,23,,,,,,,1.64,0.85,1.40,3*0D
$GPGSV,4,1,13,02,32,299,36,04,51,246,36,07,84,113,37,08,47,207,36,0*64
$GPGSV,4,2,13,13,49,031,35
,25,66,042,36,20,22,121,,23,27,057,,0*68
$GPGSV,4,3,13,27,18,219,,42,48,143,,50,45,136,,40,13,256,,0*6D
$GPGSV,4,4,13,41,36,236,,0*50
$GBGSV,3,1,09,06,37,215,31,09,36,286,32,13,48,202,32,14,08,164,30,0*79
$GBGSV,3,2,09,01,37,122,31,02,50,173,31,04,36,125,,11,18,130,,0*75
$GBGSV,3,3,09,12,10,060,,0*4A
$GAGSV,2,1,08,10,63,334,34,11,56,117,35,17,30,039,33,23,38,222,33,0*7D
$GAGSV,2,2,08,24,85,019,34,27,30,126,33,09,13,316,,12,06,130,,0*73

$GNRMC,000111.00,A,3000.00019,N,12000.00023,E,0.181,,230721,,,A,V*11
$GNGGA,000111.00,3000.00019,N,12000.00023,E,1,16,0.85,-0.5,M,,M,,*76
$GNGSA,A,3,07,13,02,04,08,25,,,,,,,1.64,0.85,1.40,1*06
$GNGSA,A,3,13,06,09,14,,,,,,,,,1.64,0.85,1.40,4*07
$GNGSA,A,3
,10,11,17,24,27,23,,,,,,,1.64,0.85,1.40,3*0D
$GPGSV,4,1,13,02,32,299,35,04,51,246,36,07,84,113,36,08,47,207,36,0*66
$GPGSV,4,2,13,13,49,031,35,25,66,042,36,20,22,121,,23,27,057,,0*68
$GPGSV,4,3,13,27,18,219,,42,48,143,,50,45,136,,40,13,256,,0*6D
$GPGSV,4,4,13,41,36,236,,0*50
$GBGSV,3,1,09,06,37,215,31,09,36,286,31,13,48,202,32,14,08,164,31,0*7B
$GBGSV,3,2,09,01,37,122,31,02,50,173,31,04,36,125,,11,18,130,,0*75
$GBGSV,3,3,09,12,10,060,,0*4A
$GAGSV,2,1,08,10,63,334,34,11,56,117,33,17,30,039,33,23,38,222,34,0*7C
$GAGSV,2,2,08,24,85,019,34,27,30,126,33,09,13,316,,12,06,130,,0*73

$GNRMC,000112.00,A,3000.00020,N,12000.00023,E,0.123,,230721,,,A,V*10
$GNGGA,000112.00,3000.00020,N,12000.00023,E,1,16,0.85,-0.4,M,,M,,*7E
$GNGSA,A,3,07,13,02,04,08,25,,,,,,,1.64,0.85,1.40,1*06
$GNGSA,A,3,13,06,09,14,,,,,,,,,1.64,0.85,1.40,4*07
$GNGSA,A,3,10,11,17,24,27,23,,,,,,,1.64
,0.85,1.40,3*0D
$GPGSV,4,1,13,02,32,299,36,04,51,246,36,07,84,113,36,08,47,207,35,0*66
$GPGSV,4,2,13,13,49,031,36,25,66,042,36,20,22,121,,23,27,057,,0*6B
$GPGSV,4,3,13,27,18,219,,42,48,143,,50,45,136,,40,13,256,,0*6D
$GPGSV,4,4,13,41,36,236,,0*50
$GBGSV,3,1,09,06,37,215,31,09,36,286,31,13,48,202,32,14,08,164,31,0*7B
$GBGSV,3,2,09,01,37,122,31,02,50,173,31,04,36,125,,11,18,130,,0*75
$GBGSV,3,3,09,12,10,060,,0*4A
$GAGSV,2,1,08,10,63,334,33,11,56,117,34,17,30,039,34,23,38,222,33,0*7C
$GAGSV,2,2,08,24,85,019,34,27,30,126,33,09,13,316,,12,06,130,,0*73

$GNRMC,000113.00,A,3000.00020,N,12000.00023,E,0.120,,230721,,,A,V*12
$GNGGA,000113.00,3000.00020,N,12000.00023,E,1,16,0.85,-0.2,M,,M,,*79
$GNGSA,A,3,07,13,02,04,08,25,,,,,,,1.64,0.85,1.40,1*06
$GNGSA,A,3,13,06,09,14,,,,,,,,,1.64,0.85,1.40,4*07
$GNGSA,A,3,10,11,17,24,27,23,,,,,,,1.64,0.85,1.40,3*0D
$GPGSV,4,1,13,02,32,299,35,04,51,
246,36,07,84,113,37,08,47,207,36,0*67
$GPGSV,4,2,13,13,49,031,36,25,66,042,36,20,22,121,,23,27,057,,0*6B
$GPGSV,4,3,13,27,18,219,,42,48,143,,50,45,136,,40,13,256,,0*6D
$GPGSV,4,4,13,41,36,236,,0*50
$GBGSV,3,1,09,06,37,215,31,09,36,286,31,13,48,202,32,14,08,164,30,0*7A
$GBGSV,3,2,09,01,37,122,31,02,50,173,31,04,36,125,,11,18,130,,0*75
$GBGSV,3,3,09,12,10,060,,0*4A
$GAGSV,2,1,08,10,63,334,35,11,56,117,34,17,30,039,34,23,38,222,33,0*7A
$GAGSV,2,2,08,24,85,019,34,27,30,126,33,09,13,316,,12,06,130,,0*73

$GNRMC,000114.00,A,3000.00021,N,12000.00024,E,0.033,,230721,,,A,V*10
$GNGGA,000114.00,3000.00021,N,12000.00024,E,1,16,0.85,-0.3,M,,M,,*79
$GNGSA,A,3,07,13,02,04,08,25,,,,,,,1.64,0.85,1.40,1*06
$GNGSA,A,3,13,06,09,14,,,,,,,,,1.64,0.85,1.40,4*07
$GNGSA,A,3,10,11,17,24
,27,23,,,,,,,1.64,0.85,1.40,3*0D
$GPGSV,4,1,13,02,32,299,35,04,51,246,36,07,84,113,37,08,47,207,36,0*67
$GPGSV,4,2,13,13,49,031,36,25,66,042,36,20,22,121,,23,27,057,,0*6B
$GPGSV,4,3,13,27,18,219,,42,48,143,,50,45,136,,40,13,256,,0*6D
$GPGSV,4,4,13,41,36,236,,0*50
$GBGSV,3,1,09,06,37,215,31,09,36,286,31,13,48,202,32,14,08,164,31,0*7B
$GBGSV,3,2,09,01,37,122,31,02,50,173,32,04,36,125,,11,18,130,,0*76
$GBGSV,3,3,09,12,10,060,,0*4A
$GAGSV,2,1,08,10,63,334,34,11,56,117,34,17,30,039,33,23,38,222,34,0*7B
$GAGSV,2,2,08,24,85,019,35,27,30,126,33,09,13,316,,12,06,130,,0*72

$GNRMC,000115.00,A,3000.00021,N,12000.00031,E,0.192,,230721,,,A,V*1F
$GNGGA,000115.00,3000.00021,N,12000.00031,E,1,16,0.85,-0.5,M,,M,,*7A
$GNGSA,A,3,07,13,02,04,08,25,,,,,,,1.64,0.85,1.40,1*06
$GNGSA,A,3,13,06,09,14,,,,,,,,,1.64,0.85,1.40,4*07
$GNGSA,A,3,10,11,17
,24,27,23,,,,,,,1.64,0.85,1.40,3*0D
$GPGSV,4,1,13,02,32,299,35,04,51,246,36,07,84,113,36,08,47,207,36,0*66
$GPGSV,4,2,13,13,49,031,36,25,66,042,36,20,22,121,,23,27,057,,0*6B
$GPGSV,4,3,13,27,18,219,,42,48,143,,50,45,136,,40,13,256,,0*6D
$GPGSV,4,4,13,41,36,236,,0*50
$GBGSV,3,1,09,06,37,215,31,09,36,286,31,13,48,202,32,14,08,164,30,0*7A
$GBGSV,3,2,09,01,37,122,31,02,50,173,32,04,36,125,,11,18,130,,0*76
$GBGSV,3,3,09,12,10,060,,0*4A
$GAGSV,2,1,08,10,63,334,34,11,56,117,34,17,30,039,33,23,38,222,33,0*7C
$GAGSV,2,2,08,24,85,019,34,27,30,126,33,09,13,316,,12,06,130,,0*73

$GNRMC,000116.00,A,3000.00021,N,12000.00034,E,0.025,,230721,,,A,V*14
$GNGGA,000116.00,3000.00021,N,12000.00034,E,1,16,0.85,-0.4,M,,M,,*7D
$GNGSA,A,3,07,13,02,04,08,25,,,,,,,1.64,0.85,1.40,1*06
$GNGSA,A,3,13,06,09,14,,,,,,,,,1.64,0.85,1.40,4*07
$GNGSA,A,3,10,11,17,24,27,23,,,,,,,1.64,0.85,1.40,3*0D
$GPGSV,4,
1,13,02,32,299,35,04,51,246,36,07,84,113,37,08,47,207,36,0*67
$GPGSV,4,2,13,13,49,031,36,25,66,042,36,20,22,121,,23,27,057,,0*6B
$GPGSV,4,3,13,27,18,219,,42,48,143,,50,45,136,,40,13,256,,0*6D
$GPGSV,4,4,13,41,36,236,,0*50
$GBGSV,3,1,09,06,37,215,31,09,36,286,32,13,48,202,32,14,08,164,30,0*79
$GBGSV,3,2,09,01,37,122,31,02,50,173,31,04,36,125,,11,18,130,,0*75
$GBGSV,3,3,09,12,10,060,,0*4A
$GAGSV,2,1,08,10,63,334,33,11,56,117,33,17,30,039,33,23,38,222,33,0*7C
$GAGSV,2,2,08,24,85,019,34,27,30,126,33,09,13,316,,12,06,130,,0*73

$GNRMC,000117.00,A,3000.00020,N,12000.00035,E,0.157,,230721,,,A,V*11
$GNGGA,000117.00,3000.00020,N,12000.00035,E,1,16,0.85,-0.4,M,,M,,*7C
$GNGSA,A,3,07,13,02,04,08,25,,,,,,,1.64,0.85,1.40,1*06
$GNGSA,A,3,13,06,09,14,,,,,,,,,1.64,0.85,1.40,4*07
$GNGSA,A,3,10,11,17,24,27,23,,,,,,
,1.64,0.85,1.40,3*0D
$GPGSV,4,1,14,02,32,299,35,04,51,246,36,07,84,113,36,08,47,207,36,0*61
$GPGSV,4,2,14,13,49,031,36,25,66,042,36,10,01,310,,20,22,121,,0*68
$GPGSV,4,3,14,23,27,057,,27,18,219,,42,48,143,,50,45,136,,0*6B
$GPGSV,4,4,14,40,13,256,,41,36,236,,0*60
$GBGSV,3,1,09,06,37,215,31,09,36,286,31,13,48,202,32,14,08,164,31,0*7B
$GBGSV,3,2,09,01,37,122,31,02,50,173,31,04,36,125,,11,18,130,,0*75
$GBGSV,3,3,09,12,10,060,,0*4A
$GAGSV,2,1,08,10,63,334,34,11,56,117,33,17,30,039,33,23,38,222,34,0*7C
$GAGSV,2,2,08,24,85,019,34,27,30,126,33,09,13,316,,12,06,130,,0*73

$GNRMC,000118.00,A,3000.00016,N,12000.00034,E,0.311,,230721,,,A,V*1A
$GNGGA,000118.00,3000.00016,N,12000.00034,E,1,16,0.85,-0.4,M,,M,,*77
$GNGSA,A,3,07,13,02,04,08,25,,,,,,,1.64,0.85,1.40,1*06
$GNGSA,A,3,13,06,09,14,,,,,,,,,1.64,0.85,1.40,4*07
$GNGSA,A,3,10,11,17,24,27,23,,,,,,,1.64,0.85,1.40,3*0D
$GPGSV,4,1,14,02,32,2
99,36,04,51,246,35,07,84,112,36,08,47,207,35,0*63
$GPGSV,4,2,14,13,49,031,36,25,66,042,36,10,01,310,,20,22,121,,0*68
$GPGSV,4,3,14,23,27,057,,27,18,219,,42,48,143,,50,45,136,,0*6B
$GPGSV,4,4,14,40,13,256,,41,36,236,,0*60
$GBGSV,3,1,09,06,37,215,31,09,36,286,31,13,48,202,32,14,08,164,31,0*7B
$GBGSV,3,2,09,01,37,122,31,02,50,173,31,04,36,125,,11,18,130,,0*75
$GBGSV,3,3,09,12,10,060,,0*4A
$GAGSV,2,1,08,10,63,334,34,11,56,117,34,17,30,039,33,23,38,222,33,0*7C
$GAGSV,2,2,08,24,85,019,34,27,30,126,33,09,13,316,,12,06,130,,0*73

$GNRMC,000119.00,A,3000.00013,N,12000.00031,E,0.161,,230721,,,A,V*1E
$GNGGA,000119.00,3000.00013,N,12000.00031,E,1,16,0.85,-0.2,M,,M,,*70
$GNGSA,A,3,07,13,02,04,08,25,,,,,,,1.64,0.85,1.40,1*06
$GNGSA,A,3,13,06,09,14,,,,,,,,,1.64,0.85,1.40,4*07
$GNGSA,A,3,10,11,
17,24,27,23,,,,,,,1.64,0.85,1.40,3*0D
$GPGSV,4,1,14,02,32,299,35,04,51,246,36,07,84,112,36,08,47,207,36,0*60
$GPGSV,4,2,14,13,49,031,36,25,66,042,36,10,01,310,,20,22,121,,0*68
$GPGSV,4,3,14,23,27,057,,27,18,219,,42,48,143,,50,45,136,,0*6B
$GPGSV,4,4,14,40,13,256,,41,36,236,,0*60
$GBGSV,3,1,09,06,37,215,31,09,36,286,31,13,48,202,32,14,08,164,31,0*7B
$GBGSV,3,2,09,01,37,122,31,02,50,173,31,04,36,125,,11,18,130,,0*75
$GBGSV,3,3,09,12,10,060,,0*4A
$GAGSV,2,1,08,10,63,334,33,11,56,117,34,17,30,039,34,23,38,222,33,0*7C
$GAGSV,2,2,08,24,85,019,34,27,30,126,33,09,13,316,,12,06,130,,0*73

$GNRMC,000120.00,A,3000.00010,N,12000.00030,E,0.148,,230721,,,A,V*1D
$GNGGA,000120.00,3000.00010,N,12000.00030,E,1,16,0.85,-0.2,M,,M,,*78
$GNGSA,A,3,07,13,02,04,08,25,,,,,,,1.64,0.85,1.40,1*06
$GNGSA,A,3,13,06,09,14,,,,,,,,,1.64,0.85,1.40,4*07
$GNGSA
,A,3,10,11,17,24,27,23,,,,,,,1.64,0.85,1.40,3*0D
$GPGSV,4,1,14,02,32,299,36,04,51,246,35,07,84,112,36,08,47,207,36,0*60
$GPGSV,4,2,14,13,49,031,37,25,66,042,36,10,01,310,,20,22,121,,0*69
$GPGSV,4,3,14,23,27,057,,27,18,219,,42,48,143,,50,45,136,,0*6B
$GPGSV,4,4,14,40,13,256,,41,36,236,,0*60
$GBGSV,3,1,09,06,37,215,31,09,36,286,31,13,48,202,32,14,08,164,31,0*7B
$GBGSV,3,2,09,01,37,122,31,02,50,173,32,04,36,125,,11,18,130,,0*76
$GBGSV,3,3,09,12,10,060,,0*4A
$GAGSV,2,1,08,10,63,334,34,11,56,117,34,17,30,039,34,23,38,222,33,0*7B
$GAGSV,2,2,08,24,85,019,34,27,30,126,33,09,13,316,,12,06,130,,0*73

$GNRMC,000121.00,A,3000.00009,N,12000.00028,E,0.015,,230721,,,A,V*14
$GNGGA,000121.00,3000.00009,N,12000.00028,E,1,16,0.85,-0.2,M,,M,,*78
$GNGSA,A,3,07,13,02,04,08,25,,,,,,,1.64,0.85,1.40,1*06
$GNGSA,A,3,13,06,09,14,,,,,,,,,1.64,0.85,1.40,4*07
$GNGSA,A,3,10,11,17,24,27,23,,,,,,,1.64,0.85,1.40,3*0D
$GPGSV,4,1,14,02,32,299,36,04,51,246
,36,07,84,112,36,08,47,207,35,0*60
$GPGSV,4,2,14,13,49,031,36,25,66,042,36,10,01,310,,20,22,121,,0*68
$GPGSV,4,3,14,23,27,057,,27,18,219,,42,48,143,,50,45,136,,0*6B
$GPGSV,4,4,14,40,13,256,,41,36,236,,0*60
$GBGSV,3,1,09,06,37,215,31,09,36,286,31,13,48,202,32,14,08,164,31,0*7B
$GBGSV,3,2,09,01,37,122,31,02,50,173,31,04,36,125,,11,18,130,,0*75
$GBGSV,3,3,09,12,10,060,,0*4A
$GAGSV,2,1,08,10,63,334,34,11,56,117,34,17,30,039,33,23,38,222,34,0*7B
$GAGSV,2,2,08,24,85,019,34,27,30,126,33,09,13,316,,12,06,130,,0*73

$GNRMC,000122.00,A,3000.00012,N,12000.00029,E,0.147,,230721,,,A,V*1A
$GNGGA,000122.00,3000.00012,N,12000.00029,E,1,16,0.85,-0.3,M,,M,,*71
$GNGSA,A,3,07,13,02,04,08,25,,,,,,,1.64,0.85,1.40,1*06
$GNGSA,A,3,13,06,09,14,,,,,,,,,1.64,0.85,1.40,4*
07
$GNGSA,A,3,10,11,17,24,27,23,,,,,,,1.64,0.85,1.40,3*0D
$GPGSV,4,1,14,02,32,299,36,04,51,246,36,07,84,112,36,08,47,207,36,0*63
$GPGSV,4,2,14,13,49,031,36,25,66,042,36,10,01,310,,20,22,121,,0*68
$GPGSV,4,3,14,23,27,057,,27,18,219,,42,48,143,,50,45,136,,0*6B
$GPGSV,4,4,14,40,13,256,,41,36,236,,0*60
$GBGSV,3,1,09,06,37,215,31,09,36,286,31,13,48,202,32,14,08,164,31,0*7B
$GBGSV,3,2,09,01,37,122,31,02,50,173,32,04,36,125,,11,18,130,,0*76
$GBGSV,3,3,09,12,10,060,,0*4A
$GAGSV,2,1,08,10,64,334,34,11,56,117,34,17,30,039,33,23,38,222,34,0*7C
$GAGSV,2,2,08,24,85,019,34,27,30,126,33,09,13,316,,12,06,130,,0*73

$GNRMC,000123.00,A,3000.00016,N,12000.00032,E,0.151,,230721,,,A,V*12
$GNGGA,000123.00,3000.00016,N,12000.00032,E,1,16,0.85,-0.4,M,,M,,*79
$GNGSA,A,3,07,13,02,04,08,25,,,,,,,1.64,0.85,1.40,1*06
$GNGSA,A,3,13,06,09,14,,,,,,,,,1.64,0.85,1.40,4*07
$GNGSA,A,3,10,11,17,24,27,23,,,,,,,1.64,0.85,1.40,3*0D
$GPGSV,4,1,14,02,32,299,35,04,51,246,36,07,84,112,37,08,47,207,35,0*62
$GPGSV,4,2,14,13,49,031,36,25,66,042
,36,10,01,310,,20,22,121,,0*68
$GPGSV,4,3,14,23,27,057,,27,18,219,,42,48,143,,50,45,136,,0*6B
$GPGSV,4,4,14,40,13,256,,41,36,236,,0*60
$GBGSV,3,1,09,06,37,215,31,09,36,286,31,13,48,202,32,14,08,164,31,0*7B
$GBGSV,3,2,09,01,37,122,31,02,50,173,31,04,36,125,,11,18,130,,0*75
$GBGSV,3,3,09,12,10,060,,0*4A
$GAGSV,2,1,08,10,64,334,34,11,56,117,34,17,30,039,33,23,38,222,33,0*7B
$GAGSV,2,2,08,24,85,019,34,27,30,126,34,09,13,316,,12,06,130,,0*74

$GNRMC,000124.00,A,3000.00015,N,12000.00040,E,0.202,,230721,,,A,V*16
$GNGGA,000124.00,3000.00015,N,12000.00040,E,1,16,0.85,-0.9,M,,M,,*75
$GNGSA,A,3,07,13,02,04,08,25,,,,,,,1.64,0.85,1.40,1*06
$GNGSA,A,3,13,06,09,14,,,,,,,,,1.64,0.85,1.40,4*07
$GNGSA,A,3,10,11,17,24,27,23,,,,,,,1.64,0.85,1.40,3*0D
$GPGSV,4,1,14,02,32,299,35,04,51,246,36,07,84,11
2,36,08,47,207,36,0*60
$GPGSV,4,2,14,13,49,031,36,25,66,042,36,10,01,310,,20,22,121,,0*68
$GPGSV,4,3,14,23,27,057,,27,18,219,,42,48,143,,50,45,136,,0*6B
$GPGSV,4,4,14,40,13,256,,41,36,236,,0*60
$GBGSV,3,1,09,06,37,215,31,09,36,286,31,13,48,202,32,14,08,164,30,0*7A
$GBGSV,3,2,09,01,37,122,31,02,50,173,31,04,36,125,,11,18,130,,0*75
$GBGSV,3,3,09,12,10,060,,0*4A
$GAGSV,2,1,08,10,64,334,35,11,56,117,34,17,30,039,33,23,38,222,34,0*7D
$GAGSV,2,2,08,24,85,019,34,27,30,126,33,09,13,316,,12,06,130,,0*73

$GNRMC,000125.00,A,3000.00014,N,12000.00041,E,0.207,,230721,,,A,V*12
$GNGGA,000125.00,3000.00014,N,12000.00041,E,1,16,0.85,-0.9,M,,M,,*74
$GNGSA,A,3,07,13,02,04,08,25,,,,,,,1.64,0.85,1.40,1*06
$GNGSA,A,3,13,06,09,14,,,,,,,,,1.64,0.85,1.40,4*07
$GNGSA,A,3,10,11,17,24,27,23,,,,,,,1.64,0.85,1.40,3*0D
$GPGSV,4,1,14,02,32,299,35,04,51,246,36,07,84,112,37,08,47,207,36,0*61

$GPGSV,4,2,14,13,49,031,36,25,66,042,36,10,01,310,,20,22,121,,0*68
$GPGSV,4,3,14,23,27,057,,27,18,219,,42,48,143,,50,45,136,,0*6B
$GPGSV,4,4,14,40,13,256,,41,36,236,,0*60
$GBGSV,3,1,09,06,37,215,31,09,36,286,31,13,48,202,32,14,08,164,31,0*7B
$GBGSV,3,2,09,01,37,122,31,02,50,173,31,04,36,125,,11,18,130,,0*75
$GBGSV,3,3,09,12,10,060,,0*4A
$GAGSV,2,1,08,10,64,334,34,11,56,117,34,17,30,039,34,23,38,222,33,0*7C
$GAGSV,2,2,08,24,85,019,34,27,30,126,33,09,13,316,,12,06,130,,0*73

$GNRMC,000126.00,A,3000.00016,N,12000.00041,E,0.082,,230721,,,A,V*1C
$GNGGA,000126.00,3000.00016,N,12000.00041,E,1,16,0.85,-0.8,M,,M,,*74
$GNGSA,A,3,07,13,02,04,08,25,,,,,,,1.64,0.85,1.40,1*06
$GNGSA,A,3,13,06,09,14,,,,,,,,,1.64,0.85,1.40,4*07
$GNGSA,A,3,10,11,17,24,27,23,,,,,
,,1.64,0.85,1.40,3*0D
$GPGSV,4,1,14,02,32,299,36,04,51,246,36,07,84,112,36,08,47,207,35,0*60
$GPGSV,4,2,14,13,49,031,36,25,66,042,36,10,01,310,,20,22,121,,0*68
$GPGSV,4,3,14,23,27,057,,27,18,219,,42,48,143,,50,45,136,,0*6B
$GPGSV,4,4,14,40,13,256,,41,36,236,,0*60
$GBGSV,3,1,09,06,37,215,31,09,36,286,31,13,48,202,32,14,08,164,31,0*7B
$GBGSV,3,2,09,01,37,122,31,02,50,173,31,04,36,125,,11,18,130,,0*75
$GBGSV,3,3,09,12,10,060,,0*4A
$GAGSV,2,1,08,10,64,334,34,11,56,117,34,17,30,039,34,23,38,222,33,0*7C
$GAGSV,2,2,08,24,85,019,34,27,30,126,34,09,13,316,,12,06,130,,0*74

$GNRMC,000127.00,A,3000.00015,N,12000.00044,E,0.197,,230721,,,A,V*1E
$GNGGA,000127.00,3000.00015,N,12000.00044,E,1,16,0.85,-0.7,M,,M,,*7C
$GNGSA,A,3,07,13,02,04,08,25,,,,,,,1.64,0.85,1.40,1*06
$GNGSA,A,3,13,06,09,14,,,,,,,,,1.64,0.85,1.40,4*07
$GNGSA,A,3,10,11,17,24,27,23,,,,,,,1.64,0.85,1.40
,3*0D
$GPGSV,4,1,14,02,32,299,35,04,51,246,36,07,84,112,36,08,47,207,36,0*60
$GPGSV,4,2,14,13,49,031,35,25,66,042,36,10,01,310,,20,22,121,,0*6B
$GPGSV,4,3,14,23,27,057,,27,18,219,,42,48,143,,50,45,136,,0*6B
$GPGSV,4,4,14,40,13,256,,41,36,236,,0*60
$GBGSV,3,1,09,06,37,215,31,09,36,286,31,13,48,202,31,14,08,164,31,0*78
$GBGSV,3,2,09,01,37,122,31,02,50,173,31,04,36,125,,11,18,130,,0*75
$GBGSV,3,3,09,12,10,060,,0*4A
$GAGSV,2,1,08,10,64,334,34,11,56,117,34,17,30,039,33,23,38,222,33,0*7B
$GAGSV,2,2,08,24,85,019,34,27,30,126,33,09,13,316,,12,06,130,,0*73

$GNRMC,000128.00,A,3000.00012,N,12000.00046,E,0.127,,230721,,,A,V*1F
$GNGGA,000128.00,3000.00012,N,12000.00046,E,1,16,0.85,-0.7,M,,M,,*76
$GNGSA,A,3,07,13,02,04,08,25,,,,,,,1.64,0.85,1.40,1*06
$GNGSA,A,3,13,06,09,14,,,,,,,,,1.64,0.85,1.40,4*07
$GNGSA,A,3,10,11,17,24,27,23,,,,,,,1.64,0.85,1.40,3*0D
$GPGSV,4,1,14,02,32,299,36,04,51,246,36,07,84,112,
37,08,47,207,35,0*61
$GPGSV,4,2,14,13,49,031,37,25,66,042,36,10,01,310,,20,22,121,,0*69
$GPGSV,4,3,14,23,27,057,,27,18,219,,42,48,143,,50,45,136,,0*6B
$GPGSV,4,4,14,40,13,256,,41,36,236,,0*60
$GBGSV,3,1,09,06,37,215,31,09,36,286,31,13,48,202,32,14,08,164,31,0*7B
$GBGSV,3,2,09,01,37,122,31,02,50,173,31,04,36,125,,11,18,130,,0*75
$GBGSV,3,3,09,12,10,060,,0*4A
$GAGSV,2,1,08,10,64,334,34,11,56,117,34,17,30,039,33,23,38,222,33,0*7B
$GAGSV,2,2,08,24,85,019,35,27,30,126,33,09,13,316,,12,06,130,,0*72

$GNRMC,000129.00,A,3000.00012,N,12000.00042,E,0.169,,230721,,,A,V*10
$GNGGA,000129.00,3000.00012,N,12000.00042,E,1,16,0.85,-0.6,M,,M,,*72
$GNGSA,A,3,07,13,02,04,08,25,,,,,,,1.64,0.85,1.40,1*06
$GNGSA,A,3,13,06,09,14,,,,,,,,,1.64,0.85,1.40,4*07
$GNGSA,A,3,10,11,17,24,27,23,,,,,,,1.64,0.85,1.40,3*0D
$GPGSV,4,1,14,02,32,299,35,04,51,246,35,07,8
4,111,36,08,47,207,36,0*60
$GPGSV,4,2,14,13,49,031,36,25,66,042,36,10,01,310,,20,22,121,,0*68
$GPGSV,4,3,14,23,27,057,,27,18,219,,42,48,143,,50,45,136,,0*6B
$GPGSV,4,4,14,40,13,256,,41,36,236,,0*60
$GBGSV,3,1,09,06,37,215,31,09,36,286,31,13,48,202,32,14,08,164,31,0*7B
$GBGSV,3,2,09,01,37,122,31,02,50,173,31,04,36,125,,11,18,130,,0*75
$GBGSV,3,3,09,12,10,060,,0*4A
$GAGSV,2,1,08,10,64,334,34,11,56,117,34,17,30,039,34,23,38,222,33,0*7C
