,,,3.39,1.50,3.04,3*08
$GPGSV,3,1,11,05,58,052,39,09,30,153,39,12,49,064,39,21,12,190,39,0*61
$GPGSV,3,2,11,24,43,156,39,29,65,273,39,30,60,354,39,42,48,147,,0*6C
$GPGSV,3,3,11,50,45,139,,40,11,257,,41,34,237,,0*5A
$GBGSV,2,1,05,02,56,174,35,25,54,230,35,27,57,135,35,04,41,124,,0*75
$GBGSV,2,2,05,19,,,35,0*7C
$GAGSV,1,1,04,06,49,267,37,07,60,015,37,23,32,315,,
$GNRMC,080132.00,A,3114.50875,N,12130.01803,E,29.157,92.15,200821,,,A,V*0F
$GNGGA,080132.00,3114.50875,N,12130.01803,E,1,12,1.50,51.4,M,,M,,*60
$GNGSA,A,3,05,09,12,21,24,29,30,,,,,,3.39,1.50,3.04,1*09
$GNGSA,A,3,27,25,02,,,,,,,,,,3.39,1.50,3.04,4*0E
$GNGSA,A,3,06,07,,,,,,,,,,,3.39,1.50,3.04,3*08
$GPGSV,3,1,11,05,58,052,39,09,30,153,39,12,49,064,39,21,12,190,39,0*61
$GPGSV
,3,2,11,24,43,156,39,29,65,273,39,30,60,354,39,42,48,147,,0*6C
$GPGSV,3,3,11,50,45,139,,40,11,257,,41,34,237,,0*5A
$GBGSV,2,1,05,02,56,174,36,25,54,230,35,27,57,135,35,04,41,124,,0*76
$GBGSV,2,2,05,19,,,35,0*7C
$GAGSV,1,1,04,06,49,267,37,07,60,015,37,23,32,315,,24,73,240,,0*7E

$GNRMC,080133.00,A,3114.50887,N,12130.03350,E,58.507,90.03,200821,,,A,V*0E
$GNGGA,080133.00,3114.50887,N,12130.03350,E,1,12,1.50,51.1,M,,M,,*66
$GNGSA,A,3,05,09,12,21,24,29,30,,,,,,3.39,1.50,3.04,1*09
$GNGSA,A,3,27,25,02,,,,,,,,,,3.39,1.50,3.04,4*0E
$GNGSA,A,3,06,07,,,,,,,,,,,3.39,1.50,3.04,3*08
$GPGSV,3,1,11,05,58,052,39,09,30,153,39,12,49,064,39,21,12,190,39,0*61
$GPGSV,3,2,11,24,43,156,39,29,65,
273,39,30,60,354,39,42,48,147,,0*6C
$GPGSV,3,3,11,50,45,139,,40,11,257,,41,34,237,,0*5A
$GBGSV,2,1,05,02,56,174,35,25,54,230,35,27,57,135,35,04,41,124,,0*75
$GBGSV,2,2,05,19,,,35,0*7C
$GAGSV,1,1,04,06,49,267,37,07,60,015,37,23,32,315,,24,73,240,,0*7E

$GNRMC,080134.00,A,3114.50889,N,12130.05686,E,85.740,90.00,200821,,,A,V*0D
$GNGGA,080134.00,3114.50889,N,12130.05686,E,1,12,1.50,50.8,M,,M,,*6F
$GNGSA,A,3,05,09,12,21,24,29,30,,,,,,3.39,1.50,3.04,1*09
$GNGSA,A,3,27,25,02,,,,,,,,,,3.39,1.50,3.04,4*0E
$GNGSA,A,3,06,07,,,,,,,,,,,3.39,1.50,3.04,3*08
$GPGSV,3,1,11,05,58,052,39,09,30,153,39,12,49,064,39,2
1,12,190,39,0*61
$GPGSV,3,2,11,24,43,156,39,29,65,273,39,30,60,354,39,42,48,147,,0*6C
$GPGSV,3,3,11,50,45,139,,40,11,257,,41,34,237,,0*5A
$GBGSV,2,1,05,02,56,174,35,25,54,230,35,27,57,135,35,04,41,124,,0*75
$GBGSV,2,2,05,19,,,35,0*7C
$GAGSV,1,1,04,06,49,267,37,07,60,015,37,23,32,315,,24,73,240,,0*7E

,,,3.40,1.50,3.04,3*06
$GPGSV,3,1,11,05,58,052,40,09,30,153,39,12,49,064,39,21,12,190,39,0*6F
$GPGSV,3,2,11,24,43,156,39,29,65,273,39,30,60,354,39,42,48,147,,0*6C
$GPGSV,3,3,11,50,45,139,,40,11,257,,41,34,237,,0*5A
$GBGSV,2,1,05,02,56,174,36,25,54,230,35,27,57,135,35,04,41,124,,0*76
$GBGSV,2,2,05,19,,,35,0*7C
$GAGSV,1,1,04,06,49,267,37,07,60,015,37,23,32,315,,
$GNRMC,080136.00,A,3114.50892,N,12130.12971,E,139.230,89.99,200821,,,A,V*38
$GNGGA,080136.00,3114.50892,N,12130.12971,E,1,12,1.50,50.5,M,,M,,*6B
$GNGSA,A,3,05,09,12,21,24,29,30,,,,,,3.40,1.50,3.05,1*06
$GNGSA,A,3,27,25,02,,,,,,,,,,3.40,1.50,3.05,4*01
$GNGSA,A,3,06,07,,,,,,,,,,,3.40,1.50,3.05,3*07
$GPGSV,3,1,11,05,58,052,39,09,30,153,39,1
2,49,064,40,21,12,190,39,0*6F
$GPGSV,3,2,11,24,43,156,39,29,65,273,39,30,60,354,39,42,48,147,,0*6C
$GPGSV,3,3,11,50,45,139,,40,11,257,,41,34,237,,0*5A
$GBGSV,2,1,05,02,56,174,34,25,54,230,35,27,57,135,35,04,41,124,,0*74
$GBGSV,2,2,05,19,,,35,0*7C
$GAGSV,1,1,04,06,49,267,38,07,60,015,38,23,32,315,,24,73,240,,0*7E

,3.05,4*01
$GNGSA,A,3,06,07,,,,,,,,,,,3.40,1.50,3.05,3*07
$GPGSV,3,1,11,05,58,052,39,09,30,153,39,12,49,064,39,21,12,190,39,0*61
$GPGSV,3,2,11,24,43,156,39,29,65,273,39,30,60,354,40,42,48,147,,0*62
$GPGSV,3,3,11,50,45,139,,40,11,257,,41,34,237,,0*5A
$GBGSV,2,1,05,02,56,174,35,25,54,230,35,27,57,135,35,04,41,124,,0*75
$GBGSV,2,2,05,19,,,35,0*7C
$GAGSV,1,1,04,06
$GNRMC,080138.00,A,3114.50904,N,12130.23156,E,163.883,89.95,200821,,,A,V*36
$GNGGA,080138.00,3114.50904,N,12130.23156,E,1,12,1.50,50.1,M,,M,,*60
$GNGSA,A,3,05,09,12,21,24,29,30,,,,,,3.40,1.50,3.05,1*06
$GNGSA,A,3,27,25,02,,,,,,,,,,3.40,1.50,3.05,4*01
$GNGSA,A,3,06,07,,,,,,,,,,,3.40,1.50,3.05,3*07
$GPGSV,3,1,11,05,58,052,39,09,30,153,39,12,49,064,39,21,12,190,39,0*61
$GPGSV,3,2,11,24,43,156,39,29,65,
273,39,30,60,354,39,42,48,147,,0*6C
$GPGSV,3,3,11,50,45,139,,40,11,257,,41,34,237,,0*5A
$GBGSV,2,1,05,02,56,174,35,25,54,230,35,27,57,135,35,04,41,124,,0*75
$GBGSV,2,2,05,19,,,35,0*7C
$GAGSV,1,1,04,06,49,267,37,07,60,015,38,23,32,315,,24,73,240,,0*71

$GNRMC,080139.00,A,3114.50903,N,12130.28417,E,162.155,90.00,200821,,,A,V*3C
$GNGGA,080139.00,3114.50903,N,12130.28417,E,1,12,1.50,50.1,M,,M,,*6D
$GNGSA,A,3,05,09,12,21,24,29,30,,,,,,3.40,1.50,3.05,1*06
$GNGSA,A,3,27,25,02,,,,,,,,,,3.40,1.50,3.05,4*01
$GNGSA,A,3,06,07,,,,,,,,,,,3.40,1.50,3.05,3*07
$GPGSV,3,1,11,05,58,052,39,09,30,153,39,12,
49,064,38,21,12,190,39,0*60
$GPGSV,3,2,11,24,43,156,40,29,65,273,40,30,60,354,39,42,48,147,,0*6C
$GPGSV,3,3,11,50,45,139,,40,11,257,,41,34,237,,0*5A
$GBGSV,2,1,05,02,56,174,36,25,54,230,35,27,57,135,35,04,41,124,,0*76
$GBGSV,2,2,05,19,,,35,0*7C
$GAGSV,1,1,04,06,49,267,37,07,60,015,38,23,32,315,,24,73,240,,0*71

$GNRMC,080140.00,A,3114.50905,N,12130.33658,E,161.990,90.01,200821,,,A,V*34
$GNGGA,080140.00,3114.50905,N,12130.33658,E,1,12,1.50,50.0,M,,M,,*67
$GNGSA,A,3,05,09,12,21,24,29,30,,,,,,3.40,1.50,3.05,1*06
$GNGSA,A,3,27,25,02,,,,,,,,,,3.40,1.50,3.05,4*01
$GNGSA,A,3,06,07,,,,,,,,,,,3.40,1.50,3.05,3*07
$GPGSV,3,1,11,05,58,052,39,09,30,153,39,12,49,064,39,21,12,190,39,0*61
$GPGSV,3,2,11,24,43,156,39,29,
65,273,39,30,60,354,39,42,48,147,,0*6C
$GPGSV,3,3,11,50,45,139,,40,11,257,,41,34,237,,0*5A
$GBGSV,2,1,05,02,56,174,35,25,54,230,35,27,57,135,35,04,41,124,,0*75
$GBGSV,2,2,05,19,,,35,0*7C
$GAGSV,1,1,04,06,49,267,38,07,60,015,37,23,32,315,,24,73,240,,0*71

$GNRMC,080141.00,A,3114.50909,N,12130.38900,E,162.011,89.99,200821,,,A,V*3A
$GNGGA,080141.00,3114.50909,N,12130.38900,E,1,12,1.50,49.8,M,,M,,*63
$GNGSA,A,3,05,09,12,21,24,29,30,,,,,,3.40,1.50,3.05,1*06
$GNGSA,A,3,27,25,02,,,,,,,,,,3.40,1.50,3.05,4*01
$GNGSA,A,3,06,07,,,,,,,,,,,3.40,1.50,3.05,3*07
$GPGSV,3,1,11,05,58,052,39,09,30,153,39,12,49,064,40,21,12,190,39,0*6F
$GPGSV,3,2,11,24,43,156,39,
29,65,273,39,30,60,354,39,42,48,147,,0*6C
$GPGSV,3,3,11,50,45,139,,40,11,257,,41,34,237,,0*5A
$GBGSV,2,1,05,02,56,174,35,25,54,230,35,27,57,135,35,04,41,124,,0*75
$GBGSV,2,2,05,19,,,35,0*7C
$GAGSV,1,1,04,06,49,268,37,07,60,015,37,23,32,315,,24,73,240,,0*71

$GNRMC,080142.00,A,3114.50911,N,12130.44145,E,162.015,90.01,200821,,,A,V*3F
$GNGGA,080142.00,3114.50911,N,12130.44145,E,1,12,1.50,49.6,M,,M,,*65
$GNGSA,A,3,05,09,12,21,24,29,30,,,,,,3.40,1.50,3.05,1*06
$GNGSA,A,3,27,25,02,,,,,,,,,,3.40,1.50,3.05,4*01
$GNGSA,A,3,06,07,,,,,,,,,,,3.40,1.50,3.05,3*07
$GPGSV,3,1,11,05,58,052,39,09,3
0,153,39,12,49,064,39,21,12,190,39,0*61
$GPGSV,3,2,11,24,43,156,39,29,65,273,39,30,60,354,40,42,48,147,,0*62
$GPGSV,3,3,11,50,45,139,,40,11,257,,41,34,237,,0*5A
$GBGSV,2,1,05,02,56,174,35,25,54,230,35,27,57,135,35,04,41,124,,0*75
$GBGSV,2,2,05,19,,,35,0*7C
$GAGSV,1,1,04,06,49,268,37,07,60,015,38,23,32,315,,24,73,239,,0*70

7,,,,,,,,,,,3.40,1.50,3.05,3*07
$GPGSV,3,1,11,05,58,052,39,09,30,153,39,12,49,064,40,21,12,190,39,0*6F
$GPGSV,3,2,11,24,43,156,39,29,65,273,39,30,60,354,40,42,48,147,,0*62
$GPGSV,3,3,11,50,45,139,,40,11,257,,41,34,237,,0*5A
$GBGSV,2,1,05,02,56,174,36,25,54,230,35,27,57,135,35,04,41,124,,0*76
$GBGSV,2,2,05,19,,,35,0*7C
$GAGSV,1,1,04,06,49,268,37,07,
7
$GPGSV,3,1,11,05,58,052,39,09,30,153,39,12,49,064,39,21,12,190,40,0*6F
$GPGSV,3,2,11,24,43,156,39,29,65,273,39,30,60,354,39,42,48,147,,0*6C
$GPGSV,3,3,11,50,45,139,,40,11,257,,41,34,237,,0*5A
$GBGSV,2,1,05,02,56,174,35,25,54,230,35,27,57,135,35,04,41,124,,0*75
$GBGSV,2,2,05,19,,,35,0*7C
$GAGSV,1,1,04,06,49,268,37,07,60,015,37,23,32,315,,24,73,239,,0*
$GNRMC,080145.00,A,3114.50913,N,12130.59873,E,161.989,89.98,200821,,,A,V*3D
$GNGGA,080145.00,3114.50913,N,12130.59873,E,1,12,1.51,49.3,M,,M,,*64
$GNGSA,A,3,05,09,12,21,24,29,30,,,,,,3.40,1.51,3.05,1*07
$GNGSA,A,3,27,25,02,,,,,,,,,,3.40,1.51,3.05,4*00
$GNGSA,A,3,06,07,,,,,,,,,,,3.40,1.51,3.05,3*06
$GPGSV,3,1,11,05,58,052,39,09,
30,153,39,12,49,064,40,21,12,190,39,0*6F
$GPGSV,3,2,11,24,43,156,39,29,65,273,39,30,60,354,39,42,48,147,,0*6C
$GPGSV,3,3,11,50,45,139,,40,11,257,,41,34,237,,0*5A
$GBGSV,2,1,05,02,56,174,35,25,54,230,35,27,57,135,35,04,41,124,,0*75
$GBGSV,2,2,05,19,,,35,0*7C
$GAGSV,1,1,04,06,49,268,37,07,60,015,37,23,32,315,,24,73,239,,0*7F

$GNRMC,080146.00,A,3114.50913,N,12130.65116,E,162.001,90.03,200821,,,A,V*3B
$GNGGA,080146.00,3114.50913,N,12130.65116,E,1,12,1.51,49.2,M,,M,,*63
$GNGSA,A,3,05,09,12,21,24,29,30,,,,,,3.40,1.51,3.05,1*07
$GNGSA,A,3,27,25,02,,,,,,,,,,3.40,1.51,3.05,4*00
$GNGSA,A,3,06,07,,,,,,,,,,,3.40,1.51,3.05,3*06
$GPGSV,3,1,11,05,58,05
2,39,09,30,153,39,12,49,064,39,21,12,190,39,0*61
$GPGSV,3,2,11,24,43,156,39,29,65,273,39,30,60,354,40,42,48,147,,0*62
$GPGSV,3,3,11,50,45,139,,40,11,257,,41,34,237,,0*5A
$GBGSV,2,1,05,02,56,174,36,25,54,230,35,27,57,135,35,04,41,124,,0*76
$GBGSV,2,2,05,19,,,35,0*7C
$GAGSV,1,1,04,06,49,268,37,07,60,016,37,23,32,315,,24,73,239,,0*7C

PGSV,3,1,11,05,58,052,39,09,30,153,40,12,49,064,39,21,12,190,39,0*6F
$GPGSV,3,2,11,24,43,156,39,29,65,273,39,30,60,354,40,42,48,147,,0*62
$GPGSV,3,3,11,50,45,139,,40,11,257,,41,34,237,,0*5A
$GBGSV,2,1,05,02,56,174,35,25,54,230,35,27,57,135,35,04,41,124,,0*75
$GBGSV,2,2,05,19,,,35,0*7C
$GAGSV,1,1,04,06,49,268,37,07,60,016,37,23,32,315,,24,73,239,,0*7C
$GNRMC,080148.00,A,3114.50920,N,12130.75475,E,153.866,89.78,200821,,,A,V*3B
$GNGGA,080148.00,3114.50920,N,12130.75475,E,1,12,1.51,48.9,M,,M,,*66
$GNGSA,A,3,05,09,12,21,24,29,30,,,,,,3.40,1.51,3.05,1*07
$GNGSA,A,3,27,25,02,,,,,,,,,,3.40,1.51,3.05,4*00
$GNGSA,A,3,06,07,,,,,,,,,,,3.40,1.51,3.05,3*06
$GPGSV,3,1,11,05,58,052,39,09,30,153,39,12,49,064,39,21,12,190,40,0*6F

$GPGSV,3,2,11,24,43,156,40,29,65,273,39,30,60,354,39,42,48,147,,0*62
$GPGSV,3,3,11,50,45,139,,40,11,257,,41,34,237,,0*5A
$GBGSV,2,1,05,02,56,174,36,25,54,230,35,27,57,135,35,04,41,124,,0*76
$GBGSV,2,2,05,19,,,35,0*7C
$GAGSV,1,1,04,06,49,268,38,07,60,016,37,23,32,315,,24,73,239,,0*73

1.51,3.05,3*06
$GPGSV,3,1,11,05,58,052,40,09,30,153,39,12,49,064,39,21,12,190,38,0*6E
$GPGSV,3,2,11,24,43,156,39,29,65,273,39,30,60,354,39,42,48,147,,0*6C
$GPGSV,3,3,11,50,45,139,,40,11,257,,41,34,237,,0*5A
$GBGSV,2,1,05,02,56,174,35,25,54,230,35,27,57,135,35,04,41,124,,0*75
$GBGSV,2,2,05,19,,,35,0*7C
$GAGSV,1,1,04,06,49,268,38,07,60,016,
$GNRMC,080150.00,A,3114.51179,N,12130.84613,E,129.604,85.85,200821,,,A,V*32
$GNGGA,080150.00,3114.51179,N,12130.84613,E,1,12,1.51,47.9,M,,M,,*69
$GNGSA,A,3,05,09,12,21,24,29,30,,,,,,3.40,1.51,3.05,1*07
$GNGSA,A,3,27,25,02,,,,,,,,,,3.40,1.51,3.05,4*00
$GNGSA,A,3,06,07,,,,,,,,,,,3.40,1.51,3.05,3*06
$GPGSV,3,1,11,05,58,052,39,09,30,153,39,12,48,064,39,21,12,1
90,39,0*60
$GPGSV,3,2,11,24,43,156,40,29,65,273,39,30,60,354,39,42,48,147,,0*62
$GPGSV,3,3,11,50,45,139,,40,11,257,,41,34,237,,0*5A
$GBGSV,2,1,05,02,56,174,35,25,54,231,35,27,57,135,35,04,41,124,,0*74
$GBGSV,2,2,05,19,,,35,0*7C
$GAGSV,1,1,04,06,49,268,37,07,60,016,37,23,32,315,,24,73,239,,0*7C

$GNRMC,080151.00,A,3114.50996,N,12130.86821,E,76.452,90.00,200821,,,A,V*05
$GNGGA,080151.00,3114.50996,N,12130.86821,E,1,12,1.51,49.3,M,,M,,*69
$GNGSA,A,3,05,09,12,21,24,29,30,,,,,,3.40,1.51,3.05,1*07
$GNGSA,A,3,27,25,02,,,,,,,,,,3.40,1.51,3.05,4*00
$GNGSA,A,3,06,07,,,,,,,,,,,3.40,1.51,3.05,3*06
$GPGSV,3,1,11,05,58,052,38,09,30,153
,39,12,48,064,37,21,12,190,39,0*6F
$GPGSV,3,2,11,24,43,156,39,29,65,273,38,30,60,354,39,42,48,147,,0*6D
$GPGSV,3,3,11,50,45,139,,40,11,257,,41,34,237,,0*5A
$GBGSV,2,1,05,02,56,174,35,25,54,231,35,27,57,135,35,04,41,124,,0*74
$GBGSV,2,2,05,19,,,35,0*7C
$GAGSV,1,1,04,06,49,268,37,07,60,016,37,23,32,315,,24,73,239,,0*7C

GSA,A,3,06,07,,,,,,,,,,,3.51,1.61,3.12,3*03
$GPGSV,3,1,11,05,58,052,39,09,30,153,39,12,48,064,38,21,12,190,40,0*6F
$GPGSV,3,2,11,24,43,156,39,29,65,273,39,30,60,354,39,42,48,147,,0*6C
$GPGSV,3,3,11,50,45,139,,40,11,257,,41,34,237,,0*5A
$GBGSV,2,1,05,02,56,174,36,27,57,135,35,04,41,124,,25,54,231,,0*71
$GBGSV,2,2,05,19,,,35,0*7C
$GAGSV,1,1,04,06,49,26
$GNRMC,080153.00,A,3114.50973,N,12130.89790,E,19.263,90.09,200821,,,A,V*02
$GNGGA,080153.00,3114.50973,N,12130.89790,E,1,12,1.51,49.5,M,,M,,*6C
$GNGSA,A,3,05,09,12,21,24,29,30,,,,,,3.41,1.51,3.05,1*06
$GNGSA,A,3,27,25,02,,,,,,,,,,3.41,1.51,3.05,4*01
$GNGSA,A,3,06,07,,,,,,,,,,,3.41,1.51,3.05,3*07
$GPGSV,3,1,11,05,58,052,39,09,30,153,39,12,48,064,39,21,13,190,40,0*6F
$GPGSV,3,2,11,24,43,15
6,39,29,65,273,39,30,60,354,39,42,48,147,,0*6C
$GPGSV,3,3,11,50,45,139,,40,11,257,,41,34,237,,0*5A
$GBGSV,2,1,05,02,56,174,35,25,54,231,34,27,57,135,35,04,41,124,,0*75
$GBGSV,2,2,05,19,,,35,0*7C
$GAGSV,1,1,04,06,49,268,38,07,60,016,37,23,32,315,,24,73,239,,0*73

GSA,A,3,06,07,,,,,,,,,,,3.41,1.51,3.05,3*07
$GPGSV,3,1,11,05,58,052,39,09,30,153,38,12,48,064,38,21,13,190,39,0*61
$GPGSV,3,2,11,24,43,156,38,29,65,273,38,30,60,354,39,42,48,147,,0*6C
$GPGSV,3,3,11,50,45,139,,40,11,257,,41,34,237,,0*5A
$GBGSV,2,1,05,02,56,174,35,25,54,231,35,27,57,135,34,04,41,124,,0*75
$GBGSV,2,2,05,19,,,35,0*7C
$GAGSV,1,1,04,06,49,268,37,07,6
*02
$GNGSA,A,3,06,07,,,,,,,,,,,3.41,1.51,3.06,3*04
$GPGSV,3,1,11,05,58,052,39,09,30,153,40,12,48,064,39,21,13,190,39,0*6F
$GPGSV,3,2,11,24,43,156,39,29,65,273,39,30,60,354,39,42,48,147,,0*6C
$GPGSV,3,3,11,50,45,139,,40,11,257,,41,34,237,,0*5A
$GBGSV,2,1,05,02,56,174,35,25,54,231,35,27,57,135,35,04,41,124,,0*74
$GBGSV,2,2,05,19,,,35,0*7C
$
GAGSV,1,1,04,06,49,268,38,07,60,016,37,23,32,315,,24,73,239,,0*73

6,3*04
$GPGSV,3,1,11,05,58,052,39,09,30,153,39,12,48,064,39,21,13,190,39,0*61
$GPGSV,3,2,11,24,43,156,39,29,65,273,39,30,60,354,39,42,48,147,,0*6C
$GPGSV,3,3,11,50,45,139,,40,11,257,,41,34,237,,0*5A
$GBGSV,2,1,05,02,56,174,34,25,54,231,35,27,57,135,35,04,41,124,,0*75
$GBGSV,2,2,05,19,,,35,0*7C
$GAGSV,1,1,04,06,49,268,38,07,60,016,38,23,32,315,,24,73,239,,0*7C
1,1.51,3.06,4*02
$GNGSA,A,3,06,07,,,,,,,,,,,3.41,1.51,3.06,3*04
$GPGSV,3,1,11,05,58,052,39,09,30,153,39,12,48,064,39,21,13,190,39,0*61
$GPGSV,3,2,11,24,43,156,39,29,65,273,39,30,60,354,39,42,48,147,,0*6C
$GPGSV,3,3,11,50,45,139,,40,11,257,,41,34,237,,0*5A
$GBGSV,2,1,05,02,56,174,35,25,54,231,35,27,57,135,35,04,41,124,,0*74
$GBGSV,2,2,05,19,,,35,0*7C

$GAGSV,1,1,04,06,49,268,38,07,60,016,37,23,32,315,,24,73,239,,0*73

$GNRMC,080158.00,A,3114.48994,N,12130.90856,E,38.496,182.96,200821,,,A,V*3F
$GNGGA,080158.00,3114.48994,N,12130.90856,E,1,12,1.51,49.7,M,,M,,*68
$GNGSA,A,3,05,09,12,21,24,29,30,,,,,,3.41,1.51,3.06,1*05
$GNGSA,A,3,27,25,02,,,,,,,,,,3.41,1.51,3.06,4*02
$GNGSA,A,3,06,07,,,,,,,,,,,3.41,1.51,3.06,3*04
$GPGSV,3,1,11,05,58,052,39,09,30,153,36,12,48,064,39,21,13,190,34,0*63
$GPGSV,3,2,11,24,43,156,37
,29,65,273,39,30,60,354,38,42,48,147,,0*63
$GPGSV,3,3,11,50,45,139,,40,11,257,,41,34,237,,0*5A
$GBGSV,2,1,05,02,56,174,35,25,54,231,35,27,57,135,34,04,41,124,,0*75
$GBGSV,2,2,05,19,,,31,0*78
$GAGSV,1,1,04,06,49,268,37,07,60,016,37,23,32,315,,24,73,239,,0*7C

,1.51,3.06,3*04
$GPGSV,3,1,11,05,58,052,39,09,30,153,36,12,48,064,39,21,13,190,34,0*63
$GPGSV,3,2,11,24,43,156,38,29,65,273,39,30,60,354,39,42,48,147,,0*6D
$GPGSV,3,3,11,50,45,139,,40,11,257,,41,34,237,,0*5A
$GBGSV,2,1,05,02,56,174,35,25,54,231,35,27,57,135,35,04,41,124,,0*74
$GBGSV,2,2,05,19,,,32,0*7B
$GAGSV,1,1,04,06,49,268,37,07,60,016,37,23,32,315,,24,73,239,
51,3.06,3*04
$GPGSV,3,1,11,05,58,052,39,09,30,153,36,12,48,064,40,21,13,190,34,0*6D
$GPGSV,3,2,11,24,43,156,38,29,65,273,39,30,60,355,39,42,48,147,,0*6C
$GPGSV,3,3,11,50,45,139,,40,11,257,,41,34,237,,0*5A
$GBGSV,2,1,05,02,56,174,36,25,54,231,36,27,57,135,35,04,41,124,,0*74
$GBGSV,2,2,05,19,,,32,0*7B
$GAGSV,1,1,04,06,49,268,37,07,60,016,37,23,32,315,,
$GNRMC,080201.00,A,3114.42063,N,12130.90724,E,123.912,180.45,200821,,,A,V*07
$GNGGA,080201.00,3114.42063,N,12130.90724,E,1,12,1.51,49.2,M,,M,,*63
$GNGSA,A,3,05,09,12,21,24,29,30,,,,,,3.41,1.51,3.06,1*05
$GNGSA,A,3,27,25,02,,,,,,,,,,3.41,1.51,3.06,4*02
$GNGSA,A,3,06,07,,,,,,,,,,,3.41,1.51,3.06,3*04
$GPGSV,3,1,11,05,58,052,39,09,30,153,37,12,48,064,39,2
1,13,190,34,0*62
$GPGSV,3,2,11,24,43,156,38,29,65,273,39,30,60,355,39,42,48,147,,0*6C
$GPGSV,3,3,11,50,45,139,,40,11,257,,41,34,237,,0*5A
$GBGSV,2,1,05,02,56,174,35,25,54,231,35,27,57,135,35,04,41,124,,0*74
$GBGSV,2,2,05,19,,,32,0*7B
$GAGSV,1,1,04,06,49,268,37,07,60,016,37,23,32,315,,24,73,239,,0*7C

$GNRMC,080202.00,A,3114.38218,N,12130.90695,E,150.708,180.36,200821,,,A,V*09
$GNGGA,080202.00,3114.38218,N,12130.90695,E,1,12,1.51,49.5,M,,M,,*6F
$GNGSA,A,3,05,09,12,21,24,29,30,,,,,,3.41,1.51,3.06,1*05
$GNGSA,A,3,27,25,02,,,,,,,,,,3.41,1.51,3.06,4*02
$GNGSA,A,3,06,07,,,,,,,,,,,3.41,1.51,3.06,3*04
$GPGSV,3,1,11,05,58,052,40,0
9,30,153,36,12,48,064,39,21,13,190,33,0*6A
$GPGSV,3,2,11,24,43,156,37,29,65,273,39,30,60,355,39,42,48,147,,0*63
$GPGSV,3,3,11,50,45,139,,40,11,257,,41,34,237,,0*5A
$GBGSV,2,1,05,02,56,174,34,25,54,231,35,27,57,135,35,04,41,124,,0*75
$GBGSV,2,2,05,19,,,31,0*78
$GAGSV,1,1,04,06,49,268,37,07,60,016,37,23,32,315,,24,73,239,,0*7C

,,,,3.41,1.51,3.06,3*04
$GPGSV,3,1,11,05,58,052,38,09,30,153,38,12,48,064,39,21,13,190,37,0*6F
$GPGSV,3,2,11,24,43,156,38,29,65,273,39,30,60,355,38,42,48,147,,0*6D
$GPGSV,3,3,11,50,45,139,,40,11,257,,41,34,237,,0*5A
$GBGSV,2,1,05,02,56,174,35,25,54,231,35,27,57,135,35,04,41,124,,0*74
$GBGSV,2,2,05,19,,,34,0*7D
$GAGSV,1,1,04,06,49,268,37,07,60,016,37,23,32,315,

$GPGSV,3,1,11,05,58,052,39,09,30,153,39,12,48,064,39,21,13,190,39,0*61
$GPGSV,3,2,11,24,43,156,39,29,65,273,40,30,60,355,39,42,48,147,,0*63
$GPGSV,3,3,11,50,45,139,,40,11,257,,41,34,237,,0*5A
$GBGSV,2,1,05,02,56,174,35,25,54,231,35,27,57,135,35,04,41,124,,0*74
$GBGSV,2,2,05,19,,,34,0*7D
$GAGSV,1,1,04,06,49,268,38,07,60,016,37,23,32,315,,24,73,239,,

$GPGSV,3,1,11,05,58,052,39,09,30,153,39,12,48,064,39,21,13,190,39,0*61
$GPGSV,3,2,11,24,43,156,39,29,65,273,39,30,60,355,39,42,48,147,,0*6D
$GPGSV,3,3,11,50,45,139,,40,11,257,,41,34,237,,0*5A
$GBGSV,2,1,05,02,56,174,35,25,54,231,34,27,57,135,35,04,41,124,,0*75
$GBGSV,2,2,05,19,,,35,0*7C
$GAGSV,1,1,04,06,49,268,37,07,60,016,38,23,32,315,,24,73,239,,0*73

$GNRMC,080206.00,A,3114.20181,N,12130.90660,E,162.303,179.98,200821,,,A,V*01
$GNGGA,080206.00,3114.20181,N,12130.90660,E,1,12,1.51,49.1,M,,M,,*6F
$GNGSA,A,3,05,09,12,21,24,29,30,,,,,,3.41,1.51,3.06,1*05
$GNGSA,A,3,27,25,02,,,,,,,,,,3.41,1.51,3.06,4*02
$GNGSA,A,3,06,07,,,,,,,,,,,3.41,1.51,3.06,3*04
$GPGSV,3,1,11,05,58,052,39,09,30,153,39,12,4
8,064,39,21,13,190,39,0*61
$GPGSV,3,2,11,24,43,156,39,29,65,273,39,30,60,355,40,42,48,147,,0*63
$GPGSV,3,3,11,50,45,139,,40,11,257,,41,34,237,,0*5A
$GBGSV,2,1,05,02,56,174,35,25,54,231,35,27,57,135,35,04,41,124,,0*74
$GBGSV,2,2,05,19,,,35,0*7C
$GAGSV,1,1,04,06,49,268,37,07,60,016,37,23,32,315,,24,73,239,,0*7C

,,,,,,,,,3.41,1.51,3.06,3*04
$GPGSV,3,1,11,05,58,052,39,09,30,153,40,12,48,064,39,21,13,190,39,0*6F
$GPGSV,3,2,11,24,43,156,39,29,65,274,39,30,60,355,39,42,48,147,,0*6A
$GPGSV,3,3,11,50,45,139,,40,11,257,,41,34,237,,0*5A
$GBGSV,2,1,05,02,56,174,35,25,54,231,35,27,57,135,35,04,41,124,,0*74
$GBGSV,2,2,05,19,,,35,0*7C
$GAGSV,1,1,04,06,49,268,37,07,60,016,3
.51,3.06,3*04
$GPGSV,3,1,11,05,58,052,38,09,30,153,36,12,48,064,39,21,13,190,34,0*62
$GPGSV,3,2,11,24,43,156,37,29,65,274,39,30,60,355,38,42,48,147,,0*65
$GPGSV,3,3,11,50,45,139,,40,11,257,,41,34,237,,0*5A
$GBGSV,2,1,05,02,56,174,36,25,54,231,35,27,57,135,35,04,41,124,,0*77
$GBGSV,2,2,05,19,,,32,0*7B
$GAGSV,1,1,04,06,49,268,38,07,60,016,37,23,32,315,
,06,07,,,,,,,,,,,3.41,1.51,3.06,3*04
$GPGSV,3,1,11,05,58,052,39,09,30,153,36,12,48,064,39,21,13,190,33,0*64
$GPGSV,3,2,11,24,43,156,37,29,65,274,39,30,60,355,38,42,48,147,,0*65
$GPGSV,3,3,11,50,45,139,,40,11,257,,41,34,237,,0*5A
$GBGSV,2,1,05,02,56,174,36,25,54,231,35,27,56,135,35,04,41,124,,0*76
$GBGSV,2,2,05,19,,,31,0*78
$GAGSV,1,1,04,06,49,268,37,07,60,016,
$GNRMC,080210.00,A,3114.04915,N,12130.90712,E,88.197,179.54,200821,,,A,V*3B
$GNGGA,080210.00,3114.04915,N,12130.90712,E,1,12,1.51,47.3,M,,M,,*63
$GNGSA,A,3,05,09,12,21,24,29,30,,,,,,3.41,1.51,3.06,1*05
$GNGSA,A,3,27,25,02,,,,,,,,,,3.41,1.51,3.06,4*02
$GNGSA,A,3,06,07,,,,,,,,,,,3.41,1.51,3.06,3*04
$GPGSV,3,1,11,05,58,053,39,09,30,153,36,12,48,064,39,21,13,190,34,0*62
$GPGSV,3,2,11,24,4
3,156,38,29,65,274,39,30,60,355,39,42,48,147,,0*6B
$GPGSV,3,3,11,50,45,139,,40,11,257,,41,34,237,,0*5A
$GBGSV,2,1,05,02,56,174,35,25,54,231,35,27,56,135,35,04,41,124,,0*75
$GBGSV,2,2,05,19,,,32,0*7B
$GAGSV,1,1,04,06,49,268,37,07,60,016,37,23,32,315,,24,73,239,,0*7C

$GNRMC,080211.00,A,3114.02830,N,12130.90736,E,61.292,179.37,200821,,,A,V*38
$GNGGA,080211.00,3114.02830,N,12130.90736,E,1,12,1.51,47.1,M,,M,,*66
$GNGSA,A,3,05,09,12,21,24,29,30,,,,,,3.42,1.51,3.06,1*06
$GNGSA,A,3,27,25,02,,,,,,,,,,3.42,1.51,3.06,4*01
$GNGSA,A,3,06,07,,,,,,,,,,,3.42,1.51,3.06,3*07
$GPGSV,3,1,11,05,58,053,39,09,30,153,36,12,48,064,40,21,13,19
0,34,0*6C
$GPGSV,3,2,11,24,43,156,38,29,65,274,39,30,60,355,39,42,48,147,,0*6B
$GPGSV,3,3,11,50,45,139,,40,11,257,,41,34,237,,0*5A
$GBGSV,2,1,05,02,56,174,35,25,54,231,36,27,56,135,36,04,41,124,,0*75
$GBGSV,2,2,05,19,,,32,0*7B
$GAGSV,1,1,04,06,49,268,37,07,60,016,37,23,32,315,,24,73,239,,0*7C

$GNRMC,080212.00,A,3114.01502,N,12130.90766,E,34.342,178.15,200821,,,A,V*3C
$GNGGA,080212.00,3114.01502,N,12130.90766,E,1,12,1.51,46.4,M,,M,,*6B
$GNGSA,A,3,05,09,12,21,24,29,30,,,,,,3.42,1.51,3.06,1*06
$GNGSA,A,3,27,25,02,,,,,,,,,,3.42,1.51,3.06,4*01
$GNGSA,A,3,06,07,,,,,,,,,,,3.42,1.51,3.06,3*07
$GPGSV,3,1,11,05,58,053,39,09,30,153,36,12,48
,064,40,21,13,190,34,0*6C
$GPGSV,3,2,11,24,43,156,38,29,65,274,39,30,60,355,39,42,48,147,,0*6B
$GPGSV,3,3,11,50,45,139,,40,11,257,,41,34,237,,0*5A
$GBGSV,2,1,05,02,56,174,35,25,54,231,35,27,56,135,35,04,41,124,,0*75
$GBGSV,2,2,05,19,,,32,0*7B
$GAGSV,1,1,04,06,49,268,37,07,60,016,37,23,32,315,,24,73,239,,0*7C

$GNRMC,080213.00,A,3114.00868,N,12130.90769,E,12.148,184.85,200821,,,A,V*34
$GNGGA,080213.00,3114.00868,N,12130.90769,E,1,12,1.51,45.3,M,,M,,*61
$GNGSA,A,3,05,09,12,21,24,29,30,,,,,,3.42,1.51,3.06,1*06
$GNGSA,A,3,27,25,02,,,,,,,,,,3.42,1.51,3.06,4*01
$GNGSA,A,3,06,07,,,,,,,,,,,3.42,1.51,3.06,3*07
$GPGSV,3,1,11,05,58,053,38,09,30,153,38,12,48,064,38,21,13,190,36,0*6E
$
GPGSV,3,2,11,24,43,156,38,29,65,274,39,30,60,355,38,42,48,147,,0*6A
$GPGSV,3,3,11,50,45,139,,40,11,257,,41,34,237,,0*5A
$GBGSV,2,1,05,02,56,174,35,25,54,231,35,27,56,135,35,04,41,124,,0*75
$GBGSV,2,2,05,19,,,33,0*7A
$GAGSV,1,1,04,06,49,268,37,07,60,016,38,23,32,315,,24,73,239,,0*73

$GNRMC,080214.00,A,3114.00490,N,12130.90601,E,15.073,215.64,200821,,,A,V*3D
$GNGGA,080214.00,3114.00490,N,12130.90601,E,1,12,1.51,46.1,M,,M,,*63
$GNGSA,A,3,05,09,12,21,24,29,30,,,,,,3.42,1.51,3.07,1*07
$GNGSA,A,3,27,25,02,,,,,,,,,,3.42,1.51,3.07,4*00
$GNGSA,A,3,06,07,,,,,,,,,,,3.42,1.51,3.07,3*06
$GPGSV,3,1,11,05,58,053,39,09,30,153,38,12,48,064,39,21,13,190,39,0*61
$GPGSV,3,2,11,24,43,156,39,29
,65,274,39,30,60,355,39,42,48,147,,0*6A
$GPGSV,3,3,11,50,45,139,,40,11,257,,41,34,237,,0*5A
$GBGSV,2,1,05,02,56,174,35,25,54,231,35,27,56,135,35,04,41,124,,0*75
$GBGSV,2,2,05,19,,,34,0*7D
$GAGSV,1,1,04,06,49,268,37,07,60,016,37,23,32,315,,24,73,239,,0*7C

$GNRMC,080215.00,A,3114.00172,N,12130.90224,E,16.908,237.20,200821,,,A,V*30
$GNGGA,080215.00,3114.00172,N,12130.90224,E,1,12,1.51,46.7,M,,M,,*6E
$GNGSA,A,3,05,09,12,21,24,29,30,,,,,,3.42,1.51,3.07,1*07
$GNGSA,A,3,27,25,02,,,,,,,,,,3.42,1.51,3.07,4*00
$GNGSA,A,3,06,07,,,,,,,,,,,3.42,1.51,3.07,3*06
$GPGSV,3,1,11,05,58,053,39,09,30,153,39,12,48,064,39,21,13,1
90,39,0*60
$GPGSV,3,2,11,24,43,156,39,29,65,274,40,30,60,355,39,42,48,147,,0*64
$GPGSV,3,3,11,50,45,139,,40,11,257,,41,34,237,,0*5A
$GBGSV,2,1,05,02,56,174,35,25,54,231,35,27,56,135,35,04,41,124,,0*75
$GBGSV,2,2,05,19,,,35,0*7C
$GAGSV,1,1,04,06,49,268,37,07,60,016,37,23,32,315,,24,73,239,,0*7C

$GNRMC,080216.00,A,3114.00005,N,12130.89726,E,16.756,262.41,200821,,,A,V*3F
$GNGGA,080216.00,3114.00005,N,12130.89726,E,1,12,1.51,46.8,M,,M,,*6C
$GNGSA,A,3,05,09,12,21,24,29,30,,,,,,3.42,1.51,3.07,1*07
$GNGSA,A,3,27,25,02,,,,,,,,,,3.42,1.51,3.07,4*00
$GNGSA,A,3,06,07,,,,,,,,,,,3.42,1.51,3.07,3*06
$GPGSV,3,1,11,05,58,053,39,09,30,153,39,12,48,064,39,21,13,190,39,0*60
$GPGSV,3,2,11,24,43,156,39
,29,65,274,39,30,60,355,39,42,48,147,,0*6A
$GPGSV,3,3,11,50,45,139,,40,11,257,,41,34,237,,0*5A
$GBGSV,2,1,05,02,56,174,35,25,54,231,35,27,56,135,35,04,41,124,,0*75
$GBGSV,2,2,05,19,,,35,0*7C
$GAGSV,1,1,04,06,49,268,37,07,60,016,38,23,32,315,,24,73,239,,0*73

$GNRMC,080217.00,A,3114.00005,N,12130.89007,E,27.341,274.25,200821,,,A,V*3F
$GNGGA,080217.00,3114.00005,N,12130.89007,E,1,12,1.51,46.8,M,,M,,*69
$GNGSA,A,3,05,09,12,21,24,29,30,,,,,,3.42,1.51,3.07,1*07
$GNGSA,A,3,27,25,02,,,,,,,,,,3.42,1.51,3.07,4*00
$GNGSA,A,3,06,07,,,,,,,,,,,3.42,1.51,3.07,3*06
$GPGSV,3,1,11,05,58,053,37,09,30,153,39,12,48,064,36,21,13,190,39,0
*61
$GPGSV,3,2,11,24,43,156,39,29,65,274,38,30,60,355,39,42,48,147,,0*6B
$GPGSV,3,3,11,50,45,139,,40,11,257,,41,34,237,,0*5A
$GBGSV,2,1,05,02,56,174,35,25,54,231,35,27,56,135,35,04,41,124,,0*75
$GBGSV,2,2,05,19,,,35,0*7C
$GAGSV,1,1,04,06,49,268,37,07,60,016,37,23,32,315,,24,73,239,,0*7C

$GNRMC,080218.00,A,3114.00057,N,12130.87774,E,45.530,273.79,200821,,,A,V*30
$GNGGA,080218.00,3114.00057,N,12130.87774,E,1,12,1.51,47.2,M,,M,,*67
$GNGSA,A,3,05,09,12,21,24,29,30,,,,,,3.42,1.51,3.07,1*07
$GNGSA,A,3,27,25,02,,,,,,,,,,3.42,1.51,3.07,4*00
$GNGSA,A,3,06,07,,,,,,,,,,,3.42,1.51,3.07,3*06
$GPGSV,3,1,11,05,58,053,40,09,30,153,38,12,
48,064,38,21,13,190,39,0*6E
$GPGSV,3,2,11,24,43,156,40,29,65,274,39,30,60,355,39,42,48,147,,0*64
$GPGSV,3,3,11,50,45,139,,40,11,257,,41,34,237,,0*5A
$GBGSV,2,1,05,02,56,174,35,25,54,231,35,27,56,135,35,04,41,124,,0*75
$GBGSV,2,2,05,19,,,35,0*7C
$GAGSV,1,1,04,06,49,268,37,07,60,016,37,23,32,315,,24,73,239,,0*7C

GSA,A,3,06,07,,,,,,,,,,,3.42,1.51,3.07,3*06
$GPGSV,3,1,11,05,58,053,39,09,30,153,39,12,48,064,39,21,13,190,39,0*60
$GPGSV,3,2,11,24,43,156,39,29,65,274,39,30,60,355,39,42,48,147,,0*6A
$GPGSV,3,3,11,50,45,139,,40,11,257,,41,34,237,,0*5A
$GBGSV,2,1,05,02,56,174,36,25,54,231,36,27,56,135,35,04,41,124,,0*75
$GBGSV,2,2,05,19,,,35,0*7C
$GAGSV,1,1,04,0

$GNGSA,A,3,06,07,,,,,,,,,,,3.42,1.51,3.07,3*06
$GPGSV,3,1,11,05,58,053,39,09,30,153,39,12,48,064,39,21,13,190,39,0*60
$GPGSV,3,2,11,24,43,156,40,29,65,274,39,30,60,355,39,42,48,147,,0*64
$GPGSV,3,3,11,50,45,139,,40,11,257,,41,34,237,,0*5A
$GBGSV,2,1,05,02,56,174,35,25,54,231,35,27,56,135,35,04,41,124,,0*75
$GBGSV,2,2,05,19,,,35,0*7C
$GAGSV,1,1,04,06,49,268,37
$GNRMC,080221.00,A,3114.00067,N,12130.77914,E,140.379,270.04,200821,,,A,V*08
$GNGGA,080221.00,3114.00067,N,12130.77914,E,1,12,1.51,47.2,M,,M,,*69
$GNGSA,A,3,05,09,12,21,24,29,30,,,,,,3.42,1.51,3.07,1*07
$GNGSA,A,3,27,25,02,,,,,,,,,,3.42,1.51,3.07,4*00
$GNGSA,A,3,06,07,,,,,,,,,,,3.42,1.51,3.07,3*06
$GPGSV,3,1,11,05,58,053,39,09,30,153,39,12,48,064,38,21,13,190,39,0*61
$GPGSV,3,2,11,24,43,156,40,29,65,274,3
9,30,60,355,39,42,48,147,,0*64
$GPGSV,3,3,11,50,45,139,,40,11,257,,41,34,237,,0*5A
$GBGSV,2,1,05,02,56,174,36,25,54,231,35,27,56,135,35,04,41,124,,0*76
$GBGSV,2,2,05,19,,,35,0*7C
$GAGSV,1,1,04,06,49,268,38,07,60,016,37,23,32,315,,24,73,239,,0*73

$GNRMC,080222.00,A,3114.00086,N,12130.72945,E,165.147,270.20,200821,,,A,V*0B
$GNGGA,080222.00,3114.00086,N,12130.72945,E,1,12,1.51,46.6,M,,M,,*61
$GNGSA,A,3,05,09,12,21,24,29,30,,,,,,3.42,1.51,3.07,1*07
$GNGSA,A,3,27,25,02,,,,,,,,,,3.42,1.51,3.07,4*00
$GNGSA,A,3,06,07,,,,,,,,,,,3.42,1.51,3.07,3*06
$GPGSV,3,1,11,05,58,053,38,09,30,153,39,12,48,064,39,21,13,190,39,0*61
$GPGSV,3,2,11,24,43,156,39,29,
65,274,39,30,60,355,40,42,48,147,,0*64
$GPGSV,3,3,11,50,45,139,,40,11,257,,41,34,237,,0*5A
$GBGSV,2,1,05,02,56,174,35,25,54,231,35,27,56,135,35,04,41,124,,0*75
$GBGSV,2,2,05,19,,,35,0*7C
$GAGSV,2,1,05,06,49,268,37,07,60,016,37,23,32,315,,24,73,239,,0*7E
$GAGSV,2,2,05,26,26,253,,0*45

$GNRMC,080223.00,A,3114.00091,N,12130.67593,E,165.805,269.97,200821,,,A,V*04
$GNGGA,080223.00,3114.00091,N,12130.67593,E,1,12,1.51,46.8,M,,M,,*6B
$GNGSA,A,3,05,09,12,21,24,29,30,,,,,,3.42,1.51,3.07,1*07
$GNGSA,A,3,27,25,02,,,,,,,,,,3.42,1.51,3.07,4*00
$GNGSA,A,3,06,07,,,,,,,,,,,3.42,1.51,3.07,3*06
$GPGSV,3,1,11,05,58,
053,39,09,30,153,39,12,48,064,38,21,13,190,39,0*61
$GPGSV,3,2,11,24,43,156,39,29,65,274,39,30,60,355,39,42,48,147,,0*6A
$GPGSV,3,3,11,50,45,139,,40,11,257,,41,34,237,,0*5A
$GBGSV,2,1,05,02,56,174,35,25,54,231,35,27,56,135,34,04,41,124,,0*74
$GBGSV,2,2,05,19,,,35,0*7C
$GAGSV,2,1,05,06,49,268,38,07,60,016,38,23,32,315,,24,73,239,,0*7E
$GAGSV,2,2,05,26,26,253,,0*45

$GNRMC,080224.00,A,3114.00093,N,12130.62306,E,161.786,270.06,200821,,,A,V*0E
$GNGGA,080224.00,3114.00093,N,12130.62306,E,1,12,1.51,46.6,M,,M,,*6F
$GNGSA,A,3,05,09,12,21,24,29,30,,,,,,3.42,1.51,3.07,1*07
$GNGSA,A,3,27,25,02,,,,,,,,,,3.42,1.51,3.07,4*00
$GNGSA,A,3,06,07,,,,,,,,,,,3.42,1.51,3.07,3*06
$GPGSV,3,1,1
1,05,58,053,39,09,30,153,39,12,48,064,39,21,13,190,39,0*60
$GPGSV,3,2,11,24,44,156,40,29,65,274,39,30,60,355,39,42,48,147,,0*63
$GPGSV,3,3,11,50,45,139,,40,11,257,,41,34,237,,0*5A
$GBGSV,2,1,05,02,56,174,35,25,54,231,35,27,56,135,35,04,41,124,,0*75
$GBGSV,2,2,05,19,,,35,0*7C
$GAGSV,2,1,05,06,49,268,38,07,60,016,38,23,32,315,,24,73,239,,0*7E
$GAGSV,2,2,05,26,26,253,,0*45

$GNRMC,080225.00,A,3114.00088,N,12130.57059,E,162.022,269.97,200821,,,A,V*00
$GNGGA,080225.00,3114.00088,N,12130.57059,E,1,12,1.51,46.9,M,,M,,*64
$GNGSA,A,3,05,09,12,21,24,29,30,,,,,,3.42,1.51,3.07,1*07
$GNGSA,A,3,27,25,02,,,,,,,,,,3.42,1.51,3.07,4*00
$GNGSA,A,3,06,07,,,,,,,,,,,3.42,1.51,3.07,3*06
$GPGSV,3,1,11,05,58,053,39,09,30,153,39,12,48,064,39,21,13,190,39,0*60
$GPGSV,3,2,11,24,44,156,3
9,29,65,274,40,30,60,355,39,42,48,147,,0*63
$GPGSV,3,3,11,50,45,139,,40,11,257,,41,34,237,,0*5A
$GBGSV,2,1,05,02,56,174,35,25,54,231,35,27,56,135,35,04,41,124,,0*75
$GBGSV,2,2,05,19,,,36,0*7F
$GAGSV,2,1,05,06,49,268,37,07,60,016,37,23,32,315,,24,73,239,,0*7E
$GAGSV,2,2,05,26,26,253,,0*45

,3.42,1.51,3.07,3*06
$GPGSV,3,1,11,05,58,053,39,09,29,153,39,12,48,064,40,21,13,190,40,0*68
$GPGSV,3,2,11,24,44,156,39,29,65,274,39,30,60,355,39,42,48,147,,0*6D
$GPGSV,3,3,11,50,45,139,,40,11,257,,41,34,237,,0*5A
$GBGSV,2,1,05,02,56,174,35,25,54,231,35,27,56,135,35,04,41,124,,0*75
$GBGSV,2,2,05,19,,,35,0*7C
$GAGSV,2,1,05,06,49,268,38,07,60,016,38,23,32,315,,24
,73,239,,0*7E
$GAGSV,2,2,05,26,26,253,,0*45

$GNRMC,080227.00,A,3114.00087,N,12130.46571,E,161.957,270.05,200821,,,A,V*09
$GNGGA,080227.00,3114.00087,N,12130.46571,E,1,12,1.51,47.5,M,,M,,*6B
$GNGSA,A,3,05,09,12,21,24,29,30,,,,,,3.42,1.51,3.07,1*07
$GNGSA,A,3,27,25,02,,,,,,,,,,3.42,1.51,3.07,4*00
$GNGSA,A,3,06,07,,,,,,,,,,,3.42,1.51,3.07,3*06
$GPGSV,3,1,11,05,58,053,39,09,29,153,39,12,48,
065,39,21,13,190,40,0*67
$GPGSV,3,2,11,24,44,156,39,29,65,274,39,30,60,355,40,42,48,147,,0*63
$GPGSV,3,3,11,50,45,139,,40,11,257,,41,34,237,,0*5A
$GBGSV,2,1,05,02,56,174,35,25,54,231,35,27,56,135,36,04,41,124,,0*76
$GBGSV,2,2,05,19,,,35,0*7C
$GAGSV,2,1,05,06,49,268,37,07,60,016,37,23,32,315,,24,73,239,,0*7E
$GAGSV,2,2,05,26,26,253,,0*45

$GNRMC,080228.00,A,3114.00077,N,12130.41320,E,161.907,269.96,200821,,,A,V*0B
$GNGGA,080228.00,3114.00077,N,12130.41320,E,1,12,1.51,48.3,M,,M,,*67
$GNGSA,A,3,05,09,12,21,24,29,30,,,,,,3.42,1.51,3.07,1*07
$GNGSA,A,3,27,25,02,,,,,,,,,,3.42,1.51,3.07,4*00
$GNGSA,A,3,06,07,,,,,,,,,,,3.42,1.51,3.07,3*06
$GPGSV,3,1,11,05,58,053,39,09,29,153,39,12,48,065,39,21,13,190,39,0*69
$GPGSV,3,2,11,
24,44,156,39,29,65,274,39,30,60,355,39,42,48,147,,0*6D
$GPGSV,3,3,11,50,45,139,,40,11,257,,41,34,237,,0*5A
$GBGSV,2,1,05,02,56,174,35,25,54,231,35,27,56,135,35,04,41,124,,0*75
$GBGSV,2,2,05,19,,,35,0*7C
$GAGSV,2,1,05,06,49,268,38,07,60,016,38,23,32,315,,24,73,239,,0*7E
$GAGSV,2,2,05,26,26,253,,0*45

,3.07,3*06
$GPGSV,3,1,11,05,58,053,40,09,29,153,39,12,48,065,39,21,13,190,39,0*67
$GPGSV,3,2,11,24,44,156,39,29,65,274,40,30,60,355,39,42,48,147,,0*63
$GPGSV,3,3,11,50,45,139,,40,11,257,,41,34,237,,0*5A
$GBGSV,2,1,05,02,56,174,35,25,54,231,35,27,56,135,35,04,41,124,,0*75
$GBGSV,2,2,05,19,,,35,0*7C
$GAGSV,2,1,05,06,49,268,37,07,60,016,37,23,32,31
5,,24,73,238,,0*7F
$GAGSV,2,2,05,26,26,253,,0*45

07
$GPGSV,3,1,11,05,58,053,38,09,29,153,39,12,48,065,39,21,13,190,40,0*66
$GPGSV,3,2,11,24,44,156,39,29,65,274,39,30,60,355,39,42,48,147,,0*6D
$GPGSV,3,3,11,50,45,139,,40,11,257,,41,34,237,,0*5A
$GBGSV,2,1,05,02,56,174,36,25,54,231,35,27,56,135,35,04,41,124,,0*76
$GBGSV,2,2,05,19,,,35,0*7C
$GAGSV,2,1,05,06,49,268,37,07,60,016,37,23,32,315,,24,73,238,,0*7F
$GAG
$GNRMC,080231.00,A,3114.00058,N,12130.25582,E,161.947,269.95,200821,,,A,V*05
$GNGGA,080231.00,3114.00058,N,12130.25582,E,1,12,1.51,49.2,M,,M,,*6E
$GNGSA,A,3,05,09,12,21,24,29,30,,,,,,3.43,1.51,3.07,1*06
$GNGSA,A,3,27,25,02,,,,,,,,,,3.43,1.51,3.07,4*01
$GNGSA,A,3,06,07,,,,,,,,,,,3.43,1.51,3.07,3*07
$GPGSV,3,1,11,05,58,053,39,09,29,153,39,12,48,065,39,21,13,190,3
9,0*69
$GPGSV,3,2,11,24,44,156,39,29,65,274,39,30,60,355,39,42,48,147,,0*6D
$GPGSV,3,3,11,50,45,139,,40,11,257,,41,34,237,,0*5A
$GBGSV,2,1,05,02,56,174,35,25,54,231,35,27,56,135,35,04,41,124,,0*75
$GBGSV,2,2,05,19,,,35,0*7C
$GAGSV,2,1,05,06,49,268,37,07,60,016,37,23,32,315,,24,73,238,,0*7F
$GAGSV,2,2,05,26,26,253,,0*45

$GNRMC,080232.00,A,3114.00052,N,12130.20327,E,162.008,269.96,200821,,,A,V*02
$GNGGA,080232.00,3114.00052,N,12130.20327,E,1,12,1.51,49.2,M,,M,,*6B
$GNGSA,A,3,05,09,12,21,24,29,30,,,,,,3.43,1.51,3.07,1*06
$GNGSA,A,3,27,25,02,,,,,,,,,,3.43,1.51,3.07,4*01
$GNGSA,A,3,06,07,,,,,,,,,,,3.43,1.51,3.07,3*07
$GPGSV,3,1,11,05,58,053,39,09,29,153,39,1
2,48,065,39,21,13,190,39,0*69
$GPGSV,3,2,11,24,44,156,39,29,65,274,39,30,60,355,39,42,48,147,,0*6D
$GPGSV,3,3,11,50,45,139,,40,11,257,,41,34,237,,0*5A
$GBGSV,2,1,05,02,56,174,35,25,54,231,35,27,56,135,35,04,41,124,,0*75
$GBGSV,2,2,05,19,,,35,0*7C
$GAGSV,2,1,05,06,49,268,37,07,60,016,37,23,32,315,,24,73,238,,0*7F
$GAGSV,2,2,05,26,26,253,,0*45

3.08,4*0E
$GNGSA,A,3,06,07,,,,,,,,,,,3.43,1.51,3.08,3*08
$GPGSV,3,1,11,05,58,053,38,09,29,153,39,12,48,065,38,21,13,190,39,0*69
$GPGSV,3,2,11,24,44,156,39,29,65,274,38,30,60,355,39,42,48,147,,0*6C
$GPGSV,3,3,11,50,45,139,,40,11,257,,41,34,237,,0*5A
$GBGSV,2,1,05,02,56,174,35,25,54,231,35,27,56,135,35,04,41,124,,0*75
$GBGSV,2,2,05,19,,,35,0*7C
$GAGSV,2,1,05,06,4
9,268,37,07,60,016,37,23,32,315,,24,73,238,,0*7F
$GAGSV,2,2,05,26,26,253,,0*45

1,3.08,3*08
$GPGSV,3,1,11,05,58,053,39,09,29,153,39,12,48,065,38,21,13,190,39,0*68
$GPGSV,3,2,11,24,44,156,39,29,65,274,39,30,60,355,39,42,48,147,,0*6D
$GPGSV,3,3,11,50,45,139,,40,11,257,,41,34,237,,0*5A
$GBGSV,2,1,05,02,56,174,35,25,54,231,35,27,56,135,35,04,41,124,,0*75
$GBGSV,2,2,05,19,,,35,0*7C
$GAGSV,2,1,05,06,49,268,38,07,60,016,37,23,32,315,,24,73,238,,0
*70
$GAGSV,2,2,05,26,26,253,,0*45

,,3.43,1.51,3.08,3*08
$GPGSV,3,1,11,05,58,053,39,09,29,153,39,12,48,065,38,21,13,190,39,0*68
$GPGSV,3,2,11,24,44,156,39,29,65,274,39,30,60,355,40,42,48,147,,0*63
$GPGSV,3,3,11,50,45,139,,40,11,257,,41,34,237,,0*5A
$GBGSV,2,1,05,02,56,174,35,25,54,231,35,27,56,135,35,04,41,124,,0*75
$GBGSV,2,2,05,19,,,35,0*7C
$GAGSV,2,1,05,06,49,268,37,07,60,016,38,23,32
,315,,24,73,238,,0*70
$GAGSV,2,2,05,26,26,253,,0*45

06,07,,,,,,,,,,,3.43,1.51,3.08,3*08
$GPGSV,3,1,11,05,58,053,40,09,29,153,39,12,48,065,39,21,13,190,39,0*67
$GPGSV,3,2,11,24,44,156,39,29,65,274,39,30,60,355,39,42,48,147,,0*6D
$GPGSV,3,3,11,50,45,139,,40,11,257,,41,34,237,,0*5A
$GBGSV,2,1,05,02,56,174,35,25,54,231,35,27,56,135,35,04,41,124,,0*75
$GBGSV,2,2,05,19,,,35,0*7C
$GAGSV,2,1,05,06,49,268,38,07,60,016,3
7,23,32,315,,24,73,238,,0*70
$GAGSV,2,2,05,26,26,253,,0*45

$GNRMC,080237.00,A,3114.00015,N,12130.02242,E,44.879,269.92,200821,,,A,V*39
$GNGGA,080237.00,3114.00015,N,12130.02242,E,1,12,1.51,49.8,M,,M,,*65
$GNGSA,A,3,05,09,12,21,24,29,30,,,,,,3.43,1.51,3.08,1*09
$GNGSA,A,3,27,25,02,,,,,,,,,,3.43,1.51,3.08,4*0E
$GNGSA,A,3,06,07,,,,,,,,,,,3.43,1.51,3.08,3*08
$GPGSV,3,1,11,05,58,053,39,09,29,153,39,12,48,
065,39,21,13,190,39,0*69
$GPGSV,3,2,11,24,44,156,39,29,65,274,39,30,60,355,40,42,48,147,,0*63
$GPGSV,3,3,11,50,45,139,,40,11,257,,41,34,237,,0*5A
$GBGSV,2,1,05,02,56,174,35,25,54,231,35,27,56,135,35,04,41,124,,0*75
$GBGSV,2,2,05,19,,,36,0*7F
$GAGSV,2,1,05,06,49,268,37,07,60,016,38,23,32,315,,24,73,238,,0*70
$GAGSV,2,2,05,26,26,253,,0*45

$GNRMC,080238.00,A,3114.00018,N,12130.01232,E,18.155,270.06,200821,,,A,V*34
$GNGGA,080238.00,3114.00018,N,12130.01232,E,1,12,1.51,50.1,M,,M,,*62
$GNGSA,A,3,05,09,12,21,24,29,30,,,,,,3.43,1.51,3.08,1*09
$GNGSA,A,3,27,25,02,,,,,,,,,,3.43,1.51,3.08,4*0E
$GNGSA,A,3,06,07,,,,,,,,,,,3.43,1.51,3.08,3*08
$GPGSV,3,1,11,05,58,053,39,09,29,153,39,12,48,065,39,21,13,190,39,0*69
$GPGSV
,3,2,11,24,44,156,39,29,65,274,39,30,60,355,39,42,48,147,,0*6D
$GPGSV,3,3,11,50,45,139,,40,11,257,,41,34,237,,0*5A
$GBGSV,2,1,05,02,56,174,35,25,54,231,35,27,56,135,35,04,41,124,,0*75
$GBGSV,2,2,05,19,,,35,0*7C
$GAGSV,2,1,05,06,49,268,38,07,60,016,38,23,32,315,,24,73,238,,0*7F
$GAGSV,2,2,05,26,26,253,,0*45

$GNRMC,080239.00,A,3114.00105,N,12130.00705,E,14.799,293.52,200821,,,A,V*3E
$GNGGA,080239.00,3114.00105,N,12130.00705,E,1,12,1.51,50.2,M,,M,,*6D
$GNGSA,A,3,05,09,12,21,24,29,30,,,,,,3.43,1.51,3.08,1*09
$GNGSA,A,3,27,25,02,,,,,,,,,,3.43,1.51,3.08,4*0E
$GNGSA,A,3,06,07,,,,,,,,,,,3.43,1.51,3.08,3*08
$GPGSV,3,1,11,05,58,053,40,09,29,153,39,12,48,065,40,21,13,190,39,0*69
$GPGSV,3,2
,11,24,44,156,39,29,65,274,39,30,60,355,39,42,48,147,,0*6D
$GPGSV,3,3,11,50,45,139,,40,11,257,,41,34,237,,0*5A
$GBGSV,2,1,05,02,56,174,35,25,54,231,35,27,56,135,35,04,41,124,,0*75
$GBGSV,2,2,05,19,,,35,0*7C
$GAGSV,2,1,05,06,49,268,37,07,60,016,38,23,32,315,,24,73,238,,0*70
$GAGSV,2,2,05,26,26,253,,0*45

GNGSA,A,3,06,07,,,,,,,,,,,3.43,1.51,3.08,3*08
$GPGSV,3,1,11,05,58,053,39,09,29,153,39,12,48,065,39,21,13,190,39,0*69
$GPGSV,3,2,11,24,44,156,39,29,65,274,39,30,60,355,39,42,48,147,,0*6D
$GPGSV,3,3,11,50,45,139,,40,11,257,,41,34,237,,0*5A
$GBGSV,2,1,05,02,56,174,35,25,54,231,35,27,56,135,35,04,41,124,,0*75
$GBGSV,2,2,05,19,,,35,0*7C
$GAGSV,2,1,05,06,49,268,
37,07,60,016,37,23,32,315,,24,73,238,,0*7F
$GAGSV,2,2,05,26,26,253,,0*45

51,3.08,3*08
$GPGSV,3,1,11,05,58,053,39,09,29,153,39,12,48,065,39,21,13,190,39,0*69
$GPGSV,3,2,11,24,44,156,39,29,65,274,39,30,60,355,39,42,48,147,,0*6D
$GPGSV,3,3,11,50,45,139,,40,11,257,,41,34,237,,0*5A
$GBGSV,2,1,05,02,56,174,36,25,54,231,35,27,56,135,34,04,41,124,,0*77
$GBGSV,2,2,05,19,,,35,0*7C
$GAGSV,2,1,05,06,49,268,37,07,60,016,37,23,32,315,,24,73,238
,,0*7F
$GAGSV,2,2,05,26,26,253,,0*45

3,06,07,,,,,,,,,,,3.43,1.51,3.08,3*08
$GPGSV,3,1,11,05,58,053,39,09,29,153,39,12,48,065,39,21,13,190,39,0*69
$GPGSV,3,2,11,24,44,156,39,29,65,274,39,30,60,355,39,42,48,147,,0*6D
$GPGSV,3,3,11,50,45,139,,40,11,257,,41,34,237,,0*5A
$GBGSV,2,1,05,02,56,174,35,25,54,231,35,27,56,135,35,04,41,124,,0*75
$GBGSV,2,2,05,19,,,35,0*7C
$GAGSV,2,1,05,06,49,268,37,07,60,016,37,2
3,33,315,,24,73,238,,0*7E
$GAGSV,2,2,05,26,26,253,,0*45

$GNRMC,080243.00,A,3114.02119,N,12129.99989,E,46.135,0.72,200821,,,A,V*33
$GNGGA,080243.00,3114.02119,N,12129.99989,E,1,12,1.51,50.7,M,,M,,*68
$GNGSA,A,3,05,09,12,21,24,29,30,,,,,,3.43,1.51,3.08,1*09
$GNGSA,A,3,27,25,02,,,,,,,,,,3.43,1.51,3.08,4*0E
$GNGSA,A,3,06,07,,,,,,,,,,,3.43,1.51,3.08,3*08
$GPGSV,3,1,11
,05,58,053,39,09,29,153,39,12,48,065,39,21,13,190,39,0*69
$GPGSV,3,2,11,24,44,156,40,29,65,274,39,30,60,355,39,42,48,147,,0*63
$GPGSV,3,3,11,50,45,139,,40,11,257,,41,34,237,,0*5A
$GBGSV,2,1,05,02,56,174,35,25,54,231,35,27,56,135,35,04,41,124,,0*75
$GBGSV,2,2,05,19,,,32,0*7B
$GAGSV,2,1,05,06,49,268,37,07,60,016,38,23,33,315,,24,73,238,,0*71
$GAGSV,2,2,05,26,26,253,,0*45

A,A,3,06,07,,,,,,,,,,,3.43,1.51,3.08,3*08
$GPGSV,3,1,11,05,58,053,39,09,29,153,39,12,48,065,39,21,13,190,39,0*69
$GPGSV,3,2,11,24,44,156,39,29,65,274,40,30,60,355,39,42,48,147,,0*63
$GPGSV,3,3,11,50,45,139,,40,11,257,,41,34,237,,0*5A
$GBGSV,2,1,05,02,56,174,35,25,55,231,35,27,56,135,35,04,41,124,,0*74
$GBGSV,2,2,05,19,,,32,0*7B
$GAGSV,2,1,05,06,49,26
8,38,07,60,016,38,23,33,315,,24,73,238,,0*7E
$GAGSV,2,2,05,26,26,253,,0*45

.43,1.51,3.08,3*08
$GPGSV,3,1,11,05,58,053,40,09,29,153,39,12,48,065,39,21,13,190,39,0*67
$GPGSV,3,2,11,24,44,156,39,29,65,274,40,30,60,355,39,42,48,147,,0*63
$GPGSV,3,3,11,50,45,139,,40,11,257,,41,34,237,,0*5A
$GBGSV,2,1,05,02,56,174,35,25,55,231,35,27,56,135,35,04,41,124,,0*74
$GBGSV,2,2,05,19,,,31,0*78
$GAGSV,2,1,05,06,49,268,37,07,60,016,37,23,33,315,,24,7
3,238,,0*7E
$GAGSV,2,2,05,26,26,253,,0*45

$GNRMC,080246.00,A,3114.09408,N,12130.00005,E,127.549,359.99,200821,,,A,V*0E
$GNGGA,080246.00,3114.09408,N,12130.00005,E,1,12,1.51,50.9,M,,M,,*68
$GNGSA,A,3,05,09,12,21,24,29,30,,,,,,3.43,1.51,3.08,1*09
$GNGSA,A,3,27,25,02,,,,,,,,,,3.43,1.51,3.08,4*0E
$GNGSA,A,3,06,07,,,,,,,,,,,3.43,1.51,3.08,3*08
$GPGSV,3,1,11,05,58,053,40,09,29,153,39,12,48,065,3
9,21,13,190,39,0*67
$GPGSV,3,2,11,24,44,156,39,29,65,274,39,30,60,355,39,42,48,147,,0*6D
$GPGSV,3,3,11,50,45,139,,40,11,257,,41,34,237,,0*5A
$GBGSV,2,1,05,02,56,174,35,25,55,231,35,27,56,135,35,04,41,124,,0*74
$GBGSV,2,2,05,19,,,31,0*78
$GAGSV,2,1,05,06,49,268,38,07,59,016,37,23,33,315,,24,73,238,,0*7B
$GAGSV,2,2,05,26,26,253,,0*45

,A,3,06,07,,,,,,,,,,,3.43,1.51,3.08,3*08
$GPGSV,3,1,11,05,58,053,40,09,29,153,39,12,48,065,39,21,13,190,39,0*67
$GPGSV,3,2,11,24,44,156,40,29,65,274,39,30,60,355,39,42,48,147,,0*63
$GPGSV,3,3,11,50,45,139,,40,11,257,,41,34,237,,0*5A
$GBGSV,2,1,05,02,56,174,35,25,55,231,35,27,56,135,35,04,41,124,,0*74
$GBGSV,2,2,05,19,,,31,0*78
$GAGSV,2,1,06,06,49,268,37,07,59,
016,37,23,33,315,38,24,73,238,38,0*77
$GAGSV,2,2,06,26,26,253,,17,,,37,0*44

$GNRMC,080248.00,A,3114.17755,N,12130.00003,E,162.813,359.99,200821,,,A,V*01
$GNGGA,080248.00,3114.17755,N,12130.00003,E,1,12,1.51,50.3,M,,M,,*6E
$GNGSA,A,3,05,09,12,21,24,29,30,,,,,,3.44,1.51,3.08,1*0E
$GNGSA,A,3,27,25,02,,,,,,,,,,3.44,1.51,3.08,4*09
$GNGSA,A,3,06,07,,,,,,,,,,,3.44,1.51,3.08,3*0F
$GPGSV,3,1,11,05,58,053,39,09,29,153,39,12,48,065,39,21,13,190,40,0*
67
$GPGSV,3,2,11,24,44,156,39,29,65,274,40,30,60,355,40,42,48,147,,0*6D
$GPGSV,3,3,11,50,45,139,,40,11,257,,41,34,237,,0*5A
$GBGSV,2,1,05,02,56,174,36,25,55,231,35,27,56,135,35,04,41,124,,0*77
$GBGSV,2,2,05,19,,,34,0*7D
$GAGSV,2,1,06,06,49,268,37,07,59,016,38,23,33,315,37,24,73,238,37,0*78
$GAGSV,2,2,06,26,26,253,,17,,,36,0*45

GSA,A,3,06,07,,,,,,,,,,,3.44,1.51,3.08,3*0F
$GPGSV,3,1,11,05,58,053,39,09,29,153,39,12,48,065,39,21,13,190,39,0*69
$GPGSV,3,2,11,24,44,156,40,29,65,274,39,30,60,355,39,42,48,147,,0*63
$GPGSV,3,3,11,50,45,139,,40,11,257,,41,34,237,,0*5A
$GBGSV,2,1,05,02,56,174,35,25,55,231,35,27,56,135,35,04,41,124,,0*74
$GBGSV,2,2,05,19,,,34,0*7D
$GAGSV,2,1,06,06,49,268,37,07,5
9,016,37,23,33,315,36,24,73,238,38,0*79
$GAGSV,2,2,06,26,26,253,,17,,,37,0*44

3*0C
$GPGSV,3,1,11,05,58,053,39,09,29,153,39,12,48,065,39,21,13,190,40,0*67
$GPGSV,3,2,11,24,44,156,39,29,65,274,40,30,60,355,40,42,48,147,,0*6D
$GPGSV,3,3,11,50,45,139,,40,11,257,,41,34,237,,0*5A
$GBGSV,2,1,05,02,56,174,36,25,55,231,35,27,56,135,35,04,41,124,,0*77
$GBGSV,2,2,05,19,,,35,0*7C
$GAGSV,2,1,06,06,49,268,37,07,59,016,37,23,33,315,37,24,73,238,38,0*78
$
GAGSV,2,2,06,26,26,253,,17,,,37,0*44

$GNRMC,080251.00,A,3114.31310,N,12129.99994,E,162.114,359.99,200821,,,A,V*09
$GNGGA,080251.00,3114.31310,N,12129.99994,E,1,12,1.52,50.6,M,,M,,*6E
$GNGSA,A,3,05,09,12,21,24,29,30,,,,,,3.44,1.52,3.08,1*0D
$GNGSA,A,3,27,25,02,,,,,,,,,,3.44,1.52,3.08,4*0A
$GNGSA,A,3,06,07,,,,,,,,,,,3.44,1.52,3.08,3*0C
$GPGSV,3,1,11,05,58,053,39,09,29,153,39,12,48,065,39,21,13,190,40,0*67
$GPGSV,3,2,11,24,44,156,39,29,65
,274,39,30,60,355,39,42,48,147,,0*6D
$GPGSV,3,3,11,50,45,139,,40,11,257,,41,34,237,,0*5A
$GBGSV,2,1,05,02,56,174,36,25,55,231,35,27,56,135,35,04,41,124,,0*77
$GBGSV,2,2,05,19,,,35,0*7C
$GAGSV,2,1,06,06,49,268,37,07,59,016,37,23,33,315,37,24,73,238,37,0*77
$GAGSV,2,2,06,26,26,253,,17,,,37,0*44

,3.09,4*0B
$GNGSA,A,3,06,07,,,,,,,,,,,3.44,1.52,3.09,3*0D
$GPGSV,3,1,11,05,58,053,40,09,29,153,39,12,48,065,39,21,13,190,40,0*69
$GPGSV,3,2,11,24,44,156,39,29,65,274,38,30,60,355,40,42,48,147,,0*62
$GPGSV,3,3,11,50,45,139,,40,11,257,,41,34,237,,0*5A
$GBGSV,2,1,05,02,56,174,36,25,55,231,35,27,56,135,35,04,41,124,,0*77
$GBGSV,2,2,05,19,,,35,0*7C
$GAGSV,2,1,
06,06,49,268,37,07,59,016,38,23,33,315,37,24,73,238,37,0*78
$GAGSV,2,2,06,26,26,253,,17,,,37,0*44

7,,,,,,,,,,,3.44,1.52,3.09,3*0D
$GPGSV,3,1,11,05,58,053,40,09,29,153,39,12,48,065,39,21,13,190,39,0*67
$GPGSV,3,2,11,24,44,156,39,29,65,274,39,30,60,355,40,42,48,147,,0*63
$GPGSV,3,3,11,50,45,139,,40,11,257,,41,34,237,,0*5A
$GBGSV,2,1,05,02,56,174,35,25,55,231,35,27,56,135,35,04,41,124,,0*74
$GBGSV,2,2,05,19,,,32,0*7B
$GAGSV,2,1,06,06,49,268,37,07,59,0
16,37,23,33,315,37,24,73,238,38,0*78
$GAGSV,2,2,06,26,26,253,,17,,,37,0*44

B
$GNGSA,A,3,06,07,,,,,,,,,,,3.44,1.52,3.09,3*0D
$GPGSV,3,1,11,05,58,053,40,09,29,153,39,12,48,065,39,21,13,190,39,0*67
$GPGSV,3,2,11,24,44,156,39,29,65,274,39,30,60,355,39,42,48,147,,0*6D
$GPGSV,3,3,11,50,45,139,,40,11,257,,41,34,237,,0*5A
$GBGSV,2,1,05,02,56,174,35,25,55,231,35,27,56,135,35,04,41,124,,0*74
$GBGSV,2,2,05,19,,,31,0*78
$GAGSV,2,1,06,06,49,268,37,
07,59,016,38,23,33,315,37,24,73,238,37,0*78
$GAGSV,2,2,06,26,26,253,,17,,,37,0*44

V,3,1,11,05,58,053,39,09,29,153,39,12,48,065,39,21,13,190,39,0*69
$GPGSV,3,2,11,24,44,156,39,29,66,274,39,30,60,355,39,42,48,147,,0*6E
$GPGSV,3,3,11,50,45,139,,40,11,257,,41,34,237,,0*5A
$GBGSV,2,1,05,02,56,174,35,25,55,231,35,27,56,135,35,04,41,124,,0*74
$GBGSV,2,2,05,19,,,31,0*78
$GAGSV,2,1,06,06,49,268,37,07,59,016,37,23,33,315,37,24,73,238,37,0*7
7
$GAGSV,2,2,06,26,26,253,,17,,,37,0*44


$GNGSA,A,3,06,07,,,,,,,,,,,3.44,1.52,3.09,3*0D
$GPGSV,3,1,11,05,58,053,39,09,29,153,39,12,48,065,39,21,13,190,39,0*69
$GPGSV,3,2,11,24,44,156,39,29,66,274,39,30,60,355,39,42,48,147,,0*6E
$GPGSV,3,3,11,50,45,139,,40,11,257,,41,34,237,,0*5A
$GBGSV,2,1,05,02,56,174,35,25,55,231,35,27,56,135,35,04,41,124,,0*74
$GBGSV,2,2,05,19,,,31,0*78
$GAGSV,2,1,06,0
6,49,268,37,07,59,016,37,23,33,315,37,24,73,238,38,0*78
$GAGSV,2,2,06,26,26,253,,17,,,37,0*44

$GNRMC,080257.00,A,3114.49410,N,12130.00004,E,30.898,0.05,200821,,,A,V*3E
$GNGGA,080257.00,3114.49410,N,12130.00004,E,1,12,1.52,50.5,M,,M,,*6B
$GNGSA,A,3,05,09,12,21,24,29,30,,,,,,3.44,1.52,3.09,1*0C
$GNGSA,A,3,27,25,02,,,,,,,,,,3.44,1.52,3.09,4*0B
$GNGSA,A,3,06,07,,,,,,,,,,,3.44,1.52,3.09,3*0D
$GPGSV,3,1,
11,05,58,053,40,09,29,153,39,12,48,065,39,21,13,190,40,0*69
$GPGSV,3,2,11,24,44,156,39,29,66,274,39,30,60,355,39,42,48,147,,0*6E
$GPGSV,3,3,11,50,45,139,,40,11,257,,41,34,237,,0*5A
$GBGSV,2,1,05,02,56,174,36,25,55,231,35,27,56,135,35,04,41,124,,0*77
$GBGSV,2,2,05,19,,,31,0*78
$GAGSV,2,1,06,06,49,268,37,07,59,016,37,23,33,315,37,24,73,238,37,0*77
$GAGSV,2,2,06,26,26,253,,17,,,37,0*44

$GNRMC,080258.00,A,3114.49945,N,12130.00081,E,9.025,32.10,200821,,,A,V*30
$GNGGA,080258.00,3114.49945,N,12130.00081,E,1,12,1.52,50.9,M,,M,,*68
$GNGSA,A,3,05,09,12,21,24,29,30,,,,,,3.44,1.52,3.09,1*0C
$GNGSA,A,3,27,25,02,,,,,,,,,,3.44,1.52,3.09,4*0B
$GNGSA,A,3,06,07,,,,,,,,,,,3.44,1.52,3.09,3*0D
$GPGSV,
3,1,11,05,58,053,39,09,29,153,39,12,48,065,40,21,13,190,39,0*67
$GPGSV,3,2,11,24,44,156,39,29,66,274,39,30,60,355,39,42,48,147,,0*6E
$GPGSV,3,3,11,50,45,139,,40,11,257,,41,34,237,,0*5A
$GBGSV,2,1,05,02,56,174,35,25,55,231,35,27,56,135,35,04,41,124,,0*74
$GBGSV,2,2,05,19,,,33,0*7A
$GAGSV,2,1,06,06,49,268,37,07,59,016,38,23,33,315,37,24,73,238,37,0*78
$GAGSV,2,2,06,26,26,253,,17,,,37,0*44


$GPGSV,3,1,11,05,58,053,39,09,29,153,39,12,48,065,39,21,13,190,40,0*67
$GPGSV,3,2,11,24,44,156,39,29,66,274,39,30,60,355,39,42,48,147,,0*6E
$GPGSV,3,3,11,50,45,139,,40,11,257,,41,34,237,,0*5A
$GBGSV,2,1,05,02,56,174,35,25,55,231,35,27,56,135,35,04,41,124,,0*74
$GBGSV,2,2,05,19,,,34,0*7D
$GAGSV,2,1,06,06,49,268,37,07,59,016,38,23,33,315,37,24,73,238,37,0*78

$GAGSV,2,2,06,26,26,253,,17,,,37,0*44

$GNRMC,080300.00,A,3114.50810,N,12130.00626,E,16.286,58.74,200821,,,A,V*05
$GNGGA,080300.00,3114.50810,N,12130.00626,E,1,12,1.52,50.7,M,,M,,*68
$GNGSA,A,3,05,09,12,21,24,29,30,,,,,,3.44,1.52,3.09,1*0C
$GNGSA,A,3,27,25,02,,,,,,,,,,3.44,1.52,3.09,4*0B
$GNGSA,A,3,06,07,,,,,,,,,,,3.44,1.52,3.09,3*0D
$GPGSV,3,1,11,05,58,053,39,09,29,153,40,
12,48,065,39,21,13,190,39,0*67
$GPGSV,3,2,11,24,44,156,39,29,66,274,39,30,60,355,39,42,48,147,,0*6E
$GPGSV,3,3,11,50,45,139,,40,11,257,,41,34,237,,0*5A
$GBGSV,2,1,05,02,56,174,36,25,55,231,35,27,56,135,35,04,41,124,,0*77
$GBGSV,2,2,05,19,,,35,0*7C
$GAGSV,2,1,06,06,49,268,37,07,59,016,37,23,33,315,37,24,73,238,37,0*77
$GAGSV,2,2,06,26,26,253,,17,,,37,0*44

6,07,,,,,,,,,,,3.44,1.52,3.09,3*0D
$GPGSV,3,1,11,05,58,053,39,09,29,153,39,12,48,065,39,21,13,190,39,0*69
$GPGSV,3,2,11,24,44,156,39,29,66,275,39,30,60,355,39,42,48,147,,0*6F
$GPGSV,3,3,11,50,45,139,,40,11,257,,41,34,237,,0*5A
$GBGSV,2,1,05,02,56,174,35,25,55,231,35,27,56,135,35,04,41,124,,0*74
$GBGSV,2,2,05,19,,,35,0*7C
$GAGSV,2,1,06,06,49,268,37,07,59,016,
37,23,33,315,37,24,73,238,37,0*77
$GAGSV,2,2,06,26,26,253,,17,,,37,0*44

B
$GNGSA,A,3,06,07,,,,,,,,,,,3.44,1.52,3.09,3*0D
$GPGSV,3,1,11,05,58,053,39,09,29,153,39,12,48,065,39,21,13,190,39,0*69
$GPGSV,3,2,11,24,44,156,39,29,66,275,39,30,60,355,39,42,48,147,,0*6F
$GPGSV,3,3,11,50,45,139,,40,11,257,,41,34,237,,0*5A
$GBGSV,2,1,05,02,56,174,35,25,55,231,35,27,56,135,35,04,41,124,,0*74
$GBGSV,2,2,05,19,,,35,0*7C
$GAGSV,2,1,06,0
6,49,268,38,07,59,016,37,23,33,315,37,24,73,238,37,0*78
$GAGSV,2,2,06,26,26,253,,17,,,37,0*44

$GNRMC,080303.00,A,3114.50977,N,12130.03497,E,60.625,90.08,200821,,,A,V*0E
$GNGGA,080303.00,3114.50977,N,12130.03497,E,1,12,1.52,50.7,M,,M,,*60
$GNGSA,A,3,05,09,12,21,24,29,30,,,,,,3.44,1.52,3.09,1*0C
$GNGSA,A,3,27,25,02,,,,,,,,,,3.44,1.52,3.09,4*0B
$GNGSA,A,3,06,07,,,,,,,,,,,3.44,1.52,3.09,3*0D
$GPGSV,3,1,11,05,58,053,39,09,29,15
3,39,12,48,065,40,21,13,190,39,0*67
$GPGSV,3,2,11,24,44,156,39,29,66,275,39,30,60,355,39,42,48,147,,0*6F
$GPGSV,3,3,11,50,45,139,,40,11,257,,41,34,237,,0*5A
$GBGSV,2,1,05,02,56,174,35,25,55,231,35,27,56,135,35,04,41,124,,0*74
$GBGSV,2,2,05,19,,,35,0*7C
$GAGSV,2,1,06,06,49,268,38,07,59,016,37,23,33,315,37,24,73,238,38,0*77
$GAGSV,2,2,06,26,26,253,,17,,,37,0*44

$GNRMC,080304.00,A,3114.50967,N,12130.05894,E,87.916,89.98,200821,,,A,V*06
$GNGGA,080304.00,3114.50967,N,12130.05894,E,1,12,1.52,50.6,M,,M,,*6E
$GNGSA,A,3,05,09,12,21,24,29,30,,,,,,3.44,1.52,3.09,1*0C
$GNGSA,A,3,27,25,02,,,,,,,,,,3.44,1.52,3.09,4*0B
$GNGSA,A,3,06,07,,,,,,,,,,,3.44,1.52,3.09,3*0D
$GPGSV,3,1,11,05,58,053,39,0
9,29,153,39,12,48,065,39,21,13,190,39,0*69
$GPGSV,3,2,11,24,44,156,39,29,66,275,39,30,60,355,39,42,48,147,,0*6F
$GPGSV,3,3,11,50,45,139,,40,11,257,,41,34,237,,0*5A
$GBGSV,2,1,05,02,56,174,35,25,55,231,35,27,56,135,35,04,41,124,,0*74
$GBGSV,2,2,05,19,,,35,0*7C
$GAGSV,2,1,06,06,49,268,37,07,59,016,37,23,33,315,37,24,73,238,37,0*77
$GAGSV,2,2,06,26,26,253,,17,,,37,0*44

,,,,,,,3.44,1.52,3.09,3*0D
$GPGSV,3,1,11,05,58,053,39,09,29,153,39,12,48,065,39,21,13,190,39,0*69
$GPGSV,3,2,11,24,44,156,39,29,66,275,39,30,60,355,39,42,48,147,,0*6F
$GPGSV,3,3,11,50,45,139,,40,11,257,,41,34,237,,0*5A
$GBGSV,2,1,05,02,56,174,35,25,55,231,35,27,56,135,35,04,41,124,,0*74
$GBGSV,2,2,05,19,,,35,0*7C
$GAGSV,2,1,06,06,49,268,37,07,59,016,
37,23,33,315,36,24,73,238,37,0*76
$GAGSV,2,2,06,26,26,253,,17,,,37,0*44

SA,A,3,06,07,,,,,,,,,,,3.44,1.52,3.09,3*0D
$GPGSV,3,1,11,05,58,053,39,09,29,153,39,12,48,065,39,21,13,190,39,0*69
$GPGSV,3,2,11,24,44,156,39,29,66,275,39,30,60,355,39,42,48,147,,0*6F
$GPGSV,3,3,11,50,45,139,,40,11,257,,41,34,237,,0*5A
$GBGSV,2,1,05,02,56,174,36,25,55,231,35,27,56,135,19,04,41,124,,0*79
$GBGSV,2,2,05,19,,,35,0*7C
$GAGSV,2,1,06,06,49,
268,37,07,59,016,37,23,33,315,37,24,73,238,37,0*77
$GAGSV,2,2,06,26,26,253,,17,,,37,0*44

$GNRMC,080307.00,A,3114.50956,N,12130.18260,E,162.989,90.00,200821,,,A,V*3F
$GNGGA,080307.00,3114.50956,N,12130.18260,E,1,12,1.56,50.5,M,,M,,*65
$GNGSA,A,3,05,09,12,21,24,29,30,,,,,,3.46,1.56,3.09,1*0A
$GNGSA,A,3,27,25,02,,,,,,,,,,3.46,1.56,3.09,4*0D
$GNGSA,A,3,06,07,,,,,,,,,,,3.46,1.56,3.09,3*0B
$GPGSV,3,1,11,05,58,053,40,09,29,153,3
9,12,48,065,39,21,13,190,39,0*67
$GPGSV,3,2,11,24,44,156,40,29,66,275,39,30,60,355,39,42,48,147,,0*61
$GPGSV,3,3,11,50,45,139,,40,11,257,,41,34,237,,0*5A
$GBGSV,2,1,05,02,56,174,36,25,55,231,35,04,41,124,,27,56,135,15,0*75
$GBGSV,2,2,05,19,,,35,0*7C
$GAGSV,2,1,06,06,49,268,37,07,59,016,38,23,33,315,37,24,73,238,37,0*78
$GAGSV,2,2,06,26,26,253,,17,,,37,0*44

3.46,1.56,3.09,3*0B
$GPGSV,3,1,11,05,58,053,39,09,29,153,39,12,48,065,39,21,13,190,39,0*69
$GPGSV,3,2,11,24,44,156,39,29,66,275,40,30,60,355,40,42,48,147,,0*6F
$GPGSV,3,3,11,50,45,139,,40,11,257,,41,34,237,,0*5A
$GBGSV,2,1,05,02,56,174,35,25,55,231,35,04,41,124,,27,56,135,13,0*70
$GBGSV,2,2,05,19,,,35,0*7C
$GAGSV,2,1,06,06,49,268,37,07,59,016,3
7,23,33,315,37,24,73,238,37,0*77
$GAGSV,2,2,06,26,26,253,,17,,,37,0*44

$GNRMC,080309.00,A,3114.50952,N,12130.28786,E,162.088,90.03,200821,,,A,V*30
$GNGGA,080309.00,3114.50952,N,12130.28786,E,1,12,1.56,50.4,M,,M,,*60
$GNGSA,A,3,05,09,12,21,24,29,30,,,,,,3.47,1.56,3.09,1*0B
$GNGSA,A,3,27,25,02,,,,,,,,,,3.47,1.56,3.09,4*0C
$GNGSA,A,3,06,07,,,,,,,,,,,3.47,1.56,3.09,3*0A
$GPGSV,3,1,11,05,58,053,40,09,29,153,39,12,48,065,40,21,13,190,39,0*69
$GPGSV,3,2,11,24,44,156,40
,29,66,275,40,30,60,355,39,42,48,147,,0*6F
$GPGSV,3,3,11,50,45,139,,40,11,257,,41,34,237,,0*5A
$GBGSV,2,1,05,02,56,174,35,25,55,231,36,04,41,124,,27,56,135,13,0*73
$GBGSV,2,2,05,19,,,35,0*7C
$GAGSV,2,1,06,06,49,268,37,07,59,016,37,23,33,315,37,24,73,238,37,0*77
$GAGSV,2,2,06,26,26,253,,17,,,37,0*44

$GNRMC,080310.00,A,3114.50950,N,12130.34032,E,162.018,90.02,200821,,,A,V*37
$GNGGA,080310.00,3114.50950,N,12130.34032,E,1,11,1.56,50.3,M,,M,,*6B
$GNGSA,A,3,05,09,12,21,24,29,30,,,,,,3.47,1.56,3.09,1*0B
$GNGSA,A,3,25,02,,,,,,,,,,,3.47,1.56,3.09,4*09
$GNGSA,A,3,06,07,,,,,,,,,,,3.47,1.56,3.09,3*0A
$GPGSV,3,1,11,05,58,053,40,09,29,153,39,12,48,065,39,21,13,190,39,0*67
$GPGSV,3,2,11,24,44,156,40,29,66
,275,39,30,60,355,39,42,48,147,,0*61
$GPGSV,3,3,11,50,45,139,,40,11,257,,41,34,237,,0*5A
$GBGSV,2,1,05,02,56,174,35,25,55,231,35,04,41,124,,27,56,135,,0*72
$GBGSV,2,2,05,19,,,35,0*7C
$GAGSV,2,1,06,06,49,268,37,07,59,016,37,23,33,315,37,24,73,238,37,0*77
$GAGSV,2,2,06,26,26,253,,17,,,37,0*44

$GNRMC,080311.00,A,3114.50947,N,12130.39278,E,161.971,90.00,200821,,,A,V*36
$GNGGA,080311.00,3114.50947,N,12130.39278,E,1,11,1.56,50.2,M,,M,,*6C
$GNGSA,A,3,05,09,12,21,24,29,30,,,,,,3.47,1.56,3.10,1*03
$GNGSA,A,3,25,02,,,,,,,,,,,3.47,1.56,3.10,4*01
$GNGSA,A,3,06,07,,,,,,,,,,,3.47,1.56,3.10,3*02
$GPGSV,3,1,11,05,58,053,39,09,29,153,40,12,48,065,39,21,13,190,39,0*67
$GPGSV,3,2,11,24,44
,156,39,29,66,275,39,30,60,356,39,42,48,147,,0*6C
$GPGSV,3,3,11,50,45,139,,40,11,257,,41,34,237,,0*5A
$GBGSV,2,1,05,02,56,174,35,25,55,231,35,04,41,124,,27,56,135,,0*72
$GBGSV,2,2,05,19,,,35,0*7C
$GAGSV,2,1,06,06,49,268,37,07,59,016,37,23,33,315,37,24,73,238,37,0*77
$GAGSV,2,2,06,26,26,253,,17,,,37,0*44

,A,3,06,07,,,,,,,,,,,3.47,1.56,3.10,3*02
$GPGSV,3,1,11,05,58,053,40,09,29,153,39,12,48,065,39,21,13,190,39,0*67
$GPGSV,3,2,11,24,44,156,40,29,66,275,39,30,60,356,39,42,48,147,,0*62
$GPGSV,3,3,11,50,45,139,,40,11,257,,41,34,237,,0*5A
$GBGSV,2,1,05,02,56,174,36,25,55,231,35,04,41,124,,27,56,135,,0*71
$GBGSV,2,2,05,19,,,35,0*7C
$GAGSV,2,1,0
6,06,49,268,37,07,59,016,37,23,33,315,37,24,73,238,37,0*77
$GAGSV,2,2,06,26,26,253,,17,,,37,0*44

$GNRMC,080313.00,A,3114.50946,N,12130.49767,E,162.018,90.00,200821,,,A,V*3C
$GNGGA,080313.00,3114.50946,N,12130.49767,E,1,11,1.56,50.0,M,,M,,*61
$GNGSA,A,3,05,09,12,21,24,29,30,,,,,,3.47,1.56,3.10,1*03
$GNGSA,A,3,25,02,,,,,,,,,,,3.47,1.56,3.10,4*01
$GNGSA,A,3,06,07,,,,,,,,,,,3.47,1.56,3.10,3*02
$GPGSV,3,1,11,05,58,053,40,09,2
9,153,39,12,48,065,39,21,13,190,39,0*67
$GPGSV,3,2,11,24,44,156,39,29,66,275,39,30,60,356,39,42,48,147,,0*6C
$GPGSV,3,3,11,50,45,139,,40,11,257,,41,34,237,,0*5A
$GBGSV,2,1,05,02,56,174,35,25,55,231,35,04,41,124,,27,56,135,,0*72
$GBGSV,2,2,05,19,,,35,0*7C
$GAGSV,2,1,06,06,49,268,37,07,59,016,37,23,33,315,37,24,73,238,37,0*77
$GAGSV,2,2,06,26,26,253,,17,,,37,0*44

$GNRMC,080314.00,A,3114.50942,N,12130.55013,E,161.960,90.05,200821,,,A,V*36
$GNGGA,080314.00,3114.50942,N,12130.55013,E,1,11,1.56,50.1,M,,M,,*6A
$GNGSA,A,3,05,09,12,21,24,29,30,,,,,,3.47,1.56,3.10,1*03
$GNGSA,A,3,25,02,,,,,,,,,,,3.47,1.56,3.10,4*01
$GNGSA,A,3,06,07,,,,,,,,,,,3.47,1.56,3.10,3*02
$GPGSV,3,1,11,
05,58,053,39,09,29,153,39,12,48,065,39,21,13,190,39,0*69
$GPGSV,3,2,11,24,44,156,39,29,66,275,39,30,60,356,40,42,48,147,,0*62
$GPGSV,3,3,11,50,45,139,,40,11,257,,41,34,237,,0*5A
$GBGSV,2,1,05,02,56,174,36,25,55,231,35,04,41,124,,27,56,135,,0*71
$GBGSV,2,2,05,19,,,35,0*7C
$GAGSV,2,1,06,06,49,268,37,07,59,016,37,23,33,315,36,24,73,237,38,0*76
$GAGSV,2,2,06,26,26,253,,17,,,37,0*44

$GNRMC,080315.00,A,3114.50938,N,12130.60264,E,162.138,90.03,200821,,,A,V*3E
$GNGGA,080315.00,3114.50938,N,12130.60264,E,1,11,1.56,50.1,M,,M,,*62
$GNGSA,A,3,05,09,12,21,24,29,30,,,,,,3.47,1.56,3.10,1*03
$GNGSA,A,3,25,02,,,,,,,,,,,3.47,1.56,3.10,4*01
$GNGSA,A,3,06,07,,,,,,,,,,,3.47,1.56,3.10,3*02
$GPGSV,3,1,11,05,58,053,39,09,29,153,39,12,48,065,39,21,13,190
,39,0*69
$GPGSV,3,2,11,24,44,156,39,29,66,275,39,30,60,356,39,42,48,147,,0*6C
$GPGSV,3,3,11,50,45,139,,40,11,257,,41,34,237,,0*5A
$GBGSV,2,1,05,02,56,174,36,25,55,231,35,04,41,124,,27,56,135,,0*71
$GBGSV,2,2,05,19,,,35,0*7C
$GAGSV,2,1,06,06,49,268,37,07,59,016,37,23,33,315,37,24,73,237,37,0*78
$GAGSV,2,2,06,26,26,253,,17,,,37,0*44

$GNRMC,080316.00,A,3114.50936,N,12130.65510,E,161.829,89.98,200821,,,A,V*32
$GNGGA,080316.00,3114.50936,N,12130.65510,E,1,11,1.56,50.1,M,,M,,*6E
$GNGSA,A,3,05,09,12,21,24,29,30,,,,,,3.47,1.56,3.10,1*03
$GNGSA,A,3,25,02,,,,,,,,,,,3.47,1.56,3.10,4*01
$GNGSA,A,3,06,07,,,,,,,,,,,3.47,1.56,3.10,3*02
$GPGSV,3,1,11,05,58,054,39,09,29,153,39,12,48,065,39,21,13,190,40,0*60
$GPGSV,3,2,11,24,44,156,39,29,6
6,275,39,30,60,356,39,42,48,147,,0*6C
$GPGSV,3,3,11,50,45,139,,40,11,257,,41,34,237,,0*5A
$GBGSV,2,1,05,02,56,174,35,25,55,231,35,04,41,124,,27,56,135,,0*72
$GBGSV,2,2,05,19,,,35,0*7C
$GAGSV,2,1,06,06,49,268,37,07,59,016,38,23,33,315,37,24,73,237,38,0*78
$GAGSV,2,2,06,26,26,253,,17,,,37,0*44

$GNRMC,080317.00,A,3114.50935,N,12130.70752,E,162.013,89.99,200821,,,A,V*33
$GNGGA,080317.00,3114.50935,N,12130.70752,E,1,11,1.56,50.0,M,,M,,*6D
$GNGSA,A,3,05,09,12,21,24,29,30,,,,,,3.47,1.56,3.10,1*03
$GNGSA,A,3,25,02,,,,,,,,,,,3.47,1.56,3.10,4*01
$GNGSA,A,3,06,07,,,,,,,,,,,3.47,1.56,3.10,3*02
$GPGSV,3,1,1
1,05,58,054,40,09,29,153,39,12,48,065,39,21,13,190,39,0*60
$GPGSV,3,2,11,24,44,156,39,29,66,275,39,30,60,356,39,42,48,147,,0*6C
$GPGSV,3,3,11,50,45,139,,40,11,257,,41,34,237,,0*5A
$GBGSV,2,1,05,02,56,174,35,25,55,231,35,04,41,124,,27,56,135,,0*72
$GBGSV,2,2,05,19,,,35,0*7C
$GAGSV,2,1,06,06,49,268,37,07,59,016,38,23,33,315,37,24,73,237,37,0*77
$GAGSV,2,2,06,26,26,253,,17,,,37,0*44

$GNRMC,080318.00,A,3114.50953,N,12130.75908,E,156.573,89.51,200821,,,A,V*38
$GNGGA,080318.00,3114.50953,N,12130.75908,E,1,14,1.08,50.2,M,,M,,*6A
$GNGSA,A,3,05,09,12,21,24,29,30,,,,,,2.13,1.08,1.83,1*00
$GNGSA,A,3,25,02,,,,,,,,,,,2.13,1.08,1.83,4*02
$GNGSA,A,3,06,07,17,23,24,,,,,,,,2.13,1.08,1.83,3*00
$GPGSV,3,1,11,05,58,054,39,09,29,153,39,12,48,065,39,21,13,190,40,0*60
