$GNRMC,140130.00,A,3114.50662,N,12130.00563,E,16.947,56.00,010620,,,A,V*07
$GNGGA,140130.00,3114.50662,N,12130.00563,E,1,08,1.43,49.7,M,,M,,*6E
$GNGSA,A,3,05,09,21,24,29,31,12,30,,,,,2.37,1.43,1.89,1*01
$GNGSA,A,3,,,,,,,,,,,,,2.37,1.43,1.89,4*04
$GNGSA,A,3,,,,,,,,,,,,,2.37,1.43,1.89,3*03
$GPGSV,4,1,15,05,67,048,39,09,31,166,40,12,58,067,39,21,12,200,39,0*65
$GPGSV,4,2,15,24,48,173,39,29,55,281,40,30,59,3
43,40,31,17,318,40,0*63
$GPGSV,4,3,15,02,,,39,10,,,39,14,,,40,42,48,147,,0*5C
$GPGSV,4,4,15,50,45,139,,40,11,257,,41,34,237,,0*5E
$GBGSV,1,1,01,32,13,210,,0*46
$GAGSV,1,1,00,0*74

$GNRMC,140131.00,A,3114.50850,N,12130.01029,E,16.832,80.19,010620,,,A,V*03
$GNGGA,140131.00,3114.50850,N,12130.01029,E,1,08,1.43,51.0,M,,M,,*64
$GNGSA,A,3,05,09,21,24,29,31,12,30,,,,,2.37,1.43,1.89,1*01
$GNGSA,A,3,,,,,,,,,,,,,2.37,1.43,1.89,4*04
$GNGSA,A,3,,,,,,,,,,,,,2.37,1.43,1.89,3*03
$GPGSV,4,1,15,
05,67,048,40,09,31,166,39,12,58,067,40,21,12,200,39,0*6B
$GPGSV,4,2,15,24,49,173,39,29,55,281,39,30,59,343,39,31,17,318,40,0*62
$GPGSV,4,3,15,02,,,40,10,,,39,14,,,39,42,48,147,,0*5C
$GPGSV,4,4,15,50,45,139,,40,11,257,,41,34,237,,0*5E
$GBGSV,1,1,01,32,13,210,,0*46
$GAGSV,1,1,00,0*74

,,,,2.37,1.43,1.89,3*03
$GPGSV,4,1,15,05,67,048,39,09,31,166,39,12,58,067,38,21,12,200,36,0*65
$GPGSV,4,2,15,24,49,173,39,29,55,281,38,30,59,343,39,31,17,318,38,0*6C
$GPGSV,4,3,15,02,,,36,10,,,35,14,,,37,42,48,147,,0*5F
$GPGSV,4,4,15,50,45,139,,40,11,257,,41,34,237,,0*5E
$GBGSV,1,1,01,32,13,210,,0*46
$GAGSV,1,1,00,0*74

$GNRMC,140133.00,A,3114.50811,N,12130.02952,E,43.788,95.26,010620,,,A,V*04
$GNGGA,140133.00,3114.50811,N,12130.02952,E,1,08,1.43,49.6,M,,M,,*6A
$GNGSA,A,3,05,09,21,24,29,31,12,30,,,,,2.37,1.43,1.89,1*01
$GNGSA,A,3,,,,,,,,,,,,,2.37,1.43,1.89,4*04
$GNGSA,A,3,,,,,,,,,,,,,2.37,1.43,1.89,3*03
$GPGSV,4,1,15,05,67,048,39,09,31,166,39,12,58,067,39,21,12,200,40,0*65
$GPGSV,4,2,15,24,49,173,39,29,55,281,38,
30,59,343,39,31,17,318,37,0*63
$GPGSV,4,3,15,02,,,38,10,,,35,14,,,34,42,48,147,,0*52
$GPGSV,4,4,15,50,45,139,,40,11,257,,41,34,237,,0*5E
$GBGSV,1,1,01,32,13,210,,0*46
$GAGSV,1,1,00,0*74

$GNRMC,140134.00,A,3114.50852,N,12130.05346,E,83.540,89.80,010620,,,A,V*07
$GNGGA,140134.00,3114.50852,N,12130.05346,E,1,08,1.43,48.3,M,,M,,*66
$GNGSA,A,3,05,09,21,24,29,31,12,30,,,,,2.37,1.43,1.90,1*09
$GNGSA,A,3,,,,,,,,,,,,,2.37,1.43,1.90,4*0C
$GNGSA,A,3,,,,,,,,,,,,,2.37,1.43,1.90,3*0B
$GPGSV,4,1,15,05,67,048,39,09,31,166,40,12,58,067,40,21,12,200,39,0*6B
$GPGSV,4,2,15,24,49,173,40
,29,55,281,39,30,59,343,39,31,17,318,39,0*62
$GPGSV,4,3,15,02,,,39,10,,,34,14,,,33,42,48,147,,0*55
$GPGSV,4,4,15,50,45,139,,40,11,257,,41,34,237,,0*5E
$GBGSV,1,1,01,32,13,210,,0*46
$GAGSV,1,1,00,0*74

,1.90,3*0B
$GPGSV,4,1,15,05,67,048,40,09,31,166,40,12,58,067,39,21,12,200,40,0*65
$GPGSV,4,2,15,24,49,173,39,29,55,281,39,30,59,343,40,31,17,318,38,0*63
$GPGSV,4,3,15,02,,,38,10,,,34,14,,,34,42,48,147,,0*53
$GPGSV,4,4,15,50,45,139,,40,11,257,,41,34,237,,0*5E
$GBGSV,1,1,01,32,13,210,,0*46
$GAGSV,1,1,00,0*74

$GNRMC,140136.00,A,3114.50895,N,12130.12606,E,137.491,89.48,010620,,,A,V*3E
$GNGGA,140136.00,3114.50895,N,12130.12606,E,1,08,1.43,47.7,M,,M,,*63
$GNGSA,A,3,05,09,21,24,29,31,12,30,,,,,2.37,1.43,1.90,1*09
$GNGSA,A,3,,,,,,,,,,,,,2.37,1.43,1.90,4*0C
$GNGSA,A,3,,,,,,,,,,,,,2.37,1.43,1.90,3*0B
$GPGSV,4,1,15,05,67,048,39,09,31,166,40,12,58,067,39,21,12,200,40,0*6B

$GPGSV,4,2,15,24,49,173,39,29,55,281,39,30,59,343,40,31,17,318,37,0*6C
$GPGSV,4,3,15,02,,,39,10,,,35,14,,,33,42,48,147,,0*54
$GPGSV,4,4,15,50,45,139,,40,11,257,,41,34,237,,0*5E
$GBGSV,1,1,01,32,13,210,,0*46
$GAGSV,1,1,00,0*74

$GNRMC,140137.00,A,3114.50904,N,12130.17541,E,163.906,89.79,010620,,,A,V*33
$GNGGA,140137.00,3114.50904,N,12130.17541,E,1,08,1.43,47.4,M,,M,,*6D
$GNGSA,A,3,05,09,21,24,29,31,12,30,,,,,2.37,1.43,1.90,1*09
$GNGSA,A,3,,,,,,,,,,,,,2.37,1.43,1.90,4*0C
$GNGSA,A,3,,,,,,,,,,,,,2.37,1.43,1.90,3*0B
$GPGSV,4,1,15,05,67,048,39,09,31,166,39,12,58,067,39,21,12,200,40,0*65
$GPGSV,4,2,15,24,49,173,39,29,55,281,39,30,5
9,343,39,31,17,318,39,0*6C
$GPGSV,4,3,15,02,,,39,10,,,34,14,,,33,42,48,147,,0*55
$GPGSV,4,4,15,50,45,139,,40,11,257,,41,34,237,,0*5E
$GBGSV,1,1,01,32,13,210,,0*46
$GAGSV,1,1,00,0*74

$GNRMC,140138.00,A,3114.50973,N,12130.23202,E,186.887,88.46,010620,,,A,V*35
$GNGGA,140138.00,3114.50973,N,12130.23202,E,1,08,1.43,48.1,M,,M,,*6F
$GNGSA,A,3,05,09,21,24,29,31,12,30,,,,,2.37,1.43,1.90,1*09
$GNGSA,A,3,,,,,,,,,,,,,2.37,1.43,1.90,4*0C
$GNGSA,A,3,,,,,,,,,,,,,2.37,1.43,1.90,3*0B
$GPGSV,4,1,15,05,67,048,39,09,31,166,39,12,58,067,39,21,12,200,39,0*6B
$GPGSV,4,2,15,24,49,173,39,29,55,281
,39,30,59,343,39,31,17,318,38,0*6D
$GPGSV,4,3,15,02,,,38,10,,,39,14,,,40,42,48,147,,0*5D
$GPGSV,4,4,15,50,45,139,,40,11,257,,41,34,237,,0*5E
$GBGSV,1,1,01,32,13,210,,0*46
$GAGSV,1,1,00,0*74

.37,1.43,1.90,3*0B
$GPGSV,4,1,15,05,67,048,39,09,31,166,39,12,58,067,39,21,12,200,39,0*6B
$GPGSV,4,2,15,24,49,173,39,29,55,281,40,30,59,343,39,31,17,318,39,0*62
$GPGSV,4,3,15,02,,,39,10,,,40,14,,,40,42,48,147,,0*52
$GPGSV,4,4,15,50,45,139,,40,11,257,,41,34,237,,0*5E
$GBGSV,1,1,01,32,13,210,,0*46
$GAGSV,1,1,00,0*74

$GNRMC,140140.00,A,3114.50934,N,12130.33506,E,162.388,90.01,010620,,,A,V*3F
$GNGGA,140140.00,3114.50934,N,12130.33506,E,1,08,1.43,47.2,M,,M,,*6D
$GNGSA,A,3,05,09,21,24,29,31,12,30,,,,,2.37,1.43,1.90,1*09
$GNGSA,A,3,,,,,,,,,,,,,2.37,1.43,1.90,4*0C
$GNGSA,A,3,,,,,,,,,,,,,2.37,1.43,1.90,3*0B
$GPGSV,4,1,15,05,67,048,39,09,31,166,40,1
2,58,067,39,21,12,200,39,0*65
$GPGSV,4,2,15,24,49,173,39,29,55,281,39,30,59,343,39,31,17,318,40,0*62
$GPGSV,4,3,15,02,,,39,10,,,39,14,,,39,42,48,147,,0*52
$GPGSV,4,4,15,50,45,139,,40,11,257,,41,34,237,,0*5E
$GBGSV,1,1,01,32,13,210,,0*46
$GAGSV,1,1,00,0*74

A,3,,,,,,,,,,,,,2.37,1.43,1.90,3*0B
$GPGSV,4,1,15,05,67,048,40,09,31,166,40,12,58,067,39,21,12,200,39,0*6B
$GPGSV,4,2,15,24,49,173,40,29,55,281,39,30,59,343,40,31,17,318,40,0*62
$GPGSV,4,3,15,02,,,39,10,,,39,14,,,39,42,48,147,,0*52
$GPGSV,4,4,15,50,45,139,,40,11,257,,41,34,237,,0*5E
$GBGSV,1,1,01,32,13,210,,0*46
$GAGSV,1,1,00,0*74

SV,4,1,15,05,67,049,40,09,31,166,40,12,58,067,39,21,12,200,39,0*6A
$GPGSV,4,2,15,24,49,173,40,29,55,281,39,30,59,343,39,31,17,318,40,0*6C
$GPGSV,4,3,15,02,,,38,10,,,39,14,,,40,42,48,147,,0*5D
$GPGSV,4,4,15,50,45,139,,40,11,257,,41,34,237,,0*5E
$GBGSV,1,1,01,32,13,210,,0*46
$GAGSV,1,1,00,0*74

$GNRMC,140143.00,A,3114.50921,N,12130.49256,E,161.796,89.97,010620,,,A,V*38
$GNGGA,140143.00,3114.50921,N,12130.49256,E,1,08,1.43,48.1,M,,M,,*69
$GNGSA,A,3,05,09,21,24,29,31,12,30,,,,,2.37,1.43,1.90,1*09
$GNGSA,A,3,,,,,,,,,,,,,2.37,1.43,1.90,4*0C
$GNGSA,A,3,,,,,,,,,,,,,2.37,1.43,1.90,3*0B
$GPGSV,4,1,15,05,67,049,40,09,31,166,40,12,58,067,40,21,12,200,39,0*64
$GPGSV,4,2,15,24,49,173,40,29,55,281,3
9,30,59,343,39,31,17,318,39,0*62
$GPGSV,4,3,15,02,,,40,10,,,40,14,,,39,42,48,147,,0*52
$GPGSV,4,4,15,50,45,139,,40,11,257,,41,34,237,,0*5E
$GBGSV,1,1,01,32,13,210,,0*46
$GAGSV,1,1,00,0*74

$GNRMC,140144.00,A,3114.50919,N,12130.54499,E,162.142,89.99,010620,,,A,V*3F
$GNGGA,140144.00,3114.50919,N,12130.54499,E,1,08,1.43,48.2,M,,M,,*6F
$GNGSA,A,3,05,09,21,24,29,31,12,30,,,,,2.37,1.43,1.90,1*09
$GNGSA,A,3,,,,,,,,,,,,,2.37,1.43,1.90,4*0C
$GNGSA,A,3,,,,,,,,,,,,,2.37,1.43,1.90,3*0B
$GPGSV,4,1,15,05,67,049,39,09,31,166,39,12,58,067,39,21,12,200,39,0*6A
$GPGSV,4,2,15,24,49,173,39,29,55,281,
40,30,59,343,39,31,17,318,39,0*62
$GPGSV,4,3,15,02,,,39,10,,,39,14,,,39,42,48,147,,0*52
$GPGSV,4,4,15,50,45,139,,40,11,257,,41,34,237,,0*5E
$GBGSV,1,1,01,32,13,210,,0*46
$GAGSV,1,1,00,0*74

3*0B
$GPGSV,4,1,15,05,67,049,39,09,31,166,39,12,58,067,39,21,12,200,39,0*6A
$GPGSV,4,2,15,24,49,173,40,29,55,281,40,30,59,343,39,31,17,318,39,0*6C
$GPGSV,4,3,15,02,,,40,10,,,39,14,,,39,42,48,147,,0*5C
$GPGSV,4,4,15,50,45,139,,40,11,257,,41,34,237,,0*5E
$GBGSV,1,1,01,32,13,210,,0*46
$GAGSV,1,1,00,0*74

$GNRMC,140146.00,A,3114.50925,N,12130.65017,E,161.983,89.98,010620,,,A,V*35
$GNGGA,140146.00,3114.50925,N,12130.65017,E,1,08,1.43,47.9,M,,M,,*66
$GNGSA,A,3,05,09,21,24,29,31,12,30,,,,,2.38,1.43,1.90,1*06
$GNGSA,A,3,,,,,,,,,,,,,2.38,1.43,1.90,4*03
$GNGSA,A,3,,,,,,,,,,,,,2.38,1.43,1.90,3*04
$GPGSV,4,1,15,05,67,049,40,09,31,166,39,12,58,067,40,21,12,200,39,0*6A
$GPGSV,4,2,15,24,49,173,40,29,55,281
,40,30,59,343,40,31,17,318,39,0*62
$GPGSV,4,3,15,02,,,39,10,,,39,14,,,40,42,48,147,,0*5C
$GPGSV,4,4,15,50,45,139,,40,11,257,,41,34,237,,0*5E
$GBGSV,1,1,01,32,13,210,,0*46
$GAGSV,1,1,00,0*74

43,1.90,3*04
$GPGSV,4,1,15,05,67,049,39,09,31,166,39,12,58,067,39,21,12,200,40,0*64
$GPGSV,4,2,15,24,49,173,39,29,55,281,40,30,59,343,40,31,17,318,40,0*62
$GPGSV,4,3,15,02,,,39,10,,,40,14,,,40,42,48,147,,0*52
$GPGSV,4,4,15,50,45,139,,40,11,257,,41,34,237,,0*5E
$GBGSV,1,1,01,32,13,210,,0*46
$GAGSV,1,1,00,0*74

,2.38,1.43,1.90,3*04
$GPGSV,4,1,15,05,67,049,40,09,31,166,39,12,58,067,40,21,12,200,39,0*6A
$GPGSV,4,2,15,24,49,173,40,29,55,281,40,30,59,343,40,31,17,318,39,0*62
$GPGSV,4,3,15,02,,,39,10,,,38,14,,,38,42,48,147,,0*52
$GPGSV,4,4,15,50,45,139,,40,11,257,,41,34,237,,0*5E
$GBGSV,1,1,01,32,13,210,,0*46
$GAGSV,1,1,00,0*74

$GNRMC,140149.00,A,3114.50984,N,12130.80435,E,152.339,87.93,010620,,,A,V*30
$GNGGA,140149.00,3114.50984,N,12130.80435,E,1,08,1.43,49.9,M,,M,,*63
$GNGSA,A,3,05,09,21,24,29,31,12,30,,,,,2.38,1.43,1.90,1*06
$GNGSA,A,3,,,,,,,,,,,,,2.38,1.43,1.90,4*03
$GNGSA,A,3,,,,,,,,,,,,,2.38,1.43,1.90,3*04
$GPGSV,4,1,15,05
,67,049,39,09,31,166,39,12,58,067,40,21,12,200,39,0*64
$GPGSV,4,2,15,24,49,173,39,29,55,281,38,30,59,343,39,31,17,318,37,0*63
$GPGSV,4,3,15,02,,,38,10,,,34,14,,,33,42,48,147,,0*54
$GPGSV,4,4,15,50,45,139,,40,11,257,,41,34,237,,0*5E
$GBGSV,1,1,01,32,13,210,,0*46
$GAGSV,1,1,00,0*74

$GNRMC,140150.00,A,3114.50954,N,12130.83974,E,102.955,89.75,010620,,,A,V*3D
$GNGGA,140150.00,3114.50954,N,12130.83974,E,1,08,1.43,49.3,M,,M,,*67
$GNGSA,A,3,05,09,21,24,29,31,12,30,,,,,2.38,1.43,1.90,1*06
$GNGSA,A,3,,,,,,,,,,,,,2.38,1.43,1.90,4*03
$GNGSA,A,3,,,,,,,,,,,,,2.38,1.43,1.90,3*04
$GPGSV,4,1,15,05,67,049,40,09,31,166,40,12,58,067,39,21,12,200,40,0*64
$GPGSV,4,2,15,24,49,173,39,29,55,281,39,30,
59,343,40,31,17,318,38,0*63
$GPGSV,4,3,15,02,,,38,10,,,34,14,,,33,42,48,147,,0*54
$GPGSV,4,4,15,50,45,139,,40,11,257,,41,34,237,,0*5E
$GBGSV,1,1,01,32,13,210,,0*46
$GAGSV,1,1,00,0*74

$GNRMC,140151.00,A,3114.50941,N,12130.86801,E,74.009,90.35,010620,,,A,V*02
$GNGGA,140151.00,3114.50941,N,12130.86801,E,1,08,1.43,49.7,M,,M,,*60
$GNGSA,A,3,05,09,21,24,29,31,12,30,,,,,2.38,1.43,1.90,1*06
$GNGSA,A,3,,,,,,,,,,,,,2.38,1.43,1.90,4*03
$GNGSA,A,3,,,,,,,,,,,,,2.38,1.43,1.90,3*04
$GPGSV,4,1,15,05,67,04
9,39,09,31,166,39,12,58,067,39,21,12,200,39,0*6A
$GPGSV,4,2,15,24,49,173,40,29,55,281,39,30,59,343,39,31,17,318,38,0*63
$GPGSV,4,3,15,02,,,38,10,,,34,14,,,34,42,48,147,,0*53
$GPGSV,4,4,15,50,45,139,,40,11,257,,41,34,237,,0*5E
$GBGSV,1,1,01,32,13,210,,0*46
$GAGSV,1,1,00,0*74

,,,,,,,1.86,1.04,1.54,3*09
$GPGSV,4,1,15,02,34,049,38,05,67,049,39,09,31,166,39,12,58,067,39,0*61
$GPGSV,4,2,15,21,12,200,39,24,49,173,40,29,55,281,39,30,59,343,40,0*60
$GPGSV,4,3,15,31,17,318,38,10,,,33,14,,,34,42,48,147,,0*68
$GPGSV,4,4,15,50,45,139,,40,11,257,,41,34,237,,0*5E
$GBGSV,1,1,01,32,13,210,,0*46
$GAGSV,1,1,00,0*74

$GNRMC,140153.00,A,3114.50932,N,12130.89764,E,20.394,89.83,010620,,,A,V*04
$GNGGA,140153.00,3114.50932,N,12130.89764,E,1,09,1.04,49.2,M,,M,,*62
$GNGSA,A,3,02,05,09,21,24,29,31,12,30,,,,1.86,1.04,1.54,1*09
$GNGSA,A,3,,,,,,,,,,,,,1.86,1.04,1.54,4*0E
$GNGSA,A,3,,,,,,,,,,,,,1.86,1.04,1.54,3*09
$GPGSV,4,1,15,02,34,049,38,05,67,049,39,09,31,166,40,12,58,067,39,0*6F
$GPGSV,4,2,15,21,12,200,39,24,49,173,39,29,5
5,281,39,30,59,343,40,0*6E
$GPGSV,4,3,15,31,17,318,38,10,,,34,14,,,32,42,48,147,,0*69
$GPGSV,4,4,15,50,45,139,,40,11,257,,41,34,237,,0*5E
$GBGSV,1,1,01,32,13,210,,0*46
$GAGSV,1,1,00,0*74

,1.04,1.54,3*09
$GPGSV,4,1,15,02,34,049,39,05,67,049,39,09,31,166,38,12,58,067,38,0*60
$GPGSV,4,2,15,21,12,200,40,24,49,173,39,29,55,281,38,30,59,343,38,0*6E
$GPGSV,4,3,15,31,17,318,36,10,,,38,14,,,40,42,48,147,,0*6E
$GPGSV,4,4,15,50,45,139,,40,11,257,,41,34,237,,0*5E
$GBGSV,1,1,01,32,13,210,,0*46
$GAGSV,1,1,00,0*74


$GNGSA,A,3,,,,,,,,,,,,,1.86,1.04,1.54,3*09
$GPGSV,4,1,15,02,34,049,39,05,67,049,40,09,31,166,39,12,58,067,39,0*6E
$GPGSV,4,2,15,21,12,200,40,24,49,173,39,29,55,281,40,30,59,343,40,0*6E
$GPGSV,4,3,15,31,17,318,39,10,,,39,14,,,40,42,48,147,,0*60
$GPGSV,4,4,15,50,45,139,,40,11,257,,41,34,237,,0*5E
$GBGSV,1,1,01,32,13,210,,0*46
$GAGSV,1,1,00,0*74

.86,1.04,1.54,3*09
$GPGSV,4,1,15,02,34,049,39,05,67,049,39,09,31,166,39,12,57,067,39,0*6F
$GPGSV,4,2,15,21,12,200,39,24,49,173,39,29,55,281,40,30,59,343,39,0*6E
$GPGSV,4,3,15,31,17,318,39,10,,,39,14,,,39,42,48,147,,0*6E
$GPGSV,4,4,15,50,45,139,,40,11,257,,41,34,237,,0*5E
$GBGSV,1,1,01,32,13,210,,0*46
$GAGSV,1,1,00,0*74

$GNRMC,140157.00,A,3114.49782,N,12130.90900,E,17.213,181.90,010620,,,A,V*38
$GNGGA,140157.00,3114.49782,N,12130.90900,E,1,09,1.04,49.4,M,,M,,*69
$GNGSA,A,3,02,05,09,21,24,29,31,12,30,,,,1.86,1.04,1.54,1*09
$GNGSA,A,3,,,,,,,,,,,,,1.86,1.04,1.54,4*0E
$GNGSA,A,3,,,,,,,,,,,,,1.86,1.04,1.54,3*09
$GPGSV,4,1,15,02,34,049,39,05,67,
049,39,09,31,166,40,12,57,067,40,0*6F
$GPGSV,4,2,15,21,12,200,40,24,49,173,39,29,55,281,39,30,59,343,39,0*6E
$GPGSV,4,3,15,31,17,318,39,10,,,40,14,,,40,42,48,147,,0*6E
$GPGSV,4,4,15,50,45,139,,40,11,257,,41,34,237,,0*5E
$GBGSV,1,1,01,32,13,210,,0*46
$GAGSV,1,1,00,0*74

4,1.54,4*0E
$GNGSA,A,3,,,,,,,,,,,,,1.86,1.04,1.54,3*09
$GPGSV,4,1,15,02,34,049,39,05,67,049,39,09,31,166,35,12,57,067,39,0*63
$GPGSV,4,2,15,21,12,200,34,24,49,173,37,29,55,281,39,30,59,343,39,0*63
$GPGSV,4,3,15,31,17,318,36,10,,,38,14,,,39,42,48,147,,0*60
$GPGSV,4,4,15,50,45,139,,40,11,257,,41,34,237,,0*5E
$GBGSV,1,1,01,32,13,210,,0*46
$GAGSV,1,1,00,0*74

$GNRMC,140159.00,A,3114.47444,N,12130.90817,E,67.549,180.59,010620,,,A,V*3D
$GNGGA,140159.00,3114.47444,N,12130.90817,E,1,09,1.04,49.4,M,,M,,*67
$GNGSA,A,3,02,05,09,21,24,29,31,12,30,,,,1.86,1.04,1.54,1*09
$GNGSA,A,3,,,,,,,,,,,,,1.86,1.04,1.54,4*0E
$GNGSA,A,3,,,,,,,,,,,,,1.86,1.04,1.54,3*09
$GPGSV,4,1,15,
02,34,049,39,05,67,049,39,09,31,166,36,12,57,067,39,0*60
$GPGSV,4,2,15,21,12,200,35,24,49,173,38,29,55,281,39,30,59,343,39,0*6D
$GPGSV,4,3,15,31,17,318,37,10,,,40,14,,,40,42,48,147,,0*60
$GPGSV,4,4,15,50,45,139,,40,11,257,,41,34,237,,0*5E
$GBGSV,1,1,01,32,13,210,,0*46
$GAGSV,1,1,00,0*74

4,1.54,3*09
$GPGSV,4,1,15,02,34,049,39,05,67,049,40,09,31,166,36,12,57,067,40,0*60
$GPGSV,4,2,15,21,12,200,35,24,49,173,38,29,55,281,39,30,59,344,40,0*64
$GPGSV,4,3,15,31,17,318,37,10,,,40,14,,,39,42,48,147,,0*6E
$GPGSV,4,4,15,50,45,139,,40,11,257,,41,34,237,,0*5E
$GBGSV,1,1,01,32,13,210,,0*46
$GAGSV,1,1,00,0*74

$GNRMC,140201.00,A,3114.42093,N,12130.90777,E,122.490,180.41,010620,,,A,V*0D
$GNGGA,140201.00,3114.42093,N,12130.90777,E,1,09,1.04,48.5,M,,M,,*6B
$GNGSA,A,3,02,05,09,21,24,29,31,12,30,,,,1.86,1.04,1.54,1*09
$GNGSA,A,3,,,,,,,,,,,,,1.86,1.04,1.54,4*0E
$GNGSA,A,3,,,,,,,,,,,,,1.86,1.04,1.54,3*09
$GPGSV,4,1,15,02,34,049,39,05,67,049,40,09,31,166,35,12,57,067,40,0*63

$GPGSV,4,2,15,21,12,200,34,24,49,173,38,29,55,281,39,30,59,344,39,0*6B
$GPGSV,4,3,15,31,17,318,37,10,,,39,14,,,39,42,48,147,,0*60
$GPGSV,4,4,15,50,45,139,,40,11,257,,41,34,237,,0*5E
$GBGSV,1,1,01,32,13,210,,0*46
$GAGSV,1,1,00,0*74

$GNRMC,140202.00,A,3114.38281,N,12130.90750,E,149.305,180.23,010620,,,A,V*05
$GNGGA,140202.00,3114.38281,N,12130.90750,E,1,09,1.04,47.9,M,,M,,*62
$GNGSA,A,3,02,05,09,21,24,29,31,12,30,,,,1.86,1.04,1.54,1*09
$GNGSA,A,3,,,,,,,,,,,,,1.86,1.04,1.54,4*0E
$GNGSA,A,3,,,,,,,,,,,,,1.86,1.04,1.54,3*09
$GPGSV,4,1,15,02,34,049,39,05,67,049,39,09,31,166,35,12,57,067,39,0*63
$GPGSV,4,2,15,21,12,2
00,34,24,49,173,39,29,55,281,39,30,59,344,39,0*6A
$GPGSV,4,3,15,31,17,318,38,10,,,40,14,,,40,42,48,147,,0*6F
$GPGSV,4,4,15,50,45,139,,40,11,257,,41,34,237,,0*5E
$GBGSV,1,1,01,32,13,210,,0*46
$GAGSV,1,1,00,0*74

$GNRMC,140203.00,A,3114.33846,N,12130.90734,E,167.064,179.91,010620,,,A,V*0B
$GNGGA,140203.00,3114.33846,N,12130.90734,E,1,09,1.04,47.8,M,,M,,*6A
$GNGSA,A,3,02,05,09,21,24,29,31,12,30,,,,1.86,1.04,1.54,1*09
$GNGSA,A,3,,,,,,,,,,,,,1.86,1.04,1.54,4*0E
$GNGSA,A,3,,,,,,,,,,,,,1.86,1.04,1.54,3*09
$GPGSV,4,1,15,02,34,049,39,05,67,049,39,09,31,166,39,12,57,067,39,0*6F
$GPGSV,4,2,
15,21,12,200,39,24,49,173,39,29,55,281,39,30,59,344,38,0*66
$GPGSV,4,3,15,31,17,318,39,10,,,38,14,,,39,42,48,147,,0*6F
$GPGSV,4,4,15,50,45,139,,40,11,257,,41,34,237,,0*5E
$GBGSV,1,1,01,32,13,210,,0*46
$GAGSV,1,1,00,0*74

.04,1.54,3*09
$GPGSV,4,1,15,02,34,049,40,05,67,049,40,09,31,166,39,12,57,067,40,0*61
$GPGSV,4,2,15,21,12,200,39,24,49,173,39,29,55,281,40,30,59,344,40,0*67
$GPGSV,4,3,15,31,17,318,39,10,,,39,14,,,40,42,48,147,,0*60
$GPGSV,4,4,15,50,45,139,,40,11,257,,41,34,237,,0*5E
$GBGSV,1,1,01,32,13,210,,0*46
$GAGSV,1,1,00,0*74

$GNRMC,140205.00,A,3114.24592,N,12130.90734,E,162.170,179.99,010620,,,A,V*06
$GNGGA,140205.00,3114.24592,N,12130.90734,E,1,09,1.04,48.3,M,,M,,*6A
$GNGSA,A,3,02,05,09,21,24,29,31,12,30,,,,1.86,1.04,1.54,1*09
$GNGSA,A,3,,,,,,,,,,,,,1.86,1.04,1.54,4*0E
$GNGSA,A,3,,,,,,,,,,,,,1.86,1.04,1.54,3*09
$GPGSV,4,1,15,02,34,049,39,05,67,049,4
0,09,31,166,40,12,57,067,39,0*6F
$GPGSV,4,2,15,21,12,200,39,24,49,173,39,29,55,281,39,30,59,344,40,0*69
$GPGSV,4,3,15,31,17,318,40,10,,,39,14,,,40,42,48,147,,0*6E
$GPGSV,4,4,15,50,45,139,,40,11,257,,41,34,237,,0*5E
$GBGSV,1,1,01,32,13,210,,0*46
$GAGSV,1,1,00,0*74

$GNRMC,140206.00,A,3114.20072,N,12130.90734,E,161.979,179.92,010620,,,A,V*03
$GNGGA,140206.00,3114.20072,N,12130.90734,E,1,09,1.04,48.0,M,,M,,*65
$GNGSA,A,3,02,05,09,21,24,29,31,12,30,,,,1.86,1.04,1.54,1*09
$GNGSA,A,3,,,,,,,,,,,,,1.86,1.04,1.54,4*0E
$GNGSA,A,3,,,,,,,,,,,,,1.86,1.04,1.54,3*09
$GPGSV,4,1,15,02,34,049,40,05,67,049,40,09,31,166,39,12,57,067,39,0*6F
$GPGSV,4,
2,15,21,12,200,39,24,49,173,40,29,55,281,39,30,59,344,39,0*69
$GPGSV,4,3,15,31,17,318,40,10,,,39,14,,,39,42,48,147,,0*60
$GPGSV,4,4,15,50,45,139,,40,11,257,,41,34,237,,0*5E
$GBGSV,1,1,01,32,13,210,,0*46
$GAGSV,1,1,00,0*74

,,,,,,,,1.86,1.04,1.54,3*09
$GPGSV,4,1,15,02,34,049,39,05,67,049,39,09,31,166,39,12,57,067,40,0*61
$GPGSV,4,2,15,21,12,200,39,24,49,173,39,29,55,281,39,30,59,344,40,0*69
$GPGSV,4,3,15,31,17,318,39,10,,,40,14,,,39,42,48,147,,0*60
$GPGSV,4,4,15,50,45,139,,40,11,257,,41,34,237,,0*5E
$GBGSV,1,1,01,32,13,210,,0*46
$GAGSV,1,1,00,0*74

$GNRMC,140208.00,A,3114.11049,N,12130.90768,E,160.403,179.40,010620,,,A,V*00
$GNGGA,140208.00,3114.11049,N,12130.90768,E,1,09,1.04,48.7,M,,M,,*6F
$GNGSA,A,3,02,05,09,21,24,29,31,12,30,,,,1.86,1.04,1.54,1*09
$GNGSA,A,3,,,,,,,,,,,,,1.86,1.04,1.54,4*0E
$GNGSA,A,3,,,,,,,,,,,,,1.86,1.04,1.54,3*09
$GPGSV,4,1,15,02,34,0
49,37,05,67,049,39,09,31,166,36,12,57,067,39,0*6E
$GPGSV,4,2,15,21,12,200,35,24,49,173,37,29,55,281,39,30,59,344,36,0*6A
$GPGSV,4,3,15,31,17,318,35,10,,,39,14,,,40,42,48,147,,0*6C
$GPGSV,4,4,15,50,45,139,,40,11,257,,41,34,237,,0*5E
$GBGSV,1,1,01,32,13,210,,0*46
$GAGSV,1,1,00,0*74

4,1.54,3*09
$GPGSV,4,1,15,02,34,049,39,05,67,049,39,09,31,166,35,12,57,067,39,0*63
$GPGSV,4,2,15,21,12,200,34,24,49,173,38,29,55,281,39,30,59,344,39,0*6B
$GPGSV,4,3,15,31,17,318,37,10,,,39,14,,,40,42,48,147,,0*6E
$GPGSV,4,4,15,50,45,139,,40,11,257,,41,34,237,,0*5E
$GBGSV,1,1,01,32,13,210,,0*46
$GAGSV,1,1,00,0*74

*09
$GPGSV,4,1,15,02,34,049,39,05,67,049,39,09,31,166,35,12,57,067,39,0*63
$GPGSV,4,2,15,21,12,200,35,24,49,173,38,29,55,281,39,30,59,344,39,0*6A
$GPGSV,4,3,15,31,17,318,37,10,,,39,14,,,39,42,48,147,,0*60
$GPGSV,4,4,15,50,45,139,,40,11,257,,41,34,237,,0*5E
$GBGSV,1,1,01,32,13,210,,0*46
$GAGSV,1,1,00,0*74

04,1.54,3*09
$GPGSV,4,1,15,02,34,049,39,05,67,049,39,09,30,166,35,12,57,067,40,0*6C
$GPGSV,4,2,15,21,12,200,34,24,49,173,39,29,55,281,39,30,59,344,40,0*64
$GPGSV,4,3,15,31,17,318,37,10,,,40,14,,,40,42,48,147,,0*60
$GPGSV,4,4,15,50,45,139,,40,11,257,,41,34,237,,0*5E
$GBGSV,1,1,01,32,13,210,,0*46
$GAGSV,1,1,00,0*74

,1.86,1.04,1.54,3*09
$GPGSV,4,1,15,02,34,049,39,05,67,049,40,09,30,166,36,12,57,067,40,0*61
$GPGSV,4,2,15,21,12,200,34,24,49,173,38,29,55,281,40,30,59,344,40,0*6B
$GPGSV,4,3,15,31,17,318,37,10,,,40,14,,,40,42,48,147,,0*60
$GPGSV,4,4,15,50,45,139,,40,11,257,,41,34,237,,0*5E
$GBGSV,1,1,01,32,13,210,,0*46
$GAGSV,1,1,00,0*74

$GNRMC,140213.00,A,3114.00578,N,12130.90764,E,13.485,183.89,010620,,,A,V*3A
$GNGGA,140213.00,3114.00578,N,12130.90764,E,1,09,1.04,48.5,M,,M,,*6C
$GNGSA,A,3,02,05,09,21,24,29,31,12,30,,,,1.86,1.04,1.54,1*09
$GNGSA,A,3,,,,,,,,,,,,,1.86,1.04,1.54,4*0E
$GNGSA,A,3,,,,,,,,,,,,,1.86,1.04,1.54,3*09
$GPGSV,4,1,15,02,34,049,38,05,67,049,40,09,30,166,36,12,57,067,39,0*6E
$GPGSV,4,2,15,21,12,200
,35,24,49,173,39,29,55,281,40,30,59,344,39,0*65
$GPGSV,4,3,15,31,17,318,40,10,,,40,14,,,39,42,48,147,,0*6E
$GPGSV,4,4,15,50,45,139,,40,11,257,,41,34,237,,0*5E
$GBGSV,1,1,01,32,13,210,,0*46
$GAGSV,1,1,00,0*74

,1.04,1.54,3*09
$GPGSV,4,1,15,02,34,049,39,05,67,049,39,09,30,166,39,12,57,067,39,0*6E
$GPGSV,4,2,15,21,12,200,39,24,49,173,40,29,55,281,40,30,59,344,40,0*69
$GPGSV,4,3,15,31,17,318,39,10,,,39,14,,,39,42,48,147,,0*6E
$GPGSV,4,4,15,50,45,139,,40,11,257,,41,34,237,,0*5E
$GBGSV,1,1,01,32,13,210,,0*46
$GAGSV,1,1,00,0*74

$GNRMC,140215.00,A,3114.00091,N,12130.90277,E,16.635,236.57,010620,,,A,V*3B
$GNGGA,140215.00,3114.00091,N,12130.90277,E,1,09,1.04,48.7,M,,M,,*6D
$GNGSA,A,3,02,05,09,21,24,29,31,12,30,,,,1.86,1.04,1.54,1*09
$GNGSA,A,3,,,,,,,,,,,,,1.86,1.04,1.54,4*0E
$GNGSA,A,3,,,,,,,,,,,,,1.86,1.04,1.54,3*09
$GPGSV,4,1,15,02,34,049,40,05,67,049,40,09,30,166,39,12,
57,067,40,0*60
$GPGSV,4,2,15,21,12,200,40,24,49,173,40,29,55,281,40,30,59,344,39,0*69
$GPGSV,4,3,15,31,17,318,39,10,,,39,14,,,39,42,48,147,,0*6E
$GPGSV,4,4,15,50,45,139,,40,11,257,,41,34,237,,0*5E
$GBGSV,1,1,01,32,13,210,,0*46
$GAGSV,1,1,00,0*74

,,,,,,,,,,,,,1.86,1.04,1.54,3*09
$GPGSV,4,1,15,02,34,049,39,05,67,049,39,09,30,166,40,12,57,067,39,0*60
$GPGSV,4,2,15,21,12,200,39,24,49,173,40,29,55,281,40,30,59,344,40,0*69
$GPGSV,4,3,15,31,17,318,39,10,,,39,14,,,40,42,48,147,,0*60
$GPGSV,4,4,15,50,45,139,,40,11,257,,41,34,237,,0*5E
$GBGSV,1,1,01,32,13,210,,0*46
$GAGSV,1,1,00,0*74

$GNRMC,140217.00,A,3113.99904,N,12130.89013,E,28.230,272.86,010620,,,A,V*33
$GNGGA,140217.00,3113.99904,N,12130.89013,E,1,09,1.04,49.3,M,,M,,*60
$GNGSA,A,3,02,05,09,21,24,29,31,12,30,,,,1.86,1.04,1.54,1*09
$GNGSA,A,3,,,,,,,,,,,,,1.86,1.04,1.54,4*0E
$GNGSA,A,3,,,,,,,,,,,,,1.86,1.04,1.54,3*09
$GPGSV,4,1,15,02,33,049,36,
05,67,049,38,09,30,166,39,12,57,067,37,0*69
$GPGSV,4,2,15,21,12,200,37,24,49,173,39,29,55,281,37,30,59,344,40,0*69
$GPGSV,4,3,15,31,17,318,38,10,,,35,14,,,36,42,48,147,,0*6C
$GPGSV,4,4,15,50,45,139,,40,11,257,,41,34,237,,0*5E
$GBGSV,1,1,01,32,13,210,,0*46
$GAGSV,1,1,00,0*74

$GNRMC,140218.00,A,3113.99943,N,12130.87620,E,55.773,270.98,010620,,,A,V*32
$GNGGA,140218.00,3113.99943,N,12130.87620,E,1,09,1.04,50.2,M,,M,,*6D
$GNGSA,A,3,02,05,09,21,24,29,31,12,30,,,,1.86,1.04,1.54,1*09
$GNGSA,A,3,,,,,,,,,,,,,1.86,1.04,1.54,4*0E
$GNGSA,A,3,,,,,,,,,,,,,1.86,1.04,1.54,3*09
$GPGSV,4,1,15,02,33,049,38,05,67,049,40,09,30,166,40,12,57,06
7,39,0*68
$GPGSV,4,2,15,21,12,200,40,24,49,173,40,29,55,281,39,30,59,344,39,0*67
$GPGSV,4,3,15,31,17,318,38,10,,,34,14,,,33,42,48,147,,0*68
$GPGSV,4,4,15,50,45,139,,40,11,257,,41,34,237,,0*5E
$GBGSV,1,1,01,32,13,210,,0*46
$GAGSV,1,1,00,0*74

1.54,3*09
$GPGSV,4,1,15,02,33,049,38,05,67,049,40,09,30,166,39,12,57,067,40,0*68
$GPGSV,4,2,15,21,12,200,40,24,49,173,39,29,55,281,39,30,59,344,39,0*69
$GPGSV,4,3,15,31,17,318,39,10,,,34,14,,,34,42,48,147,,0*6E
$GPGSV,4,4,15,50,45,139,,40,11,257,,41,34,237,,0*5E
$GBGSV,1,1,01,32,13,210,,0*46
$GAGSV,1,1,00,0*74

$GNRMC,140220.00,A,3113.99950,N,12130.82107,E,112.078,269.52,010620,,,A,V*0C
$GNGGA,140220.00,3113.99950,N,12130.82107,E,1,09,1.04,50.8,M,,M,,*69
$GNGSA,A,3,02,05,09,21,24,29,31,12,30,,,,1.86,1.04,1.54,1*09
$GNGSA,A,3,,,,,,,,,,,,,1.86,1.04,1.54,4*0E
$GNGSA,A,3,,,,,,,,,,,,,1.86,1.04,1.54,3*09
$GPGSV,4,1,15,02,33,049,39,05,67,049,39,09,30,166,40,12,57,067,39,0*67
$GPG
SV,4,2,15,21,12,200,40,24,49,173,39,29,55,281,39,30,59,344,40,0*67
$GPGSV,4,3,15,31,17,318,38,10,,,35,14,,,34,42,48,147,,0*6E
$GPGSV,4,4,15,50,45,139,,40,11,257,,41,34,237,,0*5E
$GBGSV,1,1,01,32,13,210,,0*46
$GAGSV,1,1,00,0*74

$GNRMC,140221.00,A,3113.99931,N,12130.78022,E,138.651,269.60,010620,,,A,V*0D
$GNGGA,140221.00,3113.99931,N,12130.78022,E,1,09,1.04,50.9,M,,M,,*6D
$GNGSA,A,3,02,05,09,21,24,29,31,12,30,,,,1.86,1.04,1.54,1*09
$GNGSA,A,3,,,,,,,,,,,,,1.86,1.04,1.54,4*0E
$GNGSA,A,3,,,,,,,,,,,,,1.86,1.04,1.54,3*09
$GPGSV,4,1,15,02,33,049,38
,05,67,049,39,09,30,166,40,12,57,067,39,0*66
$GPGSV,4,2,15,21,12,200,40,24,49,173,40,29,55,281,39,30,59,344,40,0*69
$GPGSV,4,3,15,31,17,318,39,10,,,34,14,,,33,42,48,147,,0*69
$GPGSV,4,4,15,50,45,139,,40,11,257,,41,34,237,,0*5E
$GBGSV,1,1,01,32,13,210,,0*46
$GAGSV,1,1,00,0*74

$GNRMC,140222.00,A,3113.99912,N,12130.73088,E,164.335,269.60,010620,,,A,V*0A
$GNGGA,140222.00,3113.99912,N,12130.73088,E,1,09,1.04,51.4,M,,M,,*68
$GNGSA,A,3,02,05,09,21,24,29,31,12,30,,,,1.86,1.04,1.54,1*09
$GNGSA,A,3,,,,,,,,,,,,,1.86,1.04,1.54,4*0E
$GNGSA,A,3,,,,,,,,,,,,,1.86,1.04,1.54,3*09
$GPGSV,4,1,15,02,33,049,39,05,67,049,40,09,30,166,39,12,57,067,39,0*67
$GPGSV,4,2,15,2
1,12,200,40,24,49,173,40,29,55,281,39,30,59,344,40,0*69
$GPGSV,4,3,15,31,17,318,39,10,,,34,14,,,33,42,48,147,,0*69
$GPGSV,4,4,15,50,45,139,,40,11,257,,41,34,237,,0*5E
$GBGSV,1,1,01,32,13,210,,0*46
$GAGSV,1,1,00,0*74

$GNRMC,140223.00,A,3113.99844,N,12130.67398,E,186.905,268.46,010620,,,A,V*0E
$GNGGA,140223.00,3113.99844,N,12130.67398,E,1,09,1.04,50.6,M,,M,,*6F
$GNGSA,A,3,02,05,09,21,24,29,31,12,30,,,,1.86,1.04,1.54,1*09
$GNGSA,A,3,,,,,,,,,,,,,1.86,1.04,1.54,4*0E
$GNGSA,A,3,,,,,,,,,,,,,1.86,1.04,1.54,3*09
$GPGSV,4,1,15,02,33,049,39,05,67,049,39,09,30,166,40,12,57,067,
39,0*67
$GPGSV,4,2,15,21,12,200,39,24,49,173,40,29,55,281,38,30,59,344,40,0*66
$GPGSV,4,3,15,31,17,318,38,10,,,39,14,,,38,42,48,147,,0*6E
$GPGSV,4,4,15,50,45,139,,40,11,257,,41,34,237,,0*5E
$GBGSV,1,1,01,32,13,210,,0*46
$GAGSV,1,1,00,0*74

6,1.04,1.54,4*0E
$GNGSA,A,3,,,,,,,,,,,,,1.86,1.04,1.54,3*09
$GPGSV,4,1,15,02,33,049,40,05,67,049,39,09,30,166,40,12,57,067,39,0*69
$GPGSV,4,2,15,21,12,200,39,24,49,173,40,29,55,281,39,30,59,344,39,0*69
$GPGSV,4,3,15,31,17,318,39,10,,,40,14,,,40,42,48,147,,0*6E
$GPGSV,4,4,15,50,45,139,,40,11,257,,41,34,237,,0*5E
$GBGSV,1,1,01,32,13,210,,0*46
$GAGSV,1,1,00,0*74
$GNRMC,140225.00,A,3113.99904,N,12130.57137,E,161.914,270.03,010620,,,A,V*08
$GNGGA,140225.00,3113.99904,N,12130.57137,E,1,09,1.04,50.9,M,,M,,*67
$GNGSA,A,3,02,05,09,21,24,29,31,12,30,,,,1.86,1.04,1.54,1*09
$GNGSA,A,3,,,,,,,,,,,,,1.86,1.04,1.54,4*0E
$GNGSA,A,3,,,,,,,,,,,,,1.86,1.04,1.54,3*09
$GPGSV,4,1,15,02,33,049,39,05,67,049,39,09,
30,166,39,12,57,067,39,0*69
$GPGSV,4,2,15,21,12,200,40,24,49,173,40,29,55,281,39,30,59,344,40,0*69
$GPGSV,4,3,15,31,17,318,40,10,,,39,14,,,40,42,48,147,,0*6E
$GPGSV,4,4,15,50,45,139,,40,11,257,,41,34,237,,0*5E
$GBGSV,1,1,01,32,13,210,,0*46
$GAGSV,1,1,00,0*74

86,1.04,1.54,4*0E
$GNGSA,A,3,,,,,,,,,,,,,1.86,1.04,1.54,3*09
$GPGSV,4,1,15,02,33,049,40,05,67,049,39,09,30,166,40,12,57,067,40,0*67
$GPGSV,4,2,15,21,12,200,40,24,49,173,39,29,55,281,39,30,59,344,40,0*67
$GPGSV,4,3,15,31,17,318,39,10,,,39,14,,,39,42,48,147,,0*6E
$GPGSV,4,4,15,50,45,139,,40,11,257,,41,34,237,,0*5E
$GBGSV,1,1,01,32,13,210,,0*46
$GAGSV,1,1,00,0*74
6,1.04,1.54,3*09
$GPGSV,4,1,15,02,33,049,39,05,67,049,39,09,30,166,40,12,57,067,39,0*67
$GPGSV,4,2,15,21,13,200,39,24,49,173,39,29,55,281,40,30,59,344,40,0*66
$GPGSV,4,3,15,31,17,318,40,10,,,39,14,,,40,42,48,147,,0*6E
$GPGSV,4,4,15,50,45,139,,40,11,257,,41,34,237,,0*5E
$GBGSV,1,1,01,32,13,210,,0*46
$GAGSV,1,1,00,0*74

,4*0E
$GNGSA,A,3,,,,,,,,,,,,,1.86,1.04,1.54,3*09
$GPGSV,4,1,15,02,33,049,39,05,67,049,39,09,30,166,40,12,57,067,39,0*67
$GPGSV,4,2,15,21,13,200,40,24,49,173,40,29,55,281,39,30,59,344,39,0*66
$GPGSV,4,3,15,31,17,318,41,10,,,39,14,,,40,42,48,147,,0*6F
$GPGSV,4,4,15,50,45,139,,40,11,257,,41,34,237,,0*5E
$GBGSV,1,1,01,32,13,210,,0*46
$GAGSV,1,1,00,0*74
SV,4,1,15,02,33,049,40,05,67,049,40,09,30,166,39,12,57,067,39,0*69
$GPGSV,4,2,15,21,13,200,39,24,49,173,40,29,55,281,39,30,59,344,39,0*68
$GPGSV,4,3,15,31,17,318,39,10,,,39,14,,,39,42,48,147,,0*6E
$GPGSV,4,4,15,50,45,139,,40,11,257,,41,34,237,,0*5E
$GBGSV,1,1,01,32,13,210,,0*46
$GAGSV,1,1,00,0*74

$GNRMC,140230.00,A,3113.99917,N,12130.30834,E,162.237,269.98,010620,,,A,V*06
$GNGGA,140230.00,3113.99917,N,12130.30834,E,1,09,1.04,50.9,M,,M,,*6A
$GNGSA,A,3,02,05,09,21,24,29,31,12,30,,,,1.86,1.04,1.54,1*09
$GNGSA,A,3,,,,,,,,,,,,,1.86,1.04,1.54,4*0E
$GNGSA,A,3,,,,,,,,,,,,,1.86,1.04,1.54,3*09
$GPGSV,4,1,15,02,33,049,39,05,67,049,39,09,30,166,38,12,57,067,40,0*66
$GPGSV,4,2,15,21,13,2
00,40,24,49,173,40,29,55,281,39,30,59,344,39,0*66
$GPGSV,4,3,15,31,17,318,39,10,,,40,14,,,39,42,48,147,,0*60
$GPGSV,4,4,15,50,45,139,,40,11,257,,41,34,237,,0*5E
$GBGSV,1,1,01,32,13,210,,0*46
$GAGSV,1,1,00,0*74


$GNGSA,A,3,,,,,,,,,,,,,1.86,1.04,1.54,3*09
$GPGSV,4,1,15,02,33,049,39,05,67,050,40,09,30,166,39,12,57,067,40,0*61
$GPGSV,4,2,15,21,13,200,40,24,49,173,39,29,55,281,39,30,59,344,40,0*66
$GPGSV,4,3,15,31,17,318,39,10,,,39,14,,,40,42,48,147,,0*60
$GPGSV,4,4,15,50,45,139,,40,11,257,,41,34,237,,0*5E
$GBGSV,1,1,01,32,13,210,,0*46
$GAGSV,1,1,00,0*74

$GNRMC,140232.00,A,3113.99923,N,12130.20332,E,162.002,270.00,010620,,,A,V*02
$GNGGA,140232.00,3113.99923,N,12130.20332,E,1,09,1.04,50.8,M,,M,,*62
$GNGSA,A,3,02,05,09,21,24,29,31,12,30,,,,1.86,1.04,1.54,1*09
$GNGSA,A,3,,,,,,,,,,,,,1.86,1.04,1.54,4*0E
$GNGSA,A,3,,,,,,,,,,,,,1.86,1.04,1.54,3*09
$GPGSV,4,1,15,02,33,049,40,05,67,050,39
,09,30,166,39,12,57,067,39,0*6F
$GPGSV,4,2,15,21,13,200,39,24,49,173,40,29,55,281,39,30,59,344,39,0*68
$GPGSV,4,3,15,31,17,318,40,10,,,40,14,,,39,42,48,147,,0*6E
$GPGSV,4,4,15,50,45,139,,40,11,257,,41,34,237,,0*5E
$GBGSV,1,1,01,32,13,210,,0*46
$GAGSV,1,1,00,0*74

$GNRMC,140233.00,A,3113.99933,N,12130.15143,E,157.540,270.08,010620,,,A,V*0D
$GNGGA,140233.00,3113.99933,N,12130.15143,E,1,09,1.04,50.9,M,,M,,*61
$GNGSA,A,3,02,05,09,21,24,29,31,12,30,,,,1.86,1.04,1.54,1*09
$GNGSA,A,3,,,,,,,,,,,,,1.86,1.04,1.54,4*0E
$GNGSA,A,3,,,,,,,,,,,,,1.86,1.04,1.54,3*09
$GPGSV,4,1,15,02,33,049
,39,05,67,050,39,09,30,166,39,12,57,067,39,0*61
$GPGSV,4,2,15,21,13,200,40,24,49,173,40,29,56,281,40,30,59,344,39,0*6B
$GPGSV,4,3,15,31,17,318,39,10,,,38,14,,,37,42,48,147,,0*61
$GPGSV,4,4,15,50,45,139,,40,11,257,,41,34,237,,0*5E
$GBGSV,1,1,01,32,13,210,,0*46
$GAGSV,1,1,00,0*74

4*0E
$GNGSA,A,3,,,,,,,,,,,,,1.86,1.04,1.54,3*09
$GPGSV,4,1,15,02,33,049,38,05,67,050,39,09,30,166,39,12,57,067,39,0*60
$GPGSV,4,2,15,21,13,200,39,24,49,173,39,29,56,281,39,30,59,344,40,0*6B
$GPGSV,4,3,15,31,17,318,38,10,,,34,14,,,34,42,48,147,,0*6F
$GPGSV,4,4,15,50,45,139,,40,11,257,,41,34,237,,0*5E
$GBGSV,1,1,01,32,13,210,,0*46
$GAGSV,1,1,00,0*74

,,,1.86,1.04,1.54,3*09
$GPGSV,4,1,15,02,33,049,38,05,67,050,39,09,30,166,40,12,57,068,40,0*6F
$GPGSV,4,2,15,21,13,200,40,24,49,173,39,29,56,281,39,30,59,344,39,0*6B
$GPGSV,4,3,15,31,17,318,38,10,,,34,14,,,34,42,48,147,,0*6F
$GPGSV,4,4,15,50,45,139,,40,11,257,,41,34,237,,0*5E
$GBGSV,1,1,01,32,13,210,,0*46
$GAGSV,1,1,00,0*74

,,,,,,,,1.86,1.04,1.54,3*09
$GPGSV,4,1,15,02,33,049,38,05,67,050,39,09,30,166,40,12,57,068,40,0*6F
$GPGSV,4,2,15,21,13,200,39,24,49,173,39,29,56,281,40,30,59,344,40,0*65
$GPGSV,4,3,15,31,17,318,38,10,,,34,14,,,33,42,48,147,,0*68
$GPGSV,4,4,15,50,45,139,,40,11,257,,41,34,237,,0*5E
$GBGSV,1,1,01,32,13,210,,0*46
$GAGSV,1,1,00,0*74

$GNRMC,140237.00,A,3113.99928,N,12130.02048,E,46.993,270.13,010620,,,A,V*36
$GNGGA,140237.00,3113.99928,N,12130.02048,E,1,09,1.04,53.3,M,,M,,*6A
$GNGSA,A,3,02,05,09,21,24,29,31,12,30,,,,1.86,1.04,1.54,1*09
$GNGSA,A,3,,,,,,,,,,,,,1.86,1.04,1.54,4*0E
$GNGSA,A,3,,,,,,,,,,,,,1.86,1.04,1.54,3*09
$GPGSV,4,1,15,02,3
3,049,39,05,67,050,39,09,30,166,39,12,57,068,39,0*6E
$GPGSV,4,2,15,21,13,200,40,24,49,173,39,29,56,281,39,30,59,344,39,0*6B
$GPGSV,4,3,15,31,17,318,38,10,,,34,14,,,34,42,48,147,,0*6F
$GPGSV,4,4,15,50,45,139,,40,11,257,,41,34,237,,0*5E
$GBGSV,1,1,01,32,13,210,,0*46
$GAGSV,1,1,00,0*74

.86,1.04,1.54,3*09
$GPGSV,4,1,15,02,33,049,38,05,67,050,40,09,30,166,39,12,57,068,39,0*61
$GPGSV,4,2,15,21,13,200,39,24,49,173,40,29,56,281,39,30,59,344,41,0*64
$GPGSV,4,3,15,31,17,318,38,10,,,34,14,,,34,42,48,147,,0*6F
$GPGSV,4,4,15,50,45,139,,40,11,257,,41,34,237,,0*5E
$GBGSV,1,1,01,32,13,210,,0*46
$GAGSV,1,1,00,0*74

,,,,,,,,,,,,,1.86,1.04,1.54,3*09
$GPGSV,4,1,15,02,33,049,39,05,67,050,39,09,30,166,38,12,57,068,38,0*6E
$GPGSV,4,2,15,21,13,200,40,24,49,173,39,29,56,281,38,30,59,344,39,0*6A
$GPGSV,4,3,15,31,17,318,36,10,,,38,14,,,38,42,48,147,,0*61
$GPGSV,4,4,15,50,45,139,,40,11,257,,41,34,237,,0*5E
$GBGSV,1,1,01,32,13,210,,0*46
$GAGSV,1,1,00,0*74

$GNRMC,140240.00,A,3114.00259,N,12130.00108,E,16.706,318.63,010620,,,A,V*34
$GNGGA,140240.00,3114.00259,N,12130.00108,E,1,09,1.04,53.3,M,,M,,*67
$GNGSA,A,3,02,05,09,21,24,29,31,12,30,,,,1.86,1.04,1.54,1*09
$GNGSA,A,3,,,,,,,,,,,,,1.86,1.04,1.54,4*0E
$GNGSA,A,3,,,,,,,,,,,,,1.86,1.04,1.54,3*09
$GPGSV,4,1,15,02,33,049,40,05,67,050,39,09,
30,166,40,12,57,068,39,0*6E
$GPGSV,4,2,15,21,13,200,39,24,49,173,39,29,56,281,39,30,59,344,39,0*65
$GPGSV,4,3,15,31,17,318,39,10,,,39,14,,,38,42,48,147,,0*6F
$GPGSV,4,4,15,50,45,139,,40,11,257,,41,34,237,,0*5E
$GBGSV,1,1,01,32,13,210,,0*46
$GAGSV,1,1,00,0*74

$GNRMC,140241.00,A,3114.00657,N,12129.99859,E,16.764,339.54,010620,,,A,V*39
$GNGGA,140241.00,3114.00657,N,12129.99859,E,1,09,1.04,53.2,M,,M,,*68
$GNGSA,A,3,02,05,09,21,24,29,31,12,30,,,,1.86,1.04,1.54,1*09
$GNGSA,A,3,,,,,,,,,,,,,1.86,1.04,1.54,4*0E
$GNGSA,A,3,,,,,,,,,,,,,1.86,1.04,1.54,3*09
$GPGSV,4,1,15,02,33,049,39,05,67,050,40,09,30,166,40,12,57,068,39,0*6E
$GPGSV,4,2,15,21,13,200,39,24,49,173,
39,29,56,282,39,30,59,344,39,0*66
$GPGSV,4,3,15,31,17,318,39,10,,,39,14,,,39,42,48,147,,0*6E
$GPGSV,4,4,15,50,45,139,,40,11,257,,41,34,237,,0*5E
$GBGSV,1,1,01,32,13,210,,0*46
$GAGSV,1,1,00,0*74

,1.04,1.54,3*09
$GPGSV,4,1,15,02,33,049,39,05,67,050,39,09,30,166,40,12,57,068,39,0*60
$GPGSV,4,2,15,21,13,200,39,24,49,173,40,29,56,282,39,30,59,344,39,0*68
$GPGSV,4,3,15,31,17,318,40,10,,,39,14,,,39,42,48,147,,0*60
$GPGSV,4,4,15,50,45,139,,40,11,257,,41,34,237,,0*5E
$GBGSV,1,1,01,32,13,210,,0*46
$GAGSV,1,1,00,0*74

$GNRMC,140243.00,A,3114.01949,N,12129.99841,E,40.705,1.64,010620,,,A,V*3C
$GNGGA,140243.00,3114.01949,N,12129.99841,E,1,09,1.04,53.0,M,,M,,*60
$GNGSA,A,3,02,05,09,21,24,29,31,12,30,,,,1.86,1.04,1.54,1*09
$GNGSA,A,3,,,,,,,,,,,,,1.86,1.04,1.54,4*0E
$GNGSA,A,3,,,,,,,,,,,,,1.86,1.04,1.54,3*09
$GPGSV,4,1,15,02,33,
049,38,05,67,050,39,09,30,166,35,12,57,068,39,0*63
$GPGSV,4,2,15,21,13,200,35,24,49,173,37,29,56,282,39,30,59,344,39,0*64
$GPGSV,4,3,15,31,17,318,36,10,,,37,14,,,39,42,48,147,,0*6F
$GPGSV,4,4,15,50,45,139,,40,11,257,,41,34,237,,0*5E
$GBGSV,1,1,01,32,13,210,,0*46
$GAGSV,1,1,00,0*74

0,1.79,3*0F
$GPGSV,4,1,15,02,33,049,39,05,67,050,40,09,30,166,20,12,57,068,39,0*68
$GPGSV,4,2,15,24,49,173,40,29,56,282,40,30,59,344,40,31,17,318,28,0*65
$GPGSV,4,3,15,21,13,200,,10,,,40,14,,,40,42,48,147,,0*69
$GPGSV,4,4,15,50,45,139,,40,11,257,,41,34,237,,0*5E
$GBGSV,1,1,01,32,13,210,,0*46
$GAGSV,1,1,00,0*74

,1.10,1.79,3*0F
$GPGSV,4,1,15,02,33,049,40,05,67,050,40,09,30,166,20,12,57,068,39,0*66
$GPGSV,4,2,15,24,49,173,40,29,56,282,40,30,59,344,39,31,17,318,30,0*62
$GPGSV,4,3,15,21,13,200,,10,,,39,14,,,39,42,48,147,,0*69
$GPGSV,4,4,15,50,45,139,,40,11,257,,41,34,237,,0*5E
$GBGSV,1,1,01,32,13,210,,0*46
$GAGSV,1,1,00,0*74

$GNRMC,140246.00,A,3114.09105,N,12129.99897,E,127.556,359.98,010620,,,A,V*03
$GNGGA,140246.00,3114.09105,N,12129.99897,E,1,09,1.04,52.1,M,,M,,*66
$GNGSA,A,3,02,05,09,21,24,29,31,12,30,,,,1.86,1.04,1.54,1*09
$GNGSA,A,3,,,,,,,,,,,,,1.86,1.04,1.54,4*0E
$GNGSA,A,3,,,,,,,,,,,,,1.86,1.04,1.54,3*09
$GPGSV,4,1,15,02,33,049,40,05,67,050,39,09,30,166,31,12,57
,068,40,0*66
$GPGSV,4,2,15,21,13,200,35,24,49,173,39,29,56,282,39,30,59,344,40,0*64
$GPGSV,4,3,15,31,17,318,35,10,,,40,14,,,40,42,48,147,,0*62
$GPGSV,4,4,15,50,45,139,,40,11,257,,41,34,237,,0*5E
$GBGSV,1,1,01,32,13,210,,0*46
$GAGSV,1,1,00,0*74

$GNRMC,140247.00,A,3114.13052,N,12129.99910,E,154.315,359.99,010620,,,A,V*00
$GNGGA,140247.00,3114.13052,N,12129.99910,E,1,09,1.04,52.0,M,,M,,*60
$GNGSA,A,3,02,05,09,21,24,29,31,12,30,,,,1.86,1.04,1.54,1*09
$GNGSA,A,3,,,,,,,,,,,,,1.86,1.04,1.54,4*0E
$GNGSA,A,3,,,,,,,,,,,,,1.86,1.04,1.54,3*09
$GPGSV,4,1,15,02,33,049,40,05,67,050,40,09,30,166,34,12,57,068,40,0*6D
$GPGSV,4,2,15,
21,13,200,32,24,49,173,39,29,56,282,40,30,59,344,40,0*6D
$GPGSV,4,3,15,31,17,318,29,10,,,39,14,,,40,42,48,147,,0*61
$GPGSV,4,4,15,50,45,139,,40,11,257,,41,34,237,,0*5E
$GBGSV,1,1,01,32,13,210,,0*46
$GAGSV,1,1,00,0*74

$GNRMC,140248.00,A,3114.17473,N,12129.99925,E,162.752,359.97,010620,,,A,V*06
$GNGGA,140248.00,3114.17473,N,12129.99925,E,1,09,1.04,51.4,M,,M,,*6D
$GNGSA,A,3,02,05,09,21,24,29,31,12,30,,,,1.86,1.04,1.54,1*09
$GNGSA,A,3,,,,,,,,,,,,,1.86,1.04,1.54,4*0E
$GNGSA,A,3,,,,,,,,,,,,,1.86,1.04,1.54,3*09
$GPGSV,4,1,1
5,02,33,049,40,05,67,050,39,09,30,166,39,12,57,068,40,0*6E
$GPGSV,4,2,15,21,13,200,25,24,49,173,40,29,56,282,38,30,59,344,39,0*64
$GPGSV,4,3,15,31,17,318,27,10,,,39,14,,,40,42,48,147,,0*6F
$GPGSV,4,4,15,50,45,139,,40,11,257,,41,34,237,,0*5E
$GBGSV,1,1,01,32,13,210,,0*46
$GAGSV,1,1,00,0*74


$GNGSA,A,3,,,,,,,,,,,,,1.86,1.04,1.54,3*09
$GPGSV,4,1,15,02,33,049,39,05,67,050,39,09,30,166,39,12,57,068,39,0*6E
$GPGSV,4,2,15,21,13,200,40,24,49,173,39,29,56,282,40,30,59,344,40,0*68
$GPGSV,4,3,15,31,17,318,39,10,,,40,14,,,40,42,48,147,,0*6E
$GPGSV,4,4,15,50,45,139,,40,11,257,,41,34,237,,0*5E
$GBGSV,1,1,01,32,13,210,,0*46
$GAGSV,1,1,00,0*74

$GNRMC,140250.00,A,3114.26598,N,12129.99933,E,162.040,0.02,010620,,,A,V*09
$GNGGA,140250.00,3114.26598,N,12129.99933,E,1,09,1.04,51.6,M,,M,,*67
$GNGSA,A,3,02,05,09,21,24,29,31,12,30,,,,1.86,1.04,1.54,1*09
$GNGSA,A,3,,,,,,,,,,,,,1.86,1.04,1.54,4*0E
$GNGSA,A,3,,,,,,,,,,,,,1.86,1.04,1.54,3*09
$GPGSV,4,1,15,02,33
,049,39,05,67,050,40,09,30,166,40,12,57,068,40,0*60
$GPGSV,4,2,15,21,13,200,39,24,49,173,39,29,56,282,39,30,59,344,40,0*68
$GPGSV,4,3,15,31,17,318,40,10,,,40,14,,,40,42,48,147,,0*60
$GPGSV,4,4,15,50,45,139,,40,11,257,,41,34,237,,0*5E
$GBGSV,1,1,01,32,13,210,,0*46
$GAGSV,1,1,00,0*74

4,1.54,4*0E
$GNGSA,A,3,,,,,,,,,,,,,1.86,1.04,1.54,3*09
$GPGSV,4,1,15,02,33,049,40,05,67,050,39,09,30,166,39,12,57,068,39,0*60
$GPGSV,4,2,15,21,13,200,39,24,49,173,40,29,56,282,40,30,59,344,39,0*66
$GPGSV,4,3,15,31,17,318,39,10,,,40,14,,,40,42,48,147,,0*6E
$GPGSV,4,4,15,50,45,139,,40,11,257,,41,34,237,,0*5E
$GBGSV,1,1,01,32,13,210,,0*46
$
GAGSV,1,1,00,0*74

,3,,,,,,,,,,,,,1.42,0.81,1.16,3*0B
$GPGSV,4,1,15,02,33,049,40,05,67,050,39,09,30,166,40,10,09,109,40,0*6F
$GPGSV,4,2,15,12,57,068,39,14,13,264,40,21,13,200,39,24,49,173,40,0*62
$GPGSV,4,3,15,29,56,282,39,30,59,344,40,31,17,318,40,42,48,147,,0*66
$GPGSV,4,4,15,50,45,139,,40,11,257,,41,34,237,,0*5E
$GBGSV,1,1,01,32,13,210,,0*46
$GAGSV,1,1,00,0*74

,,,,,,,,,1.42,0.81,1.16,3*0B
$GPGSV,4,1,15,02,33,049,39,05,67,050,40,09,30,166,39,10,09,109,39,0*6F
$GPGSV,4,2,15,12,57,068,40,14,13,264,39,21,13,200,39,24,49,173,39,0*6C
$GPGSV,4,3,15,29,56,282,39,30,59,344,39,31,17,318,40,42,48,147,,0*68
$GPGSV,4,4,15,50,45,139,,40,11,257,,41,34,237,,0*5E
$GBGSV,1,1,01,32,13,210,,0*46
$GAGSV,1,1,00,0*74

,3*0B
$GPGSV,4,1,15,02,33,049,40,05,67,050,41,09,30,166,39,10,09,109,39,0*60
$GPGSV,4,2,15,12,57,068,39,14,13,264,40,21,13,200,39,24,49,173,39,0*6C
$GPGSV,4,3,15,29,56,282,39,30,59,344,40,31,17,318,39,42,48,147,,0*68
$GPGSV,4,4,15,50,45,139,,40,11,257,,41,34,237,,0*5E
$GBGSV,1,1,01,32,13,210,,0*46
$GAGSV,1,1,00,0*74

,,,,,,,,1.42,0.81,1.16,3*0B
$GPGSV,4,1,15,02,33,049,39,05,67,050,40,09,30,166,39,10,09,109,39,0*6F
$GPGSV,4,2,15,12,57,068,39,14,13,264,39,21,13,200,40,24,49,173,40,0*62
$GPGSV,4,3,15,29,56,282,40,30,60,344,40,31,17,318,40,42,48,147,,0*62
$GPGSV,4,4,15,50,45,139,,40,11,257,,41,34,237,,0*5E
$GBGSV,1,1,01,32,13,210,,0*46
$GAGSV,1,1,00,0*74

$GNRMC,140256.00,A,3114.48063,N,12129.99948,E,57.680,0.03,010620,,,A,V*36
$GNGGA,140256.00,3114.48063,N,12129.99948,E,1,11,0.81,50.5,M,,M,,*63
$GNGSA,A,3,02,05,09,10,14,21,24,29,31,12,30,,1.42,0.81,1.16,1*0F
$GNGSA,A,3,,,,,,,,,,,,,1.42,0.81,1.16,4*0C
$GNGSA,A,3,,,,,,,,,,,,,1.42,0.81,1.16,3*0B
$GPGSV,4,1,15,02,33,049,40,05,67,050,40,09,30,166,40,10,09,109,39,0*6F
$GPGSV,4,2,15,12,5
7,068,40,14,13,264,39,21,13,200,40,24,49,173,40,0*6C
$GPGSV,4,3,15,29,56,282,40,30,60,344,40,31,17,318,39,42,48,147,,0*6C
$GPGSV,4,4,15,50,45,139,,40,11,257,,41,34,237,,0*5E
$GBGSV,1,1,01,32,13,210,,0*46
$GAGSV,1,1,00,0*74


$GPGSV,4,1,15,02,33,049,40,05,67,050,39,09,30,166,39,10,09,109,40,0*61
$GPGSV,4,2,15,12,57,068,40,14,13,264,39,21,13,200,39,24,49,173,40,0*62
$GPGSV,4,3,15,29,56,282,40,30,60,344,39,31,17,318,39,42,48,147,,0*62
$GPGSV,4,4,15,50,45,139,,40,11,257,,41,34,237,,0*5E
$GBGSV,1,1,01,32,13,210,,0*46
$GAGSV,1,1,00,0*74

,,,,1.42,0.81,1.16,3*0B
$GPGSV,4,1,15,02,33,049,39,05,67,050,39,09,30,166,39,10,09,109,39,0*61
$GPGSV,4,2,15,12,57,068,39,14,13,264,40,21,13,200,40,24,49,173,39,0*62
$GPGSV,4,3,15,29,56,282,40,30,60,344,40,31,17,318,39,42,48,147,,0*6C
$GPGSV,4,4,15,50,45,139,,40,11,257,,41,34,237,,0*5E
$GBGSV,1,1,01,32,13,210,,0*46
$GAGSV,1,1,00,0*74

,,,,,,,,,1.42,0.81,1.16,3*0B
$GPGSV,4,1,15,02,33,049,39,05,67,050,39,09,30,166,40,10,09,109,39,0*6F
$GPGSV,4,2,15,12,57,068,39,14,13,264,40,21,13,200,40,24,49,173,39,0*62
$GPGSV,4,3,15,29,56,282,40,30,60,344,39,31,17,318,40,42,48,147,,0*6C
$GPGSV,4,4,15,50,45,139,,40,11,257,,41,34,237,,0*5E
$GBGSV,1,1,01,32,13,210,,0*46
$GAGSV,1,1,00,0*74

$GNRMC,140300.00,A,3114.50720,N,12130.00592,E,16.236,58.68,010620,,,A,V*02
$GNGGA,140300.00,3114.50720,N,12130.00592,E,1,11,0.81,50.0,M,,M,,*6E
$GNGSA,A,3,02,05,09,10,14,21,24,29,31,12,30,,1.42,0.81,1.16,1*0F
$GNGSA,A,3,,,,,,,,,,,,,1.42,0.81,1.16,4*0C
$GNGSA,A,3,,,,,,,,,,,,,1.42,0.81,1.16,3*0B
$GPGSV,4,1,15,02,33,049,39,05,67,050,39,09,30,166,39,10,09,109,39,0*61
$GPGSV,4,2,15,12,57,068,40,14,13,264,39,21,
13,200,40,24,49,173,40,0*6C
$GPGSV,4,3,15,29,56,282,40,30,60,344,39,31,17,318,39,42,48,147,,0*62
$GPGSV,4,4,15,50,45,139,,40,11,257,,41,34,237,,0*5E
$GBGSV,1,1,01,32,13,210,,0*46
$GAGSV,1,1,00,0*74

,,,,,,,,,,,,,1.42,0.81,1.16,3*0B
$GPGSV,4,1,15,02,33,049,40,05,67,050,40,09,30,166,39,10,09,109,40,0*6F
$GPGSV,4,2,15,12,57,068,39,14,13,264,40,21,13,200,40,24,49,173,40,0*6C
$GPGSV,4,3,15,29,56,282,40,30,60,344,39,31,17,318,40,42,48,147,,0*6C
$GPGSV,4,4,15,50,45,139,,40,11,257,,41,34,237,,0*5E
$GBGSV,1,1,01,32,13,210,,0*46
$GAGSV,1,1,00,0*74

,,,1.42,0.81,1.16,3*0B
$GPGSV,4,1,15,02,33,049,39,05,67,050,39,09,30,166,40,10,09,109,40,0*61
$GPGSV,4,2,15,12,57,068,40,14,13,264,39,21,13,200,40,24,49,173,39,0*62
$GPGSV,4,3,15,29,56,282,40,30,60,344,40,31,17,318,40,42,48,147,,0*62
$GPGSV,4,4,15,50,45,139,,40,11,257,,41,34,237,,0*5E
$GBGSV,1,1,01,32,13,210,,0*46
$GAGSV,1,1,00,0*74

$GNRMC,140303.00,A,3114.50893,N,12130.03353,E,57.139,90.12,010620,,,A,V*0E
$GNGGA,140303.00,3114.50893,N,12130.03353,E,1,11,0.81,49.9,M,,M,,*63
$GNGSA,A,3,02,05,09,10,14,21,24,29,31,12,30,,1.42,0.81,1.16,1*0F
$GNGSA,A,3,,,,,,,,,,,,,1.42,0.81,1.16,4*0C
$GNGSA,A,3,,,,,,,,,,,,,1.42,0.81,1.16,3*0B
$GPGSV,4
,1,15,02,33,049,36,05,67,050,39,09,30,166,39,10,09,109,34,0*63
$GPGSV,4,2,15,12,57,068,37,14,13,264,34,21,13,200,38,24,49,173,40,0*6E
$GPGSV,4,3,15,29,56,282,37,30,60,344,40,31,17,318,36,42,48,147,,0*63
$GPGSV,4,4,15,50,45,139,,40,11,257,,41,34,237,,0*5E
$GBGSV,1,1,01,32,13,210,,0*46
$GAGSV,1,1,00,0*74

$GNRMC,140304.00,A,3114.50895,N,12130.05656,E,85.023,89.98,010620,,,A,V*06
$GNGGA,140304.00,3114.50895,N,12130.05656,E,1,11,0.81,49.5,M,,M,,*68
$GNGSA,A,3,02,05,09,10,14,21,24,29,31,12,30,,1.42,0.81,1.16,1*0F
$GNGSA,A,3,,,,,,,,,,,,,1.42,0.81,1.16,4*0C
$GNGSA,A,3,,,,,,,,,,,,,1.42,0.81,1.16,3*0B
$GPGSV,4,1,15,02,33,049,38,05,67,050,39,09,30,166,39,10,09,109,35,0*6C
$GPG
SV,4,2,15,12,57,068,40,14,13,264,32,21,13,200,39,24,49,173,39,0*67
$GPGSV,4,3,15,29,56,282,39,30,60,344,39,31,17,318,38,42,48,147,,0*6D
$GPGSV,4,4,15,50,45,139,,40,11,257,,41,34,237,,0*5E
$GBGSV,1,1,01,32,13,210,,0*46
$GAGSV,1,1,00,0*74

0.81,1.16,4*0C
$GNGSA,A,3,,,,,,,,,,,,,1.42,0.81,1.16,3*0B
$GPGSV,4,1,15,02,33,049,38,05,67,050,39,09,30,166,39,10,09,109,34,0*6D
$GPGSV,4,2,15,12,57,068,39,14,13,264,34,21,13,200,39,24,49,173,39,0*6F
$GPGSV,4,3,15,29,56,282,39,30,60,344,40,31,17,318,39,42,48,147,,0*62
$GPGSV,4,4,15,50,45,139,,40,11,257,,41,34,237,,0*5E
$GBGSV,1,1,01,32,13,210,,0*46
$GAGSV,1,1,0
$GNRMC,140306.00,A,3114.50914,N,12130.12970,E,139.089,89.80,010620,,,A,V*3E
$GNGGA,140306.00,3114.50914,N,12130.12970,E,1,11,0.81,50.1,M,,M,,*63
$GNGSA,A,3,02,05,09,10,14,21,24,29,31,12,30,,1.42,0.81,1.16,1*0F
$GNGSA,A,3,,,,,,,,,,,,,1.42,0.81,1.16,4*0C
$GNGSA,A,3,,,,,,,,,,,,,1.42,0.81,1.16,3*0B
$GPGSV,4,1,15,02,33,049,39,05,67,050,39,09,
30,166,40,10,09,109,34,0*62
$GPGSV,4,2,15,12,57,068,40,14,13,264,33,21,13,200,40,24,49,173,39,0*68
$GPGSV,4,3,15,29,56,282,39,30,60,344,40,31,17,318,39,42,48,147,,0*62
$GPGSV,4,4,15,50,45,139,,40,11,257,,41,34,237,,0*5E
$GBGSV,1,1,01,32,13,210,,0*46
$GAGSV,1,1,00,0*74

$GNRMC,140307.00,A,3114.50926,N,12130.17916,E,164.536,89.83,010620,,,A,V*31
$GNGGA,140307.00,3114.50926,N,12130.17916,E,1,11,0.81,50.2,M,,M,,*65
$GNGSA,A,3,02,05,09,10,14,21,24,29,31,12,30,,1.42,0.81,1.16,1*0F
$GNGSA,A,3,,,,,,,,,,,,,1.42,0.81,1.16,4*0C
$GNGSA,A,3,,,,,,,,,,,,,1.42,0.81,1.16,3*0B
$GPGSV,4,1,15,02,33,049,39,05,67,050,40,09,30,166,39,10,09,109,34,0*62
$GPGSV,4,2,15,12,57,068,40,1
4,13,264,34,21,13,200,40,24,49,173,39,0*6F
$GPGSV,4,3,15,29,56,282,39,30,60,344,39,31,17,318,39,42,48,147,,0*6C
$GPGSV,4,4,15,50,45,139,,40,11,257,,41,34,237,,0*5E
$GBGSV,1,1,01,32,13,210,,0*46
$GAGSV,1,1,00,0*74

0.81,1.16,4*0C
$GNGSA,A,3,,,,,,,,,,,,,1.42,0.81,1.16,3*0B
$GPGSV,4,1,15,02,33,049,39,05,67,050,40,09,30,166,40,10,09,109,38,0*60
$GPGSV,4,2,15,12,57,068,39,14,13,264,38,21,13,200,39,24,49,173,39,0*63
$GPGSV,4,3,15,29,56,282,38,30,60,344,39,31,17,318,39,42,48,147,,0*6D
$GPGSV,4,4,15,50,45,139,,40,11,257,,41,34,237,,0*5E
$GBGSV,1,1,01,32,13,209,,0*4E
$GAGSV,1,1
1.16,4*0C
$GNGSA,A,3,,,,,,,,,,,,,1.42,0.81,1.16,3*0B
$GPGSV,4,1,15,02,33,049,39,05,67,050,39,09,30,166,40,10,09,109,40,0*61
$GPGSV,4,2,15,12,57,068,40,14,13,264,40,21,13,200,40,24,49,173,39,0*6C
$GPGSV,4,3,15,29,56,282,40,30,60,344,39,31,17,318,39,42,48,147,,0*62
$GPGSV,4,4,15,50,45,139,,40,11,257,,41,34,237,,0*5E
$GBGSV,1,1,01,32,13,209,,0*4E
$GAG
$GNRMC,140310.00,A,3114.50940,N,12130.33798,E,162.039,89.98,010620,,,A,V*3F
$GNGGA,140310.00,3114.50940,N,12130.33798,E,1,11,0.81,49.3,M,,M,,*64
$GNGSA,A,3,02,05,09,10,14,21,24,29,31,12,30,,1.42,0.81,1.16,1*0F
$GNGSA,A,3,,,,,,,,,,,,,1.42,0.81,1.16,4*0C
$GNGSA,A,3,,,,,,,,,,,,,1.42,0.81,1.16,3*0B
$GPGSV,4,1,15,02,33,049,39,05,67,050,40,09,
30,166,40,10,09,109,40,0*6F
$GPGSV,4,2,15,12,57,068,40,14,13,264,40,21,13,200,40,24,49,173,40,0*62
$GPGSV,4,3,15,29,56,282,40,30,60,344,40,31,17,318,39,42,48,147,,0*6C
$GPGSV,4,4,15,50,45,139,,40,11,257,,41,34,237,,0*5E
$GBGSV,1,1,01,32,13,209,,0*4E
$GAGSV,1,1,00,0*74

C
$GNGSA,A,3,,,,,,,,,,,,,1.42,0.81,1.16,3*0B
$GPGSV,4,1,15,02,33,049,40,05,67,050,39,09,30,166,40,10,09,109,40,0*6F
$GPGSV,4,2,15,12,57,068,40,14,13,264,40,21,13,200,40,24,49,173,39,0*6C
$GPGSV,4,3,15,29,56,282,39,30,60,344,40,31,17,318,39,42,48,147,,0*62
$GPGSV,4,4,15,50,45,139,,40,11,257,,41,34,237,,0*5E
$GBGSV,1,1,01,32,13,209,,0*4E
$GAGSV,1,1,00
$GNRMC,140312.00,A,3114.50931,N,12130.44326,E,161.974,90.03,010620,,,A,V*33
$GNGGA,140312.00,3114.50931,N,12130.44326,E,1,11,0.81,49.4,M,,M,,*66
$GNGSA,A,3,02,05,09,10,14,21,24,29,31,12,30,,1.42,0.81,1.16,1*0F
$GNGSA,A,3,,,,,,,,,,,,,1.42,0.81,1.16,4*0C
$GNGSA,A,3,,,,,,,,,,,,,1.42,0.81,1.16,3*0B
$GPGSV,4,1,15,02,33,049,39,05,67,050,39,09,30,166,39,10,09,109,40,0*6F
$GPGSV,4,2,15,12,57,06
8,40,14,13,264,39,21,13,200,40,24,49,173,40,0*6C
$GPGSV,4,3,15,29,56,282,40,30,60,344,39,31,17,318,39,42,48,147,,0*62
$GPGSV,4,4,15,50,45,139,,40,11,257,,41,34,237,,0*5E
$GBGSV,1,1,01,32,13,209,,0*4E
$GAGSV,1,1,00,0*74

.42,0.81,1.16,4*0C
$GNGSA,A,3,,,,,,,,,,,,,1.42,0.81,1.16,3*0B
$GPGSV,4,1,15,02,33,049,39,05,67,050,39,09,30,166,40,10,09,109,40,0*61
$GPGSV,4,2,15,12,57,068,40,14,13,264,39,21,13,200,40,24,49,173,40,0*6C
$GPGSV,4,3,15,29,56,282,39,30,60,344,39,31,17,318,39,42,48,147,,0*6C
$GPGSV,4,4,15,50,45,139,,40,11,257,,41,34,237,,0*5E
$GBGSV,1,1,01,32,13,209,,0
*4E
$GAGSV,1,1,00,0*74

C
$GNGSA,A,3,,,,,,,,,,,,,1.42,0.81,1.16,3*0B
$GPGSV,4,1,15,02,33,049,39,05,67,050,40,09,30,167,40,10,09,109,39,0*60
$GPGSV,4,2,15,12,57,068,40,14,13,264,40,21,13,200,39,24,49,173,40,0*6C
$GPGSV,4,3,15,29,56,282,39,30,60,344,40,31,17,318,40,42,48,147,,0*6C
$GPGSV,4,4,15,50,45,139,,40,11,257,,41,34,237,,0*5E
$GBGSV,1,1,01,32,13,209,,0*4E
$GAGSV,1,1,
3,,,,,,,,,,,,,1.42,0.81,1.16,3*0B
$GPGSV,4,1,15,02,33,049,39,05,67,050,39,09,30,167,39,10,09,109,40,0*6E
$GPGSV,4,2,15,12,57,068,39,14,13,264,40,21,13,200,40,24,49,173,40,0*6C
$GPGSV,4,3,15,29,56,282,40,30,60,344,39,31,17,318,40,42,48,147,,0*6C
$GPGSV,4,4,15,50,45,139,,40,11,257,,41,34,237,,0*5E
$GBGSV,1,1,01,32,13,209,,0*4E
$GAGSV,1,1,00,0*74

$GNRMC,140316.00,A,3114.50929,N,12130.65349,E,161.976,90.04,010620,,,A,V*31
$GNGGA,140316.00,3114.50929,N,12130.65349,E,1,11,0.81,49.1,M,,M,,*64
$GNGSA,A,3,02,05,09,10,14,21,24,29,31,12,30,,1.42,0.81,1.16,1*0F
$GNGSA,A,3,,,,,,,,,,,,,1.42,0.81,1.16,4*0C
$GNGSA,A,3,,,,,,,,,,,,,1.42,0.81,1.16,3*0B
$GPGSV,4,1,15,02,33,049,40,05,67,050,40,09,30,167,39,10,09,109,40,0*6E
$
GPGSV,4,2,15,12,57,068,40,14,13,264,40,21,13,200,39,24,49,173,39,0*62
$GPGSV,4,3,15,29,56,282,40,30,60,344,39,31,17,318,40,42,48,147,,0*6C
$GPGSV,4,4,15,50,45,139,,40,11,257,,41,34,237,,0*5E
$GBGSV,1,1,01,32,13,209,,0*4E
$GAGSV,1,1,00,0*74

$GNRMC,140317.00,A,3114.50922,N,12130.70600,E,162.170,90.06,010620,,,A,V*38
$GNGGA,140317.00,3114.50922,N,12130.70600,E,1,11,0.81,49.1,M,,M,,*62
$GNGSA,A,3,02,05,09,10,14,21,24,29,31,12,30,,1.42,0.81,1.16,1*0F
$GNGSA,A,3,,,,,,,,,,,,,1.42,0.81,1.16,4*0C
$GNGSA,A,3,,,,,,,,,,,,,1.42,0.81,1.16,3*0B
$GPGSV,4,1,15,02,33,049,39,05,67,050,39,09,30,167,39,10,09,109,39,0*60
$GPGSV,4,2,15,12,57,068,39
,14,13,264,40,21,13,200,40,24,49,173,40,0*6C
$GPGSV,4,3,15,29,56,282,39,30,60,344,39,31,17,318,40,42,48,147,,0*62
$GPGSV,4,4,15,50,45,139,,40,11,257,,41,34,237,,0*5E
$GBGSV,1,1,01,32,13,209,,0*4E
$GAGSV,1,1,00,0*74

.42,0.81,1.16,3*0B
$GPGSV,4,1,15,02,33,049,39,05,67,051,38,09,30,167,39,10,09,109,37,0*6E
$GPGSV,4,2,15,12,57,068,40,14,13,264,37,21,13,200,40,24,49,173,39,0*6C
$GPGSV,4,3,15,29,56,282,39,30,60,344,39,31,17,318,39,42,48,147,,0*6C
$GPGSV,4,4,15,50,45,139,,40,11,257,,41,34,237,,0*5E
$GBGSV,1,1,01,32,13,209,,0*4E
$GAGSV,1,1,00,0*74

$GNRMC,140319.00,A,3114.50934,N,12130.80413,E,131.053,89.58,010620,,,A,V*3B
$GNGGA,140319.00,3114.50934,N,12130.80413,E,1,11,0.81,48.2,M,,M,,*66
$GNGSA,A,3,02,05,09,10,14,21,24,29,31,12,30,,1.42,0.81,1.16,1*0F
$GNGSA,A,3,,,,,,,,,,,,,1.42,0.81,1.16,4*0C
$GNGSA,A,3,,,,,,,,,,,,,1.42,0.81,1.16,3*0B
$GPGSV,4,1,15,02,33,049,37,05,67,051,39,09,30,167,40,10,09,109,33,0*6B
$GPGSV,4,2,15,12,57,068,39,14,13,2
64,34,21,13,200,39,24,49,173,39,0*6F
$GPGSV,4,3,15,29,56,282,40,30,60,344,40,31,17,318,38,42,48,147,,0*6D
$GPGSV,4,4,15,50,45,139,,40,11,257,,41,34,237,,0*5E
$GBGSV,1,1,01,32,13,209,,0*4E
$GAGSV,1,1,00,0*74


$GNGSA,A,3,,,,,,,,,,,,,1.42,0.81,1.16,3*0B
$GPGSV,4,1,15,02,33,049,39,05,67,051,39,09,30,167,40,10,09,109,35,0*63
$GPGSV,4,2,15,12,57,068,40,14,13,264,34,21,13,200,40,24,49,173,39,0*6F
$GPGSV,4,3,15,29,56,282,39,30,60,344,40,31,17,318,38,42,48,147,,0*63
$GPGSV,4,4,15,50,45,139,,40,11,257,,41,34,237,,0*5E
$GBGSV,1,1,01,32,13,209,,0*4E
$GAGSV,1,1,00,
SA,A,3,,,,,,,,,,,,,1.42,0.81,1.16,3*0B
$GPGSV,4,1,15,02,33,049,38,05,67,051,39,09,30,167,40,10,09,109,34,0*63
$GPGSV,4,2,15,12,57,068,40,14,13,264,34,21,13,200,39,24,49,173,39,0*61
$GPGSV,4,3,15,29,56,282,39,30,60,344,40,31,17,318,38,42,48,147,,0*63
$GPGSV,4,4,15,50,45,139,,40,11,257,,41,34,237,,0*5E
$GBGSV,1,1,01,32,13,209,,0*4E
$GAGSV,1,1,00,0*74

$GNRMC,140322.00,A,3114.50937,N,12130.88744,E,45.542,89.86,010620,,,A,V*0D
$GNGGA,140322.00,3114.50937,N,12130.88744,E,1,11,0.81,48.0,M,,M,,*66
$GNGSA,A,3,02,05,09,10,14,21,24,29,31,12,30,,1.42,0.81,1.16,1*0F
$GNGSA,A,3,,,,,,,,,,,,,1.42,0.81,1.16,4*0C
$GNGSA,A,3,,,,,,,,,,,,,1.42,0.81,1.16,3*0B
$GPGSV,4,1,15,02,33,049,38,05,67,051,39,09,30,167,39,10,09,109,34,0*6D
$GPGSV,4,2,15,12,57,068,4
0,14,13,264,33,21,13,200,40,24,49,173,40,0*66
$GPGSV,4,3,15,29,56,282,39,30,60,344,39,31,17,318,38,42,48,147,,0*6D
$GPGSV,4,4,15,50,45,139,,40,11,257,,41,34,237,,0*5E
$GBGSV,1,1,01,32,13,209,,0*4E
$GAGSV,1,1,00,0*74

GNGSA,A,3,,,,,,,,,,,,,1.79,0.97,1.50,3*06
$GPGSV,4,1,15,02,33,049,39,05,67,051,39,09,30,167,40,12,57,068,39,0*60
$GPGSV,4,2,15,14,13,264,24,21,13,200,39,24,49,173,39,29,56,282,39,0*61
$GPGSV,4,3,15,30,60,344,39,31,17,318,39,10,09,109,,42,48,147,,0*66
$GPGSV,4,4,15,50,45,139,,40,11,257,,41,34,237,,0*5E
$GBGSV,1,1,01,32,13,209,,0*4E
$GAGSV,1,1,00,0*74
,1.54,3*09
$GPGSV,4,1,15,02,33,049,40,05,67,051,40,09,30,167,39,12,57,068,39,0*6E
$GPGSV,4,2,15,21,13,200,40,24,49,173,39,29,56,282,39,30,60,344,40,0*6C
$GPGSV,4,3,15,31,17,318,40,10,09,109,,14,13,264,,42,48,147,,0*63
$GPGSV,4,4,15,50,45,139,,40,11,257,,41,34,237,,0*5E
$GBGSV,1,1,01,32,13,209,,0*4E
$GAGSV,1,1,00,0*74

$GNRMC,140325.00,A,3114.50594,N,12130.90610,E,16.240,137.22,010620,,,A,V*3F
$GNGGA,140325.00,3114.50594,N,12130.90610,E,1,11,0.81,48.6,M,,M,,*6B
$GNGSA,A,3,02,05,09,10,14,21,24,29,31,12,30,,1.42,0.81,1.16,1*0F
$GNGSA,A,3,,,,,,,,,,,,,1.42,0.81,1.16,4*0C
$GNGSA,A,3,,,,,,,,,,,,,1.42,0.81,1.16,3*0B
$GPGSV,4,1,15,02,33,049,39,05,67,051,39,09,30,16
7,40,10,09,109,40,0*61
$GPGSV,4,2,15,12,57,068,39,14,13,264,39,21,13,200,39,24,49,173,40,0*6C
$GPGSV,4,3,15,29,56,282,39,30,60,344,39,31,17,318,39,42,48,147,,0*6C
$GPGSV,4,4,15,50,45,139,,40,11,257,,41,34,237,,0*5E
$GBGSV,1,1,01,32,13,209,,0*4E
$GAGSV,1,1,00,0*74

,A,3,,,,,,,,,,,,,1.42,0.81,1.16,3*0B
$GPGSV,4,1,15,02,33,049,39,05,67,051,40,09,30,167,40,10,09,109,39,0*61
$GPGSV,4,2,15,12,57,068,40,14,13,264,39,21,13,200,39,24,49,172,39,0*6D
$GPGSV,4,3,15,29,56,282,40,30,60,344,39,31,17,318,39,42,48,147,,0*62
$GPGSV,4,4,15,50,45,139,,40,11,257,,41,34,237,,0*5E
$GBGSV,1,1,01,32,13,209,,0*4E
$GAGSV,1,1,00,0*74

,0.81,1.16,4*0C
$GNGSA,A,3,,,,,,,,,,,,,1.42,0.81,1.16,3*0B
$GPGSV,4,1,15,02,33,049,40,05,67,051,39,09,30,167,39,10,09,109,39,0*6F
$GPGSV,4,2,15,12,57,068,39,14,13,264,40,21,13,200,39,24,49,172,39,0*6D
$GPGSV,4,3,15,29,56,282,39,30,60,344,40,31,17,318,40,42,48,147,,0*6C
$GPGSV,4,4,15,50,45,139,,40,11,257,,41,34,237,,0*5E
$GBGSV,1,1,01,32,13,209,,0*4E

$GAGSV,1,1,00,0*74

1,1.16,4*0C
$GNGSA,A,3,,,,,,,,,,,,,1.42,0.81,1.16,3*0B
$GPGSV,4,1,15,02,33,049,39,05,67,051,40,09,30,167,40,10,09,109,40,0*6F
$GPGSV,4,2,15,12,57,068,39,14,13,264,40,21,13,200,40,24,49,172,40,0*6D
$GPGSV,4,3,15,29,56,282,39,30,60,344,39,31,17,318,39,42,48,147,,0*6C
$GPGSV,4,4,15,50,45,139,,40,11,257,,41,34,237,,0*5E
$GBGSV,1,1,01,32,13,209,,0*4E
$G
AGSV,1,1,00,0*74

$GNRMC,140329.00,A,3114.47034,N,12130.90883,E,75.037,180.04,010620,,,A,V*31
$GNGGA,140329.00,3114.47034,N,12130.90883,E,1,11,0.81,48.7,M,,M,,*6B
$GNGSA,A,3,02,05,09,10,14,21,24,29,31,12,30,,1.42,0.81,1.16,1*0F
$GNGSA,A,3,,,,,,,,,,,,,1.42,0.81,1.16,4*0C
$GNGSA,A,3,,,,,,,,,,,,,1.42,0.81,1.16,3*0B
$GPGSV,4,1,15,02,33,049,40,05,67,051,39,09,30,167,39,10,09,109,
39,0*6F
$GPGSV,4,2,15,12,57,068,40,14,13,264,40,21,13,200,40,24,49,172,39,0*6D
$GPGSV,4,3,15,29,56,282,40,30,60,344,40,31,17,318,40,42,48,147,,0*62
$GPGSV,4,4,15,50,45,139,,40,11,257,,41,34,237,,0*5E
$GBGSV,1,1,01,32,13,209,,0*4E
$GAGSV,1,1,00,0*74

0C
$GNGSA,A,3,,,,,,,,,,,,,1.42,0.81,1.16,3*0B
$GPGSV,4,1,15,02,33,049,40,05,67,051,39,09,30,167,39,10,09,109,40,0*61
$GPGSV,4,2,15,12,57,068,40,14,13,264,39,21,13,200,39,24,49,172,39,0*6D
$GPGSV,4,3,15,29,56,282,39,30,60,344,40,31,17,318,39,42,48,147,,0*62
$GPGSV,4,4,15,50,45,139,,40,11,257,,41,34,237,,0*5E
$GBGSV,1,1,01,32,13,209,,0*4E

$GAGSV,1,1,00,0*74

,,,,,,,,,1.42,0.81,1.16,3*0B
$GPGSV,4,1,15,02,33,049,39,05,67,051,39,09,30,167,40,10,10,109,40,0*69
$GPGSV,4,2,15,12,57,068,39,14,13,264,39,21,13,200,40,24,50,172,39,0*65
$GPGSV,4,3,15,29,56,282,40,30,60,344,40,31,17,318,39,42,48,147,,0*6C
$GPGSV,4,4,15,50,45,139,,40,11,257,,41,34,237,,0*5E
$GBGSV,1,1,01,32,13,209,,0*4E
$GAGSV,1,1,00,0*74

0.81,1.16,4*0C
$GNGSA,A,3,,,,,,,,,,,,,1.42,0.81,1.16,3*0B
$GPGSV,4,1,15,02,33,049,39,05,67,051,40,09,30,167,39,10,10,109,40,0*69
$GPGSV,4,2,15,12,57,068,39,14,13,264,40,21,13,200,39,24,50,172,40,0*6B
$GPGSV,4,3,15,29,56,282,39,30,60,344,39,31,17,318,39,42,48,147,,0*6C
$GPGSV,4,4,15,50,45,139,,40,11,257,,41,34,237,,0*5E
$GBGSV,1,1,01,32,13
,209,,0*4E
$GAGSV,1,1,00,0*74

$GNRMC,140333.00,A,3114.32970,N,12130.90845,E,162.321,180.01,010620,,,A,V*0D
$GNGGA,140333.00,3114.32970,N,12130.90845,E,1,11,0.81,48.9,M,,M,,*6F
$GNGSA,A,3,02,05,09,10,14,21,24,29,31,12,30,,1.42,0.81,1.16,1*0F
$GNGSA,A,3,,,,,,,,,,,,,1.42,0.81,1.16,4*0C
$GNGSA,A,3,,,,,,,,,,,,,1.42,0.81,1.16,3*0B
$GPGSV,4,1,15,02,33,049
,39,05,67,051,40,09,30,167,39,10,10,109,40,0*69
$GPGSV,4,2,15,12,57,068,39,14,13,264,40,21,13,200,40,24,50,172,40,0*65
$GPGSV,4,3,15,29,56,282,40,30,60,344,40,31,17,318,40,42,48,147,,0*62
$GPGSV,4,4,15,50,45,139,,40,11,257,,41,34,237,,0*5E
$GBGSV,1,1,01,32,13,209,,0*4E
$GAGSV,1,1,00,0*74

,4*0C
$GNGSA,A,3,,,,,,,,,,,,,1.42,0.81,1.16,3*0B
$GPGSV,4,1,15,02,33,049,39,05,67,051,40,09,30,167,40,10,10,109,40,0*67
$GPGSV,4,2,15,12,57,068,40,14,13,264,39,21,13,200,39,24,50,172,39,0*65
$GPGSV,4,3,15,29,56,282,39,30,60,344,40,31,17,318,40,42,48,147,,0*6C
$GPGSV,4,4,15,50,45,139,,40,11,257,,41,34,237,,0*5E
$GBGSV,1,1,01,32,13,209,,0*4E
$GAGSV,1,1,00,0*74

$GNRMC,140335.00,A,3114.23938,N,12130.90830,E,161.997,180.00,010620,,,A,V*00
$GNGGA,140335.00,3114.23938,N,12130.90830,E,1,11,0.81,49.0,M,,M,,*6F
$GNGSA,A,3,02,05,09,10,14,21,24,29,31,12,30,,1.42,0.81,1.16,1*0F
$GNGSA,A,3,,,,,,,,,,,,,1.42,0.81,1.16,4*0C
$GNGSA,A,3,,,,,,,,,,,,,1.42,0.81,1.16,3*0B
$GPGSV,4,1,15,02,33,049,40,05,67,051,39,09,30,167,40,10,10,109,40,0*67
$GPGSV,4,2,15,12,57,068,39,14
,13,264,40,21,13,200,40,24,50,172,39,0*6B
$GPGSV,4,3,15,29,56,282,39,30,60,344,39,31,17,318,39,42,48,147,,0*6C
$GPGSV,4,4,15,50,45,139,,40,11,257,,41,34,237,,0*5E
$GBGSV,1,1,01,32,13,209,,0*4E
$GAGSV,1,1,00,0*74

$GNRMC,140336.00,A,3114.19424,N,12130.90822,E,161.958,180.00,010620,,,A,V*0A
$GNGGA,140336.00,3114.19424,N,12130.90822,E,1,11,0.81,49.0,M,,M,,*66
$GNGSA,A,3,02,05,09,10,14,21,24,29,31,12,30,,1.42,0.81,1.16,1*0F
$GNGSA,A,3,,,,,,,,,,,,,1.42,0.81,1.16,4*0C
$GNGSA,A,3,,,,,,,,,,,,,1.42,0.81,1.16,3*0B
$GPGSV,4,1,15,02,33,049,39,05,67,051,40,09,30,167,40,10,10,109,39,0*69
$GPGSV,4,2,15,12,57,068,39,14,13
,264,40,21,13,200,39,24,50,172,40,0*6B
$GPGSV,4,3,15,29,56,282,39,30,60,345,40,31,17,318,40,42,48,147,,0*6D
$GPGSV,4,4,15,50,45,139,,40,11,257,,41,34,237,,0*5E
$GBGSV,1,1,01,32,13,209,,0*4E
$GAGSV,1,1,00,0*74

B
$GPGSV,4,1,15,02,33,049,40,05,67,051,39,09,30,167,39,10,10,109,40,0*69
$GPGSV,4,2,15,12,57,068,39,14,13,264,39,21,13,200,40,24,50,172,40,0*6B
$GPGSV,4,3,15,29,56,282,40,30,60,345,39,31,17,318,39,42,48,147,,0*63
