$GNRMC,140804.00,A,3114.27797,N,12130.90812,E,161.688,180.04,010620,,,A,V*03
$GNGGA,140804.00,3114.27797,N,12130.90812,E,1,15,0.71,46.5,M,,M,,*68
$GNGSA,A,3,02,05,10,12,14,21,24,30,31,09,,,1.25,0.71,1.03,1*0E
$GNGSA,A,3,08,11,17,36,30,,,,,,,,1.25,0.71,1.03,4*0E
$GNGSA,A,3,,,,,,,,,,,,,1.25,0.71,1.03,3*01
$GPGSV,4,1,14,02,32,047,39,05,67,056,39,09,28,1
67,39,10,10,107,39,0*67
$GPGSV,4,2,14,12,56,072,39,14,12,262,39,21,15,200,39,24,52,172,39,0*63
$GPGSV,4,3,14,30,61,347,39,31,19,317,39,42,48,147,,50,45,139,,0*6B
$GPGSV,4,4,14,40,11,257,,41,34,237,,0*60
$GBGSV,3,1,09,08,38,317,34,11,21,093,35,17,39,040,35,30,16,280,35,0*74
$GBGSV,3,2,09,36,73,267,35,32,,,35,37,,,35,02,,,34,0*4B
$GBGSV,3,3,09,13,,,34,0*7B
$GAGSV,1,1,02,07,14,261,,01,,,37,0*44

,,,,,,1.25,0.71,1.03,4*0E
$GNGSA,A,3,,,,,,,,,,,,,1.25,0.71,1.03,3*01
$GPGSV,4,1,14,02,32,047,39,05,67,057,39,09,28,167,39,10,11,107,39,0*67
$GPGSV,4,2,14,12,56,072,39,14,12,262,40,21,15,200,39,24,52,172,39,0*6D
$GPGSV,4,3,14,30,61,347,39,31,19,317,39,42,48,147,,50,45,139,,0*6B
$GPGSV,4,4,14,40,11,257,,41,34,237,,0*60
$GBGSV,3,1,09,08,38,317,36,11,21,093,35,17,
39,040,35,30,16,280,35,0*76
$GBGSV,3,2,09,36,73,267,35,32,,,35,37,,,35,02,,,35,0*4A
$GBGSV,3,3,09,13,,,35,0*7A
$GAGSV,1,1,02,07,14,261,,01,,,37,0*44

$GNRMC,140806.00,A,3114.18705,N,12130.90793,E,162.074,179.99,010620,,,A,V*04
$GNGGA,140806.00,3114.18705,N,12130.90793,E,1,15,0.71,46.9,M,,M,,*67
$GNGSA,A,3,02,05,10,12,14,21,24,30,31,09,,,1.25,0.71,1.03,1*0E
$GNGSA,A,3,08,11,17,36,30,,,,,,,,1.25,0.71,1.03,4*0E
$GNGSA,A,3,,,,,,,,,,,,,1.25,0.71,1.03,3*01
$GPGSV,4,1,14,02,32,047,39,05,67,057,40,09,28,167,40,10,11,107,39,0*67
$GPGSV,4,2,14,12,56,072,
39,14,12,262,39,21,15,200,40,24,52,172,40,0*63
$GPGSV,4,3,14,30,61,347,39,31,19,317,38,42,48,147,,50,45,139,,0*6A
$GPGSV,4,4,14,40,11,257,,41,34,237,,0*60
$GBGSV,3,1,09,08,38,317,36,11,21,093,35,17,39,040,34,30,16,280,35,0*77
$GBGSV,3,2,09,36,73,267,35,32,,,35,37,,,35,02,,,35,0*4A
$GBGSV,3,3,09,13,,,35,0*7A
$GAGSV,1,1,02,07,14,261,,01,,,37,0*44

03,3*01
$GPGSV,4,1,14,02,31,047,39,05,67,057,39,09,28,167,39,10,11,107,40,0*6A
$GPGSV,4,2,14,12,56,072,39,14,12,262,39,21,15,200,39,24,52,172,39,0*63
$GPGSV,4,3,14,30,61,347,39,31,19,317,39,42,48,147,,50,45,139,,0*6B
$GPGSV,4,4,14,40,11,257,,41,34,237,,0*60
$GBGSV,3,1,09,08,38,317,34,11,21,093,35,17,39,040,35,30,16,280,35,0*74
$GBGSV,3,2,09,36
,73,267,34,32,,,35,37,,,34,02,,,35,0*4A
$GBGSV,3,3,09,13,,,35,0*7A
$GAGSV,1,1,02,07,14,261,,01,,,37,0*44

$GNRMC,140808.00,A,3114.09715,N,12130.90765,E,159.691,180.23,010620,,,A,V*00
$GNGGA,140808.00,3114.09715,N,12130.90765,E,1,15,0.71,47.5,M,,M,,*6C
$GNGSA,A,3,02,05,10,12,14,21,24,30,31,09,,,1.25,0.71,1.03,1*0E
$GNGSA,A,3,08,11,17,36,30,,,,,,,,1.25,0.71,1.03,4*0E
$GNGSA,A,3,,,,,,,,,,,,,1.25,0.71,1.03,3*01
$GPGSV,4,1,14,02,31,047,37,05,67,057,38,09,28,167,35,10,11,107,39,0*67
$GPGS
V,4,2,14,12,56,072,39,14,12,262,40,21,15,200,35,24,52,172,37,0*6F
$GPGSV,4,3,14,30,61,347,38,31,19,317,36,42,48,147,,50,45,139,,0*65
$GPGSV,4,4,14,40,11,257,,41,34,237,,0*60
$GBGSV,3,1,09,08,38,317,34,11,21,093,36,17,39,040,34,30,16,280,35,0*76
$GBGSV,3,2,09,36,73,267,35,32,,,32,37,,,33,02,,,35,0*4B
$GBGSV,3,3,09,13,,,34,0*7B
$GAGSV,1,1,02,07,14,261,,01,,,37,0*44

$GNRMC,140809.00,A,3114.06530,N,12130.90768,E,107.855,180.22,010620,,,A,V*0A
$GNGGA,140809.00,3114.06530,N,12130.90768,E,1,15,0.71,49.0,M,,M,,*61
$GNGSA,A,3,02,05,10,12,14,21,24,30,31,09,,,1.25,0.71,1.03,1*0E
$GNGSA,A,3,08,11,17,36,30,,,,,,,,1.25,0.71,1.03,4*0E
$GNGSA,A,3,,,,,,,,,,,,,1.25,0.71,1.03,3*01
$GPGSV,4,1,14,02,31,047,39,05,67,057,39,09,28,167,35,
10,11,107,40,0*66
$GPGSV,4,2,14,12,56,072,39,14,12,262,40,21,15,200,34,24,52,172,38,0*61
$GPGSV,4,3,14,30,61,347,40,31,19,317,37,42,48,147,,50,45,139,,0*6B
$GPGSV,4,4,14,40,11,257,,41,34,237,,0*60
$GBGSV,3,1,09,08,38,317,35,11,21,093,35,17,39,040,35,30,16,280,35,0*75
$GBGSV,3,2,09,36,73,267,35,32,,,33,37,,,33,02,,,35,0*4A
$GBGSV,3,3,09,13,,,35,0*7A
$GAGSV,1,1,02,07,14,261,,01,,,37,0*44

$GNRMC,140810.00,A,3114.03944,N,12130.90743,E,79.531,180.15,010620,,,A,V*32
$GNGGA,140810.00,3114.03944,N,12130.90743,E,1,16,0.71,49.8,M,,M,,*61
$GNGSA,A,3,02,05,10,12,14,21,24,30,31,09,,,1.25,0.71,1.03,1*0E
$GNGSA,A,3,08,11,17,36,30,,,,,,,,1.25,0.71,1.03,4*0E
$GNGSA,A,3,01,,,,,,,,,,,,1.25,0.71,1.03,3*00
$GPGSV,4,1,14,02,31,047,39,05,67,057,39,09,28,167,35,10,11,107,39,0*68
$GPGSV
,4,2,14,12,56,072,39,14,12,262,39,21,15,200,34,24,52,172,38,0*6F
$GPGSV,4,3,14,30,61,347,39,31,19,317,37,42,48,147,,50,45,139,,0*65
$GPGSV,4,4,14,40,11,257,,41,34,237,,0*60
$GBGSV,3,1,09,08,38,317,35,11,21,093,35,17,39,040,34,30,16,280,35,0*74
$GBGSV,3,2,09,36,73,267,35,32,,,32,37,,,33,02,,,36,0*48
$GBGSV,3,3,09,13,,,34,0*7B
$GAGSV,1,1,02,01,46,035,37,07,14,261,,0*70

$GNRMC,140811.00,A,3114.02121,N,12130.90729,E,52.327,180.15,010620,,,A,V*3D
$GNGGA,140811.00,3114.02121,N,12130.90729,E,1,16,0.71,50.4,M,,M,,*62
$GNGSA,A,3,02,05,10,12,14,21,24,30,31,09,,,1.25,0.71,1.03,1*0E
$GNGSA,A,3,08,11,17,36,30,,,,,,,,1.25,0.71,1.03,4*0E
$GNGSA,A,3,01,,,,,,,,,,,,1.25,0.71,1.03,3*00
$GPGSV,4,1,14,02,31,047,3
9,05,67,057,39,09,28,167,35,10,11,107,39,0*68
$GPGSV,4,2,14,12,56,072,39,14,12,262,39,21,15,200,34,24,52,172,37,0*60
$GPGSV,4,3,14,30,61,347,39,31,19,317,37,42,48,147,,50,45,139,,0*65
$GPGSV,4,4,14,40,11,257,,41,34,237,,0*60
$GBGSV,3,1,09,08,38,317,35,11,21,094,35,17,39,040,35,30,16,280,35,0*72
$GBGSV,3,2,09,36,73,267,35,32,,,32,37,,,32,02,,,36,0*49
$GBGSV,3,3,09,13,,,34,0*7B
$GAGSV,1,1,02,01,46,035,37,07,14,261,,0*70

$GNRMC,140812.00,A,3114.01055,N,12130.90725,E,26.018,180.10,010620,,,A,V*3A
$GNGGA,140812.00,3114.01055,N,12130.90725,E,1,16,0.71,51.0,M,,M,,*69
$GNGSA,A,3,02,05,10,12,14,21,24,30,31,09,,,1.25,0.71,1.03,1*0E
$GNGSA,A,3,08,11,17,36,30,,,,,,,,1.25,0.71,1.03,4*0E
$GNGSA,A,3,01,,,,,,,,,,,,1.25,0.71,1.03,3*00
$GPGSV,4,1,14,02,31,047,38,05,67,057,39,09,28,167
,35,10,11,107,39,0*69
$GPGSV,4,2,14,12,56,072,40,14,12,262,39,21,15,200,34,24,52,172,39,0*60
$GPGSV,4,3,14,30,61,348,38,31,19,317,37,42,48,147,,50,45,139,,0*6B
$GPGSV,4,4,14,40,11,257,,41,34,237,,0*60
$GBGSV,3,1,09,08,38,317,35,11,21,094,34,17,39,040,35,30,16,280,35,0*73
$GBGSV,3,2,09,36,73,267,35,32,,,33,37,,,33,02,,,35,0*4A
$GBGSV,3,3,09,13,,,34,0*7B
$GAGSV,1,1,02,01,46,035,37,07,14,261,,0*70

$GNRMC,140813.00,A,3114.00575,N,12130.90677,E,10.500,196.56,010620,,,A,V*37
$GNGGA,140813.00,3114.00575,N,12130.90677,E,1,16,0.71,51.0,M,,M,,*68
$GNGSA,A,3,02,05,10,12,14,21,24,30,31,09,,,1.25,0.71,1.03,1*0E
$GNGSA,A,3,08,11,17,36,30,,,,,,,,1.25,0.71,1.03,4*0E
$GNGSA,A,3,01,,,,,,,,,,,,1.25,0.71,1.03,3*00
$GPGSV,4,1,14,02,31,047,37,05,67,057,39,09,28,167,39,10,11,107,39,0*6A
$GPGSV,4,2,14,12,56,072,38,14,12
,262,38,21,15,200,38,24,52,172,38,0*63
$GPGSV,4,3,14,30,61,348,38,31,19,317,39,42,48,147,,50,45,139,,0*65
$GPGSV,4,4,14,40,11,257,,41,34,237,,0*60
$GBGSV,3,1,09,08,38,317,35,11,21,094,35,17,39,040,33,30,16,280,35,0*74
$GBGSV,3,2,09,36,73,267,35,32,,,34,37,,,35,02,,,35,0*4B
$GBGSV,3,3,09,13,,,35,0*7A
$GAGSV,1,1,02,01,46,035,37,07,14,261,,0*70

$GNRMC,140814.00,A,3114.00478,N,12130.90504,E,8.004,303.51,010620,,,A,V*0A
$GNGGA,140814.00,3114.00478,N,12130.90504,E,1,16,0.71,51.1,M,,M,,*65
$GNGSA,A,3,02,05,10,12,14,21,24,30,31,09,,,1.25,0.71,1.03,1*0E
$GNGSA,A,3,08,11,17,36,30,,,,,,,,1.25,0.71,1.03,4*0E
$GNGSA,A,3,01,,,,,,,,,,,,1.25,0.71,1.03,3*00
$GPGSV,4,1
,14,02,31,047,39,05,67,057,40,09,28,167,39,10,11,107,40,0*64
$GPGSV,4,2,14,12,56,072,40,14,12,262,39,21,15,200,40,24,52,172,40,0*6D
$GPGSV,4,3,14,30,61,348,39,31,19,317,39,42,48,147,,50,45,139,,0*64
$GPGSV,4,4,14,40,11,257,,41,34,237,,0*60
$GBGSV,3,1,09,08,38,317,35,11,21,094,35,17,39,040,35,30,16,280,36,0*71
$GBGSV,3,2,09,36,73,267,36,32,,,35,37,,,35,02,,,35,0*49
$GBGSV,3,3,09,13,,,34,0*7B
$GAGSV,1,1,02,01,46,035,37,07,14,261,,0*70


$GPGSV,4,1,14,02,31,047,39,05,67,057,39,09,28,167,39,10,11,107,39,0*64
$GPGSV,4,2,14,12,56,072,39,14,12,262,39,21,15,200,39,24,52,172,39,0*63
$GPGSV,4,3,14,30,61,348,39,31,19,317,39,42,48,147,,50,45,139,,0*64
$GPGSV,4,4,14,40,11,257,,41,34,237,,0*60
$GBGSV,3,1,09,08,38,317,35,11,21,094,35,13,51,170,36,17,39,040,35,0*7F
$GBGSV,3,2,09,30,16,280,35,36,73,267,
35,32,,,35,37,,,34,0*77
$GBGSV,3,3,09,02,,,35,0*7A
$GAGSV,1,1,03,01,46,035,37,07,14,261,38,08,,,37,0*76

$GNRMC,140816.00,A,3113.99969,N,12130.89535,E,16.814,268.37,010620,,,A,V*32
$GNGGA,140816.00,3113.99969,N,12130.89535,E,1,17,0.67,51.2,M,,M,,*62
$GNGSA,A,3,02,05,10,12,14,21,24,30,31,09,,,1.20,0.67,0.99,1*0E
$GNGSA,A,3,08,11,17,36,30,13,,,,,,,1.20,0.67,0.99,4*0C
$GNGSA,A,3,01,,,,,,,,,,,,1.20,0.67,0.99,3*00
$GPGSV,4,1,14,02,31,047,39,05,67,057,38,09,28,167,39,10,11,107,39,0*65
$GPGSV,4,2,14,12,
56,072,39,14,12,262,39,21,15,200,39,24,52,172,39,0*63
$GPGSV,4,3,14,30,61,348,39,31,19,317,39,42,48,147,,50,45,139,,0*64
$GPGSV,4,4,14,40,11,257,,41,34,237,,0*60
$GBGSV,3,1,09,08,38,317,35,11,21,094,35,13,51,170,35,17,39,040,35,0*7C
$GBGSV,3,2,09,30,16,280,35,36,73,267,35,32,,,35,37,,,35,0*76
$GBGSV,3,3,09,02,,,35,0*7A
$GAGSV,1,1,03,01,46,035,37,07,14,261,37,08,,,37,0*79

$GNRMC,140817.00,A,3114.00028,N,12130.88931,E,20.053,284.14,010620,,,A,V*3C
$GNGGA,140817.00,3114.00028,N,12130.88931,E,1,17,0.67,51.3,M,,M,,*60
$GNGSA,A,3,02,05,10,12,14,21,24,30,31,09,,,1.20,0.67,0.99,1*0E
$GNGSA,A,3,08,11,17,36,30,13,,,,,,,1.20,0.67,0.99,4*0C
$GNGSA,A,3,01,,,,,,,,,,,,1.20,0.67,0.99,3*00
$GPGSV,4,1,14,02,31,047,35,
05,67,057,38,09,28,167,40,10,11,107,34,0*6A
$GPGSV,4,2,14,12,56,072,37,14,12,262,33,21,15,200,37,24,52,172,39,0*69
$GPGSV,4,3,14,30,61,348,39,31,19,317,38,42,48,147,,50,45,139,,0*65
$GPGSV,4,4,14,40,11,257,,41,34,237,,0*60
$GBGSV,3,1,09,08,38,317,35,11,21,094,32,13,51,170,35,17,39,040,34,0*7A
$GBGSV,3,2,09,30,16,280,33,36,73,267,34,32,,,32,37,,,34,0*77
$GBGSV,3,3,09,02,,,35,0*7A
$GAGSV,1,1,03,01,46,035,37,07,14,261,37,08,,,37,0*79

$GNRMC,140818.00,A,3114.00014,N,12130.87029,E,64.092,270.78,010620,,,A,V*3F
$GNGGA,140818.00,3114.00014,N,12130.87029,E,1,17,0.67,51.0,M,,M,,*6C
$GNGSA,A,3,02,05,10,12,14,21,24,30,31,09,,,1.20,0.67,0.99,1*0E
$GNGSA,A,3,08,11,17,36,30,13,,,,,,,1.20,0.67,0.99,4*0C
$GNGSA,A,3,01,,,,,,,,,,,,1.20,0.67,0.99,3*00
$GPGSV,4,1
,14,02,31,047,37,05,67,057,39,09,28,167,40,10,11,107,34,0*69
$GPGSV,4,2,14,12,56,072,38,14,12,262,34,21,15,200,39,24,52,172,39,0*6F
$GPGSV,4,3,14,30,61,348,39,31,19,317,38,42,48,147,,50,45,139,,0*65
$GPGSV,4,4,14,40,11,257,,41,34,237,,0*60
$GBGSV,3,1,09,08,38,317,35,11,21,094,32,13,51,170,35,17,39,040,36,0*78
$GBGSV,3,2,09,30,16,280,32,36,73,267,34,32,,,35,37,,,35,0*70
$GBGSV,3,3,09,02,,,35,0*7A
$GAGSV,1,1,03,01,46,035,38,07,14,261,37,08,,,38,0*79

$GNRMC,140819.00,A,3114.00021,N,12130.84445,E,92.543,270.26,010620,,,A,V*3E
$GNGGA,140819.00,3114.00021,N,12130.84445,E,1,17,0.67,51.0,M,,M,,*66
$GNGSA,A,3,02,05,10,12,14,21,24,30,31,09,,,1.20,0.67,0.99,1*0E
$GNGSA,A,3,08,11,17,36,30,13,,,,,,,1.20,0.67,0.99,4*0C
$GNGSA,A,3,01,,,,,,,,,,,,1.20,0.67,0.99,3*00
$GPGSV,4,1,1
4,02,31,047,38,05,67,057,39,09,28,167,39,10,11,107,34,0*68
$GPGSV,4,2,14,12,56,072,38,14,12,262,33,21,15,200,40,24,52,172,39,0*66
$GPGSV,4,3,14,30,61,348,39,31,19,317,37,42,48,147,,50,45,139,,0*6A
$GPGSV,4,4,14,40,11,257,,41,34,237,,0*60
$GBGSV,3,1,09,08,38,317,34,11,21,094,32,13,51,170,35,17,39,040,35,0*7A
$GBGSV,3,2,09,30,16,280,32,36,73,267,35,32,,,35,37,,,35,0*71
$GBGSV,3,3,09,02,,,35,0*7A
$GAGSV,1,1,03,01,46,035,37,07,14,261,37,08,,,36,0*78

,0.99,4*0C
$GNGSA,A,3,01,,,,,,,,,,,,1.20,0.67,0.99,3*00
$GPGSV,4,1,14,02,31,047,37,05,67,057,40,09,28,167,38,10,11,107,34,0*68
$GPGSV,4,2,14,12,56,072,38,14,12,262,34,21,15,200,39,24,52,172,39,0*6F
$GPGSV,4,3,14,30,61,348,39,31,19,317,38,42,48,147,,50,45,139,,0*65
$GPGSV,4,4,14,40,11,257,,41,34,237,,0*60
$GBGSV,3,1,09,08,38,317,34,11,21,094,32,13,51,170
,34,17,39,040,35,0*7B
$GBGSV,3,2,09,30,16,280,32,36,73,267,35,32,,,35,37,,,35,0*71
$GBGSV,3,3,09,02,,,35,0*7A
$GAGSV,1,1,03,01,46,035,37,07,14,261,37,08,,,38,0*76

$GPGSV,4,1,14,02,31,047,39,05,67,057,39,09,28,167,40,10,11,107,34,0*67
$GPGSV,4,2,14,12,56,072,39,14,12,262,33,21,15,200,39,24,52,172,39,0*69
$GPGSV,4,3,14,30,61,348,38,31,19,317,38,42,48,147,,50,45,139,,0*64
$GPGSV,4,4,14,40,11,257,,41,34,237,,0*60
$GBGSV,3,1,09,08,38,317,35,11,21,094,32,13,51,170,35,17,39,040,35,0*7B
$GBGSV,3,2,09,30,16,280,32,3
6,73,267,35,32,,,35,37,,,35,0*71
$GBGSV,3,3,09,02,,,35,0*7A
$GAGSV,1,1,03,01,46,035,37,07,14,261,37,08,,,38,0*76

$GNRMC,140822.00,A,3114.00012,N,12130.71473,E,166.702,269.96,010620,,,A,V*07
$GNGGA,140822.00,3114.00012,N,12130.71473,E,1,17,0.67,50.5,M,,M,,*65
$GNGSA,A,3,02,05,10,12,14,21,24,30,31,09,,,1.20,0.67,0.99,1*0E
$GNGSA,A,3,08,11,17,36,30,13,,,,,,,1.20,0.67,0.99,4*0C
$GNGSA,A,3,01,,,,,,,,,,,,1.20,0.67,0.99,3*00
$GPGSV,4,1,14,02,31,047,40,05,67,057,39,09,28,167,38,10,11
,107,38,0*6A
$GPGSV,4,2,14,12,56,072,38,14,12,262,36,21,15,200,39,24,52,172,39,0*6D
$GPGSV,4,3,14,30,61,348,39,31,19,317,39,42,48,147,,50,45,139,,0*64
$GPGSV,4,4,14,40,11,257,,41,34,237,,0*60
$GBGSV,3,1,09,08,38,317,35,11,21,094,34,13,51,170,35,17,39,040,34,0*7C
$GBGSV,3,2,09,30,16,280,33,36,73,267,35,32,,,35,37,,,34,0*71
$GBGSV,3,3,09,02,,,35,0*7A
$GAGSV,1,1,03,01,46,035,37,07,14,261,38,08,56,301,37,0*47

$GNRMC,140823.00,A,3113.99962,N,12130.65776,E,184.866,268.70,010620,,,A,V*04
$GNGGA,140823.00,3113.99962,N,12130.65776,E,1,17,0.67,50.1,M,,M,,*6A
$GNGSA,A,3,02,05,10,12,14,21,24,30,31,09,,,1.20,0.67,0.99,1*0E
$GNGSA,A,3,08,11,17,36,30,13,,,,,,,1.20,0.67,0.99,4*0C
$GNGSA,A,3,01,,,,,,,,,,,,1.20,0.67,0.99,3*00
$GPGSV,4,1,14,02,31,047,
39,05,67,057,39,09,28,167,40,10,11,107,39,0*6A
$GPGSV,4,2,14,12,56,072,38,14,12,262,39,21,15,200,39,24,52,172,39,0*62
$GPGSV,4,3,14,30,61,348,39,31,19,317,38,42,48,147,,50,45,139,,0*65
$GPGSV,4,4,14,40,11,257,,41,34,237,,0*60
$GBGSV,3,1,09,08,38,317,35,11,21,094,35,13,51,170,35,17,39,040,35,0*7C
$GBGSV,3,2,09,30,16,280,34,36,73,267,35,32,,,35,37,,,35,0*77
$GBGSV,3,3,09,02,,,35,0*7A
$GAGSV,1,1,03,01,46,035,37,07,14,261,37,08,56,301,37,0*48

,3*00
$GPGSV,4,1,14,02,31,047,39,05,67,057,39,09,28,167,39,10,11,107,38,0*65
$GPGSV,4,2,14,12,56,072,39,14,12,262,39,21,15,200,39,24,52,172,40,0*6D
$GPGSV,4,3,14,30,61,348,39,31,19,317,39,42,48,147,,50,45,139,,0*64
$GPGSV,4,4,14,40,11,257,,41,34,237,,0*60
$GBGSV,3,1,09,08,38,317,35,11,21,094,35,13,51,170,35,17,39,040,35,0*7C
$GBGSV,3,2,09,30,16,280,35,36,73,267,
35,32,,,34,37,,,35,0*77
$GBGSV,3,3,09,02,,,35,0*7A
$GAGSV,1,1,03,01,46,035,37,07,14,261,37,08,56,301,37,0*48

$GNRMC,140825.00,A,3113.99977,N,12130.55388,E,162.017,270.03,010620,,,A,V*0B
$GNGGA,140825.00,3113.99977,N,12130.55388,E,1,17,0.67,50.4,M,,M,,*6B
$GNGSA,A,3,02,05,10,12,14,21,24,30,31,09,,,1.20,0.67,0.99,1*0E
$GNGSA,A,3,08,11,17,36,30,13,,,,,,,1.20,0.67,0.99,4*0C
$GNGSA,A,3,01,,,,,,,,,,,,1.20,0.67,0.99,3*00
$GPGSV,4,1,14,02,31,047,39,05,66,057,39,09,28,167,39,
10,11,107,39,0*65
$GPGSV,4,2,14,12,56,072,39,14,12,262,39,21,15,200,39,24,52,172,39,0*63
$GPGSV,4,3,14,30,61,348,39,31,19,317,40,42,48,147,,50,45,139,,0*6A
$GPGSV,4,4,14,40,11,257,,41,34,237,,0*60
$GBGSV,3,1,09,08,38,317,35,11,21,094,35,13,51,170,35,17,39,040,35,0*7C
$GBGSV,3,2,09,30,16,280,35,36,73,267,36,32,,,35,37,,,35,0*75
$GBGSV,3,3,09,02,,,35,0*7A
$GAGSV,1,1,03,01,46,035,37,07,14,261,37,08,56,301,37,0*48

$GNRMC,140826.00,A,3113.99977,N,12130.50132,E,162.075,270.02,010620,,,A,V*0B
$GNGGA,140826.00,3113.99977,N,12130.50132,E,1,17,0.67,50.4,M,,M,,*6E
$GNGSA,A,3,02,05,10,12,14,21,24,30,31,09,,,1.20,0.67,0.99,1*0E
$GNGSA,A,3,08,11,17,36,30,13,,,,,,,1.20,0.67,0.99,4*0C
$GNGSA,A,3,01,,,,,,,,,,,,1.20,0.67,0.99,3*00
$GPGSV,4,1,14,02,31,047,3
9,05,66,057,39,09,28,167,39,10,11,107,39,0*65
$GPGSV,4,2,14,12,56,072,39,14,12,262,39,21,15,200,40,24,52,172,39,0*6D
$GPGSV,4,3,14,30,61,348,39,31,19,317,40,42,48,147,,50,45,139,,0*6A
$GPGSV,4,4,14,40,11,257,,41,34,237,,0*60
$GBGSV,3,1,09,08,38,317,35,11,21,094,34,13,51,170,35,17,39,040,35,0*7D
$GBGSV,3,2,09,30,16,280,35,36,73,267,34,32,,,35,37,,,35,0*77
$GBGSV,3,3,09,02,,,35,0*7A
$GAGSV,1,1,03,01,46,035,37,07,14,261,37,08,56,301,37,0*48

$GNRMC,140827.00,A,3113.99986,N,12130.44872,E,161.988,270.00,010620,,,A,V*06
$GNGGA,140827.00,3113.99986,N,12130.44872,E,1,17,0.67,50.2,M,,M,,*6F
$GNGSA,A,3,02,05,10,12,14,21,24,30,31,09,,,1.20,0.67,0.99,1*0E
$GNGSA,A,3,08,11,17,36,30,13,,,,,,,1.20,0.67,0.99,4*0C
$GNGSA,A,3,01,,,,,,,,,,,,1.20,0.67,0.99,3*00
$GPGSV,4,1,14,02,31,047,39,05,66,057,40,09,28,167,39,10,11,107,40,0*65
$GPGSV,4,2,14,12,56,0
72,40,14,12,262,39,21,15,200,39,24,52,172,39,0*6D
$GPGSV,4,3,14,30,61,348,39,31,19,317,39,42,48,147,,50,45,139,,0*64
$GPGSV,4,4,14,40,11,257,,41,34,237,,0*60
$GBGSV,3,1,09,08,38,317,35,11,21,094,36,13,51,170,35,17,39,040,35,0*7F
$GBGSV,3,2,09,30,16,280,35,36,73,267,35,32,,,35,37,,,35,0*76
$GBGSV,3,3,09,02,,,35,0*7A
$GAGSV,1,1,03,01,46,035,37,07,14,261,37,08,56,301,37,0*48

$GNRMC,140828.00,A,3113.99986,N,12130.39625,E,161.820,270.01,010620,,,A,V*0D
$GNGGA,140828.00,3113.99986,N,12130.39625,E,1,17,0.67,50.1,M,,M,,*65
$GNGSA,A,3,02,05,10,12,14,21,24,30,31,09,,,1.20,0.67,0.99,1*0E
$GNGSA,A,3,08,11,17,36,30,13,,,,,,,1.20,0.67,0.99,4*0C
$GNGSA,A,3,01,,,,,,,,,,,,1.20,0.67,0.99,3*00
$GPGSV,4,1,14,02,31,047,39,05,66,057,39,09,28,167,39,10,11,107,39
,0*65
$GPGSV,4,2,14,12,56,072,39,14,12,262,40,21,15,200,39,24,52,172,39,0*6D
$GPGSV,4,3,14,30,61,348,39,31,19,317,39,42,48,147,,50,45,139,,0*64
$GPGSV,4,4,14,40,11,257,,41,34,237,,0*60
$GBGSV,3,1,09,08,38,317,35,11,21,094,35,13,51,170,35,17,39,040,35,0*7C
$GBGSV,3,2,09,30,16,280,35,36,73,267,35,32,,,35,37,,,35,0*76
$GBGSV,3,3,09,02,,,35,0*7A
$GAGSV,1,1,03,01,46,035,38,07,14,261,37,08,56,301,36,0*46

GPGSV,4,1,14,02,31,047,40,05,66,057,39,09,28,167,40,10,11,107,39,0*65
$GPGSV,4,2,14,12,56,073,39,14,12,262,40,21,15,200,38,24,52,172,39,0*6D
$GPGSV,4,3,14,30,61,348,39,31,19,317,39,42,48,147,,50,45,139,,0*64
$GPGSV,4,4,14,40,11,257,,41,34,237,,0*60
$GBGSV,3,1,09,08,38,317,36,11,21,094,36,13,51,170,35,17,39,040,35,0*7C
$GBGSV,3,2,09,30,16,280,35,36,73
,267,35,32,,,35,37,,,35,0*76
$GBGSV,3,3,09,02,,,35,0*7A
$GAGSV,1,1,03,01,46,035,37,07,14,261,37,08,56,301,37,0*48

$GNRMC,140830.00,A,3113.99993,N,12130.29121,E,162.030,270.00,010620,,,A,V*09
$GNGGA,140830.00,3113.99993,N,12130.29121,E,1,17,0.67,50.0,M,,M,,*6B
$GNGSA,A,3,02,05,10,12,14,21,24,30,31,09,,,1.20,0.67,0.99,1*0E
$GNGSA,A,3,08,11,17,36,30,13,,,,,,,1.20,0.67,0.99,4*0C
$GNGSA,A,3,01,,,,,,,,,,,,1.20,0.67,0.99,3*00
$GPGSV,4,1,14,02,31,047,39,05,66,057,40,09,28,167,39,10,11,107,39,0*6B
$GPGSV,4,2,1
4,12,56,073,40,14,12,262,39,21,15,200,38,24,52,172,39,0*6D
$GPGSV,4,3,14,30,61,348,38,31,19,317,40,42,48,147,,50,45,139,,0*6B
$GPGSV,4,4,14,40,11,257,,41,34,237,,0*60
$GBGSV,3,1,09,08,38,317,35,11,21,094,35,13,51,170,36,17,39,040,35,0*7F
$GBGSV,3,2,09,30,16,280,35,36,73,267,35,32,,,35,37,,,35,0*76
$GBGSV,3,3,09,02,,,36,0*79
$GAGSV,1,1,03,01,46,035,37,07,14,261,37,08,56,301,37,0*48

$GNRMC,140831.00,A,3113.99992,N,12130.23863,E,162.038,270.01,010620,,,A,V*05
$GNGGA,140831.00,3113.99992,N,12130.23863,E,1,17,0.67,50.1,M,,M,,*6F
$GNGSA,A,3,02,05,10,12,14,21,24,30,31,09,,,1.20,0.67,0.99,1*0E
$GNGSA,A,3,08,11,17,36,30,13,,,,,,,1.20,0.67,0.99,4*0C
$GNGSA,A,3,01,,,,,,,,,,,,1.20,0.67,0.99,3*00
$GPGSV,4,1,
14,02,31,047,39,05,66,057,39,09,28,167,39,10,11,107,39,0*65
$GPGSV,4,2,14,12,56,073,39,14,12,262,39,21,15,200,40,24,52,172,39,0*6C
$GPGSV,4,3,14,30,61,348,39,31,19,317,39,42,48,147,,50,45,139,,0*64
$GPGSV,4,4,14,40,11,257,,41,34,237,,0*60
$GBGSV,3,1,09,08,38,317,35,11,21,094,35,13,51,170,35,17,39,040,35,0*7C
$GBGSV,3,2,09,30,16,280,35,36,73,267,36,32,,,35,37,,,35,0*75
$GBGSV,3,3,09,02,,,35,0*7A
$GAGSV,1,1,03,01,46,035,37,07,14,261,38,08,56,301,37,0*47

GSA,A,3,01,,,,,,,,,,,,1.20,0.67,0.99,3*00
$GPGSV,4,1,14,02,31,047,39,05,66,057,39,09,28,167,39,10,11,107,39,0*65
$GPGSV,4,2,14,12,56,073,39,14,12,262,39,21,15,200,40,24,52,172,39,0*6C
$GPGSV,4,3,14,30,61,348,38,31,19,317,39,42,48,147,,50,45,139,,0*65
$GPGSV,4,4,14,40,11,257,,41,34,237,,0*60
$GBGSV,3,1,09,08,38,317,35,11,21,094,35,13,51,170,35,
17,39,040,35,0*7C
$GBGSV,3,2,09,30,16,280,35,36,73,266,35,32,,,35,37,,,35,0*77
$GBGSV,3,3,09,02,,,35,0*7A
$GAGSV,1,1,03,01,46,035,37,07,14,261,37,08,56,301,37,0*48

,,,,,,,,,,,1.20,0.67,0.99,3*00
$GPGSV,4,1,14,02,31,047,36,05,66,057,38,09,28,167,40,10,11,107,34,0*68
$GPGSV,4,2,14,12,56,073,37,14,12,262,34,21,15,200,38,24,52,172,39,0*60
$GPGSV,4,3,14,30,61,348,38,31,19,317,36,42,48,147,,50,45,139,,0*6A
$GPGSV,4,4,14,40,11,257,,41,34,237,,0*60
$GBGSV,3,1,09,08,38,317,33,11,21,094,33,13,51,170,35,17,39,040,34,
0*7D
$GBGSV,3,2,09,30,16,280,32,36,73,266,34,32,,,34,37,,,34,0*71
$GBGSV,3,3,09,02,,,35,0*7A
$GAGSV,1,1,03,01,46,035,37,07,14,261,37,08,56,301,37,0*48

,,,1.20,0.67,0.99,3*00
$GPGSV,4,1,14,02,31,047,38,05,66,057,39,09,28,167,39,10,11,107,34,0*69
$GPGSV,4,2,14,12,56,073,38,14,12,262,34,21,15,200,39,24,52,172,40,0*60
$GPGSV,4,3,14,30,61,348,39,31,19,317,37,42,48,147,,50,45,139,,0*6A
$GPGSV,4,4,14,40,11,257,,41,34,237,,0*60
$GBGSV,3,1,09,08,38,318,34,11,21,094,32,13,51,170,35,17,39,040,35,0*75
$GBGSV,3,2,09,30,16,
280,32,36,73,266,35,32,,,35,37,,,35,0*70
$GBGSV,3,3,09,02,,,35,0*7A
$GAGSV,1,1,03,01,46,035,36,07,14,261,37,08,56,301,37,0*49

$GNRMC,140835.00,A,3114.00003,N,12130.05842,E,92.633,270.45,010620,,,A,V*33
$GNGGA,140835.00,3114.00003,N,12130.05842,E,1,17,0.67,51.1,M,,M,,*6B
$GNGSA,A,3,02,05,10,12,14,21,24,30,31,09,,,1.20,0.67,0.99,1*0E
$GNGSA,A,3,08,11,17,36,30,13,,,,,,,1.20,0.67,0.99,4*0C
$GNGSA,A,3,01,,,,,,,,,,,,1.20,0.67,0.99,3*00
$GPGSV,4,1,14,02,31,047,38,05,66,057,39,09,28,167,40,10,11,107,34,0*67
$
GPGSV,4,2,14,12,56,073,39,14,12,262,33,21,15,200,39,24,52,172,39,0*68
$GPGSV,4,3,14,30,61,348,39,31,19,317,37,42,48,147,,50,45,139,,0*6A
$GPGSV,4,4,14,40,11,257,,41,34,237,,0*60
$GBGSV,3,1,09,08,38,318,35,11,21,094,33,13,51,170,34,17,39,040,34,0*75
$GBGSV,3,2,09,30,16,280,31,36,73,266,36,32,,,34,37,,,35,0*71
$GBGSV,3,3,09,02,,,35,0*7A
$GAGSV,1,1,03,01,46,035,37,07,14,261,37,08,56,301,38,0*47

$GNRMC,140836.00,A,3114.00024,N,12130.03281,E,65.967,270.48,010620,,,A,V*3D
$GNGGA,140836.00,3114.00024,N,12130.03281,E,1,17,0.67,52.1,M,,M,,*6D
$GNGSA,A,3,02,05,10,12,14,21,24,30,31,09,,,1.20,0.67,0.99,1*0E
$GNGSA,A,3,08,11,17,36,30,13,,,,,,,1.20,0.67,0.99,4*0C
$GNGSA,A,3,01,,,,,,,,,,,,1.20,0.67,0.99,3*00
$GPGSV,4,1,14,
02,31,047,37,05,66,057,39,09,28,167,39,10,11,107,34,0*66
$GPGSV,4,2,14,12,56,073,39,14,12,262,33,21,15,200,39,24,52,172,39,0*68
$GPGSV,4,3,14,30,61,348,40,31,19,317,38,42,48,147,,50,45,139,,0*6B
$GPGSV,4,4,14,40,11,257,,41,34,237,,0*60
$GBGSV,3,1,09,08,38,318,35,11,21,094,32,13,51,170,35,17,39,040,34,0*75
$GBGSV,3,2,09,30,16,280,32,36,73,266,35,32,,,35,37,,,35,0*70
$GBGSV,3,3,09,02,,,35,0*7A
$GAGSV,1,1,03,01,46,035,37,07,14,261,37,08,56,301,37,0*48

GSA,A,3,01,,,,,,,,,,,,1.20,0.67,0.99,3*00
$GPGSV,4,1,14,02,31,047,38,05,66,057,40,09,28,167,39,10,11,107,34,0*67
$GPGSV,4,2,14,12,56,073,39,14,12,262,33,21,15,200,39,24,52,172,39,0*68
$GPGSV,4,3,14,30,61,348,39,31,19,317,38,42,48,147,,50,45,139,,0*65
$GPGSV,4,4,14,40,11,257,,41,34,237,,0*60
$GBGSV,3,1,09,08,38,318,34,11,21,094,32,13,51,170,35,17,39,040,
35,0*75
$GBGSV,3,2,09,30,16,280,32,36,73,266,35,32,,,35,37,,,35,0*70
$GBGSV,3,3,09,02,,,35,0*7A
$GAGSV,1,1,03,01,46,035,37,07,14,261,37,08,56,301,37,0*48

$GNRMC,140838.00,A,3114.00055,N,12130.00737,E,15.723,275.44,010620,,,A,V*3E
$GNGGA,140838.00,3114.00055,N,12130.00737,E,1,17,0.67,53.0,M,,M,,*6E
$GNGSA,A,3,02,05,10,12,14,21,24,30,31,09,,,1.20,0.67,0.99,1*0E
$GNGSA,A,3,08,11,17,36,30,13,,,,,,,1.20,0.67,0.99,4*0C
$GNGSA,A,3,01,,,,,,,,,,,,1.20,0.67,0.99,3*00
$GPGSV,4,1,14,02,31,047,38,05,66,057,38,09,28,167,40,10,11,107,26,0*65

$GPGSV,4,2,14,12,56,073,39,14,12,262,34,21,15,200,39,24,52,172,39,0*6F
$GPGSV,4,3,14,30,61,348,39,31,19,317,38,42,48,147,,50,45,139,,0*65
$GPGSV,4,4,14,40,11,257,,41,34,237,,0*60
$GBGSV,3,1,09,08,38,318,35,11,21,094,32,13,51,170,35,17,39,040,35,0*74
$GBGSV,3,2,09,30,16,280,32,36,73,266,35,32,,,35,37,,,35,0*70
$GBGSV,3,3,09,02,,,35,0*7A
$GAGSV,1,1,03,01,46,035,37,07,14,261,37,08,56,301,37,0*48

$GNRMC,140839.00,A,3114.00116,N,12130.00573,E,6.025,62.45,010620,,,A,V*3D
$GNGGA,140839.00,3114.00116,N,12130.00573,E,1,17,0.67,52.2,M,,M,,*68
$GNGSA,A,3,02,05,10,12,14,21,24,30,31,09,,,1.20,0.67,0.99,1*0E
$GNGSA,A,3,08,11,17,36,30,13,,,,,,,1.20,0.67,0.99,4*0C
$GNGSA,A,3,01,,,,,,,,,,,,1.20,0.67,0.99,3*00
$GPGSV,4,1,14,02,31,047,39,05,66,057,40,
09,28,167,38,10,11,107,19,0*68
$GPGSV,4,2,14,12,56,073,39,14,12,262,39,21,15,200,39,24,52,172,39,0*62
$GPGSV,4,3,14,30,61,348,39,31,19,317,39,42,48,147,,50,45,139,,0*64
$GPGSV,4,4,14,40,11,257,,41,34,237,,0*60
$GBGSV,3,1,09,08,38,318,35,11,21,094,35,13,51,170,35,17,39,040,35,0*73
$GBGSV,3,2,09,30,16,280,34,36,73,266,35,32,,,35,37,,,34,0*77
$GBGSV,3,3,09,02,,,35,0*7A
$GAGSV,1,1,03,01,46,035,38,07,14,261,37,08,56,301,37,0*47

$GNRMC,140840.00,A,3114.00406,N,12130.00161,E,14.180,327.64,010620,,,A,V*3C
$GNGGA,140840.00,3114.00406,N,12130.00161,E,1,17,0.67,52.3,M,,M,,*64
$GNGSA,A,3,02,05,10,12,14,21,24,30,31,09,,,1.20,0.67,0.99,1*0E
$GNGSA,A,3,08,11,17,36,30,13,,,,,,,1.20,0.67,0.99,4*0C
$GNGSA,A,3,01,,,,,,,,,,,,1.20,0.67,0.99,3*00
$GPGSV,4,1,14,02,31,047,39,05,66,057,39,09,28,167,39,10,11,107,19,0*6
7
$GPGSV,4,2,14,12,56,073,39,14,12,262,39,21,15,200,38,24,52,172,39,0*63
$GPGSV,4,3,14,30,61,348,39,31,19,317,39,42,48,147,,50,45,139,,0*64
$GPGSV,4,4,14,40,11,257,,41,34,237,,0*60
$GBGSV,3,1,09,08,38,318,35,11,21,094,35,13,51,170,34,17,39,040,35,0*72
$GBGSV,3,2,09,30,16,280,35,36,73,266,35,32,,,35,37,,,35,0*77
$GBGSV,3,3,09,02,,,35,0*7A
$GAGSV,1,1,03,01,46,035,37,07,14,261,37,08,56,301,36,0*49

$GNRMC,140841.00,A,3114.00808,N,12129.99995,E,16.760,346.93,010620,,,A,V*31
$GNGGA,140841.00,3114.00808,N,12129.99995,E,1,17,0.67,52.2,M,,M,,*6D
$GNGSA,A,3,02,05,10,12,14,21,24,30,31,09,,,1.20,0.67,0.99,1*0E
$GNGSA,A,3,08,11,17,36,30,13,,,,,,,1.20,0.67,0.99,4*0C
$GNGSA,A,3,01,,,,,,,,,,,,1.20,0.67,0.99,3*00
$GPGSV,4,1,14,02,31,047,
39,05,66,057,39,09,27,167,39,10,11,107,38,0*6B
$GPGSV,4,2,14,12,56,073,39,14,12,262,39,21,15,200,39,24,52,172,39,0*62
$GPGSV,4,3,14,30,61,348,39,31,19,317,39,42,48,147,,50,45,139,,0*64
$GPGSV,4,4,14,40,11,257,,41,34,237,,0*60
$GBGSV,3,1,09,08,38,318,35,11,21,094,35,13,51,170,34,17,39,040,35,0*72
$GBGSV,3,2,09,30,16,280,35,36,73,266,35,32,,,35,37,,,35,0*77
$GBGSV,3,3,09,02,,,35,0*7A
$GAGSV,1,1,03,01,46,036,37,07,14,261,37,08,56,301,38,0*44

$GNRMC,140842.00,A,3114.01362,N,12129.99964,E,23.536,3.22,010620,,,A,V*35
$GNGGA,140842.00,3114.01362,N,12129.99964,E,1,17,0.67,51.8,M,,M,,*6F
$GNGSA,A,3,02,05,10,12,14,21,24,30,31,09,,,1.20,0.67,0.99,1*0E
$GNGSA,A,3,08,11,17,36,30,13,,,,,,,1.20,0.67,0.99,4*0C
$GNGSA,A,3,01,,,,,,,,,,,,1.20,0.67,0.99,3*00
$GPGSV,4,1,14,02,31,047,39,05,66,057,39,09,27,167
,38,10,11,107,38,0*6A
$GPGSV,4,2,14,12,56,073,39,14,12,262,38,21,15,200,35,24,52,172,37,0*61
$GPGSV,4,3,14,30,61,348,38,31,19,317,35,42,48,147,,50,45,139,,0*69
$GPGSV,4,4,14,40,11,257,,41,34,237,,0*60
$GBGSV,3,1,09,08,38,318,34,11,21,094,35,13,51,170,35,17,39,040,34,0*73
$GBGSV,3,2,09,30,16,280,34,36,73,266,35,32,,,34,37,,,34,0*76
$GBGSV,3,3,09,02,,,34,0*7B
$GAGSV,1,1,03,01,46,036,37,07,14,261,37,08,56,301,38,0*44

$GNRMC,140843.00,A,3114.02142,N,12130.00057,E,31.538,9.16,010620,,,A,V*36
$GNGGA,140843.00,3114.02142,N,12130.00057,E,1,17,0.67,51.6,M,,M,,*62
$GNGSA,A,3,02,05,10,12,14,21,24,30,31,09,,,1.20,0.67,0.99,1*0E
$GNGSA,A,3,08,11,17,36,30,13,,,,,,,1.20,0.67,0.99,4*0C
$GNGSA,A,3,01,,,,,,,,,,,,1.20,0.67,0.99,3*00
$GPGSV,4,1,14,02,31,047,38,05,66,057,39,09,27,167,35,10,11,107,39,0*67
$GPGSV,4,2,14,12,56,073,40,14,1
2,262,39,21,15,200,35,24,52,172,38,0*61
$GPGSV,4,3,14,30,61,348,39,31,19,317,36,42,48,147,,50,45,139,,0*6B
$GPGSV,4,4,14,40,11,257,,41,34,237,,0*60
$GBGSV,3,1,09,08,38,318,34,11,21,094,35,13,51,170,35,17,39,040,34,0*73
$GBGSV,3,2,09,30,16,280,35,36,73,266,36,32,,,33,37,,,32,0*75
$GBGSV,3,3,09,02,,,35,0*7A
$GAGSV,1,1,03,01,46,036,37,07,14,261,37,08,56,301,37,0*4B

PGSV,4,1,14,02,31,047,38,05,66,057,38,09,27,167,35,10,11,107,39,0*66
$GPGSV,4,2,14,12,56,073,39,14,12,262,39,21,15,200,35,24,52,172,38,0*6F
$GPGSV,4,3,14,30,61,348,39,31,19,317,37,42,48,147,,50,45,139,,0*6A
$GPGSV,4,4,14,40,11,257,,41,34,237,,0*60
$GBGSV,3,1,09,08,38,318,34,11,21,094,35,13,51,170,35,17,39,040,35,0*72
$GBGSV,3,2,09,30,16,280,35,36,73,266,35,32,
,,33,37,,,33,0*77
$GBGSV,3,3,09,02,,,35,0*7A
$GAGSV,1,1,03,01,46,036,37,07,14,261,37,08,56,301,38,0*44

$GNRMC,140845.00,A,3114.06747,N,12130.00029,E,106.709,0.02,010620,,,A,V*07
$GNGGA,140845.00,3114.06747,N,12130.00029,E,1,17,0.67,53.2,M,,M,,*6C
$GNGSA,A,3,02,05,10,12,14,21,24,30,31,09,,,1.20,0.67,0.99,1*0E
$GNGSA,A,3,08,11,17,36,30,13,,,,,,,1.20,0.67,0.99,4*0C
$GNGSA,A,3,01,,,,,,,,,,,,1.20,0.67,0.99,3*00
$GPGSV,4,1,14,02,3
1,047,39,05,66,057,39,09,27,167,35,10,11,107,39,0*66
$GPGSV,4,2,14,12,56,073,40,14,12,262,40,21,15,200,35,24,52,172,38,0*6F
$GPGSV,4,3,14,30,61,348,40,31,19,317,37,42,48,147,,50,45,139,,0*64
$GPGSV,4,4,14,40,11,257,,41,34,237,,0*60
$GBGSV,3,1,09,08,38,318,35,11,21,094,35,13,51,170,35,17,39,040,35,0*73
$GBGSV,3,2,09,30,16,280,35,36,73,266,35,32,,,33,37,,,33,0*77
$GBGSV,3,3,09,02,,,35,0*7A
$GAGSV,1,1,03,01,46,036,37,07,14,261,37,08,56,301,37,0*4B

$GNRMC,140846.00,A,3114.10131,N,12130.00028,E,133.430,0.11,010620,,,A,V*08
$GNGGA,140846.00,3114.10131,N,12130.00028,E,1,17,0.67,53.4,M,,M,,*68
$GNGSA,A,3,02,05,10,12,14,21,24,30,31,09,,,1.20,0.67,0.99,1*0E
$GNGSA,A,3,08,11,17,36,30,13,,,,,,,1.20,0.67,0.99,4*0C
$GNGSA,A,3,01,,,,,,,,,,,,1.20,0.67,0.99,3*00
$GPGSV,4,1,14,02,31,047,
39,05,66,057,39,09,27,167,35,10,11,107,39,0*66
$GPGSV,4,2,14,12,56,073,39,14,12,262,39,21,15,200,34,24,52,172,38,0*6E
$GPGSV,4,3,14,30,61,348,40,31,19,317,37,42,48,147,,50,45,139,,0*64
$GPGSV,4,4,14,40,11,257,,41,34,237,,0*60
$GBGSV,3,1,09,08,38,318,34,11,21,094,35,13,51,170,35,17,39,040,35,0*72
$GBGSV,3,2,09,30,16,280,35,36,73,266,36,32,,,32,37,,,33,0*75
$GBGSV,3,3,09,02,,,35,0*7A
$GAGSV,1,1,03,01,46,036,37,07,14,261,38,08,56,301,38,0*4B

.99,4*0C
$GNGSA,A,3,01,,,,,,,,,,,,1.20,0.67,0.99,3*00
$GPGSV,4,1,14,02,31,047,38,05,66,057,39,09,27,167,35,10,11,107,39,0*67
$GPGSV,4,2,14,12,56,073,39,14,12,262,39,21,15,200,34,24,52,172,38,0*6E
$GPGSV,4,3,14,30,61,348,39,31,19,317,37,42,48,147,,50,45,139,,0*6A
$GPGSV,4,4,14,40,11,257,,41,34,237,,0*60
$GBGSV,3,1,09,08,38,318,35,11,21,094,35,13,51,170,35,17,39,0
40,34,0*72
$GBGSV,3,2,09,30,16,280,35,36,73,266,36,32,,,33,37,,,33,0*74
$GBGSV,3,3,09,02,,,35,0*7A
$GAGSV,1,1,03,01,46,036,37,07,14,261,37,08,56,301,38,0*44

$GNRMC,140848.00,A,3114.19097,N,12130.00015,E,186.156,359.72,010620,,,A,V*0D
$GNGGA,140848.00,3114.19097,N,12130.00015,E,1,19,0.64,54.7,M,,M,,*65
$GNGSA,A,3,02,05,10,12,14,21,24,30,31,09,,,1.14,0.64,0.94,1*07
$GNGSA,A,3,08,11,17,36,30,13,,,,,,,1.14,0.64,0.94,4*05
$GNGSA,A,3,01,07,08,,,,,,,,,,1.14,0.64,0.94,3*06
$GPGSV,4,1,
14,02,31,047,37,05,66,057,39,09,27,167,38,10,11,107,38,0*64
$GPGSV,4,2,14,12,56,073,39,14,12,262,39,21,15,200,37,24,52,172,38,0*6D
$GPGSV,4,3,14,30,61,348,38,31,19,317,38,42,48,147,,50,45,139,,0*64
$GPGSV,4,4,14,40,11,257,,41,34,237,,0*60
$GBGSV,3,1,09,08,38,318,35,11,21,094,28,13,51,170,34,17,39,040,18,0*71
$GBGSV,3,2,09,30,16,280,35,36,73,266,35,32,,,34,37,,,35,0*76
$GBGSV,3,3,09,02,,,35,0*7A
$GAGSV,1,1,03,01,46,036,37,07,14,261,37,08,56,301,37,0*4B

$GNRMC,140849.00,A,3114.23407,N,12129.99996,E,161.785,0.12,010620,,,A,V*0A
$GNGGA,140849.00,3114.23407,N,12129.99996,E,1,18,0.73,54.4,M,,M,,*6E
$GNGSA,A,3,02,05,10,12,14,21,24,30,31,09,,,1.27,0.73,1.04,1*09
$GNGSA,A,3,08,17,36,30,13,,,,,,,,1.27,0.73,1.04,4*0B
$GNGSA,A,3,01,07,08,,,,,,,,,,1.27,0.73,1.04,3*08
$GPGSV,4,1,14,02,31,047,39,05,66,057,39,09,27,167,39,10,11,107,39,0*6A
$GPGSV,4,2,14
,12,56,073,39,14,12,262,39,21,15,200,39,24,52,172,39,0*62
$GPGSV,4,3,14,30,61,348,39,31,19,317,39,42,48,147,,50,45,139,,0*64
$GPGSV,4,4,14,40,11,257,,41,34,237,,0*60
$GBGSV,3,1,09,08,38,318,35,13,51,170,34,30,16,280,35,36,73,266,36,0*7A
$GBGSV,3,2,09,11,21,094,,17,39,040,18,32,,,35,37,,,35,0*75
$GBGSV,3,3,09,02,,,36,0*79
$GAGSV,1,1,03,01,46,036,37,07,14,261,37,08,56,301,37,0*4B

8,,,,,,,,,,1.27,0.73,1.04,3*08
$GPGSV,4,1,14,02,31,047,39,05,66,057,38,09,27,167,38,10,11,107,39,0*6A
$GPGSV,4,2,14,12,56,073,39,14,12,262,39,21,15,200,39,24,52,172,39,0*62
$GPGSV,4,3,14,30,61,348,39,31,19,317,38,42,48,147,,50,45,139,,0*65
$GPGSV,4,4,14,40,11,257,,41,34,237,,0*60
$GBGSV,3,1,09,08,38,318,35,13,51,170,35,30,16,280,35,36,73,266,35,0*78
$GBGSV,3,2,
09,11,21,094,,17,39,040,10,32,,,35,37,,,35,0*7D
$GBGSV,3,3,09,02,,,35,0*7A
$GAGSV,1,1,03,01,46,036,38,07,14,261,37,08,56,301,37,0*44

$GNRMC,140851.00,A,3114.32469,N,12129.99990,E,162.048,0.00,010620,,,A,V*0B
$GNGGA,140851.00,3114.32469,N,12129.99990,E,1,18,0.73,53.7,M,,M,,*6D
$GNGSA,A,3,02,05,10,12,14,21,24,30,31,09,,,1.27,0.73,1.04,1*09
$GNGSA,A,3,08,17,36,30,13,,,,,,,,1.27,0.73,1.04,4*0B
$GNGSA,A,3,01,07,08,,,,,,,,,,1.27,0.73,1.04,3*08
$GPGSV,4,1,14,02,31,04
7,39,05,66,057,39,09,27,167,39,10,11,107,39,0*6A
$GPGSV,4,2,14,12,56,073,39,14,12,262,39,21,15,200,40,24,52,172,39,0*6C
$GPGSV,4,3,14,30,61,348,39,31,19,317,39,42,48,147,,50,45,139,,0*64
$GPGSV,4,4,14,40,11,257,,41,34,237,,0*60
$GBGSV,3,1,11,08,38,318,35,13,51,170,35,30,16,280,36,36,73,266,35,0*72
$GBGSV,3,2,11,11,21,094,,17,39,040,10,32,,,35,37,,,36,0*77
$GBGSV,3,3,11,02,,,35,29,,,33,23,,,33,0*79
$GAGSV,1,1,03,01,46,036,37,07,14,261,38,08,56,301,37,0*44

$GNRMC,140852.00,A,3114.36987,N,12129.99993,E,160.399,0.02,010620,,,A,V*0D
$GNGGA,140852.00,3114.36987,N,12129.99993,E,1,17,0.73,53.5,M,,M,,*69
$GNGSA,A,3,02,05,10,12,14,21,24,30,31,09,,,1.27,0.73,1.04,1*09
$GNGSA,A,3,08,36,30,13,,,,,,,,,1.27,0.73,1.04,4*0D
$GNGSA,A,3,01,07,08,,,,,,,,,,1.27,0.73,1.04,3*08
$GPGSV,4,1,14,02,31,047,39,05,66,058
,39,09,27,167,39,10,11,107,39,0*65
$GPGSV,4,2,14,12,56,073,39,14,12,262,39,21,15,200,39,24,52,172,39,0*62
$GPGSV,4,3,14,30,61,348,39,31,19,317,39,42,48,147,,50,45,139,,0*64
$GPGSV,4,4,14,40,11,257,,41,34,237,,0*60
$GBGSV,3,1,11,08,38,318,35,13,51,170,34,30,16,280,35,36,73,266,34,0*71
$GBGSV,3,2,11,11,21,094,,17,39,040,,32,,,35,37,,,34,0*74
$GBGSV,3,3,11,02,,,35,29,,,35,23,,,35,0*79
$GAGSV,1,1,03,01,46,036,37,07,14,261,38,08,56,301,38,0*4B

$GPGSV,4,1,14,02,31,047,38,05,66,058,39,09,27,167,35,10,11,107,40,0*66
$GPGSV,4,2,14,12,56,073,39,14,12,262,39,21,15,200,35,24,52,172,38,0*6F
$GPGSV,4,3,14,30,61,348,38,31,19,317,36,42,48,147,,50,45,139,,0*6A
$GPGSV,4,4,14,40,11,257,,41,34,237,,0*60
$GBGSV,3,1,11,08,38,318,34,13,51,170,35,30,16,280,35,36,73,266,36,0*73
$GBGSV,3,2,11,11,21,094,,17,39,040,,32,,,33,
37,,,33,0*75
$GBGSV,3,3,11,02,,,35,29,,,35,23,,,34,0*78
$GAGSV,1,1,03,01,46,036,37,07,14,261,37,08,56,301,37,0*4B

3*08
$GPGSV,4,1,14,02,31,047,38,05,66,058,39,09,27,167,35,10,11,107,39,0*68
$GPGSV,4,2,14,12,56,073,39,14,12,262,39,21,15,200,34,24,52,172,38,0*6E
$GPGSV,4,3,14,30,61,348,39,31,19,317,37,42,48,147,,50,45,139,,0*6A
$GPGSV,4,4,14,40,11,257,,41,34,237,,0*60
$GBGSV,3,1,11,08,38,318,35,13,51,170,35,30,16,280,35,36,73,266,35,0*71
$GBGSV,3,2,11,11,21,094,,
17,39,040,,32,,,33,37,,,33,0*75
$GBGSV,3,3,11,02,,,35,29,,,35,23,,,34,0*78
$GAGSV,1,1,03,01,46,036,37,07,14,261,38,08,56,301,38,0*4B

$GNRMC,140855.00,A,3114.47127,N,12130.00004,E,78.083,0.09,010620,,,A,V*3A
$GNGGA,140855.00,3114.47127,N,12130.00004,E,1,17,0.73,50.7,M,,M,,*64
$GNGSA,A,3,02,05,10,12,14,21,24,30,31,09,,,1.27,0.73,1.04,1*09
$GNGSA,A,3,08,36,30,13,,,,,,,,,1.27,0.73,1.04,4*0D
$GNGSA,A,3,01,07,08,,,,,,,,,,1.27,0.73,1.04,3*08
$GPGSV,4,1,14,02,31,047,38,05,66,058,40,09,27,16
7,35,10,11,107,39,0*66
$GPGSV,4,2,14,12,56,073,39,14,12,262,39,21,15,200,34,24,52,172,38,0*6E
$GPGSV,4,3,14,30,62,348,39,31,19,317,37,42,48,147,,50,45,139,,0*69
$GPGSV,4,4,14,40,11,257,,41,34,237,,0*60
$GBGSV,3,1,11,08,38,318,35,13,51,170,34,30,16,280,35,36,73,266,35,0*70
$GBGSV,3,2,11,11,21,094,,17,39,040,,32,,,33,37,,,32,0*74
$GBGSV,3,3,11,02,,,36,29,,,34,23,,,34,0*7A
$GAGSV,1,1,03,01,46,036,37,07,14,261,38,08,56,301,37,0*44

,3*08
$GPGSV,4,1,14,02,31,047,38,05,66,058,39,09,27,167,35,10,11,107,39,0*68
$GPGSV,4,2,14,12,56,073,39,14,12,262,39,21,15,200,34,24,52,172,39,0*6F
$GPGSV,4,3,14,30,62,348,39,31,19,317,38,42,48,147,,50,45,139,,0*66
$GPGSV,4,4,14,40,11,257,,41,34,237,,0*60
$GBGSV,3,1,11,08,38,318,35,13,51,170,35,30,16,280,35,36,73,266,35,0*71
$GBGSV,3,2,11,11,21,094,,17,39,040,,32
,,,33,37,,,32,0*74
$GBGSV,3,3,11,02,,,35,29,,,35,23,,,35,0*79
$GAGSV,1,1,03,01,46,036,37,07,14,261,37,08,56,301,37,0*4B

.27,0.73,1.04,3*08
$GPGSV,4,1,14,02,31,047,39,05,66,058,39,09,27,167,35,10,11,107,39,0*69
$GPGSV,4,2,14,12,56,073,39,14,12,262,39,21,15,200,35,24,52,172,38,0*6F
$GPGSV,4,3,14,30,62,348,38,31,19,317,36,42,48,147,,50,45,139,,0*69
$GPGSV,4,4,14,40,11,257,,41,34,237,,0*60
$GBGSV,3,1,11,08,38,318,34,13,51,170,34,30,16,280,35,36,73,266,35,0*71
$GBGSV,3,2,
11,11,21,094,,17,39,040,,32,,,33,37,,,33,0*75
$GBGSV,3,3,11,02,,,36,29,,,35,23,,,34,0*7B
$GAGSV,1,1,03,01,46,036,37,07,14,261,37,08,56,301,37,0*4B

$GNRMC,140858.00,A,3114.50311,N,12129.99994,E,4.391,,010620,,,A,V*12
$GNGGA,140858.00,3114.50311,N,12129.99994,E,1,17,0.73,49.4,M,,M,,*6B
$GNGSA,A,3,02,05,10,12,14,21,24,30,31,09,,,1.27,0.73,1.04,1*09
$GNGSA,A,3,08,36,30,13,,,,,,,,,1.27,0.73,1.04,4*0D
$GNGSA,A,3,01,07,08,,,,,,,,,,1.27,0.73,1.04,3*08
$GPGSV,4,1,14,02,31,047,37,05,66,058,38,09,27,167,38,10,11,107,39,0*6B
$GPGSV
,4,2,14,12,56,073,38,14,12,262,39,21,15,200,38,24,52,172,38,0*63
$GPGSV,4,3,14,30,62,348,38,31,19,317,38,42,48,147,,50,45,139,,0*67
$GPGSV,4,4,14,40,11,257,,41,34,237,,0*60
$GBGSV,3,1,11,08,38,318,35,13,51,170,35,30,16,280,35,36,73,266,35,0*71
$GBGSV,3,2,11,11,21,094,,17,39,040,,32,,,35,37,,,35,0*75
$GBGSV,3,3,11,02,,,35,29,,,34,23,,,35,0*78
$GAGSV,1,1,03,01,46,036,37,07,14,261,37,08,56,301,38,0*44

$GNRMC,140859.00,A,3114.50259,N,12130.00066,E,12.141,170.07,010620,,,A,V*35
$GNGGA,140859.00,3114.50259,N,12130.00066,E,1,17,0.73,49.3,M,,M,,*6C
$GNGSA,A,3,02,05,10,12,14,21,24,30,31,09,,,1.27,0.73,1.04,1*09
$GNGSA,A,3,08,36,30,13,,,,,,,,,1.27,0.73,1.04,4*0D
$GNGSA,A,3,01,07,08,,,,,,,,,,1.27,0.73,1.04,3*08
$GPGSV,4,1,14,
02,31,047,39,05,66,058,39,09,27,167,39,10,11,107,39,0*65
$GPGSV,4,2,14,12,56,073,39,14,12,262,39,21,15,200,39,24,52,172,39,0*62
$GPGSV,4,3,14,30,62,348,39,31,19,317,39,42,48,147,,50,45,139,,0*67
$GPGSV,4,4,14,40,11,257,,41,34,237,,0*60
$GBGSV,3,1,11,08,38,318,35,13,51,170,36,30,16,280,35,36,73,266,35,0*72
$GBGSV,3,2,11,11,21,094,,17,39,040,,32,,,35,37,,,36,0*76
$GBGSV,3,3,11,02,,,35,29,,,35,23,,,35,0*79
$GAGSV,1,1,03,01,46,036,37,07,14,261,37,08,56,301,37,0*4B

$GNRMC,140900.00,A,3114.50801,N,12130.00654,E,16.326,67.45,010620,,,A,V*0E
$GNGGA,140900.00,3114.50801,N,12130.00654,E,1,17,0.73,49.2,M,,M,,*60
$GNGSA,A,3,02,05,10,12,14,21,24,30,31,09,,,1.27,0.73,1.04,1*09
$GNGSA,A,3,08,36,30,13,,,,,,,,,1.27,0.73,1.04,4*0D
$GNGSA,A,3,01,07,08,,,,,,,,,,1.27,0.73,1.04,3*08
$GPGSV,4
,1,14,02,31,047,39,05,66,058,40,09,27,167,37,10,11,107,39,0*65
$GPGSV,4,2,14,12,56,073,39,14,12,262,39,21,15,200,39,24,52,172,38,0*63
$GPGSV,4,3,14,30,62,348,38,31,19,317,39,42,48,147,,50,45,139,,0*66
$GPGSV,4,4,14,40,11,257,,41,34,237,,0*60
$GBGSV,3,1,11,08,38,318,35,13,51,170,34,30,16,280,35,36,73,266,34,0*71
$GBGSV,3,2,11,11,21,094,,17,39,040,,32,,,35,37,,,35,0*75
$GBGSV,3,3,11,02,,,35,29,,,34,23,,,35,0*78
$GAGSV,1,1,03,01,46,036,37,07,14,261,36,08,56,301,37,0*4A

0.73,1.04,4*0D
$GNGSA,A,3,01,07,08,,,,,,,,,,1.27,0.73,1.04,3*08
$GPGSV,4,1,14,02,31,047,39,05,66,058,39,09,27,167,39,10,11,107,39,0*65
$GPGSV,4,2,14,12,56,073,40,14,12,262,39,21,15,200,39,24,52,172,39,0*6C
$GPGSV,4,3,14,30,62,348,39,31,19,317,39,42,48,147,,50,45,139,,0*67
$GPGSV,4,4,14,40,11,257,,41,34,237,,0*60
$GBGSV,3,1,11,08,38,318,35,13,51,170,35,30,16,280,
35,36,73,266,35,0*71
$GBGSV,3,2,11,11,21,094,,17,39,040,,32,,,35,37,,,36,0*76
$GBGSV,3,3,11,02,,,35,29,,,35,23,,,35,0*79
$GAGSV,1,1,03,01,46,036,38,07,14,261,37,08,56,301,37,0*44

$GNRMC,140902.00,A,3114.50835,N,12130.01813,E,20.020,103.89,010620,,,A,V*34
$GNGGA,140902.00,3114.50835,N,12130.01813,E,1,17,0.73,49.5,M,,M,,*6E
$GNGSA,A,3,02,05,10,12,14,21,24,30,31,09,,,1.27,0.73,1.04,1*09
$GNGSA,A,3,08,36,30,13,,,,,,,,,1.27,0.73,1.04,4*0D
$GNGSA,A,3,01,07,08,,,,,,,,,,1.27,0.73,1.04,3*08
$GPGSV,4,1,14,02,31,047,36,05,66,058,38,09,27,167,40,10,11,107,34,0*68
$GPGSV,4
,2,14,12,56,073,37,14,12,262,33,21,15,200,37,24,52,172,39,0*68
$GPGSV,4,3,14,30,62,348,39,31,19,317,38,42,48,147,,50,45,139,,0*66
$GPGSV,4,4,14,40,11,257,,41,34,237,,0*60
$GBGSV,3,1,11,08,38,318,34,13,51,170,35,30,16,280,32,36,73,266,35,0*77
$GBGSV,3,2,11,11,21,094,,17,39,040,,32,,,33,37,,,35,0*73
$GBGSV,3,3,11,02,,,35,29,,,32,23,,,34,0*7F
$GAGSV,1,1,03,01,46,036,37,07,14,261,37,08,56,301,37,0*4B

$GNRMC,140903.00,A,3114.50828,N,12130.03731,E,64.741,91.07,010620,,,A,V*08
$GNGGA,140903.00,3114.50828,N,12130.03731,E,1,17,0.73,49.8,M,,M,,*63
$GNGSA,A,3,02,05,10,12,14,21,24,30,31,09,,,1.27,0.73,1.04,1*09
$GNGSA,A,3,08,36,30,13,,,,,,,,,1.27,0.73,1.04,4*0D
$GNGSA,A,3,01,07,08,,,,,,,,,,1.27,0.73,1.04,3*08
$GPGSV,4,1,14,02,31,047,38,05,66,058,39,09,27,167,39,10,11,107,34,
0*69
$GPGSV,4,2,14,12,56,073,39,14,12,262,33,21,15,200,39,24,52,172,39,0*68
$GPGSV,4,3,14,30,62,348,38,31,19,317,38,42,48,147,,50,45,139,,0*67
$GPGSV,4,4,14,40,11,257,,41,34,237,,0*60
$GBGSV,3,1,11,08,38,318,35,13,51,170,35,30,16,280,32,36,73,266,35,0*76
$GBGSV,3,2,11,11,21,094,,17,39,040,,32,,,35,37,,,35,0*75
$GBGSV,3,3,11,02,,,35,29,,,33,23,,,34,0*7E
$GAGSV,1,1,03,01,46,036,38,07,14,261,37,08,56,301,37,0*44

,,,,,,,,,,1.27,0.73,1.04,3*08
$GPGSV,4,1,14,02,31,047,37,05,66,058,39,09,27,167,39,10,11,107,34,0*66
$GPGSV,4,2,14,12,56,073,39,14,12,262,33,21,15,200,39,24,52,172,39,0*68
$GPGSV,4,3,14,30,62,348,39,31,19,317,38,42,48,147,,50,45,139,,0*66
$GPGSV,4,4,14,40,11,257,,41,34,237,,0*60
$GBGSV,3,1,11,08,38,318,35,13,51,170,35,30,16,280,32,36,73,266,35,0*76
$GBGSV,3,2,1
1,11,21,094,,17,39,040,,32,,,35,37,,,35,0*75
$GBGSV,3,3,11,02,,,35,29,,,33,23,,,35,0*7F
$GAGSV,1,1,03,01,46,036,37,07,14,261,37,08,56,301,37,0*4B

$GNRMC,140905.00,A,3114.50837,N,12130.09888,E,120.982,90.01,010620,,,A,V*30
$GNGGA,140905.00,3114.50837,N,12130.09888,E,1,18,0.73,49.7,M,,M,,*6C
$GNGSA,A,3,02,05,10,12,14,21,24,30,31,09,,,1.27,0.73,1.04,1*09
$GNGSA,A,3,08,17,36,30,13,,,,,,,,1.27,0.73,1.04,4*0B
$GNGSA,A,3,01,07,08,,,,,,,,,,1.27,0.73,1.04,3*08
$GPGSV,4,1,14,02,31,047,38,05
,66,058,39,09,27,167,40,10,11,107,34,0*67
$GPGSV,4,2,14,12,56,073,39,14,12,262,33,21,15,200,39,24,52,172,39,0*68
$GPGSV,4,3,14,30,62,348,40,31,19,317,38,42,48,147,,50,45,139,,0*68
$GPGSV,4,4,14,40,11,257,,41,34,237,,0*60
$GBGSV,3,1,11,08,38,318,35,13,51,170,35,30,16,280,32,36,73,266,36,0*75
$GBGSV,3,2,11,11,21,094,,17,39,040,12,32,,,35,37,,,36,0*75
$GBGSV,3,3,11,02,,,35,29,,,33,23,,,34,0*7E
$GAGSV,1,1,03,01,46,036,38,07,14,261,37,08,56,301,37,0*44

$GNRMC,140906.00,A,3114.50843,N,12130.14287,E,147.963,90.07,010620,,,A,V*31
$GNGGA,140906.00,3114.50843,N,12130.14287,E,1,17,0.73,49.7,M,,M,,*6A
$GNGSA,A,3,02,05,10,12,14,21,24,30,31,09,,,1.27,0.73,1.04,1*09
$GNGSA,A,3,08,36,30,13,,,,,,,,,1.27,0.73,1.04,4*0D
$GNGSA,A,3,01,07,08,,,,,,,,,,1.27,0.73,1.04,3*08
$GPGSV,4,1,14,02,31,047,38,05
,66,058,39,09,27,167,38,10,11,107,33,0*6F
$GPGSV,4,2,14,12,56,073,39,14,12,262,34,21,15,200,39,24,52,172,38,0*6E
$GPGSV,4,3,14,30,62,348,39,31,19,317,38,42,48,147,,50,45,139,,0*66
$GPGSV,4,4,14,40,11,257,,41,34,237,,0*60
$GBGSV,3,1,11,08,38,318,36,13,51,170,35,30,16,280,32,36,73,266,35,0*75
$GBGSV,3,2,11,11,21,094,,17,39,040,,32,,,35,37,,,35,0*75
$GBGSV,3,3,11,02,,,36,29,,,33,23,,,34,0*7D
$GAGSV,1,1,03,01,46,036,38,07,14,261,37,08,56,301,37,0*44

$GNRMC,140907.00,A,3114.50852,N,12130.19426,E,166.691,89.90,010620,,,A,V*37
$GNGGA,140907.00,3114.50852,N,12130.19426,E,1,17,0.73,50.3,M,,M,,*67
$GNGSA,A,3,02,05,10,12,14,21,24,30,31,09,,,1.27,0.73,1.04,1*09
$GNGSA,A,3,08,36,30,13,,,,,,,,,1.27,0.73,1.04,4*0D
$GNGSA,A,3,01,07,08,,,,,,,,,,1.27,0.73,1.04,3*08
$GPGSV,4,1,14,02,31,047,
38,05,66,058,38,09,27,167,39,10,11,107,37,0*6B
$GPGSV,4,2,14,12,56,073,39,14,12,262,38,21,15,200,39,24,52,172,39,0*63
$GPGSV,4,3,14,30,62,348,39,31,19,317,39,42,48,147,,50,45,139,,0*67
$GPGSV,4,4,14,40,11,257,,41,34,237,,0*60
$GBGSV,3,1,11,08,38,318,35,13,51,170,35,30,16,280,32,36,73,266,35,0*76
$GBGSV,3,2,11,11,21,094,,17,39,040,,32,,,35,37,,,34,0*74
$GBGSV,3,3,11,02,,,36,29,,,34,23,,,34,0*7A
$GAGSV,1,1,03,01,46,036,37,07,14,261,37,08,56,301,37,0*4B

$GNRMC,140908.00,A,3114.50920,N,12130.25139,E,185.148,88.83,010620,,,A,V*35
$GNGGA,140908.00,3114.50920,N,12130.25139,E,1,17,0.73,50.2,M,,M,,*69
$GNGSA,A,3,02,05,10,12,14,21,24,30,31,09,,,1.27,0.73,1.04,1*09
$GNGSA,A,3,08,36,30,13,,,,,,,,,1.27,0.73,1.04,4*0D
$GNGSA,A,3,01,07,08,,,,,,,,,,1.27,0.73,1.04,3*08
$GPGSV,4,1,14,02,31,047,38,05,66,058,39
,09,27,167,39,10,11,107,39,0*64
$GPGSV,4,2,14,12,56,073,38,14,12,262,39,21,15,200,39,24,52,172,39,0*63
$GPGSV,4,3,14,30,62,348,39,31,19,317,39,42,48,147,,50,45,139,,0*67
$GPGSV,4,4,14,40,11,257,,41,34,237,,0*60
$GBGSV,3,1,11,08,38,318,34,13,51,170,35,30,16,280,35,36,73,265,36,0*70
$GBGSV,3,2,11,11,21,094,,17,39,040,,32,,,36,37,,,35,0*76
$GBGSV,3,3,11,02,,,35,29,,,35,23,,,36,0*7A
$GAGSV,1,1,03,01,46,036,37,07,14,261,37,08,56,301,38,0*44

7,08,,,,,,,,,,1.27,0.73,1.04,3*08
$GPGSV,4,1,14,02,31,047,39,05,66,058,40,09,27,167,39,10,11,107,39,0*6B
$GPGSV,4,2,14,12,56,073,39,14,12,262,39,21,15,200,40,24,52,172,40,0*62
$GPGSV,4,3,14,30,62,348,39,31,19,317,39,42,48,147,,50,45,139,,0*67
$GPGSV,4,4,14,40,11,257,,41,34,237,,0*60
$GBGSV,3,1,11,08,38,318,35,13,51,170,35,30,16,280,35,36,73,265,35,0*7
2
$GBGSV,3,2,11,11,21,094,,17,39,040,,32,,,35,37,,,35,0*75
$GBGSV,3,3,11,02,,,35,29,,,35,23,,,35,0*79
$GAGSV,1,1,03,01,46,036,37,07,14,261,37,08,56,301,37,0*4B

$GNRMC,140910.00,A,3114.50890,N,12130.35494,E,161.886,89.95,010620,,,A,V*32
$GNGGA,140910.00,3114.50890,N,12130.35494,E,1,17,0.73,50.1,M,,M,,*6A
$GNGSA,A,3,02,05,10,12,14,21,24,30,31,09,,,1.27,0.73,1.04,1*09
$GNGSA,A,3,08,36,30,13,,,,,,,,,1.27,0.73,1.04,4*0D
$GNGSA,A,3,01,07,08,,,,,,,,,,1.27,0.73,1.04,3*08
$GPGSV,4,1,14,02,3
1,047,39,05,66,058,40,09,27,167,39,10,11,107,39,0*6B
$GPGSV,4,2,14,12,56,073,39,14,12,262,39,21,15,200,39,24,52,172,39,0*62
$GPGSV,4,3,14,30,62,348,39,31,19,317,39,42,48,147,,50,45,139,,0*67
$GPGSV,4,4,14,40,11,257,,41,34,237,,0*60
$GBGSV,3,1,11,08,38,318,35,13,51,170,35,30,16,280,35,36,73,265,35,0*72
$GBGSV,3,2,11,11,21,094,,17,39,040,,32,,,36,37,,,35,0*76
$GBGSV,3,3,11,02,,,36,29,,,35,23,,,34,0*7B
$GAGSV,1,1,03,01,46,036,38,07,14,261,38,08,56,301,37,0*4B

$GNRMC,140911.00,A,3114.50888,N,12130.40762,E,162.009,90.02,010620,,,A,V*38
$GNGGA,140911.00,3114.50888,N,12130.40762,E,1,17,0.73,50.2,M,,M,,*69
$GNGSA,A,3,02,05,10,12,14,21,24,30,31,09,,,1.27,0.73,1.04,1*09
$GNGSA,A,3,08,36,30,13,,,,,,,,,1.27,0.73,1.04,4*0D
$GNGSA,A,3,01,07,08,,,,,,,,,,1.27,0.73,1.04,3*08
$GPGSV,4,1,14,02,31,047,39,05,66,058,39,09,27,167,39,10,11,107,39,0*65
$GPGSV,4
,2,14,12,56,073,39,14,12,262,39,21,15,200,39,24,52,172,40,0*6C
$GPGSV,4,3,14,30,62,348,39,31,19,317,39,42,48,147,,50,45,139,,0*67
$GPGSV,4,4,14,40,11,257,,41,34,237,,0*60
$GBGSV,3,1,11,08,38,318,35,13,51,170,36,30,16,280,35,36,73,265,35,0*71
$GBGSV,3,2,11,11,21,094,,17,39,040,,32,,,35,37,,,35,0*75
$GBGSV,3,3,11,02,,,35,29,,,35,23,,,35,0*79
$GAGSV,1,1,03,01,46,036,37,07,14,261,37,08,56,301,37,0*4B

0.73,1.04,3*08
$GPGSV,4,1,14,02,31,047,39,05,66,058,39,09,27,167,39,10,11,107,40,0*6B
$GPGSV,4,2,14,12,56,073,38,14,12,262,39,21,15,200,39,24,52,172,39,0*63
$GPGSV,4,3,14,30,62,348,39,31,19,317,40,42,48,147,,50,45,139,,0*69
$GPGSV,4,4,14,40,11,257,,41,34,237,,0*60
$GBGSV,3,1,11,08,38,318,35,13,51,170,35,30,16,280,35,36,73,265,35,0*72
$GBGSV,3,2,11,11,2
1,094,,17,39,040,,32,,,35,37,,,36,0*76
$GBGSV,3,3,11,02,,,35,29,,,35,23,,,35,0*79
$GAGSV,1,1,03,01,46,036,37,07,14,261,37,08,56,301,37,0*4B

$GNRMC,140913.00,A,3114.50891,N,12130.51284,E,161.963,90.00,010620,,,A,V*3B
$GNGGA,140913.00,3114.50891,N,12130.51284,E,1,17,0.73,50.4,M,,M,,*68
$GNGSA,A,3,02,05,10,12,14,21,24,30,31,09,,,1.27,0.73,1.04,1*09
$GNGSA,A,3,08,36,30,13,,,,,,,,,1.27,0.73,1.04,4*0D
$GNGSA,A,3,01,07,08,,,,,,,,,,1.27,0.73,1.04,3*08
$GPGSV,4,1,14,02,31,047,39,05,66,058,39
,09,27,167,38,10,11,107,39,0*64
$GPGSV,4,2,14,12,56,073,40,14,12,261,40,21,15,200,39,24,52,172,39,0*61
$GPGSV,4,3,14,30,62,348,39,31,19,317,39,42,48,147,,50,45,139,,0*67
$GPGSV,4,4,14,40,11,257,,41,34,237,,0*60
$GBGSV,3,1,11,08,38,318,35,13,51,170,35,30,16,280,35,36,73,265,35,0*72
$GBGSV,3,2,11,11,21,094,,17,39,040,,32,,,35,37,,,35,0*75
$GBGSV,3,3,11,02,,,36,29,,,35,23,,,34,0*7B
$GAGSV,1,1,03,01,46,036,37,07,14,261,37,08,56,301,37,0*4B

$GNRMC,140914.00,A,3114.50886,N,12130.56547,E,161.895,90.06,010620,,,A,V*3B
$GNGGA,140914.00,3114.50886,N,12130.56547,E,1,17,0.73,50.2,M,,M,,*60
$GNGSA,A,3,02,05,10,12,14,21,24,30,31,09,,,1.27,0.73,1.04,1*09
$GNGSA,A,3,08,36,30,13,,,,,,,,,1.27,0.73,1.04,4*0D
$GNGSA,A,3,01,07,08,,,,,,,,,,1.27,0.73,1.04,3*08
$GPGSV,4,1,14,02,
31,047,39,05,66,058,39,09,27,167,39,10,11,107,39,0*65
$GPGSV,4,2,14,12,56,073,39,14,12,261,38,21,15,200,40,24,52,172,40,0*60
$GPGSV,4,3,14,30,62,348,39,31,19,317,39,42,48,147,,50,45,139,,0*67
$GPGSV,4,4,14,40,11,257,,41,34,237,,0*60
$GBGSV,3,1,11,08,38,318,34,13,51,170,35,30,16,280,34,36,73,265,36,0*71
$GBGSV,3,2,11,11,21,094,,17,39,040,,32,,,35,37,,,35,0*75
$GBGSV,3,3,11,02,,,35,29,,,35,23,,,34,0*78
$GAGSV,1,1,03,01,46,036,37,07,14,261,37,08,56,301,37,0*4B

$GNRMC,140915.00,A,3114.50885,N,12130.61803,E,161.927,90.01,010620,,,A,V*3F
$GNGGA,140915.00,3114.50885,N,12130.61803,E,1,17,0.73,50.2,M,,M,,*6B
$GNGSA,A,3,02,05,10,12,14,21,24,30,31,09,,,1.27,0.73,1.04,1*09
$GNGSA,A,3,08,36,30,13,,,,,,,,,1.27,0.73,1.04,4*0D
$GNGSA,A,3,01,07,08,,,,,,,,,,1.27,0.73,1.04,3*08
$GPGSV,4,1,14,02,31,047,39,05,66,058,39,09,27,167,38,10,
11,107,39,0*64
$GPGSV,4,2,14,12,56,073,39,14,12,261,39,21,15,200,39,24,52,172,40,0*6F
$GPGSV,4,3,14,30,62,348,39,31,19,317,39,42,48,147,,50,45,139,,0*67
$GPGSV,4,4,14,40,11,257,,41,34,237,,0*60
$GBGSV,3,1,11,08,38,318,35,13,51,170,35,30,16,280,35,36,73,265,35,0*72
$GBGSV,3,2,11,11,21,094,,17,39,040,,32,,,34,37,,,35,0*74
$GBGSV,3,3,11,02,,,34,29,,,35,23,,,35,0*78
$GAGSV,1,1,03,01,46,036,37,07,14,261,37,08,56,301,37,0*4B

.73,1.04,3*08
$GPGSV,4,1,14,02,31,047,40,05,66,058,39,09,27,167,39,10,11,107,39,0*6B
$GPGSV,4,2,14,12,56,073,40,14,12,261,39,21,15,200,39,24,52,172,40,0*61
$GPGSV,4,3,14,30,62,348,39,31,19,317,39,42,48,147,,50,45,139,,0*67
$GPGSV,4,4,14,40,11,257,,41,34,237,,0*60
$GBGSV,3,1,11,08,38,318,35,13,51,170,35,30,16,280,35,36,73,265,35,0*72
$GBGSV,3,2,11,11,21,094,,17
,39,040,,32,,,35,37,,,35,0*75
$GBGSV,3,3,11,02,,,35,29,,,35,23,,,35,0*79
$GAGSV,2,1,08,01,46,036,38,07,14,261,37,08,56,301,37,14,,,37,0*4D
$GAGSV,2,2,08,15,,,36,17,,,37,18,,,36,19,,,38,0*70

,1.27,0.73,1.04,3*08
$GPGSV,4,1,14,02,31,047,39,05,66,058,39,09,27,167,39,10,11,107,39,0*65
$GPGSV,4,2,14,12,56,073,39,14,12,261,39,21,15,200,39,24,52,172,39,0*61
$GPGSV,4,3,14,30,62,348,39,31,19,317,39,42,48,147,,50,45,139,,0*67
$GPGSV,4,4,14,40,11,257,,41,34,237,,0*60
$GBGSV,3,1,11,08,38,318,35,13,51,170,35,30,16,280,35,36,73,265,35,0*72

$GBGSV,3,2,11,11,21,094,10,17,39,040,,32,,,35,37,,,34,0*75
$GBGSV,3,3,11,02,,,35,29,,,35,23,,,35,0*79
$GAGSV,2,1,08,01,46,036,37,07,14,261,37,08,56,301,37,14,,,38,0*4D
$GAGSV,2,2,08,15,,,37,17,,,37,18,,,37,19,,,37,0*7F

,1.27,0.73,1.04,4*0D
$GNGSA,A,3,01,07,08,,,,,,,,,,1.27,0.73,1.04,3*08
$GPGSV,4,1,14,02,31,047,36,05,66,058,38,09,27,167,39,10,11,107,34,0*66
$GPGSV,4,2,14,12,56,073,36,14,12,261,34,21,15,200,38,24,52,172,39,0*62
$GPGSV,4,3,14,30,62,348,40,31,19,317,37,42,48,147,,50,45,139,,0*67
$GPGSV,4,4,14,40,11,257,,41,34,237,,0*60
$GBGSV,3,1,11,08,38,318,34,13,51,170,35,30,16
,280,31,36,73,265,35,0*77
$GBGSV,3,2,11,11,21,094,10,17,39,040,,32,,,34,37,,,34,0*74
$GBGSV,3,3,11,02,,,35,29,,,32,23,,,33,0*78
$GAGSV,2,1,08,01,46,036,37,07,14,261,37,08,56,301,37,14,,,37,0*42
$GAGSV,2,2,08,15,,,37,17,,,37,18,,,37,19,,,37,0*7F

$GNRMC,140919.00,A,3114.50889,N,12130.81580,E,119.350,89.58,010620,,,A,V*36
$GNGGA,140919.00,3114.50889,N,12130.81580,E,1,17,0.73,50.3,M,,M,,*62
$GNGSA,A,3,02,05,10,12,14,21,24,30,31,09,,,1.27,0.73,1.04,1*09
$GNGSA,A,3,08,36,30,13,,,,,,,,,1.27,0.73,1.04,4*0D
$GNGSA,A,3,01,07,08,,,,,,,,,,1.27,0.73,1.04,3*08
$GPGSV,
4,1,14,02,31,047,38,05,66,058,39,09,27,167,39,10,11,107,34,0*69
$GPGSV,4,2,14,12,56,073,39,14,12,261,33,21,15,200,39,24,52,172,39,0*6B
$GPGSV,4,3,14,30,62,348,39,31,19,317,38,42,48,147,,50,45,139,,0*66
$GPGSV,4,4,14,40,11,257,,41,34,237,,0*60
$GBGSV,3,1,11,08,38,318,36,13,51,170,35,30,16,280,32,36,73,265,35,0*76
$GBGSV,3,2,11,11,21,094,,17,39,040,,32,,,35,37,,,35,0*75
$GBGSV,3,3,11,02,,,35,29,,,33,23,,,34,0*7E
$GAGSV,2,1,08,01,46,036,37,07,14,261,37,08,56,301,37,14,,,37,0*42
$GAGSV,2,2,08,15,,,37,17,,,37,18,,,37,19,,,37,0*7F

.73,1.04,4*0D
$GNGSA,A,3,01,07,08,,,,,,,,,,1.27,0.73,1.04,3*08
$GPGSV,4,1,14,02,31,047,38,05,66,058,39,09,27,167,39,10,11,107,34,0*69
$GPGSV,4,2,14,12,56,073,38,14,12,261,34,21,15,200,38,24,52,172,39,0*6C
$GPGSV,4,3,14,30,62,348,39,31,19,317,38,42,48,147,,50,45,139,,0*66
$GPGSV,4,4,14,40,11,257,,41,34,237,,0*60
$GBGSV,3,1,11,08,38,318,34,13,51,170
,35,30,16,280,32,36,73,265,35,0*74
$GBGSV,3,2,11,11,21,094,,17,39,040,,32,,,35,37,,,35,0*75
$GBGSV,3,3,11,02,,,35,29,,,33,23,,,34,0*7E
$GAGSV,2,1,08,01,46,036,38,07,14,261,37,08,56,301,37,14,,,37,0*4D
$GAGSV,2,2,08,15,,,37,17,,,38,18,,,38,19,,,37,0*7F

73,1.04,4*0D
$GNGSA,A,3,01,07,08,,,,,,,,,,1.27,0.73,1.04,3*08
$GPGSV,4,1,14,02,31,047,37,05,66,058,39,09,27,167,39,10,11,107,32,0*60
$GPGSV,4,2,14,12,56,073,38,14,12,261,35,21,15,200,39,24,52,172,39,0*6C
$GPGSV,4,3,14,30,62,348,39,31,19,317,39,42,48,147,,50,45,139,,0*67
$GPGSV,4,4,14,40,11,257,,41,34,237,,0*60
$GBGSV,3,1,11,08,38,318,35,13,51,170,35,30,16,280,33
,36,73,265,35,0*74
$GBGSV,3,2,11,11,21,094,,17,39,040,,32,,,35,37,,,34,0*74
$GBGSV,3,3,11,02,,,35,29,,,34,23,,,33,0*7E
$GAGSV,2,1,08,01,46,036,37,07,14,261,37,08,56,301,37,14,,,37,0*42
$GAGSV,2,2,08,15,,,37,17,,,37,18,,,37,19,,,37,0*7F

27,0.73,1.04,3*08
$GPGSV,4,1,14,02,31,047,38,05,66,058,39,09,27,167,39,10,11,107,33,0*6E
$GPGSV,4,2,14,12,56,073,38,14,12,261,34,21,15,200,39,24,52,172,39,0*6D
$GPGSV,4,3,14,30,62,348,40,31,19,317,37,42,48,147,,50,45,139,,0*67
$GPGSV,4,4,14,40,11,257,,41,34,237,,0*60
$GBGSV,3,1,11,08,38,318,35,13,51,170,36,30,16,280,33,36,73,265,35,0*77
$GBGSV,3,2,11,11,21,
094,,17,39,040,,32,,,34,37,,,35,0*74
$GBGSV,3,3,11,02,,,35,29,,,32,23,,,32,0*79
$GAGSV,2,1,08,01,46,036,37,07,14,261,37,08,56,301,38,14,,,37,0*4D
$GAGSV,2,2,08,15,,,37,17,,,38,18,,,37,19,,,37,0*70

$GNRMC,140923.00,A,3114.50933,N,12130.89964,E,12.975,92.71,010620,,,A,V*07
$GNGGA,140923.00,3114.50933,N,12130.89964,E,1,17,0.73,49.2,M,,M,,*6C
$GNGSA,A,3,02,05,10,12,14,21,24,30,31,09,,,1.27,0.73,1.04,1*09
$GNGSA,A,3,08,36,30,13,,,,,,,,,1.27,0.73,1.04,4*0D
$GNGSA,A,3,01,07,08,,,,,,,,,,1.27,0.73,1.04,3*08
$GPGSV,4,1,14,02,31,047,39,05,66,058,3
9,09,27,167,39,10,11,107,36,0*6A
$GPGSV,4,2,14,12,56,073,39,14,12,261,33,21,15,200,40,24,52,172,38,0*64
$GPGSV,4,3,14,30,62,348,39,31,19,317,37,42,48,147,,50,45,139,,0*69
$GPGSV,4,4,14,40,11,257,,41,34,237,,0*60
$GBGSV,3,1,11,08,38,318,35,13,51,170,34,30,16,280,32,36,73,265,35,0*74
$GBGSV,3,2,11,11,21,094,,17,39,040,,32,,,35,37,,,35,0*75
$GBGSV,3,3,11,02,,,35,29,,,32,23,,,34,0*7F
$GAGSV,2,1,08,01,46,036,38,07,14,261,37,08,56,301,37,14,,,37,0*4D
$GAGSV,2,2,08,15,,,37,17,,,37,18,,,37,19,,,37,0*7F

SV,4,1,14,02,31,047,38,05,66,058,39,09,27,167,39,10,11,107,38,0*65
$GPGSV,4,2,14,12,56,073,39,14,12,261,39,21,15,200,40,24,52,172,40,0*61
$GPGSV,4,3,14,30,62,348,39,31,19,317,39,42,48,147,,50,45,139,,0*67
$GPGSV,4,4,14,40,11,257,,41,34,237,,0*60
$GBGSV,3,1,11,02,56,187,36,08,38,318,35,13,51,170,35,30,16,280,35,0*7E
$GBGSV,3,2,11,36,73,265,35,
11,21,094,,17,39,040,,32,,,35,0*41
$GBGSV,3,3,11,37,,,33,29,,,35,23,,,35,0*79
$GAGSV,2,1,08,01,46,036,38,07,14,261,37,08,56,301,37,14,,,37,0*4D
$GAGSV,2,2,08,15,,,37,17,,,37,18,,,37,19,,,37,0*7F

NGSA,A,3,01,07,08,,,,,,,,,,1.26,0.71,1.03,3*0C
$GPGSV,4,1,14,02,31,047,39,05,66,058,39,09,27,167,39,10,11,107,39,0*65
$GPGSV,4,2,14,12,56,073,39,14,12,261,39,21,15,200,40,24,52,172,40,0*61
$GPGSV,4,3,14,30,62,348,39,31,19,317,39,42,48,147,,50,45,139,,0*67
$GPGSV,4,4,14,40,11,257,,41,34,237,,0*60
$GBGSV,3,1,11,02,56,187,35,08,38,318,35,13,51,170,36,30,16,280,35,0*
7E
$GBGSV,3,2,11,36,73,265,35,11,21,094,,17,39,040,,32,,,35,0*41
$GBGSV,3,3,11,37,,,35,29,,,35,23,,,35,0*7F
$GAGSV,2,1,08,01,46,036,38,07,14,261,37,08,56,301,37,14,,,36,0*4C
$GAGSV,2,2,08,15,,,37,17,,,37,18,,,37,19,,,38,0*70

$GNRMC,140926.00,A,3114.50078,N,12130.90905,E,16.520,168.00,010620,,,A,V*31
$GNGGA,140926.00,3114.50078,N,12130.90905,E,1,18,0.71,49.7,M,,M,,*68
$GNGSA,A,3,02,05,10,12,14,21,24,30,31,09,,,1.26,0.71,1.03,1*0D
$GNGSA,A,3,08,36,02,30,13,,,,,,,,1.26,0.71,1.03,4*0B
$GNGSA,A,3,01,07,08,,,,,,,,,,1.26,0.71,1.03,3*0C
$GPGSV,4,1,14,02,31,047,39,05,66,058,39,09,27,167,39,10,11,107,39,0*65
$GPGSV,4,2,1
4,12,56,073,39,14,12,261,39,21,15,200,39,24,52,172,39,0*61
$GPGSV,4,3,14,30,62,348,39,31,19,317,39,42,48,147,,50,45,139,,0*67
$GPGSV,4,4,14,40,11,257,,41,34,237,,0*60
$GBGSV,3,1,11,02,56,187,36,08,38,318,35,13,51,170,35,30,16,280,36,0*7D
$GBGSV,3,2,11,36,73,265,36,11,21,094,,17,39,040,,32,,,35,0*42
$GBGSV,3,3,11,37,,,35,29,,,34,23,,,35,0*7E
$GAGSV,2,1,08,01,46,036,37,07,14,261,37,08,56,301,37,14,,,37,0*42
$GAGSV,2,2,08,15,,,38,17,,,37,18,,,37,19,,,37,0*70

$GNRMC,140927.00,A,3114.49509,N,12130.90918,E,24.610,182.92,010620,,,A,V*39
$GNGGA,140927.00,3114.49509,N,12130.90918,E,1,18,0.71,49.9,M,,M,,*60
$GNGSA,A,3,02,05,10,12,14,21,24,30,31,09,,,1.26,0.71,1.03,1*0D
$GNGSA,A,3,08,36,02,30,13,,,,,,,,1.26,0.71,1.03,4*0B
$GNGSA,A,3,01,07,08,,,,,,,,,,1.26,0.71,1.03,3*0C
$GPGSV,4,1,14,02,31,0
47,38,05,66,058,39,09,27,167,38,10,11,107,38,0*64
$GPGSV,4,2,14,12,56,073,38,14,12,261,38,21,15,200,36,24,52,172,37,0*60
$GPGSV,4,3,14,30,62,348,38,31,19,317,35,42,48,147,,50,45,139,,0*6A
$GPGSV,4,4,14,40,11,257,,41,34,237,,0*60
$GBGSV,3,1,11,02,56,187,36,08,38,318,34,13,51,170,34,30,16,280,34,0*7F
$GBGSV,3,2,11,36,73,265,35,11,21,094,,17,39,040,,32,,,33,0*47
$GBGSV,3,3,11,37,,,35,29,,,35,23,,,34,0*7E
$GAGSV,2,1,08,01,46,036,37,07,14,261,37,08,56,301,38,14,,,37,0*4D
$GAGSV,2,2,08,15,,,37,17,,,37,18,,,37,19,,,37,0*7F

.03,4*0B
$GNGSA,A,3,01,07,08,,,,,,,,,,1.26,0.71,1.03,3*0C
$GPGSV,4,1,14,02,31,047,38,05,66,058,40,09,27,167,35,10,11,107,39,0*66
$GPGSV,4,2,14,12,56,073,39,14,12,261,39,21,15,200,34,24,52,171,38,0*6E
$GPGSV,4,3,14,30,62,348,39,31,19,317,37,42,48,147,,50,45,139,,0*69
$GPGSV,4,4,14,40,11,257,,41,34,237,,0*60
$GBGSV,3,1,11,02,56,187,36,08,38,318,35,13,51,170
,34,30,16,280,35,0*7F
$GBGSV,3,2,11,36,73,265,35,11,21,094,,17,39,040,,32,,,33,0*47
$GBGSV,3,3,11,37,,,32,29,,,35,23,,,34,0*79
$GAGSV,2,1,08,01,46,036,37,07,14,261,37,08,56,301,37,14,,,37,0*42
$GAGSV,2,2,08,15,,,37,17,,,37,18,,,37,19,,,38,0*70

A,3,01,07,08,,,,,,,,,,1.26,0.71,1.03,3*0C
$GPGSV,4,1,14,02,31,047,39,05,66,058,38,09,27,167,35,10,11,107,39,0*68
$GPGSV,4,2,14,12,56,073,39,14,12,261,39,21,15,200,34,24,52,171,38,0*6E
$GPGSV,4,3,14,30,62,348,39,31,19,317,37,42,48,147,,50,45,139,,0*69
$GPGSV,4,4,14,40,11,257,,41,34,237,,0*60
$GBGSV,3,1,11,02,56,187,35,08,38,318,35,13,51,170,35,30,16,280,35,0*7D
$
GBGSV,3,2,11,36,73,265,35,11,21,094,,17,39,040,,32,,,33,0*47
$GBGSV,3,3,11,37,,,33,29,,,36,23,,,33,0*7C
$GAGSV,2,1,08,01,46,036,37,07,14,261,37,08,56,301,37,14,,,37,0*42
$GAGSV,2,2,08,15,,,37,17,,,37,18,,,37,19,,,37,0*7F

$GNRMC,140930.00,A,3114.44029,N,12130.90826,E,108.033,179.91,010620,,,A,V*06
$GNGGA,140930.00,3114.44029,N,12130.90826,E,1,18,0.71,48.0,M,,M,,*68
$GNGSA,A,3,02,05,10,12,14,21,24,30,31,09,,,1.26,0.71,1.03,1*0D
$GNGSA,A,3,08,36,02,30,13,,,,,,,,1.26,0.71,1.03,4*0B
$GNGSA,A,3,01,07,08,,,,,,,,,,1.26,0.71,1.03,3*0C
$GPGSV,4,1,14,02,31,047,38,05,66,058,39,09,27,167,36,10,11,107,39,0*
6B
$GPGSV,4,2,14,12,56,073,38,14,12,261,39,21,15,200,34,24,52,171,38,0*6F
$GPGSV,4,3,14,30,62,348,40,31,19,317,37,42,48,147,,50,45,139,,0*67
$GPGSV,4,4,14,40,11,257,,41,34,237,,0*60
$GBGSV,3,1,11,02,56,187,35,08,38,318,35,13,51,170,34,30,16,280,35,0*7C
$GBGSV,3,2,11,36,73,265,36,11,21,094,,17,39,040,,32,,,33,0*44
$GBGSV,3,3,11,37,,,33,29,,,35,23,,,35,0*79
$GAGSV,2,1,08,01,46,036,37,07,14,261,38,08,56,301,37,14,,,37,0*4D
$GAGSV,2,2,08,15,,,37,17,,,37,18,,,38,19,,,37,0*70

,,1.26,0.71,1.03,4*0B
$GNGSA,A,3,01,07,08,,,,,,,,,,1.26,0.71,1.03,3*0C
$GPGSV,4,1,14,02,31,047,38,05,66,058,38,09,27,167,35,10,11,107,39,0*69
$GPGSV,4,2,14,12,56,073,39,14,12,261,39,21,15,200,34,24,52,171,38,0*6E
