0007,A,3114.50891,N,12130.17360,E,161.986,90.002,200821,0.000,E,A,V*5D
$GPVTG,90.002,T,90.002,M,161.986,N,299.998,K*45
$GPGSV,10,1,10,2,29,52,25,5,59,51,65,9,31,153,65,12,49,64,65,1*52
$GPGSV,10,2,10,14,25,262,25,21,12,191,65,24,43,157,65,29,65,271,65,1*51
$GPGSV,10,3,10,30,60,353,65,31,21,318,25,2,29,52,25,5,59,51,65,5*5B
$GPGSV,10,4,10,9,31,153,65,12,49,64,65,14,25,262,25,21,12,191,65,5*5D
$GPGSV,10,5,10,24,43,157,65,29,65,271,65,30,60,353,65,31,21,318,25,5*54
$GPGSV,10,6,10,2,29,52,25,5,59,51,65,9,31,153,65,12,49,64,65,6*52
$GPGSV,10,7,10,14,25,262,25,21,12,191,65,24,43,157,65,29,65,271,65,6*53
$GPGSV,10,8,10,30,60,353,65,31,21,318,25,2,29,52,25,5,59,51,65,7*52
$GPGSV,10,9,10,9,31,153,65,12,49,64,65,14,25,262,25,21,12,191,65,7*52
$GPGSV,10,10,10,24,43,157,65,29,65,271,65,30,60,353,65,31,21,318,25,7*62
$GPGSA,A,3,02,05,09,12,14,21,24,29,30,31,,,1.8,0.9,1.5,1*2C
$GPZDA,080007.00,20,08,2021,-8,00*77
$GPGGA,080008,3114.50891,N,12130.22608,E,3,45,0.88,38.11,M,11.89,M,,*46
$GPRMC,080008,A,3114.50891,N,12130.22608,E,161.986,90.002,200821,0.000,E,A,V*5F
$GPVTG,90.002,T,90.002,M,161.986,N,299.998,K*45
$GPGSV,10,1,10,2,29,52,25,5,59,51,65,9,31,153,65,12,49,64,65,1*52
$GPGSV,10,2,10,14,25,262,25,21,12,191,65,24,43,157,65,29,65,271,65,1*51
$GPGSV,10,3,10,30,60,353,65,31,21,318,25,2,29,52,25,5,59,51,65,5*5B
$GPGSV,10,4,10,9,31,153,65,12,49,64,65,14,25,262,25,21,12,191,65,5*5D
$GPGSV,10,5,10,24,43,157,65,29,65,271,65,30,60,353,65,31,21,318,25,5*54
$GPGSV,10,6,10,2,29,52,25,5,59,51,65,9,31,153,65,12,49,64,65,6*52
$GPGSV,10,7,10,14,25,262,25,21,12,191,65,24,43,157,65,29,65,271,65,6*53
$GPGSV,10,8,10,30,60,353,65,31,21,318,25,2,29,52,25,5,59,51,65,7*52
$GPGSV,10,9,10,9,31,153,65,12,49,64,65,14,25,262,25,21,12,191,65,7*52
$GPGSV,10,10,10,24,43,157,65,29,65,271,65,30,60,353,65,31,21,318,25,7*62
$GPGSA,A,3,02,05,09,12,14,21,24,29,30,31,,,1.8,0.9,1.5,1*2C
$GPZDA,080008.00,20,08,2021,-8,00*78
$GPGGA,080009,3114.50890,N,12130.27857,E,3,45,0.88,38.10,M,11.90,M,,*4E
$GPRMC,080009,A,3114.50890,N,12130.27857,E,161.986,90.002,200821,0.000,E,A,V*5E
$GPVTG,90.002,T,90.002,M,161.986,N,299.998,K*45
$GPGSV,10,1,10,2,29,52,25,5,59,51,65,9,31,153,65,12,49,64,65,1*52
$GPGSV,10,2,10,14,25,262,25,21,12,191,65,24,43,157,65,29,65,271,65,1*51
$GPGSV,10,3,10,30,60,353,65,31,21,318,25,2,29,52,25,5,59,51,65,5*5B
$GPGSV,10,4,10,9,31,153,65,12,49,64,65,14,25,262,25,21,12,191,65,5*5D
$GPGSV,10,5,10,24,43,157,65,29,65,271,65,30,60,353,65,31,21,318,25,5*54
$GPGSV,10,6,10,2,29,52,25,5,59,51,65,9,31,153,65,12,49,64,65,6*52
$GPGSV,10,7,10,14,25,262,25,21,12,191,65,24,43,157,65,29,65,271,65,6*53
$GPGSV,10,8,10,30,60,353,65,31,21,318,25,2,29,52,25,5,59,51,65,7*52
$GPGSV,10,9,10,9,31,153,65,12,49,64,65,14,25,262,25,21,12,191,65,7*52
$GPGSV,10,10,10,24,43,157,65,29,65,271,65,30,60,353,65,31,21,318,25,7*62
$GPGSA,A,3,02,05,09,12,14,21,24,29,30,31,,,1.8,0.9,1.5,1*2C
$GPZDA,080009.00,20,08,2021,-8,00*79
$GPGGA,080010,3114.50890,N,12130.33106,E,3,45,0.88,38.10,M,11.90,M,,*4E
$GPRMC,080010,A,3114.50890,N,12130.33106,E,161.986,90.003,200821,0.000,E,A,V*5F
$GPVTG,90.003,T,90.003,M,161.986,N,299.998,K*45
$GPGSV,10,1,10,2,29,52,25,5,59,51,65,9,31,153,65,12,49,64,65,1*52
$GPGSV,10,2,10,14,25,262,25,21,12,191,65,24,43,157,65,29,65,271,65,1*51
$GPGSV,10,3,10,30,60,353,65,31,21,318,25,2,29,52,25,5,59,51,65,5*5B
$GPGSV,10,4,10,9,31,153,65,12,49,64,65,14,25,262,25,21,12,191,65,5*5D
$GPGSV,10,5,10,24,43,157,65,29,65,271,65,30,60,353,65,31,21,318,25,5*54
$GPGSV,10,6,10,2,29,52,25,5,59,51,65,9,31,153,65,12,49,64,65,6*52
$GPGSV,10,7,10,14,25,262,25,21,12,191,65,24,43,157,65,29,65,271,65,6*53
$GPGSV,10,8,10,30,60,353,65,31,21,318,25,2,29,52,25,5,59,51,65,7*52
$GPGSV,10,9,10,9,31,153,65,12,49,64,65,14,25,262,25,21,12,191,65,7*52
$GPGSV,10,10,10,24,43,157,65,29,65,271,65,30,60,353,65,31,21,318,25,7*62
$GPGSA,A,3,02,05,09,12,14,21,24,29,30,31,,,1.8,0.9,1.5,1*2C
$GPZDA,080010.00,20,08,2021,-8,00*71
$GPGGA,080011,3114.50890,N,12130.38354,E,3,45,0.88,38.09,M,11.91,M,,*48
$GPRMC,080011,A,3114.50890,N,12130.38354,E,161.986,90.003,200821,0.000,E,A,V*50
$GPVTG,90.003,T,90.003,M,161.986,N,299.998,K*45
$GPGSV,10,1,10,2,29,52,25,5,59,51,65,9,31,153,65,12,49,64,65,1*52
$GPGSV,10,2,10,14,25,262,25,21,12,191,65,24,43,157,65,29,65,271,65,1*51
$GPGSV,10,3,10,30,60,353,65,31,21,318,25,2,29,52,25,5,59,51,65,5*5B
$GPGSV,10,4,10,9,31,153,65,12,49,64,65,14,25,262,25,21,12,191,65,5*5D
$GPGSV,10,5,10,24,43,157,65,29,65,271,65,30,60,353,65,31,21,318,25,5*54
$GPGSV,10,6,10,2,29,52,25,5,59,51,65,9,31,153,65,12,49,64,65,6*52
$GPGSV,10,7,10,14,25,262,25,21,12,191,65,24,43,157,65,29,65,271,65,6*53
$GPGSV,10,8,10,30,60,353,65,31,21,318,25,2,29,52,25,5,59,51,65,7*52
$GPGSV,10,9,10,9,31,153,65,12,49,64,65,14,25,262,25,21,12,191,65,7*52
$GPGSV,10,10,10,24,43,157,65,29,65,271,65,30,60,353,65,31,21,318,25,7*62
$GPGSA,A,3,02,05,09,12,14,21,24,29,30,31,,,1.8,0.9,1.5,1*2C
$GPZDA,080011.00,20,08,2021,-8,00*70
$GPGGA,080012,3114.50890,N,12130.43603,E,3,45,0.88,38.09,M,11.91,M,,*40
$GPRMC,080012,A,3114.50890,N,12130.43603,E,161.986,90.004,200821,0.000,E,A,V*5F
$GPVTG,90.004,T,90.004,M,161.986,N,299.998,K*45
$GPGSV,10,1,10,2,29,52,25,5,59,51,65,9,31,153,65,12,49,64,65,1*52
$GPGSV,10,2,10,14,25,262,25,21,12,191,65,24,43,157,65,29,65,272,65,1*52
$GPGSV,10,3,10,30,60,354,65,31,21,318,25,2,29,52,25,5,59,51,65,5*5C
$GPGSV,10,4,10,9,31,153,65,12,49,64,65,14,25,262,25,21,12,191,65,5*5D
$GPGSV,10,5,10,24,43,157,65,29,65,272,65,30,60,354,65,31,21,318,25,5*50
$GPGSV,10,6,10,2,29,52,25,5,59,51,65,9,31,153,65,12,49,64,65,6*52
$GPGSV,10,7,10,14,25,262,25,21,12,191,65,24,43,157,65,29,65,272,65,6*50
$GPGSV,10,8,10,30,60,354,65,31,21,318,25,2,29,52,25,5,59,51,65,7*55
$GPGSV,10,9,10,9,31,153,65,12,49,64,65,14,25,262,25,21,12,191,65,7*52
$GPGSV,10,10,10,24,43,157,65,29,65,272,65,30,60,354,65,31,21,318,25,7*66
$GPGSA,A,3,02,05,09,12,14,21,24,29,30,31,,,1.8,0.9,1.5,1*2C
$GPZDA,080012.00,20,08,2021,-8,00*73
$GPGGA,080013,3114.50889,N,12130.48852,E,3,45,0.88,38.08,M,11.92,M,,*4A
$GPRMC,080013,A,3114.50889,N,12130.48852,E,161.986,90.004,200821,0.000,E,A,V*57
$GPVTG,90.004,T,90.004,M,161.986,N,299.998,K*45
$GPGSV,10,1,10,2,29,52,25,5,59,51,65,9,31,153,65,12,49,64,65,1*52
$GPGSV,10,2,10,14,25,262,25,21,12,191,65,24,43,157,65,29,65,272,65,1*52
$GPGSV,10,3,10,30,60,354,65,31,21,318,25,2,29,52,25,5,59,51,65,5*5C
$GPGSV,10,4,10,9,31,153,65,12,49,64,65,14,25,262,25,21,12,191,65,5*5D
$GPGSV,10,5,10,24,43,157,65,29,65,272,65,30,60,354,65,31,21,318,25,5*50
$GPGSV,10,6,10,2,29,52,25,5,59,51,65,9,31,153,65,12,49,64,65,6*52
$GPGSV,10,7,10,14,25,262,25,21,12,191,65,24,43,157,65,29,65,272,65,6*50
$GPGSV,10,8,10,30,60,354,65,31,21,318,25,2,29,52,25,5,59,51,65,7*55
$GPGSV,10,9,10,9,31,153,65,12,49,64,65,14,25,262,25,21,12,191,65,7*52
$GPGSV,10,10,10,24,43,157,65,29,65,272,65,30,60,354,65,31,21,318,25,7*66
$GPGSA,A,3,02,05,09,12,14,21,24,29,30,31,,,1.8,0.9,1.5,1*2C
$GPZDA,080013.00,20,08,2021,-8,00*72
$GPGGA,080014,3114.50889,N,12130.54100,E,3,45,0.88,38.08,M,11.92,M,,*4E
$GPRMC,080014,A,3114.50889,N,12130.54100,E,161.986,90.005,200821,0.000,E,A,V*52
$GPVTG,90.005,T,90.005,M,161.986,N,299.998,K*45
$GPGSV,10,1,10,2,29,52,25,5,59,51,65,9,31,153,65,12,49,64,65,1*52
$GPGSV,10,2,10,14,25,262,25,21,12,191,65,24,43,157,65,29,65,272,65,1*52
$GPGSV,10,3,10,30,60,354,65,31,21,318,25,2,29,52,25,5,59,51,65,5*5C
$GPGSV,10,4,10,9,31,153,65,12,49,64,65,14,25,262,25,21,12,191,65,5*5D
$GPGSV,10,5,10,24,43,157,65,29,65,272,65,30,60,354,65,31,21,318,25,5*50
$GPGSV,10,6,10,2,29,52,25,5,59,51,65,9,31,153,65,12,49,64,65,6*52
$GPGSV,10,7,10,14,25,262,25,21,12,191,65,24,43,157,65,29,65,272,65,6*50
$GPGSV,10,8,10,30,60,354,65,31,21,318,25,2,29,52,25,5,59,51,65,7*55
$GPGSV,10,9,10,9,31,153,65,12,49,64,65,14,25,262,25,21,12,191,65,7*52
$GPGSV,10,10,10,24,43,157,65,29,65,272,65,30,60,354,65,31,21,318,25,7*66
$GPGSA,A,3,02,05,09,12,14,21,24,29,30,31,,,1.8,0.9,1.5,1*2C
$GPZDA,080014.00,20,08,2021,-8,00*75
$GPGGA,080015,3114.50889,N,12130.59349,E,3,45,0.88,38.07,M,11.93,M,,*43
$GPRMC,080015,A,3114.50889,N,12130.59349,E,161.986,90.005,200821,0.000,E,A,V*51
$GPVTG,90.005,T,90.005,M,161.986,N,299.998,K*45
$GPGSV,10,1,10,2,29,52,25,5,59,51,65,9,31,153,65,12,49,64,65,1*52
$GPGSV,10,2,10,14,25,262,25,21,12,191,65,24,43,157,65,29,65,272,65,1*52
$GPGSV,10,3,10,30,60,354,65,31,21,318,25,2,29,52,25,5,59,51,65,5*5C
$GPGSV,10,4,10,9,31,153,65,12,49,64,65,14,25,262,25,21,12,191,65,5*5D
$GPGSV,10,5,10,24,43,157,65,29,65,272,65,30,60,354,65,31,21,318,25,5*50
$GPGSV,10,6,10,2,29,52,25,5,59,51,65,9,31,153,65,12,49,64,65,6*52
$GPGSV,10,7,10,14,25,262,25,21,12,191,65,24,43,157,65,29,65,272,65,6*50
$GPGSV,10,8,10,30,60,354,65,31,21,318,25,2,29,52,25,5,59,51,65,7*55
$GPGSV,10,9,10,9,31,153,65,12,49,64,65,14,25,262,25,21,12,191,65,7*52
$GPGSV,10,10,10,24,43,157,65,29,65,272,65,30,60,354,65,31,21,318,25,7*66
$GPGSA,A,3,02,05,09,12,14,21,24,29,30,31,,,1.8,0.9,1.5,1*2C
$GPZDA,080015.00,20,08,2021,-8,00*74
$GPGGA,080016,3114.50888,N,12130.64597,E,3,45,0.88,38.07,M,11.93,M,,*4A
$GPRMC,080016,A,3114.50888,N,12130.64597,E,161.986,90.006,200821,0.000,E,A,V*5B
$GPVTG,90.006,T,90.006,M,161.986,N,299.998,K*45
$GPGSV,10,1,10,2,29,52,25,5,59,51,65,9,31,153,65,12,49,64,65,1*52
$GPGSV,10,2,10,14,25,262,25,21,12,191,65,24,43,157,65,29,65,272,65,1*52
$GPGSV,10,3,10,30,60,354,65,31,21,318,25,2,29,52,25,5,59,51,65,5*5C
$GPGSV,10,4,10,9,31,153,65,12,49,64,65,14,25,262,25,21,12,191,65,5*5D
$GPGSV,10,5,10,24,43,157,65,29,65,272,65,30,60,354,65,31,21,318,25,5*50
$GPGSV,10,6,10,2,29,52,25,5,59,51,65,9,31,153,65,12,49,64,65,6*52
$GPGSV,10,7,10,14,25,262,25,21,12,191,65,24,43,157,65,29,65,272,65,6*50
$GPGSV,10,8,10,30,60,354,65,31,21,318,25,2,29,52,25,5,59,51,65,7*55
$GPGSV,10,9,10,9,31,153,65,12,49,64,65,14,25,262,25,21,12,191,65,7*52
$GPGSV,10,10,10,24,43,157,65,29,65,272,65,30,60,354,65,31,21,318,25,7*66
$GPGSA,A,3,02,05,09,12,14,21,24,29,30,31,,,1.8,0.9,1.5,1*2C
$GPZDA,080016.00,20,08,2021,-8,00*77
$GPGGA,080017,3114.50888,N,12130.69846,E,3,45,0.88,38.06,M,11.94,M,,*41
$GPRMC,080017,A,3114.50888,N,12130.69846,E,161.986,90.006,200821,0.000,E,A,V*56
$GPVTG,90.006,T,90.006,M,161.986,N,299.998,K*45
$GPGSV,10,1,10,2,29,52,25,5,59,51,65,9,31,153,65,12,49,64,65,1*52
$GPGSV,10,2,10,14,25,262,25,21,12,191,65,24,43,157,65,29,65,272,65,1*52
$GPGSV,10,3,10,30,60,354,65,31,21,318,25,2,29,52,25,5,59,51,65,5*5C
$GPGSV,10,4,10,9,31,153,65,12,49,64,65,14,25,262,25,21,12,191,65,5*5D
$GPGSV,10,5,10,24,43,157,65,29,65,272,65,30,60,354,65,31,21,318,25,5*50
$GPGSV,10,6,10,2,29,52,25,5,59,51,65,9,31,153,65,12,49,64,65,6*52
$GPGSV,10,7,10,14,25,262,25,21,12,191,65,24,43,157,65,29,65,272,65,6*50
$GPGSV,10,8,10,30,60,354,65,31,21,318,25,2,29,52,25,5,59,51,65,7*55
$GPGSV,10,9,10,9,31,153,65,12,49,64,65,14,25,262,25,21,12,191,65,7*52
$GPGSV,10,10,10,24,43,157,65,29,65,272,65,30,60,354,65,31,21,318,25,7*66
$GPGSA,A,3,02,05,09,12,14,21,24,29,30,31,,,1.8,0.9,1.5,1*2C
$GPZDA,080017.00,20,08,2021,-8,00*76
$GPGGA,080018,3114.50887,N,12130.75065,E,3,45,0.88,38.06,M,11.94,M,,*45
$GPRMC,080018,A,3114.50887,N,12130.75065,E,155.031,90.006,200821,0.000,E,A,V*50
$GPVTG,90.006,T,90.006,M,155.031,N,287.117,K*47
$GPGSV,10,1,10,2,29,52,25,5,59,52,65,9,31,153,65,12,49,64,65,1*51
$GPGSV,10,2,10,14,25,262,25,21,12,191,65,24,43,157,65,29,65,272,65,1*52
$GPGSV,10,3,10,30,60,354,65,31,21,318,25,2,29,52,25,5,59,52,65,5*5F
$GPGSV,10,4,10,9,31,153,65,12,49,64,65,14,25,262,25,21,12,191,65,5*5D
$GPGSV,10,5,10,24,43,157,65,29,65,272,65,30,60,354,65,31,21,318,25,5*50
$GPGSV,10,6,10,2,29,52,25,5,59,52,65,9,31,153,65,12,49,64,65,6*51
$GPGSV,10,7,10,14,25,262,25,21,12,191,65,24,43,157,65,29,65,272,65,6*50
$GPGSV,10,8,10,30,60,354,65,31,21,318,25,2,29,52,25,5,59,52,65,7*56
$GPGSV,10,9,10,9,31,153,65,12,49,64,65,14,25,262,25,21,12,191,65,7*52
$GPGSV,10,10,10,24,43,157,65,29,65,272,65,30,60,354,65,31,21,318,25,7*66
$GPGSA,A,3,02,05,09,12,14,21,24,29,30,31,,,1.8,0.9,1.5,1*2C
$GPZDA,080018.00,20,08,2021,-8,00*79
$GPGGA,080019,3114.50887,N,12130.79655,E,3,45,0.88,38.05,M,11.95,M,,*4F
$GPRMC,080019,A,3114.50887,N,12130.79655,E,128.281,90.007,200821,0.000,E,A,V*5A
$GPVTG,90.007,T,90.007,M,128.281,N,237.576,K*4C
$GPGSV,10,1,10,2,29,52,25,5,59,52,65,9,31,153,65,12,49,64,65,1*51
$GPGSV,10,2,10,14,25,262,25,21,12,191,65,24,43,157,65,29,65,272,65,1*52
$GPGSV,10,3,10,30,60,354,65,31,21,318,25,2,29,52,25,5,59,52,65,5*5F
$GPGSV,10,4,10,9,31,153,65,12,49,64,65,14,25,262,25,21,12,191,65,5*5D
$GPGSV,10,5,10,24,43,157,65,29,65,272,65,30,60,354,65,31,21,318,25,5*50
$GPGSV,10,6,10,2,29,52,25,5,59,52,65,9,31,153,65,12,49,64,65,6*51
$GPGSV,10,7,10,14,25,262,25,21,12,191,65,24,43,157,65,29,65,272,65,6*50
$GPGSV,10,8,10,30,60,354,65,31,21,318,25,2,29,52,25,5,59,52,65,7*56
$GPGSV,10,9,10,9,31,153,65,12,49,64,65,14,25,262,25,21,12,191,65,7*52
$GPGSV,10,10,10,24,43,157,65,29,65,272,65,30,60,354,65,31,21,318,25,7*66
$GPGSA,A,3,02,05,09,12,14,21,24,29,30,31,,,1.8,0.9,1.5,1*2C
$GPZDA,080019.00,20,08,2021,-8,00*78
$GPGGA,080020,3114.50886,N,12130.83378,E,3,45,0.88,38.05,M,11.95,M,,*4B
$GPRMC,080020,A,3114.50886,N,12130.83378,E,101.531,90.007,200821,0.000,E,A,V*59
$GPVTG,90.007,T,90.007,M,101.531,N,188.035,K*4E
$GPGSV,10,1,10,2,29,52,25,5,59,52,65,9,31,153,65,12,49,64,65,1*51
$GPGSV,10,2,10,14,25,262,25,21,12,191,65,24,43,157,65,29,65,272,65,1*52
$GPGSV,10,3,10,30,60,354,65,31,21,318,25,2,29,52,25,5,59,52,65,5*5F
$GPGSV,10,4,10,9,31,153,65,12,49,64,65,14,25,262,25,21,12,191,65,5*5D
$GPGSV,10,5,10,24,43,157,65,29,65,272,65,30,60,354,65,31,21,318,25,5*50
$GPGSV,10,6,10,2,29,52,25,5,59,52,65,9,31,153,65,12,49,64,65,6*51
$GPGSV,10,7,10,14,25,262,25,21,12,191,65,24,43,157,65,29,65,272,65,6*50
$GPGSV,10,8,10,30,60,354,65,31,21,318,25,2,29,52,25,5,59,52,65,7*56
$GPGSV,10,9,10,9,31,153,65,12,49,64,65,14,25,262,25,21,12,191,65,7*52
$GPGSV,10,10,10,24,43,157,65,29,65,272,65,30,60,354,65,31,21,318,25,7*66
$GPGSA,A,3,02,05,09,12,14,21,24,29,30,31,,,1.8,0.9,1.5,1*2C
$GPZDA,080020.00,20,08,2021,-8,00*72
$GPGGA,080021,3114.50886,N,12130.86235,E,3,45,0.88,38.05,M,11.95,M,,*47
$GPRMC,080021,A,3114.50886,N,12130.86235,E,74.781,90.007,200821,0.000,E,A,V*6F
$GPVTG,90.007,T,90.007,M,74.781,N,138.494,K*70
$GPGSV,10,1,10,2,29,52,25,5,59,52,65,9,31,153,65,12,49,64,65,1*51
$GPGSV,10,2,10,14,25,262,25,21,12,191,65,24,43,157,65,29,65,272,65,1*52
$GPGSV,10,3,10,30,60,354,65,31,21,318,25,2,29,52,25,5,59,52,65,5*5F
$GPGSV,10,4,10,9,31,153,65,12,49,64,65,14,25,262,25,21,12,191,65,5*5D
$GPGSV,10,5,10,24,43,157,65,29,65,272,65,30,60,354,65,31,21,318,25,5*50
$GPGSV,10,6,10,2,29,52,25,5,59,52,65,9,31,153,65,12,49,64,65,6*51
$GPGSV,10,7,10,14,25,262,25,21,12,191,65,24,43,157,65,29,65,272,65,6*50
$GPGSV,10,8,10,30,60,354,65,31,21,318,25,2,29,52,25,5,59,52,65,7*56
$GPGSV,10,9,10,9,31,153,65,12,49,64,65,14,25,262,25,21,12,191,65,7*52
$GPGSV,10,10,10,24,43,157,65,29,65,272,65,30,60,354,65,31,21,318,25,7*66
$GPGSA,A,3,02,05,09,12,14,21,24,29,30,31,,,1.8,0.9,1.5,1*2C
$GPZDA,080021.00,20,08,2021,-8,00*73
$GPGGA,080022,3114.50886,N,12130.88224,E,3,45,0.88,38.05,M,11.95,M,,*4A
$GPRMC,080022,A,3114.50886,N,12130.88224,E,48.031,90.008,200821,0.000,E,A,V*6E
$GPVTG,90.008,T,90.008,M,48.031,N,88.953,K*4F
$GPGSV,10,1,10,2,29,52,25,5,59,52,65,9,31,153,65,12,49,64,65,1*51
$GPGSV,10,2,10,14,25,262,25,21,12,191,65,24,43,157,65,29,65,272,65,1*52
$GPGSV,10,3,10,30,60,354,65,31,21,318,25,2,29,52,25,5,59,52,65,5*5F
$GPGSV,10,4,10,9,31,153,65,12,49,64,65,14,25,262,25,21,12,191,65,5*5D
$GPGSV,10,5,10,24,43,157,65,29,65,272,65,30,60,354,65,31,21,318,25,5*50
$GPGSV,10,6,10,2,29,52,25,5,59,52,65,9,31,153,65,12,49,64,65,6*51
$GPGSV,10,7,10,14,25,262,25,21,12,191,65,24,43,157,65,29,65,272,65,6*50
$GPGSV,10,8,10,30,60,354,65,31,21,318,25,2,29,52,25,5,59,52,65,7*56
$GPGSV,10,9,10,9,31,153,65,12,49,64,65,14,25,262,25,21,12,191,65,7*52
$GPGSV,10,10,10,24,43,157,65,29,65,272,65,30,60,354,65,31,21,318,25,7*66
$GPGSA,A,3,02,05,09,12,14,21,24,29,30,31,,,1.8,0.9,1.5,1*2C
$GPZDA,080022.00,20,08,2021,-8,00*70
$GPGGA,080023,3114.50886,N,12130.89347,E,3,45,0.88,38.04,M,11.96,M,,*4C
$GPRMC,080023,A,3114.50886,N,12130.89347,E,21.281,90.008,200821,0.000,E,A,V*6C
$GPVTG,90.008,T,90.008,M,21.281,N,39.413,K*4A
$GPGSV,10,1,10,2,29,52,25,5,59,52,65,9,31,153,65,12,49,64,65,1*51
$GPGSV,10,2,10,14,25,262,25,21,12,191,65,24,43,157,65,29,65,272,65,1*52
$GPGSV,10,3,10,30,60,354,65,31,21,318,25,2,29,52,25,5,59,52,65,5*5F
$GPGSV,10,4,10,9,31,153,65,12,49,64,65,14,25,262,25,21,12,191,65,5*5D
$GPGSV,10,5,10,24,43,157,65,29,65,272,65,30,60,354,65,31,21,318,25,5*50
$GPGSV,10,6,10,2,29,52,25,5,59,52,65,9,31,153,65,12,49,64,65,6*51
$GPGSV,10,7,10,14,25,262,25,21,12,191,65,24,43,157,65,29,65,272,65,6*50
$GPGSV,10,8,10,30,60,354,65,31,21,318,25,2,29,52,25,5,59,52,65,7*56
$GPGSV,10,9,10,9,31,153,65,12,49,64,65,14,25,262,25,21,12,191,65,7*52
$GPGSV,10,10,10,24,43,157,65,29,65,272,65,30,60,354,65,31,21,318,25,7*66
$GPGSA,A,3,02,05,09,12,14,21,24,29,30,31,,,1.8,0.9,1.5,1*2C
$GPZDA,080023.00,20,08,2021,-8,00*71
$GPGGA,080024,3114.50825,N,12130.89880,E,3,45,0.88,38.04,M,11.96,M,,*42
$GPRMC,080024,A,3114.50825,N,12130.89880,E,16.199,109.345,200821,0.000,E,A,V*57
$GPVTG,109.345,T,109.345,M,16.199,N,30.000,K*4B
$GPGSV,10,1,10,2,29,52,25,5,59,52,65,9,31,153,65,12,49,64,65,1*51
$GPGSV,10,2,10,14,25,262,25,21,12,191,65,24,43,157,65,29,65,272,65,1*52
$GPGSV,10,3,10,30,60,354,65,31,21,318,25,2,29,52,25,5,59,52,65,5*5F
$GPGSV,10,4,10,9,31,153,65,12,49,64,65,14,25,262,25,21,12,191,65,5*5D
$GPGSV,10,5,10,24,43,157,65,29,65,272,65,30,60,354,65,31,21,318,25,5*50
$GPGSV,10,6,10,2,29,52,25,5,59,52,65,9,31,153,65,12,49,64,65,6*51
$GPGSV,10,7,10,14,25,262,25,21,12,191,65,24,43,157,65,29,65,272,65,6*50
$GPGSV,10,8,10,30,60,354,65,31,21,318,25,2,29,52,25,5,59,52,65,7*56
$GPGSV,10,9,10,9,31,153,65,12,49,64,65,14,25,262,25,21,12,191,65,7*52
$GPGSV,10,10,10,24,43,157,65,29,65,272,65,30,60,354,65,31,21,318,25,7*66
$GPGSA,A,3,02,05,09,12,14,21,24,29,30,31,,,1.8,0.9,1.5,1*2C
$GPZDA,080024.00,20,08,2021,-8,00*76
$GPGGA,080025,3114.50592,N,12130.90325,E,3,45,0.88,38.04,M,11.96,M,,*4E
$GPRMC,080025,A,3114.50592,N,12130.90325,E,16.199,133.218,200821,0.000,E,A,V*5B
$GPVTG,133.218,T,133.218,M,16.199,N,30.000,K*4B
$GPGSV,10,1,10,2,29,52,25,5,59,52,65,9,31,153,65,12,49,64,65,1*51
$GPGSV,10,2,10,14,25,262,25,21,12,191,65,24,43,157,65,29,65,272,65,1*52
$GPGSV,10,3,10,30,60,354,65,31,21,318,25,2,29,52,25,5,59,52,65,5*5F
$GPGSV,10,4,10,9,31,153,65,12,49,64,65,14,25,262,25,21,12,191,65,5*5D
$GPGSV,10,5,10,24,43,157,65,29,65,272,65,30,60,354,65,31,21,318,25,5*50
$GPGSV,10,6,10,2,29,52,25,5,59,52,65,9,31,153,65,12,49,64,65,6*51
$GPGSV,10,7,10,14,25,262,25,21,12,191,65,24,43,157,65,29,65,272,65,6*50
$GPGSV,10,8,10,30,60,354,65,31,21,318,25,2,29,52,25,5,59,52,65,7*56
$GPGSV,10,9,10,9,31,153,65,12,49,64,65,14,25,262,25,21,12,191,65,7*52
$GPGSV,10,10,10,24,43,157,65,29,65,272,65,30,60,354,65,31,21,318,25,7*66
$GPGSA,A,3,02,05,09,12,14,21,24,29,30,31,,,1.8,0.9,1.5,1*2C
$GPZDA,080025.00,20,08,2021,-8,00*77
$GPGGA,080026,3114.50225,N,12130.90623,E,3,45,0.88,38.04,M,11.96,M,,*45
$GPRMC,080026,A,3114.50225,N,12130.90623,E,16.199,157.092,200821,0.000,E,A,V*52
$GPVTG,157.092,T,157.092,M,16.199,N,30.000,K*4B
$GPGSV,10,1,10,2,29,52,25,5,59,52,65,9,31,153,65,12,49,64,65,1*51
$GPGSV,10,2,10,14,25,262,25,21,12,191,65,24,43,157,65,29,65,272,65,1*52
$GPGSV,10,3,10,30,60,354,65,31,21,318,25,2,29,52,25,5,59,52,65,5*5F
$GPGSV,10,4,10,9,31,153,65,12,49,64,65,14,25,262,25,21,12,191,65,5*5D
$GPGSV,10,5,10,24,43,157,65,29,65,272,65,30,60,354,65,31,21,318,25,5*50
$GPGSV,10,6,10,2,29,52,25,5,59,52,65,9,31,153,65,12,49,64,65,6*51
$GPGSV,10,7,10,14,25,262,25,21,12,191,65,24,43,157,65,29,65,272,65,6*50
$GPGSV,10,8,10,30,60,354,65,31,21,318,25,2,29,52,25,5,59,52,65,7*56
$GPGSV,10,9,10,9,31,153,65,12,49,64,65,14,25,262,25,21,12,191,65,7*52
$GPGSV,10,10,10,24,43,157,65,29,65,272,65,30,60,354,65,31,21,318,25,7*66
$GPGSA,A,3,02,05,09,12,14,21,24,29,30,31,,,1.8,0.9,1.5,1*2C
$GPZDA,080026.00,20,08,2021,-8,00*74
$GPGGA,080027,3114.49785,N,12130.90722,E,3,45,0.88,38.04,M,11.96,M,,*43
$GPRMC,080027,A,3114.49785,N,12130.90722,E,17.269,180.008,200821,0.000,E,A,V*50
$GPVTG,180.008,T,180.008,M,17.269,N,31.981,K*47
$GPGSV,10,1,10,2,29,52,25,5,59,52,65,9,31,153,65,12,49,64,65,1*51
$GPGSV,10,2,10,14,25,262,25,21,12,191,65,24,43,157,65,29,65,272,65,1*52
$GPGSV,10,3,10,30,60,354,65,31,21,318,25,2,29,52,25,5,59,52,65,5*5F
$GPGSV,10,4,10,9,31,153,65,12,49,64,65,14,25,262,25,21,12,191,65,5*5D
$GPGSV,10,5,10,24,43,157,65,29,65,272,65,30,60,354,65,31,21,318,25,5*50
$GPGSV,10,6,10,2,29,52,25,5,59,52,65,9,31,153,65,12,49,64,65,6*51
$GPGSV,10,7,10,14,25,262,25,21,12,191,65,24,43,157,65,29,65,272,65,6*50
$GPGSV,10,8,10,30,60,354,65,31,21,318,25,2,29,52,25,5,59,52,65,7*56
$GPGSV,10,9,10,9,31,153,65,12,49,64,65,14,25,262,25,21,12,191,65,7*52
$GPGSV,10,10,10,24,43,157,65,29,65,272,65,30,60,354,65,31,21,318,25,7*66
$GPGSA,A,3,02,05,09,12,14,21,24,29,30,31,,,1.8,0.9,1.5,1*2C
$GPZDA,080027.00,20,08,2021,-8,00*75
$GPGGA,080028,3114.48932,N,12130.90722,E,3,45,0.88,38.04,M,11.96,M,,*4F
$GPRMC,080028,A,3114.48932,N,12130.90722,E,44.019,180.008,200821,0.000,E,A,V*5F
$GPVTG,180.008,T,180.008,M,44.019,N,81.522,K*4A
$GPGSV,10,1,10,2,29,52,25,5,59,52,65,9,31,153,65,12,49,64,65,1*51
$GPGSV,10,2,10,14,25,262,25,21,12,191,65,24,43,157,65,29,65,272,65,1*52
$GPGSV,10,3,10,30,60,354,65,31,21,318,25,2,29,52,25,5,59,52,65,5*5F
$GPGSV,10,4,10,9,31,153,65,12,49,64,65,14,25,262,25,21,12,191,65,5*5D
$GPGSV,10,5,10,24,43,157,65,29,65,272,65,30,60,354,65,31,21,318,25,5*50
$GPGSV,10,6,10,2,29,52,25,5,59,52,65,9,31,153,65,12,49,64,65,6*51
$GPGSV,10,7,10,14,25,262,25,21,12,191,65,24,43,157,65,29,65,272,65,6*50
$GPGSV,10,8,10,30,60,354,65,31,21,318,25,2,29,52,25,5,59,52,65,7*56
$GPGSV,10,9,10,9,31,153,65,12,49,64,65,14,25,262,25,21,12,191,65,7*52
$GPGSV,10,10,10,24,43,157,65,29,65,272,65,30,60,354,65,31,21,318,25,7*66
$GPGSA,A,3,02,05,09,12,14,21,24,29,30,31,,,1.8,0.9,1.5,1*2C
$GPZDA,080028.00,20,08,2021,-8,00*7A
$GPGGA,080029,3114.47334,N,12130.90722,E,3,45,0.88,38.04,M,11.96,M,,*4D
$GPRMC,080029,A,3114.47334,N,12130.90722,E,70.768,180.008,200821,0.000,E,A,V*5B
$GPVTG,180.008,T,180.008,M,70.768,N,131.063,K*76
$GPGSV,10,1,10,2,29,52,25,5,59,52,65,9,31,153,65,12,49,64,65,1*51
$GPGSV,10,2,10,14,25,262,25,21,12,191,65,24,43,157,65,29,65,272,65,1*52
$GPGSV,10,3,10,30,60,354,65,31,21,318,25,2,29,52,25,5,59,52,65,5*5F
$GPGSV,10,4,10,9,31,153,65,12,49,64,65,14,25,262,25,21,12,191,65,5*5D
$GPGSV,10,5,10,24,43,157,65,29,65,272,65,30,60,354,65,31,21,318,25,5*50
$GPGSV,10,6,10,2,29,52,25,5,59,52,65,9,31,153,65,12,49,64,65,6*51
$GPGSV,10,7,10,14,25,262,25,21,12,191,65,24,43,157,65,29,65,272,65,6*50
$GPGSV,10,8,10,30,60,354,65,31,21,318,25,2,29,52,25,5,59,52,65,7*56
$GPGSV,10,9,10,9,31,153,65,12,49,64,65,14,25,262,25,21,12,191,65,7*52
$GPGSV,10,10,10,24,43,157,65,29,65,272,65,30,60,354,65,31,21,318,25,7*66
$GPGSA,A,3,02,05,09,12,14,21,24,29,30,31,,,1.8,0.9,1.5,1*2C
$GPZDA,080029.00,20,08,2021,-8,00*7B
$GPGGA,080030,3114.44991,N,12130.90721,E,3,45,0.88,38.04,M,11.96,M,,*40
$GPRMC,080030,A,3114.44991,N,12130.90721,E,97.518,180.008,200821,0.000,E,A,V*5A
$GPVTG,180.008,T,180.008,M,97.518,N,180.604,K*77
$GPGSV,10,1,10,2,29,52,25,5,59,52,65,9,31,153,65,12,49,64,65,1*51
$GPGSV,10,2,10,14,25,262,25,21,12,191,65,24,43,157,65,29,65,272,65,1*52
$GPGSV,10,3,10,30,60,354,65,31,21,318,25,2,29,52,25,5,59,52,65,5*5F
$GPGSV,10,4,10,9,31,153,65,12,49,64,65,14,25,262,25,21,12,191,65,5*5D
$GPGSV,10,5,10,24,43,157,65,29,65,272,65,30,60,354,65,31,21,318,25,5*50
$GPGSV,10,6,10,2,29,52,25,5,59,52,65,9,31,153,65,12,49,64,65,6*51
$GPGSV,10,7,10,14,25,262,25,21,12,191,65,24,43,157,65,29,65,272,65,6*50
$GPGSV,10,8,10,30,60,354,65,31,21,318,25,2,29,52,25,5,59,52,65,7*56
$GPGSV,10,9,10,9,31,153,65,12,49,64,65,14,25,262,25,21,12,191,65,7*52
$GPGSV,10,10,10,24,43,157,65,29,65,272,65,30,60,354,65,31,21,318,25,7*66
$GPGSA,A,3,02,05,09,12,14,21,24,29,30,31,,,1.8,0.9,1.5,1*2C
$GPZDA,080030.00,20,08,2021,-8,00*73
$GPGGA,080031,3114.41904,N,12130.90721,E,3,45,0.88,38.04,M,11.96,M,,*48
$GPRMC,080031,A,3114.41904,N,12130.90721,E,124.268,180.008,200821,0.000,E,A,V*6B
$GPVTG,180.008,T,180.008,M,124.268,N,230.145,K*44
$GPGSV,10,1,10,2,29,52,25,5,59,52,65,9,31,153,65,12,49,64,65,1*51
$GPGSV,10,2,10,14,25,262,25,21,12,191,65,24,43,157,65,29,65,272,65,1*52
$GPGSV,10,3,10,30,60,354,65,31,21,318,25,2,29,52,25,5,59,52,65,5*5F
$GPGSV,10,4,10,9,31,153,65,12,49,64,65,14,25,262,25,21,12,191,65,5*5D
$GPGSV,10,5,10,24,43,157,65,29,65,272,65,30,60,354,65,31,21,318,25,5*50
$GPGSV,10,6,10,2,29,52,25,5,59,52,65,9,31,153,65,12,49,64,65,6*51
$GPGSV,10,7,10,14,25,262,25,21,12,191,65,24,43,157,65,29,65,272,65,6*50
$GPGSV,10,8,10,30,60,354,65,31,21,318,25,2,29,52,25,5,59,52,65,7*56
$GPGSV,10,9,10,9,31,153,65,12,49,64,65,14,25,262,25,21,12,191,65,7*52
$GPGSV,10,10,10,24,43,157,65,29,65,272,65,30,60,354,65,31,21,318,25,7*66
$GPGSA,A,3,02,05,09,12,14,21,24,29,30,31,,,1.8,0.9,1.5,1*2C
$GPZDA,080031.00,20,08,2021,-8,00*72
$GPGGA,080032,3114.38072,N,12130.90720,E,3,45,0.88,38.04,M,11.96,M,,*4C
$GPRMC,080032,A,3114.38072,N,12130.90720,E,151.018,180.008,200821,0.000,E,A,V*68
$GPVTG,180.008,T,180.008,M,151.018,N,279.686,K*46
$GPGSV,10,1,10,2,29,52,25,5,59,52,65,9,31,153,65,12,49,64,65,1*51
$GPGSV,10,2,10,14,25,262,25,21,12,191,65,24,43,157,65,29,65,272,65,1*52
$GPGSV,10,3,10,30,60,354,65,31,21,318,25,2,29,52,25,5,59,52,65,5*5F
$GPGSV,10,4,10,9,31,153,65,12,49,64,65,14,25,262,25,21,12,191,65,5*5D
$GPGSV,10,5,10,24,43,157,65,29,65,272,65,30,60,354,65,31,21,318,25,5*50
$GPGSV,10,6,10,2,29,52,25,5,59,52,65,9,31,153,65,12,49,64,65,6*51
$GPGSV,10,7,10,14,25,262,25,21,12,191,65,24,43,157,65,29,65,272,65,6*50
$GPGSV,10,8,10,30,60,354,65,31,21,318,25,2,29,52,25,5,59,52,65,7*56
$GPGSV,10,9,10,9,31,153,65,12,49,64,65,14,25,262,25,21,12,191,65,7*52
$GPGSV,10,10,10,24,43,157,65,29,65,272,65,30,60,354,65,31,21,318,25,7*66
$GPGSA,A,3,02,05,09,12,14,21,24,29,30,31,,,1.8,0.9,1.5,1*2C
$GPZDA,080032.00,20,08,2021,-8,00*71
$GPGGA,080033,3114.33625,N,12130.90720,E,3,45,0.88,38.04,M,11.96,M,,*42
$GPRMC,080033,A,3114.33625,N,12130.90720,E,161.986,180.008,200821,0.000,E,A,V*6B
$GPVTG,180.008,T,180.008,M,161.986,N,299.998,K*45
$GPGSV,10,1,10,2,29,52,25,5,59,52,65,9,31,153,65,12,49,64,65,1*51
$GPGSV,10,2,10,14,25,262,25,21,12,191,65,24,43,157,65,29,65,272,65,1*52
$GPGSV,10,3,10,30,60,354,65,31,21,318,25,2,29,52,25,5,59,52,65,5*5F
$GPGSV,10,4,10,9,31,153,65,12,49,64,65,14,25,262,25,21,12,191,65,5*5D
$GPGSV,10,5,10,24,43,157,65,29,65,272,65,30,60,354,65,31,21,318,25,5*50
$GPGSV,10,6,10,2,29,52,25,5,59,52,65,9,31,153,65,12,49,64,65,6*51
$GPGSV,10,7,10,14,25,262,25,21,12,191,65,24,43,157,65,29,65,272,65,6*50
$GPGSV,10,8,10,30,60,354,65,31,21,318,25,2,29,52,25,5,59,52,65,7*56
$GPGSV,10,9,10,9,31,153,65,12,49,64,65,14,25,262,25,21,12,191,65,7*52
$GPGSV,10,10,10,24,43,157,65,29,65,272,65,30,60,354,65,31,21,318,25,7*66
$GPGSA,A,3,02,05,09,12,14,21,24,29,30,31,,,1.8,0.9,1.5,1*2C
$GPZDA,080033.00,20,08,2021,-8,00*70
$GPGGA,080034,3114.29115,N,12130.90719,E,3,45,0.88,38.04,M,11.96,M,,*40
$GPRMC,080034,A,3114.29115,N,12130.90719,E,161.986,180.008,200821,0.000,E,A,V*69
$GPVTG,180.008,T,180.008,M,161.986,N,299.998,K*45
$GPGSV,10,1,10,2,29,52,25,5,59,52,65,9,31,153,65,12,49,64,65,1*51
$GPGSV,10,2,10,14,25,262,25,21,12,191,65,24,43,157,65,29,65,272,65,1*52
$GPGSV,10,3,10,30,60,354,65,31,21,318,25,2,29,52,25,5,59,52,65,5*5F
$GPGSV,10,4,10,9,31,153,65,12,49,64,65,14,25,262,25,21,12,191,65,5*5D
$GPGSV,10,5,10,24,43,157,65,29,65,272,65,30,60,354,65,31,21,318,25,5*50
$GPGSV,10,6,10,2,29,52,25,5,59,52,65,9,31,153,65,12,49,64,65,6*51
$GPGSV,10,7,10,14,25,262,25,21,12,191,65,24,43,157,65,29,65,272,65,6*50
$GPGSV,10,8,10,30,60,354,65,31,21,318,25,2,29,52,25,5,59,52,65,7*56
$GPGSV,10,9,10,9,31,153,65,12,49,64,65,14,25,262,25,21,12,191,65,7*52
$GPGSV,10,10,10,24,43,157,65,29,65,272,65,30,60,354,65,31,21,318,25,7*66
$GPGSA,A,3,02,05,09,12,14,21,24,29,30,31,,,1.8,0.9,1.5,1*2C
$GPZDA,080034.00,20,08,2021,-8,00*77
$GPGGA,080035,3114.24606,N,12130.90718,E,3,45,0.88,38.04,M,11.96,M,,*48
$GPRMC,080035,A,3114.24606,N,12130.90718,E,161.986,180.008,200821,0.000,E,A,V*61
$GPVTG,180.008,T,180.008,M,161.986,N,299.998,K*45
$GPGSV,10,1,10,2,29,52,25,5,59,52,65,9,31,153,65,12,49,64,65,1*51
$GPGSV,10,2,10,14,25,262,25,21,12,191,65,24,43,157,65,29,65,272,65,1*52
$GPGSV,10,3,10,30,60,354,65,31,21,318,25,2,29,52,25,5,59,52,65,5*5F
$GPGSV,10,4,10,9,31,153,65,12,49,64,65,14,25,262,25,21,12,191,65,5*5D
$GPGSV,10,5,10,24,43,157,65,29,65,272,65,30,60,354,65,31,21,318,25,5*50
$GPGSV,10,6,10,2,29,52,25,5,59,52,65,9,31,153,65,12,49,64,65,6*51
$GPGSV,10,7,10,14,25,262,25,21,12,191,65,24,43,157,65,29,65,272,65,6*50
$GPGSV,10,8,10,30,60,354,65,31,21,318,25,2,29,52,25,5,59,52,65,7*56
$GPGSV,10,9,10,9,31,153,65,12,49,64,65,14,25,262,25,21,12,191,65,7*52
$GPGSV,10,10,10,24,43,157,65,29,65,272,65,30,60,354,65,31,21,318,25,7*66
$GPGSA,A,3,02,05,09,12,14,21,24,29,30,31,,,1.8,0.9,1.5,1*2C
$GPZDA,080035.00,20,08,2021,-8,00*76
$GPGGA,080036,3114.20096,N,12130.90717,E,3,45,0.88,38.04,M,11.96,M,,*4F
$GPRMC,080036,A,3114.20096,N,12130.90717,E,161.986,180.008,200821,0.000,E,A,V*66
$GPVTG,180.008,T,180.008,M,161.986,N,299.998,K*45
$GPGSV,10,1,10,2,28,52,25,5,59,52,65,9,31,153,65,12,49,64,65,1*50
$GPGSV,10,2,10,14,25,262,25,21,12,191,65,24,43,157,65,29,66,272,65,1*51
$GPGSV,10,3,10,30,60,354,65,31,21,318,25,2,28,52,25,5,59,52,65,5*5E
$GPGSV,10,4,10,9,31,153,65,12,49,64,65,14,25,262,25,21,12,191,65,5*5D
$GPGSV,10,5,10,24,43,157,65,29,66,272,65,30,60,354,65,31,21,318,25,5*53
$GPGSV,10,6,10,2,28,52,25,5,59,52,65,9,31,153,65,12,49,64,65,6*50
$GPGSV,10,7,10,14,25,262,25,21,12,191,65,24,43,157,65,29,66,272,65,6*53
$GPGSV,10,8,10,30,60,354,65,31,21,318,25,2,28,52,25,5,59,52,65,7*57
$GPGSV,10,9,10,9,31,153,65,12,49,64,65,14,25,262,25,21,12,191,65,7*52
$GPGSV,10,10,10,24,43,157,65,29,66,272,65,30,60,354,65,31,21,318,25,7*65
$GPGSA,A,3,02,05,09,12,14,21,24,29,30,31,,,1.8,0.9,1.5,1*2C
$GPZDA,080036.00,20,08,2021,-8,00*75
$GPGGA,080037,3114.15587,N,12130.90717,E,3,45,0.88,38.04,M,11.96,M,,*4D
$GPRMC,080037,A,3114.15587,N,12130.90717,E,161.986,180.008,200821,0.000,E,A,V*64
$GPVTG,180.008,T,180.008,M,161.986,N,299.998,K*45
$GPGSV,10,1,10,2,28,52,25,5,59,52,65,9,31,153,65,12,49,64,65,1*50
$GPGSV,10,2,10,14,25,262,25,21,12,191,65,24,43,157,65,29,66,272,65,1*51
$GPGSV,10,3,10,30,60,354,65,31,21,318,25,2,28,52,25,5,59,52,65,5*5E
$GPGSV,10,4,10,9,31,153,65,12,49,64,65,14,25,262,25,21,12,191,65,5*5D
$GPGSV,10,5,10,24,43,157,65,29,66,272,65,30,60,354,65,31,21,318,25,5*53
$GPGSV,10,6,10,2,28,52,25,5,59,52,65,9,31,153,65,12,49,64,65,6*50
$GPGSV,10,7,10,14,25,262,25,21,12,191,65,24,43,157,65,29,66,272,65,6*53
$GPGSV,10,8,10,30,60,354,65,31,21,318,25,2,28,52,25,5,59,52,65,7*57
$GPGSV,10,9,10,9,31,153,65,12,49,64,65,14,25,262,25,21,12,191,65,7*52
$GPGSV,10,10,10,24,43,157,65,29,66,272,65,30,60,354,65,31,21,318,25,7*65
$GPGSA,A,3,02,05,09,12,14,21,24,29,30,31,,,1.8,0.9,1.5,1*2C
$GPZDA,080037.00,20,08,2021,-8,00*74
$GPGGA,080038,3114.11304,N,12130.90716,E,3,45,0.88,38.04,M,11.96,M,,*4A
$GPRMC,080038,A,3114.11304,N,12130.90716,E,141.121,180.008,200821,0.000,E,A,V*64
$GPVTG,180.008,T,180.008,M,141.121,N,261.356,K*4D
$GPGSV,10,1,10,2,28,52,25,5,59,52,65,9,31,153,65,12,49,64,65,1*50
$GPGSV,10,2,10,14,25,262,25,21,12,191,65,24,43,157,65,29,66,272,65,1*51
$GPGSV,10,3,10,30,60,354,65,31,21,318,25,2,28,52,25,5,59,52,65,5*5E
$GPGSV,10,4,10,9,31,153,65,12,49,64,65,14,25,262,25,21,12,191,65,5*5D
$GPGSV,10,5,10,24,43,157,65,29,66,272,65,30,60,354,65,31,21,318,25,5*53
$GPGSV,10,6,10,2,28,52,25,5,59,52,65,9,31,153,65,12,49,64,65,6*50
$GPGSV,10,7,10,14,25,262,25,21,12,191,65,24,43,157,65,29,66,272,65,6*53
$GPGSV,10,8,10,30,60,354,65,31,21,318,25,2,28,52,25,5,59,52,65,7*57
$GPGSV,10,9,10,9,31,153,65,12,49,64,65,14,25,262,25,21,12,191,65,7*52
$GPGSV,10,10,10,24,43,157,65,29,66,272,65,30,60,354,65,31,21,318,25,7*65
$GPGSA,A,3,02,05,09,12,14,21,24,29,30,31,,,1.8,0.9,1.5,1*2C
$GPZDA,080038.00,20,08,2021,-8,00*7B
$GPGGA,080039,3114.07747,N,12130.90715,E,3,45,0.88,38.03,M,11.97,M,,*4A
$GPRMC,080039,A,3114.07747,N,12130.90715,E,114.371,180.008,200821,0.000,E,A,V*65
$GPVTG,180.008,T,180.008,M,114.371,N,211.815,K*41
$GPGSV,10,1,10,2,28,52,25,5,59,52,65,9,31,153,65,12,49,64,65,1*50
$GPGSV,10,2,10,14,25,262,25,21,12,191,65,24,43,157,65,29,66,272,65,1*51
$GPGSV,10,3,10,30,60,354,65,31,21,318,25,2,28,52,25,5,59,52,65,5*5E
$GPGSV,10,4,10,9,31,153,65,12,49,64,65,14,25,262,25,21,12,191,65,5*5D
$GPGSV,10,5,10,24,43,157,65,29,66,272,65,30,60,354,65,31,21,318,25,5*53
$GPGSV,10,6,10,2,28,52,25,5,59,52,65,9,31,153,65,12,49,64,65,6*50
$GPGSV,10,7,10,14,25,262,25,21,12,191,65,24,43,157,65,29,66,272,65,6*53
$GPGSV,10,8,10,30,60,354,65,31,21,318,25,2,28,52,25,5,59,52,65,7*57
$GPGSV,10,9,10,9,31,153,65,12,49,64,65,14,25,262,25,21,12,191,65,7*52
$GPGSV,10,10,10,24,43,157,65,29,66,272,65,30,60,354,65,31,21,318,25,7*65
$GPGSA,A,3,02,05,09,12,14,21,24,29,30,31,,,1.8,0.9,1.5,1*2C
$GPZDA,080039.00,20,08,2021,-8,00*7A
$GPGGA,080040,3114.04936,N,12130.90715,E,3,45,0.88,38.03,M,11.97,M,,*4F
$GPRMC,080040,A,3114.04936,N,12130.90715,E,87.621,180.008,200821,0.000,E,A,V*5B
$GPVTG,180.008,T,180.008,M,87.621,N,162.274,K*70
$GPGSV,10,1,10,2,28,52,25,5,59,52,65,9,31,153,65,12,49,64,65,1*50
$GPGSV,10,2,10,14,25,262,25,21,12,191,65,24,43,157,65,29,66,272,65,1*51
$GPGSV,10,3,10,30,60,354,65,31,21,318,25,2,28,52,25,5,59,52,65,5*5E
$GPGSV,10,4,10,9,31,153,65,12,49,64,65,14,25,262,25,21,12,191,65,5*5D
$GPGSV,10,5,10,24,43,157,65,29,66,272,65,30,60,354,65,31,21,318,25,5*53
$GPGSV,10,6,10,2,28,52,25,5,59,52,65,9,31,153,65,12,49,64,65,6*50
$GPGSV,10,7,10,14,25,262,25,21,12,191,65,24,43,157,65,29,66,272,65,6*53
$GPGSV,10,8,10,30,60,354,65,31,21,318,25,2,28,52,25,5,59,52,65,7*57
$GPGSV,10,9,10,9,31,153,65,12,49,64,65,14,25,262,25,21,12,191,65,7*52
$GPGSV,10,10,10,24,43,157,65,29,66,272,65,30,60,354,65,31,21,318,25,7*65
$GPGSA,A,3,02,05,09,12,14,21,24,29,30,31,,,1.8,0.9,1.5,1*2C
$GPZDA,080040.00,20,08,2021,-8,00*74
$GPGGA,080041,3114.02869,N,12130.90715,E,3,45,0.88,38.03,M,11.97,M,,*43
$GPRMC,080041,A,3114.02869,N,12130.90715,E,60.871,180.008,200821,0.000,E,A,V*55
$GPVTG,180.008,T,180.008,M,60.871,N,112.733,K*73
$GPGSV,10,1,10,2,28,52,25,5,59,52,65,9,31,153,65,12,49,64,65,1*50
$GPGSV,10,2,10,14,25,262,25,21,12,191,65,24,43,157,65,29,66,272,65,1*51
$GPGSV,10,3,10,30,60,354,65,31,21,318,25,2,28,52,25,5,59,52,65,5*5E
$GPGSV,10,4,10,9,31,153,65,12,49,64,65,14,25,262,25,21,12,191,65,5*5D
$GPGSV,10,5,10,24,43,157,65,29,66,272,65,30,60,354,65,31,21,318,25,5*53
$GPGSV,10,6,10,2,28,52,25,5,59,52,65,9,31,153,65,12,49,64,65,6*50
$GPGSV,10,7,10,14,25,262,25,21,12,191,65,24,43,157,65,29,66,272,65,6*53
$GPGSV,10,8,10,30,60,354,65,31,21,318,25,2,28,52,25,5,59,52,65,7*57
$GPGSV,10,9,10,9,31,153,65,12,49,64,65,14,25,262,25,21,12,191,65,7*52
$GPGSV,10,10,10,24,43,157,65,29,66,272,65,30,60,354,65,31,21,318,25,7*65
$GPGSA,A,3,02,05,09,12,14,21,24,29,30,31,,,1.8,0.9,1.5,1*2C
$GPZDA,080041.00,20,08,2021,-8,00*75
$GPGGA,080042,3114.01546,N,12130.90715,E,3,45,0.88,38.03,M,11.97,M,,*43
$GPRMC,080042,A,3114.01546,N,12130.90715,E,34.121,180.008,200821,0.000,E,A,V*58
$GPVTG,180.008,T,180.008,M,34.121,N,63.192,K*44
$GPGSV,10,1,10,2,28,52,25,5,59,52,65,9,31,153,65,12,49,64,65,1*50
$GPGSV,10,2,10,14,25,262,25,21,12,191,65,24,43,157,65,29,66,272,65,1*51
$GPGSV,10,3,10,30,60,354,65,31,21,318,25,2,28,52,25,5,59,52,65,5*5E
$GPGSV,10,4,10,9,31,153,65,12,49,64,65,14,25,262,25,21,12,191,65,5*5D
$GPGSV,10,5,10,24,43,157,65,29,66,272,65,30,60,354,65,31,21,318,25,5*53
$GPGSV,10,6,10,2,28,52,25,5,59,52,65,9,31,153,65,12,49,64,65,6*50
$GPGSV,10,7,10,14,25,262,25,21,12,191,65,24,43,157,65,29,66,272,65,6*53
$GPGSV,10,8,10,30,60,354,65,31,21,318,25,2,28,52,25,5,59,52,65,7*57
$GPGSV,10,9,10,9,31,153,65,12,49,64,65,14,25,262,25,21,12,191,65,7*52
$GPGSV,10,10,10,24,43,157,65,29,66,272,65,30,60,354,65,31,21,318,25,7*65
$GPGSA,A,3,02,05,09,12,14,21,24,29,30,31,,,1.8,0.9,1.5,1*2C
$GPZDA,080042.00,20,08,2021,-8,00*76
$GPGGA,080043,3114.00929,N,12130.90703,E,3,45,0.88,38.03,M,11.97,M,,*41
$GPRMC,080043,A,3114.00929,N,12130.90703,E,16.199,187.886,200821,0.000,E,A,V*50
$GPVTG,187.886,T,187.886,M,16.199,N,30.000,K*4B
$GPGSV,10,1,10,2,28,52,25,5,59,52,65,9,31,153,65,12,49,64,65,1*50
$GPGSV,10,2,10,14,25,262,25,21,12,191,65,24,43,157,65,29,66,272,65,1*51
$GPGSV,10,3,10,30,60,354,65,31,21,318,25,2,28,52,25,5,59,52,65,5*5E
$GPGSV,10,4,10,9,31,153,65,12,49,64,65,14,25,262,25,21,12,191,65,5*5D
$GPGSV,10,5,10,24,43,157,65,29,66,272,65,30,60,354,65,31,21,318,25,5*53
$GPGSV,10,6,10,2,28,52,25,5,59,52,65,9,31,153,65,12,49,64,65,6*50
$GPGSV,10,7,10,14,25,262,25,21,12,191,65,24,43,157,65,29,66,272,65,6*53
$GPGSV,10,8,10,30,60,354,65,31,21,318,25,2,28,52,25,5,59,52,65,7*57
$GPGSV,10,9,10,9,31,153,65,12,49,64,65,14,25,262,25,21,12,191,65,7*52
$GPGSV,10,10,10,24,43,157,65,29,66,272,65,30,60,354,65,31,21,318,25,7*65
$GPGSA,A,3,02,05,09,12,14,21,24,29,30,31,,,1.8,0.9,1.5,1*2C
$GPZDA,080043.00,20,08,2021,-8,00*77
$GPGGA,080044,3114.00507,N,12130.90526,E,3,45,0.88,38.03,M,11.97,M,,*43
$GPRMC,080044,A,3114.00507,N,12130.90526,E,16.199,211.759,200821,0.000,E,A,V*53
$GPVTG,211.759,T,211.759,M,16.199,N,30.000,K*4B
$GPGSV,10,1,10,2,28,52,25,5,59,52,65,9,31,153,65,12,49,64,65,1*50
$GPGSV,10,2,10,14,25,262,25,21,12,191,65,24,43,157,65,29,66,272,65,1*51
$GPGSV,10,3,10,30,60,354,65,31,21,318,25,2,28,52,25,5,59,52,65,5*5E
$GPGSV,10,4,10,9,31,153,65,12,49,64,65,14,25,262,25,21,12,191,65,5*5D
$GPGSV,10,5,10,24,43,157,65,29,66,272,65,30,60,354,65,31,21,318,25,5*53
$GPGSV,10,6,10,2,28,52,25,5,59,52,65,9,31,153,65,12,49,64,65,6*50
$GPGSV,10,7,10,14,25,262,25,21,12,191,65,24,43,157,65,29,66,272,65,6*53
$GPGSV,10,8,10,30,60,354,65,31,21,318,25,2,28,52,25,5,59,52,65,7*57
$GPGSV,10,9,10,9,31,153,65,12,49,64,65,14,25,262,25,21,12,191,65,7*52
$GPGSV,10,10,10,24,43,157,65,29,66,272,65,30,60,354,65,31,21,318,25,7*65
$GPGSA,A,3,02,05,09,12,14,21,24,29,30,31,,,1.8,0.9,1.5,1*2C
$GPZDA,080044.00,20,08,2021,-8,00*70
$GPGGA,080045,3114.00184,N,12130.90166,E,3,45,0.88,38.03,M,11.97,M,,*4D
$GPRMC,080045,A,3114.00184,N,12130.90166,E,16.199,235.632,200821,0.000,E,A,V*57
$GPVTG,235.632,T,235.632,M,16.199,N,30.000,K*4B
$GPGSV,10,1,10,2,28,52,25,5,59,52,65,9,31,153,65,12,49,64,65,1*50
$GPGSV,10,2,10,14,25,262,25,21,12,191,65,24,43,157,65,29,66,272,65,1*51
$GPGSV,10,3,10,30,60,354,65,31,21,318,25,2,28,52,25,5,59,52,65,5*5E
$GPGSV,10,4,10,9,31,153,65,12,49,64,65,14,25,262,25,21,12,191,65,5*5D
$GPGSV,10,5,10,24,43,157,65,29,66,272,65,30,60,354,65,31,21,318,25,5*53
$GPGSV,10,6,10,2,28,52,25,5,59,52,65,9,31,153,65,12,49,64,65,6*50
$GPGSV,10,7,10,14,25,262,25,21,12,191,65,24,43,157,65,29,66,272,65,6*53
$GPGSV,10,8,10,30,60,354,65,31,21,318,25,2,28,52,25,5,59,52,65,7*57
$GPGSV,10,9,10,9,31,153,65,12,49,64,65,14,25,262,25,21,12,191,65,7*52
$GPGSV,10,10,10,24,43,157,65,29,66,272,65,30,60,354,65,31,21,318,25,7*65
$GPGSA,A,3,02,05,09,12,14,21,24,29,30,31,,,1.8,0.9,1.5,1*2C
$GPZDA,080045.00,20,08,2021,-8,00*71
$GPGGA,080046,3114.00013,N,12130.89684,E,3,45,0.88,38.03,M,11.97,M,,*42
$GPRMC,080046,A,3114.00013,N,12130.89684,E,16.199,259.506,200821,0.000,E,A,V*56
$GPVTG,259.506,T,259.506,M,16.199,N,30.000,K*4B
$GPGSV,10,1,10,2,28,52,25,5,59,52,65,9,31,153,65,12,49,64,65,1*50
$GPGSV,10,2,10,14,25,262,25,21,12,191,65,24,43,157,65,29,66,272,65,1*51
$GPGSV,10,3,10,30,60,354,65,31,21,318,25,2,28,52,25,5,59,52,65,5*5E
$GPGSV,10,4,10,9,31,153,65,12,49,64,65,14,25,262,25,21,12,191,65,5*5D
$GPGSV,10,5,10,24,43,157,65,29,66,272,65,30,60,354,65,31,21,318,25,5*53
$GPGSV,10,6,10,2,28,52,25,5,59,52,65,9,31,153,65,12,49,64,65,6*50
$GPGSV,10,7,10,14,25,262,25,21,12,191,65,24,43,157,65,29,66,272,65,6*53
$GPGSV,10,8,10,30,60,354,65,31,21,318,25,2,28,52,25,5,59,52,65,7*57
$GPGSV,10,9,10,9,31,153,65,12,49,64,65,14,25,262,25,21,12,191,65,7*52
$GPGSV,10,10,10,24,43,157,65,29,66,272,65,30,60,354,65,31,21,318,25,7*65
$GPGSA,A,3,02,05,09,12,14,21,24,29,30,31,,,1.8,0.9,1.5,1*2C
$GPZDA,080046.00,20,08,2021,-8,00*72
$GPGGA,080047,3113.99995,N,12130.89025,E,3,45,0.88,38.03,M,11.97,M,,*4E
$GPRMC,080047,A,3113.99995,N,12130.89025,E,31.179,270.008,200821,0.000,E,A,V*51
$GPVTG,270.008,T,270.008,M,31.179,N,57.743,K*41
$GPGSV,10,1,10,2,28,52,25,5,59,52,65,9,31,153,65,12,49,64,65,1*50
$GPGSV,10,2,10,14,25,262,25,21,12,191,65,24,43,157,65,29,66,272,65,1*51
$GPGSV,10,3,10,30,60,354,65,31,21,318,25,2,28,52,25,5,59,52,65,5*5E
$GPGSV,10,4,10,9,31,153,65,12,49,64,65,14,25,262,25,21,12,191,65,5*5D
$GPGSV,10,5,10,24,43,157,65,29,66,272,65,30,60,354,65,31,21,318,25,5*53
$GPGSV,10,6,10,2,28,52,25,5,59,52,65,9,31,153,65,12,49,64,65,6*50
$GPGSV,10,7,10,14,25,262,25,21,12,191,65,24,43,157,65,29,66,272,65,6*53
$GPGSV,10,8,10,30,60,354,65,31,21,318,25,2,28,52,25,5,59,52,65,7*57
$GPGSV,10,9,10,9,31,153,65,12,49,64,65,14,25,262,25,21,12,191,65,7*52
$GPGSV,10,10,10,24,43,157,65,29,66,272,65,30,60,354,65,31,21,318,25,7*65
$GPGSA,A,3,02,05,09,12,14,21,24,29,30,31,,,1.8,0.9,1.5,1*2C
$GPZDA,080047.00,20,08,2021,-8,00*73
$GPGGA,080048,3113.99995,N,12130.87581,E,3,45,0.88,38.04,M,11.96,M,,*42
$GPRMC,080048,A,3113.99995,N,12130.87581,E,57.928,270.008,200821,0.000,E,A,V*57
$GPVTG,270.008,T,270.008,M,57.928,N,107.284,K*77
$GPGSV,10,1,10,2,28,52,25,5,59,52,65,9,31,153,65,12,49,64,65,1*50
$GPGSV,10,2,10,14,24,262,25,21,12,191,65,24,43,157,65,29,66,272,65,1*50
$GPGSV,10,3,10,30,60,354,65,31,21,318,25,2,28,52,25,5,59,52,65,5*5E
$GPGSV,10,4,10,9,31,153,65,12,49,64,65,14,24,262,25,21,12,191,65,5*5C
$GPGSV,10,5,10,24,43,157,65,29,66,272,65,30,60,354,65,31,21,318,25,5*53
$GPGSV,10,6,10,2,28,52,25,5,59,52,65,9,31,153,65,12,49,64,65,6*50
$GPGSV,10,7,10,14,24,262,25,21,12,191,65,24,43,157,65,29,66,272,65,6*52
$GPGSV,10,8,10,30,60,354,65,31,21,318,25,2,28,52,25,5,59,52,65,7*57
$GPGSV,10,9,10,9,31,153,65,12,49,64,65,14,24,262,25,21,12,191,65,7*53
$GPGSV,10,10,10,24,43,157,65,29,66,272,65,30,60,354,65,31,21,318,25,7*65
$GPGSA,A,3,02,05,09,12,14,21,24,29,30,31,,,1.8,0.9,1.5,1*2C
$GPZDA,080048.00,20,08,2021,-8,00*7C
$GPGGA,080049,3113.99995,N,12130.85271,E,3,45,0.88,38.04,M,11.96,M,,*49
$GPRMC,080049,A,3113.99995,N,12130.85271,E,84.678,270.007,200821,0.000,E,A,V*57
$GPVTG,270.007,T,270.007,M,84.678,N,156.824,K*77
$GPGSV,10,1,10,2,28,52,25,5,59,52,65,9,31,153,65,12,49,64,65,1*50
$GPGSV,10,2,10,14,24,262,25,21,12,191,65,24,43,157,65,29,66,272,65,1*50
$GPGSV,10,3,10,30,60,354,65,31,21,318,25,2,28,52,25,5,59,52,65,5*5E
$GPGSV,10,4,10,9,31,153,65,12,49,64,65,14,24,262,25,21,12,191,65,5*5C
$GPGSV,10,5,10,24,43,157,65,29,66,272,65,30,60,354,65,31,21,318,25,5*53
$GPGSV,10,6,10,2,28,52,25,5,59,52,65,9,31,153,65,12,49,64,65,6*50
$GPGSV,10,7,10,14,24,262,25,21,12,191,65,24,43,157,65,29,66,272,65,6*52
$GPGSV,10,8,10,30,60,354,65,31,21,318,25,2,28,52,25,5,59,52,65,7*57
$GPGSV,10,9,10,9,31,153,65,12,49,64,65,14,24,262,25,21,12,191,65,7*53
$GPGSV,10,10,10,24,43,157,65,29,66,272,65,30,60,354,65,31,21,318,25,7*65
$GPGSA,A,3,02,05,09,12,14,21,24,29,30,31,,,1.8,0.9,1.5,1*2C
$GPZDA,080049.00,20,08,2021,-8,00*7D
$GPGGA,080050,3113.99996,N,12130.82094,E,3,45,0.88,38.04,M,11.96,M,,*4C
$GPRMC,080050,A,3113.99996,N,12130.82094,E,111.428,270.007,200821,0.000,E,A,V*68
$GPVTG,270.007,T,270.007,M,111.428,N,206.365,K*45
$GPGSV,10,1,10,2,28,52,25,5,59,52,65,9,31,153,65,12,49,64,65,1*50
$GPGSV,10,2,10,14,24,262,25,21,12,191,65,24,43,157,65,29,66,272,65,1*50
$GPGSV,10,3,10,30,60,354,65,31,21,318,25,2,28,52,25,5,59,52,65,5*5E
$GPGSV,10,4,10,9,31,153,65,12,49,64,65,14,24,262,25,21,12,191,65,5*5C
$GPGSV,10,5,10,24,43,157,65,29,66,272,65,30,60,354,65,31,21,318,25,5*53
$GPGSV,10,6,10,2,28,52,25,5,59,52,65,9,31,153,65,12,49,64,65,6*50
$GPGSV,10,7,10,14,24,262,25,21,12,191,65,24,43,157,65,29,66,272,65,6*52
$GPGSV,10,8,10,30,60,354,65,31,21,318,25,2,28,52,25,5,59,52,65,7*57
$GPGSV,10,9,10,9,31,153,65,12,49,64,65,14,24,262,25,21,12,191,65,7*53
$GPGSV,10,10,10,24,43,157,65,29,66,272,65,30,60,354,65,31,21,318,25,7*65
$GPGSA,A,3,02,05,09,12,14,21,24,29,30,31,,,1.8,0.9,1.5,1*2C
$GPZDA,080050.00,20,08,2021,-8,00*75
$GPGGA,080051,3113.99996,N,12130.78051,E,3,45,0.88,38.04,M,11.96,M,,*41
$GPRMC,080051,A,3113.99996,N,12130.78051,E,138.178,270.007,200821,0.000,E,A,V*6E
$GPVTG,270.007,T,270.007,M,138.178,N,255.906,K*47
$GPGSV,10,1,10,2,28,52,25,5,59,52,65,9,31,153,65,12,49,64,65,1*50
$GPGSV,10,2,10,14,24,262,25,21,12,191,65,24,43,157,65,29,66,272,65,1*50
$GPGSV,10,3,10,30,60,354,65,31,21,318,25,2,28,52,25,5,59,52,65,5*5E
$GPGSV,10,4,10,9,31,153,65,12,49,64,65,14,24,262,25,21,12,191,65,5*5C
$GPGSV,10,5,10,24,43,157,65,29,66,272,65,30,60,354,65,31,21,318,25,5*53
$GPGSV,10,6,10,2,28,52,25,5,59,52,65,9,31,153,65,12,49,64,65,6*50
$GPGSV,10,7,10,14,24,262,25,21,12,191,65,24,43,157,65,29,66,272,65,6*52
$GPGSV,10,8,10,30,60,354,65,31,21,318,25,2,28,52,25,5,59,52,65,7*57
$GPGSV,10,9,10,9,31,153,65,12,49,64,65,14,24,262,25,21,12,191,65,7*53
$GPGSV,10,10,10,24,43,157,65,29,66,272,65,30,60,354,65,31,21,318,25,7*65
$GPGSA,A,3,02,05,09,12,14,21,24,29,30,31,,,1.8,0.9,1.5,1*2C
$GPZDA,080051.00,20,08,2021,-8,00*74
$GPGGA,080052,3113.99997,N,12130.73146,E,3,45,0.88,38.05,M,11.95,M,,*4D
$GPRMC,080052,A,3113.99997,N,12130.73146,E,161.986,270.006,200821,0.000,E,A,V*64
$GPVTG,270.006,T,270.006,M,161.986,N,299.998,K*45
$GPGSV,10,1,10,2,28,52,25,5,59,52,65,9,31,153,65,12,49,64,65,1*50
$GPGSV,10,2,10,14,24,262,25,21,12,191,65,24,43,157,65,29,66,272,65,1*50
$GPGSV,10,3,10,30,60,354,65,31,21,318,25,2,28,52,25,5,59,52,65,5*5E
$GPGSV,10,4,10,9,31,153,65,12,49,64,65,14,24,262,25,21,12,191,65,5*5C
$GPGSV,10,5,10,24,43,157,65,29,66,272,65,30,60,354,65,31,21,318,25,5*53
$GPGSV,10,6,10,2,28,52,25,5,59,52,65,9,31,153,65,12,49,64,65,6*50
$GPGSV,10,7,10,14,24,262,25,21,12,191,65,24,43,157,65,29,66,272,65,6*52
$GPGSV,10,8,10,30,60,354,65,31,21,318,25,2,28,52,25,5,59,52,65,7*57
$GPGSV,10,9,10,9,31,153,65,12,49,64,65,14,24,262,25,21,12,191,65,7*53
$GPGSV,10,10,10,24,43,157,65,29,66,272,65,30,60,354,65,31,21,318,25,7*65
$GPGSA,A,3,02,05,09,12,14,21,24,29,30,31,,,1.8,0.9,1.5,1*2C
$GPZDA,080052.00,20,08,2021,-8,00*77
$GPGGA,080053,3113.99997,N,12130.67898,E,3,45,0.88,38.05,M,11.95,M,,*43
$GPRMC,080053,A,3113.99997,N,12130.67898,E,161.986,270.006,200821,0.000,E,A,V*6A
$GPVTG,270.006,T,270.006,M,161.986,N,299.998,K*45
$GPGSV,10,1,10,2,28,52,25,5,59,52,65,9,31,153,65,12,49,64,65,1*50
$GPGSV,10,2,10,14,24,262,25,21,12,191,65,24,43,157,65,29,66,272,65,1*50
$GPGSV,10,3,10,30,60,354,65,31,21,318,25,2,28,52,25,5,59,52,65,5*5E
$GPGSV,10,4,10,9,31,153,65,12,49,64,65,14,24,262,25,21,12,191,65,5*5C
$GPGSV,10,5,10,24,43,157,65,29,66,272,65,30,60,354,65,31,21,318,25,5*53
$GPGSV,10,6,10,2,28,52,25,5,59,52,65,9,31,153,65,12,49,64,65,6*50
$GPGSV,10,7,10,14,24,262,25,21,12,191,65,24,43,157,65,29,66,272,65,6*52
$GPGSV,10,8,10,30,60,354,65,31,21,318,25,2,28,52,25,5,59,52,65,7*57
$GPGSV,10,9,10,9,31,153,65,12,49,64,65,14,24,262,25,21,12,191,65,7*53
$GPGSV,10,10,10,24,43,157,65,29,66,272,65,30,60,354,65,31,21,318,25,7*65
$GPGSA,A,3,02,05,09,12,14,21,24,29,30,31,,,1.8,0.9,1.5,1*2C
$GPZDA,080053.00,20,08,2021,-8,00*76
$GPGGA,080054,3113.99997,N,12130.62650,E,3,45,0.88,38.06,M,11.94,M,,*49
$GPRMC,080054,A,3113.99997,N,12130.62650,E,161.986,270.005,200821,0.000,E,A,V*61
$GPVTG,270.005,T,270.005,M,161.986,N,299.998,K*45
$GPGSV,10,1,10,2,28,52,25,5,59,52,65,9,31,153,65,12,49,64,65,1*50
$GPGSV,10,2,10,14,24,262,25,21,12,191,65,24,43,157,65,29,66,272,65,1*50
$GPGSV,10,3,10,30,60,354,65,31,21,318,25,2,28,52,25,5,59,52,65,5*5E
$GPGSV,10,4,10,9,31,153,65,12,49,64,65,14,24,262,25,21,12,191,65,5*5C
$GPGSV,10,5,10,24,43,157,65,29,66,272,65,30,60,354,65,31,21,318,25,5*53
$GPGSV,10,6,10,2,28,52,25,5,59,52,65,9,31,153,65,12,49,64,65,6*50
$GPGSV,10,7,10,14,24,262,25,21,12,191,65,24,43,157,65,29,66,272,65,6*52
$GPGSV,10,8,10,30,60,354,65,31,21,318,25,2,28,52,25,5,59,52,65,7*57
$GPGSV,10,9,10,9,31,153,65,12,49,64,65,14,24,262,25,21,12,191,65,7*53
$GPGSV,10,10,10,24,43,157,65,29,66,272,65,30,60,354,65,31,21,318,25,7*65
$GPGSA,A,3,02,05,09,12,14,21,24,29,30,31,,,1.8,0.9,1.5,1*2C
$GPZDA,080054.00,20,08,2021,-8,00*71
$GPGGA,080055,3113.99998,N,12130.57402,E,3,45,0.88,38.06,M,11.94,M,,*44
$GPRMC,080055,A,3113.99998,N,12130.57402,E,161.986,270.005,200821,0.000,E,A,V*6C
$GPVTG,270.005,T,270.005,M,161.986,N,299.998,K*45
$GPGSV,10,1,10,2,28,52,25,5,59,52,65,9,31,153,65,12,49,64,65,1*50
$GPGSV,10,2,10,14,24,262,25,21,12,191,65,24,43,157,65,29,66,272,65,1*50
$GPGSV,10,3,10,30,60,354,65,31,21,318,25,2,28,52,25,5,59,52,65,5*5E
$GPGSV,10,4,10,9,31,153,65,12,49,64,65,14,24,262,25,21,12,191,65,5*5C
$GPGSV,10,5,10,24,43,157,65,29,66,272,65,30,60,354,65,31,21,318,25,5*53
$GPGSV,10,6,10,2,28,52,25,5,59,52,65,9,31,153,65,12,49,64,65,6*50
$GPGSV,10,7,10,14,24,262,25,21,12,191,65,24,43,157,65,29,66,272,65,6*52
$GPGSV,10,8,10,30,60,354,65,31,21,318,25,2,28,52,25,5,59,52,65,7*57
$GPGSV,10,9,10,9,31,153,65,12,49,64,65,14,24,262,25,21,12,191,65,7*53
$GPGSV,10,10,10,24,43,157,65,29,66,272,65,30,60,354,65,31,21,318,25,7*65
$GPGSA,A,3,02,05,09,12,14,21,24,29,30,31,,,1.8,0.9,1.5,1*2C
$GPZDA,080055.00,20,08,2021,-8,00*70
$GPGGA,080056,3113.99998,N,12130.52153,E,3,45,0.88,38.07,M,11.93,M,,*45
$GPRMC,080056,A,3113.99998,N,12130.52153,E,161.986,270.005,200821,0.000,E,A,V*6B
$GPVTG,270.005,T,270.005,M,161.986,N,299.998,K*45
$GPGSV,10,1,10,2,28,52,25,5,59,52,65,9,31,153,65,12,49,64,65,1*50
$GPGSV,10,2,10,14,24,262,25,21,12,191,65,24,43,157,65,29,66,272,65,1*50
$GPGSV,10,3,10,30,60,354,65,31,21,318,25,2,28,52,25,5,59,52,65,5*5E
$GPGSV,10,4,10,9,31,153,65,12,49,64,65,14,24,262,25,21,12,191,65,5*5C
$GPGSV,10,5,10,24,43,157,65,29,66,272,65,30,60,354,65,31,21,318,25,5*53
$GPGSV,10,6,10,2,28,52,25,5,59,52,65,9,31,153,65,12,49,64,65,6*50
$GPGSV,10,7,10,14,24,262,25,21,12,191,65,24,43,157,65,29,66,272,65,6*52
$GPGSV,10,8,10,30,60,354,65,31,21,318,25,2,28,52,25,5,59,52,65,7*57
$GPGSV,10,9,10,9,31,153,65,12,49,64,65,14,24,262,25,21,12,191,65,7*53
$GPGSV,10,10,10,24,43,157,65,29,66,272,65,30,60,354,65,31,21,318,25,7*65
$GPGSA,A,3,02,05,09,12,14,21,24,29,30,31,,,1.8,0.9,1.5,1*2C
$GPZDA,080056.00,20,08,2021,-8,00*73
$GPGGA,080057,3113.99999,N,12130.46905,E,3,45,0.88,38.07,M,11.93,M,,*4B
$GPRMC,080057,A,3113.99999,N,12130.46905,E,161.986,270.004,200821,0.000,E,A,V*64
$GPVTG,270.004,T,270.004,M,161.986,N,299.998,K*45
$GPGSV,10,1,10,2,28,52,25,5,59,52,65,9,31,153,65,12,49,64,65,1*50
$GPGSV,10,2,10,14,24,262,25,21,12,191,65,24,43,157,65,29,66,272,65,1*50
$GPGSV,10,3,10,30,60,354,65,31,21,318,25,2,28,52,25,5,59,52,65,5*5E
$GPGSV,10,4,10,9,31,153,65,12,49,64,65,14,24,262,25,21,12,191,65,5*5C
$GPGSV,10,5,10,24,43,157,65,29,66,272,65,30,60,354,65,31,21,318,25,5*53
$GPGSV,10,6,10,2,28,52,25,5,59,52,65,9,31,153,65,12,49,64,65,6*50
$GPGSV,10,7,10,14,24,262,25,21,12,191,65,24,43,157,65,29,66,272,65,6*52
$GPGSV,10,8,10,30,60,354,65,31,21,318,25,2,28,52,25,5,59,52,65,7*57
$GPGSV,10,9,10,9,31,153,65,12,49,64,65,14,24,262,25,21,12,191,65,7*53
$GPGSV,10,10,10,24,43,157,65,29,66,272,65,30,60,354,65,31,21,318,25,7*65
$GPGSA,A,3,02,05,09,12,14,21,24,29,30,31,,,1.8,0.9,1.5,1*2C
$GPZDA,080057.00,20,08,2021,-8,00*72
$GPGGA,080058,3113.99999,N,12130.41657,E,3,45,0.88,38.08,M,11.92,M,,*45
$GPRMC,080058,A,3113.99999,N,12130.41657,E,161.986,270.004,200821,0.000,E,A,V*64
$GPVTG,270.004,T,270.004,M,161.986,N,299.998,K*45
$GPGSV,10,1,10,2,28,52,25,5,59,52,65,9,31,153,65,12,49,64,65,1*50
$GPGSV,10,2,10,14,24,262,25,21,12,191,65,24,43,157,65,29,66,272,65,1*50
$GPGSV,10,3,10,30,60,354,65,31,21,318,25,2,28,52,25,5,59,52,65,5*5E
$GPGSV,10,4,10,9,31,153,65,12,49,64,65,14,24,262,25,21,12,191,65,5*5C
$GPGSV,10,5,10,24,43,157,65,29,66,272,65,30,60,354,65,31,21,318,25,5*53
$GPGSV,10,6,10,2,28,52,25,5,59,52,65,9,31,153,65,12,49,64,65,6*50
$GPGSV,10,7,10,14,24,262,25,21,12,191,65,24,43,157,65,29,66,272,65,6*52
$GPGSV,10,8,10,30,60,354,65,31,21,318,25,2,28,52,25,5,59,52,65,7*57
$GPGSV,10,9,10,9,31,153,65,12,49,64,65,14,24,262,25,21,12,191,65,7*53
$GPGSV,10,10,10,24,43,157,65,29,66,272,65,30,60,354,65,31,21,318,25,7*65
$GPGSA,A,3,02,05,09,12,14,21,24,29,30,31,,,1.8,0.9,1.5,1*2C
$GPZDA,080058.00,20,08,2021,-8,00*7D
$GPGGA,080059,3113.99999,N,12130.36409,E,3,45,0.88,38.08,M,11.92,M,,*4D
$GPRMC,080059,A,3113.99999,N,12130.36409,E,161.986,270.003,200821,0.000,E,A,V*6B
$GPVTG,270.003,T,270.003,M,161.986,N,299.998,K*45
$GPGSV,10,1,10,2,28,52,25,5,59,52,65,9,31,153,65,12,49,64,65,1*50
$GPGSV,10,2,10,14,24,262,25,21,12,191,65,24,43,157,65,29,66,272,65,1*50
$GPGSV,10,3,10,30,60,354,65,31,21,318,25,2,28,52,25,5,59,52,65,5*5E
$GPGSV,10,4,10,9,31,153,65,12,49,64,65,14,24,262,25,21,12,191,65,5*5C
$GPGSV,10,5,10,24,43,157,65,29,66,272,65,30,60,354,65,31,21,318,25,5*53
$GPGSV,10,6,10,2,28,52,25,5,59,52,65,9,31,153,65,12,49,64,65,6*50
$GPGSV,10,7,10,14,24,262,25,21,12,191,65,24,43,157,65,29,66,272,65,6*52
$GPGSV,10,8,10,30,60,354,65,31,21,318,25,2,28,52,25,5,59,52,65,7*57
$GPGSV,10,9,10,9,31,153,65,12,49,64,65,14,24,262,25,21,12,191,65,7*53
$GPGSV,10,10,10,24,43,157,65,29,66,272,65,30,60,354,65,31,21,318,25,7*65
$GPGSA,A,3,02,05,09,12,14,21,24,29,30,31,,,1.8,0.9,1.5,1*2C
$GPZDA,080059.00,20,08,2021,-8,00*7C
$GPGGA,080100,3113.99999,N,12130.31161,E,3,45,0.88,38.09,M,11.91,M,,*4E
$GPRMC,080100,A,3113.99999,N,12130.31161,E,161.986,270.003,200821,0.000,E,A,V*6A
$GPVTG,270.003,T,270.003,M,161.986,N,299.998,K*45
$GPGSV,10,1,10,2,28,52,25,5,59,52,65,9,30,153,65,12,49,64,65,1*51
$GPGSV,10,2,10,14,24,262,25,21,12,191,65,24,43,157,65,29,66,272,65,1*50
$GPGSV,10,3,10,30,60,354,65,31,21,318,25,2,28,52,25,5,59,52,65,5*5E
$GPGSV,10,4,10,9,30,153,65,12,49,64,65,14,24,262,25,21,12,191,65,5*5D
$GPGSV,10,5,10,24,43,157,65,29,66,272,65,30,60,354,65,31,21,318,25,5*53
$GPGSV,10,6,10,2,28,52,25,5,59,52,65,9,30,153,65,12,49,64,65,6*51
$GPGSV,10,7,10,14,24,262,25,21,12,191,65,24,43,157,65,29,66,272,65,6*52
$GPGSV,10,8,10,30,60,354,65,31,21,318,25,2,28,52,25,5,59,52,65,7*57
$GPGSV,10,9,10,9,30,153,65,12,49,64,65,14,24,262,25,21,12,191,65,7*52
$GPGSV,10,10,10,24,43,157,65,29,66,272,65,30,60,354,65,31,21,318,25,7*65
$GPGSA,A,3,02,05,09,12,14,21,24,29,30,31,,,1.8,0.9,1.5,1*2C
$GPZDA,080100.00,20,08,2021,-8,00*71
$GPGGA,080101,3114.00000,N,12130.25913,E,3,45,0.88,38.09,M,11.91,M,,*49
$GPRMC,080101,A,3114.00000,N,12130.25913,E,161.986,270.002,200821,0.000,E,A,V*6C
$GPVTG,270.002,T,270.002,M,161.986,N,299.998,K*45
$GPGSV,10,1,10,2,28,52,25,5,59,52,65,9,30,153,65,12,49,64,65,1*51
$GPGSV,10,2,10,14,24,262,25,21,12,191,65,24,43,157,65,29,66,272,65,1*50
$GPGSV,10,3,10,30,60,354,65,31,21,318,25,2,28,52,25,5,59,52,65,5*5E
$GPGSV,10,4,10,9,30,153,65,12,49,64,65,14,24,262,25,21,12,191,65,5*5D
$GPGSV,10,5,10,24,43,157,65,29,66,272,65,30,60,354,65,31,21,318,25,5*53
$GPGSV,10,6,10,2,28,52,25,5,59,52,65,9,30,153,65,12,49,64,65,6*51
$GPGSV,10,7,10,14,24,262,25,21,12,191,65,24,43,157,65,29,66,272,65,6*52
$GPGSV,10,8,10,30,60,354,65,31,21,318,25,2,28,52,25,5,59,52,65,7*57
$GPGSV,10,9,10,9,30,153,65,12,49,64,65,14,24,262,25,21,12,191,65,7*52
$GPGSV,10,10,10,24,43,157,65,29,66,272,65,30,60,354,65,31,21,318,25,7*65
$GPGSA,A,3,02,05,09,12,14,21,24,29,30,31,,,1.8,0.9,1.5,1*2C
$GPZDA,080101.00,20,08,2021,-8,00*70
$GPGGA,080102,3114.00000,N,12130.20665,E,3,45,0.88,38.10,M,11.90,M,,*48
$GPRMC,080102,A,3114.00000,N,12130.20665,E,161.986,270.002,200821,0.000,E,A,V*64
$GPVTG,270.002,T,270.002,M,161.986,N,299.998,K*45
$GPGSV,10,1,10,2,28,52,25,5,59,52,65,9,30,153,65,12,49,64,65,1*51
$GPGSV,10,2,10,14,24,262,25,21,12,191,65,24,43,157,65,29,66,272,65,1*50
$GPGSV,10,3,10,30,60,354,65,31,21,318,25,2,28,52,25,5,59,52,65,5*5E
$GPGSV,10,4,10,9,30,153,65,12,49,64,65,14,24,262,25,21,12,191,65,5*5D
$GPGSV,10,5,10,24,43,157,65,29,66,272,65,30,60,354,65,31,21,318,25,5*53
$GPGSV,10,6,10,2,28,52,25,5,59,52,65,9,30,153,65,12,49,64,65,6*51
$GPGSV,10,7,10,14,24,262,25,21,12,191,65,24,43,157,65,29,66,272,65,6*52
$GPGSV,10,8,10,30,60,354,65,31,21,318,25,2,28,52,25,5,59,52,65,7*57
$GPGSV,10,9,10,9,30,153,65,12,49,64,65,14,24,262,25,21,12,191,65,7*52
$GPGSV,10,10,10,24,43,157,65,29,66,272,65,30,60,354,65,31,21,318,25,7*65
$GPGSA,A,3,02,05,09,12,14,21,24,29,30,31,,,1.8,0.9,1.5,1*2C
$GPZDA,080102.00,20,08,2021,-8,00*73
$GPGGA,080103,3114.00000,N,12130.15455,E,3,45,0.88,38.10,M,11.90,M,,*4E
$GPRMC,080103,A,3114.00000,N,12130.15455,E,153.961,270.001,200821,0.000,E,A,V*69
$GPVTG,270.001,T,270.001,M,153.961,N,285.135,K*4F
$GPGSV,10,1,10,2,28,52,25,5,59,52,65,9,30,153,65,12,49,64,65,1*51
$GPGSV,10,2,10,14,24,262,25,21,12,191,65,24,43,157,65,29,66,272,65,1*50
$GPGSV,10,3,10,30,60,354,65,31,21,318,25,2,28,52,25,5,59,52,65,5*5E
$GPGSV,10,4,10,9,30,153,65,12,49,64,65,14,24,262,25,21,12,191,65,5*5D
$GPGSV,10,5,10,24,43,157,65,29,66,272,65,30,60,354,65,31,21,318,25,5*53
$GPGSV,10,6,10,2,28,52,25,5,59,52,65,9,30,153,65,12,49,64,65,6*51
$GPGSV,10,7,10,14,24,262,25,21,12,191,65,24,43,157,65,29,66,272,65,6*52
$GPGSV,10,8,10,30,60,354,65,31,21,318,25,2,28,52,25,5,59,52,65,7*57
$GPGSV,10,9,10,9,30,153,65,12,49,64,65,14,24,262,25,21,12,191,65,7*52
$GPGSV,10,10,10,24,43,157,65,29,66,272,65,30,60,354,65,31,21,318,25,7*65
$GPGSA,A,3,02,05,09,12,14,21,24,29,30,31,,,1.8,0.9,1.5,1*2C
$GPZDA,080103.00,20,08,2021,-8,00*72
$GPGGA,080104,3114.00000,N,12130.10901,E,3,45,0.88,38.11,M,11.89,M,,*49
$GPRMC,080104,A,3114.00000,N,12130.10901,E,127.211,270.001,200821,0.000,E,A,V*68
$GPVTG,270.001,T,270.001,M,127.211,N,235.594,K*44
$GPGSV,10,1,10,2,28,52,25,5,59,52,65,9,30,153,65,12,49,64,65,1*51
$GPGSV,10,2,10,14,24,262,25,21,12,191,65,24,43,157,65,29,66,272,65,1*50
$GPGSV,10,3,10,30,60,354,65,31,21,318,25,2,28,52,25,5,59,52,65,5*5E
$GPGSV,10,4,10,9,30,153,65,12,49,64,65,14,24,262,25,21,12,191,65,5*5D
$GPGSV,10,5,10,24,43,157,65,29,66,272,65,30,60,354,65,31,21,318,25,5*53
$GPGSV,10,6,10,2,28,52,25,5,59,52,65,9,30,153,65,12,49,64,65,6*51
$GPGSV,10,7,10,14,24,262,25,21,12,191,65,24,43,157,65,29,66,272,65,6*52
$GPGSV,10,8,10,30,60,354,65,31,21,318,25,2,28,52,25,5,59,52,65,7*57
$GPGSV,10,9,10,9,30,153,65,12,49,64,65,14,24,262,25,21,12,191,65,7*52
$GPGSV,10,10,10,24,43,157,65,29,66,272,65,30,60,354,65,31,21,318,25,7*65
$GPGSA,A,3,02,05,09,12,14,21,24,29,30,31,,,1.8,0.9,1.5,1*2C
$GPZDA,080104.00,20,08,2021,-8,00*75
$GPGGA,080105,3114.00000,N,12130.07212,E,3,45,0.88,38.11,M,11.89,M,,*47
$GPRMC,080105,A,3114.00000,N,12130.07212,E,100.461,270.001,200821,0.000,E,A,V*62
$GPVTG,270.001,T,270.001,M,100.461,N,186.054,K*42
$GPGSV,10,1,10,2,28,52,25,5,59,52,65,9,30,153,65,12,49,64,65,1*51
$GPGSV,10,2,10,14,24,262,25,21,12,191,65,24,43,157,65,29,66,272,65,1*50
$GPGSV,10,3,10,30,60,354,65,31,21,318,25,2,28,52,25,5,59,52,65,5*5E
$GPGSV,10,4,10,9,30,153,65,12,49,64,65,14,24,262,25,21,12,191,65,5*5D
$GPGSV,10,5,10,24,43,157,65,29,66,272,65,30,60,354,65,31,21,318,25,5*53
$GPGSV,10,6,10,2,28,52,25,5,59,52,65,9,30,153,65,12,49,64,65,6*51
$GPGSV,10,7,10,14,24,262,25,21,12,191,65,24,43,157,65,29,66,272,65,6*52
$GPGSV,10,8,10,30,60,354,65,31,21,318,25,2,28,52,25,5,59,52,65,7*57
$GPGSV,10,9,10,9,30,153,65,12,49,64,65,14,24,262,25,21,12,191,65,7*52
$GPGSV,10,10,10,24,43,157,65,29,66,272,65,30,60,354,65,31,21,318,25,7*65
$GPGSA,A,3,02,05,09,12,14,21,24,29,30,31,,,1.8,0.9,1.5,1*2C
$GPZDA,080105.00,20,08,2021,-8,00*74
$GPGGA,080106,3114.00000,N,12130.04391,E,3,45,0.88,38.11,M,11.89,M,,*4D
$GPRMC,080106,A,3114.00000,N,12130.04391,E,73.711,270.000,200821,0.000,E,A,V*58
$GPVTG,270.000,T,270.000,M,73.711,N,136.513,K*7E
$GPGSV,10,1,10,2,28,52,25,5,59,52,65,9,30,153,65,12,49,64,65,1*51
$GPGSV,10,2,10,14,24,262,25,21,13,191,65,24,43,157,65,29,66,273,65,1*50
$GPGSV,10,3,10,30,60,354,65,31,21,318,25,2,28,52,25,5,59,52,65,5*5E
$GPGSV,10,4,10,9,30,153,65,12,49,64,65,14,24,262,25,21,13,191,65,5*5C
$GPGSV,10,5,10,24,43,157,65,29,66,273,65,30,60,354,65,31,21,318,25,5*52
$GPGSV,10,6,10,2,28,52,25,5,59,52,65,9,30,153,65,12,49,64,65,6*51
$GPGSV,10,7,10,14,24,262,25,21,13,191,65,24,43,157,65,29,66,273,65,6*52
$GPGSV,10,8,10,30,60,354,65,31,21,318,25,2,28,52,25,5,59,52,65,7*57
$GPGSV,10,9,10,9,30,153,65,12,49,64,65,14,24,262,25,21,13,191,65,7*53
$GPGSV,10,10,10,24,43,157,65,29,66,273,65,30,60,354,65,31,21,318,25,7*64
$GPGSA,A,3,02,05,09,12,14,21,24,29,30,31,,,1.8,0.9,1.5,1*2C
$GPZDA,080106.00,20,08,2021,-8,00*77
$GPGGA,080107,3114.00000,N,12130.02436,E,3,45,0.88,38.11,M,11.89,M,,*40
$GPRMC,080107,A,3114.00000,N,12130.02436,E,46.961,270.000,200821,0.000,E,A,V*5A
$GPVTG,270.000,T,270.000,M,46.961,N,86.972,K*40
$GPGSV,10,1,10,2,28,52,25,5,59,52,65,9,30,153,65,12,49,64,65,1*51
$GPGSV,10,2,10,14,24,262,25,21,13,191,65,24,43,157,65,29,66,273,65,1*50
