
$´®¿Ú³õÊ¼»¯£º20210523 09:37:25$
$GPGGA,165954,3128.00000,N,12117.99337,E,3,10,1.00,-10.54,M,10.54,M,,*6C
$GPRMC,165954,A,3128.00000,N,12117.99337,E,1.944,270.000,090815,0.000,E,A,V*68
$GPGGA,165955,3128.00000,N,12117.99274,E,3,10,1.00,-10.54,M,10.54,M,,*6B
$GPRMC,165955,A,3128.00000,N,12117.99274,E,1.944,270.000,090815,0.000,E,A,V*6F
$GPGGA,165956,3128.00000,N,12117.99211,E,3,10,1.00,-10.54,M,10.54,M,,*6B
$GPRMC,165956,A,3128.00000,N,12117.99211,E,1.944,270.000,090815,0.000,E,A,V*6F
$GPGGA,165957,3128.00000,N,12117.99148,E,3,10,1.00,-10.54,M,10.54,M,,*65
$GPRMC,165957,A,3128.00000,N,12117.99148,E,1.944,270.000,090815,0.000,E,A,V*61
$GPGGA,165958,3128.00000,N,12117.99085,E,3,10,1.00,-10.54,M,10.54,M,,*6A
$GPRMC,165958,A,3128.00000,N,12117.99085,E,1.944,270.000,090815,0.000,E,A,V*6E
$GPGGA,165959,3128.00000,N,12117.99021,E,3,10,1.00,-10.54,M,10.54,M,,*65
$GPRMC,165959,A,3128.00000,N,12117.99021,E,1.944,270.000,090815,0.000,E,A,V*61
$GPGGA,170000,3128.00000,N,12117.98958,E,3,10,1.00,-10.54,M,10.54,M,,*62
$GPRMC,170000,A,3128.00000,N,12117.98958,E,1.944,270.000,090815,0.000,E,A,V*66
$GPGGA,170001,3128.00000,N,12117.98895,E,3,10,1.00,-10.54,M,10.54,M,,*63
$GPRMC,170001,A,3128.00000,N,12117.98895,E,1.944,270.000,090815,0.000,E,A,V*67
$GPGGA,170002,3128.00000,N,12117.98832,E,3,10,1.00,-10.54,M,10.54,M,,*6D
$GPRMC,170002,A,3128.00000,N,12117.98832,E,1.944,270.000,090815,0.000,E,A,V*69
$GPGGA,170003,3128.00000,N,12117.98769,E,3,10,1.00,-10.54,M,10.54,M,,*6D
$GPRMC,170003,A,3128.00000,N,12117.98769,E,1.944,270.000,090815,0.000,E,A,V*69
$GPGGA,170004,3128.00000,N,12117.98706,E,3,10,1.00,-10.54,M,10.54,M,,*63
$GPRMC,170004,A,3128.00000,N,12117.98706,E,1.944,270.000,090815,0.000,E,A,V*67
$GPGGA,170005,3128.00000,N,12117.98643,E,3,10,1.00,-10.54,M,10.54,M,,*62
$GPRMC,170005,A,3128.00000,N,12117.98643,E,1.944,270.000,090815,0.000,E,A,V*66
$GPGGA,170006,3128.00000,N,12117.98579,E,3,10,1.00,-10.54,M,10.54,M,,*6B
$GPRMC,170006,A,3128.00000,N,12117.98579,E,1.944,270.000,090815,0.000,E,A,V*6F
$GPGGA,170007,3128.00000,N,12117.98516,E,3,10,1.00,-10.54,M,10.54,M,,*63
$GPRMC,170007,A,3128.00000,N,12117.98516,E,1.944,270.000,090815,0.000,E,A,V*67
$GPGGA,170008,3128.00000,N,12117.98453,E,3,10,1.00,-10.54,M,10.54,M,,*6C
$GPRMC,170008,A,3128.00000,N,12117.98453,E,1.944,270.000,090815,0.000,E,A,V*68
$GPGGA,170009,3128.00000,N,12117.98390,E,3,10,1.00,-10.54,M,10.54,M,,*65
$GPRMC,170009,A,3128.00000,N,12117.98390,E,1.944,270.000,090815,0.000,E,A,V*61
$GPGGA,170010,3128.00000,N,12117.98327,E,3,10,1.00,-10.54,M,10.54,M,,*61
$GPRMC,170010,A,3128.00000,N,12117.98327,E,1.944,270.000,090815,0.000,E,A,V*65
$GPGGA,170011,3128.00000,N,12117.98264,E,3,10,1.00,-10.54,M,10.54,M,,*66
$GPRMC,170011,A,3128.00000,N,12117.98264,E,1.944,270.000,090815,0.000,E,A,V*62
$GPGGA,170012,3128.00000,N,12117.98201,E,3,10,1.00,-10.54,M,10.54,M,,*66
$GPRMC,170012,A,3128.00000,N,12117.98201,E,1.944,270.000,090815,0.000,E,A,V*62
$GPGGA,170013,3128.00000,N,12117.98138,E,3,10,1.00,-10.54,M,10.54,M,,*6E
$GPRMC,170013,A,3128.00000,N,12117.98138,E,1.944,270.000,090815,0.000,E,A,V*6A
$GPGGA,170014,3128.00000,N,12117.98074,E,3,10,1.00,-10.54,M,10.54,M,,*60
$GPRMC,170014,A,3128.00000,N,12117.98074,E,1.944,270.000,090815,0.000,E,A,V*64
$GPGGA,170015,3128.00000,N,12117.98011,E,3,10,1.00,-10.54,M,10.54,M,,*62
$GPRMC,170015,A,3128.00000,N,12117.98011,E,1.944,270.000,090815,0.000,E,A,V*66
$GPGGA,170016,3128.00000,N,12117.97948,E,3,10,1.00,-10.54,M,10.54,M,,*6B
$GPRMC,170016,A,3128.00000,N,12117.97948,E,1.944,270.000,090815,0.000,E,A,V*6F
$GPGGA,170017,3128.00000,N,12117.97885,E,3,10,1.00,-10.54,M,10.54,M,,*6A
$GPRMC,170017,A,3128.00000,N,12117.97885,E,1.944,270.000,090815,0.000,E,A,V*6E
$GPGGA,170018,3128.00000,N,12117.97822,E,3,10,1.00,-10.54,M,10.54,M,,*68
$GPRMC,170018,A,3128.00000,N,12117.97822,E,1.944,270.000,090815,0.000,E,A,V*6C
$GPGGA,170019,3128.00000,N,12117.97759,E,3,10,1.00,-10.54,M,10.54,M,,*6A
$GPRMC,170019,A,3128.00000,N,12117.97759,E,1.944,270.000,090815,0.000,E,A,V*6E
$GPGGA,170020,3128.00000,N,12117.97696,E,3,10,1.00,-10.54,M,10.54,M,,*62
$GPRMC,170020,A,3128.00000,N,12117.97696,E,1.944,270.000,090815,0.000,E,A,V*66
$GPGGA,170021,3128.00000,N,12117.97632,E,3,10,1.00,-10.54,M,10.54,M,,*6D
$GPRMC,170021,A,3128.00000,N,12117.97632,E,1.944,270.000,090815,0.000,E,A,V*69
$GPGGA,170022,3128.00000,N,12117.97569,E,3,10,1.00,-10.54,M,10.54,M,,*63
$GPRMC,170022,A,3128.00000,N,12117.97569,E,1.944,270.000,090815,0.000,E,A,V*67
$GPGGA,170023,3128.00000,N,12117.97506,E,3,10,1.00,-10.54,M,10.54,M,,*6B
$GPRMC,170023,A,3128.00000,N,12117.97506,E,1.944,270.000,090815,0.000,E,A,V*6F
$GPGGA,170024,3128.00000,N,12117.97443,E,3,10,1.00,-10.54,M,10.54,M,,*6C
$GPRMC,170024,A,3128.00000,N,12117.97443,E,1.944,270.000,090815,0.000,E,A,V*68
$GPGGA,170025,3128.00000,N,12117.97380,E,3,10,1.00,-10.54,M,10.54,M,,*65
$GPRMC,170025,A,3128.00000,N,12117.97380,E,1.944,270.000,090815,0.000,E,A,V*61
$GPGGA,170026,3128.00000,N,12117.97317,E,3,10,1.00,-10.54,M,10.54,M,,*68
$GPRMC,170026,A,3128.00000,N,12117.97317,E,1.944,270.000,090815,0.000,E,A,V*6C
$GPGGA,170027,3128.00000,N,12117.97254,E,3,10,1.00,-10.54,M,10.54,M,,*6F
$GPRMC,170027,A,3128.00000,N,12117.97254,E,1.944,270.000,090815,0.000,E,A,V*6B
$GPGGA,170028,3128.00000,N,12117.97191,E,3,10,1.00,-10.54,M,10.54,M,,*6A
$GPRMC,170028,A,3128.00000,N,12117.97191,E,1.944,270.000,090815,0.000,E,A,V*6E
$GPGGA,170029,3128.00000,N,12117.97127,E,3,10,1.00,-10.54,M,10.54,M,,*66
$GPRMC,170029,A,3128.00000,N,12117.97127,E,1.944,270.000,090815,0.000,E,A,V*62
$GPGGA,170030,3128.00000,N,12117.97064,E,3,10,1.00,-10.54,M,10.54,M,,*68
$GPRMC,170030,A,3128.00000,N,12117.97064,E,1.944,270.000,090815,0.000,E,A,V*6C
$GPGGA,170031,3128.00000,N,12117.97001,E,3,10,1.00,-10.54,M,10.54,M,,*6A
$GPRMC,170031,A,3128.00000,N,12117.97001,E,1.944,270.000,090815,0.000,E,A,V*6E
$GPGGA,170032,3128.00000,N,12117.96938,E,3,10,1.00,-10.54,M,10.54,M,,*6B
$GPRMC,170032,A,3128.00000,N,12117.96938,E,1.944,270.000,090815,0.000,E,A,V*6F
$GPGGA,170033,3128.00000,N,12117.96875,E,3,10,1.00,-10.54,M,10.54,M,,*62
$GPRMC,170033,A,3128.00000,N,12117.96875,E,1.944,270.000,090815,0.000,E,A,V*66
$GPGGA,170034,3128.00000,N,12117.96780,E,3,10,1.00,-10.54,M,10.54,M,,*60
$GPRMC,170034,A,3128.00000,N,12117.96780,E,3.888,270.000,090815,0.000,E,A,V*67
$GPGGA,170035,3128.00000,N,12117.96654,E,3,11,0.81,-10.54,M,10.54,M,,*60
$GPRMC,170035,A,3128.00000,N,12117.96654,E,3.888,270.000,090815,0.000,E,A,V*6E
$GPGGA,170036,3128.00000,N,12117.96528,E,3,11,0.81,-10.54,M,10.54,M,,*6B
$GPRMC,170036,A,3128.00000,N,12117.96528,E,3.888,270.000,090815,0.000,E,A,V*65
$GPGGA,170037,3128.00000,N,12117.96401,E,3,11,0.81,-10.54,M,10.54,M,,*60
$GPRMC,170037,A,3128.00000,N,12117.96401,E,3.888,270.000,090815,0.000,E,A,V*6E
$GPGGA,170038,3128.00000,N,12117.96275,E,3,11,0.81,-10.54,M,10.54,M,,*6A
$GPRMC,170038,A,3128.00000,N,12117.96275,E,3.888,270.000,090815,0.000,E,A,V*64
$GPGGA,170039,3128.00000,N,12117.96149,E,3,11,0.81,-10.54,M,10.54,M,,*67
$GPRMC,170039,A,3128.00000,N,12117.96149,E,3.888,270.000,090815,0.000,E,A,V*69
$GPGGA,170040,3128.00000,N,12117.96023,E,3,11,0.81,-10.54,M,10.54,M,,*64
$GPRMC,170040,A,3128.00000,N,12117.96023,E,3.888,270.000,090815,0.000,E,A,V*6A
$GPGGA,170041,3128.00000,N,12117.95896,E,3,11,0.81,-10.54,M,10.54,M,,*60
$GPRMC,170041,A,3128.00000,N,12117.95896,E,3.888,270.000,090815,0.000,E,A,V*6E
$GPGGA,170042,3128.00000,N,12117.95770,E,3,11,0.81,-10.54,M,10.54,M,,*64
$GPRMC,170042,A,3128.00000,N,12117.95770,E,3.888,270.000,090815,0.000,E,A,V*6A
$GPGGA,170043,3128.00000,N,12117.95644,E,3,11,0.81,-10.54,M,10.54,M,,*63
$GPRMC,170043,A,3128.00000,N,12117.95644,E,3.888,270.000,090815,0.000,E,A,V*6D
$GPGGA,170044,3128.00000,N,12117.95517,E,3,11,0.81,-10.54,M,10.54,M,,*61
$GPRMC,170044,A,3128.00000,N,12117.95517,E,3.888,270.000,090815,0.000,E,A,V*6F
$GPGGA,170045,3128.00000,N,12117.95391,E,3,11,0.81,-10.54,M,10.54,M,,*68
$GPRMC,170045,A,3128.00000,N,12117.95391,E,3.888,270.000,090815,0.000,E,A,V*66
$GPGGA,170046,3128.00000,N,12117.95265,E,3,11,0.81,-10.54,M,10.54,M,,*61
$GPRMC,170046,A,3128.00000,N,12117.95265,E,3.888,270.000,090815,0.000,E,A,V*6F
$GPGGA,170047,3128.00000,N,12117.95139,E,3,11,0.81,-10.54,M,10.54,M,,*6A
$GPRMC,170047,A,3128.00000,N,12117.95139,E,3.888,270.000,090815,0.000,E,A,V*64
$GPGGA,170048,3128.00000,N,12117.95012,E,3,11,0.81,-10.54,M,10.54,M,,*6D
$GPRMC,170048,A,3128.00000,N,12117.95012,E,3.888,270.000,090815,0.000,E,A,V*63
$GPGGA,170049,3128.00000,N,12117.94886,E,3,11,0.81,-10.54,M,10.54,M,,*68
$GPRMC,170049,A,3128.00000,N,12117.94886,E,3.888,270.000,090815,0.000,E,A,V*66
$GPGGA,170050,3128.00000,N,12117.94760,E,3,11,0.81,-10.54,M,10.54,M,,*67
$GPRMC,170050,A,3128.00000,N,12117.94760,E,3.888,270.000,090815,0.000,E,A,V*69
$GPGGA,170051,3128.00000,N,12117.94634,E,3,11,0.81,-10.54,M,10.54,M,,*66
$GPRMC,170051,A,3128.00000,N,12117.94634,E,3.888,270.000,090815,0.000,E,A,V*68
$GPGGA,170052,3128.00000,N,12117.94507,E,3,11,0.81,-10.54,M,10.54,M,,*66
$GPRMC,170052,A,3128.00000,N,12117.94507,E,3.888,270.000,090815,0.000,E,A,V*68
$GPGGA,170053,3128.00000,N,12117.94381,E,3,11,0.81,-10.54,M,10.54,M,,*6F
$GPRMC,170053,A,3128.00000,N,12117.94381,E,3.888,270.000,090815,0.000,E,A,V*61
$GPGGA,170054,3128.00000,N,12117.94255,E,3,11,0.81,-10.54,M,10.54,M,,*60
$GPRMC,170054,A,3128.00000,N,12117.94255,E,3.888,270.000,090815,0.000,E,A,V*6E
$GPGGA,170055,3128.00000,N,12117.94129,E,3,11,0.81,-10.54,M,10.54,M,,*69
$GPRMC,170055,A,3128.00000,N,12117.94129,E,3.888,270.000,090815,0.000,E,A,V*67
$GPGGA,170056,3128.00000,N,12117.94002,E,3,11,0.81,-10.54,M,10.54,M,,*62
$GPRMC,170056,A,3128.00000,N,12117.94002,E,3.888,270.000,090815,0.000,E,A,V*6C
$GPGGA,170057,3128.00000,N,12117.93876,E,3,11,0.81,-10.54,M,10.54,M,,*6F
$GPRMC,170057,A,3128.00000,N,12117.93876,E,3.888,270.000,090815,0.000,E,A,V*61
$GPGGA,170058,3128.00000,N,12117.93750,E,3,11,0.81,-10.54,M,10.54,M,,*6B
$GPRMC,170058,A,3128.00000,N,12117.93750,E,3.888,270.000,090815,0.000,E,A,V*65
$GPGGA,170059,3128.00000,N,12117.93623,E,3,11,0.81,-10.54,M,10.54,M,,*6F
$GPRMC,170059,A,3128.00000,N,12117.93623,E,3.888,270.000,090815,0.000,E,A,V*61
$GPGGA,170100,3128.00000,N,12117.93497,E,3,11,0.81,-10.54,M,10.54,M,,*6F
$GPRMC,170100,A,3128.00000,N,12117.93497,E,3.888,270.000,090815,0.000,E,A,V*61
$GPGGA,170101,3128.00000,N,12117.93371,E,3,11,0.81,-10.54,M,10.54,M,,*61
$GPRMC,170101,A,3128.00000,N,12117.93371,E,3.888,270.000,090815,0.000,E,A,V*6F
$GPGGA,170102,3128.00000,N,12117.93245,E,3,11,0.81,-10.54,M,10.54,M,,*64
$GPRMC,170102,A,3128.00000,N,12117.93245,E,3.888,270.000,090815,0.000,E,A,V*6A
$GPGGA,170103,3128.00000,N,12117.93118,E,3,11,0.81,-10.54,M,10.54,M,,*6E
$GPRMC,170103,A,3128.00000,N,12117.93118,E,3.888,270.000,090815,0.000,E,A,V*60
$GPGGA,170104,3128.00000,N,12117.92992,E,3,11,0.81,-10.54,M,10.54,M,,*62
$GPRMC,170104,A,3128.00000,N,12117.92992,E,3.888,270.000,090815,0.000,E,A,V*6C
$GPGGA,170105,3128.00000,N,12117.92866,E,3,11,0.81,-10.54,M,10.54,M,,*69
$GPRMC,170105,A,3128.00000,N,12117.92866,E,3.888,270.000,090815,0.000,E,A,V*67
$GPGGA,170106,3128.00000,N,12117.92740,E,3,11,0.81,-10.54,M,10.54,M,,*61
$GPRMC,170106,A,3128.00000,N,12117.92740,E,3.888,270.000,090815,0.000,E,A,V*6F
$GPGGA,170107,3128.00000,N,12117.92613,E,3,11,0.81,-10.54,M,10.54,M,,*67
$GPRMC,170107,A,3128.00000,N,12117.92613,E,3.888,270.000,090815,0.000,E,A,V*69
$GPGGA,170108,3128.00000,N,12117.92487,E,3,11,0.81,-10.54,M,10.54,M,,*67
$GPRMC,170108,A,3128.00000,N,12117.92487,E,3.888,270.000,090815,0.000,E,A,V*69
$GPGGA,170109,3128.00000,N,12117.92361,E,3,11,0.81,-10.54,M,10.54,M,,*69
$GPRMC,170109,A,3128.00000,N,12117.92361,E,3.888,270.000,090815,0.000,E,A,V*67
$GPGGA,170110,3128.00000,N,12117.92235,E,3,11,0.81,-10.54,M,10.54,M,,*61
$GPRMC,170110,A,3128.00000,N,12117.92235,E,3.888,270.000,090815,0.000,E,A,V*6F
$GPGGA,170111,3128.00000,N,12117.92108,E,3,11,0.81,-10.54,M,10.54,M,,*6D
$GPRMC,170111,A,3128.00000,N,12117.92108,E,3.888,270.000,090815,0.000,E,A,V*63
$GPGGA,170112,3128.00000,N,12117.91982,E,3,11,0.81,-10.54,M,10.54,M,,*67
$GPRMC,170112,A,3128.00000,N,12117.91982,E,3.888,270.000,090815,0.000,E,A,V*69
$GPGGA,170113,3128.00000,N,12117.91856,E,3,11,0.81,-10.54,M,10.54,M,,*6E
$GPRMC,170113,A,3128.00000,N,12117.91856,E,3.888,270.000,090815,0.000,E,A,V*60
$GPGGA,170114,3128.00000,N,12117.91729,E,3,11,0.81,-10.54,M,10.54,M,,*6E
$GPRMC,170114,A,3128.00000,N,12117.91729,E,3.888,270.000,090815,0.000,E,A,V*60
$GPGGA,170115,3128.00000,N,12117.91603,E,3,11,0.81,-10.54,M,10.54,M,,*66
$GPRMC,170115,A,3128.00000,N,12117.91603,E,3.888,270.000,090815,0.000,E,A,V*68
$GPGGA,170116,3128.00000,N,12117.91477,E,3,11,0.81,-10.54,M,10.54,M,,*64
$GPRMC,170116,A,3128.00000,N,12117.91477,E,3.888,270.000,090815,0.000,E,A,V*6A
$GPGGA,170117,3128.00000,N,12117.91351,E,3,11,0.81,-10.54,M,10.54,M,,*66
$GPRMC,170117,A,3128.00000,N,12117.91351,E,3.888,270.000,090815,0.000,E,A,V*68
$GPGGA,170118,3128.00000,N,12117.91224,E,3,11,0.81,-10.54,M,10.54,M,,*6A
$GPRMC,170118,A,3128.00000,N,12117.91224,E,3.888,270.000,090815,0.000,E,A,V*64
$GPGGA,170119,3128.00000,N,12117.91098,E,3,11,0.81,-10.54,M,10.54,M,,*6E
$GPRMC,170119,A,3128.00000,N,12117.91098,E,3.888,270.000,090815,0.000,E,A,V*60
$GPGGA,170120,3128.00000,N,12117.90972,E,3,11,0.81,-10.54,M,10.54,M,,*68
$GPRMC,170120,A,3128.00000,N,12117.90972,E,3.888,270.000,090815,0.000,E,A,V*66
$GPGGA,170121,3128.00000,N,12117.90846,E,3,11,0.81,-10.54,M,10.54,M,,*6F
$GPRMC,170121,A,3128.00000,N,12117.90846,E,3.888,270.000,090815,0.000,E,A,V*61
$GPGGA,170122,3128.00000,N,12117.90719,E,3,11,0.81,-10.54,M,10.54,M,,*69
$GPRMC,170122,A,3128.00000,N,12117.90719,E,3.888,270.000,090815,0.000,E,A,V*67
$GPGGA,170123,3128.00000,N,12117.90593,E,3,11,0.81,-10.54,M,10.54,M,,*68
$GPRMC,170123,A,3128.00000,N,12117.90593,E,3.888,270.000,090815,0.000,E,A,V*66
$GPGGA,170124,3128.00000,N,12117.90435,E,3,11,0.81,-10.54,M,10.54,M,,*62
$GPRMC,170124,A,3128.00000,N,12117.90435,E,5.832,270.000,090815,0.000,E,A,V*6B
$GPGGA,170125,3128.00000,N,12117.90246,E,3,11,0.81,-10.54,M,10.54,M,,*61
$GPRMC,170125,A,3128.00000,N,12117.90246,E,5.832,270.000,090815,0.000,E,A,V*68
$GPGGA,170126,3128.00000,N,12117.90056,E,3,11,0.81,-10.54,M,10.54,M,,*61
$GPRMC,170126,A,3128.00000,N,12117.90056,E,5.832,270.000,090815,0.000,E,A,V*68
$GPGGA,170127,3128.00000,N,12117.89867,E,3,11,0.81,-10.54,M,10.54,M,,*62
$GPRMC,170127,A,3128.00000,N,12117.89867,E,5.832,270.000,090815,0.000,E,A,V*6B
$GPGGA,170128,3128.00000,N,12117.89678,E,3,11,0.81,-10.54,M,10.54,M,,*6D
$GPRMC,170128,A,3128.00000,N,12117.89678,E,5.832,270.000,090815,0.000,E,A,V*64
$GPGGA,170129,3128.00000,N,12117.89488,E,3,11,0.81,-10.54,M,10.54,M,,*61
$GPRMC,170129,A,3128.00000,N,12117.89488,E,5.832,270.000,090815,0.000,E,A,V*68
$GPGGA,170130,3128.00000,N,12117.89299,E,3,11,0.81,-10.54,M,10.54,M,,*6F
$GPRMC,170130,A,3128.00000,N,12117.89299,E,5.832,270.000,090815,0.000,E,A,V*66
$GPGGA,170131,3128.00000,N,12117.89109,E,3,11,0.81,-10.54,M,10.54,M,,*64
$GPRMC,170131,A,3128.00000,N,12117.89109,E,5.832,270.000,090815,0.000,E,A,V*6D
$GPGGA,170132,3128.00000,N,12117.88920,E,3,11,0.81,-10.54,M,10.54,M,,*65
$GPRMC,170132,A,3128.00000,N,12117.88920,E,5.832,270.000,090815,0.000,E,A,V*6C
$GPGGA,170133,3128.00000,N,12117.88731,E,3,11,0.81,-10.54,M,10.54,M,,*6A
$GPRMC,170133,A,3128.00000,N,12117.88731,E,5.832,270.000,090815,0.000,E,A,V*63
$GPGGA,170134,3128.00000,N,12117.88541,E,3,11,0.81,-10.54,M,10.54,M,,*68
$GPRMC,170134,A,3128.00000,N,12117.88541,E,5.832,270.000,090815,0.000,E,A,V*61
$GPGGA,170135,3128.00000,N,12117.88352,E,3,11,0.81,-10.54,M,10.54,M,,*6D
$GPRMC,170135,A,3128.00000,N,12117.88352,E,5.832,270.000,090815,0.000,E,A,V*64
$GPGGA,170136,3128.00000,N,12117.88162,E,3,11,0.81,-10.54,M,10.54,M,,*6F
$GPRMC,170136,A,3128.00000,N,12117.88162,E,5.832,270.000,090815,0.000,E,A,V*66
$GPGGA,170137,3128.00000,N,12117.87973,E,3,11,0.81,-10.54,M,10.54,M,,*69
$GPRMC,170137,A,3128.00000,N,12117.87973,E,5.832,270.000,090815,0.000,E,A,V*60
$GPGGA,170138,3128.00000,N,12117.87784,E,3,11,0.81,-10.54,M,10.54,M,,*60
$GPRMC,170138,A,3128.00000,N,12117.87784,E,5.832,270.000,090815,0.000,E,A,V*69
$GPGGA,170139,3128.00000,N,12117.87594,E,3,11,0.81,-10.54,M,10.54,M,,*62
$GPRMC,170139,A,3128.00000,N,12117.87594,E,5.832,270.000,090815,0.000,E,A,V*6B
$GPGGA,170140,3128.00000,N,12117.87405,E,3,11,0.81,-10.54,M,10.54,M,,*65
$GPRMC,170140,A,3128.00000,N,12117.87405,E,5.832,270.000,090815,0.000,E,A,V*6C
$GPGGA,170141,3128.00000,N,12117.87215,E,3,11,0.81,-10.53,M,10.53,M,,*63
$GPRMC,170141,A,3128.00000,N,12117.87215,E,5.832,270.000,090815,0.000,E,A,V*6A
$GPGGA,170142,3128.00000,N,12117.87026,E,3,11,0.81,-10.53,M,10.53,M,,*62
$GPRMC,170142,A,3128.00000,N,12117.87026,E,5.832,270.000,090815,0.000,E,A,V*6B
$GPGGA,170143,3128.00000,N,12117.86837,E,3,11,0.81,-10.53,M,10.53,M,,*6A
$GPRMC,170143,A,3128.00000,N,12117.86837,E,5.832,270.000,090815,0.000,E,A,V*63
$GPGGA,170144,3128.00000,N,12117.86647,E,3,11,0.81,-10.53,M,10.53,M,,*64
$GPRMC,170144,A,3128.00000,N,12117.86647,E,5.832,270.000,090815,0.000,E,A,V*6D
$GPGGA,170145,3128.00000,N,12117.86458,E,3,11,0.81,-10.53,M,10.53,M,,*69
$GPRMC,170145,A,3128.00000,N,12117.86458,E,5.832,270.000,090815,0.000,E,A,V*60
$GPGGA,170146,3128.00000,N,12117.86268,E,3,11,0.81,-10.53,M,10.53,M,,*6F
$GPRMC,170146,A,3128.00000,N,12117.86268,E,5.832,270.000,090815,0.000,E,A,V*66
$GPGGA,170147,3128.00000,N,12117.86079,E,3,11,0.81,-10.53,M,10.53,M,,*6C
$GPRMC,170147,A,3128.00000,N,12117.86079,E,5.832,270.000,090815,0.000,E,A,V*65
$GPGGA,170148,3128.00000,N,12117.85890,E,3,11,0.81,-10.53,M,10.53,M,,*6F
$GPRMC,170148,A,3128.00000,N,12117.85890,E,5.832,270.000,090815,0.000,E,A,V*66
$GPGGA,170149,3128.00000,N,12117.85700,E,3,11,0.81,-10.53,M,10.53,M,,*68
$GPRMC,170149,A,3128.00000,N,12117.85700,E,5.832,270.000,090815,0.000,E,A,V*61
$GPGGA,170150,3128.00000,N,12117.85511,E,3,11,0.81,-10.53,M,10.53,M,,*62
$GPRMC,170150,A,3128.00000,N,12117.85511,E,5.832,270.000,090815,0.000,E,A,V*6B
$GPGGA,170151,3128.00000,N,12117.85321,E,3,11,0.81,-10.53,M,10.53,M,,*66
$GPRMC,170151,A,3128.00000,N,12117.85321,E,5.832,270.000,090815,0.000,E,A,V*6F
$GPGGA,170152,3128.00000,N,12117.85132,E,3,11,0.81,-10.53,M,10.53,M,,*65
$GPRMC,170152,A,3128.00000,N,12117.85132,E,5.832,270.000,090815,0.000,E,A,V*6C
$GPGGA,170153,3128.00000,N,12117.84943,E,3,11,0.81,-10.53,M,10.53,M,,*6B
$GPRMC,170153,A,3128.00000,N,12117.84943,E,5.832,270.000,090815,0.000,E,A,V*62
$GPGGA,170154,3128.00000,N,12117.84753,E,3,11,0.81,-10.53,M,10.53,M,,*63
$GPRMC,170154,A,3128.00000,N,12117.84753,E,5.832,270.000,090815,0.000,E,A,V*6A
$GPGGA,170155,3128.00000,N,12117.84564,E,3,11,0.81,-10.53,M,10.53,M,,*64
$GPRMC,170155,A,3128.00000,N,12117.84564,E,5.832,270.000,090815,0.000,E,A,V*6D
$GPGGA,170156,3128.00000,N,12117.84374,E,3,11,0.81,-10.53,M,10.53,M,,*60
$GPRMC,170156,A,3128.00000,N,12117.84374,E,5.832,270.000,090815,0.000,E,A,V*69
$GPGGA,170157,3128.00000,N,12117.84185,E,3,11,0.81,-10.53,M,10.53,M,,*6D
$GPRMC,170157,A,3128.00000,N,12117.84185,E,5.832,270.000,090815,0.000,E,A,V*64
$GPGGA,170158,3128.00000,N,12117.83996,E,3,11,0.81,-10.53,M,10.53,M,,*6F
$GPRMC,170158,A,3128.00000,N,12117.83996,E,5.832,270.000,090815,0.000,E,A,V*66
$GPGGA,170159,3128.00000,N,12117.83806,E,3,11,0.81,-10.53,M,10.53,M,,*66
$GPRMC,170159,A,3128.00000,N,12117.83806,E,5.832,270.000,090815,0.000,E,A,V*6F
$GPGGA,170200,3128.00000,N,12117.83617,E,3,11,0.81,-10.53,M,10.53,M,,*67
$GPRMC,170200,A,3128.00000,N,12117.83617,E,5.832,270.000,090815,0.000,E,A,V*6E
$GPGGA,170201,3128.00000,N,12117.83427,E,3,11,0.81,-10.53,M,10.53,M,,*67
$GPRMC,170201,A,3128.00000,N,12117.83427,E,5.832,270.000,090815,0.000,E,A,V*6E
$GPGGA,170202,3128.00000,N,12117.83238,E,3,11,0.81,-10.53,M,10.53,M,,*6C
$GPRMC,170202,A,3128.00000,N,12117.83238,E,5.832,270.000,090815,0.000,E,A,V*65
$GPGGA,170203,3128.00000,N,12117.83049,E,3,11,0.81,-10.53,M,10.53,M,,*69
$GPRMC,170203,A,3128.00000,N,12117.83049,E,5.832,270.000,090815,0.000,E,A,V*60
$GPGGA,170204,3128.00000,N,12117.82859,E,3,11,0.81,-10.53,M,10.53,M,,*66
$GPRMC,170204,A,3128.00000,N,12117.82859,E,5.832,270.000,090815,0.000,E,A,V*6F
$GPGGA,170205,3128.00000,N,12117.82670,E,3,11,0.81,-10.53,M,10.53,M,,*62
$GPRMC,170205,A,3128.00000,N,12117.82670,E,5.832,270.000,090815,0.000,E,A,V*6B
$GPGGA,170206,3128.00000,N,12117.82480,E,3,11,0.81,-10.53,M,10.53,M,,*6C
$GPRMC,170206,A,3128.00000,N,12117.82480,E,5.832,270.000,090815,0.000,E,A,V*65
$GPGGA,170207,3128.00000,N,12117.82291,E,3,11,0.81,-10.53,M,10.53,M,,*6B
$GPRMC,170207,A,3128.00000,N,12117.82291,E,5.832,270.000,090815,0.000,E,A,V*62
$GPGGA,170208,3128.00000,N,12117.82102,E,3,11,0.81,-10.53,M,10.53,M,,*6D
$GPRMC,170208,A,3128.00000,N,12117.82102,E,5.832,270.000,090815,0.000,E,A,V*64
$GPGGA,170209,3128.00000,N,12117.81912,E,3,11,0.81,-10.53,M,10.53,M,,*66
$GPRMC,170209,A,3128.00000,N,12117.81912,E,5.832,270.000,090815,0.000,E,A,V*6F
$GPGGA,170210,3128.00000,N,12117.81723,E,3,11,0.81,-10.53,M,10.53,M,,*62
$GPRMC,170210,A,3128.00000,N,12117.81723,E,5.832,270.000,090815,0.000,E,A,V*6B
$GPGGA,170211,3128.00000,N,12117.81533,E,3,11,0.81,-10.53,M,10.53,M,,*60
$GPRMC,170211,A,3128.00000,N,12117.81533,E,5.832,270.000,090815,0.000,E,A,V*69
$GPGGA,170212,3128.00000,N,12117.81344,E,3,11,0.81,-10.53,M,10.53,M,,*65
$GPRMC,170212,A,3128.00000,N,12117.81344,E,5.832,270.000,090815,0.000,E,A,V*6C
$GPGGA,170213,3128.00000,N,12117.81155,E,3,11,0.81,-10.53,M,10.53,M,,*66
$GPRMC,170213,A,3128.00000,N,12117.81155,E,5.832,270.000,090815,0.000,E,A,V*6F
$GPGGA,170214,3128.00000,N,12117.80934,E,3,11,0.81,-10.53,M,10.53,M,,*6F
$GPRMC,170214,A,3128.00000,N,12117.80934,E,7.775,270.000,090815,0.000,E,A,V*68
$GPGGA,170215,3128.00000,N,12117.80681,E,3,11,0.81,-10.53,M,10.53,M,,*6F
$GPRMC,170215,A,3128.00000,N,12117.80681,E,7.775,270.000,090815,0.000,E,A,V*68
$GPGGA,170216,3128.00000,N,12117.80428,E,3,11,0.81,-10.53,M,10.53,M,,*6D
$GPRMC,170216,A,3128.00000,N,12117.80428,E,7.775,270.000,090815,0.000,E,A,V*6A
$GPGGA,170217,3128.00000,N,12117.80176,E,3,11,0.81,-10.53,M,10.53,M,,*62
$GPRMC,170217,A,3128.00000,N,12117.80176,E,7.775,270.000,090815,0.000,E,A,V*65
$GPGGA,170218,3128.00000,N,12117.79923,E,3,11,0.81,-10.53,M,10.53,M,,*63
$GPRMC,170218,A,3128.00000,N,12117.79923,E,7.775,270.000,090815,0.000,E,A,V*64
$GPGGA,170219,3128.00000,N,12117.79671,E,3,11,0.81,-10.53,M,10.53,M,,*6A
$GPRMC,170219,A,3128.00000,N,12117.79671,E,7.775,270.000,090815,0.000,E,A,V*6D
$GPGGA,170220,3128.00000,N,12117.79418,E,3,11,0.81,-10.53,M,10.53,M,,*6D
$GPRMC,170220,A,3128.00000,N,12117.79418,E,7.775,270.000,090815,0.000,E,A,V*6A
$GPGGA,170221,3128.00000,N,12117.79166,E,3,11,0.81,-10.53,M,10.53,M,,*60
$GPRMC,170221,A,3128.00000,N,12117.79166,E,7.775,270.000,090815,0.000,E,A,V*67
$GPGGA,170222,3128.00000,N,12117.78913,E,3,11,0.81,-10.53,M,10.53,M,,*68
$GPRMC,170222,A,3128.00000,N,12117.78913,E,7.775,270.000,090815,0.000,E,A,V*6F
$GPGGA,170223,3128.00000,N,12117.78661,E,3,11,0.81,-10.53,M,10.53,M,,*63
$GPRMC,170223,A,3128.00000,N,12117.78661,E,7.775,270.000,090815,0.000,E,A,V*64
$GPGGA,170224,3128.00000,N,12117.78408,E,3,11,0.81,-10.53,M,10.53,M,,*69
$GPRMC,170224,A,3128.00000,N,12117.78408,E,7.775,270.000,090815,0.000,E,A,V*6E
$GPGGA,170225,3128.00000,N,12117.78156,E,3,11,0.81,-10.53,M,10.53,M,,*66
$GPRMC,170225,A,3128.00000,N,12117.78156,E,7.775,270.000,090815,0.000,E,A,V*61
$GPGGA,170226,3128.00000,N,12117.77903,E,3,11,0.81,-10.53,M,10.53,M,,*62
$GPRMC,170226,A,3128.00000,N,12117.77903,E,7.775,270.000,090815,0.000,E,A,V*65
$GPGGA,170227,3128.00000,N,12117.77651,E,3,11,0.81,-10.53,M,10.53,M,,*6B
$GPRMC,170227,A,3128.00000,N,12117.77651,E,7.775,270.000,090815,0.000,E,A,V*6C
$GPGGA,170228,3128.00000,N,12117.77398,E,3,11,0.81,-10.53,M,10.53,M,,*64
$GPRMC,170228,A,3128.00000,N,12117.77398,E,7.775,270.000,090815,0.000,E,A,V*63
$GPGGA,170229,3128.00000,N,12117.77146,E,3,11,0.81,-10.53,M,10.53,M,,*64
$GPRMC,170229,A,3128.00000,N,12117.77146,E,7.775,270.000,090815,0.000,E,A,V*63
$GPGGA,170230,3128.00000,N,12117.76893,E,3,11,0.81,-10.53,M,10.53,M,,*6C
$GPRMC,170230,A,3128.00000,N,12117.76893,E,7.775,270.000,090815,0.000,E,A,V*6B
$GPGGA,170231,3128.00000,N,12117.76640,E,3,11,0.81,-10.53,M,10.53,M,,*6D
$GPRMC,170231,A,3128.00000,N,12117.76640,E,7.775,270.000,090815,0.000,E,A,V*6A
$GPGGA,170232,3128.00000,N,12117.76388,E,3,11,0.81,-10.53,M,10.53,M,,*6F
$GPRMC,170232,A,3128.00000,N,12117.76388,E,7.775,270.000,090815,0.000,E,A,V*68
$GPGGA,170233,3128.00000,N,12117.76135,E,3,11,0.81,-10.53,M,10.53,M,,*6A
$GPRMC,170233,A,3128.00000,N,12117.76135,E,7.775,270.000,090815,0.000,E,A,V*6D
$GPGGA,170234,3128.00000,N,12117.75883,E,3,11,0.81,-10.53,M,10.53,M,,*6A
$GPRMC,170234,A,3128.00000,N,12117.75883,E,7.775,270.000,090815,0.000,E,A,V*6D
$GPGGA,170235,3128.00000,N,12117.75630,E,3,11,0.81,-10.53,M,10.53,M,,*6D
$GPRMC,170235,A,3128.00000,N,12117.75630,E,7.775,270.000,090815,0.000,E,A,V*6A
$GPGGA,170236,3128.00000,N,12117.75378,E,3,11,0.81,-10.53,M,10.53,M,,*67
$GPRMC,170236,A,3128.00000,N,12117.75378,E,7.775,270.000,090815,0.000,E,A,V*60
$GPGGA,170237,3128.00000,N,12117.75125,E,3,11,0.81,-10.53,M,10.53,M,,*6C
$GPRMC,170237,A,3128.00000,N,12117.75125,E,7.775,270.000,090815,0.000,E,A,V*6B
$GPGGA,170238,3128.00000,N,12117.74873,E,3,11,0.81,-10.53,M,10.53,M,,*68
$GPRMC,170238,A,3128.00000,N,12117.74873,E,7.775,270.000,090815,0.000,E,A,V*6F
$GPGGA,170239,3128.00000,N,12117.74620,E,3,11,0.81,-10.53,M,10.53,M,,*61
$GPRMC,170239,A,3128.00000,N,12117.74620,E,7.775,270.000,090815,0.000,E,A,V*66
$GPGGA,170240,3128.00000,N,12117.74368,E,3,11,0.81,-10.53,M,10.53,M,,*66
$GPRMC,170240,A,3128.00000,N,12117.74368,E,7.775,270.000,090815,0.000,E,A,V*61
$GPGGA,170241,3128.00000,N,12117.74115,E,3,11,0.81,-10.53,M,10.53,M,,*6F
$GPRMC,170241,A,3128.00000,N,12117.74115,E,7.775,270.000,090815,0.000,E,A,V*68
$GPGGA,170242,3128.00000,N,12117.73863,E,3,11,0.81,-10.53,M,10.53,M,,*63
$GPRMC,170242,A,3128.00000,N,12117.73863,E,7.775,270.000,090815,0.000,E,A,V*64
$GPGGA,170243,3128.00000,N,12117.73610,E,3,11,0.81,-10.52,M,10.52,M,,*68
$GPRMC,170243,A,3128.00000,N,12117.73610,E,7.775,270.000,090815,0.000,E,A,V*6F
$GPGGA,170244,3128.00000,N,12117.73357,E,3,11,0.81,-10.52,M,10.52,M,,*69
$GPRMC,170244,A,3128.00000,N,12117.73357,E,7.775,270.000,090815,0.000,E,A,V*6E
$GPGGA,170245,3128.00000,N,12117.73105,E,3,11,0.81,-10.52,M,10.52,M,,*6D
$GPRMC,170245,A,3128.00000,N,12117.73105,E,7.775,270.000,090815,0.000,E,A,V*6A
$GPGGA,170246,3128.00000,N,12117.72852,E,3,11,0.81,-10.52,M,10.52,M,,*64
$GPRMC,170246,A,3128.00000,N,12117.72852,E,7.775,270.000,090815,0.000,E,A,V*63
$GPGGA,170247,3128.00000,N,12117.72600,E,3,11,0.81,-10.52,M,10.52,M,,*6C
$GPRMC,170247,A,3128.00000,N,12117.72600,E,7.775,270.000,090815,0.000,E,A,V*6B
$GPGGA,170248,3128.00000,N,12117.72347,E,3,11,0.81,-10.52,M,10.52,M,,*65
$GPRMC,170248,A,3128.00000,N,12117.72347,E,7.775,270.000,090815,0.000,E,A,V*62
$GPGGA,170249,3128.00000,N,12117.72095,E,3,11,0.81,-10.52,M,10.52,M,,*68
$GPRMC,170249,A,3128.00000,N,12117.72095,E,7.775,270.000,090815,0.000,E,A,V*6F
$GPGGA,170250,3128.00000,N,12117.71842,E,3,11,0.81,-10.52,M,10.52,M,,*61
$GPRMC,170250,A,3128.00000,N,12117.71842,E,7.775,270.000,090815,0.000,E,A,V*66
$GPGGA,170251,3128.00000,N,12117.71590,E,3,11,0.81,-10.52,M,10.52,M,,*62
$GPRMC,170251,A,3128.00000,N,12117.71590,E,7.775,270.000,090815,0.000,E,A,V*65
$GPGGA,170252,3128.00000,N,12117.71337,E,3,11,0.81,-10.52,M,10.52,M,,*6A
$GPRMC,170252,A,3128.00000,N,12117.71337,E,7.775,270.000,090815,0.000,E,A,V*6D
$GPGGA,170253,3128.00000,N,12117.71085,E,3,11,0.81,-10.52,M,10.52,M,,*61
$GPRMC,170253,A,3128.00000,N,12117.71085,E,7.775,270.000,090815,0.000,E,A,V*66
$GPGGA,170254,3128.00000,N,12117.70832,E,3,11,0.81,-10.52,M,10.52,M,,*63
$GPRMC,170254,A,3128.00000,N,12117.70832,E,7.775,270.000,090815,0.000,E,A,V*64
$GPGGA,170255,3128.00000,N,12117.70580,E,3,11,0.81,-10.52,M,10.52,M,,*66
$GPRMC,170255,A,3128.00000,N,12117.70580,E,7.775,270.000,090815,0.000,E,A,V*61
$GPGGA,170256,3128.00000,N,12117.70327,E,3,11,0.81,-10.52,M,10.52,M,,*6E
$GPRMC,170256,A,3128.00000,N,12117.70327,E,7.775,270.000,090815,0.000,E,A,V*69
$GPGGA,170257,3128.00000,N,12117.70075,E,3,11,0.81,-10.52,M,10.52,M,,*6B
$GPRMC,170257,A,3128.00000,N,12117.70075,E,7.775,270.000,090815,0.000,E,A,V*6C
$GPGGA,170258,3128.00000,N,12117.69822,E,3,11,0.81,-10.52,M,10.52,M,,*66
$GPRMC,170258,A,3128.00000,N,12117.69822,E,7.775,270.000,090815,0.000,E,A,V*61
$GPGGA,170259,3128.00000,N,12117.69569,E,3,11,0.81,-10.52,M,10.52,M,,*65
$GPRMC,170259,A,3128.00000,N,12117.69569,E,7.775,270.000,090815,0.000,E,A,V*62
$GPGGA,170300,3128.00000,N,12117.69317,E,3,11,0.81,-10.52,M,10.52,M,,*67
$GPRMC,170300,A,3128.00000,N,12117.69317,E,7.775,270.000,090815,0.000,E,A,V*60
$GPGGA,170301,3128.00000,N,12117.69064,E,3,11,0.81,-10.52,M,10.52,M,,*61
$GPRMC,170301,A,3128.00000,N,12117.69064,E,7.775,270.000,090815,0.000,E,A,V*66
$GPGGA,170302,3128.00000,N,12117.68812,E,3,11,0.81,-10.52,M,10.52,M,,*6A
$GPRMC,170302,A,3128.00000,N,12117.68812,E,7.775,270.000,090815,0.000,E,A,V*6D
$GPGGA,170303,3128.00000,N,12117.68559,E,3,11,0.81,-10.52,M,10.52,M,,*69
$GPRMC,170303,A,3128.00000,N,12117.68559,E,7.775,270.000,090815,0.000,E,A,V*6E
$GPGGA,170304,3128.00000,N,12117.68275,E,3,11,0.81,-10.52,M,10.52,M,,*67
$GPRMC,170304,A,3128.00000,N,12117.68275,E,9.719,270.000,090815,0.000,E,A,V*64
$GPGGA,170305,3128.00000,N,12117.67960,E,3,11,0.81,-10.52,M,10.52,M,,*66
$GPRMC,170305,A,3128.00000,N,12117.67960,E,9.719,270.000,090815,0.000,E,A,V*65
$GPGGA,170306,3128.00000,N,12117.67644,E,3,11,0.81,-10.52,M,10.52,M,,*6C
$GPRMC,170306,A,3128.00000,N,12117.67644,E,9.719,270.000,090815,0.000,E,A,V*6F
$GPGGA,170307,3128.00000,N,12117.67328,E,3,11,0.81,-10.52,M,10.52,M,,*62
$GPRMC,170307,A,3128.00000,N,12117.67328,E,9.719,270.000,090815,0.000,E,A,V*61
$GPGGA,170308,3128.00000,N,12117.67012,E,3,11,0.81,-10.52,M,10.52,M,,*67
$GPRMC,170308,A,3128.00000,N,12117.67012,E,9.719,270.000,090815,0.000,E,A,V*64
$GPGGA,170309,3128.00000,N,12117.66697,E,3,11,0.81,-10.52,M,10.52,M,,*6C
$GPRMC,170309,A,3128.00000,N,12117.66697,E,9.719,270.000,090815,0.000,E,A,V*6F
$GPGGA,170310,3128.00000,N,12117.66381,E,3,11,0.81,-10.52,M,10.52,M,,*66
$GPRMC,170310,A,3128.00000,N,12117.66381,E,9.719,270.000,090815,0.000,E,A,V*65
$GPGGA,170311,3128.00000,N,12117.66065,E,3,11,0.81,-10.52,M,10.52,M,,*6E
$GPRMC,170311,A,3128.00000,N,12117.66065,E,9.719,270.000,090815,0.000,E,A,V*6D
$GPGGA,170312,3128.00000,N,12117.65750,E,3,11,0.81,-10.52,M,10.52,M,,*6F
$GPRMC,170312,A,3128.00000,N,12117.65750,E,9.719,270.000,090815,0.000,E,A,V*6C
$GPGGA,170313,3128.00000,N,12117.65434,E,3,11,0.81,-10.52,M,10.52,M,,*6F
$GPRMC,170313,A,3128.00000,N,12117.65434,E,9.719,270.000,090815,0.000,E,A,V*6C
$GPGGA,170314,3128.00000,N,12117.65118,E,3,11,0.81,-10.52,M,10.52,M,,*63
$GPRMC,170314,A,3128.00000,N,12117.65118,E,9.719,270.000,090815,0.000,E,A,V*60
$GPGGA,170315,3128.00000,N,12117.64803,E,3,11,0.81,-10.52,M,10.52,M,,*60
$GPRMC,170315,A,3128.00000,N,12117.64803,E,9.719,270.000,090815,0.000,E,A,V*63
$GPGGA,170316,3128.00000,N,12117.64487,E,3,11,0.81,-10.52,M,10.52,M,,*63
$GPRMC,170316,A,3128.00000,N,12117.64487,E,9.719,270.000,090815,0.000,E,A,V*60
$GPGGA,170317,3128.00000,N,12117.64171,E,3,11,0.81,-10.52,M,10.52,M,,*6E
$GPRMC,170317,A,3128.00000,N,12117.64171,E,9.719,270.000,090815,0.000,E,A,V*6D
$GPGGA,170318,3128.00000,N,12117.63856,E,3,11,0.81,-10.52,M,10.52,M,,*6A
$GPRMC,170318,A,3128.00000,N,12117.63856,E,9.719,270.000,090815,0.000,E,A,V*69
$GPGGA,170319,3128.00000,N,12117.63540,E,3,11,0.81,-10.52,M,10.52,M,,*61
$GPRMC,170319,A,3128.00000,N,12117.63540,E,9.719,270.000,090815,0.000,E,A,V*62
$GPGGA,170320,3128.00000,N,12117.63224,E,3,11,0.81,-10.52,M,10.52,M,,*6E
$GPRMC,170320,A,3128.00000,N,12117.63224,E,9.719,270.000,090815,0.000,E,A,V*6D
$GPGGA,170321,3128.00000,N,12117.62909,E,3,11,0.81,-10.52,M,10.52,M,,*6A
$GPRMC,170321,A,3128.00000,N,12117.62909,E,9.719,270.000,090815,0.000,E,A,V*69
$GPGGA,170322,3128.00000,N,12117.62593,E,3,11,0.81,-10.52,M,10.52,M,,*66
$GPRMC,170322,A,3128.00000,N,12117.62593,E,9.719,270.000,090815,0.000,E,A,V*65
$GPGGA,170323,3128.00000,N,12117.62277,E,3,11,0.81,-10.52,M,10.52,M,,*6A
$GPRMC,170323,A,3128.00000,N,12117.62277,E,9.719,270.000,090815,0.000,E,A,V*69
$GPGGA,170324,3128.00000,N,12117.61962,E,3,11,0.81,-10.52,M,10.52,M,,*61
$GPRMC,170324,A,3128.00000,N,12117.61962,E,9.719,270.000,090815,0.000,E,A,V*62
$GPGGA,170325,3128.00000,N,12117.61646,E,3,11,0.81,-10.52,M,10.52,M,,*69
$GPRMC,170325,A,3128.00000,N,12117.61646,E,9.719,270.000,090815,0.000,E,A,V*6A
$GPGGA,170326,3128.00000,N,12117.61330,E,3,11,0.81,-10.52,M,10.52,M,,*6E
$GPRMC,170326,A,3128.00000,N,12117.61330,E,9.719,270.000,090815,0.000,E,A,V*6D
$GPGGA,170327,3128.00000,N,12117.61015,E,3,11,0.81,-10.52,M,10.52,M,,*6B
$GPRMC,170327,A,3128.00000,N,12117.61015,E,9.719,270.000,090815,0.000,E,A,V*68
$GPGGA,170328,3128.00000,N,12117.60699,E,3,11,0.81,-10.52,M,10.52,M,,*67
$GPRMC,170328,A,3128.00000,N,12117.60699,E,9.719,270.000,090815,0.000,E,A,V*64
$GPGGA,170329,3128.00000,N,12117.60383,E,3,11,0.81,-10.52,M,10.52,M,,*68
$GPRMC,170329,A,3128.00000,N,12117.60383,E,9.719,270.000,090815,0.000,E,A,V*6B
$GPGGA,170330,3128.00000,N,12117.60068,E,3,11,0.81,-10.51,M,10.51,M,,*66
$GPRMC,170330,A,3128.00000,N,12117.60068,E,9.719,270.000,090815,0.000,E,A,V*65
$GPGGA,170331,3128.00000,N,12117.59752,E,3,11,0.81,-10.51,M,10.51,M,,*63
$GPRMC,170331,A,3128.00000,N,12117.59752,E,9.719,270.000,090815,0.000,E,A,V*60
$GPGGA,170332,3128.00000,N,12117.59436,E,3,11,0.81,-10.51,M,10.51,M,,*61
$GPRMC,170332,A,3128.00000,N,12117.59436,E,9.719,270.000,090815,0.000,E,A,V*62
$GPGGA,170333,3128.00000,N,12117.59121,E,3,11,0.81,-10.51,M,10.51,M,,*63
$GPRMC,170333,A,3128.00000,N,12117.59121,E,9.719,270.000,090815,0.000,E,A,V*60
$GPGGA,170334,3128.00000,N,12117.58805,E,3,11,0.81,-10.51,M,10.51,M,,*6A
$GPRMC,170334,A,3128.00000,N,12117.58805,E,9.719,270.000,090815,0.000,E,A,V*69
$GPGGA,170335,3128.00000,N,12117.58489,E,3,11,0.81,-10.51,M,10.51,M,,*63
$GPRMC,170335,A,3128.00000,N,12117.58489,E,9.719,270.000,090815,0.000,E,A,V*60
$GPGGA,170336,3128.00000,N,12117.58174,E,3,11,0.81,-10.51,M,10.51,M,,*67
$GPRMC,170336,A,3128.00000,N,12117.58174,E,9.719,270.000,090815,0.000,E,A,V*64
$GPGGA,170337,3128.00000,N,12117.57858,E,3,11,0.81,-10.51,M,10.51,M,,*6E
$GPRMC,170337,A,3128.00000,N,12117.57858,E,9.719,270.000,090815,0.000,E,A,V*6D
$GPGGA,170338,3128.00000,N,12117.57542,E,3,11,0.81,-10.51,M,10.51,M,,*67
$GPRMC,170338,A,3128.00000,N,12117.57542,E,9.719,270.000,090815,0.000,E,A,V*64
$GPGGA,170339,3128.00000,N,12117.57227,E,3,11,0.81,-10.51,M,10.51,M,,*62
$GPRMC,170339,A,3128.00000,N,12117.57227,E,9.719,270.000,090815,0.000,E,A,V*61
$GPGGA,170340,3128.00000,N,12117.56911,E,3,11,0.81,-10.51,M,10.51,M,,*63
$GPRMC,170340,A,3128.00000,N,12117.56911,E,9.719,270.000,090815,0.000,E,A,V*60
$GPGGA,170341,3128.00000,N,12117.56595,E,3,11,0.81,-10.51,M,10.51,M,,*62
$GPRMC,170341,A,3128.00000,N,12117.56595,E,9.719,270.000,090815,0.000,E,A,V*61
$GPGGA,170342,3128.00000,N,12117.56280,E,3,11,0.81,-10.51,M,10.51,M,,*62
$GPRMC,170342,A,3128.00000,N,12117.56280,E,9.719,270.000,090815,0.000,E,A,V*61
$GPGGA,170343,3128.00000,N,12117.55964,E,3,11,0.81,-10.51,M,10.51,M,,*61
$GPRMC,170343,A,3128.00000,N,12117.55964,E,9.719,270.000,090815,0.000,E,A,V*62
$GPGGA,170344,3128.00000,N,12117.55648,E,3,11,0.81,-10.51,M,10.51,M,,*67
$GPRMC,170344,A,3128.00000,N,12117.55648,E,9.719,270.000,090815,0.000,E,A,V*64
$GPGGA,170345,3128.00000,N,12117.55333,E,3,11,0.81,-10.51,M,10.51,M,,*6F
$GPRMC,170345,A,3128.00000,N,12117.55333,E,9.719,270.000,090815,0.000,E,A,V*6C
$GPGGA,170346,3128.00000,N,12117.55017,E,3,11,0.81,-10.51,M,10.51,M,,*69
$GPRMC,170346,A,3128.00000,N,12117.55017,E,9.719,270.000,090815,0.000,E,A,V*6A
$GPGGA,170347,3128.00000,N,12117.54701,E,3,11,0.81,-10.51,M,10.51,M,,*69
$GPRMC,170347,A,3128.00000,N,12117.54701,E,9.719,270.000,090815,0.000,E,A,V*6A
$GPGGA,170348,3128.00000,N,12117.54386,E,3,11,0.81,-10.51,M,10.51,M,,*6D
$GPRMC,170348,A,3128.00000,N,12117.54386,E,9.719,270.000,090815,0.000,E,A,V*6E
$GPGGA,170349,3128.00000,N,12117.54070,E,3,11,0.81,-10.51,M,10.51,M,,*66
$GPRMC,170349,A,3128.00000,N,12117.54070,E,9.719,270.000,090815,0.000,E,A,V*65
$GPGGA,170350,3128.00000,N,12117.53754,E,3,11,0.81,-10.51,M,10.51,M,,*68
$GPRMC,170350,A,3128.00000,N,12117.53754,E,9.719,270.000,090815,0.000,E,A,V*6B
$GPGGA,170351,3128.00000,N,12117.53439,E,3,11,0.81,-10.51,M,10.51,M,,*61
$GPRMC,170351,A,3128.00000,N,12117.53439,E,9.719,270.000,090815,0.000,E,A,V*62
$GPGGA,170352,3128.00000,N,12117.53123,E,3,11,0.81,-10.51,M,10.51,M,,*6C
$GPRMC,170352,A,3128.00000,N,12117.53123,E,9.719,270.000,090815,0.000,E,A,V*6F
$GPGGA,170353,3128.00000,N,12117.52807,E,3,11,0.81,-10.51,M,10.51,M,,*63
$GPRMC,170353,A,3128.00000,N,12117.52807,E,9.719,270.000,090815,0.000,E,A,V*60
$GPGGA,170354,3128.00000,N,12117.52492,E,3,11,0.81,-10.51,M,10.51,M,,*64
$GPRMC,170354,A,3128.00000,N,12117.52492,E,9.719,270.000,090815,0.000,E,A,V*67
$GPGGA,170355,3128.00000,N,12117.52176,E,3,11,0.81,-10.51,M,10.51,M,,*6A
$GPRMC,170355,A,3128.00000,N,12117.52176,E,9.719,270.000,090815,0.000,E,A,V*69
$GPGGA,170356,3128.00000,N,12117.51860,E,3,11,0.81,-10.51,M,10.51,M,,*64
$GPRMC,170356,A,3128.00000,N,12117.51860,E,9.719,270.000,090815,0.000,E,A,V*67
$GPGGA,170357,3128.00000,N,12117.51545,E,3,11,0.81,-10.51,M,10.51,M,,*6F
$GPRMC,170357,A,3128.00000,N,12117.51545,E,9.719,270.000,090815,0.000,E,A,V*6C
$GPGGA,170358,3128.00000,N,12117.51229,E,3,11,0.81,-10.51,M,10.51,M,,*6D
$GPRMC,170358,A,3128.00000,N,12117.51229,E,9.719,270.000,090815,0.000,E,A,V*6E
$GPGGA,170359,3128.00000,N,12117.50913,E,3,11,0.81,-10.51,M,10.51,M,,*6F
$GPRMC,170359,A,3128.00000,N,12117.50913,E,9.719,270.000,090815,0.000,E,A,V*6C
$GPGGA,170400,3128.00000,N,12117.50598,E,3,11,0.81,-10.51,M,10.51,M,,*6B
$GPRMC,170400,A,3128.00000,N,12117.50598,E,9.719,270.000,090815,0.000,E,A,V*68
$GPGGA,170401,3128.00000,N,12117.50282,E,3,11,0.81,-10.51,M,10.51,M,,*66
$GPRMC,170401,A,3128.00000,N,12117.50282,E,9.719,270.000,090815,0.000,E,A,V*65
$GPGGA,170402,3128.00000,N,12117.49966,E,3,11,0.81,-10.51,M,10.51,M,,*6C
$GPRMC,170402,A,3128.00000,N,12117.49966,E,9.719,270.000,090815,0.000,E,A,V*6F
$GPGGA,170403,3128.00000,N,12117.49651,E,3,11,0.81,-10.51,M,10.51,M,,*66
$GPRMC,170403,A,3128.00000,N,12117.49651,E,9.719,270.000,090815,0.000,E,A,V*65
$GPGGA,170404,3128.00000,N,12117.49335,E,3,11,0.81,-10.51,M,10.51,M,,*66
$GPRMC,170404,A,3128.00000,N,12117.49335,E,9.719,270.000,090815,0.000,E,A,V*65
$GPGGA,170405,3128.00000,N,12117.49019,E,3,11,0.81,-10.51,M,10.51,M,,*6A
$GPRMC,170405,A,3128.00000,N,12117.49019,E,9.719,270.000,090815,0.000,E,A,V*69
$GPGGA,170406,3128.00000,N,12117.48704,E,3,11,0.81,-10.51,M,10.51,M,,*63
$GPRMC,170406,A,3128.00000,N,12117.48704,E,9.719,270.000,090815,0.000,E,A,V*60
$GPGGA,170407,3128.00000,N,12117.48388,E,3,11,0.81,-10.51,M,10.51,M,,*62
$GPRMC,170407,A,3128.00000,N,12117.48388,E,9.719,270.000,090815,0.000,E,A,V*61
$GPGGA,170408,3128.00000,N,12117.48072,E,3,11,0.81,-10.51,M,10.51,M,,*6B
$GPRMC,170408,A,3128.00000,N,12117.48072,E,9.719,270.000,090815,0.000,E,A,V*68
$GPGGA,170409,3128.00000,N,12117.47757,E,3,11,0.81,-10.51,M,10.51,M,,*65
$GPRMC,170409,A,3128.00000,N,12117.47757,E,9.719,270.000,090815,0.000,E,A,V*66
$GPGGA,170410,3128.00000,N,12117.47441,E,3,11,0.81,-10.51,M,10.51,M,,*69
$GPRMC,170410,A,3128.00000,N,12117.47441,E,9.719,270.000,090815,0.000,E,A,V*6A
$GPGGA,170411,3128.00000,N,12117.47125,E,3,11,0.81,-10.51,M,10.51,M,,*6F
$GPRMC,170411,A,3128.00000,N,12117.47125,E,9.719,270.000,090815,0.000,E,A,V*6C
$GPGGA,170412,3128.00000,N,12117.46810,E,3,11,0.81,-10.51,M,10.51,M,,*62
$GPRMC,170412,A,3128.00000,N,12117.46810,E,9.719,270.000,090815,0.000,E,A,V*61
$GPGGA,170413,3128.00000,N,12117.46494,E,3,11,0.81,-10.51,M,10.51,M,,*63
$GPRMC,170413,A,3128.00000,N,12117.46494,E,9.719,270.000,090815,0.000,E,A,V*60
$GPGGA,170414,3128.00000,N,12117.46178,E,3,11,0.81,-10.50,M,10.50,M,,*63
$GPRMC,170414,A,3128.00000,N,12117.46178,E,9.719,270.000,090815,0.000,E,A,V*60
$GPGGA,170415,3128.00000,N,12117.45863,E,3,11,0.81,-10.50,M,10.50,M,,*62
$GPRMC,170415,A,3128.00000,N,12117.45863,E,9.719,270.000,090815,0.000,E,A,V*61
$GPGGA,170416,3128.00000,N,12117.45547,E,3,11,0.81,-10.50,M,10.50,M,,*6A
$GPRMC,170416,A,3128.00000,N,12117.45547,E,9.719,270.000,090815,0.000,E,A,V*69
$GPGGA,170417,3128.00000,N,12117.45231,E,3,11,0.81,-10.50,M,10.50,M,,*6D
$GPRMC,170417,A,3128.00000,N,12117.45231,E,9.719,270.000,090815,0.000,E,A,V*6E
$GPGGA,170418,3128.00000,N,12117.44916,E,3,11,0.81,-10.50,M,10.50,M,,*6D
$GPRMC,170418,A,3128.00000,N,12117.44916,E,9.719,270.000,090815,0.000,E,A,V*6E
$GPGGA,170419,3128.00000,N,12117.44600,E,3,11,0.81,-10.50,M,10.50,M,,*64
$GPRMC,170419,A,3128.00000,N,12117.44600,E,9.719,270.000,090815,0.000,E,A,V*67
$GPGGA,170420,3128.00000,N,12117.44284,E,3,11,0.81,-10.50,M,10.50,M,,*66
$GPRMC,170420,A,3128.00000,N,12117.44284,E,9.719,270.000,090815,0.000,E,A,V*65
$GPGGA,170421,3128.00000,N,12117.43969,E,3,11,0.81,-10.50,M,10.50,M,,*68
$GPRMC,170421,A,3128.00000,N,12117.43969,E,9.719,270.000,090815,0.000,E,A,V*6B
$GPGGA,170422,3128.00000,N,12117.43653,E,3,11,0.81,-10.50,M,10.50,M,,*6D
$GPRMC,170422,A,3128.00000,N,12117.43653,E,9.719,270.000,090815,0.000,E,A,V*6E
$GPGGA,170423,3128.00000,N,12117.43337,E,3,11,0.81,-10.50,M,10.50,M,,*6B
$GPRMC,170423,A,3128.00000,N,12117.43337,E,9.719,270.000,090815,0.000,E,A,V*68
$GPGGA,170424,3128.00000,N,12117.43022,E,3,11,0.81,-10.50,M,10.50,M,,*6B
$GPRMC,170424,A,3128.00000,N,12117.43022,E,9.719,270.000,090815,0.000,E,A,V*68
$GPGGA,170425,3128.00000,N,12117.42706,E,3,11,0.81,-10.50,M,10.50,M,,*6A
$GPRMC,170425,A,3128.00000,N,12117.42706,E,9.719,270.000,090815,0.000,E,A,V*69
$GPGGA,170426,3128.00000,N,12117.42390,E,3,11,0.81,-10.50,M,10.50,M,,*62
$GPRMC,170426,A,3128.00000,N,12117.42390,E,9.719,270.000,090815,0.000,E,A,V*61
$GPGGA,170427,3128.00000,N,12117.42075,E,3,11,0.81,-10.50,M,10.50,M,,*6B
$GPRMC,170427,A,3128.00000,N,12117.42075,E,9.719,270.000,090815,0.000,E,A,V*68
$GPGGA,170428,3128.00000,N,12117.41759,E,3,11,0.81,-10.50,M,10.50,M,,*6E
$GPRMC,170428,A,3128.00000,N,12117.41759,E,9.719,270.000,090815,0.000,E,A,V*6D
$GPGGA,170429,3128.00000,N,12117.41443,E,3,12,0.71,-10.50,M,10.50,M,,*6B
$GPRMC,170429,A,3128.00000,N,12117.41443,E,9.719,270.000,090815,0.000,E,A,V*64
$GPGGA,170430,3128.00000,N,12117.41128,E,3,12,0.71,-10.50,M,10.50,M,,*6B
$GPRMC,170430,A,3128.00000,N,12117.41128,E,9.719,270.000,090815,0.000,E,A,V*64
$GPGGA,170431,3128.00000,N,12117.40812,E,3,12,0.71,-10.50,M,10.50,M,,*6B
$GPRMC,170431,A,3128.00000,N,12117.40812,E,9.719,270.000,090815,0.000,E,A,V*64
$GPGGA,170432,3128.00000,N,12117.40496,E,3,12,0.71,-10.50,M,10.50,M,,*68
$GPRMC,170432,A,3128.00000,N,12117.40496,E,9.719,270.000,090815,0.000,E,A,V*67
$GPGGA,170433,3128.00000,N,12117.40181,E,3,12,0.71,-10.50,M,10.50,M,,*6A
$GPRMC,170433,A,3128.00000,N,12117.40181,E,9.719,270.000,090815,0.000,E,A,V*65
$GPGGA,170434,3128.00000,N,12117.39865,E,3,12,0.71,-10.50,M,10.50,M,,*60
$GPRMC,170434,A,3128.00000,N,12117.39865,E,9.719,270.000,090815,0.000,E,A,V*6F
$GPGGA,170435,3128.00000,N,12117.39549,E,3,12,0.71,-10.50,M,10.50,M,,*62
$GPRMC,170435,A,3128.00000,N,12117.39549,E,9.719,270.000,090815,0.000,E,A,V*6D
$GPGGA,170436,3128.00000,N,12117.39234,E,3,12,0.71,-10.50,M,10.50,M,,*6C
$GPRMC,170436,A,3128.00000,N,12117.39234,E,9.719,270.000,090815,0.000,E,A,V*63
$GPGGA,170437,3128.00000,N,12117.38918,E,3,12,0.71,-10.50,M,10.50,M,,*69
$GPRMC,170437,A,3128.00000,N,12117.38918,E,9.719,270.000,090815,0.000,E,A,V*66
$GPGGA,170438,3128.00000,N,12117.38602,E,3,12,0.71,-10.50,M,10.50,M,,*62
$GPRMC,170438,A,3128.00000,N,12117.38602,E,9.719,270.000,090815,0.000,E,A,V*6D
$GPGGA,170439,3128.00000,N,12117.38287,E,3,12,0.71,-10.50,M,10.50,M,,*6A
$GPRMC,170439,A,3128.00000,N,12117.38287,E,9.719,270.000,090815,0.000,E,A,V*65
$GPGGA,170440,3128.00000,N,12117.37971,E,3,12,0.71,-10.50,M,10.50,M,,*69
$GPRMC,170440,A,3128.00000,N,12117.37971,E,9.719,270.000,090815,0.000,E,A,V*66
$GPGGA,170441,3128.00000,N,12117.37655,E,3,12,0.71,-10.50,M,10.50,M,,*61
$GPRMC,170441,A,3128.00000,N,12117.37655,E,9.719,270.000,090815,0.000,E,A,V*6E
$GPGGA,170442,3128.00000,N,12117.37340,E,3,12,0.71,-10.50,M,10.50,M,,*63
$GPRMC,170442,A,3128.00000,N,12117.37340,E,9.719,270.000,090815,0.000,E,A,V*6C
$GPGGA,170443,3128.00000,N,12117.37024,E,3,12,0.71,-10.50,M,10.50,M,,*63
$GPRMC,170443,A,3128.00000,N,12117.37024,E,9.719,270.000,090815,0.000,E,A,V*6C
$GPGGA,170444,3128.00000,N,12117.36708,E,3,12,0.71,-10.50,M,10.50,M,,*6C
$GPRMC,170444,A,3128.00000,N,12117.36708,E,9.719,270.000,090815,0.000,E,A,V*63
$GPGGA,170445,3128.00000,N,12117.36393,E,3,12,0.71,-10.50,M,10.50,M,,*6B
$GPRMC,170445,A,3128.00000,N,12117.36393,E,9.719,270.000,090815,0.000,E,A,V*64
$GPGGA,170446,3128.00000,N,12117.36077,E,3,12,0.71,-10.50,M,10.50,M,,*61
$GPRMC,170446,A,3128.00000,N,12117.36077,E,9.719,270.000,090815,0.000,E,A,V*6E
$GPGGA,170447,3128.00000,N,12117.35761,E,3,12,0.71,-10.50,M,10.50,M,,*63
$GPRMC,170447,A,3128.00000,N,12117.35761,E,9.719,270.000,090815,0.000,E,A,V*6C
$GPGGA,170448,3128.00000,N,12117.35446,E,3,12,0.71,-10.50,M,10.50,M,,*6A
$GPRMC,170448,A,3128.00000,N,12117.35446,E,9.719,270.000,090815,0.000,E,A,V*65
$GPGGA,170449,3128.00000,N,12117.35130,E,3,12,0.71,-10.50,M,10.50,M,,*6F
$GPRMC,170449,A,3128.00000,N,12117.35130,E,9.719,270.000,090815,0.000,E,A,V*60
$GPGGA,170450,3128.00000,N,12117.34814,E,3,12,0.71,-10.50,M,10.50,M,,*69
$GPRMC,170450,A,3128.00000,N,12117.34814,E,9.719,270.000,090815,0.000,E,A,V*66
$GPGGA,170451,3128.00000,N,12117.34499,E,3,12,0.71,-10.50,M,10.50,M,,*61
$GPRMC,170451,A,3128.00000,N,12117.34499,E,9.719,270.000,090815,0.000,E,A,V*6E
$GPGGA,170452,3128.00000,N,12117.34183,E,3,12,0.71,-10.50,M,10.50,M,,*6C
$GPRMC,170452,A,3128.00000,N,12117.34183,E,9.719,270.000,090815,0.000,E,A,V*63
$GPGGA,170453,3128.00000,N,12117.33867,E,3,12,0.71,-10.50,M,10.50,M,,*69
$GPRMC,170453,A,3128.00000,N,12117.33867,E,9.719,270.000,090815,0.000,E,A,V*66
$GPGGA,170454,3128.00000,N,12117.33552,E,3,12,0.71,-10.50,M,10.50,M,,*65
$GPRMC,170454,A,3128.00000,N,12117.33552,E,9.719,270.000,090815,0.000,E,A,V*6A
$GPGGA,170455,3128.00000,N,12117.33236,E,3,12,0.71,-10.50,M,10.50,M,,*61
$GPRMC,170455,A,3128.00000,N,12117.33236,E,9.719,270.000,090815,0.000,E,A,V*6E
$GPGGA,170456,3128.00000,N,12117.32920,E,3,12,0.71,-10.50,M,10.50,M,,*6F
$GPRMC,170456,A,3128.00000,N,12117.32920,E,9.719,270.000,090815,0.000,E,A,V*60
$GPGGA,170457,3128.00000,N,12117.32604,E,3,12,0.71,-10.49,M,10.49,M,,*67
$GPRMC,170457,A,3128.00000,N,12117.32604,E,9.719,270.000,090815,0.000,E,A,V*68
$GPGGA,170458,3128.00000,N,12117.32289,E,3,12,0.71,-10.49,M,10.49,M,,*69
$GPRMC,170458,A,3128.00000,N,12117.32289,E,9.719,270.000,090815,0.000,E,A,V*66
$GPGGA,170459,3128.00000,N,12117.31973,E,3,12,0.71,-10.49,M,10.49,M,,*65
$GPRMC,170459,A,3128.00000,N,12117.31973,E,9.719,270.000,090815,0.000,E,A,V*6A
$GPGGA,170500,3128.00000,N,12117.31657,E,3,12,0.71,-10.49,M,10.49,M,,*61
$GPRMC,170500,A,3128.00000,N,12117.31657,E,9.719,270.000,090815,0.000,E,A,V*6E
$GPGGA,170501,3128.00000,N,12117.31342,E,3,12,0.71,-10.49,M,10.49,M,,*61
$GPRMC,170501,A,3128.00000,N,12117.31342,E,9.719,270.000,090815,0.000,E,A,V*6E
$GPGGA,170502,3128.00000,N,12117.31026,E,3,12,0.71,-10.49,M,10.49,M,,*63
$GPRMC,170502,A,3128.00000,N,12117.31026,E,9.719,270.000,090815,0.000,E,A,V*6C
$GPGGA,170503,3128.00000,N,12117.30710,E,3,12,0.71,-10.49,M,10.49,M,,*61
$GPRMC,170503,A,3128.00000,N,12117.30710,E,9.719,270.000,090815,0.000,E,A,V*6E
$GPGGA,170504,3128.00000,N,12117.30395,E,3,12,0.71,-10.49,M,10.49,M,,*6F
$GPRMC,170504,A,3128.00000,N,12117.30395,E,9.719,270.000,090815,0.000,E,A,V*60
$GPGGA,170505,3128.00000,N,12117.30079,E,3,12,0.71,-10.49,M,10.49,M,,*6F
$GPRMC,170505,A,3128.00000,N,12117.30079,E,9.719,270.000,090815,0.000,E,A,V*60
$GPGGA,170506,3128.00000,N,12117.29763,E,3,12,0.71,-10.49,M,10.49,M,,*68
$GPRMC,170506,A,3128.00000,N,12117.29763,E,9.719,270.000,090815,0.000,E,A,V*67
$GPGGA,170507,3128.00000,N,12117.29448,E,3,12,0.71,-10.49,M,10.49,M,,*63
$GPRMC,170507,A,3128.00000,N,12117.29448,E,9.719,270.000,090815,0.000,E,A,V*6C
$GPGGA,170508,3128.00000,N,12117.29132,E,3,12,0.71,-10.49,M,10.49,M,,*64
$GPRMC,170508,A,3128.00000,N,12117.29132,E,9.719,270.000,090815,0.000,E,A,V*6B
$GPGGA,170509,3128.00000,N,12117.28816,E,3,12,0.71,-10.49,M,10.49,M,,*6B
$GPRMC,170509,A,3128.00000,N,12117.28816,E,9.719,270.000,090815,0.000,E,A,V*64
$GPGGA,170510,3128.00000,N,12117.28501,E,3,12,0.71,-10.49,M,10.49,M,,*68
$GPRMC,170510,A,3128.00000,N,12117.28501,E,9.719,270.000,090815,0.000,E,A,V*67
$GPGGA,170511,3128.00000,N,12117.28185,E,3,12,0.71,-10.49,M,10.49,M,,*61
$GPRMC,170511,A,3128.00000,N,12117.28185,E,9.719,270.000,090815,0.000,E,A,V*6E
$GPGGA,170512,3128.00000,N,12117.27869,E,3,12,0.71,-10.49,M,10.49,M,,*66
$GPRMC,170512,A,3128.00000,N,12117.27869,E,9.719,270.000,090815,0.000,E,A,V*69
$GPGGA,170513,3128.00000,N,12117.27554,E,3,12,0.71,-10.49,M,10.49,M,,*64
$GPRMC,170513,A,3128.00000,N,12117.27554,E,9.719,270.000,090815,0.000,E,A,V*6B
$GPGGA,170514,3128.00000,N,12117.27238,E,3,12,0.71,-10.49,M,10.49,M,,*6E
$GPRMC,170514,A,3128.00000,N,12117.27238,E,9.719,270.000,090815,0.000,E,A,V*61
$GPGGA,170515,3128.00000,N,12117.26922,E,3,12,0.71,-10.49,M,10.49,M,,*6E
$GPRMC,170515,A,3128.00000,N,12117.26922,E,9.719,270.000,090815,0.000,E,A,V*61
$GPGGA,170516,3128.00000,N,12117.26607,E,3,12,0.71,-10.49,M,10.49,M,,*65
$GPRMC,170516,A,3128.00000,N,12117.26607,E,9.719,270.000,090815,0.000,E,A,V*6A
$GPGGA,170517,3128.00000,N,12117.26291,E,3,12,0.71,-10.49,M,10.49,M,,*6F
$GPRMC,170517,A,3128.00000,N,12117.26291,E,9.719,270.000,090815,0.000,E,A,V*60
$GPGGA,170518,3128.00000,N,12117.25975,E,3,12,0.71,-10.49,M,10.49,M,,*62
$GPRMC,170518,A,3128.00000,N,12117.25975,E,9.719,270.000,090815,0.000,E,A,V*6D
$GPGGA,170519,3128.00000,N,12117.25660,E,3,12,0.71,-10.49,M,10.49,M,,*68
$GPRMC,170519,A,3128.00000,N,12117.25660,E,9.719,270.000,090815,0.000,E,A,V*67
