$GNRMC,165958.00,A,3127.999854,N,12117.991044,E,1.930,267.48,090815,,,A,V*0F
$GNGGA,165958.00,3127.999854,N,12117.991044,E,1,04,2.42,-11.6,M,9.5,M,,*61
$GNGSA,A,3,06,16,26,29,,,,,,,,,9.30,2.42,8.98,1*08
$GNGSA,A,3,,,,,,,,,,,,,9.30,2.42,8.98,4*03
$GPGSV,3,1,12,03,09,322,48,06,21,318,49,09,05,122,,14,03,198,,
0*68
$GPGSV,3,2,12,15,38,058,49,16,19,276,49,18,68,288,,21,62,012,,0*68
$GPGSV,3,3,12,22,38,252,49,24,38,079,49,26,22,047,49,29,44,158,49,0*6B
$BDGSV,1,1,00,0*74


GPS HPregnss> E1 15 00 00 00 00 07 53 8F 31 29 00 00 00 1C 3E 08 D5 ED 00 00 00 00 


$GNRMC,165959.00,A,3127.999764,N,12117.990527,E,1.796,268.95,090815,,,A,V*0E
$GNGGA,165959.00,3127.999764,N,12117.990527,E,1,09,1.03,-13.4,M,9.5,M,,*66
$GNGSA,A,3,06,15,16,18,21,22,24,26,29,,,,2.01,1.03,1.72,1*02
$GNGSA,A,3,,,,,,,,,,,,,2.01,1.03,1.72,4*01
$GPGSV,3,1,12,03,09,322,48,06,21,318,49,09,05,122,,1
4,03,198,,0*68
$GPGSV,3,2,12,15,38,058,49,16,19,276,49,18,68,288,50,21,62,012,50,0*68
$GPGSV,3,3,12,22,38,252,49,24,38,079,49,26,22,047,49,29,44,158,49,0*6B
$BDGSV,1,1,00,0*74

$GNRMC,170000.00,A,3127.999988,N,12117.989694,E,1.905,269.90,090815,,,A,V*00
$GNGGA,170000.00,3127.999988,N,12117.989694,E,1,09,1.03,-11.5,M,9.5,M,,*6B
$GNGSA,A,3,06,15,16,18,21,22,24,26,29,,,,2.01,1.03,1.72,1*02
$GNGSA,A,3,,,,,,,,,,,,,2.01,1.03,1.72,4*01
$GPGSV,3,1,12,03,09,322,48,06,21,318,49,09,05,122,,1
4,03,198,,0*68
$GPGSV,3,2,12,15,38,058,49,16,19,276,49,18,68,288,50,21,62,012,50,0*68
$GPGSV,3,3,12,22,38,252,49,24,38,079,49,26,22,047,49,29,44,158,49,0*6B
$BDGSV,1,1,00,0*74

$GNRMC,170001.00,A,3128.000172,N,12117.988944,E,1.946,270.07,090815,,,A,V*08
$GNGGA,170001.00,3128.000172,N,12117.988944,E,1,09,1.03,-10.2,M,9.5,M,,*64
$GNGSA,A,3,06,15,16,18,21,22,24,26,29,,,,2.01,1.03,1.72,1*02
$GNGSA,A,3,,,,,,,,,,,,,2.01,1.03,1.72,4*01
$GPGSV,3,1,12,03,09,322,48,06,21,318,49,09,05,122,,1
4,03,198,,0*68
$GPGSV,3,2,12,15,38,058,49,16,19,276,49,18,68,288,50,21,62,012,50,0*68
$GPGSV,3,3,12,22,38,252,49,24,38,079,49,26,22,047,49,29,44,158,49,0*6B
$BDGSV,1,1,00,0*74

$GNRMC,170002.00,A,3127.999995,N,12117.988284,E,1.946,270.07,090815,,,A,V*0B
$GNGGA,170002.00,3127.999995,N,12117.988284,E,1,09,1.03,-10.7,M,9.5,M,,*62
$GNGSA,A,3,06,15,16,18,21,22,24,26,29,,,,2.01,1.03,1.72,1*02
$GNGSA,A,3,,,,,,,,,,,,,2.01,1.03,1.72,4*01
$GPGSV,3,1,12,03,09,322,48,06,21,318,49,09,05,122,,1
4,03,198,,0*68
$GPGSV,3,2,12,15,38,058,49,16,19,276,49,18,68,288,50,21,62,012,50,0*68
$GPGSV,3,3,12,22,38,252,49,24,38,079,49,26,22,047,49,29,44,158,50,0*63
$BDGSV,1,1,00,0*74

<??????????????>

$GNRMC,170003.00,A,3128.000049,N,12117.987683,E,1.945,270.11,090815,,,A,V*0C
$GNGGA,170003.00,3128.000049,N,12117.987683,E,1,09,1.03,-10.3,M,9.5,M,,*65
$GNGSA,A,3,06,15,16,18,21,22,24,26,29,,,,2.01,1.03,1.72,1*02
$GNGSA,A,3,,,,,,,,,,,,,2.01,1.03,1.72,4*01
$GPGSV,3,1,12,03,09,322,48,06,21,318,49,09,05,122,,1
4,03,198,,0*68
$GPGSV,3,2,12,15,38,058,49,16,19,276,49,18,68,288,50,21,62,012,50,0*68
$GPGSV,3,3,12,22,38,252,49,24,38,079,49,26,22,047,49,29,44,158,50,0*63
$BDGSV,1,1,00,0*74

$GNRMC,170004.00,A,3128.000036,N,12117.987074,E,1.946,270.05,090815,,,A,V*0B
$GNGGA,170004.00,3128.000036,N,12117.987074,E,1,09,1.03,-10.4,M,9.5,M,,*63
$GNGSA,A,3,06,15,16,18,21,22,24,26,29,,,,2.01,1.03,1.72,1*02
$GNGSA,A,3,,,,,,,,,,,,,2.01,1.03,1.72,4*01
$GPGSV,3,1,12,03,09,322,48,06,21,318,49,09,05,122,,1
4,03,198,,0*68
$GPGSV,3,2,12,15,38,058,49,16,19,276,49,18,68,289,50,21,62,012,50,0*69
$GPGSV,3,3,12,22,38,252,49,24,38,079,49,26,22,047,49,29,44,158,50,0*63
$BDGSV,1,1,00,0*74

$GNRMC,170005.00,A,3128.000016,N,12117.986447,E,1.943,270.04,090815,,,A,V*09
$GNGGA,170005.00,3128.000016,N,12117.986447,E,1,09,1.03,-10.4,M,9.5,M,,*65
$GNGSA,A,3,06,15,16,18,21,22,24,26,29,,,,2.01,1.03,1.72,1*02
$GNGSA,A,3,,,,,,,,,,,,,2.01,1.03,1.72,4*01
$GPGSV,3,1,12,03,09,322,48,06,21,318,49,09,05,122,,1
4,03,198,,0*68
$GPGSV,3,2,12,15,38,058,49,16,19,276,49,18,68,289,50,21,62,012,50,0*69
$GPGSV,3,3,12,22,38,252,49,24,38,079,49,26,22,047,49,29,44,158,50,0*63
$BDGSV,1,1,00,0*74

$GNRMC,170006.00,A,3128.000013,N,12117.985815,E,1.945,270.04,090815,,,A,V*01
$GNGGA,170006.00,3128.000013,N,12117.985815,E,1,09,1.03,-10.3,M,9.5,M,,*6C
$GNGSA,A,3,06,15,16,18,21,22,24,26,29,,,,2.00,1.03,1.72,1*03
$GNGSA,A,3,,,,,,,,,,,,,2.00,1.03,1.72,4*00
$GPGSV,3,1,12,03,09,322,48,06,21,318,49,09,05,122,,1
4,03,198,,0*68
$GPGSV,3,2,12,15,38,058,49,16,19,276,49,18,68,289,50,21,62,012,50,0*69
$GPGSV,3,3,12,22,38,252,49,24,38,079,49,26,22,047,49,29,44,158,50,0*63
$BDGSV,1,1,00,0*74

$GNRMC,170007.00,A,3128.000016,N,12117.985180,E,1.944,270.04,090815,,,A,V*01
$GNGGA,170007.00,3128.000016,N,12117.985180,E,1,09,1.03,-10.2,M,9.5,M,,*6C
$GNGSA,A,3,06,15,16,18,21,22,24,26,29,,,,2.00,1.03,1.72,1*03
$GNGSA,A,3,,,,,,,,,,,,,2.00,1.03,1.72,4*00
$GPGSV,3,1,12,03,09,322,48,06,21,318,49,09,05,122,,1
4,03,198,,0*68
$GPGSV,3,2,12,15,38,058,49,16,19,276,49,18,68,289,50,21,62,012,50,0*69
$GPGSV,3,3,12,22,38,252,49,24,38,079,49,26,22,047,49,29,44,158,50,0*63
$BDGSV,1,1,00,0*74

$GNRMC,170008.00,A,3128.000014,N,12117.984545,E,1.948,270.06,090815,,,A,V*0E
$GNGGA,170008.00,3128.000014,N,12117.984545,E,1,09,1.03,-10.1,M,9.5,M,,*6E
$GNGSA,A,3,06,15,16,18,21,22,24,26,29,,,,2.00,1.03,1.72,1*03
$GNGSA,A,3,,,,,,,,,,,,,2.00,1.03,1.72,4*00
$GPGSV,3,1,12,03,09,322,48,06,21,318,49,09,05,122,,1
4,03,198,,0*68
$GPGSV,3,2,12,15,38,058,49,16,19,276,49,18,68,289,50,21,62,012,50,0*69
$GPGSV,3,3,12,22,38,252,49,24,38,079,49,26,22,047,49,29,44,158,50,0*63
$BDGSV,1,1,00,0*74

$GNRMC,170009.00,A,3128.000019,N,12117.983912,E,1.943,270.07,090815,,,A,V*01
$GNGGA,170009.00,3128.000019,N,12117.983912,E,1,09,1.03,-10.1,M,9.5,M,,*6B
$GNGSA,A,3,06,15,16,18,21,22,24,26,29,,,,2.00,1.03,1.72,1*03
$GNGSA,A,3,,,,,,,,,,,,,2.00,1.03,1.72,4*00
$GPGSV,3,1,12,03,09,322,48,06,21,318,49,09,05,122,,1
4,03,198,,0*68
$GPGSV,3,2,12,15,38,058,49,16,19,276,49,18,68,289,50,21,62,012,50,0*69
$GPGSV,3,3,12,22,38,252,49,24,38,079,49,26,22,047,49,29,44,158,49,0*6B
$BDGSV,1,1,00,0*74

$GNRMC,170010.00,A,3128.000028,N,12117.983278,E,1.946,270.08,090815,,,A,V*06
$GNGGA,170010.00,3128.000028,N,12117.983278,E,1,09,1.03,-10.0,M,9.5,M,,*67
$GNGSA,A,3,06,15,16,18,21,22,24,26,29,,,,2.00,1.03,1.72,1*03
$GNGSA,A,3,,,,,,,,,,,,,2.00,1.03,1.72,4*00
$GPGSV,3,1,12,03,09,322,48,06,21,318,49,09,05,122,,1
4,03,198,,0*68
$GPGSV,3,2,12,15,38,058,49,16,19,276,49,18,68,289,50,21,62,012,50,0*69
$GPGSV,3,3,12,22,38,252,49,24,38,079,49,26,22,047,49,29,44,158,49,0*6B
$BDGSV,1,1,00,0*74

$GNRMC,170011.00,A,3128.000032,N,12117.982643,E,1.943,270.08,090815,,,A,V*04
$GNGGA,170011.00,3128.000032,N,12117.982643,E,1,09,1.03,-10.0,M,9.5,M,,*60
$GNGSA,A,3,06,15,16,18,21,22,24,26,29,,,,2.00,1.03,1.72,1*03
$GNGSA,A,3,,,,,,,,,,,,,2.00,1.03,1.72,4*00
$GPGSV,3,1,12,03,09,322,48,06,21,318,49,09,05,122,,1
4,03,198,,0*68
$GPGSV,3,2,12,15,38,058,49,16,19,276,49,18,68,289,50,21,62,012,50,0*69
$GPGSV,3,3,12,22,38,252,49,24,38,079,49,26,22,047,49,29,44,158,49,0*6B
$BDGSV,1,1,00,0*74

$GNRMC,170012.00,A,3128.000025,N,12117.982009,E,1.946,270.08,090815,,,A,V*0C
$GNGGA,170012.00,3128.000025,N,12117.982009,E,1,09,1.03,-10.0,M,9.5,M,,*6D
$GNGSA,A,3,06,15,16,18,21,22,24,26,29,,,,2.00,1.03,1.72,1*03
$GNGSA,A,3,,,,,,,,,,,,,2.00,1.03,1.72,4*00
$GPGSV,3,1,12,03,09,322,48,06,21,318,49,09,05,122,,1
4,03,198,,0*68
$GPGSV,3,2,12,15,38,058,49,16,19,276,49,18,68,289,50,21,62,012,50,0*69
$GPGSV,3,3,12,22,38,252,49,24,38,079,49,26,22,047,49,29,44,158,49,0*6B
$BDGSV,1,1,00,0*74

<????sim??????(SIM??:1)>
<????GSM????????(GSM:0)>
<????GPRS????????(GPRS:0)>
<????????????(SIGNAL:0)>
<????????????????(BER:0)>

<??????????????>

$GNRMC,170013.00,A,3128.000024,N,12117.981376,E,1.945,270.04,090815,,,A,V*0B
$GNGGA,170013.00,3128.000024,N,12117.981376,E,1,09,1.03,-10.0,M,9.5,M,,*65
$GNGSA,A,3,06,15,16,18,21,22,24,26,29,,,,2.00,1.03,1.72,1*03
$GNGSA,A,3,,,,,,,,,,,,,2.00,1.03,1.72,4*00
$GPGSV,3,1,12,03,09,322,48,06,21,318,49,09,05,122,,1
4,03,198,,0*68
$GPGSV,3,2,12,15,38,058,49,16,19,276,49,18,68,289,50,21,62,012,50,0*69
$GPGSV,3,3,12,22,38,252,49,24,38,079,49,26,22,047,49,29,43,158,49,0*6C
$BDGSV,1,1,00,0*74

$GNRMC,170014.00,A,3128.000025,N,12117.980748,E,1.945,270.08,090815,,,A,V*09
$GNGGA,170014.00,3128.000025,N,12117.980748,E,1,09,1.03,-10.0,M,9.5,M,,*6B
$GNGSA,A,3,06,15,16,18,21,22,24,26,29,,,,2.00,1.03,1.72,1*03
$GNGSA,A,3,,,,,,,,,,,,,2.00,1.03,1.72,4*00
$GPGSV,3,1,12,03,09,322,48,06,21,318,49,09,05,122,,1
4,03,198,,0*68
$GPGSV,3,2,12,15,38,058,49,16,19,276,49,18,68,289,50,21,62,012,50,0*69
$GPGSV,3,3,12,22,38,252,49,24,38,079,49,26,22,047,49,29,43,158,50,0*64
$BDGSV,1,1,00,0*74

$GNRMC,170015.00,A,3128.000023,N,12117.980114,E,1.945,270.05,090815,,,A,V*0C
$GNGGA,170015.00,3128.000023,N,12117.980114,E,1,09,1.03,-10.0,M,9.5,M,,*63
$GNGSA,A,3,06,15,16,18,21,22,24,26,29,,,,2.00,1.03,1.72,1*03
$GNGSA,A,3,,,,,,,,,,,,,2.00,1.03,1.72,4*00
$GPGSV,3,1,12,03,09,322,48,06,21,318,49,09,05,122,,1
4,03,198,,0*68
$GPGSV,3,2,12,15,38,058,49,16,19,276,49,18,68,289,50,21,62,012,50,0*69
$GPGSV,3,3,12,22,38,252,49,24,38,079,49,26,22,047,49,29,43,158,50,0*64
$BDGSV,1,1,00,0*74

$GNRMC,170016.00,A,3128.000022,N,12117.979481,E,1.945,270.08,090815,,,A,V*0C
$GNGGA,170016.00,3128.000022,N,12117.979481,E,1,09,1.03,-9.9,M,9.5,M,,*5F
$GNGSA,A,3,06,15,16,18,21,22,24,26,29,,,,2.00,1.03,1.72,1*03
$GNGSA,A,3,,,,,,,,,,,,,2.00,1.03,1.72,4*00
$GPGSV,3,1,12,03,09,322,48,06,21,318,49,09,05,122,,14
,03,198,,0*68
$GPGSV,3,2,12,15,38,058,49,16,19,276,49,18,68,289,50,21,62,012,50,0*69
$GPGSV,3,3,12,22,38,252,49,24,38,079,49,26,22,047,49,29,43,158,50,0*64
$BDGSV,1,1,00,0*74

$GNRMC,170017.00,A,3128.000023,N,12117.978848,E,1.944,270.05,090815,,,A,V*08
$GNGGA,170017.00,3128.000023,N,12117.978848,E,1,09,1.03,-9.9,M,9.5,M,,*57
$GNGSA,A,3,06,15,16,18,21,22,24,26,29,,,,2.00,1.03,1.72,1*03
$GNGSA,A,3,,,,,,,,,,,,,2.00,1.03,1.72,4*00
$GPGSV,3,1,12,03,09,322,48,06,21,318,49,09,05,122,,14
,03,198,,0*68
$GPGSV,3,2,12,15,38,058,49,16,19,276,49,18,68,289,50,21,62,012,50,0*69
$GPGSV,3,3,12,22,38,252,49,24,38,079,49,26,22,047,49,29,43,158,50,0*64
$BDGSV,1,1,00,0*74

$GNRMC,170018.00,A,3128.000027,N,12117.978213,E,1.945,270.08,090815,,,A,V*0B
$GNGGA,170018.00,3128.000027,N,12117.978213,E,1,09,1.03,-9.9,M,9.5,M,,*58
$GNGSA,A,3,06,15,16,18,21,22,24,26,29,,,,2.00,1.03,1.72,1*03
$GNGSA,A,3,,,,,,,,,,,,,2.00,1.03,1.72,4*00
$GPGSV,3,1,12,03,09,322,48,06,21,318,49,09,05,122,,14
,03,198,,0*68
$GPGSV,3,2,12,15,38,058,49,16,19,276,49,18,68,289,50,21,62,012,50,0*69
$GPGSV,3,3,12,22,38,252,49,24,38,079,49,26,22,047,49,29,43,158,49,0*6C
$BDGSV,1,1,00,0*74

$GNRMC,170019.00,A,3128.000028,N,12117.977582,E,1.944,270.01,090815,,,A,V*0D
$GNGGA,170019.00,3128.000028,N,12117.977582,E,1,09,1.03,-9.9,M,9.5,M,,*56
$GNGSA,A,3,06,15,16,18,21,22,24,26,29,,,,2.00,1.03,1.72,1*03
$GNGSA,A,3,,,,,,,,,,,,,2.00,1.03,1.72,4*00
$GPGSV,3,1,12,03,09,322,48,06,21,318,49,09,05,122,,14
,03,198,,0*68
$GPGSV,3,2,12,15,38,058,49,16,19,276,49,18,68,289,50,21,62,012,50,0*69
$GPGSV,3,3,12,22,38,252,49,24,38,079,49,26,22,047,49,29,43,158,50,0*64
$BDGSV,1,1,00,0*74

$GNRMC,170020.00,A,3128.000029,N,12117.976950,E,1.946,270.07,090815,,,A,V*00
$GNGGA,170020.00,3128.000029,N,12117.976950,E,1,09,1.03,-9.9,M,9.5,M,,*5F
$GNGSA,A,3,06,15,16,18,21,22,24,26,29,,,,2.00,1.03,1.72,1*03
$GNGSA,A,3,,,,,,,,,,,,,2.00,1.03,1.72,4*00
$GPGSV,3,1,12,03,09,322,48,06,21,318,49,09,05,122,,14
,03,198,,0*68
$GPGSV,3,2,12,15,38,058,49,16,19,276,49,18,68,289,50,21,62,012,50,0*69
$GPGSV,3,3,12,22,38,252,49,24,38,079,49,26,22,047,49,29,43,158,49,0*6C
$BDGSV,1,1,00,0*74

$GNRMC,170021.00,A,3128.000030,N,12117.976317,E,1.945,270.09,090815,,,A,V*0D
$GNGGA,170021.00,3128.000030,N,12117.976317,E,1,09,1.03,-9.9,M,9.5,M,,*5F
$GNGSA,A,3,06,15,16,18,21,22,24,26,29,,,,2.00,1.03,1.72,1*03
$GNGSA,A,3,,,,,,,,,,,,,2.00,1.03,1.72,4*00
$GPGSV,3,1,12,03,09,322,48,06,21,318,49,09,05,122,,14
,03,198,,0*68
$GPGSV,3,2,12,15,38,058,49,16,19,276,49,18,68,289,50,21,62,012,50,0*69
$GPGSV,3,3,12,22,38,252,49,24,38,079,49,26,22,047,49,29,43,158,49,0*6C
$BDGSV,1,1,00,0*74

$GNRMC,170022.00,A,3128.000032,N,12117.975686,E,1.946,270.06,090815,,,A,V*0E
$GNGGA,170022.00,3128.000032,N,12117.975686,E,1,09,1.03,-9.9,M,9.5,M,,*50
$GNGSA,A,3,06,15,16,18,21,22,24,26,29,,,,2.00,1.03,1.72,1*03
$GNGSA,A,3,,,,,,,,,,,,,2.00,1.03,1.72,4*00
$GPGSV,3,1,12,03,09,322,48,06,21,318,49,09,05,122,,14
,03,198,,0*68
$GPGSV,3,2,12,15,38,058,49,16,19,276,49,18,68,289,50,21,62,012,50,0*69
$GPGSV,3,3,12,22,38,252,49,24,38,079,49,26,22,047,49,29,43,158,49,0*6C
$BDGSV,1,1,00,0*74

<??????????????>

$GNRMC,170023.00,A,3128.000032,N,12117.975054,E,1.945,270.09,090815,,,A,V*0A
$GNGGA,170023.00,3128.000032,N,12117.975054,E,1,09,1.03,-9.9,M,9.5,M,,*58
$GNGSA,A,3,06,15,16,18,21,22,24,26,29,,,,2.00,1.03,1.72,1*03
$GNGSA,A,3,,,,,,,,,,,,,2.00,1.03,1.72,4*00
$GPGSV,3,1,12,03,09,322,48,06,21,318,49,09,05,122,,14
,03,198,,0*68
$GPGSV,3,2,12,15,38,058,49,16,19,276,49,18,68,289,50,21,62,012,50,0*69
$GPGSV,3,3,12,22,38,252,49,24,38,079,49,26,22,047,49,29,43,158,49,0*6C
$BDGSV,1,1,00,0*74

$GNRMC,170024.00,A,3128.000030,N,12117.974425,E,1.943,270.04,090815,,,A,V*07
$GNGGA,170024.00,3128.000030,N,12117.974425,E,1,09,1.03,-9.9,M,9.5,M,,*5E
$GNGSA,A,3,06,15,16,18,21,22,24,26,29,,,,2.00,1.03,1.72,1*03
$GNGSA,A,3,,,,,,,,,,,,,2.00,1.03,1.72,4*00
$GPGSV,3,1,12,03,09,322,48,06,21,318,49,09,05,122,,14
,03,198,,0*68
$GPGSV,3,2,12,15,38,058,49,16,19,276,49,18,68,289,50,21,62,012,50,0*69
$GPGSV,3,3,12,22,38,252,49,24,38,079,49,26,22,047,49,29,43,158,49,0*6C
$BDGSV,1,1,00,0*74

$GNRMC,170025.00,A,3128.000031,N,12117.973792,E,1.946,270.03,090815,,,A,V*0D
$GNGGA,170025.00,3128.000031,N,12117.973792,E,1,09,1.03,-9.9,M,9.5,M,,*56
$GNGSA,A,3,06,15,16,18,21,22,24,26,29,,,,2.00,1.03,1.72,1*03
$GNGSA,A,3,,,,,,,,,,,,,2.00,1.03,1.72,4*00
$GPGSV,3,1,12,03,09,322,48,06,21,318,49,09,05,122,,14
,03,198,,0*68
$GPGSV,3,2,12,15,38,058,49,16,19,276,49,18,68,289,50,21,62,012,50,0*69
$GPGSV,3,3,12,22,38,252,49,24,38,079,49,26,22,047,49,29,43,158,49,0*6C
$BDGSV,1,1,00,0*74

$GNRMC,170026.00,A,3128.000032,N,12117.973158,E,1.946,270.06,090815,,,A,V*08
$GNGGA,170026.00,3128.000032,N,12117.973158,E,1,09,1.03,-9.9,M,9.5,M,,*56
$GNGSA,A,3,06,15,16,18,21,22,24,26,29,,,,2.00,1.03,1.72,1*03
$GNGSA,A,3,,,,,,,,,,,,,2.00,1.03,1.72,4*00
$GPGSV,3,1,12,03,09,322,48,06,21,318,49,09,05,122,,14
,03,198,,0*68
$GPGSV,3,2,12,15,38,058,49,16,19,276,49,18,68,289,50,21,62,012,50,0*69
$GPGSV,3,3,12,22,38,252,49,24,38,079,49,26,22,047,49,29,43,158,49,0*6C
$BDGSV,1,1,00,0*74

$GNRMC,170027.00,A,3128.000033,N,12117.972525,E,1.944,270.03,090815,,,A,V*00
$GNGGA,170027.00,3128.000033,N,12117.972525,E,1,09,1.03,-9.9,M,9.5,M,,*59
$GNGSA,A,3,06,15,16,18,21,22,24,26,29,,,,2.00,1.03,1.72,1*03
$GNGSA,A,3,,,,,,,,,,,,,2.00,1.03,1.72,4*00
$GPGSV,3,1,12,03,09,322,48,06,21,318,49,09,05,122,,14
,03,198,,0*68
$GPGSV,3,2,12,15,38,058,49,16,19,276,49,18,69,289,50,21,62,012,50,0*68
$GPGSV,3,3,12,22,38,252,49,24,38,079,49,26,22,047,49,29,43,158,49,0*6C
$BDGSV,1,1,00,0*74

$GNRMC,170028.00,A,3128.000036,N,12117.971890,E,1.947,270.08,090815,,,A,V*02
$GNGGA,170028.00,3128.000036,N,12117.971890,E,1,09,1.03,-9.9,M,9.5,M,,*53
$GNGSA,A,3,06,15,16,18,21,22,24,26,29,,,,2.00,1.03,1.72,1*03
$GNGSA,A,3,,,,,,,,,,,,,2.00,1.03,1.72,4*00
$GPGSV,3,1,12,03,09,322,48,06,21,318,49,09,05,122,,14,03,198,,0*68
$GPGSV,3,2,12,15,38,058,49,16,19,276,49,18,69,289,50,21,62,012,50,0*68
$GPGSV,3,3,12,22,38,252,49,24,38,079,49,26,22,047,49,29,43,158,50,0*64
$BDGSV,1,1,00,0*74

$GNRMC,170029.00,A,3128.000037,N,12117.971255,E,1.944,270.05,090815,,,A,V*0F
$GNGGA,170029.00,3128.000037,N,12117.971255,E,1,09,1.03,-9.9,M,9.5,M,,*50
$GNGSA,A,3,06,15,16,18,21,22,24,26,29,,,,2.00,1.03,1.72,1*03
$GNGSA,A,3,,,,,,,,,,,,,2.00,1.03,1.72,4*00
$GPGSV,3,1,12,03,09,322,48,06,21,318,49,09,05,122,,14
,03,198,,0*68
$GPGSV,3,2,12,15,38,058,49,16,19,276,49,18,69,289,50,21,62,012,50,0*68
$GPGSV,3,3,12,22,38,252,49,24,38,079,49,26,22,047,49,29,43,158,49,0*6C
$BDGSV,1,1,00,0*74

$GNRMC,170030.00,A,3128.000035,N,12117.970622,E,1.945,270.04,090815,,,A,V*00
$GNGGA,170030.00,3128.000035,N,12117.970622,E,1,09,1.03,-9.9,M,9.5,M,,*5F
$GNGSA,A,3,06,15,16,18,21,22,24,26,29,,,,2.00,1.03,1.72,1*03
$GNGSA,A,3,,,,,,,,,,,,,2.00,1.03,1.72,4*00
$GPGSV,3,1,12,03,09,322,48,06,21,318,49,09,05,122,,14
,03,198,,0*68
$GPGSV,3,2,12,15,38,058,49,16,19,276,49,18,69,289,50,21,63,012,50,0*69
$GPGSV,3,3,12,22,38,252,49,24,38,079,49,26,22,047,49,29,43,158,49,0*6C
$BDGSV,1,1,00,0*74

$GNRMC,170031.00,A,3128.000029,N,12117.969988,E,1.946,270.10,090815,,,A,V*0D
$GNGGA,170031.00,3128.000029,N,12117.969988,E,1,09,1.03,-9.9,M,9.5,M,,*54
$GNGSA,A,3,06,15,16,18,21,22,24,26,29,,,,2.00,1.03,1.72,1*03
$GNGSA,A,3,,,,,,,,,,,,,2.00,1.03,1.72,4*00
$GPGSV,3,1,12,03,09,322,48,06,21,318,49,09,05,122,,14
,03,198,,0*68
$GPGSV,3,2,12,15,38,058,49,16,19,276,49,18,69,289,50,21,63,012,50,0*69
$GPGSV,3,3,12,22,39,252,49,24,38,079,49,26,22,047,49,29,43,158,49,0*6D
$BDGSV,1,1,00,0*74

$GNRMC,170032.00,A,3128.000028,N,12117.969357,E,1.945,270.05,090815,,,A,V*00
$GNGGA,170032.00,3128.000028,N,12117.969357,E,1,09,1.03,-9.9,M,9.5,M,,*5E
$GNGSA,A,3,06,15,16,18,21,22,24,26,29,,,,2.00,1.03,1.72,1*03
$GNGSA,A,3,,,,,,,,,,,,,2.00,1.03,1.72,4*00
$GPGSV,3,1,12,03,09,322,48,06,21,318,49,09,05,122,,14
,03,198,,0*68
$GPGSV,3,2,12,15,38,058,49,16,19,276,49,18,69,289,50,21,63,012,50,0*69
$GPGSV,3,3,12,22,39,252,49,24,38,079,49,26,22,047,49,29,43,158,49,0*6D
$BDGSV,1,1,00,0*74

<????sim??????(SIM??:1)>
<????GSM????????(GSM:0)>
<????GPRS????????(GPRS:0)>
<????????????(SIGNAL:0)>
<????????????????(BER:0)>

<??????????????>

$GNRMC,170033.00,A,3128.000027,N,12117.968727,E,1.945,270.06,090815,,,A,V*0F
$GNGGA,170033.00,3128.000027,N,12117.968727,E,1,09,1.03,-9.8,M,9.5,M,,*53
$GNGSA,A,3,06,15,16,18,21,22,24,26,29,,,,2.00,1.03,1.72,1*03
$GNGSA,A,3,,,,,,,,,,,,,2.00,1.03,1.72,4*00
$GPGSV,3,1,12,03,09,322,48,06,21,318,49,09,05,122,,14
,03,198,,0*68
$GPGSV,3,2,12,15,38,058,49,16,19,276,49,18,69,289,50,21,63,012,50,0*69
$GPGSV,3,3,12,22,39,252,49,24,38,079,49,26,22,047,49,29,43,158,49,0*6D
$BDGSV,1,1,00,0*74

$GNRMC,170034.00,A,3128.000025,N,12117.967778,E,2.917,270.04,090815,,,A,V*09
$GNGGA,170034.00,3128.000025,N,12117.967778,E,1,09,1.03,-9.8,M,9.5,M,,*53
$GNGSA,A,3,06,15,16,18,21,22,24,26,29,,,,2.00,1.03,1.72,1*03
$GNGSA,A,3,,,,,,,,,,,,,2.00,1.03,1.72,4*00
$GPGSV,3,1,12,03,09,322,48,06,21,318,49,09,05,122,,14
,03,198,,0*68
$GPGSV,3,2,12,15,38,058,49,16,19,276,49,18,69,289,50,21,63,012,50,0*69
$GPGSV,3,3,12,22,39,252,49,24,38,079,49,26,22,047,49,29,43,158,49,0*6D
$BDGSV,1,1,00,0*74

$GNRMC,170035.00,A,3128.000027,N,12117.966512,E,3.888,270.04,090815,,,A,V*03
$GNGGA,170035.00,3128.000027,N,12117.966512,E,1,09,1.03,-9.8,M,9.5,M,,*5F
$GNGSA,A,3,06,15,16,18,21,22,24,26,29,,,,2.00,1.03,1.72,1*03
$GNGSA,A,3,,,,,,,,,,,,,2.00,1.03,1.72,4*00
$GPGSV,3,1,12,03,09,322,48,06,21,318,49,09,05,122,,14
,03,198,,0*68
$GPGSV,3,2,12,15,38,058,49,16,19,276,49,18,69,289,50,21,63,012,50,0*69
$GPGSV,3,3,12,22,39,252,49,24,38,079,49,26,22,046,49,29,43,158,49,0*6C
$BDGSV,1,1,00,0*74

$GNRMC,170036.00,A,3128.000027,N,12117.965248,E,3.889,270.01,090815,,,A,V*0F
$GNGGA,170036.00,3128.000027,N,12117.965248,E,1,09,1.03,-9.8,M,9.5,M,,*57
$GNGSA,A,3,06,15,16,18,21,22,24,26,29,,,,2.00,1.03,1.72,1*03
$GNGSA,A,3,,,,,,,,,,,,,2.00,1.03,1.72,4*00
$GPGSV,3,1,12,03,09,322,48,06,21,318,49,09,05,122,,14
,03,198,,0*68
$GPGSV,3,2,12,15,38,058,49,16,19,276,49,18,69,289,50,21,63,012,50,0*69
$GPGSV,3,3,12,22,39,252,49,24,38,079,49,26,22,046,49,29,43,158,49,0*6C
$BDGSV,1,1,00,0*74

$GNRMC,170037.00,A,3128.000027,N,12117.963984,E,3.887,270.04,090815,,,A,V*08
$GNGGA,170037.00,3128.000027,N,12117.963984,E,1,09,1.03,-9.8,M,9.5,M,,*5B
$GNGSA,A,3,06,15,16,18,21,22,24,26,29,,,,2.00,1.03,1.72,1*03
$GNGSA,A,3,,,,,,,,,,,,,2.00,1.03,1.72,4*00
$GPGSV,3,1,12,03,09,322,48,06,21,318,49,09,05,122,,14
,03,198,,0*68
$GPGSV,3,2,12,15,38,058,49,16,19,276,49,18,69,289,50,21,63,012,50,0*69
$GPGSV,3,3,12,22,39,252,49,24,38,079,49,26,22,046,49,29,43,158,49,0*6C
$BDGSV,1,1,00,0*74

$GNRMC,170038.00,A,3128.000026,N,12117.962721,E,3.890,270.04,090815,,,A,V*00
$GNGGA,170038.00,3128.000026,N,12117.962721,E,1,09,1.03,-9.8,M,9.5,M,,*55
$GNGSA,A,3,06,15,16,18,21,22,24,26,29,,,,2.00,1.03,1.72,1*03
$GNGSA,A,3,,,,,,,,,,,,,2.00,1.03,1.72,4*00
$GPGSV,3,1,12,03,09,322,48,06,21,318,49,09,05,122,,14
,03,198,,0*68
$GPGSV,3,2,12,15,38,058,49,16,19,276,49,18,69,289,50,21,63,012,50,0*69
$GPGSV,3,3,12,22,39,252,49,24,38,079,49,26,22,046,49,29,43,158,49,0*6C
$BDGSV,1,1,00,0*74

$GNRMC,170039.00,A,3128.000025,N,12117.961458,E,3.888,270.05,090815,,,A,V*04
$GNGGA,170039.00,3128.000025,N,12117.961458,E,1,09,1.03,-9.8,M,9.5,M,,*59
$GNGSA,A,3,06,15,16,18,21,22,24,26,29,,,,2.00,1.03,1.71,1*00
$GNGSA,A,3,,,,,,,,,,,,,2.00,1.03,1.71,4*03
$GPGSV,3,1,12,03,09,322,48,06,21,318,49,09,05,122,48,
14,03,198,,0*64
$GPGSV,3,2,12,15,38,058,49,16,19,276,49,18,69,289,50,21,63,012,50,0*69
$GPGSV,3,3,12,22,39,252,49,24,38,079,49,26,22,046,49,29,43,158,49,0*6C
$BDGSV,1,1,00,0*74

$GNRMC,170040.00,A,3128.000024,N,12117.960195,E,3.889,270.00,090815,,,A,V*0A
$GNGGA,170040.00,3128.000024,N,12117.960195,E,1,09,1.03,-9.8,M,9.5,M,,*53
$GNGSA,A,3,06,15,16,18,21,22,24,26,29,,,,2.00,1.03,1.71,1*00
$GNGSA,A,3,,,,,,,,,,,,,2.00,1.03,1.71,4*03
$GPGSV,3,1,12,03,09,322,48,06,21,318,49,09,05,122,48,
14,03,198,,0*64
$GPGSV,3,2,12,15,38,058,49,16,19,276,49,18,69,289,50,21,63,012,50,0*69
$GPGSV,3,3,12,22,39,252,49,24,38,079,49,26,22,046,49,29,43,158,49,0*6C
$BDGSV,1,1,00,0*74

$GNRMC,170041.00,A,3128.000023,N,12117.958932,E,3.889,270.03,090815,,,A,V*01
$GNGGA,170041.00,3128.000023,N,12117.958932,E,1,09,1.03,-9.8,M,9.5,M,,*5B
$GNGSA,A,3,06,15,16,18,21,22,24,26,29,,,,2.00,1.03,1.71,1*00
$GNGSA,A,3,,,,,,,,,,,,,2.00,1.03,1.71,4*03
$GPGSV,3,1,12,03,09,322,48,06,21,318,49,09,05,122,48,
14,03,198,,0*64
$GPGSV,3,2,12,15,38,058,49,16,19,276,49,18,69,289,50,21,63,012,50,0*69
$GPGSV,3,3,12,22,39,252,49,24,38,079,49,26,22,046,49,29,43,158,49,0*6C
$BDGSV,1,1,00,0*74

$GNRMC,170042.00,A,3128.000024,N,12117.957668,E,3.889,270.05,090815,,,A,V*0C
$GNGGA,170042.00,3128.000024,N,12117.957668,E,1,09,1.03,-9.8,M,9.5,M,,*50
$GNGSA,A,3,06,15,16,18,21,22,24,26,29,,,,2.00,1.03,1.71,1*00
$GNGSA,A,3,,,,,,,,,,,,,2.00,1.03,1.71,4*03
$GPGSV,3,1,12,03,09,322,48,06,21,318,49,09,05,122,48,
14,03,198,,0*64
$GPGSV,3,2,12,15,38,058,49,16,19,276,49,18,69,289,50,21,63,012,50,0*69
$GPGSV,3,3,12,22,39,252,49,24,38,079,49,26,22,046,49,29,43,158,49,0*6C
$BDGSV,1,1,00,0*74

<??????????????>

$GNRMC,170043.00,A,3128.000026,N,12117.956405,E,3.889,270.04,090815,,,A,V*06
$GNGGA,170043.00,3128.000026,N,12117.956405,E,1,09,1.03,-9.8,M,9.5,M,,*5B
$GNGSA,A,3,06,15,16,18,21,22,24,26,29,,,,2.00,1.03,1.71,1*00
$GNGSA,A,3,,,,,,,,,,,,,2.00,1.03,1.71,4*03
$GPGSV,3,1,12,03,09,322,48,06,21,318,49,09,05,122,48,
14,03,198,,0*64
$GPGSV,3,2,12,15,38,058,49,16,19,276,49,18,69,289,50,21,63,012,50,0*69
$GPGSV,3,3,12,22,39,252,49,24,38,079,49,26,22,046,49,29,43,158,49,0*6C
$BDGSV,1,1,00,0*74

$GNRMC,170044.00,A,3128.000025,N,12117.955141,E,3.889,270.00,090815,,,A,V*00
$GNGGA,170044.00,3128.000025,N,12117.955141,E,1,09,1.02,-9.8,M,9.5,M,,*58
$GNGSA,A,3,06,15,16,18,21,22,24,26,29,,,,2.00,1.02,1.71,1*01
$GNGSA,A,3,,,,,,,,,,,,,2.00,1.02,1.71,4*02
$GPGSV,3,1,12,03,09,322,48,06,21,318,49,09,05,122,48,
14,03,198,,0*64
$GPGSV,3,2,12,15,38,058,49,16,19,276,49,18,69,289,50,21,63,012,50,0*69
$GPGSV,3,3,12,22,39,252,49,24,38,079,49,26,22,046,49,29,43,158,49,0*6C
$BDGSV,1,1,00,0*74

$GNRMC,170045.00,A,3128.000026,N,12117.953879,E,3.889,270.05,090815,,,A,V*03
$GNGGA,170045.00,3128.000026,N,12117.953879,E,1,09,1.02,-9.8,M,9.5,M,,*5E
$GNGSA,A,3,06,15,16,18,21,22,24,26,29,,,,2.00,1.02,1.71,1*01
$GNGSA,A,3,,,,,,,,,,,,,2.00,1.02,1.71,4*02
$GPGSV,3,1,12,03,09,322,48,06,21,318,49,09,05,122,48,
14,03,198,,0*64
$GPGSV,3,2,12,15,38,058,49,16,19,276,49,18,69,289,50,21,63,012,50,0*69
$GPGSV,3,3,12,22,39,252,49,24,38,079,49,26,22,046,49,29,43,158,49,0*6C
$BDGSV,1,1,00,0*74

$GNRMC,170046.00,A,3128.000028,N,12117.952617,E,3.888,270.01,090815,,,A,V*0C
$GNGGA,170046.00,3128.000028,N,12117.952617,E,1,09,1.02,-9.8,M,9.5,M,,*54
$GNGSA,A,3,06,15,16,18,21,22,24,26,29,,,,2.00,1.02,1.71,1*01
$GNGSA,A,3,,,,,,,,,,,,,2.00,1.02,1.71,4*02
$GPGSV,3,1,12,03,09,322,48,06,21,318,49,09,05,122,48,
14,03,198,,0*64
$GPGSV,3,2,12,15,38,058,49,16,19,276,49,18,69,289,50,21,63,012,50,0*69
$GPGSV,3,3,12,22,39,252,49,24,38,079,49,26,22,046,49,29,43,158,49,0*6C
$BDGSV,1,1,00,0*74

$GNRMC,170047.00,A,3128.000030,N,12117.951354,E,3.891,270.03,090815,,,A,V*0F
$GNGGA,170047.00,3128.000030,N,12117.951354,E,1,09,1.02,-9.8,M,9.5,M,,*5D
$GNGSA,A,3,06,15,16,18,21,22,24,26,29,,,,2.00,1.02,1.71,1*01
$GNGSA,A,3,,,,,,,,,,,,,2.00,1.02,1.71,4*02
$GPGSV,3,1,12,03,09,322,48,06,21,318,49,09,05,122,48,
14,03,198,,0*64
$GPGSV,3,2,12,15,38,058,49,16,19,276,49,18,69,289,50,21,63,012,50,0*69
$GPGSV,3,3,12,22,39,252,49,24,38,079,49,26,22,046,49,29,43,158,49,0*6C
$BDGSV,1,1,00,0*74

$GNRMC,170048.00,A,3128.000030,N,12117.950091,E,3.889,270.04,090815,,,A,V*05
$GNGGA,170048.00,3128.000030,N,12117.950091,E,1,09,1.02,-9.8,M,9.5,M,,*59
$GNGSA,A,3,06,15,16,18,21,22,24,26,29,,,,2.00,1.02,1.71,1*01
$GNGSA,A,3,,,,,,,,,,,,,2.00,1.02,1.71,4*02
$GPGSV,3,1,12,03,09,322,48,06,21,318,49,09,05,122,48,
14,03,198,,0*64
$GPGSV,3,2,12,15,38,058,49,16,18,275,49,18,69,289,50,21,63,012,50,0*6B
$GPGSV,3,3,12,22,39,252,49,24,38,079,49,26,22,046,49,29,43,158,49,0*6C
$BDGSV,1,1,00,0*74

$GNRMC,170049.00,A,3128.000031,N,12117.948829,E,3.887,270.02,090815,,,A,V*0F
$GNGGA,170049.00,3128.000031,N,12117.948829,E,1,09,1.02,-9.8,M,9.5,M,,*5B
$GNGSA,A,3,06,15,16,18,21,22,24,26,29,,,,2.00,1.02,1.71,1*01
$GNGSA,A,3,,,,,,,,,,,,,2.00,1.02,1.71,4*02
$GPGSV,3,1,12,03,09,322,48,06,21,318,49,09,05,122,48,
14,03,198,,0*64
$GPGSV,3,2,12,15,38,058,49,16,18,275,49,18,69,289,50,21,63,012,50,0*6B
$GPGSV,3,3,12,22,39,252,49,24,38,079,49,26,22,046,49,29,43,158,49,0*6C
$BDGSV,1,1,00,0*74

$GNRMC,170050.00,A,3128.000033,N,12117.947565,E,3.890,270.04,090815,,,A,V*0F
$GNGGA,170050.00,3128.000033,N,12117.947565,E,1,09,1.02,-9.8,M,9.5,M,,*5B
$GNGSA,A,3,06,15,16,18,21,22,24,26,29,,,,2.00,1.02,1.71,1*01
$GNGSA,A,3,,,,,,,,,,,,,2.00,1.02,1.71,4*02
$GPGSV,3,1,12,03,09,322,48,06,21,318,49,09,05,122,48,
14,03,198,,0*64
$GPGSV,3,2,12,15,38,058,49,16,18,275,49,18,69,290,50,21,63,012,50,0*63
$GPGSV,3,3,12,22,39,252,49,24,38,079,49,26,22,046,49,29,43,158,49,0*6C
$BDGSV,1,1,00,0*74

$GNRMC,170051.00,A,3128.000032,N,12117.946302,E,3.888,270.02,090815,,,A,V*06
$GNGGA,170051.00,3128.000032,N,12117.946302,E,1,09,1.02,-9.8,M,9.5,M,,*5D
$GNGSA,A,3,06,15,16,18,21,22,24,26,29,,,,2.00,1.02,1.71,1*01
$GNGSA,A,3,,,,,,,,,,,,,2.00,1.02,1.71,4*02
$GPGSV,3,1,12,03,09,322,48,06,21,318,49,09,05,122,48,
14,03,198,,0*64
$GPGSV,3,2,12,15,38,058,49,16,18,275,49,18,69,290,50,21,63,012,50,0*63
$GPGSV,3,3,12,22,39,252,49,24,38,079,49,26,22,046,49,29,43,158,49,0*6C
$BDGSV,1,1,00,0*74

$GNRMC,170052.00,A,3128.000033,N,12117.945040,E,3.890,270.03,090815,,,A,V*0A
$GNGGA,170052.00,3128.000033,N,12117.945040,E,1,09,1.02,-9.8,M,9.5,M,,*59
$GNGSA,A,3,06,15,16,18,21,22,24,26,29,,,,2.00,1.02,1.71,1*01
$GNGSA,A,3,,,,,,,,,,,,,2.00,1.02,1.71,4*02
$GPGSV,3,1,12,03,09,322,48,06,21,318,49,09,05,122,48,
14,03,198,,0*64
$GPGSV,3,2,12,15,38,058,49,16,18,275,49,18,69,290,50,21,63,012,50,0*63
$GPGSV,3,3,12,22,39,252,49,24,38,079,49,26,22,046,49,29,43,158,49,0*6C
$BDGSV,1,1,00,0*74

<????sim??????(SIM??:1)>
<????GSM????????(GSM:0)>
<????GPRS????????(GPRS:0)>
<????????????(SIGNAL:0)>
<????????????????(BER:0)>

<??????????????>

$GNRMC,170053.00,A,3128.000035,N,12117.943777,E,3.889,270.02,090815,,,A,V*01
$GNGGA,170053.00,3128.000035,N,12117.943777,E,1,09,1.02,-9.8,M,9.5,M,,*5B
$GNGSA,A,3,06,15,16,18,21,22,24,26,29,,,,2.00,1.02,1.71,1*01
$GNGSA,A,3,,,,,,,,,,,,,2.00,1.02,1.71,4*02
$GPGSV,3,1,12,03,09,322,48,06,21,318,49,09,05,122,48,
14,03,198,,0*64
$GPGSV,3,2,12,15,38,058,49,16,18,275,48,18,69,290,50,21,63,012,50,0*62
$GPGSV,3,3,12,22,39,252,49,24,38,079,49,26,22,046,49,29,43,158,49,0*6C
$BDGSV,1,1,00,0*74

$GNRMC,170054.00,A,3128.000036,N,12117.942515,E,3.889,270.04,090815,,,A,V*04
$GNGGA,170054.00,3128.000036,N,12117.942515,E,1,09,1.02,-9.8,M,9.5,M,,*58
$GNGSA,A,3,06,15,16,18,21,22,24,26,29,,,,1.99,1.02,1.71,1*02
$GNGSA,A,3,,,,,,,,,,,,,1.99,1.02,1.71,4*01
$GPGSV,3,1,12,03,09,322,48,06,21,318,49,09,05,122,48,
14,03,198,,0*64
$GPGSV,3,2,12,15,38,058,49,16,18,275,49,18,69,290,50,21,63,012,50,0*63
$GPGSV,3,3,12,22,39,252,49,24,38,079,49,26,22,046,49,29,43,158,49,0*6C
$BDGSV,1,1,00,0*74

$GNRMC,170055.00,A,3128.000036,N,12117.941253,E,3.889,270.02,090815,,,A,V*05
$GNGGA,170055.00,3128.000036,N,12117.941253,E,1,09,1.02,-9.8,M,9.5,M,,*5F
$GNGSA,A,3,06,15,16,18,21,22,24,26,29,,,,1.99,1.02,1.71,1*02
$GNGSA,A,3,,,,,,,,,,,,,1.99,1.02,1.71,4*01
$GPGSV,3,1,12,03,09,322,48,06,21,318,49,09,05,122,48,
14,03,198,,0*64
$GPGSV,3,2,12,15,38,058,49,16,18,275,48,18,69,290,50,21,63,012,50,0*62
$GPGSV,3,3,12,22,39,252,49,24,38,079,49,26,22,046,49,29,43,158,49,0*6C
$BDGSV,1,1,00,0*74

$GNRMC,170056.00,A,3128.000035,N,12117.939990,E,3.890,270.03,090815,,,A,V*07
$GNGGA,170056.00,3128.000035,N,12117.939990,E,1,09,1.02,-9.8,M,9.5,M,,*54
$GNGSA,A,3,06,15,16,18,21,22,24,26,29,,,,1.99,1.02,1.71,1*02
$GNGSA,A,3,,,,,,,,,,,,,1.99,1.02,1.71,4*01
$GPGSV,3,1,12,03,09,322,48,06,21,318,49,09,05,122,48,
14,03,198,,0*64
$GPGSV,3,2,12,15,38,058,49,16,18,275,48,18,69,290,50,21,63,012,50,0*62
$GPGSV,3,3,12,22,39,252,49,24,38,079,49,26,22,046,49,29,43,158,49,0*6C
$BDGSV,1,1,00,0*74

$GNRMC,170057.00,A,3128.000034,N,12117.938726,E,3.889,270.02,090815,,,A,V*0C
$GNGGA,170057.00,3128.000034,N,12117.938726,E,1,09,1.02,-9.8,M,9.5,M,,*56
$GNGSA,A,3,06,15,16,18,21,22,24,26,29,,,,1.99,1.02,1.71,1*02
$GNGSA,A,3,,,,,,,,,,,,,1.99,1.02,1.71,4*01
$GPGSV,3,1,12,03,09,322,48,06,21,318,49,09,05,122,48,
14,03,198,,0*64
$GPGSV,3,2,12,15,38,058,49,16,18,275,48,18,69,290,50,21,63,012,50,0*62
$GPGSV,3,3,12,22,39,252,49,24,38,079,49,26,22,046,49,29,43,158,49,0*6C
$BDGSV,1,1,00,0*74

$GNRMC,170058.00,A,3128.000034,N,12117.937462,E,3.888,270.03,090815,,,A,V*0F
$GNGGA,170058.00,3128.000034,N,12117.937462,E,1,09,1.02,-9.8,M,9.5,M,,*55
$GNGSA,A,3,06,15,16,18,21,22,24,26,29,,,,1.99,1.02,1.71,1*02
$GNGSA,A,3,,,,,,,,,,,,,1.99,1.02,1.71,4*01
$GPGSV,3,1,12,03,09,322,48,06,21,318,49,09,05,122,48,
14,03,198,,0*64
$GPGSV,3,2,12,15,38,058,49,16,18,275,48,18,69,290,50,21,63,012,50,0*62
$GPGSV,3,3,12,22,39,252,49,24,38,079,49,26,21,046,49,29,43,158,49,0*6F
$BDGSV,1,1,00,0*74

$GNRMC,170059.00,A,3128.000033,N,12117.936199,E,3.891,270.05,090815,,,A,V*07
$GNGGA,170059.00,3128.000033,N,12117.936199,E,1,09,1.02,-9.8,M,9.5,M,,*53
$GNGSA,A,3,06,15,16,18,21,22,24,26,29,,,,1.99,1.02,1.71,1*02
$GNGSA,A,3,,,,,,,,,,,,,1.99,1.02,1.71,4*01
$GPGSV,3,1,12,03,09,322,48,06,21,318,49,09,05,122,48,
14,03,198,,0*64
$GPGSV,3,2,12,15,38,058,49,16,18,275,48,18,69,290,50,21,63,012,50,0*62
$GPGSV,3,3,12,22,39,252,49,24,38,079,49,26,21,046,49,29,43,158,49,0*6F
$BDGSV,1,1,00,0*74

$GNRMC,170100.00,A,3128.000033,N,12117.934936,E,3.889,270.03,090815,,,A,V*0A
$GNGGA,170100.00,3128.000033,N,12117.934936,E,1,09,1.02,-9.8,M,9.5,M,,*51
$GNGSA,A,3,06,15,16,18,21,22,24,26,29,,,,1.99,1.02,1.71,1*02
$GNGSA,A,3,,,,,,,,,,,,,1.99,1.02,1.71,4*01
$GPGSV,3,1,12,03,09,322,48,06,21,318,49,09,05,122,48,
14,03,198,,0*64
$GPGSV,3,2,12,15,38,058,49,16,18,275,48,18,69,290,50,21,63,012,50,0*62
$GPGSV,3,3,12,22,39,252,49,24,38,079,49,26,21,046,49,29,43,158,49,0*6F
$BDGSV,1,1,00,0*74

$GNRMC,170101.00,A,3128.000034,N,12117.933675,E,3.889,270.07,090815,,,A,V*07
$GNGGA,170101.00,3128.000034,N,12117.933675,E,1,09,1.02,-9.8,M,9.5,M,,*58
$GNGSA,A,3,06,15,16,18,21,22,24,26,29,,,,1.99,1.02,1.71,1*02
$GNGSA,A,3,,,,,,,,,,,,,1.99,1.02,1.71,4*01
$GPGSV,3,1,12,03,09,322,48,06,21,318,49,09,05,122,48,
14,03,198,,0*64
$GPGSV,3,2,12,15,38,058,49,16,18,275,48,18,69,290,50,21,63,012,50,0*62
$GPGSV,3,3,12,22,39,252,49,24,38,079,49,26,21,046,49,29,43,158,49,0*6F
$BDGSV,1,1,00,0*74

$GNRMC,170102.00,A,3128.000036,N,12117.932410,E,3.889,270.01,090815,,,A,V*00
$GNGGA,170102.00,3128.000036,N,12117.932410,E,1,09,1.02,-9.8,M,9.5,M,,*59
$GNGSA,A,3,06,15,16,18,21,22,24,26,29,,,,1.99,1.02,1.71,1*02
$GNGSA,A,3,,,,,,,,,,,,,1.99,1.02,1.71,4*01
$GPGSV,3,1,12,03,09,322,48,06,21,318,49,09,05,122,48,
14,03,198,,0*64
$GPGSV,3,2,12,15,38,058,49,16,18,275,48,18,69,290,50,21,63,012,50,0*62
$GPGSV,3,3,12,22,39,252,49,24,38,079,49,26,21,046,49,29,43,158,49,0*6F
$BDGSV,1,1,00,0*74

$GNRMC,170103.00,A,3128.000038,N,12117.931146,E,3.889,270.01,090815,,,A,V*0A
$GNGGA,170103.00,3128.000038,N,12117.931146,E,1,09,1.02,-9.7,M,9.5,M,,*5C
$GNGSA,A,3,06,15,16,18,21,22,24,26,29,,,,1.99,1.02,1.71,1*02
$GNGSA,A,3,,,,,,,,,,,,,1.99,1.02,1.71,4*01
$GPGSV,3,1,12,03,09,322,48,06,21,318,49,09,05,122,48,
14,03,198,,0*64
$GPGSV,3,2,12,15,38,058,49,16,18,275,48,18,69,290,50,21,63,012,50,0*62
$GPGSV,3,3,12,22,39,252,49,24,38,079,49,26,21,046,49,29,43,158,49,0*6F
$BDGSV,1,1,00,0*74
<??????????????>

$GNRMC,170104.00,A,3128.000038,N,12117.929883,E,3.889,270.02,090815,,,A,V*07
$GNGGA,170104.00,3128.000038,N,12117.929883,E,1,09,1.02,-9.7,M,9.5,M,,*52
$GNGSA,A,3,06,15,16,18,21,22,24,26,29,,,,1.99,1.02,1.71,1*02
$GNGSA,A,3,,,,,,,,,,,,,1.99,1.02,1.71,4*01
$GPGSV,3,1,12,03,09,322,48,06,21,318,49,09,05,122,48,
14,03,198,,0*64
$GPGSV,3,2,12,15,38,058,49,16,18,275,48,18,69,290,50,21,63,012,50,0*62
$GPGSV,3,3,12,22,39,252,49,24,38,079,49,26,21,046,49,29,43,158,49,0*6F
$BDGSV,1,1,00,0*74

$GNRMC,170105.00,A,3128.000039,N,12117.928620,E,3.888,270.03,090815,,,A,V*01
$GNGGA,170105.00,3128.000039,N,12117.928620,E,1,09,1.02,-9.7,M,9.5,M,,*54
$GNGSA,A,3,06,15,16,18,21,22,24,26,29,,,,1.99,1.02,1.71,1*02
$GNGSA,A,3,,,,,,,,,,,,,1.99,1.02,1.71,4*01
$GPGSV,3,1,12,03,09,322,48,06,21,318,49,09,05,122,48,
14,03,198,,0*64
$GPGSV,3,2,12,15,38,058,49,16,18,275,48,18,69,290,50,21,63,012,50,0*62
$GPGSV,3,3,12,22,39,252,49,24,38,079,49,26,21,046,49,29,43,158,49,0*6F
$BDGSV,1,1,00,0*74

$GNRMC,170106.00,A,3128.000041,N,12117.927356,E,3.889,270.02,090815,,,A,V*06
$GNGGA,170106.00,3128.000041,N,12117.927356,E,1,09,1.02,-9.7,M,9.5,M,,*53
$GNGSA,A,3,06,15,16,18,21,22,24,26,29,,,,1.99,1.02,1.71,1*02
$GNGSA,A,3,,,,,,,,,,,,,1.99,1.02,1.71,4*01
$GPGSV,3,1,12,03,09,321,48,06,21,318,49,09,05,122,48,
14,03,198,,0*67
$GPGSV,3,2,12,15,38,058,49,16,18,275,48,18,69,290,50,21,63,012,50,0*62
$GPGSV,3,3,12,22,39,252,49,24,38,079,49,26,21,046,49,29,43,158,49,0*6F
$BDGSV,1,1,00,0*74

$GNRMC,170107.00,A,3128.000043,N,12117.926093,E,3.889,270.00,090815,,,A,V*0C
$GNGGA,170107.00,3128.000043,N,12117.926093,E,1,09,1.02,-9.7,M,9.5,M,,*5B
$GNGSA,A,3,06,15,16,18,21,22,24,26,29,,,,1.99,1.02,1.71,1*02
$GNGSA,A,3,,,,,,,,,,,,,1.99,1.02,1.71,4*01
$GPGSV,3,1,12,03,09,321,48,06,21,318,49,09,05,122,48,
14,03,198,,0*67
$GPGSV,3,2,12,15,38,058,49,16,18,275,48,18,69,290,50,21,63,012,50,0*62
$GPGSV,3,3,12,22,39,252,49,24,38,079,49,26,21,046,49,29,43,158,49,0*6F
$BDGSV,1,1,00,0*74

$GNRMC,170108.00,A,3128.000046,N,12117.924829,E,3.888,270.00,090815,,,A,V*0C
$GNGGA,170108.00,3128.000046,N,12117.924829,E,1,09,1.02,-9.7,M,9.5,M,,*5A
$GNGSA,A,3,06,15,16,18,21,22,24,26,29,,,,1.99,1.02,1.71,1*02
$GNGSA,A,3,,,,,,,,,,,,,1.99,1.02,1.71,4*01
$GPGSV,3,1,12,03,09,321,48,06,21,318,49,09,05,122,48,
14,03,198,,0*67
$GPGSV,3,2,12,15,38,058,49,16,18,275,48,18,69,290,50,21,63,012,50,0*62
$GPGSV,3,3,12,22,39,252,49,24,38,079,49,26,21,046,49,29,43,158,49,0*6F
$BDGSV,1,1,00,0*74

$GNRMC,170109.00,A,3128.000049,N,12117.923567,E,3.888,270.03,090815,,,A,V*01
$GNGGA,170109.00,3128.000049,N,12117.923567,E,1,09,1.02,-9.7,M,9.5,M,,*54
$GNGSA,A,3,06,15,16,18,21,22,24,26,29,,,,1.99,1.02,1.71,1*02
$GNGSA,A,3,,,,,,,,,,,,,1.99,1.02,1.71,4*01
$GPGSV,3,1,12,03,09,321,48,06,21,318,49,09,05,122,48,
14,04,198,,0*60
$GPGSV,3,2,12,15,38,058,49,16,18,275,48,18,69,290,50,21,63,012,50,0*62
$GPGSV,3,3,12,22,39,252,49,24,38,079,49,26,21,046,49,29,43,158,49,0*6F
$BDGSV,1,1,00,0*74

$GNRMC,170110.00,A,3128.000049,N,12117.922305,E,3.889,270.03,090815,,,A,V*0B
$GNGGA,170110.00,3128.000049,N,12117.922305,E,1,09,1.02,-9.7,M,9.5,M,,*5F
$GNGSA,A,3,06,15,16,18,21,22,24,26,29,,,,1.99,1.02,1.71,1*02
$GNGSA,A,3,,,,,,,,,,,,,1.99,1.02,1.71,4*01
$GPGSV,3,1,12,03,09,321,48,06,21,318,49,09,05,122,48,
14,04,198,,0*60
$GPGSV,3,2,12,15,38,058,49,16,18,275,49,18,69,290,50,21,63,012,50,0*63
$GPGSV,3,3,12,22,39,252,49,24,38,079,49,26,21,046,49,29,43,158,49,0*6F
$BDGSV,1,1,00,0*74

$GNRMC,170111.00,A,3128.000050,N,12117.921041,E,3.889,270.04,090815,,,A,V*05
$GNGGA,170111.00,3128.000050,N,12117.921041,E,1,09,1.02,-9.7,M,9.5,M,,*56
$GNGSA,A,3,06,15,16,18,21,22,24,26,29,,,,1.99,1.02,1.71,1*02
$GNGSA,A,3,,,,,,,,,,,,,1.99,1.02,1.71,4*01
$GPGSV,3,1,12,03,09,321,48,06,21,318,49,09,05,122,48,
14,04,198,,0*60
$GPGSV,3,2,12,15,38,058,49,16,18,275,48,18,69,290,50,21,63,012,50,0*62
$GPGSV,3,3,12,22,39,252,49,24,38,079,49,26,21,046,49,29,43,158,49,0*6F
$BDGSV,1,1,00,0*74

$GNRMC,170112.00,A,3128.000050,N,12117.919778,E,3.888,270.00,090815,,,A,V*05
$GNGGA,170112.00,3128.000050,N,12117.919778,E,1,09,1.02,-9.7,M,9.5,M,,*53
$GNGSA,A,3,06,15,16,18,21,22,24,26,29,,,,1.99,1.02,1.71,1*02
$GNGSA,A,3,,,,,,,,,,,,,1.99,1.02,1.71,4*01
$GPGSV,3,1,12,03,09,321,48,06,21,318,48,09,05,122,48,
14,04,198,,0*61
$GPGSV,3,2,12,15,38,058,49,16,18,275,48,18,69,290,50,21,63,012,50,0*62
$GPGSV,3,3,12,22,39,252,49,24,38,079,49,26,21,046,49,29,43,158,49,0*6F
$BDGSV,1,1,00,0*74

$GNRMC,170113.00,A,3128.000049,N,12117.918516,E,3.888,270.00,090815,,,A,V*07
$GNGGA,170113.00,3128.000049,N,12117.918516,E,1,09,1.02,-9.7,M,9.5,M,,*51
$GNGSA,A,3,06,15,16,18,21,22,24,26,29,,,,1.99,1.02,1.71,1*02
$GNGSA,A,3,,,,,,,,,,,,,1.99,1.02,1.71,4*01
$GPGSV,3,1,12,03,09,321,48,06,21,318,48,09,05,122,48,
14,04,198,,0*61
$GPGSV,3,2,12,15,38,058,49,16,18,275,49,18,69,290,50,21,63,012,50,0*63
$GPGSV,3,3,12,22,39,252,49,24,38,079,49,26,21,046,49,29,43,158,49,0*6F
$BDGSV,1,1,00,0*74
<????sim??????(SIM??:1)>
<????GSM????????(GSM:0)>
<????GPRS????????(GPRS:0)>
<????????????(SIGNAL:0)>
<????????????????(BER:0)>


<??????????????>

$GNRMC,170114.00,A,3128.000049,N,12117.917254,E,3.888,270.03,090815,,,A,V*0D
$GNGGA,170114.00,3128.000049,N,12117.917254,E,1,09,1.02,-9.7,M,9.5,M,,*58
$GNGSA,A,3,06,15,16,18,21,22,24,26,29,,,,1.99,1.02,1.71,1*02
$GNGSA,A,3,,,,,,,,,,,,,1.99,1.02,1.71,4*01
$GPGSV,3,1,12,03,09,321,48,06,21,318,49,09,05,122,48,
14,04,198,,0*60
$GPGSV,3,2,12,15,38,058,49,16,18,275,49,18,69,290,50,21,63,012,50,0*63
$GPGSV,3,3,12,22,39,252,49,24,38,079,49,26,21,046,49,29,43,158,49,0*6F
$BDGSV,1,1,00,0*74

$GNRMC,170115.00,A,3128.000050,N,12117.915989,E,3.891,270.06,090815,,,A,V*00
$GNGGA,170115.00,3128.000050,N,12117.915989,E,1,09,1.02,-9.7,M,9.5,M,,*58
$GNGSA,A,3,06,15,16,18,21,22,24,26,29,,,,1.99,1.02,1.71,1*02
$GNGSA,A,3,,,,,,,,,,,,,1.99,1.02,1.71,4*01
$GPGSV,3,1,12,03,09,321,48,06,21,318,49,09,05,122,48,
14,04,198,,0*60
$GPGSV,3,2,12,15,38,058,49,16,18,275,48,18,69,290,50,21,63,012,50,0*62
$GPGSV,3,3,12,22,39,252,49,24,38,079,49,26,21,046,49,29,43,158,49,0*6F
$BDGSV,1,1,00,0*74

$GNRMC,170116.00,A,3128.000049,N,12117.914726,E,3.888,270.03,090815,,,A,V*0C
$GNGGA,170116.00,3128.000049,N,12117.914726,E,1,09,1.02,-9.7,M,9.5,M,,*59
$GNGSA,A,3,06,15,16,18,21,22,24,26,29,,,,1.99,1.02,1.71,1*02
$GNGSA,A,3,,,,,,,,,,,,,1.99,1.02,1.71,4*01
$GPGSV,3,1,12,03,09,321,48,06,21,318,49,09,05,122,48,
14,04,198,,0*60
$GPGSV,3,2,12,15,38,058,49,16,18,275,48,18,69,290,50,21,63,013,50,0*63
$GPGSV,3,3,12,22,39,252,49,24,38,079,49,26,21,046,49,29,43,158,49,0*6F
$BDGSV,1,1,00,0*74

$GNRMC,170117.00,A,3128.000049,N,12117.913463,E,3.889,269.97,090815,,,A,V*0C
$GNGGA,170117.00,3128.000049,N,12117.913463,E,1,09,1.02,-9.6,M,9.5,M,,*5C
$GNGSA,A,3,06,15,16,18,21,22,24,26,29,,,,1.99,1.02,1.71,1*02
$GNGSA,A,3,,,,,,,,,,,,,1.99,1.02,1.71,4*01
$GPGSV,3,1,12,03,09,321,48,06,21,318,49,09,05,122,48,
14,04,198,,0*60
$GPGSV,3,2,12,15,38,058,49,16,18,275,48,18,69,290,50,21,63,013,50,0*63
$GPGSV,3,3,12,22,39,252,49,24,38,079,49,26,21,046,49,29,43,158,49,0*6F
$BDGSV,1,1,00,0*74

$GNRMC,170118.00,A,3128.000049,N,12117.912200,E,3.888,269.99,090815,,,A,V*0E
$GNGGA,170118.00,3128.000049,N,12117.912200,E,1,09,1.02,-9.6,M,9.5,M,,*51
$GNGSA,A,3,06,15,16,18,21,22,24,26,29,,,,1.99,1.02,1.71,1*02
$GNGSA,A,3,,,,,,,,,,,,,1.99,1.02,1.71,4*01
$GPGSV,3,1,12,03,09,321,48,06,21,318,49,09,05,122,48,
14,04,198,,0*60
$GPGSV,3,2,12,15,38,058,49,16,18,275,48,18,69,290,50,21,63,013,50,0*63
$GPGSV,3,3,12,22,39,252,49,24,38,079,49,26,21,046,49,29,43,158,49,0*6F
$BDGSV,1,1,00,0*74

$GNRMC,170119.00,A,3128.000050,N,12117.910937,E,3.890,270.05,090815,,,A,V*0E
$GNGGA,170119.00,3128.000050,N,12117.910937,E,1,09,1.02,-9.6,M,9.5,M,,*55
$GNGSA,A,3,06,15,16,18,21,22,24,26,29,,,,1.99,1.02,1.71,1*02
$GNGSA,A,3,,,,,,,,,,,,,1.99,1.02,1.71,4*01
$GPGSV,3,1,12,03,09,321,48,06,21,318,49,09,05,122,48,
14,04,198,,0*60
$GPGSV,3,2,12,15,38,058,49,16,18,275,48,18,69,290,50,21,63,013,50,0*63
$GPGSV,3,3,12,22,39,252,49,24,38,079,49,26,21,046,49,29,43,158,49,0*6F
$BDGSV,1,1,00,0*74

$GNRMC,170120.00,A,3128.000052,N,12117.909674,E,3.888,270.05,090815,,,A,V*0F
$GNGGA,170120.00,3128.000052,N,12117.909674,E,1,09,1.02,-9.6,M,9.5,M,,*5D
$GNGSA,A,3,06,15,16,18,21,22,24,26,29,,,,1.99,1.02,1.71,1*02
$GNGSA,A,3,,,,,,,,,,,,,1.99,1.02,1.71,4*01
$GPGSV,3,1,12,03,09,321,48,06,21,318,49,09,05,122,48,
14,04,198,,0*60
$GPGSV,3,2,12,15,38,058,49,16,18,275,48,18,69,290,50,21,63,013,50,0*63
$GPGSV,3,3,12,22,39,252,49,24,38,079,49,26,21,046,49,29,43,158,49,0*6F
$BDGSV,1,1,00,0*74

$GNRMC,170121.00,A,3128.000052,N,12117.908410,E,3.890,270.04,090815,,,A,V*07
$GNGGA,170121.00,3128.000052,N,12117.908410,E,1,09,1.02,-9.6,M,9.5,M,,*5D
$GNGSA,A,3,06,15,16,18,21,22,24,26,29,,,,1.99,1.02,1.71,1*02
$GNGSA,A,3,,,,,,,,,,,,,1.99,1.02,1.71,4*01
$GPGSV,3,1,12,03,09,321,48,06,21,318,49,09,05,122,48,
14,04,198,,0*60
$GPGSV,3,2,12,15,38,058,49,16,18,275,48,18,69,290,50,21,63,013,50,0*63
$GPGSV,3,3,12,22,39,252,49,24,38,079,49,26,21,046,49,29,43,158,49,0*6F
$BDGSV,1,1,00,0*74

$GNRMC,170122.00,A,3128.000053,N,12117.907147,E,3.889,270.04,090815,,,A,V*05
$GNGGA,170122.00,3128.000053,N,12117.907147,E,1,09,1.02,-9.6,M,9.5,M,,*57
$GNGSA,A,3,06,15,16,18,21,22,24,26,29,,,,1.99,1.02,1.71,1*02
$GNGSA,A,3,,,,,,,,,,,,,1.99,1.02,1.71,4*01
$GPGSV,3,1,12,03,09,321,48,06,21,318,49,09,05,122,48,
14,04,198,,0*60
$GPGSV,3,2,12,15,38,058,49,16,18,275,48,18,69,290,50,21,63,013,50,0*63
$GPGSV,3,3,12,22,39,252,49,24,38,079,49,26,21,046,49,29,43,158,49,0*6F
$BDGSV,1,1,00,0*74

$GNRMC,170123.00,A,3128.000052,N,12117.905884,E,3.887,269.99,090815,,,A,V*03
$GNGGA,170123.00,3128.000052,N,12117.905884,E,1,09,1.02,-9.6,M,9.5,M,,*53
$GNGSA,A,3,06,15,16,18,21,22,24,26,29,,,,1.99,1.02,1.71,1*02
$GNGSA,A,3,,,,,,,,,,,,,1.99,1.02,1.71,4*01
$GPGSV,3,1,12,03,09,321,48,06,21,318,49,09,05,122,48,
14,04,198,,0*60
$GPGSV,3,2,12,15,38,058,49,16,18,275,48,18,69,290,50,21,63,013,50,0*63
$GPGSV,3,3,12,22,39,252,49,24,38,079,49,26,21,046,49,29,43,158,49,0*6F
$BDGSV,1,1,00,0*74
<??????????????>

$GNRMC,170124.00,A,3128.000051,N,12117.904305,E,4.861,269.99,090815,,,A,V*0B
$GNGGA,170124.00,3128.000051,N,12117.904305,E,1,09,1.02,-9.6,M,9.5,M,,*54
$GNGSA,A,3,06,15,16,18,21,22,24,26,29,,,,1.99,1.02,1.71,1*02
$GNGSA,A,3,,,,,,,,,,,,,1.99,1.02,1.71,4*01
$GPGSV,3,1,12,03,09,321,48,06,21,318,49,09,05,122,48,
14,04,198,,0*60
$GPGSV,3,2,12,15,38,058,49,16,18,275,48,18,69,290,50,21,63,013,50,0*63
$GPGSV,3,3,12,22,39,252,49,24,38,079,49,26,21,046,49,29,43,158,49,0*6F
$BDGSV,1,1,00,0*74

$GNRMC,170125.00,A,3128.000052,N,12117.902412,E,5.832,270.03,090815,,,A,V*02
$GNGGA,170125.00,3128.000052,N,12117.902412,E,1,09,1.02,-9.6,M,9.5,M,,*51
$GNGSA,A,3,06,15,16,18,21,22,24,26,29,,,,1.99,1.02,1.71,1*02
$GNGSA,A,3,,,,,,,,,,,,,1.99,1.02,1.71,4*01
$GPGSV,3,1,12,03,09,321,48,06,21,318,49,09,05,122,48,
14,04,198,,0*60
$GPGSV,3,2,12,15,38,058,49,16,18,275,48,18,69,290,50,21,63,013,50,0*63
$GPGSV,3,3,12,22,39,252,49,24,38,079,49,26,21,046,49,29,43,158,49,0*6F
$BDGSV,1,1,00,0*74

$GNRMC,170126.00,A,3128.000053,N,12117.900518,E,5.834,270.05,090815,,,A,V*09
$GNGGA,170126.00,3128.000053,N,12117.900518,E,1,09,1.02,-9.6,M,9.5,M,,*5A
$GNGSA,A,3,06,15,16,18,21,22,24,26,29,,,,1.99,1.02,1.71,1*02
$GNGSA,A,3,,,,,,,,,,,,,1.99,1.02,1.71,4*01
$GPGSV,3,1,12,03,09,321,48,06,21,318,48,09,05,122,48,
14,04,198,,0*61
$GPGSV,3,2,12,15,38,058,49,16,18,275,48,18,69,290,50,21,63,013,50,0*63
$GPGSV,3,3,12,22,39,252,49,24,38,079,49,26,21,046,49,29,43,158,49,0*6F
$BDGSV,1,1,00,0*74

$GNRMC,170127.00,A,3128.000053,N,12117.898625,E,5.830,269.95,090815,,,A,V*00
$GNGGA,170127.00,3128.000053,N,12117.898625,E,1,09,1.02,-9.6,M,9.5,M,,*56
$GNGSA,A,3,06,15,16,18,21,22,24,26,29,,,,1.99,1.02,1.71,1*02
$GNGSA,A,3,,,,,,,,,,,,,1.99,1.02,1.71,4*01
$GPGSV,3,1,12,03,09,321,48,06,21,318,48,09,05,122,48,
14,04,198,,0*61
$GPGSV,3,2,12,15,38,058,49,16,18,275,48,18,69,290,50,21,63,013,50,0*63
$GPGSV,3,3,12,22,39,252,49,24,38,079,49,26,21,046,49,29,43,158,49,0*6F
$BDGSV,1,1,00,0*74

$GNRMC,170128.00,A,3128.000053,N,12117.896732,E,5.832,270.00,090815,,,A,V*00
$GNGGA,170128.00,3128.000053,N,12117.896732,E,1,09,1.02,-9.6,M,9.5,M,,*50
$GNGSA,A,3,06,15,16,18,21,22,24,26,29,,,,1.99,1.02,1.71,1*02
$GNGSA,A,3,,,,,,,,,,,,,1.99,1.02,1.71,4*01
$GPGSV,3,1,12,03,09,321,48,06,21,318,49,09,05,122,48,
14,04,198,,0*60
$GPGSV,3,2,12,15,38,058,49,16,18,275,48,18,69,290,50,21,63,013,50,0*63
$GPGSV,3,3,12,22,39,252,49,24,38,079,49,26,21,046,49,29,43,158,49,0*6F
$BDGSV,1,1,00,0*74

$GNRMC,170129.00,A,3128.000054,N,12117.894837,E,5.834,270.03,090815,,,A,V*0B
$GNGGA,170129.00,3128.000054,N,12117.894837,E,1,09,1.02,-9.6,M,9.5,M,,*5E
$GNGSA,A,3,06,15,16,18,21,22,24,26,29,,,,1.99,1.02,1.71,1*02
$GNGSA,A,3,,,,,,,,,,,,,1.99,1.02,1.71,4*01
$GPGSV,3,1,12,03,09,321,48,06,21,318,49,09,05,122,48,
14,04,198,,0*60
$GPGSV,3,2,12,15,38,058,49,16,18,275,48,18,69,290,50,21,63,013,50,0*63
$GPGSV,3,3,12,22,39,252,49,24,38,079,49,26,21,046,48,29,43,158,49,0*6E
$BDGSV,1,1,00,0*74

$GNRMC,170130.00,A,3128.000053,N,12117.892945,E,5.832,270.02,090815,,,A,V*01
$GNGGA,170130.00,3128.000053,N,12117.892945,E,1,09,1.02,-9.6,M,9.5,M,,*53
$GNGSA,A,3,06,15,16,18,21,22,24,26,29,,,,1.99,1.02,1.71,1*02
$GNGSA,A,3,,,,,,,,,,,,,1.99,1.02,1.71,4*01
$GPGSV,3,1,12,03,09,321,48,06,22,318,48,09,05,122,48,
14,04,198,,0*62
$GPGSV,3,2,12,15,38,058,49,16,18,275,48,18,69,290,50,21,63,013,50,0*63
$GPGSV,3,3,12,22,39,252,49,24,38,079,49,26,21,046,49,29,43,158,49,0*6F
$BDGSV,1,1,00,0*74

$GNRMC,170131.00,A,3128.000052,N,12117.891051,E,5.833,270.03,090815,,,A,V*0E
$GNGGA,170131.00,3128.000052,N,12117.891051,E,1,09,1.02,-9.6,M,9.5,M,,*5C
$GNGSA,A,3,06,15,16,18,21,22,24,26,29,,,,1.99,1.02,1.71,1*02
$GNGSA,A,3,,,,,,,,,,,,,1.99,1.02,1.71,4*01
$GPGSV,3,1,12,03,09,321,48,06,22,318,48,09,05,122,48,
14,04,198,,0*62
$GPGSV,3,2,12,15,38,058,49,16,18,275,48,18,69,290,50,21,63,013,50,0*63
$GPGSV,3,3,12,22,39,252,49,24,38,079,49,26,21,046,49,29,43,158,49,0*6F
$BDGSV,1,1,00,0*74

$GNRMC,170132.00,A,3128.000053,N,12117.889157,E,5.832,270.01,090815,,,A,V*01
$GNGGA,170132.00,3128.000053,N,12117.889157,E,1,09,1.02,-9.6,M,9.5,M,,*50
$GNGSA,A,3,06,15,16,18,21,22,24,26,29,,,,1.99,1.02,1.71,1*02
$GNGSA,A,3,,,,,,,,,,,,,1.99,1.02,1.71,4*01
$GPGSV,3,1,12,03,09,321,48,06,22,318,49,09,05,122,48,
14,04,198,,0*63
$GPGSV,3,2,12,15,38,058,49,16,18,275,48,18,69,290,50,21,63,013,50,0*63
$GPGSV,3,3,12,22,39,252,49,24,38,079,49,26,21,046,48,29,43,158,49,0*6E
$BDGSV,1,1,00,0*74

$GNRMC,170133.00,A,3128.000053,N,12117.887263,E,5.834,270.02,090815,,,A,V*0F
$GNGGA,170133.00,3128.000053,N,12117.887263,E,1,09,1.02,-9.6,M,9.5,M,,*5B
$GNGSA,A,3,06,15,16,18,21,22,24,26,29,,,,1.99,1.02,1.70,1*03
$GNGSA,A,3,,,,,,,,,,,,,1.99,1.02,1.70,4*00
$GPGSV,3,1,12,03,09,321,48,06,22,318,49,09,05,122,48,
14,04,198,,0*63
$GPGSV,3,2,12,15,38,057,49,16,18,275,48,18,69,290,50,21,63,013,50,0*6C
$GPGSV,3,3,12,22,39,252,49,24,38,079,49,26,21,046,49,29,43,158,49,0*6F
$BDGSV,1,1,00,0*74
<????GSM????>
<assertion failed:file(dal_gsm_drv.c), line(164), rsttype(2), errid(-1)>

<????sim??????(SIM??:1)>
<????GSM????????(GSM:0)>
<????GPRS????????(GPRS:0)>
<????????????(SIGNAL:0)>
<????????????????(BER:0)>

<??????????????>

 
                                                
                                                   
                                                   
                                                  
                                                          
                                                    
                                      
<DAL_TTS_InitDrv>
<DAL_InitGsmDrv>
YX_QXWZ_InitLink
<DAL_GPRS_Apply(1)>
<??????????????>
<YX_InstallVectorDetect s_vector[0].handler:0xf02903e9, tag:0>
<VtStatusClear[id :0]

??????????(579)=????(523)+????(56)+????(0)

No.0:time0F 08 0A 01 01 21 ,file(dal_gsm_drv.c),line(164),errid(ffffffff),mem_peak(
76032)
No.1:time14 07 01 12 0E 2F ,file(YX_ResetCnt.c),line(305),errid(fff0),mem_peak(71424)
No.2:time14 07 01 12 0E 2F ,file(YX_ResetCnt.c),line(305),errid(fff0),mem_peak(71424)
No.3:time14 07 01 12 0E 2F ,file(YX_ResetCnt.c),line(305),errid(fff0),mem_peak(71424)
No.4:time14 07 01 12 0E 2F ,file(YX_ResetCn
t.c),line(305),errid(fff0),mem_peak(71424)
No.5:time14 07 01 12 0E 2F ,file(YX_ResetCnt.c),line(305),errid(fff0),mem_peak(71424)
No.6:time14 07 01 12 0E 2F ,file(YX_ResetCnt.c),line(305),errid(fff0),mem_peak(71424)
No.7:time14 07 01 12 0E 2F ,file(YX_ResetCnt.c),line(305),errid(fff0),mem_peak(71424)
No.8:ti
me14 07 01 12 0E 2F ,file(YX_ResetCnt.c),line(305),errid(fff0),mem_peak(71424)
No.9:time14 07 01 12 0E 2F ,file(YX_ResetCnt.c),line(305),errid(fff0),mem_peak(71424)
????????????????????:172
<gps_main_begin!!>

<---VTRTRG id:[0], isnight:[0], curvector:[0], limit:[100], pre:[95]>

????????!!!!!!!!!!!!!!

<---VTRTRG id:[0], isnight:[0], curvector:[0], limit:[100], pre:[95]>

<Hdl_MSG_GSMCORE_PSReady>

$GNRMC,,V,,,,,,,,,,N,V*37
$GNGGA,,,,,,0,00,99.9,,,,,,*6F
$GNGSA,A,1,,,,,,,,,,,,,99.9,99.9,99.9,1*0A
$GNGSA,A,1,,,,,,,,,,,,,99.9,99.9,99.9,4*0F
$GPGSV,1,1,00,0*65
$BDGSV,1,1,00,0*74

<---VTRTRG id:[0], isnight:[0], curvector:[0], limit:[100], pre:[95]>

$GNRMC,,V,,,,,,,,,,N,V*37
$GNGGA,,,,,,0,00,99.9,,,,,,*6F
$GNGSA,A,1,,,,,,,,,,,,,99.9,99.9,99.9,1*0A
$GNGSA,A,1,,,,,,,,,,,,,99.9,99.9,99.9,4*0F
$GPGSV,3,1,10,03,,,50,06,,,50,09,,,50,15,,,51,0*6F
$GPGSV,3,2,10,16,,,51,18,,,51,21,,,51,22,,,51,0*68
$GPGSV,3,3,10,24,,,50,26,,,51,0*67
$BDGSV,1,1,00,0*74

$GNRMC,,V,,,,,,,,,,N,V*37
$GNGGA,,,,,,0,00,99.9,,,,,,*6F
$GNGSA,A,1,,,,,,,,,,,,,99.9,99.9,99.9,1*0A
$GNGSA,A,1,,,,,,,,,,,,,99.9,99.9,99.9,4*0F
$GPGSV,3,1,11,03,,,49,06,,,50,09,,,49,15,,,50,0*6F
$GPGSV,3,2,11,16,,,50,18,,,51,21,,,51,22,,,50,0*69
$GPGSV,3,3,11,24,,,50,26,,,50,29,,,51,0*68
$BDGSV,1,1,00,0*74

<---VTRTRG id:[0], isnight:[0], curvector:[0], limit:[100], pre:[95]>

$GNRMC,,V,,,,,,,,,,N,V*37
$GNGGA,,,,,,0,00,99.9,,,,,,*6F
$GNGSA,A,1,,,,,,,,,,,,,99.9,99.9,99.9,1*0A
$GNGSA,A,1,,,,,,,,,,,,,99.9,99.9,99.9,4*0F
$GPGSV,3,1,11,03,,,49,06,,,49,09,,,49,15,,,50,0*67
$GPGSV,3,2,11,16,,,49,18,,,51,21,,,51,22,,,50,0*61
$GPGSV,3,3,11,24,,,50,26,,,49,29,,,50,0*61
$BDGSV,1,1,00,0*74

$GNRMC,,V,,,,,,,,,,N,V*37
$GNGGA,,,,,,0,00,99.9,,,,,,*6F
$GNGSA,A,1,,,,,,,,,,,,,99.9,99.9,99.9,1*0A
$GNGSA,A,1,,,,,,,,,,,,,99.9,99.9,99.9,4*0F
$GPGSV,3,1,11,03,,,49,06,,,49,09,,,49,15,,,50,0*67
$GPGSV,3,2,11,16,,,49,18,,,51,21,,,50,22,,,50,0*60
$GPGSV,3,3,11,24,,,50,26,,,49,29,,,50,0*61
$BDGSV,1,1,00,0*74

<??????????????>
<---VTRTRG id:[0], isnight:[0], curvector:[0], limit:[100], pre:[95]>

$GNRMC,,V,,,,,,,,,,N,V*37
$GNGGA,,,,,,0,00,99.9,,,,,,*6F
$GNGSA,A,1,,,,,,,,,,,,,99.9,99.9,99.9,1*0A
$GNGSA,A,1,,,,,,,,,,,,,99.9,99.9,99.9,4*0F
$GPGSV,3,1,11,03,,,49,06,,,49,09,,,49,15,,,50,0*67
$GPGSV,3,2,11,16,,,49,18,,,51,21,,,51,22,,,50,0*61
$GPGSV,3,3,11,24,,,50,26,,,49,29,,,50,0*61
$BDGSV,1,1,00,0*74

$GNRMC,,V,,,,,,,,,,N,V*37
$GNGGA,,,,,,0,00,99.9,,,,,,*6F
$GNGSA,A,1,,,,,,,,,,,,,99.9,99.9,99.9,1*0A
$GNGSA,A,1,,,,,,,,,,,,,99.9,99.9,99.9,4*0F
$GPGSV,3,1,11,03,,,48,06,,,49,09,,,48,15,,,49,0*6F
$GPGSV,3,2,11,16,,,49,18,,,50,21,,,50,22,,,49,0*69
$GPGSV,3,3,11,24,,,49,26,,,49,29,,,49,0*61
$BDGSV,1,1,00,0*74

$GNRMC,,V,,,,,,,,,,N,V*37
$GNGGA,,,,,,0,00,99.9,,,,,,*6F
$GNGSA,A,1,,,,,,,,,,,,,99.9,99.9,99.9,1*0A
$GNGSA,A,1,,,,,,,,,,,,,99.9,99.9,99.9,4*0F
$GPGSV,1,1,00,0*65
$BDGSV,1,1,00,0*74

$GNRMC,,V,,,,,,,,,,N,V*37
$GNGGA,,,,,,0,00,99.9,,,,,,*6F
$GNGSA,A,1,,,,,,,,,,,,,99.9,99.9,99.9,1*0A
$GNGSA,A,1,,,,,,,,,,,,,99.9,99.9,99.9,4*0F
$GPGSV,1,1,00,0*65
$BDGSV,1,1,00,0*74

????????!!!!!!!!!!!!!!

$GNRMC,,V,,,,,,,,,,N,V*37
$GNGGA,,,,,,0,00,99.9,,,,,,*6F
$GNGSA,A,1,,,,,,,,,,,,,99.9,99.9,99.9,1*0A
$GNGSA,A,1,,,,,,,,,,,,,99.9,99.9,99.9,4*0F
$GPGSV,3,1,10,03,,,48,06,,,48,09,,,44,15,,,48,0*62
$GPGSV,3,2,10,16,,,47,18,,,49,21,,,48,22,,,48,0*66
$GPGSV,3,3,10,24,,,49,26,,,47,0*68
$BDGSV,1,1,00,0*74

$GNRMC,,V,,,,,,,,,,N,V*37
$GNGGA,,,,,,0,00,99.9,,,,,,*6F
$GNGSA,A,1,,,,,,,,,,,,,99.9,99.9,99.9,1*0A
$GNGSA,A,1,,,,,,,,,,,,,99.9,99.9,99.9,4*0F
$GPGSV,3,1,11,03,,,48,06,,,48,09,,,47,15,,,48,0*60
$GPGSV,3,2,11,16,,,48,18,,,49,21,,,49,22,,,49,0*68
$GPGSV,3,3,11,24,,,49,26,,,48,29,,,49,0*60
$BDGSV,1,1,00,0*74

$GNRMC,,V,,,,,,,,,,N,V*37
$GNGGA,,,,,,0,00,99.9,,,,,,*6F
$GNGSA,A,1,,,,,,,,,,,,,99.9,99.9,99.9,1*0A
$GNGSA,A,1,,,,,,,,,,,,,99.9,99.9,99.9,4*0F
$GPGSV,3,1,11,03,,,48,06,,,48,09,,,47,15,,,48,0*60
$GPGSV,3,2,11,16,,,48,18,,,49,21,,,49,22,,,49,0*68
$GPGSV,3,3,11,24,,,49,26,,,48,29,,,49,0*60
$BDGSV,1,1,00,0*74

$GNRMC,,V,,,,,,,,,,N,V*37
$GNGGA,,,,,,0,00,99.9,,,,,,*6F
$GNGSA,A,1,,,,,,,,,,,,,99.9,99.9,99.9,1*0A
$GNGSA,A,1,,,,,,,,,,,,,99.9,99.9,99.9,4*0F
$GPGSV,3,1,11,03,,,48,06,,,48,09,,,47,15,,,49,0*61
$GPGSV,3,2,11,16,,,48,18,,,49,21,,,49,22,,,48,0*69
$GPGSV,3,3,11,24,,,48,26,,,48,29,,,49,0*61
$BDGSV,1,1,00,0*74

$GNRMC,,V,,,,,,,,,,N,V*37
$GNGGA,,,,,,0,00,99.9,,,,,,*6F
$GNGSA,A,1,,,,,,,,,,,,,99.9,99.9,99.9,1*0A
$GNGSA,A,1,,,,,,,,,,,,,99.9,99.9,99.9,4*0F
$GPGSV,3,1,11,03,,,48,06,,,48,09,,,47,15,,,49,0*61
$GPGSV,3,2,11,16,,,48,18,,,49,21,,,49,22,,,49,0*68
$GPGSV,3,3,11,24,,,49,26,,,48,29,,,49,0*60
$BDGSV,1,1,00,0*74

$GNRMC,,V,,,,,,,,,,N,V*37
$GNGGA,,,,,,0,00,99.9,,,,,,*6F
$GNGSA,A,1,,,,,,,,,,,,,99.9,99.9,99.9,1*0A
$GNGSA,A,1,,,,,,,,,,,,,99.9,99.9,99.9,4*0F
$GPGSV,3,1,11,03,,,48,06,,,48,09,,,47,15,,,49,0*61
$GPGSV,3,2,11,16,,,48,18,,,49,21,,,49,22,,,49,0*68
$GPGSV,3,3,11,24,,,49,26,,,48,29,,,49,0*60
$BDGSV,1,1,00,0*74

$GNRMC,170252.67,V,,,,,,,,,,N,V*1B
$GNGGA,170252.67,,,,,0,00,99.9,,,,,,*43
$GNGSA,A,1,,,,,,,,,,,,,99.9,99.9,99.9,1*0A
$GNGSA,A,1,,,,,,,,,,,,,99.9,99.9,99.9,4*0F
$GPGSV,3,1,11,03,,,48,06,,,48,09,,,47,15,,,49,0*61
$GPGSV,3,2,11,16,,,48,18,,,49,21,,,49,22,,,49,0*68
$GPGSV,3,3,11,24,,,49,26,,,48,29,,,49,0*60

$BDGSV,1,1,00,0*74
<????sim??????(SIM??:1)>
<??????sim??>
<????GSM????????(GSM:5)>
<????GPRS????????(GPRS:0)>
<????????????(SIGNAL:0)>
<????????????????(BER:0)>

<??????????????>
<detect SIM card>

$GNRMC,170253.00,V,,,,,,,,,,N,V*1B
$GNGGA,170253.00,,,,,0,00,99.9,,,,,,*43
$GNGSA,A,1,,,,,,,,,,,,,99.9,99.9,99.9,1*0A
$GNGSA,A,1,,,,,,,,,,,,,99.9,99.9,99.9,4*0F
$GPGSV,3,1,11,03,,,48,06,,,48,09,,,47,15,,,49,0*61
$GPGSV,3,2,11,16,,,48,18,,,49,21,,,49,22,,,49,0*68
$GPGSV,3,3,11,24,,,49,26,,,48,29,,,49,0*60

$BDGSV,1,1,00,0*74

$GNRMC,170254.00,V,,,,,,,,,,N,V*1C
$GNGGA,170254.00,,,,,0,00,99.9,,,,,,*44
$GNGSA,A,1,,,,,,,,,,,,,99.9,99.9,99.9,1*0A
$GNGSA,A,1,,,,,,,,,,,,,99.9,99.9,99.9,4*0F
$GPGSV,3,1,11,03,,,48,06,,,48,09,,,47,15,,,49,0*61
$GPGSV,3,2,11,16,,,48,18,,,49,21,,,49,22,,,49,0*68
$GPGSV,3,3,11,24,,,49,26,,,48,29,,,49,0*60

$BDGSV,1,1,00,0*74

$GNRMC,170255.00,V,,,,,,,,,,N,V*1D
$GNGGA,170255.00,,,,,0,00,99.9,,,,,,*45
$GNGSA,A,1,,,,,,,,,,,,,99.9,99.9,99.9,1*0A
$GNGSA,A,1,,,,,,,,,,,,,99.9,99.9,99.9,4*0F
$GPGSV,3,1,11,03,,,48,06,,,48,09,,,47,15,,,49,0*61
$GPGSV,3,2,11,16,,,48,18,,,49,21,,,49,22,,,49,0*68
$GPGSV,3,3,11,24,,,49,26,,,48,29,,,49,0*60

$BDGSV,1,1,00,0*74

$GNRMC,170256.00,V,,,,,,,,,,N,V*1E
$GNGGA,170256.00,,,,,0,00,99.9,,,,,,*46
$GNGSA,A,1,,,,,,,,,,,,,99.9,99.9,99.9,1*0A
$GNGSA,A,1,,,,,,,,,,,,,99.9,99.9,99.9,4*0F
$GPGSV,3,1,11,03,,,48,06,,,48,09,,,47,15,,,49,0*61
$GPGSV,3,2,11,16,,,48,18,,,49,21,,,49,22,,,49,0*68
$GPGSV,3,3,11,24,,,49,26,,,48,29,,,49,0*60

$BDGSV,1,1,00,0*74

$GNRMC,170257.00,V,,,,,,,,,,N,V*1F
$GNGGA,170257.00,,,,,0,00,99.9,,,,,,*47
$GNGSA,A,1,,,,,,,,,,,,,99.9,99.9,99.9,1*0A
$GNGSA,A,1,,,,,,,,,,,,,99.9,99.9,99.9,4*0F
$GPGSV,3,1,11,03,,,48,06,,,48,09,,,47,15,,,49,0*61
$GPGSV,3,2,11,16,,,48,18,,,49,21,,,49,22,,,49,0*68
$GPGSV,3,3,11,24,,,49,26,,,48,29,,,49,0*60

$BDGSV,1,1,00,0*74

$GNRMC,170258.00,V,,,,,,,,,,N,V*10
$GNGGA,170258.00,,,,,0,00,99.9,,,,,,*48
$GNGSA,A,1,,,,,,,,,,,,,99.9,99.9,99.9,1*0A
$GNGSA,A,1,,,,,,,,,,,,,99.9,99.9,99.9,4*0F
$GPGSV,3,1,11,03,,,48,06,,,48,09,,,47,15,,,49,0*61
$GPGSV,3,2,11,16,,,48,18,,,49,21,,,49,22,,,49,0*68
$GPGSV,3,3,11,24,,,49,26,,,48,29,,,49,0*60

$BDGSV,1,1,00,0*74

$GNRMC,170259.00,V,,,,,,,,,,N,V*11
$GNGGA,170259.00,,,,,0,00,99.9,,,,,,*49
$GNGSA,A,1,,,,,,,,,,,,,99.9,99.9,99.9,1*0A
$GNGSA,A,1,,,,,,,,,,,,,99.9,99.9,99.9,4*0F
$GPGSV,3,1,11,03,,,48,06,,,48,09,,,48,15,,,49,0*6E
$GPGSV,3,2,11,16,,,48,18,,,49,21,,,49,22,,,49,0*68
$GPGSV,3,3,11,24,,,49,26,,,48,29,,,49,0*60

$BDGSV,1,1,00,0*74

$GNRMC,170300.00,V,,,,,,,,,,N,V*1C
$GNGGA,170300.00,,,,,0,00,99.9,,,,,,*44
$GNGSA,A,1,,,,,,,,,,,,,99.9,99.9,99.9,1*0A
$GNGSA,A,1,,,,,,,,,,,,,99.9,99.9,99.9,4*0F
$GPGSV,3,1,11,03,,,48,06,,,48,09,,,47,15,,,49,0*61
$GPGSV,3,2,11,16,,,48,18,,,49,21,,,49,22,,,49,0*68
$GPGSV,3,3,11,24,,,49,26,,,48,29,,,49,0*60

$BDGSV,1,1,00,0*74

$GNRMC,170301.00,V,,,,,,,,,,N,V*1D
$GNGGA,170301.00,,,,,0,00,99.9,,,,,,*45
$GNGSA,A,1,,,,,,,,,,,,,99.9,99.9,99.9,1*0A
$GNGSA,A,1,,,,,,,,,,,,,99.9,99.9,99.9,4*0F
$GPGSV,4,1,13,03,,,48,06,,,48,09,,,48,12,,,31,0*63
$GPGSV,4,2,13,15,,,49,16,,,48,17,,,29,18,,,49,0*6A
$GPGSV,4,3,13,21,,,49,22,,,49,24,,,49,26,,,
48,0*60
$GPGSV,4,4,13,29,,,49,0*61
$BDGSV,1,1,00,0*74

$GNRMC,170302.00,V,,,,,,,,,,N,V*1E
$GNGGA,170302.00,,,,,0,00,99.9,,,,,,*46
$GNGSA,A,1,,,,,,,,,,,,,99.9,99.9,99.9,1*0A
$GNGSA,A,1,,,,,,,,,,,,,99.9,99.9,99.9,4*0F
$GPGSV,3,1,11,03,,,48,06,,,48,09,,,48,15,,,49,0*6E
$GPGSV,3,2,11,16,,,48,18,,,49,21,,,49,22,,,49,0*68
$GPGSV,3,3,11,24,,,49,26,,,48,29,,,49,0*60

$BDGSV,1,1,00,0*74

<??????????????>

$GNRMC,170303.00,V,,,,,,,,,,N,V*1F
$GNGGA,170303.00,,,,,0,00,99.9,,,,,,*47
$GNGSA,A,1,,,,,,,,,,,,,99.9,99.9,99.9,1*0A
$GNGSA,A,1,,,,,,,,,,,,,99.9,99.9,99.9,4*0F
$GPGSV,3,1,11,03,,,48,06,,,48,09,,,48,15,,,49,0*6E
$GPGSV,3,2,11,16,,,48,18,,,49,21,,,49,22,,,49,0*68
$GPGSV,3,3,11,24,,,49,26,,,48,29,,,49,0*60

$BDGSV,1,1,00,0*74

$GNRMC,170304.00,V,,,,,,,,,,N,V*18
$GNGGA,170304.00,,,,,0,00,99.9,,,,,,*40
$GNGSA,A,1,,,,,,,,,,,,,99.9,99.9,99.9,1*0A
$GNGSA,A,1,,,,,,,,,,,,,99.9,99.9,99.9,4*0F
$GPGSV,3,1,11,03,,,48,06,,,48,09,,,48,15,,,49,0*6E
$GPGSV,3,2,11,16,,,48,18,,,49,21,,,49,22,,,49,0*68
$GPGSV,3,3,11,24,,,49,26,,,48,29,,,49,0*60

$BDGSV,1,1,00,0*74

$GNRMC,170305.00,V,,,,,,,,,,N,V*19
$GNGGA,170305.00,,,,,0,00,99.9,,,,,,*41
$GNGSA,A,1,,,,,,,,,,,,,99.9,99.9,99.9,1*0A
$GNGSA,A,1,,,,,,,,,,,,,99.9,99.9,99.9,4*0F
$GPGSV,3,1,11,03,,,48,06,,,48,09,,,48,15,,,49,0*6E
$GPGSV,3,2,11,16,,,48,18,,,49,21,,,49,22,,,49,0*68
$GPGSV,3,3,11,24,,,49,26,,,48,29,,,49,0*60

$BDGSV,1,1,00,0*74

