<---VTRTRG id:[0], isnight:[0], curvector:[0], limit:[100], pre:[95]>

$GNRMC,,V,,,,,,,,,,N,V*37
$GNGGA,,,,,,0,00,99.9,,,,,,*6F
$GNGSA,A,1,,,,,,,,,,,,,99.9,99.9,99.9,1*0A
$GNGSA,A,1,,,,,,,,,,,,,99.9,99.9,99.9,4*0F
$GPGSV,3,1,09,03,,,49,06,,,50,15,,,51,16,,,50,0*61
$GPGSV,3,2,09,18,,,51,21,,,51,22,,,51,24,,,51,0*61
$GPGSV,3,3,09,26,,,50,0*6D
$BDGSV,1,1,00,0*74

$GNRMC,,V,,,,,,,,,,N,V*37
$GNGGA,,,,,,0,00,99.9,,,,,,*6F
$GNGSA,A,1,,,,,,,,,,,,,99.9,99.9,99.9,1*0A
$GNGSA,A,1,,,,,,,,,,,,,99.9,99.9,99.9,4*0F
$GPGSV,3,1,10,03,,,49,06,,,49,15,,,50,16,,,49,0*68
$GPGSV,3,2,10,18,,,51,21,,,51,22,,,50,24,,,50,0*69
$GPGSV,3,3,10,26,,,50,29,,,50,0*6B
$BDGSV,1,1,00,0*74

<---VTRTRG id:[0], isnight:[0], curvector:[0], limit:[100], pre:[95]>

$GNRMC,,V,,,,,,,,,,N,V*37
$GNGGA,,,,,,0,00,99.9,,,,,,*6F
$GNGSA,A,1,,,,,,,,,,,,,99.9,99.9,99.9,1*0A
$GNGSA,A,1,,,,,,,,,,,,,99.9,99.9,99.9,4*0F
$GPGSV,3,1,10,03,,,49,06,,,49,15,,,50,16,,,49,0*68
$GPGSV,3,2,10,18,,,51,21,,,51,22,,,50,24,,,50,0*69
$GPGSV,3,3,10,26,,,49,29,,,50,0*63
$BDGSV,1,1,00,0*74

$GNRMC,,V,,,,,,,,,,N,V*37
$GNGGA,,,,,,0,00,99.9,,,,,,*6F
$GNGSA,A,1,,,,,,,,,,,,,99.9,99.9,99.9,1*0A
$GNGSA,A,1,,,,,,,,,,,,,99.9,99.9,99.9,4*0F
$GPGSV,3,1,10,03,,,48,06,,,49,15,,,49,16,,,49,0*61
$GPGSV,3,2,10,18,,,50,21,,,50,22,,,49,24,,,49,0*69
$GPGSV,3,3,10,26,,,49,29,,,50,0*63
$BDGSV,1,1,00,0*74

<??????????????>
<---VTRTRG id:[0], isnight:[0], curvector:[0], limit:[100], pre:[95]>

$GNRMC,,V,,,,,,,,,,N,V*37
$GNGGA,,,,,,0,00,99.9,,,,,,*6F
$GNGSA,A,1,,,,,,,,,,,,,99.9,99.9,99.9,1*0A
$GNGSA,A,1,,,,,,,,,,,,,99.9,99.9,99.9,4*0F
$GPGSV,3,1,10,03,,,48,06,,,49,15,,,49,16,,,49,0*61
$GPGSV,3,2,10,18,,,50,21,,,50,22,,,49,24,,,49,0*69
$GPGSV,3,3,10,26,,,49,29,,,50,0*63
$BDGSV,1,1,00,0*74

$GNRMC,,V,,,,,,,,,,N,V*37
$GNGGA,,,,,,0,00,99.9,,,,,,*6F
$GNGSA,A,1,,,,,,,,,,,,,99.9,99.9,99.9,1*0A
$GNGSA,A,1,,,,,,,,,,,,,99.9,99.9,99.9,4*0F
$GPGSV,3,1,10,03,,,48,06,,,49,15,,,49,16,,,49,0*61
$GPGSV,3,2,10,18,,,50,21,,,50,22,,,49,24,,,49,0*69
$GPGSV,3,3,10,26,,,49,29,,,50,0*63
$BDGSV,1,1,00,0*74

$GNRMC,,V,,,,,,,,,,N,V*37
$GNGGA,,,,,,0,00,99.9,,,,,,*6F
$GNGSA,A,1,,,,,,,,,,,,,99.9,99.9,99.9,1*0A
$GNGSA,A,1,,,,,,,,,,,,,99.9,99.9,99.9,4*0F
$GPGSV,1,1,00,0*65
$BDGSV,1,1,00,0*74

$GNRMC,,V,,,,,,,,,,N,V*37
$GNGGA,,,,,,0,00,99.9,,,,,,*6F
$GNGSA,A,1,,,,,,,,,,,,,99.9,99.9,99.9,1*0A
$GNGSA,A,1,,,,,,,,,,,,,99.9,99.9,99.9,4*0F
$GPGSV,1,1,00,0*65
$BDGSV,1,1,00,0*74

$GNRMC,,V,,,,,,,,,,N,V*37
$GNGGA,,,,,,0,00,99.9,,,,,,*6F
$GNGSA,A,1,,,,,,,,,,,,,99.9,99.9,99.9,1*0A
$GNGSA,A,1,,,,,,,,,,,,,99.9,99.9,99.9,4*0F
$GPGSV,3,1,09,03,,,48,06,,,48,15,,,49,16,,,48,0*69
$GPGSV,3,2,09,18,,,49,21,,,50,22,,,48,24,,,48,0*69
$GPGSV,3,3,09,26,,,48,0*64
$BDGSV,1,1,00,0*74

$GNRMC,,V,,,,,,,,,,N,V*37
$GNGGA,,,,,,0,00,99.9,,,,,,*6F
$GNGSA,A,1,,,,,,,,,,,,,99.9,99.9,99.9,1*0A
$GNGSA,A,1,,,,,,,,,,,,,99.9,99.9,99.9,4*0F
$GPGSV,3,1,10,03,,,48,06,,,48,15,,,49,16,,,48,0*61
$GPGSV,3,2,10,18,,,49,21,,,49,22,,,49,24,,,49,0*69
$GPGSV,3,3,10,26,,,48,29,,,49,0*6A
$BDGSV,1,1,00,0*74

$GNRMC,,V,,,,,,,,,,N,V*37
$GNGGA,,,,,,0,00,99.9,,,,,,*6F
$GNGSA,A,1,,,,,,,,,,,,,99.9,99.9,99.9,1*0A
$GNGSA,A,1,,,,,,,,,,,,,99.9,99.9,99.9,4*0F
$GPGSV,3,1,10,03,,,48,06,,,48,15,,,49,16,,,48,0*61
$GPGSV,3,2,10,18,,,49,21,,,49,22,,,49,24,,,49,0*69
$GPGSV,3,3,10,26,,,48,29,,,49,0*6A
$BDGSV,1,1,00,0*74

$GNRMC,,V,,,,,,,,,,N,V*37
$GNGGA,,,,,,0,00,99.9,,,,,,*6F
$GNGSA,A,1,,,,,,,,,,,,,99.9,99.9,99.9,1*0A
$GNGSA,A,1,,,,,,,,,,,,,99.9,99.9,99.9,4*0F
$GPGSV,3,1,10,03,,,48,06,,,48,15,,,49,16,,,48,0*61
$GPGSV,3,2,10,18,,,49,21,,,49,22,,,49,24,,,49,0*69
$GPGSV,3,3,10,26,,,48,29,,,49,0*6A
$BDGSV,1,1,00,0*74

$GNRMC,,V,,,,,,,,,,N,V*37
$GNGGA,,,,,,0,00,99.9,,,,,,*6F
$GNGSA,A,1,,,,,,,,,,,,,99.9,99.9,99.9,1*0A
$GNGSA,A,1,,,,,,,,,,,,,99.9,99.9,99.9,4*0F
$GPGSV,3,1,11,03,,,48,06,,,48,07,,,31,15,,,49,0*6E
$GPGSV,3,2,11,16,,,48,18,,,49,21,,,49,22,,,49,0*68
$GPGSV,3,3,11,24,,,49,26,,,48,29,,,49,0*60
$BDGSV,1,1,00,0*74

$GNRMC,,V,,,,,,,,,,N,V*37
$GNGGA,,,,,,0,00,99.9,,,,,,*6F
$GNGSA,A,1,,,,,,,,,,,,,99.9,99.9,99.9,1*0A
$GNGSA,A,1,,,,,,,,,,,,,99.9,99.9,99.9,4*0F
$GPGSV,3,1,11,03,,,48,05,,,31,06,,,48,15,,,49,0*6C
$GPGSV,3,2,11,16,,,48,18,,,49,21,,,49,22,,,49,0*68
$GPGSV,3,3,11,24,,,49,26,,,48,29,,,49,0*60
$BDGSV,1,1,00,0*74

<????sim??????(SIM??:1)>
<??????sim??>
<????GSM????????(GSM:5)>
<????GPRS????????(GPRS:0)>
<????????????(SIGNAL:0)>
<????????????????(BER:0)>

<??????????????>
<detect SIM card>

$GNRMC,170005.92,V,,,,,,,,,,N,V*11
$GNGGA,170005.92,,,,,0,00,99.9,,,,,,*49
$GNGSA,A,1,,,,,,,,,,,,,99.9,99.9,99.9,1*0A
$GNGSA,A,1,,,,,,,,,,,,,99.9,99.9,99.9,4*0F
$GPGSV,3,1,10,03,,,48,06,,,48,15,,,49,16,,,48,0*61
$GPGSV,3,2,10,18,,,49,21,,,49,22,,,49,24,,,49,0*69
$GPGSV,3,3,10,26,,,48,29,,,49,0*6A
$BDGSV,
1,1,00,0*74
$GNRMC,170006.00,V,,,,,,,,,,N,V*19
$GNGGA,170006.00,,,,,0,00,99.9,,,,,,*41
$GNGSA,A,1,,,,,,,,,,,,,99.9,99.9,99.9,1*0A
$GNGSA,A,1,,,,,,,,,,,,,99.9,99.9,99.9,4*0F
$GPGSV,3,1,11,03,,,48,06,,,48,07,,,30,15,,,49,0*6F
$GPGSV,3,2,11,16,,,48,18,,,49,21,,,49,22,,,49,0*68
$GPGSV,3,3,11,24,,,49,26,,,48,
29,,,49,0*60
$BDGSV,1,1,00,0*74

$GNRMC,170007.00,V,,,,,,,,,,N,V*18
$GNGGA,170007.00,,,,,0,00,99.9,,,,,,*40
$GNGSA,A,1,,,,,,,,,,,,,99.9,99.9,99.9,1*0A
$GNGSA,A,1,,,,,,,,,,,,,99.9,99.9,99.9,4*0F
$GPGSV,3,1,11,03,,,48,06,,,48,07,,,29,15,,,49,0*67
$GPGSV,3,2,11,16,,,48,18,,,49,21,,,49,22,,,49,0*68
$GPGSV,3,3,11,24,,,49,26,,,48,29,,,49,0*60

$BDGSV,1,1,00,0*74

$GNRMC,170008.00,V,,,,,,,,,,N,V*17
$GNGGA,170008.00,,,,,0,00,99.9,,,,,,*4F
$GNGSA,A,1,,,,,,,,,,,,,99.9,99.9,99.9,1*0A
$GNGSA,A,1,,,,,,,,,,,,,99.9,99.9,99.9,4*0F
$GPGSV,3,1,10,03,,,48,06,,,48,15,,,49,16,,,48,0*61
$GPGSV,3,2,10,18,,,50,21,,,49,22,,,49,24,,,49,0*61
$GPGSV,3,3,10,26,,,48,29,,,49,0*6A
$BDGSV,1,1,00,0*74

$GNRMC,170009.00,V,,,,,,,,,,N,V*16
$GNGGA,170009.00,,,,,0,00,99.9,,,,,,*4E
$GNGSA,A,1,,,,,,,,,,,,,99.9,99.9,99.9,1*0A
$GNGSA,A,1,,,,,,,,,,,,,99.9,99.9,99.9,4*0F
$GPGSV,3,1,10,03,,,48,06,,,48,15,,,49,16,,,48,0*61
$GPGSV,3,2,10,18,,,50,21,,,49,22,,,49,24,,,49,0*61
$GPGSV,3,3,10,26,,,48,29,,,49,0*6A
$BDGSV,1,1,00,0*74

$GNRMC,170010.00,V,,,,,,,,,,N,V*1E
$GNGGA,170010.00,,,,,0,00,99.9,,,,,,*46
$GNGSA,A,1,,,,,,,,,,,,,99.9,99.9,99.9,1*0A
$GNGSA,A,1,,,,,,,,,,,,,99.9,99.9,99.9,4*0F
$GPGSV,3,1,10,03,,,48,06,,,48,15,,,49,16,,,48,0*61
$GPGSV,3,2,10,18,,,49,21,,,49,22,,,49,24,,,49,0*69
$GPGSV,3,3,10,26,,,48,29,,,49,0*6A
$BDGSV,1,1,00,0*74

$GNRMC,170011.00,V,,,,,,,,,,N,V*1F
$GNGGA,170011.00,,,,,0,00,99.9,,,,,,*47
$GNGSA,A,1,,,,,,,,,,,,,99.9,99.9,99.9,1*0A
$GNGSA,A,1,,,,,,,,,,,,,99.9,99.9,99.9,4*0F
$GPGSV,3,1,10,03,,,48,06,,,48,15,,,49,16,,,48,0*61
$GPGSV,3,2,10,18,,,49,21,,,49,22,,,49,24,,,49,0*69
$GPGSV,3,3,10,26,,,48,29,,,49,0*6A
$BDGSV,
1,1,00,0*74

$GNRMC,170012.00,V,,,,,,,,,,N,V*1C
$GNGGA,170012.00,,,,,0,00,99.9,,,,,,*44
$GNGSA,A,1,,,,,,,,,,,,,99.9,99.9,99.9,1*0A
$GNGSA,A,1,,,,,,,,,,,,,99.9,99.9,99.9,4*0F
$GPGSV,3,1,10,03,,,48,06,,,48,15,,,49,16,,,48,0*61
$GPGSV,3,2,10,18,,,49,21,,,49,22,,,49,24,,,49,0*69
$GPGSV,3,3,10,26,,,48,29,,,49,0*6A
$BDGSV,1,1,00,0*74

$GNRMC,170013.00,V,,,,,,,,,,N,V*1D
$GNGGA,170013.00,,,,,0,00,99.9,,,,,,*45
$GNGSA,A,1,,,,,,,,,,,,,99.9,99.9,99.9,1*0A
$GNGSA,A,1,,,,,,,,,,,,,99.9,99.9,99.9,4*0F
$GPGSV,3,1,10,03,,,48,06,,,48,15,,,49,16,,,48,0*61
$GPGSV,3,2,10,18,,,49,21,,,49,22,,,49,24,,,49,0*69
$GPGSV,3,3,10,26,,,48,29,,,49,0*6A
$BDGSV,
1,1,00,0*74

$GNRMC,170014.00,V,,,,,,,090815,,,N,V*1F
$GNGGA,170014.00,,,,,0,00,99.9,,,,,,*42
$GNGSA,A,1,,,,,,,,,,,,,99.9,99.9,99.9,1*0A
$GNGSA,A,1,,,,,,,,,,,,,99.9,99.9,99.9,4*0F
$GPGSV,3,1,12,03,,,48,06,,,48,15,,,49,16,,,48,0*63
$GPGSV,3,2,12,18,,,49,19,,,30,21,,,49,22,,,49,0*6B
$GPGSV,3,3,12,24,,,49,25,,,30,26,,,48
,29,,,49,0*67
$BDGSV,1,1,00,0*74

$GNRMC,170015.00,V,,,,,,,090815,,,N,V*1E
$GNGGA,170015.00,,,,,0,00,99.9,,,,,,*43
$GNGSA,A,1,,,,,,,,,,,,,99.9,99.9,99.9,1*0A
$GNGSA,A,1,,,,,,,,,,,,,99.9,99.9,99.9,4*0F
$GPGSV,3,1,10,03,,,48,06,,,48,15,,,49,16,,,48,0*61
$GPGSV,3,2,10,18,,,50,21,,,49,22,,,49,24,,,49,0*61
$GPGSV,3,3,10,26,,,48,29,,,49,0*6A
$BDGSV,1,1,00,0*74

<??????????????>

$GNRMC,170016.00,V,,,,,,,090815,,,N,V*1D
$GNGGA,170016.00,,,,,0,00,99.9,,,,,,*40
$GNGSA,A,1,,,,,,,,,,,,,99.9,99.9,99.9,1*0A
$GNGSA,A,1,,,,,,,,,,,,,99.9,99.9,99.9,4*0F
$GPGSV,3,1,10,03,,,48,06,,,48,15,,,49,16,,,48,0*61
$GPGSV,3,2,10,18,,,50,21,,,49,22,,,49,24,,,49,0*61
$GPGSV,3,3,10,26,,,48,29,,,49,0*6A
$
BDGSV,1,1,00,0*74

$GNRMC,170017.00,V,,,,,,,090815,,,N,V*1C
$GNGGA,170017.00,,,,,0,00,99.9,,,,,,*41
$GNGSA,A,1,,,,,,,,,,,,,99.9,99.9,99.9,1*0A
$GNGSA,A,1,,,,,,,,,,,,,99.9,99.9,99.9,4*0F
$GPGSV,3,1,10,03,,,48,06,,,48,15,,,49,16,,,48,0*61
$GPGSV,3,2,10,18,,,49,21,,,49,22,,,49,24,,,49,0*69
$GPGSV,3,3,10,26,,,48,29,,,49,0*6A
$
BDGSV,1,1,00,0*74

$GNRMC,170018.00,V,,,,,,,090815,,,N,V*13
$GNGGA,170018.00,,,,,0,00,99.9,,,,,,*4E
$GNGSA,A,1,,,,,,,,,,,,,99.9,99.9,99.9,1*0A
$GNGSA,A,1,,,,,,,,,,,,,99.9,99.9,99.9,4*0F
$GPGSV,3,1,10,03,,,48,06,,,48,15,,,49,16,,,48,0*61
$GPGSV,3,2,10,18,,,49,21,,,49,22,,,49,24,,,49,0*69
$GPGSV,3,3,10,26,,,48,29,,,49,0*6A
$
BDGSV,1,1,00,0*74

$GNRMC,170019.00,V,,,,,,,090815,,,N,V*12
$GNGGA,170019.00,,,,,0,00,99.9,,,,,,*4F
$GNGSA,A,1,,,,,,,,,,,,,99.9,99.9,99.9,1*0A
$GNGSA,A,1,,,,,,,,,,,,,99.9,99.9,99.9,4*0F
$GPGSV,3,1,10,03,,,48,06,,,48,15,,,49,16,,,48,0*61
$GPGSV,3,2,10,18,,,49,21,,,49,22,,,49,24,,,49,0*69
$GPGSV,3,3,10,26,,,48,29,,,49,0*6A
$
BDGSV,1,1,00,0*74

$GNRMC,170020.00,V,,,,,,,090815,,,N,V*18
$GNGGA,170020.00,,,,,0,00,99.9,,,,,,*45
$GNGSA,A,1,,,,,,,,,,,,,99.9,99.9,99.9,1*0A
$GNGSA,A,1,,,,,,,,,,,,,99.9,99.9,99.9,4*0F
$GPGSV,3,1,10,03,,,48,06,,,48,15,,,49,16,,,48,0*61
$GPGSV,3,2,10,18,,,50,21,,,49,22,,,49,24,,,49,0*61
$GPGSV,3,3,10,26,,,48,29,,,49,0*6A
$BDGSV,1,1,00,0*74

$GNRMC,170021.00,V,,,,,,,090815,,,N,V*19
$GNGGA,170021.00,,,,,0,00,99.9,,,,,,*44
$GNGSA,A,1,,,,,,,,,,,,,99.9,99.9,99.9,1*0A
$GNGSA,A,1,,,,,,,,,,,,,99.9,99.9,99.9,4*0F
$GPGSV,3,1,10,03,,,48,06,,,48,15,,,49,16,,,48,0*61
$GPGSV,3,2,10,18,,,50,21,,,49,22,,,49,24,,,49,0*61
$GPGSV,3,3,10,26,,,48,29,,,49,0*6A
$
BDGSV,1,1,00,0*74

$GNRMC,170022.00,V,,,,,,,090815,,,N,V*1A
$GNGGA,170022.00,,,,,0,00,99.9,,,,,,*47
$GNGSA,A,1,,,,,,,,,,,,,99.9,99.9,99.9,1*0A
$GNGSA,A,1,,,,,,,,,,,,,99.9,99.9,99.9,4*0F
$GPGSV,3,1,11,03,,,48,06,,,48,12,,,31,15,,,49,0*6A
$GPGSV,3,2,11,16,,,48,18,,,50,21,,,49,22,,,49,0*60
$GPGSV,3,3,11,24,,,49,26,,,48,29,,,49
,0*60
$BDGSV,1,1,00,0*74

$GNRMC,170023.00,V,,,,,,,090815,,,N,V*1B
$GNGGA,170023.00,,,,,0,00,99.9,,,,,,*46
$GNGSA,A,1,,,,,,,,,,,,,99.9,99.9,99.9,1*0A
$GNGSA,A,1,,,,,,,,,,,,,99.9,99.9,99.9,4*0F
$GPGSV,3,1,12,03,,,48,06,,,48,11,,,32,15,,,49,0*69
$GPGSV,3,2,12,16,,,48,18,,,50,21,,,49,22,,,49,0*63
$GPGSV,3,3,12,24,,,49,26,,,48,29,,,49
,30,,,30,0*63
$BDGSV,1,1,00,0*74

$GNRMC,170024.00,V,,,,,,,090815,,,N,V*1C
$GNGGA,170024.00,,,,,0,00,99.9,,,,,,*41
$GNGSA,A,1,,,,,,,,,,,,,99.9,99.9,99.9,1*0A
$GNGSA,A,1,,,,,,,,,,,,,99.9,99.9,99.9,4*0F
$GPGSV,3,1,12,03,,,48,06,,,48,11,,,31,15,,,49,0*6A
$GPGSV,3,2,12,16,,,48,18,,,50,21,,,49,22,,,49,0*63
$GPGSV,3,3,12,24,,,49,26,,,48,29,,,49
,30,,,30,0*63
$BDGSV,1,1,00,0*74

$GNRMC,170025.00,V,,,,,,,090815,,,N,V*1D
$GNGGA,170025.00,,,,,0,00,99.9,,,,,,*40
$GNGSA,A,1,,,,,,,,,,,,,99.9,99.9,99.9,1*0A
$GNGSA,A,1,,,,,,,,,,,,,99.9,99.9,99.9,4*0F
$GPGSV,3,1,11,01,,,30,03,,,48,06,,,48,15,,,49,0*69
$GPGSV,3,2,11,16,,,48,18,,,50,21,,,50,22,,,49,0*68
$GPGSV,3,3,11,24,,,49,26,,,48,29,,,49
,0*60
$BDGSV,1,1,00,0*74

$GNRMC,170026.00,V,,,,,,,090815,,,N,V*1E
$GNGGA,170026.00,,,,,0,00,99.9,,,,,,*43
$GNGSA,A,1,,,,,,,,,,,,,99.9,99.9,99.9,1*0A
$GNGSA,A,1,,,,,,,,,,,,,99.9,99.9,99.9,4*0F
$GPGSV,3,1,10,03,,,48,06,,,48,15,,,49,16,,,48,0*61
$GPGSV,3,2,10,18,,,50,21,,,50,22,,,49,24,,,49,0*69
$GPGSV,3,3,10,26,,,48,29,,,49,0*6A
$
BDGSV,1,1,00,0*74
<????sim??????(SIM??:1)>
<????GSM????????(GSM:4)>
<????GPRS????????(GPRS:0)>
<????????????(SIGNAL:0)>
<????????????????(BER:0)>

<??????????????>

$GNRMC,170027.00,V,,,,,,,090815,,,N,V*1F
$GNGGA,170027.00,,,,,0,00,99.9,,,,,,*42
$GNGSA,A,1,,,,,,,,,,,,,99.9,99.9,99.9,1*0A
$GNGSA,A,1,,,,,,,,,,,,,99.9,99.9,99.9,4*0F
$GPGSV,3,1,10,03,,,48,06,,,48,15,,,49,16,,,48,0*61
$GPGSV,3,2,10,18,,,50,21,,,50,22,,,49,24,,,49,0*69
$GPGSV,3,3,10,26,,,48,29,,,49,0*6A
$BDGSV,1,1,00,0*74

$GNRMC,170028.00,V,,,,,,,090815,,,N,V*10
$GNGGA,170028.00,,,,,0,00,99.9,,,,,,*4D
$GNGSA,A,1,,,,,,,,,,,,,99.9,99.9,99.9,1*0A
$GNGSA,A,1,,,,,,,,,,,,,99.9,99.9,99.9,4*0F
$GPGSV,3,1,10,03,,,48,06,,,48,15,,,49,16,,,48,0*61
$GPGSV,3,2,10,18,,,50,21,,,50,22,,,49,24,,,49,0*69
$GPGSV,3,3,10,26,,,48,29,,,49,0*6A
$
BDGSV,1,1,00,0*74

$GNRMC,170029.00,V,,,,,,,090815,,,N,V*11
$GNGGA,170029.00,,,,,0,00,99.9,,,,,,*4C
$GNGSA,A,1,,,,,,,,,,,,,99.9,99.9,99.9,1*0A
$GNGSA,A,1,,,,,,,,,,,,,99.9,99.9,99.9,4*0F
$GPGSV,3,1,10,03,,,48,06,,,48,15,,,49,16,,,48,0*61
$GPGSV,3,2,10,18,,,50,21,,,50,22,,,49,24,,,49,0*69
$GPGSV,3,3,10,26,,,48,29,,,49,0*6A
$
BDGSV,1,1,00,0*74

$GNRMC,170030.01,A,3128.000065,N,12117.969958,E,1.948,268.70,090815,,,A,V*09
$GNGGA,170030.01,3128.000065,N,12117.969958,E,1,09,1.03,-9.8,M,9.5,M,,*50
$GNGSA,A,3,06,15,16,18,21,22,24,26,29,,,,2.00,1.03,1.72,1*03
$GNGSA,A,3,,,,,,,,,,,,,2.00,1.03,1.72,4*00
$GPGSV,3,1,10,03,09,322,48,06,21,318,48,15,38,058,49,
16,19,275,48,0*6C
$GPGSV,3,2,10,18,69,289,50,21,63,012,50,22,39,252,49,24,38,079,49,0*69
$GPGSV,3,3,10,26,22,046,48,29,43,158,49,0*63
$BDGSV,1,1,00,0*74

$GNRMC,170031.00,A,3128.000088,N,12117.969348,E,1.965,269.72,090815,,,A,V*0D
$GNGGA,170031.00,3128.000088,N,12117.969348,E,1,09,1.03,-9.7,M,9.5,M,,*57
$GNGSA,A,3,06,15,16,18,21,22,24,26,29,,,,2.00,1.03,1.72,1*03
$GNGSA,A,3,,,,,,,,,,,,,2.00,1.03,1.72,4*00
$GPGSV,3,1,10,03,09,322,48,06,21,318,48,15,38,058,49,
16,19,275,48,0*6C
$GPGSV,3,2,10,18,69,289,50,21,63,012,50,22,39,252,49,24,38,079,49,0*69
$GPGSV,3,3,10,26,22,046,48,29,43,158,49,0*63
$BDGSV,1,1,00,0*74

$GNRMC,170032.00,A,3128.000071,N,12117.968722,E,1.906,269.55,090815,,,A,V*01
$GNGGA,170032.00,3128.000071,N,12117.968722,E,1,09,1.03,-9.7,M,9.5,M,,*5B
$GNGSA,A,3,06,15,16,18,21,22,24,26,29,,,,2.00,1.03,1.72,1*03
$GNGSA,A,3,,,,,,,,,,,,,2.00,1.03,1.72,4*00
$GPGSV,3,1,10,03,09,322,48,06,21,318,48,15,38,058,49,
16,19,275,48,0*6C
$GPGSV,3,2,10,18,69,289,50,21,63,012,50,22,39,252,49,24,38,079,49,0*69
$GPGSV,3,3,10,26,22,046,48,29,43,158,49,0*63
$BDGSV,1,1,00,0*74

$GNRMC,170033.00,A,3128.000046,N,12117.967802,E,2.916,269.99,090815,,,A,V*04
$GNGGA,170033.00,3128.000046,N,12117.967802,E,1,09,1.03,-9.7,M,9.5,M,,*5C
$GNGSA,A,3,06,15,16,18,21,22,24,26,29,,,,2.00,1.03,1.72,1*03
$GNGSA,A,3,,,,,,,,,,,,,2.00,1.03,1.72,4*00
$GPGSV,3,1,10,03,09,322,48,06,21,318,48,15,38,058,49,
16,19,275,48,0*6C
$GPGSV,3,2,10,18,69,289,50,21,63,012,50,22,39,252,49,24,38,079,49,0*69
$GPGSV,3,3,10,26,22,046,48,29,43,158,49,0*63
$BDGSV,1,1,00,0*74

$GNRMC,170034.00,A,3128.000047,N,12117.966525,E,3.887,269.98,090815,,,A,V*02
$GNGGA,170034.00,3128.000047,N,12117.966525,E,1,09,1.03,-9.8,M,9.5,M,,*5C
$GNGSA,A,3,06,15,16,18,21,22,24,26,29,,,,2.00,1.03,1.72,1*03
$GNGSA,A,3,,,,,,,,,,,,,2.00,1.03,1.72,4*00
$GPGSV,3,1,10,03,09,322,48,06,21,318,48,15,38,058,49,
16,19,275,48,0*6C
$GPGSV,3,2,10,18,69,289,50,21,63,012,50,22,39,252,49,24,38,079,49,0*69
$GPGSV,3,3,10,26,22,046,49,29,43,158,49,0*62
$BDGSV,1,1,00,0*74

$GNRMC,170035.00,A,3128.000046,N,12117.965252,E,3.889,270.00,090815,,,A,V*01
$GNGGA,170035.00,3128.000046,N,12117.965252,E,1,09,1.03,-9.8,M,9.5,M,,*58
$GNGSA,A,3,06,15,16,18,21,22,24,26,29,,,,2.00,1.03,1.72,1*03
$GNGSA,A,3,,,,,,,,,,,,,2.00,1.03,1.72,4*00
$GPGSV,3,1,10,03,09,322,48,06,21,318,48,15,38,058,49,
16,19,275,48,0*6C
$GPGSV,3,2,10,18,69,289,50,21,63,012,50,22,39,252,49,24,38,079,49,0*69
$GPGSV,3,3,10,26,22,046,49,29,43,158,49,0*62
$BDGSV,1,1,00,0*74

$GNRMC,170036.00,A,3128.000046,N,12117.963988,E,3.888,269.99,090815,,,A,V*01
$GNGGA,170036.00,3128.000046,N,12117.963988,E,1,09,1.03,-9.8,M,9.5,M,,*51
$GNGSA,A,3,06,15,16,18,21,22,24,26,29,,,,2.00,1.03,1.72,1*03
$GNGSA,A,3,,,,,,,,,,,,,2.00,1.03,1.72,4*00
$GPGSV,3,1,10,03,09,322,48,06,21,318,48,15,38,058,49,
16,19,275,48,0*6C
$GPGSV,3,2,10,18,69,289,50,21,63,012,50,22,39,252,49,24,38,079,49,0*69
$GPGSV,3,3,10,26,22,046,48,29,43,158,49,0*63
$BDGSV,1,1,00,0*74

<??????????????>

$GNRMC,170037.00,A,3128.000036,N,12117.962722,E,3.891,270.05,090815,,,A,V*0D
$GNGGA,170037.00,3128.000036,N,12117.962722,E,1,09,1.03,-9.8,M,9.5,M,,*58
$GNGSA,A,3,06,15,16,18,21,22,24,26,29,,,,2.00,1.03,1.72,1*03
$GNGSA,A,3,,,,,,,,,,,,,2.00,1.03,1.72,4*00
$GPGSV,3,1,10,03,09,322,48,06,21,318,48,15,38,058,49,
16,19,275,48,0*6C
$GPGSV,3,2,10,18,69,289,50,21,63,012,50,22,39,252,49,24,38,079,49,0*69
$GPGSV,3,3,10,26,22,046,48,29,43,158,49,0*63
$BDGSV,1,1,00,0*74

$GNRMC,170038.00,A,3128.000035,N,12117.961461,E,3.886,270.03,090815,,,A,V*06
$GNGGA,170038.00,3128.000035,N,12117.961461,E,1,09,1.03,-9.8,M,9.5,M,,*53
$GNGSA,A,3,06,15,16,18,21,22,24,26,29,,,,2.00,1.03,1.71,1*00
$GNGSA,A,3,,,,,,,,,,,,,2.00,1.03,1.71,4*03
$GPGSV,3,1,10,03,09,322,48,06,21,318,48,15,38,058,49,
16,19,275,48,0*6C
$GPGSV,3,2,10,18,69,289,50,21,63,012,50,22,39,252,49,24,38,079,49,0*69
$GPGSV,3,3,10,26,22,046,48,29,43,158,49,0*63
$BDGSV,1,1,00,0*74

$GNRMC,170039.00,A,3128.000026,N,12117.960202,E,3.889,269.96,090815,,,A,V*0C
$GNGGA,170039.00,3128.000026,N,12117.960202,E,1,09,1.03,-9.8,M,9.5,M,,*52
$GNGSA,A,3,06,15,16,18,21,22,24,26,29,,,,2.00,1.03,1.71,1*00
$GNGSA,A,3,,,,,,,,,,,,,2.00,1.03,1.71,4*03
$GPGSV,3,1,10,03,09,322,48,06,21,318,48,15,38,058,49,
16,19,275,48,0*6C
$GPGSV,3,2,10,18,69,289,50,21,63,012,50,22,39,252,49,24,38,079,49,0*69
$GPGSV,3,3,10,26,22,046,48,29,43,158,49,0*63
$BDGSV,1,1,00,0*74

$GNRMC,170040.00,A,3128.000030,N,12117.958935,E,3.888,269.99,090815,,,A,V*0F
$GNGGA,170040.00,3128.000030,N,12117.958935,E,1,09,1.03,-9.8,M,9.5,M,,*5F
$GNGSA,A,3,06,15,16,18,21,22,24,26,29,,,,2.00,1.03,1.71,1*00
$GNGSA,A,3,,,,,,,,,,,,,2.00,1.03,1.71,4*03
$GPGSV,3,1,10,03,09,322,48,06,21,318,48,15,38,058,49,
16,19,275,48,0*6C
$GPGSV,3,2,10,18,69,289,50,21,63,012,50,22,39,252,49,24,38,079,49,0*69
$GPGSV,3,3,10,26,22,046,48,29,43,158,49,0*63
$BDGSV,1,1,00,0*74

$GNRMC,170041.00,A,3128.000032,N,12117.957673,E,3.890,270.02,090815,,,A,V*0D
$GNGGA,170041.00,3128.000032,N,12117.957673,E,1,09,1.03,-9.9,M,9.5,M,,*5F
$GNGSA,A,3,06,15,16,18,21,22,24,26,29,,,,2.00,1.03,1.71,1*00
$GNGSA,A,3,,,,,,,,,,,,,2.00,1.03,1.71,4*03
$GPGSV,3,1,10,03,09,322,48,06,21,318,48,15,38,058,49,
16,19,275,48,0*6C
$GPGSV,3,2,10,18,69,289,50,21,63,012,50,22,39,252,49,24,38,079,49,0*69
$GPGSV,3,3,10,26,22,046,48,29,43,158,49,0*63
$BDGSV,1,1,00,0*74

$GNRMC,170042.00,A,3128.000037,N,12117.956410,E,3.887,270.04,090815,,,A,V*0D
$GNGGA,170042.00,3128.000037,N,12117.956410,E,1,09,1.03,-9.8,M,9.5,M,,*5E
$GNGSA,A,3,06,15,16,18,21,22,24,26,29,,,,2.00,1.03,1.71,1*00
$GNGSA,A,3,,,,,,,,,,,,,2.00,1.03,1.71,4*03
$GPGSV,3,1,11,03,09,322,48,06,21,318,48,09,,,46,15,38
,058,49,0*55
$GPGSV,3,2,11,16,19,275,48,18,69,289,50,21,63,012,50,22,39,252,49,0*65
$GPGSV,3,3,11,24,38,079,49,26,22,046,48,29,43,158,49,0*5C
$BDGSV,1,1,00,0*74

$GNRMC,170043.00,A,3128.000040,N,12117.955148,E,3.889,270.02,090815,,,A,V*0F
$GNGGA,170043.00,3128.000040,N,12117.955148,E,1,09,1.02,-9.9,M,9.5,M,,*54
$GNGSA,A,3,06,15,16,18,21,22,24,26,29,,,,2.00,1.02,1.71,1*01
$GNGSA,A,3,,,,,,,,,,,,,2.00,1.02,1.71,4*02
$GPGSV,3,1,11,03,09,322,48,06,21,318,48,09,,,48,15,38
,058,49,0*5B
$GPGSV,3,2,11,16,19,275,48,18,69,289,50,21,63,012,50,22,39,252,49,0*65
$GPGSV,3,3,11,24,38,079,49,26,22,046,48,29,43,158,49,0*5C
$BDGSV,1,1,00,0*74

$GNRMC,170044.00,A,3128.000042,N,12117.953883,E,3.887,269.95,090815,,,A,V*0A
$GNGGA,170044.00,3128.000042,N,12117.953883,E,1,09,1.02,-9.9,M,9.5,M,,*59
$GNGSA,A,3,06,15,16,18,21,22,24,26,29,,,,2.00,1.02,1.71,1*01
$GNGSA,A,3,,,,,,,,,,,,,2.00,1.02,1.71,4*02
$GPGSV,3,1,11,03,09,322,48,06,21,318,48,09,,,48,15,38
,058,49,0*5B
$GPGSV,3,2,11,16,19,275,48,18,69,289,50,21,63,012,50,22,39,252,49,0*65
$GPGSV,3,3,11,24,38,079,49,26,22,046,48,29,43,158,49,0*5C
$BDGSV,1,1,00,0*74

$GNRMC,170045.00,A,3128.000047,N,12117.952622,E,3.887,269.93,090815,,,A,V*0C
$GNGGA,170045.00,3128.000047,N,12117.952622,E,1,09,1.02,-9.8,M,9.5,M,,*58
$GNGSA,A,3,06,15,16,18,21,22,24,26,29,,,,2.00,1.02,1.71,1*01
$GNGSA,A,3,,,,,,,,,,,,,2.00,1.02,1.71,4*02
$GPGSV,3,1,11,03,09,322,48,06,21,318,48,09,,,48,15,38
,058,49,0*5B
$GPGSV,3,2,11,16,19,275,48,18,69,289,50,21,63,012,50,22,39,252,49,0*65
$GPGSV,3,3,11,24,38,079,49,26,22,046,48,29,43,158,49,0*5C
$BDGSV,1,1,00,0*74

$GNRMC,170046.00,A,3128.000051,N,12117.951361,E,3.888,270.01,090815,,,A,V*05
$GNGGA,170046.00,3128.000051,N,12117.951361,E,1,09,1.02,-9.8,M,9.5,M,,*5D
$GNGSA,A,3,06,15,16,18,21,22,24,26,29,,,,2.00,1.02,1.71,1*01
$GNGSA,A,3,,,,,,,,,,,,,2.00,1.02,1.71,4*02
$GPGSV,3,1,11,03,09,322,48,06,21,318,48,09,,,48,15,38
,058,49,0*5B
$GPGSV,3,2,11,16,19,275,48,18,69,289,50,21,63,012,50,22,39,252,49,0*65
$GPGSV,3,3,11,24,38,079,49,26,22,046,48,29,43,158,49,0*5C
$BDGSV,1,1,00,0*74

<????sim??????(SIM??:1)>
<????GSM????????(GSM:0)>
<????GPRS????????(GPRS:0)>
<????????????(SIGNAL:0)>
<????????????????(BER:0)>

<??????????????>

$GNRMC,170047.00,A,3128.000052,N,12117.950098,E,3.890,270.06,090815,,,A,V*0D
$GNGGA,170047.00,3128.000052,N,12117.950098,E,1,09,1.02,-9.8,M,9.5,M,,*5B
$GNGSA,A,3,06,15,16,18,21,22,24,26,29,,,,2.00,1.02,1.71,1*01
$GNGSA,A,3,,,,,,,,,,,,,2.00,1.02,1.71,4*02
$GPGSV,3,1,11,03,09,322,48,06,21,318,48,09,,,48,15,38
,058,49,0*5B
$GPGSV,3,2,11,16,18,275,48,18,69,289,50,21,63,012,50,22,39,252,49,0*64
$GPGSV,3,3,11,24,38,079,49,26,22,046,48,29,43,158,49,0*5C
$BDGSV,1,1,00,0*74

$GNRMC,170048.00,A,3128.000054,N,12117.948834,E,3.888,270.03,090815,,,A,V*0F
$GNGGA,170048.00,3128.000054,N,12117.948834,E,1,09,1.02,-9.8,M,9.5,M,,*55
$GNGSA,A,3,06,15,16,18,21,22,24,26,29,,,,2.00,1.02,1.71,1*01
$GNGSA,A,3,,,,,,,,,,,,,2.00,1.02,1.71,4*02
$GPGSV,3,1,11,03,09,322,48,06,21,318,48,09,,,48,15,38
,058,49,0*5B
$GPGSV,3,2,11,16,18,275,48,18,69,289,50,21,63,012,50,22,39,252,49,0*64
$GPGSV,3,3,11,24,38,079,49,26,22,046,48,29,43,158,49,0*5C
$BDGSV,1,1,00,0*74

$GNRMC,170049.00,A,3128.000059,N,12117.947569,E,3.889,270.03,090815,,,A,V*08
$GNGGA,170049.00,3128.000059,N,12117.947569,E,1,09,1.02,-9.8,M,9.5,M,,*53
$GNGSA,A,3,06,15,16,18,21,22,24,26,29,,,,2.00,1.02,1.71,1*01
$GNGSA,A,3,,,,,,,,,,,,,2.00,1.02,1.71,4*02
$GPGSV,3,1,11,03,09,322,48,06,21,318,48,09,,,48,15,38
,058,49,0*5B
$GPGSV,3,2,11,16,18,275,48,18,69,290,50,21,63,012,50,22,39,252,49,0*6C
$GPGSV,3,3,11,24,38,079,49,26,22,046,48,29,43,158,49,0*5C
$BDGSV,1,1,00,0*74

$GNRMC,170050.00,A,3128.000062,N,12117.946303,E,3.889,270.02,090815,,,A,V*02
$GNGGA,170050.00,3128.000062,N,12117.946303,E,1,09,1.02,-9.7,M,9.5,M,,*57
$GNGSA,A,3,06,15,16,18,21,22,24,26,29,,,,2.00,1.02,1.71,1*01
$GNGSA,A,3,,,,,,,,,,,,,2.00,1.02,1.71,4*02
$GPGSV,3,1,11,03,09,322,48,06,21,318,48,09,,,48,15,38
,058,49,0*5B
$GPGSV,3,2,11,16,18,275,48,18,69,290,50,21,63,012,50,22,39,252,49,0*6C
$GPGSV,3,3,11,24,38,079,49,26,22,046,48,29,43,158,49,0*5C
$BDGSV,1,1,00,0*74

$GNRMC,170051.00,A,3128.000059,N,12117.945042,E,3.888,270.00,090815,,,A,V*0D
$GNGGA,170051.00,3128.000059,N,12117.945042,E,1,09,1.02,-9.7,M,9.5,M,,*5B
$GNGSA,A,3,06,15,16,18,21,22,24,26,29,,,,2.00,1.02,1.71,1*01
$GNGSA,A,3,,,,,,,,,,,,,2.00,1.02,1.71,4*02
$GPGSV,3,1,11,03,09,322,48,06,21,318,48,09,,,48,15,38
,058,49,0*5B
$GPGSV,3,2,11,16,18,275,48,18,69,290,50,21,63,012,50,22,39,252,49,0*6C
$GPGSV,3,3,11,24,38,079,49,26,22,046,48,29,43,158,49,0*5C
$BDGSV,1,1,00,0*74

$GNRMC,170052.00,A,3128.000060,N,12117.943777,E,3.888,270.01,090815,,,A,V*02
$GNGGA,170052.00,3128.000060,N,12117.943777,E,1,09,1.02,-9.7,M,9.5,M,,*55
$GNGSA,A,3,06,15,16,18,21,22,24,26,29,,,,2.00,1.02,1.71,1*01
$GNGSA,A,3,,,,,,,,,,,,,2.00,1.02,1.71,4*02
$GPGSV,3,1,11,03,09,322,48,06,21,318,48,09,,,48,15,38
,058,49,0*5B
$GPGSV,3,2,11,16,18,275,48,18,69,290,50,21,63,012,50,22,39,252,49,0*6C
$GPGSV,3,3,11,24,38,079,49,26,22,046,48,29,43,158,49,0*5C
$BDGSV,1,1,00,0*74

$GNRMC,170053.00,A,3128.000058,N,12117.942516,E,3.888,270.01,090815,,,A,V*0C
$GNGGA,170053.00,3128.000058,N,12117.942516,E,1,09,1.02,-9.7,M,9.5,M,,*5B
$GNGSA,A,3,06,15,16,18,21,22,24,26,29,,,,1.99,1.02,1.71,1*02
$GNGSA,A,3,,,,,,,,,,,,,1.99,1.02,1.71,4*01
$GPGSV,3,1,11,03,09,322,48,06,21,318,48,09,,,48,15,38
,058,49,0*5B
$GPGSV,3,2,11,16,18,275,48,18,69,290,50,21,63,012,50,22,39,252,49,0*6C
$GPGSV,3,3,11,24,38,079,49,26,21,046,48,29,43,158,49,0*5F
$BDGSV,1,1,00,0*74

$GNRMC,170054.00,A,3128.000055,N,12117.941254,E,3.887,269.95,090815,,,A,V*0E
$GNGGA,170054.00,3128.000055,N,12117.941254,E,1,09,1.02,-9.7,M,9.5,M,,*53
$GNGSA,A,3,06,15,16,18,21,22,24,26,29,,,,1.99,1.02,1.71,1*02
$GNGSA,A,3,,,,,,,,,,,,,1.99,1.02,1.71,4*01
$GPGSV,3,1,11,03,09,322,48,06,21,318,48,09,,,48,15,38
,058,49,0*5B
$GPGSV,3,2,11,16,18,275,48,18,69,290,50,21,63,012,50,22,39,252,49,0*6C
$GPGSV,3,3,11,24,38,079,49,26,21,046,48,29,43,158,49,0*5F
$BDGSV,1,1,00,0*74

$GNRMC,170055.00,A,3128.000053,N,12117.939991,E,3.889,269.98,090815,,,A,V*07
$GNGGA,170055.00,3128.000053,N,12117.939991,E,1,09,1.02,-9.7,M,9.5,M,,*59
$GNGSA,A,3,06,15,16,18,21,22,24,26,29,,,,1.99,1.02,1.71,1*02
$GNGSA,A,3,,,,,,,,,,,,,1.99,1.02,1.71,4*01
$GPGSV,3,1,11,03,09,322,48,06,21,318,48,09,,,48,15,38
,058,49,0*5B
$GPGSV,3,2,11,16,18,275,48,18,69,290,50,21,63,012,50,22,39,252,49,0*6C
$GPGSV,3,3,11,24,38,079,49,26,21,046,48,29,43,158,49,0*5F
$BDGSV,1,1,00,0*74

$GNRMC,170056.00,A,3128.000052,N,12117.938727,E,3.888,270.05,090815,,,A,V*0A
$GNGGA,170056.00,3128.000052,N,12117.938727,E,1,09,1.02,-9.8,M,9.5,M,,*56
$GNGSA,A,3,06,15,16,18,21,22,24,26,29,,,,1.99,1.02,1.71,1*02
$GNGSA,A,3,,,,,,,,,,,,,1.99,1.02,1.71,4*01
$GPGSV,3,1,11,03,09,322,48,06,21,318,48,09,,,48,15,38
,058,49,0*5B
$GPGSV,3,2,11,16,18,275,48,18,69,290,50,21,63,012,50,22,39,252,49,0*6C
$GPGSV,3,3,11,24,38,079,49,26,21,046,48,29,43,158,49,0*5F
$BDGSV,1,1,00,0*74

<??????????????>

$GNRMC,170057.00,A,3128.000051,N,12117.937467,E,3.889,270.06,090815,,,A,V*02
$GNGGA,170057.00,3128.000051,N,12117.937467,E,1,09,1.02,-9.8,M,9.5,M,,*5C
$GNGSA,A,3,06,15,16,18,21,22,24,26,29,,,,1.99,1.02,1.71,1*02
$GNGSA,A,3,,,,,,,,,,,,,1.99,1.02,1.71,4*01
$GPGSV,3,1,11,03,09,322,48,06,21,318,48,09,,,48,15,38
,058,49,0*5B
$GPGSV,3,2,11,16,18,275,48,18,69,290,50,21,63,012,50,22,39,252,49,0*6C
$GPGSV,3,3,11,24,38,079,49,26,21,046,48,29,43,158,49,0*5F
$BDGSV,1,1,00,0*74

$GNRMC,170058.00,A,3128.000048,N,12117.936205,E,3.888,270.00,090815,,,A,V*01
$GNGGA,170058.00,3128.000048,N,12117.936205,E,1,09,1.02,-9.8,M,9.5,M,,*58
$GNGSA,A,3,06,15,16,18,21,22,24,26,29,,,,1.99,1.02,1.71,1*02
$GNGSA,A,3,,,,,,,,,,,,,1.99,1.02,1.71,4*01
$GPGSV,3,1,11,03,09,322,48,06,21,318,48,09,,,48,15,38
,058,49,0*5B
$GPGSV,3,2,11,16,18,275,48,18,69,290,50,21,63,012,50,22,39,252,49,0*6C
$GPGSV,3,3,11,24,38,079,49,26,21,046,48,29,43,158,49,0*5F
$BDGSV,1,1,00,0*74

$GNRMC,170059.00,A,3128.000048,N,12117.934944,E,3.889,270.01,090815,,,A,V*0C
$GNGGA,170059.00,3128.000048,N,12117.934944,E,1,09,1.02,-9.8,M,9.5,M,,*55
$GNGSA,A,3,06,15,16,18,21,22,24,26,29,,,,1.99,1.02,1.71,1*02
$GNGSA,A,3,,,,,,,,,,,,,1.99,1.02,1.71,4*01
$GPGSV,3,1,11,03,09,321,48,06,21,318,48,09,,,48,15,38
,058,49,0*58
$GPGSV,3,2,11,16,18,275,48,18,69,290,50,21,63,012,50,22,39,252,49,0*6C
$GPGSV,3,3,11,24,38,079,49,26,21,046,48,29,43,158,49,0*5F
$BDGSV,1,1,00,0*74

$GNRMC,170100.00,A,3128.000050,N,12117.933681,E,3.888,270.03,090815,,,A,V*0A
$GNGGA,170100.00,3128.000050,N,12117.933681,E,1,09,1.02,-9.8,M,9.5,M,,*50
$GNGSA,A,3,06,15,16,18,21,22,24,26,29,,,,1.99,1.02,1.71,1*02
$GNGSA,A,3,,,,,,,,,,,,,1.99,1.02,1.71,4*01
$GPGSV,3,1,11,03,09,321,48,06,21,318,48,09,,,48,15,38
,058,49,0*58
$GPGSV,3,2,11,16,18,275,48,18,69,290,50,21,63,012,50,22,39,252,49,0*6C
$GPGSV,3,3,11,24,38,079,49,26,21,046,48,29,43,158,49,0*5F
$BDGSV,1,1,00,0*74

$GNRMC,170101.00,A,3128.000054,N,12117.932417,E,3.887,269.99,090815,,,A,V*07
$GNGGA,170101.00,3128.000054,N,12117.932417,E,1,09,1.02,-9.8,M,9.5,M,,*59
$GNGSA,A,3,06,15,16,18,21,22,24,26,29,,,,1.99,1.02,1.71,1*02
$GNGSA,A,3,,,,,,,,,,,,,1.99,1.02,1.71,4*01
$GPGSV,3,1,11,03,09,321,48,06,21,318,48,09,05,122,48,
15,38,058,49,0*6C
$GPGSV,3,2,11,16,18,275,48,18,69,290,50,21,63,012,50,22,39,252,49,0*6C
$GPGSV,3,3,11,24,38,079,49,26,21,046,48,29,43,158,49,0*5F
$BDGSV,1,1,00,0*74

$GNRMC,170102.00,A,3128.000053,N,12117.931154,E,3.890,269.99,090815,,,A,V*04
$GNGGA,170102.00,3128.000053,N,12117.931154,E,1,09,1.02,-9.8,M,9.5,M,,*5C
$GNGSA,A,3,06,15,16,18,21,22,24,26,29,,,,1.99,1.02,1.71,1*02
$GNGSA,A,3,,,,,,,,,,,,,1.99,1.02,1.71,4*01
$GPGSV,3,1,11,03,09,321,48,06,21,318,48,09,05,122,48,
15,38,058,49,0*6C
$GPGSV,3,2,11,16,18,275,48,18,69,290,50,21,63,012,50,22,39,252,49,0*6C
$GPGSV,3,3,11,24,38,079,49,26,21,046,48,29,43,158,49,0*5F
$BDGSV,1,1,00,0*74

$GNRMC,170103.00,A,3128.000053,N,12117.929889,E,3.888,270.07,090815,,,A,V*03
$GNGGA,170103.00,3128.000053,N,12117.929889,E,1,09,1.02,-9.8,M,9.5,M,,*5D
$GNGSA,A,3,06,15,16,18,21,22,24,26,29,,,,1.99,1.02,1.71,1*02
$GNGSA,A,3,,,,,,,,,,,,,1.99,1.02,1.71,4*01
$GPGSV,3,1,11,03,09,321,48,06,21,318,48,09,05,122,48,
15,38,058,49,0*6C
$GPGSV,3,2,11,16,18,275,48,18,69,290,50,21,63,012,50,22,39,252,49,0*6C
$GPGSV,3,3,11,24,38,079,49,26,21,046,48,29,43,158,49,0*5F
$BDGSV,1,1,00,0*74

$GNRMC,170104.00,A,3128.000052,N,12117.928625,E,3.887,269.93,090815,,,A,V*06
$GNGGA,170104.00,3128.000052,N,12117.928625,E,1,09,1.02,-9.8,M,9.5,M,,*52
$GNGSA,A,3,06,15,16,18,21,22,24,26,29,,,,1.99,1.02,1.71,1*02
$GNGSA,A,3,,,,,,,,,,,,,1.99,1.02,1.71,4*01
$GPGSV,3,1,11,03,09,321,48,06,21,318,48,09,05,122,48,
15,38,058,49,0*6C
$GPGSV,3,2,11,16,18,275,48,18,69,290,50,21,63,012,50,22,39,252,49,0*6C
$GPGSV,3,3,11,24,38,079,49,26,21,046,48,29,43,158,49,0*5F
$BDGSV,1,1,00,0*74


GPS HPregnss> E1 15 00 00 00 00 07 53 8F 3E 0D 00 00 00 1C 3D F8 F6 30 00 00 00 00 


$GNRMC,170105.00,A,3128.000050,N,12117.927361,E,3.885,269.92,090815,,,A,V*0C
$GNGGA,170105.00,3128.000050,N,12117.927361,E,1,09,1.02,-9.8,M,9.5,M,,*5B
$GNGSA,A,3,06,15,16,18,21,22,24,26,29,,,,1.99,1.02,1.71,1*02
$GNGSA,A,3,,,,,,,,,,,,,1.99,1.02,1.71,4*01
$GPGSV,3,1,11,03,09,321,48,06,21,318,48,09,05,122,48,
15,38,058,49,0*6C
$GPGSV,3,2,11,16,18,275,48,18,69,290,50,21,63,012,50,22,39,252,49,0*6C
$GPGSV,3,3,11,24,38,079,49,26,21,046,48,29,43,158,49,0*5F
$BDGSV,1,1,00,0*74

$GNRMC,170106.00,A,3128.000053,N,12117.926097,E,3.889,270.03,090815,,,A,V*0B
$GNGGA,170106.00,3128.000053,N,12117.926097,E,1,09,1.02,-9.8,M,9.5,M,,*50
$GNGSA,A,3,06,15,16,18,21,22,24,26,29,,,,1.99,1.02,1.71,1*02
$GNGSA,A,3,,,,,,,,,,,,,1.99,1.02,1.71,4*01
$GPGSV,3,1,11,03,09,321,48,06,21,318,48,09,05,122,48,
15,38,058,49,0*6C
$GPGSV,3,2,11,16,18,275,48,18,69,290,50,21,63,013,50,22,39,252,49,0*6D
$GPGSV,3,3,11,24,38,079,49,26,21,046,48,29,43,158,49,0*5F
$BDGSV,1,1,00,0*74

<????sim??????(SIM??:1)>
<????GSM????????(GSM:0)>
<????GPRS????????(GPRS:0)>
<????????????(SIGNAL:0)>
<????????????????(BER:0)>

<??????????????>

$GNRMC,170108.00,A,3128.000052,N,12117.924834,E,3.889,270.04,090815,,,A,V*00
$GNGGA,170108.00,3128.000052,N,12117.924834,E,1,09,1.02,-9.7,M,9.5,M,,*53
$GNGSA,A,3,06,15,16,18,21,22,24,26,29,,,,1.99,1.02,1.71,1*02
$GNGSA,A,3,,,,,,,,,,,,,1.99,1.02,1.71,4*01
$GPGSV,3,1,11,03,09,321,48,06,21,318,48,09,05,122,48,
15,38,058,49,0*6C
$GPGSV,3,2,11,16,18,275,48,18,69,290,50,21,63,013,49,22,39,252,49,0*65
$GPGSV,3,3,11,24,38,079,49,26,21,046,48,29,43,158,49,0*5F
$BDGSV,1,1,00,0*74

$GNRMC,170109.00,A,3128.000052,N,12117.923572,E,3.889,270.05,090815,,,A,V*08
$GNGGA,170109.00,3128.000052,N,12117.923572,E,1,09,1.02,-9.7,M,9.5,M,,*5A
$GNGSA,A,3,06,15,16,18,21,22,24,26,29,,,,1.99,1.02,1.71,1*02
$GNGSA,A,3,,,,,,,,,,,,,1.99,1.02,1.71,4*01
$GPGSV,3,1,11,03,09,321,48,06,21,318,48,09,05,122,48,
15,38,058,49,0*6C
$GPGSV,3,2,11,16,18,275,48,18,69,290,50,21,63,013,49,22,39,252,49,0*65
$GPGSV,3,3,11,24,38,079,49,26,21,046,48,29,43,158,49,0*5F
$BDGSV,1,1,00,0*74

$GNRMC,170110.00,A,3128.000051,N,12117.922307,E,3.889,270.06,090815,,,A,V*05
$GNGGA,170110.00,3128.000051,N,12117.922307,E,1,09,1.02,-9.8,M,9.5,M,,*5B
$GNGSA,A,3,06,15,16,18,21,22,24,26,29,,,,1.99,1.02,1.71,1*02
$GNGSA,A,3,,,,,,,,,,,,,1.99,1.02,1.71,4*01
$GPGSV,3,1,11,03,09,321,48,06,21,318,48,09,05,122,48,
15,38,058,49,0*6C
$GPGSV,3,2,11,16,18,275,48,18,69,290,50,21,63,013,49,22,39,252,49,0*65
$GPGSV,3,3,11,24,38,079,49,26,21,046,48,29,43,158,49,0*5F
$BDGSV,1,1,00,0*74

$GNRMC,170111.00,A,3128.000052,N,12117.921044,E,3.888,269.98,090815,,,A,V*0E
$GNGGA,170111.00,3128.000052,N,12117.921044,E,1,09,1.02,-9.8,M,9.5,M,,*5E
$GNGSA,A,3,06,15,16,18,21,22,24,26,29,,,,1.99,1.02,1.71,1*02
$GNGSA,A,3,,,,,,,,,,,,,1.99,1.02,1.71,4*01
$GPGSV,3,1,11,03,09,321,48,06,21,318,48,09,05,122,48,
15,38,058,49,0*6C
$GPGSV,3,2,11,16,18,275,48,18,69,290,50,21,63,013,50,22,39,252,49,0*6D
$GPGSV,3,3,11,24,38,079,49,26,21,046,48,29,43,158,49,0*5F
$BDGSV,1,1,00,0*74

$GNRMC,170112.00,A,3128.000053,N,12117.919780,E,3.888,270.02,090815,,,A,V*03
$GNGGA,170112.00,3128.000053,N,12117.919780,E,1,09,1.02,-9.7,M,9.5,M,,*57
$GNGSA,A,3,06,15,16,18,21,22,24,26,29,,,,1.99,1.02,1.71,1*02
$GNGSA,A,3,,,,,,,,,,,,,1.99,1.02,1.71,4*01
$GPGSV,3,1,11,03,09,321,48,06,21,318,48,09,05,122,48,
15,38,058,49,0*6C
$GPGSV,3,2,11,16,18,275,48,18,69,290,50,21,63,013,50,22,39,252,49,0*6D
$GPGSV,3,3,11,24,38,079,49,26,21,046,48,29,43,158,49,0*5F
$BDGSV,1,1,00,0*74

$GNRMC,170113.00,A,3128.000053,N,12117.918518,E,3.891,270.05,090815,,,A,V*0F
$GNGGA,170113.00,3128.000053,N,12117.918518,E,1,09,1.02,-9.7,M,9.5,M,,*54
$GNGSA,A,3,06,15,16,18,21,22,24,26,29,,,,1.99,1.02,1.71,1*02
$GNGSA,A,3,,,,,,,,,,,,,1.99,1.02,1.71,4*01
$GPGSV,3,1,11,03,09,321,48,06,21,318,48,09,05,122,48,
15,38,058,49,0*6C
$GPGSV,3,2,11,16,18,275,48,18,69,290,50,21,63,013,50,22,39,252,49,0*6D
$GPGSV,3,3,11,24,38,079,49,26,21,046,48,29,43,158,49,0*5F
$BDGSV,1,1,00,0*74

$GNRMC,170114.00,A,3128.000052,N,12117.917257,E,3.888,270.01,090815,,,A,V*06
$GNGGA,170114.00,3128.000052,N,12117.917257,E,1,09,1.02,-9.7,M,9.5,M,,*51
$GNGSA,A,3,06,15,16,18,21,22,24,26,29,,,,1.99,1.02,1.71,1*02
$GNGSA,A,3,,,,,,,,,,,,,1.99,1.02,1.71,4*01
$GPGSV,3,1,11,03,09,321,48,06,21,318,48,09,05,122,48,
15,38,058,49,0*6C
$GPGSV,3,2,11,16,18,275,48,18,69,290,50,21,63,013,50,22,39,252,49,0*6D
$GPGSV,3,3,11,24,38,079,49,26,21,046,48,29,43,158,49,0*5F
$BDGSV,1,1,00,0*74

$GNRMC,170115.00,A,3128.000051,N,12117.915994,E,3.887,269.95,090815,,,A,V*08
$GNGGA,170115.00,3128.000051,N,12117.915994,E,1,09,1.02,-9.7,M,9.5,M,,*55
$GNGSA,A,3,06,15,16,18,21,22,24,26,29,,,,1.99,1.02,1.71,1*02
$GNGSA,A,3,,,,,,,,,,,,,1.99,1.02,1.71,4*01
$GPGSV,3,1,11,03,09,321,48,06,21,318,48,09,05,122,48,
15,38,058,49,0*6C
$GPGSV,3,2,11,16,18,275,48,18,69,290,50,21,63,013,50,22,39,252,49,0*6D
$GPGSV,3,3,11,24,38,079,49,26,21,046,48,29,43,158,49,0*5F
$BDGSV,1,1,00,0*74

$GNRMC,170116.00,A,3128.000051,N,12117.914730,E,3.886,269.99,090815,,,A,V*07
$GNGGA,170116.00,3128.000051,N,12117.914730,E,1,09,1.02,-9.7,M,9.5,M,,*57
$GNGSA,A,3,06,15,16,18,21,22,24,26,29,,,,1.99,1.02,1.71,1*02
$GNGSA,A,3,,,,,,,,,,,,,1.99,1.02,1.71,4*01
$GPGSV,3,1,11,03,09,321,48,06,21,318,48,09,05,122,48,
15,38,058,49,0*6C
$GPGSV,3,2,11,16,18,275,48,18,69,290,50,21,63,013,50,22,39,252,49,0*6D
$GPGSV,3,3,11,24,38,079,49,26,21,046,48,29,43,158,49,0*5F
$BDGSV,1,1,00,0*74

$GNRMC,170117.00,A,3128.000048,N,12117.913465,E,3.890,270.00,090815,,,A,V*05
$GNGGA,170117.00,3128.000048,N,12117.913465,E,1,09,1.02,-9.7,M,9.5,M,,*5A
$GNGSA,A,3,06,15,16,18,21,22,24,26,29,,,,1.99,1.02,1.71,1*02
$GNGSA,A,3,,,,,,,,,,,,,1.99,1.02,1.71,4*01
$GPGSV,3,1,11,03,09,321,48,06,21,318,48,09,05,122,48,
15,38,058,49,0*6C
$GPGSV,3,2,11,16,18,275,48,18,69,290,50,21,63,013,50,22,39,252,49,0*6D
$GPGSV,3,3,11,24,38,079,49,26,21,046,48,29,43,158,49,0*5F
$BDGSV,1,1,00,0*74

<??????????????>

$GNRMC,170118.00,A,3128.000050,N,12117.912201,E,3.889,270.07,090815,,,A,V*09
$GNGGA,170118.00,3128.000050,N,12117.912201,E,1,09,1.02,-9.7,M,9.5,M,,*59
$GNGSA,A,3,06,15,16,18,21,22,24,26,29,,,,1.99,1.02,1.71,1*02
$GNGSA,A,3,,,,,,,,,,,,,1.99,1.02,1.71,4*01
$GPGSV,3,1,11,03,09,321,48,06,21,318,48,09,05,122,48,
15,38,058,49,0*6C
$GPGSV,3,2,11,16,18,275,48,18,69,290,50,21,63,013,49,22,39,252,49,0*65
$GPGSV,3,3,11,24,38,079,49,26,21,046,48,29,43,158,49,0*5F
$BDGSV,1,1,00,0*74

$GNRMC,170119.00,A,3128.000053,N,12117.910936,E,3.891,270.09,090815,,,A,V*01
$GNGGA,170119.00,3128.000053,N,12117.910936,E,1,09,1.02,-9.7,M,9.5,M,,*56
$GNGSA,A,3,06,15,16,18,21,22,24,26,29,,,,1.99,1.02,1.71,1*02
$GNGSA,A,3,,,,,,,,,,,,,1.99,1.02,1.71,4*01
$GPGSV,3,1,11,03,09,321,48,06,21,318,48,09,05,122,48,
15,38,057,49,0*63
$GPGSV,3,2,11,16,18,275,48,18,69,290,50,21,63,013,50,22,39,252,49,0*6D
$GPGSV,3,3,11,24,38,079,49,26,21,046,48,29,43,158,49,0*5F
$BDGSV,1,1,00,0*74

$GNRMC,170120.00,A,3128.000054,N,12117.909674,E,3.887,270.05,090815,,,A,V*06
$GNGGA,170120.00,3128.000054,N,12117.909674,E,1,09,1.02,-9.7,M,9.5,M,,*5A
$GNGSA,A,3,06,15,16,18,21,22,24,26,29,,,,1.99,1.02,1.71,1*02
$GNGSA,A,3,,,,,,,,,,,,,1.99,1.02,1.71,4*01
$GPGSV,3,1,11,03,09,321,48,06,21,318,48,09,05,122,48,
15,38,057,49,0*63
$GPGSV,3,2,11,16,18,275,48,18,69,290,50,21,63,013,50,22,39,252,49,0*6D
$GPGSV,3,3,11,24,38,079,49,26,21,046,48,29,43,158,49,0*5F
$BDGSV,1,1,00,0*74

$GNRMC,170121.00,A,3128.000056,N,12117.908410,E,3.890,270.02,090815,,,A,V*05
$GNGGA,170121.00,3128.000056,N,12117.908410,E,1,09,1.02,-9.7,M,9.5,M,,*58
$GNGSA,A,3,06,15,16,18,21,22,24,26,29,,,,1.99,1.02,1.71,1*02
$GNGSA,A,3,,,,,,,,,,,,,1.99,1.02,1.71,4*01
$GPGSV,3,1,11,03,09,321,48,06,21,318,48,09,05,122,48,
15,38,057,49,0*63
$GPGSV,3,2,11,16,18,275,48,18,69,290,50,21,63,013,50,22,39,252,49,0*6D
$GPGSV,3,3,11,24,38,079,49,26,21,046,48,29,43,158,49,0*5F
$BDGSV,1,1,00,0*74

$GNRMC,170122.00,A,3128.000056,N,12117.907147,E,3.890,270.02,090815,,,A,V*0E
$GNGGA,170122.00,3128.000056,N,12117.907147,E,1,09,1.02,-9.7,M,9.5,M,,*53
$GNGSA,A,3,06,15,16,18,21,22,24,26,29,,,,1.99,1.02,1.71,1*02
$GNGSA,A,3,,,,,,,,,,,,,1.99,1.02,1.71,4*01
$GPGSV,3,1,11,03,09,321,48,06,21,318,48,09,05,122,48,
15,38,057,49,0*63
$GPGSV,3,2,11,16,18,275,48,18,69,290,50,21,63,013,50,22,39,252,49,0*6D
$GPGSV,3,3,11,24,38,079,49,26,21,046,48,29,43,158,49,0*5F
$BDGSV,1,1,00,0*74

$GNRMC,170123.00,A,3128.000056,N,12117.905885,E,3.887,270.01,090815,,,A,V*0F
$GNGGA,170123.00,3128.000056,N,12117.905885,E,1,09,1.02,-9.7,M,9.5,M,,*57
$GNGSA,A,3,06,15,16,18,21,22,24,26,29,,,,1.99,1.02,1.71,1*02
$GNGSA,A,3,,,,,,,,,,,,,1.99,1.02,1.71,4*01
$GPGSV,3,1,11,03,09,321,48,06,21,318,48,09,05,122,48,
15,38,057,49,0*63
$GPGSV,3,2,11,16,18,275,48,18,69,290,50,21,63,013,50,22,39,252,49,0*6D
$GPGSV,3,3,11,24,38,079,49,26,21,046,48,29,43,158,49,0*5F
$BDGSV,1,1,00,0*74

$GNRMC,170124.00,A,3128.000056,N,12117.904304,E,4.859,269.99,090815,,,A,V*06
$GNGGA,170124.00,3128.000056,N,12117.904304,E,1,09,1.02,-9.7,M,9.5,M,,*53
$GNGSA,A,3,06,15,16,18,21,22,24,26,29,,,,1.99,1.02,1.71,1*02
$GNGSA,A,3,,,,,,,,,,,,,1.99,1.02,1.71,4*01
$GPGSV,3,1,11,03,09,321,48,06,21,318,48,09,05,122,48,
15,38,057,49,0*63
$GPGSV,3,2,11,16,18,275,48,18,69,290,50,21,63,013,50,22,39,252,49,0*6D
$GPGSV,3,3,11,24,38,079,49,26,21,046,48,29,43,158,49,0*5F
$BDGSV,1,1,00,0*74

$GNRMC,170125.00,A,3128.000059,N,12117.902411,E,5.830,269.96,090815,,,A,V*0C
$GNGGA,170125.00,3128.000059,N,12117.902411,E,1,09,1.02,-9.7,M,9.5,M,,*58
$GNGSA,A,3,06,15,16,18,21,22,24,26,29,,,,1.99,1.02,1.71,1*02
$GNGSA,A,3,,,,,,,,,,,,,1.99,1.02,1.71,4*01
$GPGSV,3,1,11,03,09,321,48,06,21,318,48,09,05,122,48,
15,38,057,49,0*63
$GPGSV,3,2,11,16,18,275,48,18,69,290,50,21,63,013,50,22,39,252,49,0*6D
$GPGSV,3,3,11,24,38,079,49,26,21,046,48,29,43,158,49,0*5F
$BDGSV,1,1,00,0*74

$GNRMC,170126.00,A,3128.000060,N,12117.900518,E,5.831,269.96,090815,,,A,V*0E
$GNGGA,170126.00,3128.000060,N,12117.900518,E,1,09,1.02,-9.7,M,9.5,M,,*5B
$GNGSA,A,3,06,15,16,18,21,22,24,26,29,,,,1.99,1.02,1.71,1*02
$GNGSA,A,3,,,,,,,,,,,,,1.99,1.02,1.71,4*01
$GPGSV,3,1,11,03,09,321,48,06,21,318,48,09,05,122,48,
15,38,057,49,0*63
$GPGSV,3,2,11,16,18,275,48,18,69,290,50,21,63,013,50,22,39,252,49,0*6D
$GPGSV,3,3,11,24,38,079,49,26,21,046,48,29,43,158,49,0*5F
$BDGSV,1,1,00,0*74

$GNRMC,170127.00,A,3128.000060,N,12117.898624,E,5.832,270.01,090815,,,A,V*06
$GNGGA,170127.00,3128.000060,N,12117.898624,E,1,09,1.02,-9.7,M,9.5,M,,*56
$GNGSA,A,3,06,15,16,18,21,22,24,26,29,,,,1.99,1.02,1.71,1*02
$GNGSA,A,3,,,,,,,,,,,,,1.99,1.02,1.71,4*01
$GPGSV,3,1,11,03,09,321,48,06,21,318,48,09,05,122,48,
15,38,057,49,0*63
$GPGSV,3,2,11,16,18,275,48,18,69,290,50,21,63,013,50,22,39,252,49,0*6D
$GPGSV,3,3,11,24,38,079,49,26,21,046,48,29,43,158,49,0*5F
$BDGSV,1,1,00,0*74

<????sim??????(SIM??:1)>
<????GSM????????(GSM:0)>
<????GPRS????????(GPRS:0)>
<????????????(SIGNAL:0)>
<????????????????(BER:0)>

<??????????????>

$GNRMC,170128.00,A,3128.000059,N,12117.896730,E,5.834,270.05,090815,,,A,V*0B
$GNGGA,170128.00,3128.000059,N,12117.896730,E,1,09,1.02,-9.7,M,9.5,M,,*59
$GNGSA,A,3,06,15,16,18,21,22,24,26,29,,,,1.99,1.02,1.71,1*02
$GNGSA,A,3,,,,,,,,,,,,,1.99,1.02,1.71,4*01
$GPGSV,3,1,11,03,09,321,48,06,21,318,48,09,05,122,48,
15,38,057,49,0*63
$GPGSV,3,2,11,16,18,275,48,18,69,290,50,21,63,013,50,22,39,252,49,0*6D
$GPGSV,3,3,11,24,38,079,49,26,21,046,48,29,43,158,49,0*5F
$BDGSV,1,1,00,0*74

$GNRMC,170129.00,A,3128.000058,N,12117.894837,E,5.833,270.04,090815,,,A,V*07
$GNGGA,170129.00,3128.000058,N,12117.894837,E,1,09,1.02,-9.7,M,9.5,M,,*53
$GNGSA,A,3,06,15,16,18,21,22,24,26,29,,,,1.99,1.02,1.71,1*02
$GNGSA,A,3,,,,,,,,,,,,,1.99,1.02,1.71,4*01
$GPGSV,3,1,11,03,09,321,48,06,21,318,48,09,05,122,48,
15,38,057,49,0*63
$GPGSV,3,2,11,16,18,275,48,18,69,290,50,21,63,013,50,22,39,252,49,0*6D
$GPGSV,3,3,11,24,38,079,49,26,21,046,48,29,43,158,49,0*5F
$BDGSV,1,1,00,0*74

$GNRMC,170130.00,A,3128.000057,N,12117.892943,E,5.832,269.99,090815,,,A,V*09
$GNGGA,170130.00,3128.000057,N,12117.892943,E,1,09,1.02,-9.7,M,9.5,M,,*50
$GNGSA,A,3,06,15,16,18,21,22,24,26,29,,,,1.99,1.02,1.71,1*02
$GNGSA,A,3,,,,,,,,,,,,,1.99,1.02,1.71,4*01
$GPGSV,3,1,11,03,09,321,48,06,21,318,48,09,05,122,48,
15,38,057,49,0*63
$GPGSV,3,2,11,16,18,275,48,18,69,290,50,21,63,013,50,22,39,252,49,0*6D
$GPGSV,3,3,11,24,38,079,49,26,21,046,48,29,43,158,49,0*5F
$BDGSV,1,1,00,0*74

$GNRMC,170131.00,A,3128.000057,N,12117.891049,E,5.832,270.01,090815,,,A,V*01
$GNGGA,170131.00,3128.000057,N,12117.891049,E,1,09,1.02,-9.7,M,9.5,M,,*51
$GNGSA,A,3,06,15,16,18,21,22,24,26,29,,,,1.99,1.02,1.71,1*02
$GNGSA,A,3,,,,,,,,,,,,,1.99,1.02,1.71,4*01
$GPGSV,3,1,11,03,09,321,48,06,21,318,48,09,05,122,48,
15,38,057,49,0*63
$GPGSV,3,2,11,16,18,275,48,18,69,290,50,21,63,013,50,22,39,252,49,0*6D
$GPGSV,3,3,11,24,38,079,49,26,21,046,48,29,43,158,49,0*5F
$BDGSV,1,1,00,0*74

$GNRMC,170132.00,A,3128.000057,N,12117.889156,E,5.832,270.03,090815,,,A,V*06
$GNGGA,170132.00,3128.000057,N,12117.889156,E,1,09,1.02,-9.7,M,9.5,M,,*54
$GNGSA,A,3,06,15,16,18,21,22,24,26,29,,,,1.99,1.02,1.71,1*02
$GNGSA,A,3,,,,,,,,,,,,,1.99,1.02,1.71,4*01
$GPGSV,3,1,11,03,09,321,48,06,21,318,48,09,05,122,48,
15,38,057,49,0*63
$GPGSV,3,2,11,16,18,275,48,18,69,290,50,21,63,013,50,22,39,252,49,0*6D
$GPGSV,3,3,11,24,38,079,49,26,21,046,48,29,43,158,49,0*5F
$BDGSV,1,1,00,0*74

$GNRMC,170133.00,A,3128.000059,N,12117.887263,E,5.832,270.04,090815,,,A,V*05
$GNGGA,170133.00,3128.000059,N,12117.887263,E,1,09,1.02,-9.7,M,9.5,M,,*50
$GNGSA,A,3,06,15,16,18,21,22,24,26,29,,,,1.99,1.02,1.70,1*03
$GNGSA,A,3,,,,,,,,,,,,,1.99,1.02,1.70,4*00
$GPGSV,3,1,11,03,09,321,48,06,22,318,48,09,05,122,48,
15,38,057,49,0*60
$GPGSV,3,2,11,16,18,275,48,18,69,290,50,21,63,013,50,22,39,252,49,0*6D
$GPGSV,3,3,11,24,38,079,49,26,21,046,48,29,43,158,49,0*5F
$BDGSV,1,1,00,0*74

$GNRMC,170134.00,A,3128.000059,N,12117.885370,E,5.833,270.00,090815,,,A,V*06
$GNGGA,170134.00,3128.000059,N,12117.885370,E,1,09,1.02,-9.6,M,9.5,M,,*57
$GNGSA,A,3,06,15,16,18,21,22,24,26,29,,,,1.99,1.02,1.70,1*03
$GNGSA,A,3,,,,,,,,,,,,,1.99,1.02,1.70,4*00
$GPGSV,3,1,11,03,09,321,48,06,22,318,48,09,05,122,48,
15,38,057,49,0*60
$GPGSV,3,2,11,16,18,275,48,18,69,290,50,21,63,013,50,22,39,252,49,0*6D
$GPGSV,3,3,11,24,38,079,49,26,21,046,48,29,43,158,49,0*5F
$BDGSV,1,1,00,0*74

$GNRMC,170135.00,A,3128.000060,N,12117.883477,E,5.831,269.96,090815,,,A,V*0E
$GNGGA,170135.00,3128.000060,N,12117.883477,E,1,09,1.02,-9.6,M,9.5,M,,*5A
$GNGSA,A,3,06,15,16,18,21,22,24,26,29,,,,1.99,1.02,1.70,1*03
$GNGSA,A,3,,,,,,,,,,,,,1.99,1.02,1.70,4*00
$GPGSV,3,1,11,03,09,321,48,06,22,318,48,09,05,122,48,
15,38,057,49,0*60
$GPGSV,3,2,11,16,18,275,48,18,69,290,50,21,63,013,50,22,39,252,49,0*6D
$GPGSV,3,3,11,24,38,079,49,26,21,046,48,29,43,158,49,0*5F
$BDGSV,1,1,00,0*74


GPS HPregnss> E1 15 00 00 00 00 07 53 8F 3E 92 00 00 00 1C 3D ED 7A DE 00 00 00 00 


$GNRMC,170136.00,A,3128.000062,N,12117.881581,E,5.830,269.97,090815,,,A,V*05
$GNGGA,170136.00,3128.000062,N,12117.881581,E,1,09,1.02,-9.6,M,9.5,M,,*51
$GNGSA,A,3,06,15,16,18,21,22,24,26,29,,,,1.99,1.02,1.70,1*03
$GNGSA,A,3,,,,,,,,,,,,,1.99,1.02,1.70,4*00
$GPGSV,3,1,11,03,09,321,48,06,22,318,48,09,05,122,48,
15,38,057,49,0*60
$GPGSV,3,2,11,16,18,275,48,18,69,290,50,21,63,013,50,22,39,252,49,0*6D
$GPGSV,3,3,11,24,38,079,49,26,21,046,48,29,43,158,49,0*5F
$BDGSV,1,1,00,0*74

$GNRMC,170137.00,A,3128.000062,N,12117.879686,E,5.833,270.03,090815,,,A,V*01
$GNGGA,170137.00,3128.000062,N,12117.879686,E,1,09,1.02,-9.6,M,9.5,M,,*53
$GNGSA,A,3,06,15,16,18,21,22,24,26,29,,,,1.99,1.02,1.70,1*03
$GNGSA,A,3,,,,,,,,,,,,,1.99,1.02,1.70,4*00
$GPGSV,3,1,11,03,09,321,48,06,22,318,48,09,05,122,48,
15,38,057,49,0*60
$GPGSV,3,2,11,16,18,275,48,18,69,290,50,21,63,013,50,22,39,252,49,0*6D
$GPGSV,3,3,11,24,38,079,49,26,21,046,48,29,43,158,49,0*5F
$BDGSV,1,1,00,0*74

<??????????????>

$GNRMC,170138.00,A,3128.000063,N,12117.877791,E,5.832,270.05,090815,,,A,V*01
$GNGGA,170138.00,3128.000063,N,12117.877791,E,1,09,1.02,-9.6,M,9.5,M,,*54
$GNGSA,A,3,06,15,16,18,21,22,24,26,29,,,,1.99,1.02,1.70,1*03
$GNGSA,A,3,,,,,,,,,,,,,1.99,1.02,1.70,4*00
$GPGSV,3,1,11,03,09,321,48,06,22,318,48,09,05,122,48,
15,38,057,49,0*60
$GPGSV,3,2,11,16,18,275,48,18,69,291,50,21,63,013,50,22,39,252,49,0*6C
$GPGSV,3,3,11,24,38,079,49,26,21,046,48,29,43,158,49,0*5F
$BDGSV,1,1,00,0*74

$GNRMC,170139.00,A,3128.000064,N,12117.875896,E,5.834,270.04,090815,,,A,V*0A
$GNGGA,170139.00,3128.000064,N,12117.875896,E,1,09,1.02,-9.6,M,9.5,M,,*58
$GNGSA,A,3,06,15,16,18,21,22,24,26,29,,,,1.99,1.02,1.70,1*03
$GNGSA,A,3,,,,,,,,,,,,,1.99,1.02,1.70,4*00
$GPGSV,3,1,11,03,09,321,48,06,22,318,48,09,05,122,48,
15,38,057,49,0*60
$GPGSV,3,2,11,16,18,275,48,18,69,291,50,21,63,013,50,22,39,252,49,0*6C
$GPGSV,3,3,11,24,38,079,49,26,21,046,48,29,43,158,49,0*5F
$BDGSV,1,1,00,0*74

$GNRMC,170140.00,A,3128.000063,N,12117.874003,E,5.831,270.02,090815,,,A,V*05
$GNGGA,170140.00,3128.000063,N,12117.874003,E,1,09,1.02,-9.6,M,9.5,M,,*54
$GNGSA,A,3,06,15,16,18,21,22,24,26,29,,,,1.99,1.02,1.70,1*03
$GNGSA,A,3,,,,,,,,,,,,,1.99,1.02,1.70,4*00
$GPGSV,3,1,11,03,09,321,48,06,22,318,48,09,05,122,48,
15,38,057,49,0*60
$GPGSV,3,2,11,16,18,275,48,18,69,291,50,21,63,013,50,22,39,252,49,0*6C
$GPGSV,3,3,11,24,38,079,49,26,21,046,48,29,43,158,49,0*5F
$BDGSV,1,1,00,0*74

$GNRMC,170141.00,A,3128.000065,N,12117.872107,E,5.835,270.06,090815,,,A,V*01
$GNGGA,170141.00,3128.000065,N,12117.872107,E,1,09,1.02,-9.6,M,9.5,M,,*50
$GNGSA,A,3,06,15,16,18,21,22,24,26,29,,,,1.99,1.02,1.70,1*03
$GNGSA,A,3,,,,,,,,,,,,,1.99,1.02,1.70,4*00
$GPGSV,3,1,11,03,09,321,48,06,22,318,48,09,05,122,48,
15,38,057,49,0*60
$GPGSV,3,2,11,16,18,275,48,18,69,291,50,21,63,013,50,22,39,252,49,0*6C
$GPGSV,3,3,11,24,38,079,49,26,21,046,48,29,43,158,49,0*5F
$BDGSV,1,1,00,0*74

$GNRMC,170142.00,A,3128.000064,N,12117.870214,E,5.833,270.01,090815,,,A,V*01
$GNGGA,170142.00,3128.000064,N,12117.870214,E,1,09,1.02,-9.6,M,9.5,M,,*51
$GNGSA,A,3,06,15,16,18,21,22,24,26,29,,,,1.98,1.02,1.70,1*02
$GNGSA,A,3,,,,,,,,,,,,,1.98,1.02,1.70,4*01
$GPGSV,3,1,11,03,09,321,48,06,22,318,48,09,05,122,48,
15,38,057,49,0*60
$GPGSV,3,2,11,16,18,275,48,18,69,291,50,21,63,013,50,22,39,252,49,0*6C
$GPGSV,3,3,11,24,38,079,49,26,21,046,48,29,43,158,49,0*5F
$BDGSV,1,1,00,0*74

$GNRMC,170143.00,A,3128.000063,N,12117.868322,E,5.830,269.98,090815,,,A,V*01
$GNGGA,170143.00,3128.000063,N,12117.868322,E,1,09,1.02,-9.6,M,9.5,M,,*5A
$GNGSA,A,3,06,15,16,18,21,22,24,26,29,,,,1.98,1.02,1.70,1*02
$GNGSA,A,3,,,,,,,,,,,,,1.98,1.02,1.70,4*01
$GPGSV,3,1,11,03,09,321,48,06,22,318,48,09,05,122,48,
15,38,057,49,0*60
$GPGSV,3,2,11,16,18,275,48,18,69,291,50,21,63,013,50,22,39,252,49,0*6C
$GPGSV,3,3,11,24,38,079,49,26,21,046,48,29,43,159,49,0*5E
$BDGSV,1,1,00,0*74

$GNRMC,170144.00,A,3128.000064,N,12117.866428,E,5.834,270.05,090815,,,A,V*0A
$GNGGA,170144.00,3128.000064,N,12117.866428,E,1,09,1.02,-9.6,M,9.5,M,,*59
$GNGSA,A,3,06,15,16,18,21,22,24,26,29,,,,1.98,1.02,1.70,1*02
$GNGSA,A,3,,,,,,,,,,,,,1.98,1.02,1.70,4*01
$GPGSV,3,1,11,03,09,321,48,06,22,318,48,09,05,122,48,
15,38,057,49,0*60
$GPGSV,3,2,11,16,18,275,48,18,69,291,50,21,63,013,50,22,39,252,49,0*6C
$GPGSV,3,3,11,24,38,079,49,26,21,046,48,29,43,159,49,0*5E
$BDGSV,1,1,00,0*74

$GNRMC,170145.00,A,3128.000065,N,12117.864534,E,5.831,269.96,090815,,,A,V*03
$GNGGA,170145.00,3128.000065,N,12117.864534,E,1,09,1.02,-9.6,M,9.5,M,,*57
$GNGSA,A,3,06,15,16,18,21,22,24,26,29,,,,1.98,1.02,1.70,1*02
$GNGSA,A,3,,,,,,,,,,,,,1.98,1.02,1.70,4*01
$GPGSV,3,1,11,03,09,321,48,06,22,318,48,09,05,122,48,
15,38,057,49,0*60
$GPGSV,3,2,11,16,18,275,48,18,69,291,50,21,63,013,50,22,39,252,49,0*6C
$GPGSV,3,3,11,24,38,079,49,26,21,046,48,29,43,159,49,0*5E
$BDGSV,1,1,00,0*74

$GNRMC,170146.00,A,3128.000065,N,12117.862640,E,5.831,269.97,090815,,,A,V*07
$GNGGA,170146.00,3128.000065,N,12117.862640,E,1,09,1.02,-9.6,M,9.5,M,,*52
$GNGSA,A,3,06,15,16,18,21,22,24,26,29,,,,1.98,1.02,1.70,1*02
$GNGSA,A,3,,,,,,,,,,,,,1.98,1.02,1.70,4*01
$GPGSV,3,1,11,03,09,321,48,06,22,318,48,09,05,122,48,
15,38,057,49,0*60
$GPGSV,3,2,11,16,18,275,48,18,69,291,50,21,63,013,50,22,39,252,49,0*6C
$GPGSV,3,3,11,24,38,079,49,26,21,046,48,29,43,159,49,0*5E
$BDGSV,1,1,00,0*74

$GNRMC,170147.00,A,3128.000066,N,12117.860747,E,5.832,270.03,090815,,,A,V*07
$GNGGA,170147.00,3128.000066,N,12117.860747,E,1,09,1.02,-9.6,M,9.5,M,,*54
$GNGSA,A,3,06,15,16,18,21,22,24,26,29,,,,1.98,1.02,1.70,1*02
$GNGSA,A,3,,,,,,,,,,,,,1.98,1.02,1.70,4*01
$GPGSV,3,1,11,03,09,321,48,06,22,318,48,09,05,122,48,
15,38,057,49,0*60
$GPGSV,3,2,11,16,18,275,48,18,69,291,50,21,63,013,50,22,39,252,49,0*6C
$GPGSV,3,3,11,24,38,079,49,26,21,046,48,29,43,159,49,0*5E
$BDGSV,1,1,00,0*74

<????sim??????(SIM??:1)>
<????GSM????????(GSM:0)>
<????GPRS????????(GPRS:0)>
<????????????(SIGNAL:0)>
<????????????????(BER:0)>

<??????????????>

$GNRMC,170148.00,A,3128.000066,N,12117.858854,E,5.832,270.01,090815,,,A,V*0C
$GNGGA,170148.00,3128.000066,N,12117.858854,E,1,09,1.02,-9.6,M,9.5,M,,*5D
$GNGSA,A,3,06,15,16,18,21,22,24,26,29,,,,1.98,1.02,1.70,1*02
$GNGSA,A,3,,,,,,,,,,,,,1.98,1.02,1.70,4*01
$GPGSV,3,1,11,03,09,321,48,06,22,318,48,09,05,122,48,
15,38,057,49,0*60
$GPGSV,3,2,11,16,18,275,48,18,69,291,50,21,63,013,50,22,39,252,49,0*6C
$GPGSV,3,3,11,24,38,079,49,26,21,046,48,29,43,159,49,0*5E
$BDGSV,1,1,00,0*74

$GNRMC,170149.00,A,3128.000066,N,12117.856961,E,5.832,270.01,090815,,,A,V*04
$GNGGA,170149.00,3128.000066,N,12117.856961,E,1,09,1.02,-9.6,M,9.5,M,,*55
$GNGSA,A,3,06,15,16,18,21,22,24,26,29,,,,1.98,1.02,1.70,1*02
$GNGSA,A,3,,,,,,,,,,,,,1.98,1.02,1.70,4*01
$GPGSV,3,1,11,03,09,321,48,06,22,318,48,09,05,122,48,
15,38,057,49,0*60
$GPGSV,3,2,11,16,18,275,48,18,69,291,50,21,63,013,50,22,39,252,49,0*6C
$GPGSV,3,3,11,24,38,079,49,26,21,046,48,29,43,159,49,0*5E
$BDGSV,1,1,00,0*74

$GNRMC,170150.00,A,3128.000065,N,12117.855067,E,5.832,270.02,090815,,,A,V*00
$GNGGA,170150.00,3128.000065,N,12117.855067,E,1,09,1.02,-9.6,M,9.5,M,,*52
$GNGSA,A,3,06,15,16,18,21,22,24,26,29,,,,1.98,1.02,1.70,1*02
$GNGSA,A,3,,,,,,,,,,,,,1.98,1.02,1.70,4*01
$GPGSV,3,1,11,03,09,321,48,06,22,318,48,09,05,122,48,
15,38,057,49,0*60
$GPGSV,3,2,11,16,18,275,48,18,69,291,50,21,63,013,50,22,39,252,49,0*6C
$GPGSV,3,3,11,24,38,079,49,26,21,046,48,29,43,159,49,0*5E
$BDGSV,1,1,00,0*74

$GNRMC,170151.00,A,3128.000066,N,12117.853174,E,5.831,270.00,090815,,,A,V*06
$GNGGA,170151.00,3128.000066,N,12117.853174,E,1,09,1.02,-9.6,M,9.5,M,,*55
$GNGSA,A,3,06,15,16,18,21,22,24,26,29,,,,1.98,1.02,1.70,1*02
$GNGSA,A,3,,,,,,,,,,,,,1.98,1.02,1.70,4*01
$GPGSV,3,1,11,03,09,321,48,06,22,318,48,09,05,122,48,
15,38,057,49,0*60
$GPGSV,3,2,11,16,18,275,49,18,69,291,50,21,63,013,50,22,39,252,49,0*6D
$GPGSV,3,3,11,24,38,079,49,26,21,046,48,29,43,159,49,0*5E
$BDGSV,1,1,00,0*74

$GNRMC,170152.00,A,3128.000066,N,12117.851282,E,5.830,269.98,090815,,,A,V*05
$GNGGA,170152.00,3128.000066,N,12117.851282,E,1,09,1.02,-9.6,M,9.5,M,,*5E
$GNGSA,A,3,06,15,16,18,21,22,24,26,29,,,,1.98,1.02,1.70,1*02
$GNGSA,A,3,,,,,,,,,,,,,1.98,1.02,1.70,4*01
$GPGSV,3,1,11,03,09,321,48,06,22,318,48,09,05,122,48,
15,38,057,49,0*60
$GPGSV,3,2,11,16,18,275,48,18,69,291,50,21,63,013,50,22,39,252,49,0*6C
$GPGSV,3,3,11,24,38,079,49,26,21,046,48,29,43,159,49,0*5E
$BDGSV,1,1,00,0*74

$GNRMC,170153.00,A,3128.000066,N,12117.849388,E,5.834,270.02,090815,,,A,V*09
$GNGGA,170153.00,3128.000066,N,12117.849388,E,1,09,1.02,-9.6,M,9.5,M,,*5D
$GNGSA,A,3,06,15,16,18,21,22,24,26,29,,,,1.98,1.02,1.70,1*02
$GNGSA,A,3,,,,,,,,,,,,,1.98,1.02,1.70,4*01
$GPGSV,3,1,11,03,09,321,48,06,22,318,48,09,05,122,48,
15,38,057,49,0*60
$GPGSV,3,2,11,16,18,275,48,18,69,291,50,21,63,013,50,22,39,252,49,0*6C
$GPGSV,3,3,11,24,38,079,49,26,21,046,48,29,43,159,49,0*5E
$BDGSV,1,1,00,0*74

$GNRMC,170154.00,A,3128.000066,N,12117.847494,E,5.833,270.03,090815,,,A,V*0C
$GNGGA,170154.00,3128.000066,N,12117.847494,E,1,09,1.02,-9.6,M,9.5,M,,*5E
$GNGSA,A,3,06,15,16,18,21,22,24,26,29,,,,1.98,1.02,1.70,1*02
$GNGSA,A,3,,,,,,,,,,,,,1.98,1.02,1.70,4*01
$GPGSV,3,1,11,03,09,321,48,06,22,318,48,09,05,122,48,
15,38,057,49,0*60
$GPGSV,3,2,11,16,18,275,48,18,69,291,50,21,63,013,50,22,39,252,49,0*6C
$GPGSV,3,3,11,24,38,079,49,26,21,046,48,29,43,159,49,0*5E
$BDGSV,1,1,00,0*74

$GNRMC,170155.00,A,3128.000066,N,12117.845601,E,5.833,269.99,090815,,,A,V*0A
$GNGGA,170155.00,3128.000066,N,12117.845601,E,1,09,1.02,-9.6,M,9.5,M,,*53
$GNGSA,A,3,06,15,16,18,21,22,24,26,29,,,,1.98,1.02,1.70,1*02
$GNGSA,A,3,,,,,,,,,,,,,1.98,1.02,1.70,4*01
$GPGSV,3,1,11,03,09,321,48,06,22,318,48,09,05,122,48,
15,38,057,49,0*60
$GPGSV,3,2,11,16,18,275,48,18,69,291,50,21,63,013,50,22,39,252,49,0*6C
$GPGSV,3,3,11,24,38,079,49,26,21,046,48,29,43,159,49,0*5E
$BDGSV,1,1,00,0*74

$GNRMC,170156.00,A,3128.000065,N,12117.843708,E,5.829,269.96,090815,,,A,V*00
$GNGGA,170156.00,3128.000065,N,12117.843708,E,1,09,1.02,-9.6,M,9.5,M,,*5D
$GNGSA,A,3,06,15,16,18,21,22,24,26,29,,,,1.98,1.02,1.70,1*02
$GNGSA,A,3,,,,,,,,,,,,,1.98,1.02,1.70,4*01
$GPGSV,3,1,11,03,09,321,48,06,22,318,48,09,05,122,48,
15,38,057,49,0*60
$GPGSV,3,2,11,16,18,275,48,18,69,291,50,21,63,013,50,22,39,252,49,0*6C
$GPGSV,3,3,11,24,38,079,49,26,21,046,48,29,43,159,49,0*5E
$BDGSV,1,1,00,0*74

$GNRMC,170157.00,A,3128.000065,N,12117.841815,E,5.833,270.02,090815,,,A,V*0E
$GNGGA,170157.00,3128.000065,N,12117.841815,E,1,09,1.02,-9.6,M,9.5,M,,*5D
$GNGSA,A,3,06,15,16,18,21,22,24,26,29,,,,1.98,1.02,1.70,1*02
$GNGSA,A,3,,,,,,,,,,,,,1.98,1.02,1.70,4*01
$GPGSV,3,1,11,03,09,321,48,06,22,318,48,09,05,122,48,
15,38,057,49,0*60
$GPGSV,3,2,11,16,18,275,48,18,69,291,50,21,63,013,50,22,39,253,49,0*6D
$GPGSV,3,3,11,24,38,079,49,26,21,046,48,29,43,159,49,0*5E
$BDGSV,1,1,00,0*74

<??????????????>

$GNRMC,170158.00,A,3128.000065,N,12117.839923,E,5.832,270.05,090815,,,A,V*0C
$GNGGA,170158.00,3128.000065,N,12117.839923,E,1,09,1.02,-9.6,M,9.5,M,,*59
$GNGSA,A,3,06,15,16,18,21,22,24,26,29,,,,1.98,1.02,1.70,1*02
$GNGSA,A,3,,,,,,,,,,,,,1.98,1.02,1.70,4*01
$GPGSV,3,1,11,03,09,321,48,06,22,318,48,09,05,122,48,
15,38,057,49,0*60
$GPGSV,3,2,11,16,18,275,48,18,69,291,50,21,63,013,50,22,39,253,49,0*6D
$GPGSV,3,3,11,24,38,080,49,26,21,046,48,29,43,159,49,0*58
$BDGSV,1,1,00,0*74

$GNRMC,170159.00,A,3128.000064,N,12117.838029,E,5.834,270.02,090815,,,A,V*0F
$GNGGA,170159.00,3128.000064,N,12117.838029,E,1,09,1.02,-9.6,M,9.5,M,,*5B
$GNGSA,A,3,06,15,16,18,21,22,24,26,29,,,,1.98,1.02,1.70,1*02
$GNGSA,A,3,,,,,,,,,,,,,1.98,1.02,1.70,4*01
$GPGSV,3,1,11,03,09,321,48,06,22,318,48,09,05,122,48,
15,38,057,49,0*60
$GPGSV,3,2,11,16,18,275,49,18,69,291,50,21,63,013,50,22,39,253,49,0*6C
$GPGSV,3,3,11,24,38,080,49,26,21,046,48,29,43,159,49,0*58
$BDGSV,1,1,00,0*74

$GNRMC,170200.00,A,3128.000065,N,12117.836136,E,5.832,270.04,090815,,,A,V*00
$GNGGA,170200.00,3128.000065,N,12117.836136,E,1,09,1.02,-9.6,M,9.5,M,,*54
$GNGSA,A,3,06,15,16,18,21,22,24,26,29,,,,1.98,1.02,1.70,1*02
$GNGSA,A,3,,,,,,,,,,,,,1.98,1.02,1.70,4*01
$GPGSV,3,1,11,03,09,321,48,06,22,318,48,09,05,122,48,
15,38,057,49,0*60
$GPGSV,3,2,11,16,18,275,48,18,69,291,50,21,63,013,50,22,39,253,49,0*6D
$GPGSV,3,3,11,24,38,080,49,26,21,046,48,29,43,159,49,0*58
$BDGSV,1,1,00,0*74

$GNRMC,170201.00,A,3128.000064,N,12117.834241,E,5.833,269.98,090815,,,A,V*0D
$GNGGA,170201.00,3128.000064,N,12117.834241,E,1,09,1.02,-9.6,M,9.5,M,,*55
$GNGSA,A,3,06,15,16,18,21,22,24,26,29,,,,1.98,1.02,1.70,1*02
$GNGSA,A,3,,,,,,,,,,,,,1.98,1.02,1.70,4*01
$GPGSV,3,1,11,03,09,321,48,06,22,318,48,09,05,122,48,
15,38,057,49,0*60
$GPGSV,3,2,11,16,18,275,48,18,69,291,50,21,63,013,50,22,39,253,49,0*6D
$GPGSV,3,3,11,24,38,080,49,26,21,046,48,29,43,159,49,0*58
$BDGSV,1,1,00,0*74

$GNRMC,170202.00,A,3128.000065,N,12117.832347,E,5.831,270.01,090815,,,A,V*04
$GNGGA,170202.00,3128.000065,N,12117.832347,E,1,09,1.02,-9.6,M,9.5,M,,*56
$GNGSA,A,3,06,15,16,18,21,22,24,26,29,,,,1.98,1.02,1.70,1*02
$GNGSA,A,3,,,,,,,,,,,,,1.98,1.02,1.70,4*01
$GPGSV,3,1,11,03,09,321,48,06,22,318,48,09,05,122,48,
15,38,057,49,0*60
$GPGSV,3,2,11,16,18,275,48,18,69,291,50,21,63,013,50,22,39,253,49,0*6D
$GPGSV,3,3,11,24,38,080,49,26,21,046,48,29,43,159,49,0*58
$BDGSV,1,1,00,0*74

$GNRMC,170203.00,A,3128.000065,N,12117.830452,E,5.834,270.02,090815,,,A,V*02
$GNGGA,170203.00,3128.000065,N,12117.830452,E,1,09,1.02,-9.6,M,9.5,M,,*56
$GNGSA,A,3,06,15,16,18,21,22,24,26,29,,,,1.98,1.02,1.70,1*02
$GNGSA,A,3,,,,,,,,,,,,,1.98,1.02,1.70,4*01
$GPGSV,3,1,11,03,09,321,48,06,22,318,48,09,05,122,48,
15,38,057,49,0*60
$GPGSV,3,2,11,16,18,275,48,18,69,291,50,21,63,013,50,22,39,253,49,0*6D
$GPGSV,3,3,11,24,38,080,49,26,21,046,48,29,43,159,49,0*58
$BDGSV,1,1,00,0*74

$GNRMC,170204.00,A,3128.000066,N,12117.828557,E,5.834,270.07,090815,,,A,V*0E
$GNGGA,170204.00,3128.000066,N,12117.828557,E,1,09,1.02,-9.6,M,9.5,M,,*5F
$GNGSA,A,3,06,15,16,18,21,22,24,26,29,,,,1.98,1.02,1.70,1*02
$GNGSA,A,3,,,,,,,,,,,,,1.98,1.02,1.70,4*01
$GPGSV,3,1,11,03,09,321,48,06,22,318,48,09,05,122,48,
15,38,057,49,0*60
$GPGSV,3,2,11,16,18,275,48,18,69,291,50,21,63,013,50,22,39,253,49,0*6D
$GPGSV,3,3,11,24,38,080,49,26,21,046,48,29,43,159,49,0*58
$BDGSV,1,1,00,0*74

$GNRMC,170205.00,A,3128.000066,N,12117.826663,E,5.830,269.97,090815,,,A,V*00
$GNGGA,170205.00,3128.000066,N,12117.826663,E,1,09,1.02,-9.6,M,9.5,M,,*54
$GNGSA,A,3,06,15,16,18,21,22,24,26,29,,,,1.98,1.02,1.70,1*02
$GNGSA,A,3,,,,,,,,,,,,,1.98,1.02,1.70,4*01
$GPGSV,3,1,11,03,09,321,48,06,22,318,49,09,05,122,48,
15,38,057,49,0*61
$GPGSV,3,2,11,16,18,275,48,18,69,291,50,21,63,013,50,22,39,253,49,0*6D
$GPGSV,3,3,11,24,38,080,49,26,21,046,48,29,43,159,49,0*58
$BDGSV,1,1,00,0*74


GPS HPregnss> E1 15 00 00 00 00 07 53 8F 3E F6 00 00 00 1C 3D DF 08 0A 00 00 00 00 


