$GNRMC,170051.00,A,3128.000054,N,12117.945047,E,3.889,269.97,090815,,,A,V*02
$GNGGA,170051.00,3128.000054,N,12117.945047,E,1,09,1.02,-9.7,M,9.5,M,,*53
$GNGSA,A,3,06,15,16,18,21,22,24,26,29,,,,2.00,1.02,1.71,1*01
$GNGSA,A,3,,,,,,,,,,,,,2.00,1.02,1.71,4*02
$GPGSV,3,1,11,03,09,322,48,06,21,318,49,09,,,48,15,38
,058,49,0*5A
$GPGSV,3,2,11,16,18,275,49,18,69,290,50,21,63,012,50,22,39,252,49,0*6D
$GPGSV,3,3,11,24,38,079,49,26,22,046,49,29,43,158,49,0*5D
$BDGSV,1,1,00,0*74

$GNRMC,170052.00,A,3128.000056,N,12117.943783,E,3.887,269.99,090815,,,A,V*0A
$GNGGA,170052.00,3128.000056,N,12117.943783,E,1,09,1.02,-9.7,M,9.5,M,,*5B
$GNGSA,A,3,06,15,16,18,21,22,24,26,29,,,,2.00,1.02,1.71,1*01
$GNGSA,A,3,,,,,,,,,,,,,2.00,1.02,1.71,4*02
$GPGSV,3,1,11,03,09,322,48,06,21,318,49,09,,,48,15,38
,058,49,0*5A
$GPGSV,3,2,11,16,18,275,49,18,69,290,50,21,63,012,50,22,39,252,49,0*6D
$GPGSV,3,3,11,24,38,079,49,26,22,046,49,29,43,158,49,0*5D
$BDGSV,1,1,00,0*74

$GNRMC,170053.00,A,3128.000054,N,12117.942520,E,3.889,270.01,090815,,,A,V*04
$GNGGA,170053.00,3128.000054,N,12117.942520,E,1,09,1.02,-9.7,M,9.5,M,,*52
$GNGSA,A,3,06,15,16,18,21,22,24,26,29,,,,1.99,1.02,1.71,1*02
$GNGSA,A,3,,,,,,,,,,,,,1.99,1.02,1.71,4*01
$GPGSV,3,1,11,03,09,322,48,06,21,318,49,09,,,48,15,38
,058,49,0*5A
$GPGSV,3,2,11,16,18,275,49,18,69,290,50,21,63,012,50,22,39,252,49,0*6D
$GPGSV,3,3,11,24,38,079,49,26,21,046,49,29,43,158,49,0*5E
$BDGSV,1,1,00,0*74

$GNRMC,170054.00,A,3128.000056,N,12117.941257,E,3.887,270.02,090815,,,A,V*08
$GNGGA,170054.00,3128.000056,N,12117.941257,E,1,09,1.02,-9.7,M,9.5,M,,*53
$GNGSA,A,3,06,15,16,18,21,22,24,26,29,,,,1.99,1.02,1.71,1*02
$GNGSA,A,3,,,,,,,,,,,,,1.99,1.02,1.71,4*01
$GPGSV,3,1,11,03,09,322,48,06,21,318,49,09,,,48,15,38
,058,49,0*5A
$GPGSV,3,2,11,16,18,275,49,18,69,290,50,21,63,012,50,22,39,252,49,0*6D
$GPGSV,3,3,11,24,38,079,49,26,21,046,49,29,43,158,49,0*5E
$BDGSV,1,1,00,0*74

$GNRMC,170055.00,A,3128.000052,N,12117.939994,E,3.887,269.91,090815,,,A,V*04
$GNGGA,170055.00,3128.000052,N,12117.939994,E,1,09,1.02,-9.7,M,9.5,M,,*5D
$GNGSA,A,3,06,15,16,18,21,22,24,26,29,,,,1.99,1.02,1.71,1*02
$GNGSA,A,3,,,,,,,,,,,,,1.99,1.02,1.71,4*01
$GPGSV,3,1,11,03,09,322,48,06,21,318,49,09,,,48,15,38
,058,49,0*5A
$GPGSV,3,2,11,16,18,275,49,18,69,290,50,21,63,012,50,22,39,252,49,0*6D
$GPGSV,3,3,11,24,38,079,49,26,21,046,49,29,43,158,49,0*5E
$BDGSV,1,1,00,0*74

$GNRMC,170056.00,A,3128.000052,N,12117.938728,E,3.888,270.01,090815,,,A,V*01
$GNGGA,170056.00,3128.000052,N,12117.938728,E,1,09,1.02,-9.7,M,9.5,M,,*56
$GNGSA,A,3,06,15,16,18,21,22,24,26,29,,,,1.99,1.02,1.71,1*02
$GNGSA,A,3,,,,,,,,,,,,,1.99,1.02,1.71,4*01
$GPGSV,3,1,11,03,09,322,48,06,21,318,49,09,,,48,15,38
,058,49,0*5A
$GPGSV,3,2,11,16,18,275,49,18,69,290,50,21,63,012,50,22,39,252,49,0*6D
$GPGSV,3,3,11,24,38,079,49,26,21,046,49,29,43,158,49,0*5E
$BDGSV,1,1,00,0*74

<??????????????>

$GNRMC,170057.00,A,3128.000051,N,12117.937463,E,3.888,270.03,090815,,,A,V*02
$GNGGA,170057.00,3128.000051,N,12117.937463,E,1,09,1.02,-9.7,M,9.5,M,,*57
$GNGSA,A,3,06,15,16,18,21,22,24,26,29,,,,1.99,1.02,1.71,1*02
$GNGSA,A,3,,,,,,,,,,,,,1.99,1.02,1.71,4*01
$GPGSV,3,1,11,03,09,322,48,06,21,318,49,09,,,48,15,38
,058,49,0*5A
$GPGSV,3,2,11,16,18,275,49,18,69,290,50,21,63,012,50,22,39,252,49,0*6D
$GPGSV,3,3,11,24,38,079,49,26,21,046,49,29,43,158,49,0*5E
$BDGSV,1,1,00,0*74

$GNRMC,170058.00,A,3128.000051,N,12117.936198,E,3.889,270.04,090815,,,A,V*0B
$GNGGA,170058.00,3128.000051,N,12117.936198,E,1,09,1.02,-9.7,M,9.5,M,,*58
$GNGSA,A,3,06,15,16,18,21,22,24,26,29,,,,1.99,1.02,1.71,1*02
$GNGSA,A,3,,,,,,,,,,,,,1.99,1.02,1.71,4*01
$GPGSV,3,1,11,03,09,322,48,06,21,318,49,09,,,48,15,38
,058,49,0*5A
$GPGSV,3,2,11,16,18,275,48,18,69,290,50,21,63,012,50,22,39,252,49,0*6C
$GPGSV,3,3,11,24,38,079,49,26,21,046,49,29,43,158,49,0*5E
$BDGSV,1,1,00,0*74

$GNRMC,170059.00,A,3128.000053,N,12117.934933,E,3.889,270.02,090815,,,A,V*05
$GNGGA,170059.00,3128.000053,N,12117.934933,E,1,09,1.02,-9.7,M,9.5,M,,*50
$GNGSA,A,3,06,15,16,18,21,22,24,26,29,,,,1.99,1.02,1.71,1*02
$GNGSA,A,3,,,,,,,,,,,,,1.99,1.02,1.71,4*01
$GPGSV,3,1,11,03,09,321,48,06,21,318,49,09,,,48,15,38
,058,49,0*59
$GPGSV,3,2,11,16,18,275,48,18,69,290,50,21,63,012,50,22,39,252,49,0*6C
$GPGSV,3,3,11,24,38,079,49,26,21,046,49,29,43,158,49,0*5E
$BDGSV,1,1,00,0*74

$GNRMC,170100.00,A,3128.000056,N,12117.933670,E,3.887,270.01,090815,,,A,V*0F
$GNGGA,170100.00,3128.000056,N,12117.933670,E,1,09,1.02,-9.6,M,9.5,M,,*56
$GNGSA,A,3,06,15,16,18,21,22,24,26,29,,,,1.99,1.02,1.71,1*02
$GNGSA,A,3,,,,,,,,,,,,,1.99,1.02,1.71,4*01
$GPGSV,3,1,11,03,09,321,48,06,21,318,49,09,,,48,15,38
,058,49,0*59
$GPGSV,3,2,11,16,18,275,49,18,69,290,50,21,63,012,50,22,39,252,49,0*6D
$GPGSV,3,3,11,24,38,079,49,26,21,046,49,29,43,158,49,0*5E
$BDGSV,1,1,00,0*74

$GNRMC,170101.00,A,3128.000059,N,12117.932407,E,3.888,269.98,090815,,,A,V*05
$GNGGA,170101.00,3128.000059,N,12117.932407,E,1,09,1.02,-9.6,M,9.5,M,,*5B
$GNGSA,A,3,06,15,16,18,21,22,24,26,29,,,,1.99,1.02,1.71,1*02
$GNGSA,A,3,,,,,,,,,,,,,1.99,1.02,1.71,4*01
$GPGSV,3,1,11,03,09,321,48,06,21,318,49,09,05,122,48,
15,38,058,49,0*6D
$GPGSV,3,2,11,16,18,275,49,18,69,290,50,21,63,012,50,22,39,252,49,0*6D
$GPGSV,3,3,11,24,38,079,49,26,21,046,49,29,43,158,49,0*5E
$BDGSV,1,1,00,0*74

$GNRMC,170102.00,A,3128.000062,N,12117.931143,E,3.889,270.00,090815,,,A,V*00
$GNGGA,170102.00,3128.000062,N,12117.931143,E,1,09,1.02,-9.6,M,9.5,M,,*56
$GNGSA,A,3,06,15,16,18,21,22,24,26,29,,,,1.99,1.02,1.71,1*02
$GNGSA,A,3,,,,,,,,,,,,,1.99,1.02,1.71,4*01
$GPGSV,3,1,11,03,09,321,48,06,21,318,49,09,05,122,48,
15,38,058,49,0*6D
$GPGSV,3,2,11,16,18,275,49,18,69,290,50,21,63,012,50,22,39,252,49,0*6D
$GPGSV,3,3,11,24,38,079,49,26,21,046,49,29,43,158,49,0*5E
$BDGSV,1,1,00,0*74

$GNRMC,170103.00,A,3128.000065,N,12117.929880,E,3.889,270.03,090815,,,A,V*0A
$GNGGA,170103.00,3128.000065,N,12117.929880,E,1,09,1.02,-9.6,M,9.5,M,,*5F
$GNGSA,A,3,06,15,16,18,21,22,24,26,29,,,,1.99,1.02,1.71,1*02
$GNGSA,A,3,,,,,,,,,,,,,1.99,1.02,1.71,4*01
$GPGSV,3,1,11,03,09,321,48,06,21,318,49,09,05,122,48,
15,38,058,49,0*6D
$GPGSV,3,2,11,16,18,275,49,18,69,290,50,21,63,012,50,22,39,252,49,0*6D
$GPGSV,3,3,11,24,38,079,49,26,21,046,49,29,43,158,49,0*5E
$BDGSV,1,1,00,0*74

$GNRMC,170104.00,A,3128.000064,N,12117.928617,E,3.888,270.00,090815,,,A,V*0F
$GNGGA,170104.00,3128.000064,N,12117.928617,E,1,09,1.02,-9.6,M,9.5,M,,*58
$GNGSA,A,3,06,15,16,18,21,22,24,26,29,,,,1.99,1.02,1.71,1*02
$GNGSA,A,3,,,,,,,,,,,,,1.99,1.02,1.71,4*01
$GPGSV,3,1,11,03,09,321,48,06,21,318,49,09,05,122,48,
15,38,058,49,0*6D
$GPGSV,3,2,11,16,18,275,49,18,69,290,50,21,63,012,50,22,39,252,49,0*6D
$GPGSV,3,3,11,24,38,079,49,26,21,046,49,29,43,158,49,0*5E
$BDGSV,1,1,00,0*74


GPS HPregnss> E1 15 00 00 00 00 07 53 8F 3E D5 00 00 00 1C 3D F8 F5 AB 00 00 00 00 


$GNRMC,170105.00,A,3128.000063,N,12117.927355,E,3.884,269.90,090815,,,A,V*08
$GNGGA,170105.00,3128.000063,N,12117.927355,E,1,09,1.02,-9.6,M,9.5,M,,*52
$GNGSA,A,3,06,15,16,18,21,22,24,26,29,,,,1.99,1.02,1.71,1*02
$GNGSA,A,3,,,,,,,,,,,,,1.99,1.02,1.71,4*01
$GPGSV,3,1,11,03,09,321,48,06,21,318,49,09,05,122,48,
15,38,058,49,0*6D
$GPGSV,3,2,11,16,18,275,49,18,69,290,50,21,63,012,50,22,39,252,49,0*6D
$GPGSV,3,3,11,24,38,079,49,26,21,046,49,29,43,158,49,0*5E
$BDGSV,1,1,00,0*74

$GNRMC,170106.00,A,3128.000063,N,12117.926092,E,3.888,269.97,090815,,,A,V*09
$GNGGA,170106.00,3128.000063,N,12117.926092,E,1,09,1.02,-9.6,M,9.5,M,,*58
$GNGSA,A,3,06,15,16,18,21,22,24,26,29,,,,1.99,1.02,1.71,1*02
$GNGSA,A,3,,,,,,,,,,,,,1.99,1.02,1.71,4*01
$GPGSV,3,1,11,03,09,321,48,06,21,318,49,09,05,122,48,
15,38,058,49,0*6D
$GPGSV,3,2,11,16,18,275,49,18,69,290,50,21,63,013,50,22,39,252,49,0*6C
$GPGSV,3,3,11,24,38,079,49,26,21,046,49,29,43,158,49,0*5E
$BDGSV,1,1,00,0*74

<????sim??????(SIM??:1)>
<????GSM????????(GSM:0)>
<????GPRS????????(GPRS:0)>
<????????????(SIGNAL:0)>
<????????????????(BER:0)>

<??????????????>

$GNRMC,170108.00,A,3128.000061,N,12117.924830,E,3.888,270.00,090815,,,A,V*01
$GNGGA,170108.00,3128.000061,N,12117.924830,E,1,09,1.02,-9.6,M,9.5,M,,*56
$GNGSA,A,3,06,15,16,18,21,22,24,26,29,,,,1.99,1.02,1.71,1*02
$GNGSA,A,3,,,,,,,,,,,,,1.99,1.02,1.71,4*01
$GPGSV,3,1,11,03,09,321,48,06,21,318,49,09,05,122,48,
15,38,058,49,0*6D
$GPGSV,3,2,11,16,18,275,49,18,69,290,50,21,63,013,50,22,39,252,49,0*6C
$GPGSV,3,3,11,24,38,079,49,26,21,046,49,29,43,158,49,0*5E
$BDGSV,1,1,00,0*74

$GNRMC,170109.00,A,3128.000062,N,12117.923568,E,3.888,270.07,090815,,,A,V*03
$GNGGA,170109.00,3128.000062,N,12117.923568,E,1,09,1.02,-9.6,M,9.5,M,,*53
$GNGSA,A,3,06,15,16,18,21,22,24,26,29,,,,1.99,1.02,1.71,1*02
$GNGSA,A,3,,,,,,,,,,,,,1.99,1.02,1.71,4*01
$GPGSV,3,1,11,03,09,321,48,06,21,318,49,09,05,122,48,
15,38,058,49,0*6D
$GPGSV,3,2,11,16,18,275,48,18,69,290,50,21,63,013,50,22,39,252,49,0*6D
$GPGSV,3,3,11,24,38,079,49,26,21,046,49,29,43,158,49,0*5E
$BDGSV,1,1,00,0*74

$GNRMC,170110.00,A,3128.000062,N,12117.922305,E,3.890,270.08,090815,,,A,V*01
$GNGGA,170110.00,3128.000062,N,12117.922305,E,1,09,1.02,-9.6,M,9.5,M,,*57
$GNGSA,A,3,06,15,16,18,21,22,24,26,29,,,,1.99,1.02,1.71,1*02
$GNGSA,A,3,,,,,,,,,,,,,1.99,1.02,1.71,4*01
$GPGSV,3,1,11,03,09,321,48,06,21,318,49,09,05,122,48,
15,38,058,49,0*6D
$GPGSV,3,2,11,16,18,275,49,18,69,290,50,21,63,013,50,22,39,252,49,0*6C
$GPGSV,3,3,11,24,38,079,49,26,21,046,49,29,43,158,49,0*5E
$BDGSV,1,1,00,0*74

$GNRMC,170111.00,A,3128.000061,N,12117.921042,E,3.888,270.01,090815,,,A,V*00
$GNGGA,170111.00,3128.000061,N,12117.921042,E,1,09,1.02,-9.6,M,9.5,M,,*56
$GNGSA,A,3,06,15,16,18,21,22,24,26,29,,,,1.99,1.02,1.71,1*02
$GNGSA,A,3,,,,,,,,,,,,,1.99,1.02,1.71,4*01
$GPGSV,3,1,11,03,09,321,48,06,21,318,49,09,05,122,48,
15,38,058,49,0*6D
$GPGSV,3,2,11,16,18,275,49,18,69,290,50,21,63,013,50,22,39,252,49,0*6C
$GPGSV,3,3,11,24,38,079,49,26,21,046,49,29,43,158,49,0*5E
$BDGSV,1,1,00,0*74

$GNRMC,170112.00,A,3128.000059,N,12117.919779,E,3.889,270.01,090815,,,A,V*0D
$GNGGA,170112.00,3128.000059,N,12117.919779,E,1,09,1.02,-9.6,M,9.5,M,,*5A
$GNGSA,A,3,06,15,16,18,21,22,24,26,29,,,,1.99,1.02,1.71,1*02
$GNGSA,A,3,,,,,,,,,,,,,1.99,1.02,1.71,4*01
$GPGSV,3,1,11,03,09,321,48,06,21,318,49,09,05,122,48,
15,38,058,49,0*6D
$GPGSV,3,2,11,16,18,275,49,18,69,290,50,21,63,013,50,22,39,252,49,0*6C
$GPGSV,3,3,11,24,38,079,49,26,21,046,49,29,43,158,49,0*5E
$BDGSV,1,1,00,0*74

$GNRMC,170113.00,A,3128.000058,N,12117.918516,E,3.889,269.99,090815,,,A,V*0E
$GNGGA,170113.00,3128.000058,N,12117.918516,E,1,09,1.02,-9.6,M,9.5,M,,*50
$GNGSA,A,3,06,15,16,18,21,22,24,26,29,,,,1.99,1.02,1.71,1*02
$GNGSA,A,3,,,,,,,,,,,,,1.99,1.02,1.71,4*01
$GPGSV,3,1,11,03,09,321,48,06,21,318,48,09,05,122,48,
15,38,058,49,0*6C
$GPGSV,3,2,11,16,18,275,48,18,69,290,50,21,63,013,50,22,39,252,49,0*6D
$GPGSV,3,3,11,24,38,079,49,26,21,046,48,29,43,158,49,0*5F
$BDGSV,1,1,00,0*74

$GNRMC,170114.00,A,3128.000057,N,12117.917256,E,3.888,270.01,090815,,,A,V*02
$GNGGA,170114.00,3128.000057,N,12117.917256,E,1,09,1.02,-9.6,M,9.5,M,,*54
$GNGSA,A,3,06,15,16,18,21,22,24,26,29,,,,1.99,1.02,1.71,1*02
$GNGSA,A,3,,,,,,,,,,,,,1.99,1.02,1.71,4*01
$GPGSV,3,1,11,03,09,321,48,06,21,318,49,09,05,122,48,
15,38,058,49,0*6D
$GPGSV,3,2,11,16,18,275,48,18,69,290,50,21,63,013,50,22,39,252,49,0*6D
$GPGSV,3,3,11,24,38,079,49,26,21,046,49,29,43,158,49,0*5E
$BDGSV,1,1,00,0*74

$GNRMC,170115.00,A,3128.000059,N,12117.915994,E,3.889,270.00,090815,,,A,V*0A
$GNGGA,170115.00,3128.000059,N,12117.915994,E,1,09,1.02,-9.6,M,9.5,M,,*5C
$GNGSA,A,3,06,15,16,18,21,22,24,26,29,,,,1.99,1.02,1.71,1*02
$GNGSA,A,3,,,,,,,,,,,,,1.99,1.02,1.71,4*01
$GPGSV,3,1,11,03,09,321,48,06,21,318,49,09,05,122,48,
15,38,058,49,0*6D
$GPGSV,3,2,11,16,18,275,48,18,69,290,50,21,63,013,50,22,39,252,49,0*6D
$GPGSV,3,3,11,24,38,079,49,26,21,046,49,29,43,158,49,0*5E
$BDGSV,1,1,00,0*74

$GNRMC,170116.00,A,3128.000061,N,12117.914731,E,3.887,269.96,090815,,,A,V*0B
$GNGGA,170116.00,3128.000061,N,12117.914731,E,1,09,1.02,-9.6,M,9.5,M,,*54
$GNGSA,A,3,06,15,16,18,21,22,24,26,29,,,,1.99,1.02,1.71,1*02
$GNGSA,A,3,,,,,,,,,,,,,1.99,1.02,1.71,4*01
$GPGSV,3,1,11,03,09,321,48,06,21,318,49,09,05,122,48,
15,38,058,49,0*6D
$GPGSV,3,2,11,16,18,275,48,18,69,290,50,21,63,013,50,22,39,252,49,0*6D
$GPGSV,3,3,11,24,38,079,49,26,21,046,49,29,43,158,49,0*5E
$BDGSV,1,1,00,0*74

$GNRMC,170117.00,A,3128.000061,N,12117.913466,E,3.890,269.97,090815,,,A,V*0B
$GNGGA,170117.00,3128.000061,N,12117.913466,E,1,09,1.02,-9.6,M,9.5,M,,*53
$GNGSA,A,3,06,15,16,18,21,22,24,26,29,,,,1.99,1.02,1.71,1*02
$GNGSA,A,3,,,,,,,,,,,,,1.99,1.02,1.71,4*01
$GPGSV,3,1,11,03,09,321,48,06,21,318,49,09,05,122,48,
15,38,058,49,0*6D
$GPGSV,3,2,11,16,18,275,48,18,69,290,50,21,63,013,50,22,39,252,49,0*6D
$GPGSV,3,3,11,24,38,079,49,26,21,046,49,29,43,158,49,0*5E
$BDGSV,1,1,00,0*74

<??????????????>

$GNRMC,170118.00,A,3128.000062,N,12117.912201,E,3.888,269.99,090815,,,A,V*06
$GNGGA,170118.00,3128.000062,N,12117.912201,E,1,09,1.02,-9.6,M,9.5,M,,*59
$GNGSA,A,3,06,15,16,18,21,22,24,26,29,,,,1.99,1.02,1.71,1*02
$GNGSA,A,3,,,,,,,,,,,,,1.99,1.02,1.71,4*01
$GPGSV,3,1,11,03,09,321,48,06,21,318,49,09,05,122,48,
15,38,058,49,0*6D
$GPGSV,3,2,11,16,18,275,48,18,69,290,50,21,63,013,50,22,39,252,49,0*6D
$GPGSV,3,3,11,24,38,079,49,26,21,046,49,29,43,158,49,0*5E
$BDGSV,1,1,00,0*74

$GNRMC,170119.00,A,3128.000063,N,12117.910938,E,3.890,270.09,090815,,,A,V*0D
$GNGGA,170119.00,3128.000063,N,12117.910938,E,1,09,1.02,-9.6,M,9.5,M,,*5A
$GNGSA,A,3,06,15,16,18,21,22,24,26,29,,,,1.99,1.02,1.71,1*02
$GNGSA,A,3,,,,,,,,,,,,,1.99,1.02,1.71,4*01
$GPGSV,3,1,11,03,09,321,48,06,21,318,49,09,05,122,48,
15,38,057,49,0*62
$GPGSV,3,2,11,16,18,275,48,18,69,290,50,21,63,013,50,22,39,252,49,0*6D
$GPGSV,3,3,11,24,38,079,49,26,21,046,49,29,43,158,49,0*5E
$BDGSV,1,1,00,0*74

$GNRMC,170120.00,A,3128.000066,N,12117.909674,E,3.888,270.06,090815,,,A,V*0B
$GNGGA,170120.00,3128.000066,N,12117.909674,E,1,09,1.02,-9.6,M,9.5,M,,*5A
$GNGSA,A,3,06,15,16,18,21,22,24,26,29,,,,1.99,1.02,1.71,1*02
$GNGSA,A,3,,,,,,,,,,,,,1.99,1.02,1.71,4*01
$GPGSV,3,1,11,03,09,321,48,06,21,318,49,09,05,122,48,
15,38,057,49,0*62
$GPGSV,3,2,11,16,18,275,48,18,69,290,50,21,63,013,50,22,39,252,49,0*6D
$GPGSV,3,3,11,24,38,079,49,26,21,046,49,29,43,158,49,0*5E
$BDGSV,1,1,00,0*74

$GNRMC,170121.00,A,3128.000067,N,12117.908410,E,3.889,270.02,090815,,,A,V*0F
$GNGGA,170121.00,3128.000067,N,12117.908410,E,1,09,1.02,-9.6,M,9.5,M,,*5B
$GNGSA,A,3,06,15,16,18,21,22,24,26,29,,,,1.99,1.02,1.71,1*02
$GNGSA,A,3,,,,,,,,,,,,,1.99,1.02,1.71,4*01
$GPGSV,3,1,11,03,09,321,48,06,21,318,49,09,05,122,48,
15,38,057,49,0*62
$GPGSV,3,2,11,16,18,275,49,18,69,290,50,21,63,013,50,22,39,252,49,0*6C
$GPGSV,3,3,11,24,38,079,49,26,21,046,49,29,43,158,49,0*5E
$BDGSV,1,1,00,0*74

$GNRMC,170122.00,A,3128.000068,N,12117.907147,E,3.889,270.01,090815,,,A,V*08
$GNGGA,170122.00,3128.000068,N,12117.907147,E,1,09,1.02,-9.6,M,9.5,M,,*5F
$GNGSA,A,3,06,15,16,18,21,22,24,26,29,,,,1.99,1.02,1.71,1*02
$GNGSA,A,3,,,,,,,,,,,,,1.99,1.02,1.71,4*01
$GPGSV,3,1,11,03,09,321,48,06,21,318,49,09,05,122,48,
15,38,057,49,0*62
$GPGSV,3,2,11,16,18,275,48,18,69,290,50,21,63,013,50,22,39,252,49,0*6D
$GPGSV,3,3,11,24,38,079,49,26,21,046,49,29,43,158,49,0*5E
$BDGSV,1,1,00,0*74

$GNRMC,170123.00,A,3128.000069,N,12117.905884,E,3.887,269.98,090815,,,A,V*0A
$GNGGA,170123.00,3128.000069,N,12117.905884,E,1,09,1.02,-9.6,M,9.5,M,,*5B
$GNGSA,A,3,06,15,16,18,21,22,24,26,29,,,,1.99,1.02,1.71,1*02
$GNGSA,A,3,,,,,,,,,,,,,1.99,1.02,1.71,4*01
$GPGSV,3,1,11,03,09,321,48,06,21,318,48,09,05,122,48,
15,38,057,49,0*63
$GPGSV,3,2,11,16,18,275,48,18,69,290,50,21,63,013,50,22,39,252,49,0*6D
$GPGSV,3,3,11,24,38,079,49,26,21,046,49,29,43,158,49,0*5E
$BDGSV,1,1,00,0*74

$GNRMC,170124.00,A,3128.000069,N,12117.904306,E,4.861,270.01,090815,,,A,V*0A
$GNGGA,170124.00,3128.000069,N,12117.904306,E,1,09,1.02,-9.6,M,9.5,M,,*5C
$GNGSA,A,3,06,15,16,18,21,22,24,26,29,,,,1.99,1.02,1.71,1*02
$GNGSA,A,3,,,,,,,,,,,,,1.99,1.02,1.71,4*01
$GPGSV,3,1,11,03,09,321,48,06,21,318,48,09,05,122,48,
15,38,057,49,0*63
$GPGSV,3,2,11,16,18,275,48,18,69,290,50,21,63,013,50,22,39,252,49,0*6D
$GPGSV,3,3,11,24,38,079,49,26,21,046,49,29,43,158,49,0*5E
$BDGSV,1,1,00,0*74

$GNRMC,170125.00,A,3128.000069,N,12117.902412,E,5.831,269.97,090815,,,A,V*0C
$GNGGA,170125.00,3128.000069,N,12117.902412,E,1,09,1.02,-9.6,M,9.5,M,,*59
$GNGSA,A,3,06,15,16,18,21,22,24,26,29,,,,1.99,1.02,1.71,1*02
$GNGSA,A,3,,,,,,,,,,,,,1.99,1.02,1.71,4*01
$GPGSV,3,1,12,03,09,321,48,06,21,318,48,09,05,122,48,
14,,,30,0*56
$GPGSV,3,2,12,15,38,057,49,16,18,275,48,18,69,290,50,21,63,013,50,0*6C
$GPGSV,3,3,12,22,39,252,49,24,38,079,49,26,21,046,48,29,43,158,49,0*6E
$BDGSV,1,1,00,0*74

$GNRMC,170126.00,A,3128.000070,N,12117.900518,E,5.832,269.94,090815,,,A,V*0E
$GNGGA,170126.00,3128.000070,N,12117.900518,E,1,09,1.02,-9.6,M,9.5,M,,*5B
$GNGSA,A,3,06,15,16,18,21,22,24,26,29,,,,1.99,1.02,1.71,1*02
$GNGSA,A,3,,,,,,,,,,,,,1.99,1.02,1.71,4*01
$GPGSV,3,1,11,03,09,321,48,06,21,318,49,09,05,122,48,
15,38,057,49,0*62
$GPGSV,3,2,11,16,18,275,48,18,69,290,50,21,63,013,50,22,39,252,49,0*6D
$GPGSV,3,3,11,24,38,079,49,26,21,046,49,29,43,158,49,0*5E
$BDGSV,1,1,00,0*74

$GNRMC,170127.00,A,3128.000072,N,12117.898623,E,5.831,269.95,090815,,,A,V*04
$GNGGA,170127.00,3128.000072,N,12117.898623,E,1,09,1.02,-9.6,M,9.5,M,,*53
$GNGSA,A,3,06,15,16,18,21,22,24,26,29,,,,1.99,1.02,1.71,1*02
$GNGSA,A,3,,,,,,,,,,,,,1.99,1.02,1.71,4*01
$GPGSV,3,1,11,03,09,321,48,06,21,318,49,09,05,122,48,
15,38,057,49,0*62
$GPGSV,3,2,11,16,18,275,48,18,69,290,50,21,63,013,50,22,39,252,49,0*6D
$GPGSV,3,3,11,24,38,079,49,26,21,046,49,29,43,158,49,0*5E
$BDGSV,1,1,00,0*74

<????sim??????(SIM??:1)>
<????GSM????????(GSM:0)>
<????GPRS????????(GPRS:0)>
<????????????(SIGNAL:0)>
<????????????????(BER:0)>

<??????????????>

$GNRMC,170128.00,A,3128.000074,N,12117.896727,E,5.834,270.06,090815,,,A,V*01
$GNGGA,170128.00,3128.000074,N,12117.896727,E,1,09,1.02,-9.6,M,9.5,M,,*51
$GNGSA,A,3,06,15,16,18,21,22,24,26,29,,,,1.99,1.02,1.71,1*02
$GNGSA,A,3,,,,,,,,,,,,,1.99,1.02,1.71,4*01
$GPGSV,3,1,11,03,09,321,48,06,21,318,49,09,05,122,48,
15,38,057,49,0*62
$GPGSV,3,2,11,16,18,275,48,18,69,290,50,21,63,013,50,22,39,252,49,0*6D
$GPGSV,3,3,11,24,38,079,49,26,21,046,49,29,43,158,49,0*5E
$BDGSV,1,1,00,0*74

$GNRMC,170129.00,A,3128.000073,N,12117.894832,E,5.834,270.04,090815,,,A,V*0C
$GNGGA,170129.00,3128.000073,N,12117.894832,E,1,09,1.02,-9.6,M,9.5,M,,*5E
$GNGSA,A,3,06,15,16,18,21,22,24,26,29,,,,1.99,1.02,1.71,1*02
$GNGSA,A,3,,,,,,,,,,,,,1.99,1.02,1.71,4*01
$GPGSV,3,1,11,03,09,321,48,06,21,318,49,09,05,122,48,
15,38,057,49,0*62
$GPGSV,3,2,11,16,18,275,48,18,69,290,50,21,63,013,50,22,39,252,49,0*6D
$GPGSV,3,3,11,24,38,079,49,26,21,046,49,29,43,158,49,0*5E
$BDGSV,1,1,00,0*74

$GNRMC,170130.00,A,3128.000073,N,12117.892938,E,5.832,270.00,090815,,,A,V*0B
$GNGGA,170130.00,3128.000073,N,12117.892938,E,1,09,1.02,-9.6,M,9.5,M,,*5B
$GNGSA,A,3,06,15,16,18,21,22,24,26,29,,,,1.99,1.02,1.71,1*02
$GNGSA,A,3,,,,,,,,,,,,,1.99,1.02,1.71,4*01
$GPGSV,3,1,11,03,09,321,48,06,21,318,49,09,05,122,48,
15,38,057,49,0*62
$GPGSV,3,2,11,16,18,275,48,18,69,290,50,21,63,013,50,22,39,252,49,0*6D
$GPGSV,3,3,11,24,38,079,49,26,21,046,48,29,43,158,49,0*5F
$BDGSV,1,1,00,0*74

$GNRMC,170131.00,A,3128.000074,N,12117.891041,E,5.833,269.99,090815,,,A,V*00
$GNGGA,170131.00,3128.000074,N,12117.891041,E,1,09,1.02,-9.6,M,9.5,M,,*59
$GNGSA,A,3,06,15,16,18,21,22,24,26,29,,,,1.99,1.02,1.71,1*02
$GNGSA,A,3,,,,,,,,,,,,,1.99,1.02,1.71,4*01
$GPGSV,3,1,11,03,09,321,48,06,21,318,49,09,05,122,48,
15,38,057,49,0*62
$GPGSV,3,2,11,16,18,275,48,18,69,290,50,21,63,013,50,22,39,252,49,0*6D
$GPGSV,3,3,11,24,38,079,49,26,21,046,49,29,43,158,49,0*5E
$BDGSV,1,1,00,0*74

$GNRMC,170132.00,A,3128.000075,N,12117.889146,E,5.830,270.00,090815,,,A,V*06
$GNGGA,170132.00,3128.000075,N,12117.889146,E,1,09,1.02,-9.6,M,9.5,M,,*54
$GNGSA,A,3,06,15,16,18,21,22,24,26,29,,,,1.99,1.02,1.71,1*02
$GNGSA,A,3,,,,,,,,,,,,,1.99,1.02,1.71,4*01
$GPGSV,3,1,11,03,09,321,48,06,21,318,49,09,05,122,48,
15,38,057,49,0*62
$GPGSV,3,2,11,16,18,275,48,18,69,290,50,21,63,013,50,22,39,252,49,0*6D
$GPGSV,3,3,11,24,38,079,49,26,21,046,49,29,43,158,49,0*5E
$BDGSV,1,1,00,0*74

$GNRMC,170133.00,A,3128.000076,N,12117.887250,E,5.834,270.03,090815,,,A,V*09
$GNGGA,170133.00,3128.000076,N,12117.887250,E,1,09,1.02,-9.6,M,9.5,M,,*5C
$GNGSA,A,3,06,15,16,18,21,22,24,26,29,,,,1.99,1.02,1.70,1*03
$GNGSA,A,3,,,,,,,,,,,,,1.99,1.02,1.70,4*00
$GPGSV,3,1,11,03,09,321,48,06,22,318,49,09,05,122,48,
15,38,057,49,0*61
$GPGSV,3,2,11,16,18,275,48,18,69,290,50,21,63,013,50,22,39,252,49,0*6D
$GPGSV,3,3,11,24,38,079,49,26,21,046,49,29,43,158,49,0*5E
$BDGSV,1,1,00,0*74

$GNRMC,170134.00,A,3128.000075,N,12117.885358,E,5.832,270.00,090815,,,A,V*03
$GNGGA,170134.00,3128.000075,N,12117.885358,E,1,09,1.02,-9.6,M,9.5,M,,*53
$GNGSA,A,3,06,15,16,18,21,22,24,26,29,,,,1.99,1.02,1.70,1*03
$GNGSA,A,3,,,,,,,,,,,,,1.99,1.02,1.70,4*00
$GPGSV,3,1,11,03,09,321,48,06,22,318,48,09,05,122,48,
15,38,057,49,0*60
$GPGSV,3,2,11,16,18,275,48,18,69,290,50,21,63,013,50,22,39,252,49,0*6D
$GPGSV,3,3,11,24,38,079,49,26,21,046,49,29,43,158,49,0*5E
$BDGSV,1,1,00,0*74

$GNRMC,170135.00,A,3128.000074,N,12117.883465,E,5.832,269.99,090815,,,A,V*04
$GNGGA,170135.00,3128.000074,N,12117.883465,E,1,09,1.02,-9.6,M,9.5,M,,*5C
$GNGSA,A,3,06,15,16,18,21,22,24,26,29,,,,1.99,1.02,1.70,1*03
$GNGSA,A,3,,,,,,,,,,,,,1.99,1.02,1.70,4*00
$GPGSV,3,1,11,03,09,321,48,06,22,318,49,09,05,122,48,
15,38,057,49,0*61
$GPGSV,3,2,11,16,18,275,48,18,69,290,50,21,63,013,50,22,39,252,49,0*6D
$GPGSV,3,3,11,24,38,079,49,26,21,046,49,29,43,158,49,0*5E
$BDGSV,1,1,00,0*74


GPS HPregnss> E1 15 00 00 00 00 07 53 8F 3F 7C 00 00 00 1C 3D ED 7A 16 00 00 00 00 


$GNRMC,170136.00,A,3128.000074,N,12117.881572,E,5.832,269.97,090815,,,A,V*0C
$GNGGA,170136.00,3128.000074,N,12117.881572,E,1,09,1.02,-9.6,M,9.5,M,,*5A
$GNGSA,A,3,06,15,16,18,21,22,24,26,29,,,,1.99,1.02,1.70,1*03
$GNGSA,A,3,,,,,,,,,,,,,1.99,1.02,1.70,4*00
$GPGSV,3,1,11,03,09,321,48,06,22,318,49,09,05,122,48,
15,38,057,49,0*61
$GPGSV,3,2,11,16,18,275,48,18,69,290,50,21,63,013,50,22,39,252,49,0*6D
$GPGSV,3,3,11,24,38,079,49,26,21,046,49,29,43,158,49,0*5E
$BDGSV,1,1,00,0*74

$GNRMC,170137.00,A,3128.000072,N,12117.879678,E,5.832,269.99,090815,,,A,V*0B
$GNGGA,170137.00,3128.000072,N,12117.879678,E,1,09,1.02,-9.6,M,9.5,M,,*53
$GNGSA,A,3,06,15,16,18,21,22,24,26,29,,,,1.99,1.02,1.70,1*03
$GNGSA,A,3,,,,,,,,,,,,,1.99,1.02,1.70,4*00
$GPGSV,3,1,11,03,09,321,48,06,22,318,48,09,05,122,48,
15,38,057,49,0*60
$GPGSV,3,2,11,16,18,275,48,18,69,290,50,21,63,013,50,22,39,252,49,0*6D
$GPGSV,3,3,11,24,38,079,49,26,21,046,49,29,43,158,49,0*5E
$BDGSV,1,1,00,0*74

<??????????????>

$GNRMC,170138.00,A,3128.000071,N,12117.877783,E,5.833,269.98,090815,,,A,V*0C
$GNGGA,170138.00,3128.000071,N,12117.877783,E,1,09,1.02,-9.6,M,9.5,M,,*54
$GNGSA,A,3,06,15,16,18,21,22,24,26,29,,,,1.99,1.02,1.70,1*03
$GNGSA,A,3,,,,,,,,,,,,,1.99,1.02,1.70,4*00
$GPGSV,3,1,11,03,09,321,48,06,22,318,48,09,05,122,48,
15,38,057,49,0*60
$GPGSV,3,2,11,16,18,275,48,18,69,291,50,21,63,013,50,22,39,252,49,0*6C
$GPGSV,3,3,11,24,38,079,49,26,21,046,49,29,43,158,49,0*5E
$BDGSV,1,1,00,0*74

$GNRMC,170139.00,A,3128.000072,N,12117.875887,E,5.832,270.03,090815,,,A,V*0C
$GNGGA,170139.00,3128.000072,N,12117.875887,E,1,09,1.02,-9.6,M,9.5,M,,*5F
$GNGSA,A,3,06,15,16,18,21,22,24,26,29,,,,1.99,1.02,1.70,1*03
$GNGSA,A,3,,,,,,,,,,,,,1.99,1.02,1.70,4*00
$GPGSV,3,1,11,03,09,321,48,06,22,318,48,09,05,122,48,
15,38,057,49,0*60
$GPGSV,3,2,11,16,18,275,48,18,69,291,50,21,63,013,50,22,39,252,49,0*6C
$GPGSV,3,3,11,24,38,079,49,26,21,046,49,29,43,158,49,0*5E
$BDGSV,1,1,00,0*74

$GNRMC,170140.00,A,3128.000072,N,12117.873993,E,5.833,270.04,090815,,,A,V*06
$GNGGA,170140.00,3128.000072,N,12117.873993,E,1,09,1.02,-9.6,M,9.5,M,,*53
$GNGSA,A,3,06,15,16,18,21,22,24,26,29,,,,1.99,1.02,1.70,1*03
$GNGSA,A,3,,,,,,,,,,,,,1.99,1.02,1.70,4*00
$GPGSV,3,1,11,03,09,321,48,06,22,318,49,09,05,122,48,
15,38,057,49,0*61
$GPGSV,3,2,11,16,18,275,48,18,69,291,50,21,63,013,50,22,39,252,49,0*6C
$GPGSV,3,3,11,24,38,079,49,26,21,046,49,29,43,158,49,0*5E
$BDGSV,1,1,00,0*74

$GNRMC,170141.00,A,3128.000072,N,12117.872097,E,5.835,270.02,090815,,,A,V*0B
$GNGGA,170141.00,3128.000072,N,12117.872097,E,1,09,1.02,-9.6,M,9.5,M,,*5E
$GNGSA,A,3,06,15,16,18,21,22,24,26,29,,,,1.99,1.02,1.70,1*03
$GNGSA,A,3,,,,,,,,,,,,,1.99,1.02,1.70,4*00
$GPGSV,3,1,11,03,09,321,48,06,22,318,49,09,05,122,48,
15,38,057,49,0*61
$GPGSV,3,2,11,16,18,275,48,18,69,291,50,21,63,013,50,22,39,252,49,0*6C
$GPGSV,3,3,11,24,38,079,49,26,21,046,49,29,43,158,49,0*5E
$BDGSV,1,1,00,0*74

$GNRMC,170142.00,A,3128.000071,N,12117.870202,E,5.832,270.01,090815,,,A,V*03
$GNGGA,170142.00,3128.000071,N,12117.870202,E,1,09,1.02,-9.6,M,9.5,M,,*52
$GNGSA,A,3,06,15,16,18,21,22,24,26,29,,,,1.98,1.02,1.70,1*02
$GNGSA,A,3,,,,,,,,,,,,,1.98,1.02,1.70,4*01
$GPGSV,3,1,11,03,09,321,48,06,22,318,49,09,05,122,48,
15,38,057,49,0*61
$GPGSV,3,2,11,16,18,275,48,18,69,291,50,21,63,013,50,22,39,252,49,0*6C
$GPGSV,3,3,11,24,38,079,49,26,21,046,49,29,43,158,49,0*5E
$BDGSV,1,1,00,0*74

$GNRMC,170143.00,A,3128.000070,N,12117.868308,E,5.830,269.99,090815,,,A,V*0A
$GNGGA,170143.00,3128.000070,N,12117.868308,E,1,09,1.02,-9.6,M,9.5,M,,*50
$GNGSA,A,3,06,15,16,18,21,22,24,26,29,,,,1.98,1.02,1.70,1*02
$GNGSA,A,3,,,,,,,,,,,,,1.98,1.02,1.70,4*01
$GPGSV,3,1,11,03,09,321,48,06,22,318,48,09,05,122,48,
15,38,057,49,0*60
$GPGSV,3,2,11,16,18,275,48,18,69,291,50,21,63,013,50,22,39,252,49,0*6C
$GPGSV,3,3,11,24,38,079,49,26,21,046,49,29,43,159,49,0*5F
$BDGSV,1,1,00,0*74

$GNRMC,170144.00,A,3128.000072,N,12117.866411,E,5.835,270.05,090815,,,A,V*06
$GNGGA,170144.00,3128.000072,N,12117.866411,E,1,09,1.02,-9.6,M,9.5,M,,*54
$GNGSA,A,3,06,15,16,18,21,22,24,26,29,,,,1.98,1.02,1.70,1*02
$GNGSA,A,3,,,,,,,,,,,,,1.98,1.02,1.70,4*01
$GPGSV,3,1,11,03,09,321,48,06,22,318,49,09,05,122,48,
15,38,057,49,0*61
$GPGSV,3,2,11,16,18,275,48,18,69,291,50,21,63,013,50,22,39,252,49,0*6C
$GPGSV,3,3,11,24,38,079,49,26,21,046,49,29,43,159,49,0*5F
$BDGSV,1,1,00,0*74

$GNRMC,170145.00,A,3128.000074,N,12117.864515,E,5.833,270.07,090815,,,A,V*02
$GNGGA,170145.00,3128.000074,N,12117.864515,E,1,09,1.02,-9.6,M,9.5,M,,*54
$GNGSA,A,3,06,15,16,18,21,22,24,26,29,,,,1.98,1.02,1.70,1*02
$GNGSA,A,3,,,,,,,,,,,,,1.98,1.02,1.70,4*01
$GPGSV,3,1,11,03,09,321,48,06,22,318,49,09,05,122,48,
15,38,057,49,0*61
$GPGSV,3,2,11,16,18,275,48,18,69,291,50,21,63,013,50,22,39,252,49,0*6C
$GPGSV,3,3,11,24,38,079,49,26,21,046,48,29,43,159,49,0*5E
$BDGSV,1,1,00,0*74

$GNRMC,170146.00,A,3128.000075,N,12117.862620,E,5.831,269.95,090815,,,A,V*02
$GNGGA,170146.00,3128.000075,N,12117.862620,E,1,09,1.02,-9.6,M,9.5,M,,*55
$GNGSA,A,3,06,15,16,18,21,22,24,26,29,,,,1.98,1.02,1.70,1*02
$GNGSA,A,3,,,,,,,,,,,,,1.98,1.02,1.70,4*01
$GPGSV,3,1,11,03,09,321,48,06,22,318,48,09,05,122,48,
15,38,057,49,0*60
$GPGSV,3,2,11,16,18,275,48,18,69,291,50,21,63,013,50,22,39,252,49,0*6C
$GPGSV,3,3,11,24,38,079,49,26,21,046,49,29,43,159,49,0*5F
$BDGSV,1,1,00,0*74

$GNRMC,170147.00,A,3128.000075,N,12117.860726,E,5.830,269.96,090815,,,A,V*04
$GNGGA,170147.00,3128.000075,N,12117.860726,E,1,09,1.02,-9.6,M,9.5,M,,*51
$GNGSA,A,3,06,15,16,18,21,22,24,26,29,,,,1.98,1.02,1.70,1*02
$GNGSA,A,3,,,,,,,,,,,,,1.98,1.02,1.70,4*01
$GPGSV,3,1,11,03,09,321,48,06,22,318,48,09,05,122,48,
15,38,057,49,0*60
$GPGSV,3,2,11,16,18,275,48,18,69,291,50,21,63,013,50,22,39,252,49,0*6C
$GPGSV,3,3,11,24,38,079,49,26,21,046,48,29,43,159,49,0*5E
$BDGSV,1,1,00,0*74

<????sim??????(SIM??:1)>
<????GSM????????(GSM:0)>
<????GPRS????????(GPRS:0)>
<????????????(SIGNAL:0)>
<????????????????(BER:0)>

<??????????????>

$GNRMC,170148.00,A,3128.000074,N,12117.858833,E,5.831,269.96,090815,,,A,V*0B
$GNGGA,170148.00,3128.000074,N,12117.858833,E,1,09,1.02,-9.6,M,9.5,M,,*5F
$GNGSA,A,3,06,15,16,18,21,22,24,26,29,,,,1.98,1.02,1.70,1*02
$GNGSA,A,3,,,,,,,,,,,,,1.98,1.02,1.70,4*01
$GPGSV,3,1,11,03,09,321,48,06,22,318,48,09,05,122,48,
15,38,057,49,0*60
$GPGSV,3,2,11,16,18,275,48,18,69,291,50,21,63,013,50,22,39,252,49,0*6C
$GPGSV,3,3,11,24,38,079,49,26,21,046,48,29,43,159,49,0*5E
$BDGSV,1,1,00,0*74

$GNRMC,170149.00,A,3128.000075,N,12117.856939,E,5.832,269.99,090815,,,A,V*02
$GNGGA,170149.00,3128.000075,N,12117.856939,E,1,09,1.02,-9.6,M,9.5,M,,*5A
$GNGSA,A,3,06,15,16,18,21,22,24,26,29,,,,1.98,1.02,1.70,1*02
$GNGSA,A,3,,,,,,,,,,,,,1.98,1.02,1.70,4*01
$GPGSV,3,1,11,03,09,321,48,06,22,318,48,09,05,122,48,
15,38,057,49,0*60
$GPGSV,3,2,11,16,18,275,48,18,69,291,50,21,63,013,50,22,39,252,49,0*6C
$GPGSV,3,3,11,24,38,079,49,26,21,046,49,29,43,159,49,0*5F
$BDGSV,1,1,00,0*74

$GNRMC,170150.00,A,3128.000075,N,12117.855046,E,5.832,270.00,090815,,,A,V*00
$GNGGA,170150.00,3128.000075,N,12117.855046,E,1,09,1.02,-9.6,M,9.5,M,,*50
$GNGSA,A,3,06,15,16,18,21,22,24,26,29,,,,1.98,1.02,1.70,1*02
$GNGSA,A,3,,,,,,,,,,,,,1.98,1.02,1.70,4*01
$GPGSV,3,1,11,03,09,321,48,06,22,318,48,09,05,122,48,
15,38,057,49,0*60
$GPGSV,3,2,11,16,18,275,48,18,69,291,50,21,63,013,50,22,39,252,49,0*6C
$GPGSV,3,3,11,24,38,079,49,26,21,046,48,29,43,159,49,0*5E
$BDGSV,1,1,00,0*74

$GNRMC,170151.00,A,3128.000075,N,12117.853152,E,5.833,270.01,090815,,,A,V*03
$GNGGA,170151.00,3128.000075,N,12117.853152,E,1,09,1.02,-9.6,M,9.5,M,,*53
$GNGSA,A,3,06,15,16,18,21,22,24,26,29,,,,1.98,1.02,1.70,1*02
$GNGSA,A,3,,,,,,,,,,,,,1.98,1.02,1.70,4*01
$GPGSV,3,1,11,03,09,321,48,06,22,318,48,09,05,122,48,
15,38,057,49,0*60
$GPGSV,3,2,11,16,18,275,49,18,69,291,50,21,63,013,50,22,39,252,49,0*6D
$GPGSV,3,3,11,24,38,079,49,26,21,046,49,29,43,159,49,0*5F
$BDGSV,1,1,00,0*74

$GNRMC,170152.00,A,3128.000074,N,12117.851259,E,5.830,270.01,090815,,,A,V*08
$GNGGA,170152.00,3128.000074,N,12117.851259,E,1,09,1.02,-9.6,M,9.5,M,,*5B
$GNGSA,A,3,06,15,16,18,21,22,24,26,29,,,,1.98,1.02,1.70,1*02
$GNGSA,A,3,,,,,,,,,,,,,1.98,1.02,1.70,4*01
$GPGSV,3,1,11,03,09,321,48,06,22,318,49,09,05,122,48,
15,38,057,49,0*61
$GPGSV,3,2,11,16,18,275,48,18,69,291,50,21,63,013,50,22,39,252,49,0*6C
$GPGSV,3,3,11,24,38,079,49,26,21,046,49,29,43,159,49,0*5F
$BDGSV,1,1,00,0*74

$GNRMC,170153.00,A,3128.000075,N,12117.849363,E,5.834,270.02,090815,,,A,V*0E
$GNGGA,170153.00,3128.000075,N,12117.849363,E,1,09,1.02,-9.6,M,9.5,M,,*5A
$GNGSA,A,3,06,15,16,18,21,22,24,26,29,,,,1.98,1.02,1.70,1*02
$GNGSA,A,3,,,,,,,,,,,,,1.98,1.02,1.70,4*01
$GPGSV,3,1,11,03,09,321,48,06,22,318,48,09,05,122,48,
15,38,057,49,0*60
$GPGSV,3,2,11,16,18,275,48,18,69,291,50,21,63,013,50,22,39,252,49,0*6C
$GPGSV,3,3,11,24,38,079,49,26,21,046,49,29,43,159,49,0*5F
$BDGSV,1,1,00,0*74

$GNRMC,170154.00,A,3128.000077,N,12117.847470,E,5.832,270.02,090815,,,A,V*06
$GNGGA,170154.00,3128.000077,N,12117.847470,E,1,09,1.02,-9.6,M,9.5,M,,*54
$GNGSA,A,3,06,15,16,18,21,22,24,26,29,,,,1.98,1.02,1.70,1*02
$GNGSA,A,3,,,,,,,,,,,,,1.98,1.02,1.70,4*01
$GPGSV,3,1,11,03,09,321,48,06,22,318,49,09,05,122,48,
15,38,057,49,0*61
$GPGSV,3,2,11,16,18,275,48,18,69,291,50,21,63,013,50,22,39,252,49,0*6C
$GPGSV,3,3,11,24,38,079,49,26,21,046,48,29,43,159,49,0*5E
$BDGSV,1,1,00,0*74

$GNRMC,170155.00,A,3128.000080,N,12117.845576,E,5.832,270.01,090815,,,A,V*09
$GNGGA,170155.00,3128.000080,N,12117.845576,E,1,09,1.02,-9.5,M,9.5,M,,*5B
$GNGSA,A,3,06,15,16,18,21,22,24,26,29,,,,1.98,1.02,1.70,1*02
$GNGSA,A,3,,,,,,,,,,,,,1.98,1.02,1.70,4*01
$GPGSV,3,1,11,03,09,321,48,06,22,318,49,09,05,122,48,
15,38,057,49,0*61
$GPGSV,3,2,11,16,18,275,48,18,69,291,50,21,63,013,50,22,39,252,49,0*6C
$GPGSV,3,3,11,24,38,079,49,26,21,046,48,29,43,159,49,0*5E
$BDGSV,1,1,00,0*74

$GNRMC,170156.00,A,3128.000080,N,12117.843681,E,5.832,269.95,090815,,,A,V*02
$GNGGA,170156.00,3128.000080,N,12117.843681,E,1,09,1.02,-9.5,M,9.5,M,,*55
$GNGSA,A,3,06,15,16,18,21,22,24,26,29,,,,1.98,1.02,1.70,1*02
$GNGSA,A,3,,,,,,,,,,,,,1.98,1.02,1.70,4*01
$GPGSV,3,1,11,03,09,321,48,06,22,318,49,09,05,122,48,
15,38,057,49,0*61
$GPGSV,3,2,11,16,18,275,48,18,69,291,50,21,63,013,50,22,39,252,49,0*6C
$GPGSV,3,3,11,24,38,079,49,26,21,046,49,29,43,159,49,0*5F
$BDGSV,1,1,00,0*74

$GNRMC,170157.00,A,3128.000079,N,12117.841788,E,5.832,269.98,090815,,,A,V*02
$GNGGA,170157.00,3128.000079,N,12117.841788,E,1,09,1.02,-9.5,M,9.5,M,,*58
$GNGSA,A,3,06,15,16,18,21,22,24,26,29,,,,1.98,1.02,1.70,1*02
$GNGSA,A,3,,,,,,,,,,,,,1.98,1.02,1.70,4*01
$GPGSV,3,1,11,03,09,321,48,06,22,318,49,09,05,122,48,
15,38,057,49,0*61
$GPGSV,3,2,11,16,18,275,48,18,69,291,50,21,63,013,50,22,39,253,49,0*6D
$GPGSV,3,3,11,24,38,079,49,26,21,046,49,29,43,159,49,0*5F
$BDGSV,1,1,00,0*74

<??????????????>

$GNRMC,170158.00,A,3128.000080,N,12117.839896,E,5.833,270.03,090815,,,A,V*0F
$GNGGA,170158.00,3128.000080,N,12117.839896,E,1,09,1.02,-9.5,M,9.5,M,,*5E
$GNGSA,A,3,06,15,16,18,21,22,24,26,29,,,,1.98,1.02,1.70,1*02
$GNGSA,A,3,,,,,,,,,,,,,1.98,1.02,1.70,4*01
$GPGSV,3,1,11,03,09,321,48,06,22,318,49,09,05,122,48,
15,38,057,49,0*61
$GPGSV,3,2,11,16,18,275,49,18,69,291,50,21,63,013,50,22,39,253,49,0*6C
$GPGSV,3,3,11,24,38,080,49,26,21,046,49,29,43,159,49,0*59
$BDGSV,1,1,00,0*74

$GNRMC,170159.00,A,3128.000082,N,12117.838001,E,5.834,270.05,090815,,,A,V*0A
$GNGGA,170159.00,3128.000082,N,12117.838001,E,1,09,1.02,-9.5,M,9.5,M,,*5A
$GNGSA,A,3,06,15,16,18,21,22,24,26,29,,,,1.98,1.02,1.70,1*02
$GNGSA,A,3,,,,,,,,,,,,,1.98,1.02,1.70,4*01
$GPGSV,3,1,11,03,09,321,48,06,22,318,49,09,05,122,48,
15,38,057,49,0*61
$GPGSV,3,2,11,16,18,275,49,18,69,291,50,21,63,013,50,22,39,253,49,0*6C
$GPGSV,3,3,11,24,38,080,49,26,21,046,48,29,43,159,49,0*58
$BDGSV,1,1,00,0*74

$GNRMC,170200.00,A,3128.000083,N,12117.836106,E,5.834,270.04,090815,,,A,V*0D
$GNGGA,170200.00,3128.000083,N,12117.836106,E,1,09,1.02,-9.5,M,9.5,M,,*5C
$GNGSA,A,3,06,15,16,18,21,22,24,26,29,,,,1.98,1.02,1.70,1*02
$GNGSA,A,3,,,,,,,,,,,,,1.98,1.02,1.70,4*01
$GPGSV,3,1,11,03,09,321,48,06,22,318,49,09,05,122,48,
15,38,057,49,0*61
$GPGSV,3,2,11,16,18,275,49,18,69,291,50,21,63,013,50,22,39,253,49,0*6C
$GPGSV,3,3,11,24,38,080,49,26,21,046,48,29,43,159,49,0*58
$BDGSV,1,1,00,0*74

$GNRMC,170201.00,A,3128.000083,N,12117.834211,E,5.832,269.99,090815,,,A,V*01
$GNGGA,170201.00,3128.000083,N,12117.834211,E,1,09,1.02,-9.5,M,9.5,M,,*5A
$GNGSA,A,3,06,15,16,18,21,22,24,26,29,,,,1.98,1.02,1.70,1*02
$GNGSA,A,3,,,,,,,,,,,,,1.98,1.02,1.70,4*01
$GPGSV,3,1,11,03,09,321,48,06,22,318,49,09,05,122,48,
15,38,057,49,0*61
$GPGSV,3,2,11,16,18,275,49,18,69,291,50,21,63,013,50,22,39,253,49,0*6C
$GPGSV,3,3,11,24,38,080,49,26,21,046,48,29,43,159,49,0*58
$BDGSV,1,1,00,0*74

$GNRMC,170202.00,A,3128.000083,N,12117.832317,E,5.831,269.99,090815,,,A,V*00
$GNGGA,170202.00,3128.000083,N,12117.832317,E,1,09,1.02,-9.5,M,9.5,M,,*58
$GNGSA,A,3,06,15,16,18,21,22,24,26,29,,,,1.98,1.02,1.70,1*02
$GNGSA,A,3,,,,,,,,,,,,,1.98,1.02,1.70,4*01
$GPGSV,3,1,11,03,09,321,48,06,22,318,49,09,05,122,48,
15,38,057,49,0*61
$GPGSV,3,2,11,16,18,275,48,18,69,291,50,21,63,013,50,22,39,253,49,0*6D
$GPGSV,3,3,11,24,38,080,49,26,21,046,48,29,43,159,49,0*58
$BDGSV,1,1,00,0*74

$GNRMC,170203.00,A,3128.000084,N,12117.830423,E,5.833,270.00,090815,,,A,V*0E
$GNGGA,170203.00,3128.000084,N,12117.830423,E,1,09,1.02,-9.5,M,9.5,M,,*5C
$GNGSA,A,3,06,15,16,18,21,22,24,26,29,,,,1.98,1.02,1.70,1*02
$GNGSA,A,3,,,,,,,,,,,,,1.98,1.02,1.70,4*01
$GPGSV,3,1,11,03,09,321,48,06,22,318,49,09,05,122,48,
15,38,057,49,0*61
$GPGSV,3,2,11,16,18,275,48,18,69,291,50,21,63,013,50,22,39,253,49,0*6D
$GPGSV,3,3,11,24,38,080,49,26,21,046,49,29,43,159,49,0*59
$BDGSV,1,1,00,0*74

$GNRMC,170204.00,A,3128.000084,N,12117.828529,E,5.833,270.05,090815,,,A,V*0E
$GNGGA,170204.00,3128.000084,N,12117.828529,E,1,09,1.02,-9.5,M,9.5,M,,*59
$GNGSA,A,3,06,15,16,18,21,22,24,26,29,,,,1.98,1.02,1.70,1*02
$GNGSA,A,3,,,,,,,,,,,,,1.98,1.02,1.70,4*01
$GPGSV,3,1,11,03,09,321,48,06,22,318,48,09,05,122,48,
15,38,057,49,0*60
$GPGSV,3,2,11,16,18,275,48,18,69,291,50,21,63,013,50,22,39,253,49,0*6D
$GPGSV,3,3,11,24,38,080,49,26,21,046,49,29,43,159,49,0*59
$BDGSV,1,1,00,0*74

$GNRMC,170205.00,A,3128.000083,N,12117.826634,E,5.833,270.01,090815,,,A,V*0D
$GNGGA,170205.00,3128.000083,N,12117.826634,E,1,09,1.02,-9.5,M,9.5,M,,*5E
$GNGSA,A,3,06,15,16,18,21,22,24,26,29,,,,1.98,1.02,1.70,1*02
$GNGSA,A,3,,,,,,,,,,,,,1.98,1.02,1.70,4*01
$GPGSV,3,1,11,03,09,321,48,06,22,318,48,09,05,122,48,
15,38,057,49,0*60
$GPGSV,3,2,11,16,18,275,48,18,69,291,50,21,63,013,50,22,39,253,49,0*6D
$GPGSV,3,3,11,24,38,080,49,26,21,046,48,29,43,159,49,0*58
$BDGSV,1,1,00,0*74


GPS HPregnss> E1 15 00 00 00 00 07 53 8F 40 12 00 00 00 1C 3D DF 06 26 00 00 00 00 


$GNRMC,170206.00,A,3128.000083,N,12117.824738,E,5.833,269.96,090815,,,A,V*07
$GNGGA,170206.00,3128.000083,N,12117.824738,E,1,09,1.02,-9.5,M,9.5,M,,*52
$GNGSA,A,3,06,15,16,18,21,22,24,26,29,,,,1.98,1.02,1.70,1*02
$GNGSA,A,3,,,,,,,,,,,,,1.98,1.02,1.70,4*01
$GPGSV,3,1,11,03,09,321,48,06,22,318,48,09,05,122,48,
15,38,057,49,0*60
$GPGSV,3,2,11,16,18,275,48,18,69,291,50,21,63,013,50,22,39,253,49,0*6D
$GPGSV,3,3,11,24,38,080,49,26,21,046,49,29,43,159,49,0*59
$BDGSV,1,1,00,0*74

$GNRMC,170207.00,A,3128.000083,N,12117.822844,E,5.831,269.98,090815,,,A,V*08
$GNGGA,170207.00,3128.000083,N,12117.822844,E,1,09,1.02,-9.5,M,9.5,M,,*51
$GNGSA,A,3,06,15,16,18,21,22,24,26,29,,,,1.98,1.02,1.70,1*02
$GNGSA,A,3,,,,,,,,,,,,,1.98,1.02,1.70,4*01
$GPGSV,3,1,11,03,09,321,48,06,22,318,49,09,05,122,48,
15,38,057,49,0*61
$GPGSV,3,2,11,16,18,275,48,18,69,291,50,21,63,013,50,22,39,253,49,0*6D
$GPGSV,3,3,11,24,38,080,49,26,21,046,49,29,43,159,49,0*59
$BDGSV,1,1,00,0*74

<????sim??????(SIM??:1)>
<????GSM????????(GSM:0)>
<????GPRS????????(GPRS:0)>
<????????????(SIGNAL:0)>
<????????????????(BER:0)>

<??????????????>

$GNRMC,170208.00,A,3128.000083,N,12117.820949,E,5.833,270.02,090815,,,A,V*00
$GNGGA,170208.00,3128.000083,N,12117.820949,E,1,09,1.02,-9.5,M,9.5,M,,*50
$GNGSA,A,3,06,15,16,18,21,22,24,26,29,,,,1.98,1.02,1.70,1*02
$GNGSA,A,3,,,,,,,,,,,,,1.98,1.02,1.70,4*01
$GPGSV,3,1,11,03,09,321,48,06,22,318,49,09,05,122,48,
15,38,057,49,0*61
$GPGSV,3,2,11,16,18,275,49,18,69,291,50,21,63,013,50,22,39,253,49,0*6C
$GPGSV,3,3,11,24,38,080,49,26,21,046,49,29,43,159,49,0*59
$BDGSV,1,1,00,0*74

$GNRMC,170209.00,A,3128.000084,N,12117.819056,E,5.832,270.04,090815,,,A,V*0C
$GNGGA,170209.00,3128.000084,N,12117.819056,E,1,09,1.02,-9.5,M,9.5,M,,*5B
$GNGSA,A,3,06,15,16,18,21,22,24,26,29,,,,1.98,1.02,1.70,1*02
$GNGSA,A,3,,,,,,,,,,,,,1.98,1.02,1.70,4*01
$GPGSV,3,1,11,03,09,321,48,06,22,318,49,09,05,122,48,
15,38,057,49,0*61
$GPGSV,3,2,11,16,18,275,48,18,69,291,50,21,63,013,50,22,39,253,49,0*6D
$GPGSV,3,3,11,24,38,080,49,26,21,046,49,29,43,159,49,0*59
$BDGSV,1,1,00,0*74

$GNRMC,170210.00,A,3128.000086,N,12117.817161,E,5.832,270.02,090815,,,A,V*0B
$GNGGA,170210.00,3128.000086,N,12117.817161,E,1,09,1.02,-9.5,M,9.5,M,,*5A
$GNGSA,A,3,06,15,16,18,21,22,24,26,29,,,,1.98,1.02,1.70,1*02
$GNGSA,A,3,,,,,,,,,,,,,1.98,1.02,1.70,4*01
$GPGSV,3,1,11,03,09,321,48,06,22,318,49,09,05,122,48,
15,38,057,49,0*61
$GPGSV,3,2,11,16,18,275,49,18,69,291,50,21,63,013,50,22,39,253,49,0*6C
$GPGSV,3,3,11,24,38,080,49,26,21,046,48,29,43,159,49,0*58
$BDGSV,1,1,00,0*74

$GNRMC,170211.00,A,3128.000087,N,12117.815268,E,5.832,270.02,090815,,,A,V*03
$GNGGA,170211.00,3128.000087,N,12117.815268,E,1,09,1.02,-9.5,M,9.5,M,,*52
$GNGSA,A,3,06,15,16,18,21,22,24,26,29,,,,1.98,1.02,1.70,1*02
$GNGSA,A,3,,,,,,,,,,,,,1.98,1.02,1.70,4*01
$GPGSV,3,1,11,03,09,321,48,06,22,318,49,09,05,122,48,
15,38,057,49,0*61
$GPGSV,3,2,11,16,18,275,48,18,69,291,50,21,63,013,50,22,39,253,49,0*6D
$GPGSV,3,3,11,24,38,080,49,26,21,046,48,29,43,159,49,0*58
$BDGSV,1,1,00,0*74

$GNRMC,170212.00,A,3128.000088,N,12117.813374,E,5.834,270.00,090815,,,A,V*01
$GNGGA,170212.00,3128.000088,N,12117.813374,E,1,09,1.02,-9.5,M,9.5,M,,*54
$GNGSA,A,3,06,15,16,18,21,22,24,26,29,,,,1.98,1.02,1.70,1*02
$GNGSA,A,3,,,,,,,,,,,,,1.98,1.02,1.70,4*01
$GPGSV,3,1,11,03,09,321,48,06,22,318,49,09,05,122,48,
15,38,057,49,0*61
$GPGSV,3,2,11,16,18,275,48,18,69,291,50,21,63,013,50,22,39,253,49,0*6D
$GPGSV,3,3,11,24,38,080,49,26,21,046,49,29,43,159,49,0*59
$BDGSV,1,1,00,0*74

$GNRMC,170213.00,A,3128.000087,N,12117.811481,E,5.832,270.00,090815,,,A,V*06
$GNGGA,170213.00,3128.000087,N,12117.811481,E,1,09,1.02,-9.5,M,9.5,M,,*55
$GNGSA,A,3,06,15,16,18,21,22,24,26,29,,,,1.98,1.02,1.70,1*02
$GNGSA,A,3,,,,,,,,,,,,,1.98,1.02,1.70,4*01
$GPGSV,3,1,11,03,09,321,48,06,22,318,49,09,05,122,48,
15,38,057,49,0*61
$GPGSV,3,2,11,16,18,275,48,18,69,291,50,21,63,014,50,22,39,253,49,0*6A
$GPGSV,3,3,11,24,38,080,49,26,21,046,49,29,43,159,49,0*59
$BDGSV,1,1,00,0*74

$GNRMC,170214.00,A,3128.000086,N,12117.809272,E,6.805,270.00,090815,,,A,V*04
$GNGGA,170214.00,3128.000086,N,12117.809272,E,1,09,1.02,-9.5,M,9.5,M,,*50
$GNGSA,A,3,06,15,16,18,21,22,24,26,29,,,,1.98,1.02,1.70,1*02
$GNGSA,A,3,,,,,,,,,,,,,1.98,1.02,1.70,4*01
$GPGSV,3,1,11,03,09,321,48,06,22,318,48,09,05,122,48,
15,38,057,49,0*60
$GPGSV,3,2,11,16,18,275,48,18,69,291,50,21,63,014,50,22,39,253,49,0*6A
$GPGSV,3,3,11,24,38,080,49,26,21,046,48,29,43,159,49,0*58
$BDGSV,1,1,00,0*74

GPS HPregnss> E1 15 00 00 00 00 07 53 8F 40 44 00 00 00 1C 3D DA 9B D0 00 00 00 00 


$GNRMC,170215.00,A,3128.000086,N,12117.806748,E,7.773,270.02,090815,,,A,V*0B
$GNGGA,170215.00,3128.000086,N,12117.806748,E,1,09,1.02,-9.5,M,9.5,M,,*52
$GNGSA,A,3,06,15,16,18,21,22,24,26,29,,,,1.98,1.02,1.70,1*02
$GNGSA,A,3,,,,,,,,,,,,,1.98,1.02,1.70,4*01
$GPGSV,3,1,11,03,09,321,48,06,22,318,48,09,05,122,48,
15,38,057,49,0*60
$GPGSV,3,2,11,16,18,275,48,18,69,291,50,21,63,014,50,22,39,253,49,0*6A
$GPGSV,3,3,11,24,38,080,49,26,21,046,48,29,43,159,49,0*58
$BDGSV,1,1,00,0*74

$GNRMC,170216.00,A,3128.000086,N,12117.804223,E,7.776,269.96,090815,,,A,V*02
$GNGGA,170216.00,3128.000086,N,12117.804223,E,1,09,1.02,-9.5,M,9.5,M,,*5B
$GNGSA,A,3,06,15,16,18,21,22,24,26,29,,,,1.98,1.02,1.70,1*02
$GNGSA,A,3,,,,,,,,,,,,,1.98,1.02,1.70,4*01
$GPGSV,3,1,11,03,09,321,48,06,22,318,48,09,05,122,48,
15,38,057,49,0*60
$GPGSV,3,2,11,16,18,275,48,18,69,291,50,21,63,014,50,22,39,253,49,0*6A
$GPGSV,3,3,11,24,38,080,49,26,21,046,49,29,43,159,49,0*59
$BDGSV,1,1,00,0*74

$GNRMC,170217.00,A,3128.000087,N,12117.801697,E,7.777,269.98,090815,,,A,V*03
$GNGGA,170217.00,3128.000087,N,12117.801697,E,1,09,1.02,-9.5,M,9.5,M,,*55
$GNGSA,A,3,06,15,16,18,21,22,24,26,29,,,,1.98,1.02,1.70,1*02
$GNGSA,A,3,,,,,,,,,,,,,1.98,1.02,1.70,4*01
$GPGSV,3,1,11,03,09,321,48,06,22,318,49,09,05,122,48,
15,38,057,49,0*61
$GPGSV,3,2,11,16,18,275,48,18,69,291,50,21,63,014,50,22,39,253,49,0*6A
$GPGSV,3,3,11,24,38,080,49,26,21,046,49,29,42,159,49,0*58
$BDGSV,1,1,00,0*74

$GNRMC,170218.00,A,3128.000086,N,12117.799172,E,7.775,270.02,090815,,,A,V*06
$GNGGA,170218.00,3128.000086,N,12117.799172,E,1,09,1.02,-9.5,M,9.5,M,,*59
$GNGSA,A,3,06,15,16,18,21,22,24,26,29,,,,1.98,1.02,1.70,1*02
$GNGSA,A,3,,,,,,,,,,,,,1.98,1.02,1.70,4*01
$GPGSV,3,1,11,03,09,321,48,06,22,318,49,09,05,122,48,
15,38,057,49,0*61
$GPGSV,3,2,11,16,18,275,48,18,69,291,50,21,63,014,50,22,39,253,49,0*6A
$GPGSV,3,3,11,24,38,080,49,26,21,046,49,29,42,159,49,0*58
$BDGSV,1,1,00,0*74

<??????????????>

$GNRMC,170219.00,A,3128.000086,N,12117.796647,E,7.777,270.03,090815,,,A,V*0A
$GNGGA,170219.00,3128.000086,N,12117.796647,E,1,09,1.02,-9.5,M,9.5,M,,*56
$GNGSA,A,3,06,15,16,18,21,22,24,26,29,,,,1.98,1.02,1.70,1*02
$GNGSA,A,3,,,,,,,,,,,,,1.98,1.02,1.70,4*01
$GPGSV,3,1,11,03,09,321,48,06,22,318,48,09,05,122,48,
15,38,057,49,0*60
$GPGSV,3,2,11,16,18,275,48,18,69,291,50,21,63,014,50,22,39,253,49,0*6A
$GPGSV,3,3,11,24,38,080,49,26,21,046,49,29,42,159,49,0*58
$BDGSV,1,1,00,0*74

$GNRMC,170220.00,A,3128.000085,N,12117.794122,E,7.777,270.02,090815,,,A,V*04
$GNGGA,170220.00,3128.000085,N,12117.794122,E,1,09,1.02,-9.5,M,9.5,M,,*59
$GNGSA,A,3,06,15,16,18,21,22,24,26,29,,,,1.98,1.02,1.70,1*02
$GNGSA,A,3,,,,,,,,,,,,,1.98,1.02,1.70,4*01
$GPGSV,3,1,11,03,09,321,48,06,22,318,49,09,05,122,48,
15,38,057,49,0*61
$GPGSV,3,2,11,16,18,275,48,18,69,291,50,21,63,014,50,22,39,253,49,0*6A
$GPGSV,3,3,11,24,38,080,49,26,21,046,49,29,42,159,49,0*58
$BDGSV,1,1,00,0*74

$GNRMC,170221.00,A,3128.000085,N,12117.791598,E,7.776,270.00,090815,,,A,V*06
$GNGGA,170221.00,3128.000085,N,12117.791598,E,1,09,1.02,-9.5,M,9.5,M,,*58
$GNGSA,A,3,06,15,16,18,21,22,24,26,29,,,,1.98,1.02,1.70,1*02
$GNGSA,A,3,,,,,,,,,,,,,1.98,1.02,1.70,4*01
$GPGSV,3,1,11,03,09,321,48,06,22,318,49,09,05,122,48,
15,38,057,49,0*61
$GPGSV,3,2,11,16,18,275,49,18,69,291,50,21,63,014,50,22,39,253,49,0*6B
$GPGSV,3,3,11,24,38,080,49,26,21,046,49,29,42,159,49,0*58
$BDGSV,1,1,00,0*74

$GNRMC,170222.00,A,3128.000084,N,12117.789075,E,7.775,269.99,090815,,,A,V*00
$GNGGA,170222.00,3128.000084,N,12117.789075,E,1,09,1.02,-9.5,M,9.5,M,,*55
$GNGSA,A,3,06,15,16,18,21,22,24,26,29,,,,1.98,1.02,1.70,1*02
$GNGSA,A,3,,,,,,,,,,,,,1.98,1.02,1.70,4*01
$GPGSV,3,1,11,03,09,321,48,06,22,318,49,09,05,122,48,
15,38,057,49,0*61
$GPGSV,3,2,11,16,18,275,48,18,69,291,50,21,63,014,50,22,39,253,49,0*6A
$GPGSV,3,3,11,24,38,080,49,26,21,046,49,29,42,159,49,0*58
$BDGSV,1,1,00,0*74

$GNRMC,170223.00,A,3128.000083,N,12117.786550,E,7.776,269.99,090815,,,A,V*08
$GNGGA,170223.00,3128.000083,N,12117.786550,E,1,09,1.02,-9.5,M,9.5,M,,*5E
$GNGSA,A,3,06,15,16,18,21,22,24,26,29,,,,1.98,1.02,1.70,1*02
$GNGSA,A,3,,,,,,,,,,,,,1.98,1.02,1.70,4*01
$GPGSV,3,1,11,03,09,321,48,06,22,318,48,09,05,122,48,
15,38,057,49,0*60
$GPGSV,3,2,11,16,18,275,48,18,69,291,50,21,63,014,50,22,39,253,49,0*6A
$GPGSV,3,3,11,24,38,080,49,26,21,046,49,29,42,159,49,0*58
$BDGSV,1,1,00,0*74

$GNRMC,170224.00,A,3128.000082,N,12117.784025,E,7.775,270.00,090815,,,A,V*00
$GNGGA,170224.00,3128.000082,N,12117.784025,E,1,09,1.02,-9.5,M,9.5,M,,*5D
$GNGSA,A,3,06,15,16,18,21,22,24,26,29,,,,1.98,1.02,1.70,1*02
$GNGSA,A,3,,,,,,,,,,,,,1.98,1.02,1.70,4*01
$GPGSV,3,1,11,03,09,321,48,06,22,318,48,09,05,121,48,
15,38,057,49,0*63
$GPGSV,3,2,11,16,18,275,48,18,69,291,50,21,63,014,50,22,39,253,49,0*6A
$GPGSV,3,3,11,24,38,080,49,26,21,046,48,29,42,159,49,0*59
$BDGSV,1,1,00,0*74

$GNRMC,170225.00,A,3128.000083,N,12117.781499,E,7.778,270.05,090815,,,A,V*0E
$GNGGA,170225.00,3128.000083,N,12117.781499,E,1,09,1.02,-9.5,M,9.5,M,,*5B
$GNGSA,A,3,06,15,16,18,21,22,24,26,29,,,,1.98,1.02,1.70,1*02
$GNGSA,A,3,,,,,,,,,,,,,1.98,1.02,1.70,4*01
$GPGSV,3,1,11,03,09,321,48,06,22,318,48,09,05,121,48,
15,37,057,49,0*6C
$GPGSV,3,2,11,16,18,275,48,18,69,291,50,21,63,014,50,22,39,253,49,0*6A
$GPGSV,3,3,11,24,38,080,49,26,21,046,48,29,42,159,49,0*59
$BDGSV,1,1,00,0*74

$GNRMC,170226.00,A,3128.000084,N,12117.778974,E,7.775,269.97,090815,,,A,V*0C
$GNGGA,170226.00,3128.000084,N,12117.778974,E,1,09,1.02,-9.5,M,9.5,M,,*57
$GNGSA,A,3,06,15,16,18,21,22,24,26,29,,,,1.98,1.02,1.70,1*02
$GNGSA,A,3,,,,,,,,,,,,,1.98,1.02,1.70,4*01
$GPGSV,3,1,11,03,09,321,48,06,22,318,48,09,05,121,48,
15,37,057,49,0*6C
$GPGSV,3,2,11,16,18,275,48,18,69,291,50,21,63,014,50,22,39,253,49,0*6A
$GPGSV,3,3,11,24,38,080,49,26,21,046,48,29,42,159,49,0*59
$BDGSV,1,1,00,0*74

$GNRMC,170227.00,A,3128.000086,N,12117.776449,E,7.775,270.00,090815,,,A,V*04
$GNGGA,170227.00,3128.000086,N,12117.776449,E,1,09,1.02,-9.5,M,9.5,M,,*59
$GNGSA,A,3,06,15,16,18,21,22,24,26,29,,,,1.98,1.02,1.69,1*0A
$GNGSA,A,3,,,,,,,,,,,,,1.98,1.02,1.69,4*09
$GPGSV,3,1,11,03,09,321,48,06,22,318,49,09,05,121,48,
15,37,057,49,0*6D
$GPGSV,3,2,11,16,18,275,48,18,69,291,50,21,63,014,50,22,39,253,49,0*6A
$GPGSV,3,3,11,24,38,080,49,26,21,046,48,29,42,159,49,0*59
$BDGSV,1,1,00,0*74

$GNRMC,170228.00,A,3128.000085,N,12117.773922,E,7.777,270.00,090815,,,A,V*0F
$GNGGA,170228.00,3128.000085,N,12117.773922,E,1,09,1.01,-9.5,M,9.5,M,,*53
$GNGSA,A,3,06,15,16,18,21,22,24,26,29,,,,1.98,1.01,1.69,1*09
$GNGSA,A,3,,,,,,,,,,,,,1.98,1.01,1.69,4*0A
$GPGSV,3,1,11,03,09,321,48,06,22,318,49,09,05,121,48,
15,37,057,49,0*6D
$GPGSV,3,2,11,16,18,275,48,18,69,292,50,21,63,014,50,22,39,253,49,0*69
$GPGSV,3,3,11,24,38,080,49,26,21,046,48,29,42,159,49,0*59
$BDGSV,1,1,00,0*74

<????sim??????(SIM??:1)>
<????GSM????????(GSM:0)>
<????GPRS????????(GPRS:0)>
<????????????(SIGNAL:0)>
<????????????????(BER:0)>

<??????????????>

$GNRMC,170229.00,A,3128.000086,N,12117.771396,E,7.777,270.04,090815,,,A,V*0E
$GNGGA,170229.00,3128.000086,N,12117.771396,E,1,09,1.01,-9.5,M,9.5,M,,*56
$GNGSA,A,3,06,15,16,18,21,22,24,26,29,,,,1.98,1.01,1.69,1*09
$GNGSA,A,3,,,,,,,,,,,,,1.98,1.01,1.69,4*0A
$GPGSV,3,1,11,03,09,321,48,06,22,318,49,09,05,121,48,
15,37,057,49,0*6D
$GPGSV,3,2,11,16,18,275,48,18,69,292,50,21,63,014,50,22,39,253,49,0*69
$GPGSV,3,3,11,24,38,080,49,26,21,046,48,29,42,159,49,0*59
$BDGSV,1,1,00,0*74

$GNRMC,170230.00,A,3128.000087,N,12117.768871,E,7.779,270.04,090815,,,A,V*03
$GNGGA,170230.00,3128.000087,N,12117.768871,E,1,09,1.01,-9.5,M,9.5,M,,*55
$GNGSA,A,3,06,15,16,18,21,22,24,26,29,,,,1.98,1.01,1.69,1*09
$GNGSA,A,3,,,,,,,,,,,,,1.98,1.01,1.69,4*0A
$GPGSV,3,1,11,03,09,321,48,06,22,318,49,09,05,121,48,
15,37,057,49,0*6D
$GPGSV,3,2,11,16,18,275,48,18,69,292,50,21,63,014,50,22,39,253,49,0*69
$GPGSV,3,3,11,24,38,080,49,26,21,046,48,29,42,159,49,0*59
$BDGSV,1,1,00,0*74

$GNRMC,170231.00,A,3128.000086,N,12117.766347,E,7.774,269.98,090815,,,A,V*03
$GNGGA,170231.00,3128.000086,N,12117.766347,E,1,09,1.01,-9.5,M,9.5,M,,*55
$GNGSA,A,3,06,15,16,18,21,22,24,26,29,,,,1.97,1.01,1.69,1*06
$GNGSA,A,3,,,,,,,,,,,,,1.97,1.01,1.69,4*05
$GPGSV,3,1,11,03,09,321,48,06,22,318,48,09,05,121,48,
15,37,057,49,0*6C
$GPGSV,3,2,11,16,18,275,48,18,69,292,50,21,63,014,50,22,39,253,49,0*69
$GPGSV,3,3,11,24,38,080,49,26,21,046,48,29,42,159,49,0*59
$BDGSV,1,1,00,0*74

$GNRMC,170232.00,A,3128.000087,N,12117.763822,E,7.776,270.02,090815,,,A,V*05
$GNGGA,170232.00,3128.000087,N,12117.763822,E,1,09,1.01,-9.5,M,9.5,M,,*5A
$GNGSA,A,3,06,15,16,18,21,22,24,26,29,,,,1.97,1.01,1.69,1*06
$GNGSA,A,3,,,,,,,,,,,,,1.97,1.01,1.69,4*05
$GPGSV,3,1,11,03,09,321,48,06,22,318,48,09,05,121,48,
15,37,057,49,0*6C
$GPGSV,3,2,11,16,18,275,48,18,69,292,50,21,63,014,50,22,39,253,49,0*69
$GPGSV,3,3,11,24,38,080,49,26,21,046,48,29,42,159,49,0*59
$BDGSV,1,1,00,0*74

$GNRMC,170233.00,A,3128.000087,N,12117.761297,E,7.777,270.01,090815,,,A,V*00
$GNGGA,170233.00,3128.000087,N,12117.761297,E,1,09,1.01,-9.5,M,9.5,M,,*5D
$GNGSA,A,3,06,15,16,18,21,22,24,26,29,,,,1.97,1.01,1.69,1*06
$GNGSA,A,3,,,,,,,,,,,,,1.97,1.01,1.69,4*05
$GPGSV,3,1,11,03,09,321,48,06,22,318,48,09,05,121,48,
15,37,057,49,0*6C
$GPGSV,3,2,11,16,18,275,48,18,69,292,50,21,63,014,50,22,39,253,49,0*69
$GPGSV,3,3,11,24,38,080,49,26,21,046,48,29,42,159,49,0*59
$BDGSV,1,1,00,0*74

$GNRMC,170234.00,A,3128.000087,N,12117.758773,E,7.775,270.00,090815,,,A,V*01
$GNGGA,170234.00,3128.000087,N,12117.758773,E,1,09,1.01,-9.5,M,9.5,M,,*5F
$GNGSA,A,3,06,15,16,18,21,22,24,26,29,,,,1.97,1.01,1.69,1*06
$GNGSA,A,3,,,,,,,,,,,,,1.97,1.01,1.69,4*05
$GPGSV,3,1,11,03,09,321,48,06,22,318,48,09,05,121,48,
15,37,057,49,0*6C
$GPGSV,3,2,11,16,18,275,48,18,69,292,50,21,63,014,50,22,39,253,49,0*69
$GPGSV,3,3,11,24,38,080,49,26,21,046,48,29,42,159,49,0*59
$BDGSV,1,1,00,0*74

$GNRMC,170235.00,A,3128.000086,N,12117.756249,E,7.776,270.02,090815,,,A,V*02
$GNGGA,170235.00,3128.000086,N,12117.756249,E,1,09,1.01,-9.5,M,9.5,M,,*5D
$GNGSA,A,3,06,15,16,18,21,22,24,26,29,,,,1.97,1.01,1.69,1*06
$GNGSA,A,3,,,,,,,,,,,,,1.97,1.01,1.69,4*05
$GPGSV,3,1,11,03,09,321,48,06,22,318,48,09,05,121,48,
15,37,057,49,0*6C
$GPGSV,3,2,11,16,18,275,48,18,69,292,50,21,63,014,50,22,39,253,49,0*69
$GPGSV,3,3,11,24,38,080,49,26,21,046,48,29,42,159,49,0*59
$BDGSV,1,1,00,0*74

$GNRMC,170236.00,A,3128.000083,N,12117.753724,E,7.775,269.95,090815,,,A,V*0A
$GNGGA,170236.00,3128.000083,N,12117.753724,E,1,09,1.01,-9.5,M,9.5,M,,*50
$GNGSA,A,3,06,15,16,18,21,22,24,26,29,,,,1.97,1.01,1.69,1*06
$GNGSA,A,3,,,,,,,,,,,,,1.97,1.01,1.69,4*05
$GPGSV,3,1,11,03,09,321,48,06,22,318,49,09,05,121,48,
15,37,057,49,0*6D
$GPGSV,3,2,11,16,18,275,48,18,69,292,50,21,63,014,50,22,39,253,49,0*69
$GPGSV,3,3,11,24,38,080,49,26,21,046,48,29,42,159,49,0*59
$BDGSV,1,1,00,0*74


GPS HPregnss> E1 15 00 00 00 00 07 53 8F 40 12 00 00 00 1C 3D CC 7B 68 00 00 00 00 


$GNRMC,170237.00,A,3128.000083,N,12117.751200,E,7.774,269.99,090815,,,A,V*07
$GNGGA,170237.00,3128.000083,N,12117.751200,E,1,09,1.01,-9.5,M,9.5,M,,*50
$GNGSA,A,3,06,15,16,18,21,22,24,26,29,,,,1.97,1.01,1.69,1*06
$GNGSA,A,3,,,,,,,,,,,,,1.97,1.01,1.69,4*05
$GPGSV,3,1,11,03,09,321,48,06,22,318,49,09,05,121,48,
15,37,057,49,0*6D
$GPGSV,3,2,11,16,18,275,48,18,69,292,50,21,63,014,50,22,39,253,49,0*69
$GPGSV,3,3,11,24,38,080,49,26,21,046,48,29,42,159,49,0*59
$BDGSV,1,1,00,0*74

$GNRMC,170238.00,A,3128.000083,N,12117.748674,E,7.778,270.03,090815,,,A,V*00
$GNGGA,170238.00,3128.000083,N,12117.748674,E,1,09,1.01,-9.5,M,9.5,M,,*50
$GNGSA,A,3,06,15,16,18,21,22,24,26,29,,,,1.97,1.01,1.69,1*06
$GNGSA,A,3,,,,,,,,,,,,,1.97,1.01,1.69,4*05
$GPGSV,3,1,11,03,09,321,48,06,22,318,49,09,05,121,48,
15,37,057,49,0*6D
$GPGSV,3,2,11,16,18,275,48,18,69,292,50,21,63,014,50,22,39,253,49,0*69
$GPGSV,3,3,11,24,38,080,49,26,21,046,49,29,42,159,49,0*58
$BDGSV,1,1,00,0*74

<??????????????>

$GNRMC,170239.00,A,3128.000081,N,12117.746149,E,7.777,270.03,090815,,,A,V*0B
$GNGGA,170239.00,3128.000081,N,12117.746149,E,1,09,1.01,-9.5,M,9.5,M,,*54
$GNGSA,A,3,06,15,16,18,21,22,24,26,29,,,,1.97,1.01,1.69,1*06
$GNGSA,A,3,,,,,,,,,,,,,1.97,1.01,1.69,4*05
$GPGSV,3,1,11,03,09,321,48,06,22,318,49,09,05,121,48,
15,37,057,49,0*6D
$GPGSV,3,2,11,16,18,275,48,18,69,292,50,21,63,014,50,22,39,253,49,0*69
$GPGSV,3,3,11,24,38,080,49,26,21,046,48,29,42,159,49,0*59
$BDGSV,1,1,00,0*74

$GNRMC,170240.00,A,3128.000081,N,12117.743624,E,7.776,270.02,090815,,,A,V*0C
$GNGGA,170240.00,3128.000081,N,12117.743624,E,1,09,1.01,-9.5,M,9.5,M,,*53
$GNGSA,A,3,06,15,16,18,21,22,24,26,29,,,,1.97,1.01,1.69,1*06
$GNGSA,A,3,,,,,,,,,,,,,1.97,1.01,1.69,4*05
$GPGSV,3,1,11,03,10,321,48,06,22,318,49,09,05,121,48,
15,37,057,49,0*65
$GPGSV,3,2,11,16,18,275,48,18,69,292,50,21,63,014,50,22,39,253,49,0*69
$GPGSV,3,3,11,24,38,080,49,26,21,046,49,29,42,159,49,0*58
$BDGSV,1,1,00,0*74

$GNRMC,170241.00,A,3128.000079,N,12117.741099,E,7.775,269.99,090815,,,A,V*01
$GNGGA,170241.00,3128.000079,N,12117.741099,E,1,09,1.01,-9.5,M,9.5,M,,*57
$GNGSA,A,3,06,15,16,18,21,22,24,26,29,,,,1.97,1.01,1.69,1*06
$GNGSA,A,3,,,,,,,,,,,,,1.97,1.01,1.69,4*05
$GPGSV,3,1,11,03,10,321,48,06,22,317,49,09,05,121,48,
15,37,057,49,0*6A
$GPGSV,3,2,11,16,18,275,48,18,69,292,50,21,63,014,50,22,39,253,49,0*69
$GPGSV,3,3,11,24,38,080,49,26,21,046,48,29,42,159,49,0*59
$BDGSV,1,1,00,0*74

$GNRMC,170242.00,A,3128.000078,N,12117.738574,E,7.777,270.01,090815,,,A,V*00
$GNGGA,170242.00,3128.000078,N,12117.738574,E,1,09,1.01,-9.5,M,9.5,M,,*5D
$GNGSA,A,3,06,15,16,18,21,22,24,26,29,,,,1.97,1.01,1.69,1*06
$GNGSA,A,3,,,,,,,,,,,,,1.97,1.01,1.69,4*05
$GPGSV,3,1,11,03,10,321,48,06,22,317,48,09,05,121,48,
15,37,057,49,0*6B
$GPGSV,3,2,11,16,18,275,48,18,69,292,50,21,63,014,50,22,39,253,49,0*69
$GPGSV,3,3,11,24,38,080,49,26,21,046,48,29,42,159,49,0*59
$BDGSV,1,1,00,0*74

$GNRMC,170243.00,A,3128.000077,N,12117.736048,E,7.776,270.02,090815,,,A,V*08
$GNGGA,170243.00,3128.000077,N,12117.736048,E,1,09,1.01,-9.5,M,9.5,M,,*57
$GNGSA,A,3,06,15,16,18,21,22,24,26,29,,,,1.97,1.01,1.69,1*06
$GNGSA,A,3,,,,,,,,,,,,,1.97,1.01,1.69,4*05
$GPGSV,3,1,11,03,10,321,48,06,22,317,48,09,05,121,48,
15,37,057,49,0*6B
$GPGSV,3,2,11,16,18,275,48,18,69,292,50,21,63,014,50,22,39,253,49,0*69
$GPGSV,3,3,11,24,38,080,49,26,21,046,48,29,42,159,49,0*59
$BDGSV,1,1,00,0*74

$GNRMC,170244.00,A,3128.000076,N,12117.733523,E,7.777,270.01,090815,,,A,V*01
$GNGGA,170244.00,3128.000076,N,12117.733523,E,1,09,1.01,-9.5,M,9.5,M,,*5C
$GNGSA,A,3,06,15,16,18,21,22,24,26,29,,,,1.97,1.01,1.69,1*06
$GNGSA,A,3,,,,,,,,,,,,,1.97,1.01,1.69,4*05
$GPGSV,3,1,11,03,10,321,48,06,22,317,48,09,05,121,48,
15,37,057,49,0*6B
$GPGSV,3,2,11,16,18,274,48,18,69,292,50,21,63,014,50,22,39,253,49,0*68
$GPGSV,3,3,11,24,38,080,49,26,21,046,48,29,42,159,49,0*59
$BDGSV,1,1,00,0*74

$GNRMC,170245.00,A,3128.000074,N,12117.730998,E,7.776,270.00,090815,,,A,V*0D
$GNGGA,170245.00,3128.000074,N,12117.730998,E,1,09,1.01,-9.5,M,9.5,M,,*50
$GNGSA,A,3,06,15,16,18,21,22,24,26,29,,,,1.97,1.01,1.69,1*06
$GNGSA,A,3,,,,,,,,,,,,,1.97,1.01,1.69,4*05
$GPGSV,3,1,11,03,10,321,48,06,22,317,48,09,05,121,48,
15,37,057,49,0*6B
$GPGSV,3,2,11,16,18,274,48,18,69,292,50,21,63,014,50,22,39,253,49,0*68
$GPGSV,3,3,11,24,38,080,49,26,21,046,48,29,42,159,49,0*59
$BDGSV,1,1,00,0*74

$GNRMC,170246.00,A,3128.000072,N,12117.728474,E,7.773,269.98,090815,,,A,V*02
$GNGGA,170246.00,3128.000072,N,12117.728474,E,1,09,1.01,-9.5,M,9.5,M,,*53
$GNGSA,A,3,06,15,16,18,21,22,24,26,29,,,,1.97,1.01,1.69,1*06
$GNGSA,A,3,,,,,,,,,,,,,1.97,1.01,1.69,4*05
$GPGSV,3,1,11,03,10,321,48,06,22,317,48,09,05,121,48,
15,37,057,49,0*6B
$GPGSV,3,2,11,16,18,274,48,18,69,292,50,21,63,014,50,22,39,253,49,0*68
$GPGSV,3,3,11,24,38,080,49,26,21,046,48,29,42,159,49,0*59
$BDGSV,1,1,00,0*74

$GNRMC,170247.00,A,3128.000071,N,12117.725950,E,7.776,269.98,090815,,,A,V*03
$GNGGA,170247.00,3128.000071,N,12117.725950,E,1,09,1.01,-9.5,M,9.5,M,,*57
$GNGSA,A,3,06,15,16,18,21,22,24,26,29,,,,1.97,1.01,1.69,1*06
$GNGSA,A,3,,,,,,,,,,,,,1.97,1.01,1.69,4*05
$GPGSV,3,1,11,03,10,321,48,06,22,317,48,09,05,121,48,
15,37,057,49,0*6B
$GPGSV,3,2,11,16,18,274,48,18,69,292,50,21,63,014,50,22,39,253,49,0*68
$GPGSV,3,3,11,24,38,080,49,26,21,046,48,29,42,159,49,0*59
$BDGSV,1,1,00,0*74

$GNRMC,170248.00,A,3128.000069,N,12117.723425,E,7.777,269.99,090815,,,A,V*0C
$GNGGA,170248.00,3128.000069,N,12117.723425,E,1,09,1.01,-9.5,M,9.5,M,,*58
$GNGSA,A,3,06,15,16,18,21,22,24,26,29,,,,1.97,1.01,1.69,1*06
$GNGSA,A,3,,,,,,,,,,,,,1.97,1.01,1.69,4*05
$GPGSV,3,1,11,03,10,321,48,06,22,317,48,09,05,121,48,
15,37,057,49,0*6B
$GPGSV,3,2,11,16,18,274,48,18,69,292,50,21,63,014,50,22,39,253,49,0*68
$GPGSV,3,3,11,24,38,080,49,26,21,046,48,29,42,159,49,0*59
$BDGSV,1,1,00,0*74

<????sim??????(SIM??:1)>
<????GSM????????(GSM:0)>
<????GPRS????????(GPRS:0)>
<????????????(SIGNAL:0)>
<????????????????(BER:0)>

<??????????????>

$GNRMC,170249.00,A,3128.000068,N,12117.720901,E,7.775,270.02,090815,,,A,V*0C
$GNGGA,170249.00,3128.000068,N,12117.720901,E,1,09,1.01,-9.5,M,9.5,M,,*50
$GNGSA,A,3,06,15,16,18,21,22,24,26,29,,,,1.97,1.01,1.69,1*06
$GNGSA,A,3,,,,,,,,,,,,,1.97,1.01,1.69,4*05
$GPGSV,3,1,11,03,10,321,48,06,22,317,48,09,05,121,48,
15,37,057,49,0*6B
$GPGSV,3,2,11,16,18,274,48,18,69,292,50,21,63,014,50,22,39,253,49,0*68
$GPGSV,3,3,11,24,38,080,49,26,21,046,48,29,42,159,49,0*59
$BDGSV,1,1,00,0*74

$GNRMC,170250.00,A,3128.000068,N,12117.718376,E,7.777,270.02,090815,,,A,V*07
$GNGGA,170250.00,3128.000068,N,12117.718376,E,1,09,1.01,-9.5,M,9.5,M,,*59
$GNGSA,A,3,06,15,16,18,21,22,24,26,29,,,,1.97,1.01,1.69,1*06
$GNGSA,A,3,,,,,,,,,,,,,1.97,1.01,1.69,4*05
$GPGSV,3,1,11,03,10,321,48,06,22,317,49,09,05,121,48,
15,37,057,49,0*6A
$GPGSV,3,2,11,16,18,274,48,18,69,292,50,21,63,014,50,22,39,253,49,0*68
$GPGSV,3,3,11,24,38,080,49,26,21,046,48,29,42,159,49,0*59
$BDGSV,1,1,00,0*74

$GNRMC,170251.00,A,3128.000068,N,12117.715852,E,7.776,270.02,090815,,,A,V*07
$GNGGA,170251.00,3128.000068,N,12117.715852,E,1,09,1.01,-9.5,M,9.5,M,,*58
$GNGSA,A,3,06,15,16,18,21,22,24,26,29,,,,1.97,1.01,1.69,1*06
$GNGSA,A,3,,,,,,,,,,,,,1.97,1.01,1.69,4*05
$GPGSV,3,1,11,03,10,321,48,06,22,317,49,09,05,121,48,
15,37,057,49,0*6A
$GPGSV,3,2,11,16,18,274,48,18,69,292,50,21,63,014,50,22,39,253,49,0*68
$GPGSV,3,3,11,24,37,080,49,26,21,046,48,29,42,159,49,0*56
$BDGSV,1,1,00,0*74

$GNRMC,170252.00,A,3128.000068,N,12117.713326,E,7.776,269.99,090815,,,A,V*00
$GNGGA,170252.00,3128.000068,N,12117.713326,E,1,09,1.01,-9.5,M,9.5,M,,*55
$GNGSA,A,3,06,15,16,18,21,22,24,26,29,,,,1.97,1.01,1.69,1*06
$GNGSA,A,3,,,,,,,,,,,,,1.97,1.01,1.69,4*05
$GPGSV,3,1,11,03,10,321,48,06,22,317,49,09,05,121,48,
15,37,057,49,0*6A
$GPGSV,3,2,11,16,18,274,48,18,69,292,50,21,63,014,50,22,39,253,49,0*68
$GPGSV,3,3,11,24,37,080,49,26,21,046,49,29,42,159,49,0*57
$BDGSV,1,1,00,0*74

$GNRMC,170253.00,A,3128.000067,N,12117.710800,E,7.775,270.00,090815,,,A,V*09
$GNGGA,170253.00,3128.000067,N,12117.710800,E,1,09,1.01,-9.5,M,9.5,M,,*57
$GNGSA,A,3,06,15,16,18,21,22,24,26,29,,,,1.97,1.01,1.69,1*06
$GNGSA,A,3,,,,,,,,,,,,,1.97,1.01,1.69,4*05
$GPGSV,3,1,11,03,10,321,48,06,22,317,48,09,05,121,48,
15,37,057,49,0*6B
$GPGSV,3,2,11,16,18,274,48,18,69,292,50,21,63,014,50,22,39,253,49,0*68
$GPGSV,3,3,11,24,37,080,49,26,21,046,48,29,42,159,49,0*56
$BDGSV,1,1,00,0*74

$GNRMC,170254.00,A,3128.000065,N,12117.708275,E,7.777,270.01,090815,,,A,V*0E
$GNGGA,170254.00,3128.000065,N,12117.708275,E,1,09,1.01,-9.5,M,9.5,M,,*53
$GNGSA,A,3,06,15,16,18,21,22,24,26,29,,,,1.97,1.01,1.69,1*06
$GNGSA,A,3,,,,,,,,,,,,,1.97,1.01,1.69,4*05
$GPGSV,3,1,11,03,10,321,48,06,22,317,49,09,05,121,48,
15,37,057,49,0*6A
$GPGSV,3,2,11,16,18,274,48,18,69,292,50,21,63,014,50,22,39,253,49,0*68
$GPGSV,3,3,11,24,37,080,49,26,21,046,48,29,42,159,49,0*56
$BDGSV,1,1,00,0*74

