$GNGNS,,,,,,NNN,,,,,,*1D
$GPVTG,,T,,M,,N,,K,N*2C
$GPRMC,,V,,,,,,,,,,N*53
$GPGSA,A,1,,,,,,,,,,,,,,,,*32
$GNGSA,A,1,,,,,,,,,,,,,,,,*2C
$GLGSV,1,1,02,,,,42,,,,42*67
$GPGGA,,,,,,0,,,,,,,,*66
$GNGNS,,,,,,NNN,,,,,,*1D
$GPVTG,,T,,M,,N,,K,N*2C
$GPRMC,,V,,,,,,,,,,N*53
$GPGSA,A,1,,,,,,,,,,,,,,,,*32
$GNGSA,A,1,,,,,,,,,,,,,,,,*2C
$GLGSV,1,1,02,,,,42,,,,42*67
$GPGGA,,,,,,0,,,,,,,,*66
$GNGNS,,,,,,NNN,,,,,,*1D
$GPVTG,,T,,M,,N,,K,N*2C
$GPRMC,,V,,,,,,,,,,N*53
$GPGSA,A,1,,,,,,,,,,,,,,,,*32
$GNGSA,A,1,,,,,,,,,,,,,,,,*2C
$GLGSV,1,1,02,,,,42,,,,42*67
$GPGGA,,,,,,0,,,,,,,,*66
$GNGNS,,,,,,NNN,,,,,,*1D
$GPVTG,,T,,M,,N,,K,N*2C
$GPRMC,,V,,,,,,,,,,N*53
$GPGSA,A,1,,,,,,,,,,,,,,,,*32
$GNGSA,A,1,,,,,,,,,,,,,,,,*2C
$GLGSV,1,1,02,,,,42,,,,42*67
$GPGGA,,,,,,0,,,,,,,,*66
$GNGNS,,,,,,NNN,,,,,,*1D
$GPVTG,,T,,M,,N,,K,N*2C
$GPRMC,,V,,,,,,,,,,N*53
$GPGSA,A,1,,,,,,,,,,,,,,,,*32
$GNGSA,A,1,,,,,,,,,,,,,,,,*2C
$GLGSV,1,1,03,,,,42,,,,40,,,,42*62
$GPGGA,,,,,,0,,,,,,,,*66
$GNGNS,,,,,,NNN,,,,,,*1D
$GPVTG,,T,,M,,N,,K,N*2C
$GPRMC,,V,,,,,,,,,,N*53
$GPGSA,A,1,,,,,,,,,,,,,,,,*32
$GNGSA,A,1,,,,,,,,,,,,,,,,*2C
$GLGSV,1,1,03,,,,42,,,,42,,,,42*60
$GPGGA,,,,,,0,,,,,,,,*66
$GNGNS,,,,,,NNN,,,,,,*1D
$GPVTG,,T,,M,,N,,K,N*2C
$GPRMC,,V,,,,,,,,,,N*53
$GPGSA,A,1,,,,,,,,,,,,,,,,*32
$GNGSA,A,1,,,,,,,,,,,,,,,,*2C
$GLGSV,1,1,03,,,,42,,,,42,,,,42*60
$GPGGA,,,,,,0,,,,,,,,*66
$GNGNS,,,,,,NNN,,,,,,*1D
$GPVTG,,T,,M,,N,,K,N*2C
$GPRMC,,V,,,,,,,,,,N*53
$GPGSA,A,1,,,,,,,,,,,,,,,,*32
$GNGSA,A,1,,,,,,,,,,,,,,,,*2C
$GLGSV,1,1,03,86,,,42,,,,42,87,,,42*61
$GPGGA,,,,,,0,,,,,,,,*66
$GNGNS,,,,,,NNN,,,,,,*1D
$GPVTG,,T,,M,,N,,K,N*2C
$GPRMC,,V,,,,,,,,,,N*53
$GPGSA,A,1,,,,,,,,,,,,,,,,*32
$GNGSA,A,1,,,,,,,,,,,,,,,,*2C
$GLGSV,1,1,03,86,,,42,,,,41,87,,,42*62
$GPGGA,,,,,,0,,,,,,,,*66
$GNGNS,,,,,,NNN,,,,,,*1D
$GPVTG,,T,,M,,N,,K,N*2C
$GPRMC,,V,,,,,,,,,,N*53
$GPGSA,A,1,,,,,,,,,,,,,,,,*32
$GNGSA,A,1,,,,,,,,,,,,,,,,*2C
$GLGSV,1,1,03,86,,,42,,,,42,87,,,42*61
$GPGGA,,,,,,0,,,,,,,,*66
$GNGNS,,,,,,NNN,,,,,,*1D
$GPVTG,,T,,M,,N,,K,N*2C
$GPRMC,,V,,,,,,,,,,N*53
$GPGSA,A,1,,,,,,,,,,,,,,,,*32
$GNGSA,A,1,,,,,,,,,,,,,,,,*2C
$GLGSV,1,1,03,86,,,42,,,,42,87,,,42*61
$GPGGA,,,,,,0,,,,,,,,*66
$GNGNS,,,,,,NNN,,,,,,*1D
$GPVTG,,T,,M,,N,,K,N*2C
$GPRMC,,V,,,,,,,,,,N*53
$GPGSA,A,1,,,,,,,,,,,,,,,,*32
$GNGSA,A,1,,,,,,,,,,,,,,,,*2C
$GLGSV,1,1,03,86,,,42,,,,42,87,,,42*61
$GPGGA,,,,,,0,,,,,,,,*66
$GNGNS,,,,,,NNN,,,,,,*1D
$GPVTG,,T,,M,,N,,K,N*2C
$GPRMC,,V,,,,,,,,,,N*53
$GPGSA,A,1,,,,,,,,,,,,,,,,*32
$GNGSA,A,1,,,,,,,,,,,,,,,,*2C
$GLGSV,1,1,03,86,,,42,,,,42,87,,,42*61
$GPGGA,,,,,,0,,,,,,,,*66
$GNGNS,,,,,,NNN,,,,,,*1D
$GPVTG,,T,,M,,N,,K,N*2C
$GPRMC,,V,,,,,,,,,,N*53
$GPGSA,A,1,,,,,,,,,,,,,,,,*32
$GNGSA,A,1,,,,,,,,,,,,,,,,*2C
$GLGSV,1,1,03,86,,,42,,,,42,87,,,42*61
$GPGGA,,,,,,0,,,,,,,,*66
$GNGNS,,,,,,NNN,,,,,,*1D
$GPVTG,,T,,M,,N,,K,N*2C
$GPRMC,,V,,,,,,,,,,N*53
$GPGSA,A,1,,,,,,,,,,,,,,,,*32
$GNGSA,A,1,,,,,,,,,,,,,,,,*2C
$GLGSV,1,1,03,86,,,42,,,,42,87,,,42*61
$GPGGA,,,,,,0,,,,,,,,*66
$GNGNS,,,,,,NNN,,,,,,*1D
$GPVTG,,T,,M,,N,,K,N*2C
$GPRMC,,V,,,,,,,,,,N*53
$GPGSA,A,1,,,,,,,,,,,,,,,,*32
$GNGSA,A,1,,,,,,,,,,,,,,,,*2C
$GLGSV,1,1,03,86,,,42,,,,42,87,,,42*61
$GPGGA,,,,,,0,,,,,,,,*66
$GNGNS,,,,,,NNN,,,,,,*1D
$GPVTG,,T,,M,,N,,K,N*2C
$GPRMC,,V,,,,,,,,,,N*53
$GPGSA,A,1,,,,,,,,,,,,,,,,*32
$GNGSA,A,1,,,,,,,,,,,,,,,,*2C
$GLGSV,1,1,04,86,,,42,,,,42,,,,40,87,,,42*62
$GPGGA,,,,,,0,,,,,,,,*66
$GNGNS,,,,,,NNN,,,,,,*1D
$GPVTG,,T,,M,,N,,K,N*2C
$GPRMC,,V,,,,,,,,,,N*53
$GPGSA,A,1,,,,,,,,,,,,,,,,*32
$GNGSA,A,1,,,,,,,,,,,,,,,,*2C
$GLGSV,1,1,04,86,,,42,,,,42,,,,42,87,,,42*60
$GPGGA,,,,,,0,,,,,,,,*66
$GNGNS,,,,,,NNN,,,,,,*1D
$GPVTG,,T,,M,,N,,K,N*2C
$GPRMC,,V,,,,,,,,,,N*53
$GPGSA,A,1,,,,,,,,,,,,,,,,*32
$GNGSA,A,1,,,,,,,,,,,,,,,,*2C
$GLGSV,1,1,04,86,,,42,,,,42,,,,40,87,,,42*62
$GPGGA,,,,,,0,,,,,,,,*66
$GNGNS,,,,,,NNN,,,,,,*1D
$GPVTG,,T,,M,,N,,K,N*2C
$GPRMC,,V,,,,,,,,,,N*53
$GPGSA,A,1,,,,,,,,,,,,,,,,*32
$GNGSA,A,1,,,,,,,,,,,,,,,,*2C
$GLGSV,1,1,04,86,,,42,,,,42,,,,42,87,,,42*60
$GPGGA,,,,,,0,,,,,,,,*66
$GNGNS,,,,,,NNN,,,,,,*1D
$GPVTG,,T,,M,,N,,K,N*2C
$GPRMC,,V,,,,,,,,,,N*53
$GPGSA,A,1,,,,,,,,,,,,,,,,*32
$GNGSA,A,1,,,,,,,,,,,,,,,,*2C
$GLGSV,1,1,04,86,,,42,,,,42,,,,41,87,,,42*63
$GPGGA,,,,,,0,,,,,,,,*66
$GNGNS,,,,,,NNN,,,,,,*1D
$GPVTG,,T,,M,,N,,K,N*2C
$GPRMC,,V,,,,,,,,,,N*53
$GPGSA,A,1,,,,,,,,,,,,,,,,*32
$GNGSA,A,1,,,,,,,,,,,,,,,,*2C
$GLGSV,1,1,04,86,,,42,,,,42,,,,42,87,,,42*60
$GPGGA,,,,,,0,,,,,,,,*66
$GNGNS,,,,,,NNN,,,,,,*1D
$GPVTG,,T,,M,,N,,K,N*2C
$GPRMC,,V,,,,,,,,,,N*53
$GPGSA,A,1,,,,,,,,,,,,,,,,*32
$GNGSA,A,1,,,,,,,,,,,,,,,,*2C
$GLGSV,1,1,04,86,,,42,,,,42,,,,41,87,,,42*63
$GPGGA,,,,,,0,,,,,,,,*66
$GNGNS,,,,,,NNN,,,,,,*1D
$GPVTG,,T,,M,,N,,K,N*2C
$GPRMC,,V,,,,,,,,,,N*53
$GPGSA,A,1,,,,,,,,,,,,,,,,*32
$GNGSA,A,1,,,,,,,,,,,,,,,,*2C
$GLGSV,1,1,04,86,,,42,,,,42,,,,42,87,,,42*60
$GPGGA,,,,,,0,,,,,,,,*66
$GNGNS,,,,,,NNN,,,,,,*1D
$GPVTG,,T,,M,,N,,K,N*2C
$GPRMC,,V,,,,,,,,,,N*53
$GPGSA,A,1,,,,,,,,,,,,,,,,*32
$GNGSA,A,1,,,,,,,,,,,,,,,,*2C
$GLGSV,1,1,04,86,,,42,,,,42,,,,42,87,,,42*60
$GPGGA,,,,,,0,,,,,,,,*66
$GNGNS,,,,,,NNN,,,,,,*1D
$GPVTG,,T,,M,,N,,K,N*2C
$GPRMC,,V,,,,,,,,,,N*53
$GPGSA,A,1,,,,,,,,,,,,,,,,*32
$GNGSA,A,1,,,,,,,,,,,,,,,,*2C
$GLGSV,1,1,04,86,,,42,,,,42,,,,42,87,,,42*60
$GPGGA,,,,,,0,,,,,,,,*66
$GNGNS,,,,,,NNN,,,,,,*1D
$GPVTG,,T,,M,,N,,K,N*2C
$GPRMC,,V,,,,,,,,,,N*53
$GPGSA,A,1,,,,,,,,,,,,,,,,*32
$GNGSA,A,1,,,,,,,,,,,,,,,,*2C
$GLGSV,1,1,04,86,,,42,,,,42,,,,42,87,,,42*60
$GPGGA,,,,,,0,,,,,,,,*66
$GNGNS,,,,,,NNN,,,,,,*1D
$GPVTG,,T,,M,,N,,K,N*2C
$GPRMC,,V,,,,,,,,,,N*53
$GPGSA,A,1,,,,,,,,,,,,,,,,*32
$GNGSA,A,1,,,,,,,,,,,,,,,,*2C
$GLGSV,1,1,04,86,,,42,,,,42,,,,42,87,,,42*60
$GPGGA,,,,,,0,,,,,,,,*66
$GNGNS,,,,,,NNN,,,,,,*1D
$GPVTG,,T,,M,,N,,K,N*2C
$GPRMC,,V,,,,,,,,,,N*53
$GPGSA,A,1,,,,,,,,,,,,,,,,*32
$GNGSA,A,1,,,,,,,,,,,,,,,,*2C
$GLGSV,1,1,04,86,,,42,,,,42,,,,42,87,,,42*60
$GPGGA,,,,,,0,,,,,,,,*66
$GNGNS,,,,,,NNN,,,,,,*1D
$GPVTG,,T,,M,,N,,K,N*2C
$GPRMC,,V,,,,,,,,,,N*53
$GPGSA,A,1,,,,,,,,,,,,,,,,*32
$GNGSA,A,1,,,,,,,,,,,,,,,,*2C
$GLGSV,1,1,04,86,,,42,,,,42,,,,42,87,,,42*60
$GPGGA,,,,,,0,,,,,,,,*66
$GNGNS,,,,,,NNN,,,,,,*1D
$GPVTG,,T,,M,,N,,K,N*2C
$GPRMC,,V,,,,,,,,,,N*53
$GPGSA,A,1,,,,,,,,,,,,,,,,*32
$GNGSA,A,1,,,,,,,,,,,,,,,,*2C
$GLGSV,1,1,04,86,,,42,,,,42,,,,42,87,,,42*60
$GPGGA,,,,,,0,,,,,,,,*66
$GNGNS,,,,,,NNN,,,,,,*1D
$GPVTG,,T,,M,,N,,K,N*2C
$GPRMC,,V,,,,,,,,,,N*53
$GPGSA,A,1,,,,,,,,,,,,,,,,*32
$GNGSA,A,1,,,,,,,,,,,,,,,,*2C
$GLGSV,1,1,04,86,,,42,,,,42,,,,42,87,,,42*60
$GPGGA,,,,,,0,,,,,,,,*66
$GNGNS,,,,,,NNN,,,,,,*1D
$GPVTG,,T,,M,,N,,K,N*2C
$GPRMC,,V,,,,,,,,,,N*53
$GPGSA,A,1,,,,,,,,,,,,,,,,*32
$GNGSA,A,1,,,,,,,,,,,,,,,,*2C
$GLGSV,1,1,04,86,,,42,,,,42,,,,42,87,,,42*60
$GPGGA,,,,,,0,,,,,,,,*66
$GNGNS,,,,,,NNN,,,,,,*1D
$GPVTG,,T,,M,,N,,K,N*2C
$GPRMC,,V,,,,,,,,,,N*53
$GPGSA,A,1,,,,,,,,,,,,,,,,*32
$GNGSA,A,1,,,,,,,,,,,,,,,,*2C
$GLGSV,1,1,04,86,,,42,,,,42,,,,42,87,,,42*60
$GPGGA,,,,,,0,,,,,,,,*66
$GNGNS,,,,,,NNN,,,,,,*1D
$GPVTG,,T,,M,,N,,K,N*2C
$GPRMC,,V,,,,,,,,,,N*53
$GPGSA,A,1,,,,,,,,,,,,,,,,*32
$GNGSA,A,1,,,,,,,,,,,,,,,,*2C
$GLGSV,1,1,04,86,,,42,,,,42,,,,42,87,,,42*60
$GPGGA,,,,,,0,,,,,,,,*66
$GNGNS,,,,,,NNN,,,,,,*1D
$GPVTG,,T,,M,,N,,K,N*2C
$GPRMC,,V,,,,,,,,,,N*53
$GPGSA,A,1,,,,,,,,,,,,,,,,*32
$GNGSA,A,1,,,,,,,,,,,,,,,,*2C
$GLGSV,1,1,04,86,,,42,75,,,42,88,,,42,87,,,42*62
$GPGGA,,,,,,0,,,,,,,,*66
$GNGNS,,,,,,NNN,,,,,,*1D
$GPVTG,,T,,M,,N,,K,N*2C
$GPRMC,,V,,,,,,,,,,N*53
$GPGSA,A,1,,,,,,,,,,,,,,,,*32
$GNGSA,A,1,,,,,,,,,,,,,,,,*2C
$GLGSV,1,1,04,86,,,42,75,,,42,88,,,42,87,,,42*62
$GPGGA,,,,,,0,,,,,,,,*66
$GNGNS,,,,,,NNN,,,,,,*1D
$GPVTG,,T,,M,,N,,K,N*2C
$GPRMC,,V,,,,,,,,,,N*53
$GPGSA,A,1,,,,,,,,,,,,,,,,*32
$GNGSA,A,1,,,,,,,,,,,,,,,,*2C
$GLGSV,1,1,04,86,,,42,75,,,42,88,,,42,87,,,42*62
$GPGGA,,,,,,0,,,,,,,,*66
$GNGNS,,,,,,NNN,,,,,,*1D
$GPVTG,,T,,M,,N,,K,N*2C
$GPRMC,,V,,,,,,,,,,N*53
$GPGSA,A,1,,,,,,,,,,,,,,,,*32
$GNGSA,A,1,,,,,,,,,,,,,,,,*2C
$GLGSV,1,1,04,86,,,42,75,,,42,88,,,42,87,,,42*62
$GPGGA,,,,,,0,,,,,,,,*66
$GNGNS,,,,,,NNN,,,,,,*1D
$GPVTG,,T,,M,,N,,K,N*2C
$GPRMC,,V,,,,,,,,,,N*53
$GPGSA,A,1,,,,,,,,,,,,,,,,*32
$GNGSA,A,1,,,,,,,,,,,,,,,,*2C
$GLGSV,1,1,04,86,,,42,75,,,42,88,,,42,87,,,42*62
$GPGGA,,,,,,0,,,,,,,,*66
$GNGNS,,,,,,NNN,,,,,,*1D
$GPVTG,,T,,M,,N,,K,N*2C
$GPRMC,,V,,,,,,,,,,N*53
$GPGSA,A,1,,,,,,,,,,,,,,,,*32
$GNGSA,A,1,,,,,,,,,,,,,,,,*2C
$GLGSV,1,1,04,86,,,42,75,,,42,88,,,42,87,,,42*62
$GPGGA,,,,,,0,,,,,,,,*66
$GNGNS,,,,,,NNN,,,,,,*1D
$GPVTG,,T,,M,,N,,K,N*2C
$GPRMC,,V,,,,,,,,,,N*53
$GPGSA,A,1,,,,,,,,,,,,,,,,*32
$GNGSA,A,1,,,,,,,,,,,,,,,,*2C
$GLGSV,1,1,04,86,,,42,75,,,42,88,,,42,87,,,42*62
$GPGGA,,,,,,0,,,,,,,,*66
$GNGNS,,,,,,NNN,,,,,,*1D
$GPVTG,,T,,M,,N,,K,N*2C
$GPRMC,,V,,,,,,,,,,N*53
$GPGSA,A,1,,,,,,,,,,,,,,,,*32
$GNGSA,A,1,,,,,,,,,,,,,,,,*2C
$GLGSV,1,1,04,86,,,42,75,,,42,88,,,42,87,,,42*62
$GPGGA,,,,,,0,,,,,,,,*66
$GNGNS,,,,,,NNN,,,,,,*1D
$GPVTG,,T,,M,,N,,K,N*2C
$GPRMC,,V,,,,,,,,,,N*53
$GPGSA,A,1,,,,,,,,,,,,,,,,*32
$GNGSA,A,1,,,,,,,,,,,,,,,,*2C
$GLGSV,1,1,04,86,,,42,75,,,42,88,,,42,87,,,42*62
$GPGGA,,,,,,0,,,,,,,,*66
$GNGNS,,,,,,NNN,,,,,,*1D
$GPVTG,,T,,M,,N,,K,N*2C
$GPRMC,,V,,,,,,,,,,N*53
$GPGSA,A,1,,,,,,,,,,,,,,,,*32
$GNGSA,A,1,,,,,,,,,,,,,,,,*2C
$GLGSV,1,1,04,86,,,42,75,,,42,88,,,42,87,,,42*62
$GPGGA,,,,,,0,,,,,,,,*66
$GNGNS,,,,,,NNN,,,,,,*1D
$GPVTG,,T,,M,,N,,K,N*2C
$GPRMC,,V,,,,,,,,,,N*53
$GPGSA,A,1,,,,,,,,,,,,,,,,*32
$GNGSA,A,1,,,,,,,,,,,,,,,,*2C
$GLGSV,1,1,04,86,,,42,75,,,42,88,,,42,87,,,42*62
$GPGGA,,,,,,0,,,,,,,,*66
$GNGNS,,,,,,NNN,,,,,,*1D
$GPVTG,,T,,M,,N,,K,N*2C
$GPRMC,,V,,,,,,,,,,N*53
$GPGSA,A,1,,,,,,,,,,,,,,,,*32
$GNGSA,A,1,,,,,,,,,,,,,,,,*2C
$GLGSV,1,1,04,86,,,42,75,,,42,88,,,42,87,,,42*62
$GPGGA,,,,,,0,,,,,,,,*66
$GNGNS,,,,,,NNN,,,,,,*1D
$GPVTG,,T,,M,,N,,K,N*2C
$GPRMC,,V,,,,,,,,,,N*53
$GPGSA,A,1,,,,,,,,,,,,,,,,*32
$GNGSA,A,1,,,,,,,,,,,,,,,,*2C
$GLGSV,1,1,04,86,,,42,75,,,42,88,,,42,87,,,42*62
$GPGGA,,,,,,0,,,,,,,,*66
$GNGNS,,,,,,NNN,,,,,,*1D
$GPVTG,,T,,M,,N,,K,N*2C
$GPRMC,,V,,,,,,,,,,N*53
$GPGSA,A,1,,,,,,,,,,,,,,,,*32
$GNGSA,A,1,,,,,,,,,,,,,,,,*2C
$GLGSV,1,1,04,86,,,42,75,,,42,88,,,42,87,,,42*62
$GPGGA,,,,,,0,,,,,,,,*66
$GNGNS,,,,,,NNN,,,,,,*1D
$GPVTG,,T,,M,,N,,K,N*2C
$GPRMC,,V,,,,,,,,,,N*53
$GPGSA,A,1,,,,,,,,,,,,,,,,*32
$GNGSA,A,1,,,,,,,,,,,,,,,,*2C
$GLGSV,1,1,04,86,,,42,75,,,42,88,,,42,87,,,42*62
$GPGGA,,,,,,0,,,,,,,,*66
$GNGNS,,,,,,NNN,,,,,,*1D
$GPVTG,,T,,M,,N,,K,N*2C
$GPRMC,,V,,,,,,,,,,N*53
$GPGSA,A,1,,,,,,,,,,,,,,,,*32
$GNGSA,A,1,,,,,,,,,,,,,,,,*2C
$GLGSV,1,1,04,86,,,42,75,,,42,88,,,42,87,,,42*62
$GPGGA,,,,,,0,,,,,,,,*66
$GNGNS,,,,,,NNN,,,,,,*1D
$GPVTG,,T,,M,,N,,K,N*2C
$GPRMC,,V,,,,,,,,,,N*53
$GPGSA,A,1,,,,,,,,,,,,,,,,*32
$GNGSA,A,1,,,,,,,,,,,,,,,,*2C
$GLGSV,1,1,04,86,,,42,75,,,42,88,,,42,87,,,42*62
$GPGGA,,,,,,0,,,,,,,,*66
$GNGNS,,,,,,NNN,,,,,,*1D
$GPVTG,,T,,M,,N,,K,N*2C
$GPRMC,,V,,,,,,,,,,N*53
$GPGSA,A,1,,,,,,,,,,,,,,,,*32
$GNGSA,A,1,,,,,,,,,,,,,,,,*2C
$GLGSV,1,1,04,86,,,42,75,,,42,88,,,42,87,,,42*62
$GPGGA,,,,,,0,,,,,,,,*66
$GNGNS,,,,,,NNN,,,,,,*1D
$GPVTG,,T,,M,,N,,K,N*2C
$GPRMC,,V,,,,,,,,,,N*53
$GPGSA,A,1,,,,,,,,,,,,,,,,*32
$GNGSA,A,1,,,,,,,,,,,,,,,,*2C
$GLGSV,1,1,04,86,,,42,75,,,42,88,,,42,87,,,42*62
$GPGGA,,,,,,0,,,,,,,,*66
$GNGNS,,,,,,NNN,,,,,,*1D
$GPVTG,,T,,M,,N,,K,N*2C
$GPRMC,,V,,,,,,,,,,N*53
$GPGSA,A,1,,,,,,,,,,,,,,,,*32
$GNGSA,A,1,,,,,,,,,,,,,,,,*2C
$GLGSV,1,1,04,86,,,42,75,,,42,88,,,42,87,,,42*62
$GPGGA,,,,,,0,,,,,,,,*66
$GNGNS,,,,,,NNN,,,,,,*1D
$GPVTG,,T,,M,,N,,K,N*2C
$GPRMC,,V,,,,,,,,,,N*53
$GPGSA,A,1,,,,,,,,,,,,,,,,*32
$GNGSA,A,1,,,,,,,,,,,,,,,,*2C
$GLGSV,1,1,04,86,,,42,75,,,42,88,,,42,87,,,42*62
$GPGGA,,,,,,0,,,,,,,,*66
$GNGNS,,,,,,NNN,,,,,,*1D
$GPVTG,,T,,M,,N,,K,N*2C
$GPRMC,,V,,,,,,,,,,N*53
$GPGSA,A,1,,,,,,,,,,,,,,,,*32
$GNGSA,A,1,,,,,,,,,,,,,,,,*2C
$GLGSV,1,1,04,86,,,42,75,,,42,88,,,42,87,,,42*62
$GPGGA,,,,,,0,,,,,,,,*66
$GNGNS,,,,,,NNN,,,,,,*1D
$GPVTG,,T,,M,,N,,K,N*2C
$GPRMC,,V,,,,,,,,,,N*53
$GPGSA,A,1,,,,,,,,,,,,,,,,*32
$GNGSA,A,1,,,,,,,,,,,,,,,,*2C
$GLGSV,1,1,04,86,,,42,75,,,42,88,,,42,87,,,42*62
$GPGGA,,,,,,0,,,,,,,,*66
$GNGNS,,,,,,NNN,,,,,,*1D
$GPVTG,,T,,M,,N,,K,N*2C
$GPRMC,,V,,,,,,,,,,N*53
$GPGSA,A,1,,,,,,,,,,,,,,,,*32
$GNGSA,A,1,,,,,,,,,,,,,,,,*2C
$GLGSV,1,1,04,86,,,42,75,,,42,88,,,42,87,,,42*62
$GPGGA,,,,,,0,,,,,,,,*66
$GNGNS,,,,,,NNN,,,,,,*1D
$GPVTG,,T,,M,,N,,K,N*2C
$GPRMC,,V,,,,,,,,,,N*53
$GPGSA,A,1,,,,,,,,,,,,,,,,*32
$GNGSA,A,1,,,,,,,,,,,,,,,,*2C
$GLGSV,1,1,04,86,,,42,75,,,42,88,,,42,87,,,42*62
$GPGGA,,,,,,0,,,,,,,,*66
$GNGNS,,,,,,NNN,,,,,,*1D
$GPVTG,,T,,M,,N,,K,N*2C
$GPRMC,,V,,,,,,,,,,N*53
$GPGSA,A,1,,,,,,,,,,,,,,,,*32
$GNGSA,A,1,,,,,,,,,,,,,,,,*2C
$GLGSV,1,1,04,86,,,42,75,,,42,88,,,42,87,,,42*62
$GPGGA,,,,,,0,,,,,,,,*66
$GNGNS,,,,,,NNN,,,,,,*1D
$GPVTG,,T,,M,,N,,K,N*2C
$GPRMC,,V,,,,,,,,,,N*53
$GPGSA,A,1,,,,,,,,,,,,,,,,*32
$GNGSA,A,1,,,,,,,,,,,,,,,,*2C
$GLGSV,1,1,04,86,,,42,75,,,42,88,,,42,87,,,42*62
$GPGGA,,,,,,0,,,,,,,,*66
$GNGNS,,,,,,NNN,,,,,,*1D
$GPVTG,,T,,M,,N,,K,N*2C
$GPRMC,,V,,,,,,,,,,N*53
$GPGSA,A,1,,,,,,,,,,,,,,,,*32
$GNGSA,A,1,,,,,,,,,,,,,,,,*2C
$GLGSV,1,1,04,86,,,42,75,,,42,88,,,42,87,,,42*62
$GPGGA,,,,,,0,,,,,,,,*66
$GNGNS,,,,,,NNN,,,,,,*1D
$GPVTG,,T,,M,,N,,K,N*2C
$GPRMC,,V,,,,,,,,,,N*53
$GPGSA,A,1,,,,,,,,,,,,,,,,*32
$GNGSA,A,1,,,,,,,,,,,,,,,,*2C
$GLGSV,1,1,04,86,,,42,75,,,42,88,,,42,87,,,42*62
$GPGGA,,,,,,0,,,,,,,,*66
$GNGNS,,,,,,NNN,,,,,,*1D
$GPVTG,,T,,M,,N,,K,N*2C
$GPRMC,,V,,,,,,,,,,N*53
$GPGSA,A,1,,,,,,,,,,,,,,,,*32
$GNGSA,A,1,,,,,,,,,,,,,,,,*2C
$GLGSV,1,1,04,86,,,42,75,,,42,88,,,42,87,,,42*62
$GPGGA,,,,,,0,,,,,,,,*66
$GNGNS,,,,,,NNN,,,,,,*1D
$GPVTG,,T,,M,,N,,K,N*2C
$GPRMC,,V,,,,,,,,,,N*53
$GPGSA,A,1,,,,,,,,,,,,,,,,*32
$GNGSA,A,1,,,,,,,,,,,,,,,,*2C
$GLGSV,2,1,05,,,,40,86,,,42,75,,,42,88,,,42*6D
$GLGSV,2,2,05,87,,,42*69
$GPGGA,,,,,,0,,,,,,,,*66
$GNGNS,,,,,,NNN,,,,,,*1D
$GPVTG,,T,,M,,N,,K,N*2C
$GPRMC,,V,,,,,,,,,,N*53
$GPGSA,A,1,,,,,,,,,,,,,,,,*32
$GNGSA,A,1,,,,,,,,,,,,,,,,*2C
$GLGSV,2,1,05,,,,42,86,,,42,75,,,42,88,,,42*6F
$GLGSV,2,2,05,87,,,42*69
$GPGGA,,,,,,0,,,,,,,,*66
$GNGNS,,,,,,NNN,,,,,,*1D
$GPVTG,,T,,M,,N,,K,N*2C
$GPRMC,,V,,,,,,,,,,N*53
$GPGSA,A,1,,,,,,,,,,,,,,,,*32
$GNGSA,A,1,,,,,,,,,,,,,,,,*2C
$GLGSV,2,1,05,,,,42,86,,,42,75,,,42,88,,,42*6F
$GLGSV,2,2,05,87,,,42*69
$GPGGA,,,,,,0,,,,,,,,*66
$GNGNS,,,,,,NNN,,,,,,*1D
$GPVTG,,T,,M,,N,,K,N*2C
$GPRMC,,V,,,,,,,,,,N*53
$GPGSA,A,1,,,,,,,,,,,,,,,,*32
$GNGSA,A,1,,,,,,,,,,,,,,,,*2C
$GLGSV,2,1,05,,,,41,86,,,42,75,,,42,88,,,42*6C
$GLGSV,2,2,05,87,,,42*69
$GPGGA,,,,,,0,,,,,,,,*66
$GNGNS,,,,,,NNN,,,,,,*1D
$GPVTG,,T,,M,,N,,K,N*2C
$GPRMC,,V,,,,,,,,,,N*53
$GPGSA,A,1,,,,,,,,,,,,,,,,*32
$GNGSA,A,1,,,,,,,,,,,,,,,,*2C
$GLGSV,2,1,05,,,,42,86,,,42,75,,,42,88,,,42*6F
$GLGSV,2,2,05,87,,,42*69
$GPGGA,,,,,,0,,,,,,,,*66
$GNGNS,,,,,,NNN,,,,,,*1D
$GPVTG,,T,,M,,N,,K,N*2C
$GPRMC,,V,,,,,,,,,,N*53
$GPGSA,A,1,,,,,,,,,,,,,,,,*32
$GNGSA,A,1,,,,,,,,,,,,,,,,*2C
$GLGSV,2,1,05,,,,41,86,,,42,75,,,42,88,,,42*6C
$GLGSV,2,2,05,87,,,42*69
$GPGGA,,,,,,0,,,,,,,,*66
$GNGNS,,,,,,NNN,,,,,,*1D
$GPVTG,,T,,M,,N,,K,N*2C
$GPRMC,,V,,,,,,,,,,N*53
$GPGSA,A,1,,,,,,,,,,,,,,,,*32
$GNGSA,A,1,,,,,,,,,,,,,,,,*2C
$GLGSV,2,1,05,,,,42,86,,,42,75,,,42,88,,,42*6F
$GLGSV,2,2,05,87,,,42*69
$GPGGA,,,,,,0,,,,,,,,*66
$GNGNS,,,,,,NNN,,,,,,*1D
$GPVTG,,T,,M,,N,,K,N*2C
$GPRMC,,V,,,,,,,,,,N*53
$GPGSA,A,1,,,,,,,,,,,,,,,,*32
$GNGSA,A,1,,,,,,,,,,,,,,,,*2C
$GLGSV,2,1,05,,,,42,86,,,42,75,,,42,88,,,42*6F
$GLGSV,2,2,05,87,,,42*69
$GPGGA,,,,,,0,,,,,,,,*66
$GNGNS,,,,,,NNN,,,,,,*1D
$GPVTG,,T,,M,,N,,K,N*2C
$GPRMC,,V,,,,,,,,,,N*53
$GPGSA,A,1,,,,,,,,,,,,,,,,*32
$GNGSA,A,1,,,,,,,,,,,,,,,,*2C
$GLGSV,2,1,05,,,,42,86,,,42,75,,,42,88,,,42*6F
$GLGSV,2,2,05,87,,,42*69
$GPGGA,,,,,,0,,,,,,,,*66
$GNGNS,,,,,,NNN,,,,,,*1D
$GPVTG,,T,,M,,N,,K,N*2C
$GPRMC,,V,,,,,,,,,,N*53
$GPGSA,A,1,,,,,,,,,,,,,,,,*32
$GNGSA,A,1,,,,,,,,,,,,,,,,*2C
$GLGSV,2,1,05,,,,42,86,,,42,75,,,42,88,,,42*6F
$GLGSV,2,2,05,87,,,42*69
$GPGGA,,,,,,0,,,,,,,,*66
$GNGNS,,,,,,NNN,,,,,,*1D
$GPVTG,,T,,M,,N,,K,N*2C
$GPRMC,,V,,,,,,,,,,N*53
$GPGSA,A,1,,,,,,,,,,,,,,,,*32
$GNGSA,A,1,,,,,,,,,,,,,,,,*2C
$GLGSV,2,1,05,,,,42,86,,,42,75,,,42,88,,,42*6F
$GLGSV,2,2,05,87,,,42*69
$GPGGA,,,,,,0,,,,,,,,*66
$GNGNS,,,,,,NNN,,,,,,*1D
$GPVTG,,T,,M,,N,,K,N*2C
$GPRMC,,V,,,,,,,,,,N*53
$GPGSA,A,1,,,,,,,,,,,,,,,,*32
$GNGSA,A,1,,,,,,,,,,,,,,,,*2C
$GLGSV,2,1,05,,,,42,86,,,42,75,,,42,88,,,42*6F
$GLGSV,2,2,05,87,,,42*69
$GPGGA,,,,,,0,,,,,,,,*66
$GNGNS,,,,,,NNN,,,,,,*1D
$GPVTG,,T,,M,,N,,K,N*2C
$GPRMC,,V,,,,,,,,,,N*53
$GPGSA,A,1,,,,,,,,,,,,,,,,*32
$GNGSA,A,1,,,,,,,,,,,,,,,,*2C
$GLGSV,2,1,05,,,,42,86,,,42,75,,,42,88,,,42*6F
$GLGSV,2,2,05,87,,,42*69
$GPGGA,,,,,,0,,,,,,,,*66
$GNGNS,,,,,,NNN,,,,,,*1D
$GPVTG,,T,,M,,N,,K,N*2C
$GPRMC,,V,,,,,,,,,,N*53
$GPGSA,A,1,,,,,,,,,,,,,,,,*32
$GNGSA,A,1,,,,,,,,,,,,,,,,*2C
$GLGSV,2,1,05,,,,42,86,,,42,75,,,42,88,,,42*6F
$GLGSV,2,2,05,87,,,42*69
$GPGGA,,,,,,0,,,,,,,,*66
$GNGNS,,,,,,NNN,,,,,,*1D
$GPVTG,,T,,M,,N,,K,N*2C
$GPRMC,,V,,,,,,,,,,N*53
$GPGSA,A,1,,,,,,,,,,,,,,,,*32
$GNGSA,A,1,,,,,,,,,,,,,,,,*2C
$GLGSV,2,1,06,,,,42,86,,,42,,,,39,75,,,42*60
$GLGSV,2,2,06,88,,,42,87,,,42*6C
$GPGGA,,,,,,0,,,,,,,,*66
$GNGNS,,,,,,NNN,,,,,,*1D
$GPVTG,,T,,M,,N,,K,N*2C
$GPRMC,,V,,,,,,,,,,N*53
$GPGSA,A,1,,,,,,,,,,,,,,,,*32
$GNGSA,A,1,,,,,,,,,,,,,,,,*2C
$GLGSV,2,1,06,,,,41,86,,,42,,,,42,75,,,42*6F
$GLGSV,2,2,06,88,,,42,87,,,42*6C
$GPGGA,,,,,,0,,,,,,,,*66
$GNGNS,,,,,,NNN,,,,,,*1D
$GPVTG,,T,,M,,N,,K,N*2C
$GPRMC,,V,,,,,,,,,,N*53
$GPGSA,A,1,,,,,,,,,,,,,,,,*32
$GNGSA,A,1,,,,,,,,,,,,,,,,*2C
$GLGSV,2,1,06,,,,42,86,,,42,,,,42,75,,,42*6C
$GLGSV,2,2,06,88,,,42,87,,,42*6C
$GPGGA,,,,,,0,,,,,,,,*66
$GNGNS,,,,,,NNN,,,,,,*1D
$GPVTG,,T,,M,,N,,K,N*2C
$GPRMC,,V,,,,,,,,,,N*53
$GPGSA,A,1,,,,,,,,,,,,,,,,*32
$GNGSA,A,1,,,,,,,,,,,,,,,,*2C
$GLGSV,2,1,06,,,,42,86,,,42,,,,41,75,,,42*6F
$GLGSV,2,2,06,88,,,42,87,,,42*6C
$GPGGA,,,,,,0,,,,,,,,*66
$GNGNS,,,,,,NNN,,,,,,*1D
$GPVTG,,T,,M,,N,,K,N*2C
$GPRMC,,V,,,,,,,,,,N*53
$GPGSA,A,1,,,,,,,,,,,,,,,,*32
$GNGSA,A,1,,,,,,,,,,,,,,,,*2C
$GLGSV,2,1,06,,,,42,86,,,42,,,,42,75,,,42*6C
$GLGSV,2,2,06,88,,,42,87,,,42*6C
$GPGGA,,,,,,0,,,,,,,,*66
$GNGNS,,,,,,NNN,,,,,,*1D
$GPVTG,,T,,M,,N,,K,N*2C
$GPRMC,,V,,,,,,,,,,N*53
$GPGSA,A,1,,,,,,,,,,,,,,,,*32
$GNGSA,A,1,,,,,,,,,,,,,,,,*2C
$GLGSV,2,1,06,,,,42,86,,,42,,,,41,75,,,42*6F
$GLGSV,2,2,06,88,,,42,87,,,42*6C
$GPGGA,,,,,,0,,,,,,,,*66
$GNGNS,,,,,,NNN,,,,,,*1D
$GPVTG,,T,,M,,N,,K,N*2C
$GPRMC,,V,,,,,,,,,,N*53
$GPGSA,A,1,,,,,,,,,,,,,,,,*32
$GNGSA,A,1,,,,,,,,,,,,,,,,*2C
$GLGSV,2,1,06,,,,42,86,,,42,,,,42,75,,,42*6C
$GLGSV,2,2,06,88,,,42,87,,,42*6C
$GPGGA,,,,,,0,,,,,,,,*66
$GNGNS,,,,,,NNN,,,,,,*1D
$GPVTG,,T,,M,,N,,K,N*2C
$GPRMC,,V,,,,,,,,,,N*53
$GPGSA,A,1,,,,,,,,,,,,,,,,*32
$GNGSA,A,1,,,,,,,,,,,,,,,,*2C
$GLGSV,2,1,06,,,,42,86,,,42,,,,42,75,,,42*6C
$GLGSV,2,2,06,88,,,42,87,,,42*6C
$GPGGA,,,,,,0,,,,,,,,*66
$GNGNS,,,,,,NNN,,,,,,*1D
$GPVTG,,T,,M,,N,,K,N*2C
$GPRMC,,V,,,,,,,,,,N*53
$GPGSA,A,1,,,,,,,,,,,,,,,,*32
$GNGSA,A,1,,,,,,,,,,,,,,,,*2C
$GLGSV,2,1,06,,,,42,86,,,42,,,,42,75,,,42*6C
$GLGSV,2,2,06,88,,,42,87,,,42*6C
$GPGGA,,,,,,0,,,,,,,,*66
$GNGNS,,,,,,NNN,,,,,,*1D
$GPVTG,,T,,M,,N,,K,N*2C
$GPRMC,,V,,,,,,,,,,N*53
$GPGSA,A,1,,,,,,,,,,,,,,,,*32
$GNGSA,A,1,,,,,,,,,,,,,,,,*2C
$GLGSV,2,1,06,,,,42,86,,,42,,,,42,75,,,42*6C
$GLGSV,2,2,06,88,,,42,87,,,42*6C
$GPGGA,,,,,,0,,,,,,,,*66
$GNGNS,,,,,,NNN,,,,,,*1D
$GPVTG,,T,,M,,N,,K,N*2C
$GPRMC,,V,,,,,,,,,,N*53
$GPGSA,A,1,,,,,,,,,,,,,,,,*32
$GNGSA,A,1,,,,,,,,,,,,,,,,*2C
$GLGSV,2,1,06,,,,42,86,,,42,,,,42,75,,,42*6C
$GLGSV,2,2,06,88,,,42,87,,,42*6C
$GPGGA,,,,,,0,,,,,,,,*66
$GNGNS,,,,,,NNN,,,,,,*1D
$GPVTG,,T,,M,,N,,K,N*2C
$GPRMC,,V,,,,,,,,,,N*53
$GPGSA,A,1,,,,,,,,,,,,,,,,*32
$GNGSA,A,1,,,,,,,,,,,,,,,,*2C
$GLGSV,2,1,06,,,,42,86,,,42,,,,42,75,,,42*6C
$GLGSV,2,2,06,88,,,42,87,,,42*6C
$GPGGA,,,,,,0,,,,,,,,*66
$GNGNS,,,,,,NNN,,,,,,*1D
$GPVTG,,T,,M,,N,,K,N*2C
$GPRMC,,V,,,,,,,,,,N*53
$GPGSA,A,1,,,,,,,,,,,,,,,,*32
$GNGSA,A,1,,,,,,,,,,,,,,,,*2C
$GLGSV,2,1,06,,,,42,86,,,42,,,,42,75,,,42*6C
$GLGSV,2,2,06,88,,,42,87,,,42*6C
$GPGGA,,,,,,0,,,,,,,,*66
$GNGNS,,,,,,NNN,,,,,,*1D
$GPVTG,,T,,M,,N,,K,N*2C
$GPRMC,,V,,,,,,,,,,N*53
$GPGSA,A,1,,,,,,,,,,,,,,,,*32
$GNGSA,A,1,,,,,,,,,,,,,,,,*2C
$GLGSV,2,1,06,,,,42,86,,,42,,,,42,75,,,42*6C
$GLGSV,2,2,06,88,,,42,87,,,42*6C
$GPGGA,,,,,,0,,,,,,,,*66
$GNGNS,,,,,,NNN,,,,,,*1D
$GPVTG,,T,,M,,N,,K,N*2C
$GPRMC,,V,,,,,,,,,,N*53
$GPGSA,A,1,,,,,,,,,,,,,,,,*32
$GNGSA,A,1,,,,,,,,,,,,,,,,*2C
$GLGSV,2,1,06,,,,42,86,,,42,,,,42,75,,,42*6C
$GLGSV,2,2,06,88,,,42,87,,,42*6C
$GPGGA,,,,,,0,,,,,,,,*66
$GNGNS,,,,,,NNN,,,,,,*1D
$GPVTG,,T,,M,,N,,K,N*2C
$GPRMC,,V,,,,,,,,,,N*53
$GPGSA,A,1,,,,,,,,,,,,,,,,*32
$GNGSA,A,1,,,,,,,,,,,,,,,,*2C
$GLGSV,2,1,06,,,,42,86,,,42,,,,42,75,,,42*6C
$GLGSV,2,2,06,88,,,42,87,,,42*6C
$GPGGA,000137.58,3000.000255,N,11959.996812,E,1,00,1.1,-14.7,M,7.0,M,,*45
$GAGGA,000137.58,3000.000255,N,11959.996812,E,1,00,1.1,-14.7,M,7.0,M,,*54
$GNGNS,000137.58,3000.000255,N,11959.996812,E,NAN,05,1.1,-14.7,7.0,,,V*4F
$GPVTG,,T,4.4,M,0.0,N,0.0,K,A*0D
$GPRMC,000137.58,A,3000.000255,N,11959.996812,E,0.0,,230721,4.4,W,A*0D
$GARMC,000137.58,A,3000.000255,N,11959.996812,E,0.0,,230721,4.4,W,A*1C
$GPGSA,A,1,,,,,,,,,,,,,,,,*32
$GNGSA,A,3,,,,,,,,,,,,,2.0,1.1,1.7,1*35
$GNGSA,A,3,78,86,75,88,87,,,,,,,,2.0,1.1,1.7,2*3A
$GNGSA,A,3,,,,,,,,,,,,,2.0,1.1,1.7,3*37
$GLGSA,A,3,78,86,75,88,87,,,,,,,,2.0,1.1,1.7*26
$GPGGA,000138.76,3000.000262,N,11959.996805,E,1,00,1.1,-14.7,M,7.0,M,,*44
$GAGGA,000138.76,3000.000262,N,11959.996805,E,1,00,1.1,-14.7,M,7.0,M,,*55
$GNGNS,000138.76,3000.000262,N,11959.996805,E,NAN,05,1.1,-14.7,7.0,,,V*4E
$GPVTG,,T,4.4,M,0.0,N,0.0,K,A*0D
$GPRMC,000138.76,A,3000.000262,N,11959.996805,E,0.0,,230721,4.4,W,A*0C
$GARMC,000138.76,A,3000.000262,N,11959.996805,E,0.0,,230721,4.4,W,A*1D
$GPGSA,A,1,,,,,,,,,,,,,,,,*32
$GNGSA,A,3,,,,,,,,,,,,,2.0,1.1,1.7,1*35
$GNGSA,A,3,78,86,75,88,87,,,,,,,,2.0,1.1,1.7,2*3A
$GNGSA,A,3,,,,,,,,,,,,,2.0,1.1,1.7,3*37
$GLGSA,A,3,78,86,75,88,87,,,,,,,,2.0,1.1,1.7*26
$GLGSV,2,1,06,78,06,330,42,86,33,023,42,77,55,326,42,75,10,151,42*67
$GLGSV,2,2,06,88,19,243,42,87,60,299,42*65
$GPGGA,000139.00,2959.999976,N,11959.995952,E,1,00,1.1,-14.0,M,7.0,M,,*40
$GAGGA,000139.00,2959.999976,N,11959.995952,E,1,00,1.1,-14.0,M,7.0,M,,*51
$GNGNS,000139.00,2959.999976,N,11959.995952,E,NAN,06,1.1,-14.0,7.0,,,V*49
$GPVTG,,T,4.4,M,0.0,N,0.0,K,A*0D
$GPRMC,000139.00,A,2959.999976,N,11959.995952,E,0.0,,230721,4.4,W,A*0F
$GARMC,000139.00,A,2959.999976,N,11959.995952,E,0.0,,230721,4.4,W,A*1E
$GPGSA,A,1,,,,,,,,,,,,,,,,*32
$GNGSA,A,3,,,,,,,,,,,,,1.8,1.1,1.5,1*3C
$GNGSA,A,3,78,86,77,75,88,87,,,,,,,1.8,1.1,1.5,2*33
$GNGSA,A,3,,,,,,,,,,,,,1.8,1.1,1.5,3*3E
$GLGSA,A,3,78,86,77,75,88,87,,,,,,,1.8,1.1,1.5*2F
$GLGSV,2,1,07,78,06,330,42,86,33,023,42,77,55,326,42,75,10,151,42*66
$GLGSV,2,2,07,88,19,243,42,87,60,299,42,71,00,080,*5A
$GPGGA,000140.00,2959.999206,N,11959.996219,E,1,00,1.1,-11.6,M,7.0,M,,*46
$GAGGA,000140.00,2959.999206,N,11959.996219,E,1,00,1.1,-11.6,M,7.0,M,,*57
$GNGNS,000140.00,2959.999206,N,11959.996219,E,NAN,06,1.1,-11.6,7.0,,,V*4F
$GPVTG,,T,4.4,M,0.0,N,0.0,K,A*0D
$GPRMC,000140.00,A,2959.999206,N,11959.996219,E,0.0,,230721,4.4,W,A*0A
$GARMC,000140.00,A,2959.999206,N,11959.996219,E,0.0,,230721,4.4,W,A*1B
$GPGSA,A,1,,,,,,,,,,,,,,,,*32
$GNGSA,A,3,,,,,,,,,,,,,1.8,1.1,1.5,1*3C
$GNGSA,A,3,75,77,78,86,87,88,,,,,,,1.8,1.1,1.5,2*33
$GNGSA,A,3,,,,,,,,,,,,,1.8,1.1,1.5,3*3E
$GLGSA,A,3,75,77,78,86,87,88,,,,,,,1.8,1.1,1.5*2F
$GLGSV,2,1,07,78,06,330,42,86,33,023,42,77,55,326,42,75,10,151,42*66
$GLGSV,2,2,07,88,19,243,42,87,60,299,42,71,00,080,*5A
$GPGGA,000141.00,2959.999158,N,11959.996407,E,1,00,1.1,-11.7,M,7.0,M,,*47
$GAGGA,000141.00,2959.999158,N,11959.996407,E,1,00,1.1,-11.7,M,7.0,M,,*56
$GNGNS,000141.00,2959.999158,N,11959.996407,E,NAN,06,1.1,-11.7,7.0,,,V*4E
$GPVTG,,T,4.4,M,0.0,N,0.0,K,A*0D
$GPRMC,000141.00,A,2959.999158,N,11959.996407,E,0.0,,230721,4.4,W,A*0A
$GARMC,000141.00,A,2959.999158,N,11959.996407,E,0.0,,230721,4.4,W,A*1B
$GPGSA,A,1,,,,,,,,,,,,,,,,*32
$GNGSA,A,3,,,,,,,,,,,,,1.8,1.1,1.5,1*3C
$GNGSA,A,3,75,77,78,86,87,88,,,,,,,1.8,1.1,1.5,2*33
$GNGSA,A,3,,,,,,,,,,,,,1.8,1.1,1.5,3*3E
$GLGSA,A,3,75,77,78,86,87,88,,,,,,,1.8,1.1,1.5*2F
$GLGSV,2,1,07,78,06,330,42,86,33,023,42,77,55,326,42,75,10,151,42*66
$GLGSV,2,2,07,88,19,243,42,87,60,299,42,71,00,080,*5A
$GPGGA,000142.00,2959.999237,N,11959.997050,E,1,00,1.1,-10.8,M,7.0,M,,*47
$GAGGA,000142.00,2959.999237,N,11959.997050,E,1,00,1.1,-10.8,M,7.0,M,,*56
$GNGNS,000142.00,2959.999237,N,11959.997050,E,NAN,06,1.1,-10.8,7.0,,,V*4E
$GPVTG,,T,4.4,M,0.0,N,0.0,K,A*0D
$GPRMC,000142.00,A,2959.999237,N,11959.997050,E,0.0,,230721,4.4,W,A*04
$GARMC,000142.00,A,2959.999237,N,11959.997050,E,0.0,,230721,4.4,W,A*15
$GPGSA,A,1,,,,,,,,,,,,,,,,*32
$GNGSA,A,3,,,,,,,,,,,,,1.8,1.1,1.5,1*3C
$GNGSA,A,3,75,77,78,86,87,88,,,,,,,1.8,1.1,1.5,2*33
$GNGSA,A,3,,,,,,,,,,,,,1.8,1.1,1.5,3*3E
$GLGSA,A,3,75,77,78,86,87,88,,,,,,,1.8,1.1,1.5*2F
$GLGSV,2,1,07,78,06,330,42,86,33,023,42,77,55,326,42,75,10,151,42*66
$GLGSV,2,2,07,88,19,243,42,87,60,299,42,71,00,080,*5A
$GPGGA,000143.00,2959.998853,N,11959.997300,E,1,00,1.1,-10.1,M,7.0,M,,*40
$GAGGA,000143.00,2959.998853,N,11959.997300,E,1,00,1.1,-10.1,M,7.0,M,,*51
$GNGNS,000143.00,2959.998853,N,11959.997300,E,NAN,06,1.1,-10.1,7.0,,,V*49
$GPVTG,,T,4.4,M,0.0,N,0.0,K,A*0D
$GPRMC,000143.00,A,2959.998853,N,11959.997300,E,0.0,,230721,4.4,W,A*0A
$GARMC,000143.00,A,2959.998853,N,11959.997300,E,0.0,,230721,4.4,W,A*1B
$GPGSA,A,1,,,,,,,,,,,,,,,,*32
$GNGSA,A,3,,,,,,,,,,,,,1.8,1.1,1.5,1*3C
$GNGSA,A,3,75,77,78,86,87,88,,,,,,,1.8,1.1,1.5,2*33
$GNGSA,A,3,,,,,,,,,,,,,1.8,1.1,1.5,3*3E
$GLGSA,A,3,75,77,78,86,87,88,,,,,,,1.8,1.1,1.5*2F
$GLGSV,2,1,07,78,06,330,41,86,33,023,42,77,55,326,42,75,10,151,42*65
$GLGSV,2,2,07,88,19,243,42,87,60,299,42,71,00,080,*5A
$GPGGA,000144.00,2959.998760,N,11959.997380,E,1,00,1.1,-9.5,M,7.0,M,,*7C
$GAGGA,000144.00,2959.998760,N,11959.997380,E,1,00,1.1,-9.5,M,7.0,M,,*6D
$GNGNS,000144.00,2959.998760,N,11959.997380,E,NAN,06,1.1,-9.5,7.0,,,V*75
$GPVTG,,T,4.4,M,0.0,N,0.0,K,A*0D
$GPRMC,000144.00,A,2959.998760,N,11959.997380,E,0.0,,230721,4.4,W,A*0A
$GARMC,000144.00,A,2959.998760,N,11959.997380,E,0.0,,230721,4.4,W,A*1B
$GPGSA,A,1,,,,,,,,,,,,,,,,*32
$GNGSA,A,3,,,,,,,,,,,,,1.8,1.1,1.5,1*3C
$GNGSA,A,3,75,77,78,86,87,88,,,,,,,1.8,1.1,1.5,2*33
$GNGSA,A,3,,,,,,,,,,,,,1.8,1.1,1.5,3*3E
$GLGSA,A,3,75,77,78,86,87,88,,,,,,,1.8,1.1,1.5*2F

$GLGSV,2,1,07,78,06,330,42,86,33,023,42,77,55,326,42,75,10,151,42*66
$GLGSV,2,2,07,88,19,243,42,87,60,299,42,71,00,080,*5A
$GPGGA,000145.00,2959.998861,N,11959.997854,E,1,00,1.1,-9.3,M,7.0,M,,*77
$GAGGA,000145.00,2959.998861,N,11959.997854,E,1,00,1.1,-9.3,M,7.0,M,,*66
$GNGNS,000145.00,2959.998861,N,11959.997854,E,NAN,06,1.1,-9.3,7.0,,,V*7E
$GPVTG,,T,4.4,M,0.0,N,0.0,K,A*0D
$GPRMC,000145.00,A,2959.998861,N,11959.997854,E,0.0,,230721,4.4,W,A*07
$GARMC,000145.00,A,2959.998861,N,11959.997854,E,0.0,,230721,4.4,W,A*16
$GPGSA,A,1,,,,,,,,,,,,,,,,*32
$GNGSA,A,3,,,,,,,,,,,,,1.8,1.1,1.5,1*3C
$GNGSA,A,3,75,77,78,86,87,88,,,,,,,1.8,1.1,1.5,2*33
$GNGSA,A,3,,,,,,,,,,,,,1.8,1.1,1.5,3*3E
$GLGSA,A,3,75,77,78,86,87,88,,,,,,,1.8,1.1,1.5*2F
$GLGSV,2,1,07,78,06,330,42,86,33,023,42,77,55,326,42,75,10,151,42*66
$GLGSV,2,2,07,88,19,243,42,87,60,299,42,71,00,080,*5A
$GPGGA,000146.00,2959.999090,N,11959.997698,E,1,00,1.1,-8.7,M,7.0,M,,*78
$GAGGA,000146.00,2959.999090,N,11959.997698,E,1,00,1.1,-8.7,M,7.0,M,,*69
$GNGNS,000146.00,2959.999090,N,11959.997698,E,NAN,06,1.1,-8.7,7.0,,,V*71
$GPVTG,,T,4.4,M,0.0,N,0.0,K,A*0D
$GPRMC,000146.00,A,2959.999090,N,11959.997698,E,0.0,,230721,4.4,W,A*0D
$GARMC,000146.00,A,2959.999090,N,11959.997698,E,0.0,,230721,4.4,W,A*1C
$GPGSA,A,1,,,,,,,,,,,,,,,,*32
$GNGSA,A,3,,,,,,,,,,,,,1.8,1.1,1.5,1*3C
$GNGSA,A,3,75,77,78,86,87,88,,,,,,,1.8,1.1,1.5,2*33
$GNGSA,A,3,,,,,,,,,,,,,1.8,1.1,1.5,3*3E
$GLGSA,A,3,75,77,78,86,87,88,,,,,,,1.8,1.1,1.5*2F
$GLGSV,2,1,07,78,06,330,42,86,33,023,42,77,55,326,42,75,10,151,42*66
$GLGSV,2,2,07,88,19,243,42,87,60,299,42,71,00,080,*5A
$GPGGA,000147.00,2959.999280,N,11959.997796,E,1,00,1.1,-9.3,M,7.0,M,,*70
$GAGGA,000147.00,2959.999280,N,11959.997796,E,1,00,1.1,-9.3,M,7.0,M,,*61
$GNGNS,000147.00,2959.999280,N,11959.997796,E,NAN,06,1.1,-9.3,7.0,,,V*79
$GPVTG,,T,4.4,M,0.0,N,0.0,K,A*0D
$GPRMC,000147.00,A,2959.999280,N,11959.997796,E,0.0,,230721,4.4,W,A*00
$GARMC,000147.00,A,2959.999280,N,11959.997796,E,0.0,,230721,4.4,W,A*11
$GPGSA,A,1,,,,,,,,,,,,,,,,*32
$GNGSA,A,3,,,,,,,,,,,,,1.8,1.1,1.5,1*3C
$GNGSA,A,3,75,77,78,86,87,88,,,,,,,1.8,1.1,1.5,2*33
$GNGSA,A,3,,,,,,,,,,,,,1.8,1.1,1.5,3*3E
$GLGSA,A,3,75,77,78,86,87,88,,,,,,,1.8,1.1,1.5*2F
$GLGSV,2,1,07,78,06,330,42,86,33,023,42,77,55,326,42,75,10,151,42*66
$GLGSV,2,2,07,88,19,243,42,87,60,299,42,71,00,080,*5A
$GPGGA,000148.00,2959.999262,N,11959.997863,E,1,00,1.1,-9.8,M,7.0,M,,*7D
$GAGGA,000148.00,2959.999262,N,11959.997863,E,1,00,1.1,-9.8,M,7.0,M,,*6C
$GNGNS,000148.00,2959.999262,N,11959.997863,E,NAN,06,1.1,-9.8,7.0,,,V*74
$GPVTG,,T,4.4,M,0.0,N,0.0,K,A*0D
$GPRMC,000148.00,A,2959.999262,N,11959.997863,E,0.0,,230721,4.4,W,A*06
$GARMC,000148.00,A,2959.999262,N,11959.997863,E,0.0,,230721,4.4,W,A*17
$GPGSA,A,1,,,,,,,,,,,,,,,,*32
$GNGSA,A,3,,,,,,,,,,,,,1.8,1.1,1.5,1*3C
$GNGSA,A,3,75,77,78,86,87,88,,,,,,,1.8,1.1,1.5,2*33
$GNGSA,A,3,,,,,,,,,,,,,1.8,1.1,1.5,3*3E
$GLGSA,A,3,75,77,78,86,87,88,,,,,,,1.8,1.1,1.5*2F
$GLGSV,2,1,07,78,06,330,42,86,33,023,42,77,55,326,42,75,10,151,42*66
$GLGSV,2,2,07,88,19,243,42,87,60,299,42,71,00,080,*5A
$GPGGA,000149.00,2959.999227,N,11959.997740,E,1,00,1.1,-9.3,M,7.0,M,,*78
$GAGGA,000149.00,2959.999227,N,11959.997740,E,1,00,1.1,-9.3,M,7.0,M,,*69
$GNGNS,000149.00,2959.999227,N,11959.997740,E,NAN,06,1.1,-9.3,7.0,,,V*71
$GPVTG,,T,4.4,M,0.0,N,0.0,K,A*0D
$GPRMC,000149.00,A,2959.999227,N,11959.997740,E,0.0,,230721,4.4,W,A*08
$GARMC,000149.00,A,2959.999227,N,11959.997740,E,0.0,,230721,4.4,W,A*19
$GPGSA,A,1,,,,,,,,,,,,,,,,*32
$GNGSA,A,3,,,,,,,,,,,,,1.8,1.1,1.5,1*3C
$GNGSA,A,3,75,77,78,86,87,88,,,,,,,1.8,1.1,1.5,2*33
$GNGSA,A,3,,,,,,,,,,,,,1.8,1.1,1.5,3*3E
$GLGSA,A,3,75,77,78,86,87,88,,,,,,,1.8,1.1,1.5*2F
$GLGSV,2,1,07,78,06,330,42,86,33,023,42,77,55,326,42,75,10,151,42*66
$GLGSV,2,2,07,88,19,243,42,87,60,299,42,71,00,080,*5A
$GPGGA,000150.00,2959.999086,N,11959.997519,E,1,00,1.1,-9.6,M,7.0,M,,*72
$GAGGA,000150.00,2959.999086,N,11959.997519,E,1,00,1.1,-9.6,M,7.0,M,,*63
$GNGNS,000150.00,2959.999086,N,11959.997519,E,NAN,06,1.1,-9.6,7.0,,,V*7B
$GPVTG,,T,4.4,M,0.0,N,0.0,K,A*0D
$GPRMC,000150.00,A,2959.999086,N,11959.997519,E,0.0,,230721,4.4,W,A*07
$GARMC,000150.00,A,2959.999086,N,11959.997519,E,0.0,,230721,4.4,W,A*16
$GPGSA,A,1,,,,,,,,,,,,,,,,*32
$GNGSA,A,3,,,,,,,,,,,,,1.8,1.1,1.5,1*3C
$GNGSA,A,3,75,77,78,86,87,88,,,,,,,1.8,1.1,1.5,2*33
$GNGSA,A,3,,,,,,,,,,,,,1.8,1.1,1.5,3*3E
$GLGSA,A,3,75,77,78,86,87,88,,,,,,,1.8,1.1,1.5*2F
$GLGSV,2,1,07,78,06,330,42,86,33,023,42,77,55,326,42,75,10,151,42*66
$GLGSV,2,2,07,88,19,243,42,87,60,299,42,71,00,080,*5A
$GPGGA,000151.00,2959.999065,N,11959.997444,E,1,00,1.1,-9.1,M,7.0,M,,*70
$GAGGA,000151.00,2959.999065,N,11959.997444,E,1,00,1.1,-9.1,M,7.0,M,,*61
$GNGNS,000151.00,2959.999065,N,11959.997444,E,NAN,06,1.1,-9.1,7.0,,,V*79
$GPVTG,,T,4.4,M,0.0,N,0.0,K,A*0D
$GPRMC,000151.00,A,2959.999065,N,11959.997444,E,0.0,,230721,4.4,W,A*02
$GARMC,000151.00,A,2959.999065,N,11959.997444,E,0.0,,230721,4.4,W,A*13
$GPGSA,A,1,,,,,,,,,,,,,,,,*32
$GNGSA,A,3,,,,,,,,,,,,,1.8,1.1,1.5,1*3C
$GNGSA,A,3,75,77,78,86,87,88,,,,,,,1.8,1.1,1.5,2*33
$GNGSA,A,3,,,,,,,,,,,,,1.8,1.1,1.5,3*3E
$GLGSA,A,3,75,77,78,86,87,88,,,,,,,1.8,1.1,1.5*2F
$GLGSV,2,1,07,78,06,330,42,86,33,023,42,77,55,326,42,75,10,151,42*66
$GLGSV,2,2,07,88,19,243,42,87,60,299,42,71,00,080,*5A
$GPGGA,000152.00,2959.999304,N,11959.997524,E,1,00,1.1,-8.7,M,7.0,M,,*77
$GAGGA,000152.00,2959.999304,N,11959.997524,E,1,00,1.1,-8.7,M,7.0,M,,*66
$GNGNS,000152.00,2959.999304,N,11959.997524,E,NAN,06,1.1,-8.7,7.0,,,V*7E
$GPVTG,,T,4.4,M,0.0,N,0.0,K,A*0D
$GPRMC,000152.00,A,2959.999304,N,11959.997524,E,0.0,,230721,4.4,W,A*02
$GARMC,000152.00,A,2959.999304,N,11959.997524,E,0.0,,230721,4.4,W,A*13
$GPGSA,A,1,,,,,,,,,,,,,,,,*32
$GNGSA,A,3,,,,,,,,,,,,,1.8,1.1,1.5,1*3C
$GNGSA,A,3,75,77,78,86,87,88,,,,,,,1.8,1.1,1.5,2*33
$GNGSA,A,3,,,,,,,,,,,,,1.8,1.1,1.5,3*3E
$GLGSA,A,3,75,77,78,86,87,88,,,,,,,1.8,1.1,1.5*2F
$GLGSV,2,1,07,78,06,330,42,86,33,023,42,77,55,326,42,75,10,151,42*66
$GLGSV,2,2,07,88,19,243,42,87,60,299,42,71,00,080,*5A
$GPGGA,000153.00,2959.999333,N,11959.997523,E,1,00,1.1,-8.8,M,7.0,M,,*7A
$GAGGA,000153.00,2959.999333,N,11959.997523,E,1,00,1.1,-8.8,M,7.0,M,,*6B
$GNGNS,000153.00,2959.999333,N,11959.997523,E,NAN,06,1.1,-8.8,7.0,,,V*73
$GPVTG,,T,4.4,M,0.0,N,0.0,K,A*0D
$GPRMC,000153.00,A,2959.999333,N,11959.997523,E,0.0,,230721,4.4,W,A*00
$GARMC,000153.00,A,2959.999333,N,11959.997523,E,0.0,,230721,4.4,W,A*11
$GPGSA,A,1,,,,,,,,,,,,,,,,*32
$GNGSA,A,3,,,,,,,,,,,,,1.8,1.1,1.5,1*3C
$GNGSA,A,3,75,77,78,86,87,88,,,,,,,1.8,1.1,1.5,2*33
$GNGSA,A,3,,,,,,,,,,,,,1.8,1.1,1.5,3*3E
$GLGSA,A,3,75,77,78,86,87,88,,,,,,,1.8,1.1,1.5*2F
$GLGSV,2,1,07,78,06,330,42,86,33,023,42,77,55,326,42,75,10,151,42*66
$GLGSV,2,2,07,88,19,243,42,87,60,299,42,71,00,080,*5A
$GPGGA,000154.00,2959.999405,N,11959.997529,E,1,00,1.1,-8.5,M,7.0,M,,*78
$GAGGA,000154.00,2959.999405,N,11959.997529,E,1,00,1.1,-8.5,M,7.0,M,,*69
$GNGNS,000154.00,2959.999405,N,11959.997529,E,NAN,06,1.1,-8.5,7.0,,,V*71
$GPVTG,,T,4.4,M,0.0,N,0.0,K,A*0D
$GPRMC,000154.00,A,2959.999405,N,11959.997529,E,0.0,,230721,4.4,W,A*0F
$GARMC,000154.00,A,2959.999405,N,11959.997529,E,0.0,,230721,4.4,W,A*1E
$GPGSA,A,1,,,,,,,,,,,,,,,,*32
$GNGSA,A,3,,,,,,,,,,,,,1.8,1.1,1.5,1*3C
$GNGSA,A,3,75,77,78,86,87,88,,,,,,,1.8,1.1,1.5,2*33
$GNGSA,A,3,,,,,,,,,,,,,1.8,1.1,1.5,3*3E
$GLGSA,A,3,75,77,78,86,87,88,,,,,,,1.8,1.1,1.5*2F
$GLGSV,2,1,07,78,06,330,41,86,33,023,42,77,55,326,42,75,10,151,42*65
$GLGSV,2,2,07,88,19,243,42,87,60,299,42,71,00,080,*5A
$GPGGA,000155.00,2959.999465,N,11959.997446,E,1,00,1.1,-8.0,M,7.0,M,,*72
$GAGGA,000155.00,2959.999465,N,11959.997446,E,1,00,1.1,-8.0,M,7.0,M,,*63
$GNGNS,000155.00,2959.999465,N,11959.997446,E,NAN,06,1.1,-8.0,7.0,,,V*7B
$GPVTG,,T,4.4,M,0.0,N,0.0,K,A*0D
$GPRMC,000155.00,A,2959.999465,N,11959.997446,E,0.0,,230721,4.4,W,A*00
$GARMC,000155.00,A,2959.999465,N,11959.997446,E,0.0,,230721,4.4,W,A*11
$GPGSA,A,1,,,,,,,,,,,,,,,,*32
$GNGSA,A,3,,,,,,,,,,,,,1.8,1.1,1.5,1*3C
$GNGSA,A,3,75,77,78,86,87,88,,,,,,,1.8,1.1,1.5,2*33
$GNGSA,A,3,,,,,,,,,,,,,1.8,1.1,1.5,3*3E
$GLGSA,A,3,75,77,78,86,87,88,,,,,,,1.8,1.1,1.5*2F
$GLGSV,2,1,07,78,06,330,42,86,33,023,42,77,55,326,42,75,10,151,42*66
$GLGSV,2,2,07,88,19,243,42,87,60,299,42,71,00,080,*5A
$GPGGA,000156.00,2959.999320,N,11959.997345,E,1,00,1.1,-7.9,M,7.0,M,,*75
$GAGGA,000156.00,2959.999320,N,11959.997345,E,1,00,1.1,-7.9,M,7.0,M,,*64
$GNGNS,000156.00,2959.999320,N,11959.997345,E,NAN,06,1.1,-7.9,7.0,,,V*7C
$GPVTG,,T,4.4,M,0.0,N,0.0,K,A*0D
$GPRMC,000156.00,A,2959.999320,N,11959.997345,E,0.0,,230721,4.4,W,A*01
$GARMC,000156.00,A,2959.999320,N,11959.997345,E,0.0,,230721,4.4,W,A*10
$GPGSA,A,1,,,,,,,,,,,,,,,,*32
$GNGSA,A,3,,,,,,,,,,,,,1.8,1.1,1.5,1*3C
$GNGSA,A,3,75,77,78,86,87,88,,,,,,,1.8,1.1,1.5,2*33
$GNGSA,A,3,,,,,,,,,,,,,1.8,1.1,1.5,3*3E
$GLGSA,A,3,75,77,78,86,87,88,,,,,,,1.8,1.1,1.5*2F
$GLGSV,2,1,07,78,06,330,42,86,33,023,42,77,55,326,42,75,10,151,42*66
$GLGSV,2,2,07,88,19,243,42,87,60,299,42,71,00,080,*5A
$GPGGA,000157.00,2959.999235,N,11959.997332,E,1,00,1.1,-7.8,M,7.0,M,,*70
$GAGGA,000157.00,2959.999235,N,11959.997332,E,1,00,1.1,-7.8,M,7.0,M,,*61
$GNGNS,000157.00,2959.999235,N,11959.997332,E,NAN,06,1.1,-7.8,7.0,,,V*79
$GPVTG,,T,4.4,M,0.0,N,0.0,K,A*0D
$GPRMC,000157.00,A,2959.999235,N,11959.997332,E,0.0,,230721,4.4,W,A*05
$GARMC,000157.00,A,2959.999235,N,11959.997332,E,0.0,,230721,4.4,W,A*14
$GPGSA,A,1,,,,,,,,,,,,,,,,*32
$GNGSA,A,3,,,,,,,,,,,,,1.8,1.1,1.5,1*3C
$GNGSA,A,3,75,77,78,86,87,88,,,,,,,1.8,1.1,1.5,2*33
$GNGSA,A,3,,,,,,,,,,,,,1.8,1.1,1.5,3*3E
$GLGSA,A,3,75,77,78,86,87,88,,,,,,,1.8,1.1,1.5*2F
$GLGSV,2,1,07,78,06,330,42,86,33,023,42,77,55,326,42,75,10,151,42*66
$GLGSV,2,2,07,88,19,243,42,87,60,299,42,71,00,080,*5A
$GPGGA,000158.00,2959.999404,N,11959.997163,E,1,00,1.1,-7.7,M,7.0,M,,*72
$GAGGA,000158.00,2959.999404,N,11959.997163,E,1,00,1.1,-7.7,M,7.0,M,,*63
$GNGNS,000158.00,2959.999404,N,11959.997163,E,NAN,06,1.1,-7.7,7.0,,,V*7B
$GPVTG,,T,4.4,M,0.0,N,0.0,K,A*0D
$GPRMC,000158.00,A,2959.999404,N,11959.997163,E,0.0,,230721,4.4,W,A*08
$GARMC,000158.00,A,2959.999404,N,11959.997163,E,0.0,,230721,4.4,W,A*19
$GPGSA,A,1,,,,,,,,,,,,,,,,*32
$GNGSA,A,3,,,,,,,,,,,,,1.8,1.1,1.5,1*3C
$GNGSA,A,3,75,77,78,86,87,88,,,,,,,1.8,1.1,1.5,2*33
$GNGSA,A,3,,,,,,,,,,,,,1.8,1.1,1.5,3*3E
$GLGSA,A,3,75,77,78,86,87,88,,,,,,,1.8,1.1,1.5*2F
$GLGSV,2,1,07,78,06,330,42,86,33,023,42,77,55,326,42,75,10,151,42*66
$GLGSV,2,2,07,88,19,243,42,87,60,299,42,71,00,080,*5A
$GPGGA,000159.00,2959.999232,N,11959.997288,E,1,00,1.1,-7.3,M,7.0,M,,*72
$GAGGA,000159.00,2959.999232,N,11959.997288,E,1,00,1.1,-7.3,M,7.0,M,,*63
$GNGNS,000159.00,2959.999232,N,11959.997288,E,NAN,06,1.1,-7.3,7.0,,,V*7B
$GPVTG,,T,4.4,M,0.0,N,0.0,K,A*0D
$GPRMC,000159.00,A,2959.999232,N,11959.997288,E,0.0,,230721,4.4,W,A*0C
$GARMC,000159.00,A,2959.999232,N,11959.997288,E,0.0,,230721,4.4,W,A*1D
$GPGSA,A,1,,,,,,,,,,,,,,,,*32
$GNGSA,A,3,,,,,,,,,,,,,1.8,1.1,1.5,1*3C
$GNGSA,A,3,75,77,78,86,87,88,,,,,,,1.8,1.1,1.5,2*33
$GNGSA,A,3,,,,,,,,,,,,,1.8,1.1,1.5,3*3E
$GLGSA,A,3,75,77,78,86,87,88,,,,,,,1.8,1.1,1.5*2F
$GLGSV,2,1,07,78,06,330,42,86,33,023,42,77,55,326,42,75,10,151,42*66
$GLGSV,2,2,07,88,19,243,42,87,60,299,42,71,00,080,*5A
$GPGGA,000200.00,2959.999284,N,11959.997114,E,1,00,1.1,-6.8,M,7.0,M,,*7C
$GAGGA,000200.00,2959.999284,N,11959.997114,E,1,00,1.1,-6.8,M,7.0,M,,*6D
$GNGNS,000200.00,2959.999284,N,11959.997114,E,NAN,06,1.1,-6.8,7.0,,,V*75
$GPVTG,,T,4.4,M,0.0,N,0.0,K,A*0D
$GPRMC,000200.00,A,2959.999284,N,11959.997114,E,0.0,,230721,4.4,W,A*08
$GARMC,000200.00,A,2959.999284,N,11959.997114,E,0.0,,230721,4.4,W,A*19
$GPGSA,A,1,,,,,,,,,,,,,,,,*32
$GNGSA,A,3,,,,,,,,,,,,,1.8,1.1,1.5,1*3C
$GNGSA,A,3,75,77,78,86,87,88,,,,,,,1.8,1.1,1.5,2*33
$GNGSA,A,3,,,,,,,,,,,,,1.8,1.1,1.5,3*3E
$GLGSA,A,3,75,77,78,86,87,88,,,,,,,1.8,1.1,1.5*2F
$GLGSV,2,1,07,78,06,330,42,86,33,023,42,77,55,326,42,75,10,151,42*66
$GLGSV,2,2,07,88,19,243,42,87,60,299,42,71,00,080,*5A
$GPGGA,000201.00,2959.999369,N,11959.996919,E,1,00,1.1,-7.0,M,7.0,M,,*72
$GAGGA,000201.00,2959.999369,N,11959.996919,E,1,00,1.1,-7.0,M,7.0,M,,*63
$GNGNS,000201.00,2959.999369,N,11959.996919,E,NAN,06,1.1,-7.0,7.0,,,V*7B
$GPVTG,,T,4.4,M,0.0,N,0.0,K,A*0D
$GPRMC,000201.00,A,2959.999369,N,11959.996919,E,0.0,,230721,4.4,W,A*0F
$GARMC,000201.00,A,2959.999369,N,11959.996919,E,0.0,,230721,4.4,W,A*1E
$GPGSA,A,1,,,,,,,,,,,,,,,,*32
$GNGSA,A,3,,,,,,,,,,,,,1.8,1.1,1.5,1*3C
$GNGSA,A,3,75,77,78,86,87,88,,,,,,,1.8,1.1,1.5,2*33
$GNGSA,A,3,,,,,,,,,,,,,1.8,1.1,1.5,3*3E
$GLGSA,A,3,75,77,78,86,87,88,,,,,,,1.8,1.1,1.5*2F
$GLGSV,2,1,07,78,06,330,42,86,33,023,42,77,55,326,42,75,10,151,42*66
$GLGSV,2,2,07,88,19,243,42,87,60,299,42,71,00,080,*5A
$GPGGA,000202.00,2959.999330,N,11959.996772,E,1,00,1.1,-7.1,M,7.0,M,,*7F
$GAGGA,000202.00,2959.999330,N,11959.996772,E,1,00,1.1,-7.1,M,7.0,M,,*6E
$GNGNS,000202.00,2959.999330,N,11959.996772,E,NAN,06,1.1,-7.1,7.0,,,V*76
$GPVTG,,T,4.4,M,0.0,N,0.0,K,A*0D
$GPRMC,000202.00,A,2959.999330,N,11959.996772,E,0.0,,230721,4.4,W,A*03
$GARMC,000202.00,A,2959.999330,N,11959.996772,E,0.0,,230721,4.4,W,A*12
$GPGSA,A,1,,,,,,,,,,,,,,,,*32
$GNGSA,A,3,,,,,,,,,,,,,1.8,1.1,1.5,1*3C
$GNGSA,A,3,75,77,78,86,87,88,,,,,,,1.8,1.1,1.5,2*33
$GNGSA,A,3,,,,,,,,,,,,,1.8,1.1,1.5,3*3E
$GLGSA,A,3,75,77,78,86,87,88,,,,,,,1.8,1.1,1.5*2F
$GLGSV,2,1,07,78,06,330,42,86,33,023,42,77,55,326,42,75,10,151,42*66
$GLGSV,2,2,07,88,19,243,42,87,60,299,42,71,00,080,*5A
$GPGGA,000203.00,2959.999203,N,11959.997212,E,1,00,1.1,-6.6,M,7.0,M,,*7B
$GAGGA,000203.00,2959.999203,N,11959.997212,E,1,00,1.1,-6.6,M,7.0,M,,*6A
$GNGNS,000203.00,2959.999203,N,11959.997212,E,NAN,06,1.1,-6.6,7.0,,,V*72
$GPVTG,,T,4.4,M,0.0,N,0.0,K,A*0D
$GPRMC,000203.00,A,2959.999203,N,11959.997212,E,0.0,,230721,4.4,W,A*01
$GARMC,000203.00,A,2959.999203,N,11959.997212,E,0.0,,230721,4.4,W,A*10
$GPGSA,A,1,,,,,,,,,,,,,,,,*32
$GNGSA,A,3,,,,,,,,,,,,,1.8,1.1,1.5,1*3C
$GNGSA,A,3,75,77,78,86,87,88,,,,,,,1.8,1.1,1.5,2*33
$GNGSA,A,3,,,,,,,,,,,,,1.8,1.1,1.5,3*3E
$GLGSA,A,3,75,77,78,86,87,88,,,,,,,1.8,1.1,1.5*2F
$GLGSV,2,1,07,78,06,330,42,86,33,023,42,77,55,326,42,75,10,151,42*66
$GLGSV,2,2,07,88,19,243,42,87,60,299,42,71,00,080,*5A
$GPGGA,000204.00,2959.999246,N,11959.997563,E,1,00,1.1,-6.5,M,7.0,M,,*7F
$GAGGA,000204.00,2959.999246,N,11959.997563,E,1,00,1.1,-6.5,M,7.0,M,,*6E
$GNGNS,000204.00,2959.999246,N,11959.997563,E,NAN,06,1.1,-6.5,7.0,,,V*76
$GPVTG,,T,4.4,M,0.0,N,0.0,K,A*0D
$GPRMC,000204.00,A,2959.999246,N,11959.997563,E,0.0,,230721,4.4,W,A*06
$GARMC,000204.00,A,2959.999246,N,11959.997563,E,0.0,,230721,4.4,W,A*17
$GPGSA,A,1,,,,,,,,,,,,,,,,*32
$GNGSA,A,3,,,,,,,,,,,,,1.8,1.1,1.5,1*3C
$GNGSA,A,3,75,77,78,86,87,88,,,,,,,1.8,1.1,1.5,2*33
$GNGSA,A,3,,,,,,,,,,,,,1.8,1.1,1.5,3*3E
$GLGSA,A,3,75,77,78,86,87,88,,,,,,,1.8,1.1,1.5*2F
$GLGSV,2,1,07,78,06,330,42,86,33,023,42,77,55,326,42,75,10,151,42*66
$GLGSV,2,2,07,88,19,243,42,87,60,299,42,71,00,080,*5A
$GPGGA,000205.00,2959.999281,N,11959.997516,E,1,00,1.1,-6.6,M,7.0,M,,*74
$GAGGA,000205.00,2959.999281,N,11959.997516,E,1,00,1.1,-6.6,M,7.0,M,,*65
$GNGNS,000205.00,2959.999281,N,11959.997516,E,NAN,06,1.1,-6.6,7.0,,,V*7D
$GPVTG,,T,4.4,M,0.0,N,0.0,K,A*0D
$GPRMC,000205.00,A,2959.999281,N,11959.997516,E,0.0,,230721,4.4,W,A*0E
$GARMC,000205.00,A,2959.999281,N,11959.997516,E,0.0,,230721,4.4,W,A*1F
$GPGSA,A,1,,,,,,,,,,,,,,,,*32
$GNGSA,A,3,,,,,,,,,,,,,1.8,1.1,1.5,1*3C
$GNGSA,A,3,75,77,78,86,87,88,,,,,,,1.8,1.1,1.5,2*33
$GNGSA,A,3,,,,,,,,,,,,,1.8,1.1,1.5,3*3E
$GLGSA,A,3,75,77,78,86,87,88,,,,,,,1.8,1.1,1.5*2F
$GLGSV,2,1,07,78,06,330,42,86,33,023,42,77,55,326,42,75,10,151,42*66
$GLGSV,2,2,07,88,19,243,42,87,60,299,42,71,00,080,*5A
$GPGGA,000206.00,2959.999378,N,11959.997583,E,1,00,1.1,-6.3,M,7.0,M,,*79
$GAGGA,000206.00,2959.999378,N,11959.997583,E,1,00,1.1,-6.3,M,7.0,M,,*68
$GNGNS,000206.00,2959.999378,N,11959.997583,E,NAN,06,1.1,-6.3,7.0,,,V*70
$GPVTG,,T,4.4,M,0.0,N,0.0,K,A*0D
$GPRMC,000206.00,A,2959.999378,N,11959.997583,E,0.0,,230721,4.4,W,A*06
$GARMC,000206.00,A,2959.999378,N,11959.997583,E,0.0,,230721,4.4,W,A*17
$GPGSA,A,1,,,,,,,,,,,,,,,,*32
$GNGSA,A,3,,,,,,,,,,,,,1.8,1.1,1.5,1*3C
$GNGSA,A,3,75,77,78,86,87,88,,,,,,,1.8,1.1,1.5,2*33
$GNGSA,A,3,,,,,,,,,,,,,1.8,1.1,1.5,3*3E
$GLGSA,A,3,75,77,78,86,87,88,,,,,,,1.8,1.1,1.5*2F
$GLGSV,2,1,07,78,06,330,42,86,33,023,42,77,55,326,42,75,10,151,42*66
$GLGSV,2,2,07,88,19,243,42,87,60,299,42,71,00,080,*5A
$GPGGA,000207.00,2959.999301,N,11959.997977,E,1,00,1.1,-6.4,M,7.0,M,,*76
$GAGGA,000207.00,2959.999301,N,11959.997977,E,1,00,1.1,-6.4,M,7.0,M,,*67
$GNGNS,000207.00,2959.999301,N,11959.997977,E,NAN,06,1.1,-6.4,7.0,,,V*7F
$GPVTG,,T,4.4,M,0.0,N,0.0,K,A*0D
$GPRMC,000207.00,A,2959.999301,N,11959.997977,E,0.0,,230721,4.4,W,A*0E
$GARMC,000207.00,A,2959.999301,N,11959.997977,E,0.0,,230721,4.4,W,A*1F
$GPGSA,A,1,,,,,,,,,,,,,,,,*32
$GNGSA,A,3,,,,,,,,,,,,,1.8,1.1,1.5,1*3C
$GNGSA,A,3,75,77,78,86,87,88,,,,,,,1.8,1.1,1.5,2*33
$GNGSA,A,3,,,,,,,,,,,,,1.8,1.1,1.5,3*3E
$GLGSA,A,3,75,77,78,86,87,88,,,,,,,1.8,1.1,1.5*2F
$GLGSV,2,1,07,78,06,330,42,86,33,023,42,77,55,326,42,75,10,151,42*66
$GLGSV,2,2,07,88,19,243,42,87,60,299,42,71,00,080,*5A
$GPGGA,000208.00,2959.999295,N,11959.997898,E,1,00,1.1,-6.6,M,7.0,M,,*77
$GAGGA,000208.00,2959.999295,N,11959.997898,E,1,00,1.1,-6.6,M,7.0,M,,*66
$GNGNS,000208.00,2959.999295,N,11959.997898,E,NAN,06,1.1,-6.6,7.0,,,V*7E
$GPVTG,,T,4.4,M,0.0,N,0.0,K,A*0D
$GPRMC,000208.00,A,2959.999295,N,11959.997898,E,0.0,,230721,4.4,W,A*0D
$GARMC,000208.00,A,2959.999295,N,11959.997898,E,0.0,,230721,4.4,W,A*1C
$GPGSA,A,1,,,,,,,,,,,,,,,,*32
$GNGSA,A,3,,,,,,,,,,,,,1.8,1.1,1.5,1*3C
$GNGSA,A,3,75,77,78,86,87,88,,,,,,,1.8,1.1,1.5,2*33
$GNGSA,A,3,,,,,,,,,,,,,1.8,1.1,1.5,3*3E
$GLGSA,A,3,75,77,78,86,87,88,,,,,,,1.8,1.1,1.5*2F
$GLGSV,2,1,07,78,06,330,42,86,33,023,42,77,55,326,42,75,10,151,42*66
$GLGSV,2,2,07,88,19,243,42,87,60,299,42,71,00,080,*5A
$GPGGA,000209.00,2959.999185,N,11959.998072,E,1,00,1.1,-6.8,M,7.0,M,,*79
$GAGGA,000209.00,2959.999185,N,11959.998072,E,1,00,1.1,-6.8,M,7.0,M,,*68
$GNGNS,000209.00,2959.999185,N,11959.998072,E,NAN,06,1.1,-6.8,7.0,,,V*70
$GPVTG,,T,4.4,M,0.0,N,0.0,K,A*0D
$GPRMC,000209.00,A,2959.999185,N,11959.998072,E,0.0,,230721,4.4,W,A*0D
$GARMC,000209.00,A,2959.999185,N,11959.998072,E,0.0,,230721,4.4,W,A*1C
$GPGSA,A,1,,,,,,,,,,,,,,,,*32
$GNGSA,A,3,,,,,,,,,,,,,1.8,1.1,1.5,1*3C
$GNGSA,A,3,75,77,78,86,87,88,,,,,,,1.8,1.1,1.5,2*33
$GNGSA,A,3,,,,,,,,,,,,,1.8,1.1,1.5,3*3E
$GLGSA,A,3,75,77,78,86,87,88,,,,,,,1.8,1.1,1.5*2F
$GLGSV,2,1,07,78,06,330,41,86,33,023,42,77,55,326,42,75,10,151,42*65
$GLGSV,2,2,07,88,19,243,42,87,60,299,42,71,00,080,*5A
$GPGGA,000210.00,2959.999163,N,11959.998039,E,1,00,1.1,-6.7,M,7.0,M,,*79
$GAGGA,000210.00,2959.999163,N,11959.998039,E,1,00,1.1,-6.7,M,7.0,M,,*68
$GNGNS,000210.00,2959.999163,N,11959.998039,E,NAN,06,1.1,-6.7,7.0,,,V*70
$GPVTG,,T,4.4,M,0.0,N,0.0,K,A*0D
$GPRMC,000210.00,A,2959.999163,N,11959.998039,E,0.0,,230721,4.4,W,A*02
$GARMC,000210.00,A,2959.999163,N,11959.998039,E,0.0,,230721,4.4,W,A*13
$GPGSA,A,1,,,,,,,,,,,,,,,,*32
$GNGSA,A,3,,,,,,,,,,,,,1.8,1.1,1.5,1*3C
$GNGSA,A,3,75,77,78,86,87,88,,,,,,,1.8,1.1,1.5,2*33
$GNGSA,A,3,,,,,,,,,,,,,1.8,1.1,1.5,3*3E
$GLGSA,A,3,75,77,78,86,87,88,,,,,,,1.8,1.1,1.5*2F
$GLGSV,2,1,07,78,06,330,42,86,33,023,42,77,55,326,42,75,10,151,42*66
$GLGSV,2,2,07,88,19,243,42,87,60,299,42,71,00,080,*5A
$GPGGA,000211.00,2959.999260,N,11959.997976,E,1,00,1.1,-6.8,M,7.0,M,,*7A
$GAGGA,000211.00,2959.999260,N,11959.997976,E,1,00,1.1,-6.8,M,7.0,M,,*6B
$GNGNS,000211.00,2959.999260,N,11959.997976,E,NAN,06,1.1,-6.8,7.0,,,V*73
$GPVTG,,T,4.4,M,0.0,N,0.0,K,A*0D
$GPRMC,000211.00,A,2959.999260,N,11959.997976,E,0.0,,230721,4.4,W,A*0E
$GARMC,000211.00,A,2959.999260,N,11959.997976,E,0.0,,230721,4.4,W,A*1F
$GPGSA,A,1,,,,,,,,,,,,,,,,*32
$GNGSA,A,3,,,,,,,,,,,,,1.8,1.1,1.5,1*3C
$GNGSA,A,3,75,77,78,86,87,88,,,,,,,1.8,1.1,1.5,2*33
$GNGSA,A,3,,,,,,,,,,,,,1.8,1.1,1.5,3*3E
$GLGSA,A,3,75,77,78,86,87,88,,,,,,,1.8,1.1,1.5*2F
$GLGSV,2,1,07,78,06,330,42,86,33,023,42,77,55,326,42,75,10,151,42*66
$GLGSV,2,2,07,88,19,243,42,87,60,299,42,71,00,080,*5A
$GPGGA,000212.00,2959.999155,N,11959.997920,E,1,00,1.1,-6.9,M,7.0,M,,*7E
$GAGGA,000212.00,2959.999155,N,11959.997920,E,1,00,1.1,-6.9,M,7.0,M,,*6F
$GNGNS,000212.00,2959.999155,N,11959.997920,E,NAN,06,1.1,-6.9,7.0,,,V*77
$GPVTG,,T,4.4,M,0.0,N,0.0,K,A*0D
$GPRMC,000212.00,A,2959.999155,N,11959.997920,E,0.0,,230721,4.4,W,A*0B
$GARMC,000212.00,A,2959.999155,N,11959.997920,E,0.0,,230721,4.4,W,A*1A
$GPGSA,A,1,,,,,,,,,,,,,,,,*32
$GNGSA,A,3,,,,,,,,,,,,,1.8,1.1,1.5,1*3C
$GNGSA,A,3,75,77,78,86,87,88,,,,,,,1.8,1.1,1.5,2*33
$GNGSA,A,3,,,,,,,,,,,,,1.8,1.1,1.5,3*3E
$GLGSA,A,3,75,77,78,86,87,88,,,,,,,1.8,1.1,1.5*2F
$GLGSV,2,1,07,78,06,330,42,86,33,023,42,77,55,326,42,75,10,151,42*66
$GLGSV,2,2,07,88,19,243,42,87,60,299,42,71,00,080,*5A
$GPGGA,000213.00,2959.999088,N,11959.998281,E,1,00,1.1,-7.2,M,7.0,M,,*7B
$GAGGA,000213.00,2959.999088,N,11959.998281,E,1,00,1.1,-7.2,M,7.0,M,,*6A
$GNGNS,000213.00,2959.999088,N,11959.998281,E,NAN,06,1.1,-7.2,7.0,,,V*72
$GPVTG,,T,4.4,M,0.0,N,0.0,K,A*0D
$GPRMC,000213.00,A,2959.999088,N,11959.998281,E,0.0,,230721,4.4,W,A*04
$GARMC,000213.00,A,2959.999088,N,11959.998281,E,0.0,,230721,4.4,W,A*15
$GPGSA,A,1,,,,,,,,,,,,,,,,*32
$GNGSA,A,3,,,,,,,,,,,,,1.8,1.1,1.5,1*3C
$GNGSA,A,3,75,77,78,86,87,88,,,,,,,1.8,1.1,1.5,2*33
$GNGSA,A,3,,,,,,,,,,,,,1.8,1.1,1.5,3*3E
$GLGSA,A,3,75,77,78,86,87,88,,,,,,,1.8,1.1,1.5*2F
$GLGSV,2,1,07,78,06,330,41,86,33,023,42,77,55,326,42,75,10,151,42*65
$GLGSV,2,2,07,88,19,243,42,87,60,299,42,71,00,080,*5A
$GPGGA,000214.00,2959.998965,N,11959.998273,E,1,00,1.1,-7.7,M,7.0,M,,*7F
$GAGGA,000214.00,2959.998965,N,11959.998273,E,1,00,1.1,-7.7,M,7.0,M,,*6E
$GNGNS,000214.00,2959.998965,N,11959.998273,E,NAN,06,1.1,-7.7,7.0,,,V*76
$GPVTG,,T,4.4,M,0.0,N,0.0,K,A*0D
$GPRMC,000214.00,A,2959.998965,N,11959.998273,E,0.0,,230721,4.4,W,A*05
$GARMC,000214.00,A,2959.998965,N,11959.998273,E,0.0,,230721,4.4,W,A*14
$GPGSA,A,1,,,,,,,,,,,,,,,,*32
$GNGSA,A,3,,,,,,,,,,,,,1.8,1.1,1.5,1*3C
$GNGSA,A,3,75,77,78,86,87,88,,,,,,,1.8,1.1,1.5,2*33
$GNGSA,A,3,,,,,,,,,,,,,1.8,1.1,1.5,3*3E
$GLGSA,A,3,75,77,78,86,87,88,,,,,,,1.8,1.1,1.5*2F
$GLGSV,2,1,07,78,06,330,41,86,33,023,42,77,55,326,42,75,10,151,42*65
$GLGSV,2,2,07,88,19,243,42,87,60,299,42,71,00,080,*5A
$GPGGA,000215.00,2959.999105,N,11959.997949,E,1,00,1.1,-8.0,M,7.0,M,,*74
$GAGGA,000215.00,2959.999105,N,11959.997949,E,1,00,1.1,-8.0,M,7.0,M,,*65
$GNGNS,000215.00,2959.999105,N,11959.997949,E,NAN,06,1.1,-8.0,7.0,,,V*7D
$GPVTG,,T,4.4,M,0.0,N,0.0,K,A*0D
$GPRMC,000215.00,A,2959.999105,N,11959.997949,E,0.0,,230721,4.4,W,A*06
$GARMC,000215.00,A,2959.999105,N,11959.997949,E,0.0,,230721,4.4,W,A*17
$GPGSA,A,1,,,,,,,,,,,,,,,,*32
$GNGSA,A,3,,,,,,,,,,,,,1.8,1.1,1.5,1*3C
$GNGSA,A,3,75,77,78,86,87,88,,,,,,,1.8,1.1,1.5,2*33
$GNGSA,A,3,,,,,,,,,,,,,1.8,1.1,1.5,3*3E
$GLGSA,A,3,75,77,78,86,87,88,,,,,,,1.8,1.1,1.5*2F
$GLGSV,2,1,07,78,06,330,42,86,33,023,42,77,55,326,42,75,10,151,42*66
$GLGSV,2,2,07,88,19,243,42,87,60,299,42,71,00,080,*5A
$GPGGA,000216.00,2959.999141,N,11959.997559,E,1,00,1.1,-7.6,M,7.0,M,,*73
$GAGGA,000216.00,2959.999141,N,11959.997559,E,1,00,1.1,-7.6,M,7.0,M,,*62
$GNGNS,000216.00,2959.999141,N,11959.997559,E,NAN,06,1.1,-7.6,7.0,,,V*7A
$GPVTG,,T,4.4,M,0.0,N,0.0,K,A*0D
$GPRMC,000216.00,A,2959.999141,N,11959.997559,E,0.0,,230721,4.4,W,A*08
$GARMC,000216.00,A,2959.999141,N,11959.997559,E,0.0,,230721,4.4,W,A*19
$GPGSA,A,1,,,,,,,,,,,,,,,,*32
$GNGSA,A,3,,,,,,,,,,,,,1.8,1.1,1.5,1*3C
$GNGSA,A,3,75,77,78,86,87,88,,,,,,,1.8,1.1,1.5,2*33
$GNGSA,A,3,,,,,,,,,,,,,1.8,1.1,1.5,3*3E
$GLGSA,A,3,75,77,78,86,87,88,,,,,,,1.8,1.1,1.5*2F
$GLGSV,2,1,07,78,06,330,42,86,33,023,42,77,55,326,42,75,10,151,42*66
$GLGSV,2,2,07,88,19,243,42,87,60,299,42,71,00,080,*5A
$GPGGA,000217.00,2959.999112,N,11959.997286,E,1,00,1.1,-7.0,M,7.0,M,,*77
$GAGGA,000217.00,2959.999112,N,11959.997286,E,1,00,1.1,-7.0,M,7.0,M,,*66
$GNGNS,000217.00,2959.999112,N,11959.997286,E,NAN,06,1.1,-7.0,7.0,,,V*7E
$GPVTG,,T,4.4,M,0.0,N,0.0,K,A*0D
$GPRMC,000217.00,A,2959.999112,N,11959.997286,E,0.0,,230721,4.4,W,A*0A
$GARMC,000217.00,A,2959.999112,N,11959.997286,E,0.0,,230721,4.4,W,A*1B
$GPGSA,A,1,,,,,,,,,,,,,,,,*32
$GNGSA,A,3,,,,,,,,,,,,,1.8,1.1,1.5,1*3C
$GNGSA,A,3,75,77,78,86,87,88,,,,,,,1.8,1.1,1.5,2*33
$GNGSA,A,3,,,,,,,,,,,,,1.8,1.1,1.5,3*3E
$GLGSA,A,3,75,77,78,86,87,88,,,,,,,1.8,1.1,1.5*2F
$GLGSV,2,1,07,78,06,330,42,86,33,023,42,77,55,326,42,75,10,151,42*66
$GLGSV,2,2,07,88,19,243,42,87,60,299,42,71,00,080,*5A
$GPGGA,000218.00,2959.998844,N,11959.997370,E,1,00,1.1,-6.8,M,7.0,M,,*72
$GAGGA,000218.00,2959.998844,N,11959.997370,E,1,00,1.1,-6.8,M,7.0,M,,*63
$GNGNS,000218.00,2959.998844,N,11959.997370,E,NAN,06,1.1,-6.8,7.0,,,V*7B
$GPVTG,,T,4.4,M,0.0,N,0.0,K,A*0D
$GPRMC,000218.00,A,2959.998844,N,11959.997370,E,0.0,,230721,4.4,W,A*06
$GARMC,000218.00,A,2959.998844,N,11959.997370,E,0.0,,230721,4.4,W,A*17
$GPGSA,A,1,,,,,,,,,,,,,,,,*32
$GNGSA,A,3,,,,,,,,,,,,,1.8,1.1,1.5,1*3C
$GNGSA,A,3,75,77,78,86,87,88,,,,,,,1.8,1.1,1.5,2*33
$GNGSA,A,3,,,,,,,,,,,,,1.8,1.1,1.5,3*3E
$GLGSA,A,3,75,77,78,86,87,88,,,,,,,1.8,1.1,1.5*2F
$GLGSV,2,1,07,78,06,330,42,86,33,023,42,77,55,326,42,75,10,151,42*66
$GLGSV,2,2,07,88,19,243,42,87,60,299,42,71,00,080,*5A
$GPGGA,000219.00,2959.999055,N,11959.997296,E,1,00,1.1,-6.7,M,7.0,M,,*7C
$GAGGA,000219.00,2959.999055,N,11959.997296,E,1,00,1.1,-6.7,M,7.0,M,,*6D
$GNGNS,000219.00,2959.999055,N,11959.997296,E,NAN,06,1.1,-6.7,7.0,,,V*75
$GPVTG,,T,4.4,M,0.0,N,0.0,K,A*0D
$GPRMC,000219.00,A,2959.999055,N,11959.997296,E,0.0,,230721,4.4,W,A*07
$GARMC,000219.00,A,2959.999055,N,11959.997296,E,0.0,,230721,4.4,W,A*16
$GPGSA,A,1,,,,,,,,,,,,,,,,*32
$GNGSA,A,3,,,,,,,,,,,,,1.8,1.1,1.5,1*3C
$GNGSA,A,3,75,77,78,86,87,88,,,,,,,1.8,1.1,1.5,2*33
$GNGSA,A,3,,,,,,,,,,,,,1.8,1.1,1.5,3*3E
$GLGSA,A,3,75,77,78,86,87,88,,,,,,,1.8,1.1,1.5*2F
$GLGSV,2,1,07,78,06,330,42,86,33,023,42,77,55,326,42,75,10,151,42*66
$GLGSV,2,2,07,88,19,243,42,87,60,299,42,71,00,080,*5A
$GPGGA,000220.00,2959.998963,N,11959.997382,E,1,00,1.1,-6.8,M,7.0,M,,*70
$GAGGA,000220.00,2959.998963,N,11959.997382,E,1,00,1.1,-6.8,M,7.0,M,,*61
$GNGNS,000220.00,2959.998963,N,11959.997382,E,NAN,06,1.1,-6.8,7.0,,,V*79
$GPVTG,,T,4.4,M,0.0,N,0.0,K,A*0D
$GPRMC,000220.00,A,2959.998963,N,11959.997382,E,0.0,,230721,4.4,W,A*04
$GARMC,000220.00,A,2959.998963,N,11959.997382,E,0.0,,230721,4.4,W,A*15
$GPGSA,A,1,,,,,,,,,,,,,,,,*32
$GNGSA,A,3,,,,,,,,,,,,,1.8,1.1,1.5,1*3C
$GNGSA,A,3,75,77,78,86,87,88,,,,,,,1.8,1.1,1.5,2*33
$GNGSA,A,3,,,,,,,,,,,,,1.8,1.1,1.5,3*3E
$GLGSA,A,3,75,77,78,86,87,88,,,,,,,1.8,1.1,1.5*2F
$GLGSV,2,1,07,78,06,330,42,86,33,023,42,77,55,326,42,75,10,151,42*66
$GLGSV,2,2,07,88,19,243,42,87,60,299,42,71,00,080,*5A
$GPGGA,000221.00,2959.998979,N,11959.997696,E,1,00,1.1,-7.1,M,7.0,M,,*72
$GAGGA,000221.00,2959.998979,N,11959.997696,E,1,00,1.1,-7.1,M,7.0,M,,*63
$GNGNS,000221.00,2959.998979,N,11959.997696,E,NAN,06,1.1,-7.1,7.0,,,V*7B
$GPVTG,,T,4.4,M,0.0,N,0.0,K,A*0D
$GPRMC,000221.00,A,2959.998979,N,11959.997696,E,0.0,,230721,4.4,W,A*0E
$GARMC,000221.00,A,2959.998979,N,11959.997696,E,0.0,,230721,4.4,W,A*1F
$GPGSA,A,1,,,,,,,,,,,,,,,,*32
$GNGSA,A,3,,,,,,,,,,,,,1.8,1.1,1.5,1*3C
$GNGSA,A,3,75,77,78,86,87,88,,,,,,,1.8,1.1,1.5,2*33
$GNGSA,A,3,,,,,,,,,,,,,1.8,1.1,1.5,3*3E
$GLGSA,A,3,75,77,78,86,87,88,,,,,,,1.8,1.1,1.5*2F
$GLGSV,2,1,07,78,06,330,42,86,33,023,42,77,55,326,42,75,10,151,42*66
$GLGSV,2,2,07,88,19,243,42,87,60,299,42,71,00,080,*5A
$GPGGA,000222.00,2959.999006,N,11959.997587,E,1,00,1.1,-7.5,M,7.0,M,,*76
$GAGGA,000222.00,2959.999006,N,11959.997587,E,1,00,1.1,-7.5,M,7.0,M,,*67
$GNGNS,000222.00,2959.999006,N,11959.997587,E,NAN,06,1.1,-7.5,7.0,,,V*7F
$GPVTG,,T,4.4,M,0.0,N,0.0,K,A*0D
$GPRMC,000222.00,A,2959.999006,N,11959.997587,E,0.0,,230721,4.4,W,A*0E
$GARMC,000222.00,A,2959.999006,N,11959.997587,E,0.0,,230721,4.4,W,A*1F
$GPGSA,A,1,,,,,,,,,,,,,,,,*32
$GNGSA,A,3,,,,,,,,,,,,,1.8,1.1,1.5,1*3C
$GNGSA,A,3,75,77,78,86,87,88,,,,,,,1.8,1.1,1.5,2*33
$GNGSA,A,3,,,,,,,,,,,,,1.8,1.1,1.5,3*3E
$GLGSA,A,3,75,77,78,86,87,88,,,,,,,1.8,1.1,1.5*2F
$GLGSV,2,1,07,78,06,330,41,86,33,023,42,77,55,326,42,75,10,151,42*65
$GLGSV,2,2,07,88,19,243,42,87,60,299,42,71,00,080,*5A
$GPGGA,000223.00,2959.998961,N,11959.997670,E,1,00,1.1,-7.6,M,7.0,M,,*76
$GAGGA,000223.00,2959.998961,N,11959.997670,E,1,00,1.1,-7.6,M,7.0,M,,*67
$GNGNS,000223.00,2959.998961,N,11959.997670,E,NAN,06,1.1,-7.6,7.0,,,V*7F
$GPVTG,,T,4.4,M,0.0,N,0.0,K,A*0D
$GPRMC,000223.00,A,2959.998961,N,11959.997670,E,0.0,,230721,4.4,W,A*0D
$GARMC,000223.00,A,2959.998961,N,11959.997670,E,0.0,,230721,4.4,W,A*1C
$GPGSA,A,1,,,,,,,,,,,,,,,,*32
$GNGSA,A,3,,,,,,,,,,,,,1.8,1.1,1.5,1*3C
$GNGSA,A,3,75,77,78,86,87,88,,,,,,,1.8,1.1,1.5,2*33
$GNGSA,A,3,,,,,,,,,,,,,1.8,1.1,1.5,3*3E
$GLGSA,A,3,75,77,78,86,87,88,,,,,,,1.8,1.1,1.5*2F
$GLGSV,2,1,07,78,06,330,42,86,33,023,42,77,55,326,42,75,10,151,42*66
$GLGSV,2,2,07,88,19,243,42,87,60,299,42,71,00,080,*5A
$GPGGA,000224.00,2959.999001,N,11959.997418,E,1,00,1.1,-7.5,M,7.0,M,,*70
$GAGGA,000224.00,2959.999001,N,11959.997418,E,1,00,1.1,-7.5,M,7.0,M,,*61
$GNGNS,000224.00,2959.999001,N,11959.997418,E,NAN,06,1.1,-7.5,7.0,,,V*79
$GPVTG,,T,4.4,M,0.0,N,0.0,K,A*0D
$GPRMC,000224.00,A,2959.999001,N,11959.997418,E,0.0,,230721,4.4,W,A*08
$GARMC,000224.00,A,2959.999001,N,11959.997418,E,0.0,,230721,4.4,W,A*19
$GPGSA,A,1,,,,,,,,,,,,,,,,*32
$GNGSA,A,3,,,,,,,,,,,,,1.8,1.1,1.5,1*3C
$GNGSA,A,3,75,77,78,86,87,88,,,,,,,1.8,1.1,1.5,2*33
$GNGSA,A,3,,,,,,,,,,,,,1.8,1.1,1.5,3*3E
$GLGSA,A,3,75,77,78,86,87,88,,,,,,,1.8,1.1,1.5*2F
$GLGSV,2,1,07,78,06,330,41,86,33,023,42,77,55,326,42,75,10,151,42*65
$GLGSV,2,2,07,88,19,243,42,87,60,299,42,71,00,080,*5A
$GPGGA,000225.00,2959.998895,N,11959.997280,E,1,00,1.1,-7.3,M,7.0,M,,*74
$GAGGA,000225.00,2959.998895,N,11959.997280,E,1,00,1.1,-7.3,M,7.0,M,,*65
$GNGNS,000225.00,2959.998895,N,11959.997280,E,NAN,06,1.1,-7.3,7.0,,,V*7D
$GPVTG,,T,4.4,M,0.0,N,0.0,K,A*0D
$GPRMC,000225.00,A,2959.998895,N,11959.997280,E,0.0,,230721,4.4,W,A*0A
$GARMC,000225.00,A,2959.998895,N,11959.997280,E,0.0,,230721,4.4,W,A*1B
$GPGSA,A,1,,,,,,,,,,,,,,,,*32
$GNGSA,A,3,,,,,,,,,,,,,1.8,1.1,1.5,1*3C
$GNGSA,A,3,75,77,78,86,87,88,,,,,,,1.8,1.1,1.5,2*33
$GNGSA,A,3,,,,,,,,,,,,,1.8,1.1,1.5,3*3E
$GLGSA,A,3,75,77,78,86,87,88,,,,,,,1.8,1.1,1.5*2F
$GLGSV,2,1,07,78,06,330,42,86,33,023,42,77,55,326,42,75,10,151,42*66
$GLGSV,2,2,07,88,19,243,42,87,60,299,42,71,00,080,*5A
$GPGGA,000226.00,2959.998866,N,11959.997190,E,1,00,1.1,-7.3,M,7.0,M,,*79
$GAGGA,000226.00,2959.998866,N,11959.997190,E,1,00,1.1,-7.3,M,7.0,M,,*68
$GNGNS,000226.00,2959.998866,N,11959.997190,E,NAN,06,1.1,-7.3,7.0,,,V*70
$GPVTG,,T,4.4,M,0.0,N,0.0,K,A*0D
$GPRMC,000226.00,A,2959.998866,N,11959.997190,E,0.0,,230721,4.4,W,A*07
$GARMC,000226.00,A,2959.998866,N,11959.997190,E,0.0,,230721,4.4,W,A*16
$GPGSA,A,1,,,,,,,,,,,,,,,,*32
$GNGSA,A,3,,,,,,,,,,,,,1.8,1.1,1.5,1*3C
$GNGSA,A,3,75,77,78,86,87,88,,,,,,,1.8,1.1,1.5,2*33
$GNGSA,A,3,,,,,,,,,,,,,1.8,1.1,1.5,3*3E
$GLGSA,A,3,75,77,78,86,87,88,,,,,,,1.8,1.1,1.5*2F
$GLGSV,2,1,07,78,06,330,42,86,33,023,42,77,55,326,42,75,10,151,42*66
$GLGSV,2,2,07,88,19,243,42,87,60,299,42,71,00,080,*5A
$GPGGA,000227.00,2959.998796,N,11959.997237,E,1,00,1.1,-7.2,M,7.0,M,,*77
$GAGGA,000227.00,2959.998796,N,11959.997237,E,1,00,1.1,-7.2,M,7.0,M,,*66
$GNGNS,000227.00,2959.998796,N,11959.997237,E,NAN,06,1.1,-7.2,7.0,,,V*7E
$GPVTG,,T,4.4,M,0.0,N,0.0,K,A*0D
$GPRMC,000227.00,A,2959.998796,N,11959.997237,E,0.0,,230721,4.4,W,A*08
$GARMC,000227.00,A,2959.998796,N,11959.997237,E,0.0,,230721,4.4,W,A*19
$GPGSA,A,1,,,,,,,,,,,,,,,,*32
$GNGSA,A,3,,,,,,,,,,,,,1.8,1.1,1.5,1*3C
$GNGSA,A,3,75,77,78,86,87,88,,,,,,,1.8,1.1,1.5,2*33
$GNGSA,A,3,,,,,,,,,,,,,1.8,1.1,1.5,3*3E
$GLGSA,A,3,75,77,78,86,87,88,,,,,,,1.8,1.1,1.5*2F
$GLGSV,2,1,07,78,06,330,42,86,33,023,42,77,55,326,42,75,10,151,42*66
$GLGSV,2,2,07,88,19,243,42,87,60,299,42,71,00,080,*5A
$GPGGA,000228.00,2959.998810,N,11959.997065,E,1,00,1.1,-7.1,M,7.0,M,,*7F
$GAGGA,000228.00,2959.998810,N,11959.997065,E,1,00,1.1,-7.1,M,7.0,M,,*6E
$GNGNS,000228.00,2959.998810,N,11959.997065,E,NAN,06,1.1,-7.1,7.0,,,V*76
$GPVTG,,T,4.4,M,0.0,N,0.0,K,A*0D
$GPRMC,000228.00,A,2959.998810,N,11959.997065,E,0.0,,230721,4.4,W,A*03
$GARMC,000228.00,A,2959.998810,N,11959.997065,E,0.0,,230721,4.4,W,A*12
$GPGSA,A,1,,,,,,,,,,,,,,,,*32
$GNGSA,A,3,,,,,,,,,,,,,1.8,1.1,1.5,1*3C
$GNGSA,A,3,75,77,78,86,87,88,,,,,,,1.8,1.1,1.5,2*33
$GNGSA,A,3,,,,,,,,,,,,,1.8,1.1,1.5,3*3E
$GLGSA,A,3,75,77,78,86,87,88,,,,,,,1.8,1.1,1.5*2F
$GLGSV,2,1,07,78,06,330,41,86,33,023,42,77,55,326,42,75,10,151,42*65
$GLGSV,2,2,07,88,19,243,42,87,60,299,42,71,00,080,*5A
$GPGGA,000229.00,2959.998789,N,11959.997102,E,1,00,1.1,-7.3,M,7.0,M,,*73
$GAGGA,000229.00,2959.998789,N,11959.997102,E,1,00,1.1,-7.3,M,7.0,M,,*62
$GNGNS,000229.00,2959.998789,N,11959.997102,E,NAN,06,1.1,-7.3,7.0,,,V*7A
$GPVTG,,T,4.4,M,0.0,N,0.0,K,A*0D
$GPRMC,000229.00,A,2959.998789,N,11959.997102,E,0.0,,230721,4.4,W,A*0D
$GARMC,000229.00,A,2959.998789,N,11959.997102,E,0.0,,230721,4.4,W,A*1C
$GPGSA,A,1,,,,,,,,,,,,,,,,*32
$GNGSA,A,3,,,,,,,,,,,,,1.8,1.1,1.5,1*3C
$GNGSA,A,3,75,77,78,86,87,88,,,,,,,1.8,1.1,1.5,2*33
$GNGSA,A,3,,,,,,,,,,,,,1.8,1.1,1.5,3*3E
$GLGSA,A,3,75,77,78,86,87,88,,,,,,,1.8,1.1,1.5*2F
$GLGSV,2,1,07,78,06,330,42,86,33,023,42,77,55,326,42,75,10,151,42*66
$GLGSV,2,2,07,88,19,243,42,87,60,299,42,71,00,080,*5A
$GPGGA,000230.00,2959.998798,N,11959.997014,E,1,00,1.1,-7.8,M,7.0,M,,*76
$GAGGA,000230.00,2959.998798,N,11959.997014,E,1,00,1.1,-7.8,M,7.0,M,,*67
$GNGNS,000230.00,2959.998798,N,11959.997014,E,NAN,06,1.1,-7.8,7.0,,,V*7F
$GPVTG,,T,4.4,M,0.0,N,0.0,K,A*0D
$GPRMC,000230.00,A,2959.998798,N,11959.997014,E,0.0,,230721,4.4,W,A*03
$GARMC,000230.00,A,2959.998798,N,11959.997014,E,0.0,,230721,4.4,W,A*12
$GPGSA,A,1,,,,,,,,,,,,,,,,*32
$GNGSA,A,3,,,,,,,,,,,,,1.8,1.1,1.5,1*3C
$GNGSA,A,3,75,77,78,86,87,88,,,,,,,1.8,1.1,1.5,2*33
$GNGSA,A,3,,,,,,,,,,,,,1.8,1.1,1.5,3*3E
$GLGSA,A,3,75,77,78,86,87,88,,,,,,,1.8,1.1,1.5*2F
$GLGSV,2,1,07,78,06,330,42,86,33,023,42,77,55,326,42,75,10,151,42*66
$GLGSV,2,2,07,88,19,243,42,87,60,299,42,71,00,080,*5A
$GPGGA,000231.00,2959.998681,N,11959.997101,E,1,00,1.1,-7.7,M,7.0,M,,*74
$GAGGA,000231.00,2959.998681,N,11959.997101,E,1,00,1.1,-7.7,M,7.0,M,,*65
$GNGNS,000231.00,2959.998681,N,11959.997101,E,NAN,06,1.1,-7.7,7.0,,,V*7D
$GPVTG,,T,4.4,M,0.0,N,0.0,K,A*0D
$GPRMC,000231.00,A,2959.998681,N,11959.997101,E,0.0,,230721,4.4,W,A*0E
$GARMC,000231.00,A,2959.998681,N,11959.997101,E,0.0,,230721,4.4,W,A*1F
$GPGSA,A,1,,,,,,,,,,,,,,,,*32
$GNGSA,A,3,,,,,,,,,,,,,1.8,1.1,1.5,1*3C
$GNGSA,A,3,75,77,78,86,87,88,,,,,,,1.8,1.1,1.5,2*33
$GNGSA,A,3,,,,,,,,,,,,,1.8,1.1,1.5,3*3E
$GLGSA,A,3,75,77,78,86,87,88,,,,,,,1.8,1.1,1.5*2F
