OK
at+qgps=1
OK
$GLGSV,1,1,02,,,,40,,,,38*68
$GPGSV,2,1,05,04,,,42,07,,,43,08,,,43,13,,,43*77
$GPGSV,2,2,05,25,,,43*7C
$GPGGA,,,,,,0,,,,,,,,*66
$GNGNS,,,,,,NNN,,,,,,*1D
$GPVTG,,T,,M,,N,,K,N*2C
$GPRMC,,V,,,,,,,,,,N*53
$GPGSA,A,1,,,,,,,,,,,,,,,,*32
$GNGSA,A,1,,,,,,,,,,,,,,,,*2C
$GLGSV,1,1,03,,,,41,,,,42,,,,40*61
$GPGSV,2,1,06,02,,,42,04,,,42,07,,,43,08,,,43*75
$GPGSV,2,2,06,13,,,43,25,,,42*7B
$GPGGA,,,,,,0,,,,,,,,*66
$GNGNS,,,,,,NNN,,,,,,*1D
$GPVTG,,T,,M,,N,,K,N*2C
$GPRMC,,V,,,,,,,,,,N*53
$GPGSA,A,1,,,,,,,,,,,,,,,,*32
$GNGSA,A,1,,,,,,,,,,,,,,,,*2C
$GLGSV,1,1,04,,,,40,,,,42,,,,42,,,,41*60
$GPGSV,2,1,06,02,,,42,04,,,43,07,,,43,08,,,43*74
$GPGSV,2,2,06,13,,,43,25,,,43*7A
$GPGGA,,,,,,0,,,,,,,,*66
$GNGNS,,,,,,NNN,,,,,,*1D
$GPVTG,,T,,M,,N,,K,N*2C
$GPRMC,,V,,,,,,,,,,N*53
$GPGSA,A,1,,,,,,,,,,,,,,,,*32
$GNGSA,A,1,,,,,,,,,,,,,,,,*2C
$GLGSV,1,1,04,,,,41,,,,42,,,,42,,,,41*61
$GPGSV,2,1,06,02,,,43,04,,,42,07,,,43,08,,,43*74
$GPGSV,2,2,06,13,,,43,25,,,43*7A
$GPGGA,,,,,,0,,,,,,,,*66
$GNGNS,,,,,,NNN,,,,,,*1D
$GPVTG,,T,,M,,N,,K,N*2C
$GPRMC,,V,,,,,,,,,,N*53
$GPGSA,A,1,,,,,,,,,,,,,,,,*32
$GNGSA,A,1,,,,,,,,,,,,,,,,*2C
$GLGSV,2,1,05,,,,41,,,,41,,,,41,,,,41*63
$GLGSV,2,2,05,,,,40*64
$GPGSV,2,1,06,02,,,43,04,,,42,07,,,43,08,,,43*74
$GPGSV,2,2,06,13,,,43,25,,,43*7A
$GPGGA,,,,,,0,,,,,,,,*66
$GNGNS,,,,,,NNN,,,,,,*1D
$GPVTG,,T,,M,,N,,K,N*2C
$GPRMC,,V,,,,,,,,,,N*53
$GPGSA,A,1,,,,,,,,,,,,,,,,*32
$GNGSA,A,1,,,,,,,,,,,,,,,,*2C
$GLGSV,2,1,05,,,,41,,,,42,,,,42,,,,41*63
$GLGSV,2,2,05,,,,42*66
$GPGSV,2,1,06,02,,,43,04,,,42,07,,,43,08,,,43*74
$GPGSV,2,2,06,13,,,42,25,,,43*7B
$GPGGA,,,,,,0,,,,,,,,*66
$GNGNS,,,,,,NNN,,,,,,*1D
$GPVTG,,T,,M,,N,,K,N*2C
$GPRMC,,V,,,,,,,,,,N*53
$GPGSA,A,1,,,,,,,,,,,,,,,,*32
$GNGSA,A,1,,,,,,,,,,,,,,,,*2C
$GLGSV,2,1,05,,,,41,,,,41,,,,41,,,,41*63
$GLGSV,2,2,05,,,,42*66
$GPGSV,2,1,06,02,,,43,04,,,43,07,,,43,08,,,43*75
$GPGSV,2,2,06,13,,,43,25,,,43*7A
$GPGGA,,,,,,0,,,,,,,,*66
$GNGNS,,,,,,NNN,,,,,,*1D
$GPVTG,,T,,M,,N,,K,N*2C
$GPRMC,,V,,,,,,,,,,N*53
$GPGSA,A,1,,,,,,,,,,,,,,,,*32
$GNGSA,A,1,,,,,,,,,,,,,,,,*2C
$GLGSV,2,1,05,,,,41,,,,42,,,,42,,,,41*63
$GLGSV,2,2,05,,,,42*66
$GPGSV,2,1,06,02,,,43,04,,,43,07,,,43,08,,,43*75
$GPGSV,2,2,06,13,,,43,25,,,43*7A
$GPGGA,,,,,,0,,,,,,,,*66
$GNGNS,,,,,,NNN,,,,,,*1D
$GPVTG,,T,,M,,N,,K,N*2C
$GPRMC,,V,,,,,,,,,,N*53
$GPGSA,A,1,,,,,,,,,,,,,,,,*32
$GNGSA,A,1,,,,,,,,,,,,,,,,*2C
$GLGSV,2,1,05,,,,41,,,,42,,,,42,,,,41*63
$GLGSV,2,2,05,,,,41*65
$GPGSV,2,1,06,02,,,43,04,,,43,07,,,43,08,,,43*75
$GPGSV,2,2,06,13,,,43,25,,,43*7A
$GPGGA,,,,,,0,,,,,,,,*66
$GNGNS,,,,,,NNN,,,,,,*1D
$GPVTG,,T,,M,,N,,K,N*2C
$GPRMC,,V,,,,,,,,,,N*53
$GPGSA,A,1,,,,,,,,,,,,,,,,*32
$GNGSA,A,1,,,,,,,,,,,,,,,,*2C
$GLGSV,2,1,05,,,,41,,,,42,,,,42,,,,42*60
$GLGSV,2,2,05,,,,42*66
$GPGSV,2,1,06,02,,,43,04,,,42,07,,,43,08,,,42*75
$GPGSV,2,2,06,13,,,43,25,,,43*7A
$GPGGA,,,,,,0,,,,,,,,*66
$GNGNS,,,,,,NNN,,,,,,*1D
$GPVTG,,T,,M,,N,,K,N*2C
$GPRMC,,V,,,,,,,,,,N*53
$GPGSA,A,1,,,,,,,,,,,,,,,,*32
$GNGSA,A,1,,,,,,,,,,,,,,,,*2C
$GLGSV,2,1,05,,,,41,,,,42,,,,42,,,,41*63
$GLGSV,2,2,05,,,,41*65
$GPGSV,2,1,06,02,,,42,04,,,42,07,,,43,08,,,43*75
$GPGSV,2,2,06,13,,,43,25,,,43*7A
$GPGGA,,,,,,0,,,,,,,,*66
$GNGNS,,,,,,NNN,,,,,,*1D
$GPVTG,,T,,M,,N,,K,N*2C
$GPRMC,,V,,,,,,,,,,N*53
$GPGSA,A,1,,,,,,,,,,,,,,,,*32
$GNGSA,A,1,,,,,,,,,,,,,,,,*2C
$GLGSV,2,1,05,,,,41,,,,42,,,,42,,,,42*60
$GLGSV,2,2,05,,,,42*66
$GPGSV,2,1,06,02,,,43,04,,,43,07,,,43,08,,,43*75
$GPGSV,2,2,06,13,,,43,25,,,43*7A
$GPGGA,,,,,,0,,,,,,,,*66
$GNGNS,,,,,,NNN,,,,,,*1D
$GPVTG,,T,,M,,N,,K,N*2C
$GPRMC,,V,,,,,,,,,,N*53
$GPGSA,A,1,,,,,,,,,,,,,,,,*32
$GNGSA,A,1,,,,,,,,,,,,,,,,*2C
$GLGSV,2,1,05,,,,41,86,,,42,,,,42,,,,41*6D
$GLGSV,2,2,05,,,,42*66
$GPGSV,2,1,06,02,,,43,04,,,43,07,,,43,08,,,43*75
$GPGSV,2,2,06,13,,,43,25,,,43*7A
$GPGGA,,,,,,0,,,,,,,,*66
$GNGNS,,,,,,NNN,,,,,,*1D
$GPVTG,,T,,M,,N,,K,N*2C
$GPRMC,,V,,,,,,,,,,N*53
$GPGSA,A,1,,,,,,,,,,,,,,,,*32
$GNGSA,A,1,,,,,,,,,,,,,,,,*2C
$GLGSV,2,1,05,78,,,41,86,,,42,77,,,42,,,,41*62
$GLGSV,2,2,05,,,,42*66
$GPGSV,2,1,06,02,,,43,04,,,43,07,,,43,08,,,43*75
$GPGSV,2,2,06,13,,,43,25,,,42*7B
$GPGGA,000140.59,3000.055427,N,12000.613708,E,1,06,2.3,-1.9,M,7.0,M,,*7A
$GAGGA,000140.59,3000.055427,N,12000.613708,E,1,00,2.3,-1.9,M,7.0,M,,*6D
$GNGNS,000140.59,3000.055427,N,12000.613708,E,ANN,06,2.3,-1.9,7.0,,,V*75
$GPVTG,168.3,T,172.7,M,75.6,N,140.0,K,A*1D
$GPRMC,000140.59,A,3000.055427,N,12000.613708,E,75.6,168.3,230721,4.4,W,A*19
$GARMC,000140.59,A,3000.055427,N,12000.613708,E,75.6,168.3,230721,4.4,W,A*08
$GPGSA,A,3,02,04,07,08,13,25,,,,,,,5.4,2.3,4.9*33
$GNGSA,A,3,02,04,07,08,13,25,,,,,,,5.4,2.3,4.9,1*30
$GNGSA,A,3,,,,,,,,,,,,,5.4,2.3,4.9,2*3F
$GNGSA,A,3,,,,,,,,,,,,,5.4,2.3,4.9,3*3E
$GLGSA,A,3,,,,,,,,,,,,,5.4,2.3,4.9*23
$GPGGA,000141.00,3000.046855,N,12000.615740,E,1,06,2.3,-1.9,M,7.0,M,,*76
$GAGGA,000141.00,3000.046855,N,12000.615740,E,1,00,2.3,-1.9,M,7.0,M,,*61
$GNGNS,000141.00,3000.046855,N,12000.615740,E,ANN,06,2.3,-1.9,7.0,,,V*79
$GPVTG,168.3,T,172.7,M,75.6,N,140.0,K,A*1D
$GPRMC,000141.00,A,3000.046855,N,12000.615740,E,75.6,168.3,230721,4.4,W,A*15
$GARMC,000141.00,A,3000.046855,N,12000.615740,E,75.6,168.3,230721,4.4,W,A*04
$GPGSA,A,3,02,04,07,08,13,25,,,,,,,5.4,2.3,4.9*33
$GNGSA,A,3,02,04,07,08,13,25,,,,,,,5.4,2.3,4.9,1*30
$GNGSA,A,3,,,,,,,,,,,,,5.4,2.3,4.9,2*3F
$GNGSA,A,3,,,,,,,,,,,,,5.4,2.3,4.9,3*3E
$GLGSA,A,3,,,,,,,,,,,,,5.4,2.3,4.9*23
$GPGGA,000142.00,3000.026412,N,12000.620588,E,1,06,2.3,-1.9,M,7.0,M,,*7C
$GAGGA,000142.00,3000.026412,N,12000.620588,E,1,00,2.3,-1.9,M,7.0,M,,*6B
$GNGNS,000142.00,3000.026412,N,12000.620588,E,ANN,06,2.3,-1.9,7.0,,,V*73
$GPVTG,168.3,T,172.7,M,75.6,N,140.0,K,A*1D
$GPRMC,000142.00,A,3000.026412,N,12000.620588,E,75.6,168.3,230721,4.4,W,A*1F
$GARMC,000142.00,A,3000.026412,N,12000.620588,E,75.6,168.3,230721,4.4,W,A*0E
$GPGSA,A,3,02,04,07,08,13,25,,,,,,,5.4,2.3,4.9*33
$GNGSA,A,3,02,04,07,08,13,25,,,,,,,5.4,2.3,4.9,1*30
$GNGSA,A,3,,,,,,,,,,,,,5.4,2.3,4.9,2*3F
$GNGSA,A,3,,,,,,,,,,,,,5.4,2.3,4.9,3*3E
$GLGSA,A,3,,,,,,,,,,,,,5.4,2.3,4.9*23
$GLGSV,2,1,07,78,06,330,41,86,33,023,42,77,55,326,42,75,10,151,41*66
$GLGSV,2,2,07,87,60,299,42,88,19,243,,71,00,080,*5C
$GPGSV,3,1,12,02,31,298,42,04,50,244,42,07,83,112,43,08,46,206,43*78
$GPGSV,3,2,12,13,48,030,43,25,65,042,43,10,00,309,,16,,,*48
$GPGSV,3,3,12,20,21,120,,23,26,056,,27,17,217,,28,,,*43
$GAGSV,2,1,08,09,12,316,,10,63,333,,11,55,116,,12,05,129,*60
$GAGSV,2,2,08,17,29,039,,23,37,222,,24,84,019,,27,29,125,*6A
$GPGGA,000143.00,3000.005269,N,12000.620562,E,1,06,2.3,-5.2,M,7.0,M,,*7D
$GAGGA,000143.00,3000.005269,N,12000.620562,E,1,00,2.3,-5.2,M,7.0,M,,*6A
$GNGNS,000143.00,3000.005269,N,12000.620562,E,ANN,06,2.3,-5.2,7.0,,,V*72
$GPVTG,176.4,T,180.8,M,75.8,N,140.5,K,A*1C
$GPRMC,000143.00,A,3000.005269,N,12000.620562,E,75.8,176.4,230721,4.4,W,A*17
$GARMC,000143.00,A,3000.005269,N,12000.620562,E,75.8,176.4,230721,4.4,W,A*06
$GPGSA,A,3,02,04,07,08,13,25,,,,,,,5.4,2.3,4.9*33
$GNGSA,A,3,02,04,07,08,13,25,,,,,,,5.4,2.3,4.9,1*30
$GNGSA,A,3,,,,,,,,,,,,,5.4,2.3,4.9,2*3F
$GNGSA,A,3,,,,,,,,,,,,,5.4,2.3,4.9,3*3E
$GLGSA,A,3,,,,,,,,,,,,,5.4,2.3,4.9*23
$GLGSV,2,1,07,78,06,330,41,86,33,023,42,77,55,326,42,75,10,151,41*66
$GLGSV,2,2,07,87,60,299,42,88,19,243,,71,00,080,*5C
$GPGSV,3,1,12,02,31,298,43,04,50,244,43,07,83,112,43,08,46,206,43*78
$GPGSV,3,2,12,13,48,030,43,25,65,042,43,10,00,309,,16,,,*48
$GPGSV,3,3,12,20,21,120,,23,26,056,,27,17,217,,28,,,*43
$GAGSV,2,1,08,09,12,316,,10,63,333,,11,55,116,,12,05,129,*60
$GAGSV,2,2,08,17,29,039,,23,37,222,,24,84,019,,27,29,125,*6A
$GPGGA,000144.00,2959.984373,N,12000.619935,E,1,06,2.3,-4.4,M,7.0,M,,*77
$GAGGA,000144.00,2959.984373,N,12000.619935,E,1,00,2.3,-4.4,M,7.0,M,,*60
$GNGNS,000144.00,2959.984373,N,12000.619935,E,ANN,06,2.3,-4.4,7.0,,,V*78
$GPVTG,180.8,T,185.2,M,75.6,N,140.0,K,A*1D
$GPRMC,000144.00,A,2959.984373,N,12000.619935,E,75.6,180.8,230721,4.4,W,A*11
$GARMC,000144.00,A,2959.984373,N,12000.619935,E,75.6,180.8,230721,4.4,W,A*00
$GPGSA,A,3,02,04,07,08,13,25,,,,,,,5.4,2.3,4.9*33
$GNGSA,A,3,02,04,07,08,13,25,,,,,,,5.4,2.3,4.9,1*30
$GNGSA,A,3,,,,,,,,,,,,,5.4,2.3,4.9,2*3F
$GNGSA,A,3,,,,,,,,,,,,,5.4,2.3,4.9,3*3E
$GLGSA,A,3,,,,,,,,,,,,,5.4,2.3,4.9*23
$GLGSV,2,1,07,78,06,330,41,86,33,023,42,77,55,326,42,75,10,151,41*66
$GLGSV,2,2,07,87,60,299,42,88,19,243,,71,00,080,*5C
$GPGSV,3,1,12,02,31,298,42,04,50,244,43,07,83,112,43,08,46,206,43*79
$GPGSV,3,2,12,13,48,030,43,25,65,042,43,10,00,309,,16,,,*48
$GPGSV,3,3,12,20,21,120,,23,26,056,,27,17,217,,28,,,*43
$GAGSV,2,1,08,09,12,316,,10,63,333,,11,55,116,,12,05,129,*60
$GAGSV,2,2,08,17,29,039,,23,37,222,,24,84,019,,27,29,125,*6A
$GPGGA,000145.00,2959.963345,N,12000.617506,E,1,06,2.3,-5.0,M,7.0,M,,*7D
$GAGGA,000145.00,2959.963345,N,12000.617506,E,1,00,2.3,-5.0,M,7.0,M,,*6A
$GNGNS,000145.00,2959.963345,N,12000.617506,E,ANN,06,2.3,-5.0,7.0,,,V*72
$GPVTG,187.9,T,192.3,M,75.8,N,140.4,K,A*16
$GPRMC,000145.00,A,2959.963345,N,12000.617506,E,75.8,187.9,230721,4.4,W,A*16
$GARMC,000145.00,A,2959.963345,N,12000.617506,E,75.8,187.9,230721,4.4,W,A*07
$GPGSA,A,3,02,04,07,08,13,25,,,,,,,5.4,2.3,4.9*33
$GNGSA,A,3,02,04,07,08,13,25,,,,,,,5.4,2.3,4.9,1*30
$GNGSA,A,3,,,,,,,,,,,,,5.4,2.3,4.9,2*3F
$GNGSA,A,3,,,,,,,,,,,,,5.4,2.3,4.9,3*3E
$GLGSA,A,3,,,,,,,,,,,,,5.4,2.3,4.9*23
$GLGSV,2,1,07,78,06,330,41,86,33,023,42,77,55,326,42,75,10,151,41*66
$GLGSV,2,2,07,87,60,299,42,88,19,243,,71,00,080,*5C
$GPGSV,3,1,12,02,31,298,42,04,50,244,42,07,83,112,43,08,46,206,42*79
$GPGSV,3,2,12,13,48,030,43,25,65,042,43,10,00,309,,16,,,*48
$GPGSV,3,3,12,20,21,120,,23,26,056,,27,17,217,,28,,,*43
$GAGSV,2,1,08,09,12,316,,10,63,333,,11,55,116,,12,05,129,*60
$GAGSV,2,2,08,17,29,039,,23,37,222,,24,84,019,,27,29,125,*6A
$GPGGA,000146.00,2959.942705,N,12000.613163,E,1,06,2.3,-5.3,M,7.0,M,,*7D
$GAGGA,000146.00,2959.942705,N,12000.613163,E,1,00,2.3,-5.3,M,7.0,M,,*6A
$GNGNS,000146.00,2959.942705,N,12000.613163,E,ANN,06,2.3,-5.3,7.0,,,V*72
$GPVTG,192.4,T,196.8,M,75.8,N,140.4,K,A*10
$GPRMC,000146.00,A,2959.942705,N,12000.613163,E,75.8,192.4,230721,4.4,W,A*1C
$GARMC,000146.00,A,2959.942705,N,12000.613163,E,75.8,192.4,230721,4.4,W,A*0D
$GPGSA,A,3,02,04,07,08,13,25,,,,,,,5.4,2.3,4.9*33
$GNGSA,A,3,02,04,07,08,13,25,,,,,,,5.4,2.3,4.9,1*30
$GNGSA,A,3,,,,,,,,,,,,,5.4,2.3,4.9,2*3F
$GNGSA,A,3,,,,,,,,,,,,,5.4,2.3,4.9,3*3E
$GLGSA,A,3,,,,,,,,,,,,,5.4,2.3,4.9*23
$GLGSV,2,1,07,78,06,330,41,86,33,023,42,77,55,326,42,75,10,151,41*66
$GLGSV,2,2,07,87,60,299,42,88,19,243,,71,00,080,*5C
$GPGSV,3,1,12,02,31,298,42,04,50,244,43,07,83,112,43,08,46,206,43*79
$GPGSV,3,2,12,13,48,030,43,25,65,042,43,10,00,309,,16,,,*48
$GPGSV,3,3,12,20,21,120,,23,26,056,,27,17,217,,28,,,*43
$GAGSV,2,1,08,09,12,316,,10,63,333,,11,55,116,,12,05,129,*60
$GAGSV,2,2,08,17,29,039,,23,37,222,,24,84,019,,27,29,125,*6A
$GPGGA,000147.00,2959.922346,N,12000.607051,E,1,06,2.3,-5.3,M,7.0,M,,*7C
$GAGGA,000147.00,2959.922346,N,12000.607051,E,1,00,2.3,-5.3,M,7.0,M,,*6B
$GNGNS,000147.00,2959.922346,N,12000.607051,E,ANN,06,2.3,-5.3,7.0,,,V*73
$GPVTG,196.9,T,201.3,M,75.8,N,140.4,K,A*1F
$GPRMC,000147.00,A,2959.922346,N,12000.607051,E,75.8,196.9,230721,4.4,W,A*14
$GARMC,000147.00,A,2959.922346,N,12000.607051,E,75.8,196.9,230721,4.4,W,A*05
$GPGSA,A,3,02,04,07,08,13,25,,,,,,,5.4,2.3,4.9*33
$GNGSA,A,3,02,04,07,08,13,25,,,,,,,5.4,2.3,4.9,1*30
$GNGSA,A,3,,,,,,,,,,,,,5.4,2.3,4.9,2*3F
$GNGSA,A,3,,,,,,,,,,,,,5.4,2.3,4.9,3*3E
$GLGSA,A,3,,,,,,,,,,,,,5.4,2.3,4.9*23
$GLGSV,2,1,07,78,06,330,41,86,33,023,42,77,55,326,42,75,10,151,41*66
$GLGSV,2,2,07,87,60,299,42,88,19,243,,71,00,080,*5C
$GPGSV,3,1,12,02,31,298,42,04,50,244,42,07,83,112,43,08,46,206,43*78
$GPGSV,3,2,12,13,48,030,43,25,65,042,43,10,00,309,,16,,,*48
$GPGSV,3,3,12,20,21,120,,23,26,056,,27,17,217,,28,,,*43
$GAGSV,2,1,08,09,12,316,,10,63,333,,11,55,116,,12,05,129,*60
$GAGSV,2,2,08,17,29,039,,23,37,222,,24,84,019,,27,29,125,*6A
$GPGGA,000148.00,2959.902310,N,12000.599384,E,1,06,2.3,-5.8,M,7.0,M,,*76
$GAGGA,000148.00,2959.902310,N,12000.599384,E,1,00,2.3,-5.8,M,7.0,M,,*61
$GNGNS,000148.00,2959.902310,N,12000.599384,E,ANN,06,2.3,-5.8,7.0,,,V*79
$GPVTG,201.3,T,205.7,M,75.8,N,140.4,K,A*18
$GPRMC,000148.00,A,2959.902310,N,12000.599384,E,75.8,201.3,230721,4.4,W,A*12
$GARMC,000148.00,A,2959.902310,N,12000.599384,E,75.8,201.3,230721,4.4,W,A*03
$GPGSA,A,3,02,04,07,08,13,25,,,,,,,5.4,2.3,4.9*33
$GNGSA,A,3,02,04,07,08,13,25,,,,,,,5.4,2.3,4.9,1*30
$GNGSA,A,3,,,,,,,,,,,,,5.4,2.3,4.9,2*3F
$GNGSA,A,3,,,,,,,,,,,,,5.4,2.3,4.9,3*3E
$GLGSA,A,3,,,,,,,,,,,,,5.4,2.3,4.9*23
$GLGSV,2,1,07,78,06,330,41,86,33,023,42,77,55,326,42,75,10,151,41*66
$GLGSV,2,2,07,87,60,299,42,88,19,243,,71,00,080,*5C
$GPGSV,3,1,12,02,31,298,42,04,50,244,43,07,83,112,43,08,46,206,43*79
$GPGSV,3,2,12,13,48,030,43,25,65,042,43,10,00,309,,16,,,*48
$GPGSV,3,3,12,20,21,120,,23,26,056,,27,17,217,,28,,,*43
$GAGSV,2,1,08,09,12,316,,10,63,333,,11,55,116,,12,05,129,*60
$GAGSV,2,2,08,17,29,039,,23,37,222,,24,84,019,,27,29,125,*6A
$GPGGA,000149.00,2959.883043,N,12000.589889,E,1,06,2.3,-6.1,M,7.0,M,,*77
$GAGGA,000149.00,2959.883043,N,12000.589889,E,1,00,2.3,-6.1,M,7.0,M,,*60
$GNGNS,000149.00,2959.883043,N,12000.589889,E,ANN,06,2.3,-6.1,7.0,,,V*78
$GPVTG,205.8,T,210.2,M,75.8,N,140.4,K,A*16
$GPRMC,000149.00,A,2959.883043,N,12000.589889,E,75.8,205.8,230721,4.4,W,A*16
$GARMC,000149.00,A,2959.883043,N,12000.589889,E,75.8,205.8,230721,4.4,W,A*07
$GPGSA,A,3,02,04,07,08,13,25,,,,,,,5.4,2.3,4.9*33
$GNGSA,A,3,02,04,07,08,13,25,,,,,,,5.4,2.3,4.9,1*30
$GNGSA,A,3,,,,,,,,,,,,,5.4,2.3,4.9,2*3F
$GNGSA,A,3,,,,,,,,,,,,,5.4,2.3,4.9,3*3E
$GLGSA,A,3,,,,,,,,,,,,,5.4,2.3,4.9*23
$GLGSV,2,1,07,78,06,330,41,86,33,023,42,77,55,326,42,75,10,151,41*66
$GLGSV,2,2,07,87,60,299,42,88,19,243,,71,00,080,*5C
$GPGSV,3,1,12,02,31,298,42,04,50,244,43,07,83,112,43,08,46,206,43*79
$GPGSV,3,2,12,13,48,030,43,25,65,042,43,10,00,309,,16,,,*48
$GPGSV,3,3,12,20,21,120,,23,26,056,,27,17,217,,28,,,*43
$GAGSV,2,1,08,09,12,316,,10,63,333,,11,55,116,,12,05,129,*60
$GAGSV,2,2,08,17,29,039,,23,37,222,,24,84,019,,27,29,125,*6A
$GPGGA,000150.00,2959.864438,N,12000.578639,E,1,06,2.3,-6.6,M,7.0,M,,*72
$GAGGA,000150.00,2959.864438,N,12000.578639,E,1,00,2.3,-6.6,M,7.0,M,,*65
$GNGNS,000150.00,2959.864438,N,12000.578639,E,ANN,06,2.3,-6.6,7.0,,,V*7D
$GPVTG,210.2,T,214.6,M,75.8,N,140.4,K,A*18
$GPRMC,000150.00,A,2959.864438,N,12000.578639,E,75.8,210.2,230721,4.4,W,A*1A
$GARMC,000150.00,A,2959.864438,N,12000.578639,E,75.8,210.2,230721,4.4,W,A*0B
$GPGSA,A,3,02,04,07,08,13,25,,,,,,,5.4,2.3,4.9*33
$GNGSA,A,3,02,04,07,08,13,25,,,,,,,5.4,2.3,4.9,1*30
$GNGSA,A,3,,,,,,,,,,,,,5.4,2.3,4.9,2*3F
$GNGSA,A,3,,,,,,,,,,,,,5.4,2.3,4.9,3*3E
$GLGSA,A,3,,,,,,,,,,,,,5.4,2.3,4.9*23
$GLGSV,2,1,07,78,06,330,41,86,33,023,42,77,55,326,42,75,10,151,41*66
$GLGSV,2,2,07,87,60,299,42,88,19,243,,71,00,080,*5C
$GPGSV,3,1,12,02,31,298,42,04,50,244,43,07,83,112,43,08,46,206,43*79
$GPGSV,3,2,12,13,48,030,43,25,65,042,43,10,00,309,,16,,,*48
$GPGSV,3,3,12,20,21,120,,23,26,056,,27,17,217,,28,,,*43
$GAGSV,2,1,08,09,12,316,,10,63,333,,11,55,116,,12,05,129,*60
$GAGSV,2,2,08,17,29,039,,23,37,222,,24,84,019,,27,29,125,*6A
$GPGGA,000151.00,2959.846654,N,12000.565723,E,1,06,2.3,-6.9,M,7.0,M,,*72
$GAGGA,000151.00,2959.846654,N,12000.565723,E,1,00,2.3,-6.9,M,7.0,M,,*65
$GNGNS,000151.00,2959.846654,N,12000.565723,E,ANN,06,2.3,-6.9,7.0,,,V*7D
$GPVTG,214.7,T,219.1,M,75.8,N,140.4,K,A*13
$GPRMC,000151.00,A,2959.846654,N,12000.565723,E,75.8,214.7,230721,4.4,W,A*14
$GARMC,000151.00,A,2959.846654,N,12000.565723,E,75.8,214.7,230721,4.4,W,A*05
$GPGSA,A,3,02,04,07,08,13,25,,,,,,,5.4,2.3,4.9*33
$GNGSA,A,3,02,04,07,08,13,25,,,,,,,5.4,2.3,4.9,1*30
$GNGSA,A,3,,,,,,,,,,,,,5.4,2.3,4.9,2*3F
$GNGSA,A,3,,,,,,,,,,,,,5.4,2.3,4.9,3*3E
$GLGSA,A,3,,,,,,,,,,,,,5.4,2.3,4.9*23
$GLGSV,2,1,07,78,06,330,41,86,33,023,42,77,55,326,42,75,10,151,41*66
$GLGSV,2,2,07,87,60,299,42,88,19,243,,71,00,080,*5C
$GPGSV,3,1,12,02,31,298,42,04,50,244,43,07,83,112,43,08,46,206,43*79
$GPGSV,3,2,12,13,48,030,43,25,65,042,43,10,00,309,,16,,,*48
$GPGSV,3,3,12,20,21,120,,23,26,056,,27,17,217,,28,,,*43
$GAGSV,2,1,08,09,12,316,,10,63,333,,11,55,116,,12,05,129,*60
$GAGSV,2,2,08,17,29,039,,23,37,222,,24,84,019,,27,29,125,*6A
$GPGGA,000152.00,2959.829896,N,12000.551250,E,1,06,2.3,-6.8,M,7.0,M,,*7F
$GAGGA,000152.00,2959.829896,N,12000.551250,E,1,00,2.3,-6.8,M,7.0,M,,*68
$GNGNS,000152.00,2959.829896,N,12000.551250,E,ANN,06,2.3,-6.8,7.0,,,V*70
$GPVTG,219.1,T,223.5,M,75.8,N,140.4,K,A*15
$GPRMC,000152.00,A,2959.829896,N,12000.551250,E,75.8,219.1,230721,4.4,W,A*13
$GARMC,000152.00,A,2959.829896,N,12000.551250,E,75.8,219.1,230721,4.4,W,A*02
$GPGSA,A,3,02,04,07,08,13,25,,,,,,,5.4,2.3,4.9*33
$GNGSA,A,3,02,04,07,08,13,25,,,,,,,5.4,2.3,4.9,1*30
$GNGSA,A,3,,,,,,,,,,,,,5.4,2.3,4.9,2*3F
$GNGSA,A,3,,,,,,,,,,,,,5.4,2.3,4.9,3*3E
$GLGSA,A,3,,,,,,,,,,,,,5.4,2.3,4.9*23
$GLGSV,2,1,07,78,06,330,41,86,33,023,42,77,55,326,42,75,10,151,41*66
$GLGSV,2,2,07,87,60,299,42,88,19,243,,71,00,080,*5C
$GPGSV,3,1,12,02,31,298,42,04,50,244,43,07,83,112,43,08,46,206,43*79
$GPGSV,3,2,12,13,48,030,43,25,65,042,43,10,00,309,,16,,,*48
$GPGSV,3,3,12,20,21,120,,23,26,056,,27,17,217,,28,,,*43
$GAGSV,2,1,08,09,12,316,,10,63,333,,11,55,116,,12,05,129,*60
$GAGSV,2,2,08,17,29,039,,23,37,222,,24,84,019,,27,29,125,*6A
$GPGGA,000153.00,2959.814109,N,12000.535316,E,1,06,2.3,-6.8,M,7.0,M,,*7E
$GAGGA,000153.00,2959.814109,N,12000.535316,E,1,00,2.3,-6.8,M,7.0,M,,*69
$GNGNS,000153.00,2959.814109,N,12000.535316,E,ANN,06,2.3,-6.8,7.0,,,V*71
$GPVTG,223.6,T,228.0,M,75.8,N,140.4,K,A*15
$GPRMC,000153.00,A,2959.814109,N,12000.535316,E,75.8,223.6,230721,4.4,W,A*1C
$GARMC,000153.00,A,2959.814109,N,12000.535316,E,75.8,223.6,230721,4.4,W,A*0D
$GPGSA,A,3,02,04,07,08,13,25,,,,,,,5.4,2.3,4.9*33
$GNGSA,A,3,02,04,07,08,13,25,,,,,,,5.4,2.3,4.9,1*30
$GNGSA,A,3,,,,,,,,,,,,,5.4,2.3,4.9,2*3F
$GNGSA,A,3,,,,,,,,,,,,,5.4,2.3,4.9,3*3E
$GLGSA,A,3,,,,,,,,,,,,,5.4,2.3,4.9*23
$GLGSV,2,1,07,78,06,330,41,86,33,023,42,77,55,326,42,75,10,151,41*66
$GLGSV,2,2,07,87,60,299,42,88,19,243,,71,00,080,*5C
$GPGSV,3,1,12,02,31,298,42,04,50,244,43,07,83,112,43,08,46,206,43*79
$GPGSV,3,2,12,13,48,030,43,25,65,042,43,10,00,309,,16,,,*48
$GPGSV,3,3,12,20,21,120,,23,26,056,,27,17,217,,28,,,*43
$GAGSV,2,1,08,09,12,316,,10,63,333,,11,55,116,,12,05,129,*60
$GAGSV,2,2,08,17,29,039,,23,37,222,,24,84,019,,27,29,125,*6A
$GPGGA,000154.00,2959.799503,N,12000.517960,E,1,06,2.3,-6.6,M,7.0,M,,*78
$GAGGA,000154.00,2959.799503,N,12000.517960,E,1,00,2.3,-6.6,M,7.0,M,,*6F
$GNGNS,000154.00,2959.799503,N,12000.517960,E,ANN,06,2.3,-6.6,7.0,,,V*77
$GPVTG,228.0,T,232.4,M,75.8,N,140.4,K,A*17
$GPRMC,000154.00,A,2959.799503,N,12000.517960,E,75.8,228.0,230721,4.4,W,A*19
$GARMC,000154.00,A,2959.799503,N,12000.517960,E,75.8,228.0,230721,4.4,W,A*08
$GPGSA,A,3,02,04,07,08,13,25,,,,,,,5.4,2.3,4.9*33
$GNGSA,A,3,02,04,07,08,13,25,,,,,,,5.4,2.3,4.9,1*30
$GNGSA,A,3,,,,,,,,,,,,,5.4,2.3,4.9,2*3F
$GNGSA,A,3,,,,,,,,,,,,,5.4,2.3,4.9,3*3E
$GLGSA,A,3,,,,,,,,,,,,,5.4,2.3,4.9*23
$GLGSV,2,1,07,78,06,330,41,86,33,023,42,77,55,326,42,75,10,151,41*66
$GLGSV,2,2,07,87,60,299,42,88,19,243,,71,00,080,*5C
$GPGSV,3,1,12,02,31,298,43,04,50,244,43,07,83,112,43,08,46,206,43*78
$GPGSV,3,2,12,13,48,030,43,25,65,042,43,10,00,309,,16,,,*48
$GPGSV,3,3,12,20,21,120,,23,26,056,,27,17,217,,28,,,*43
$GAGSV,2,1,08,09,12,316,,10,63,333,,11,55,116,,12,05,129,*60
$GAGSV,2,2,08,17,29,039,,23,37,222,,24,84,019,,27,29,125,*6A
$GPGGA,000155.00,2959.786053,N,12000.499311,E,1,06,2.3,-6.5,M,7.0,M,,*7F
$GAGGA,000155.00,2959.786053,N,12000.499311,E,1,00,2.3,-6.5,M,7.0,M,,*68
$GNGNS,000155.00,2959.786053,N,12000.499311,E,ANN,06,2.3,-6.5,7.0,,,V*70
$GPVTG,232.5,T,236.9,M,75.8,N,140.4,K,A*10
$GPRMC,000155.00,A,2959.786053,N,12000.499311,E,75.8,232.5,230721,4.4,W,A*13
$GARMC,000155.00,A,2959.786053,N,12000.499311,E,75.8,232.5,230721,4.4,W,A*02
$GPGSA,A,3,02,04,07,08,13,25,,,,,,,5.4,2.3,4.9*33
$GNGSA,A,3,02,04,07,08,13,25,,,,,,,5.4,2.3,4.9,1*30
$GNGSA,A,3,,,,,,,,,,,,,5.4,2.3,4.9,2*3F
$GNGSA,A,3,,,,,,,,,,,,,5.4,2.3,4.9,3*3E
$GLGSA,A,3,,,,,,,,,,,,,5.4,2.3,4.9*23
$GLGSV,2,1,07,78,06,330,41,86,33,023,42,77,55,326,42,75,10,151,41*66
$GLGSV,2,2,07,87,60,299,42,88,19,243,,71,00,080,*5C
$GPGSV,3,1,12,02,31,298,43,04,50,244,43,07,83,112,43,08,46,206,43*78
$GPGSV,3,2,12,13,48,030,43,25,65,042,43,10,00,309,,16,,,*48
$GPGSV,3,3,12,20,21,120,,23,26,056,,27,17,217,,28,,,*43
$GAGSV,2,1,08,09,12,316,,10,63,333,,11,55,116,,12,05,129,*60
$GAGSV,2,2,08,17,29,039,,23,37,222,,24,84,019,,27,29,125,*6A
$GPGGA,000156.00,2959.773997,N,12000.479484,E,1,06,2.3,-5.9,M,7.0,M,,*7D
$GAGGA,000156.00,2959.773997,N,12000.479484,E,1,00,2.3,-5.9,M,7.0,M,,*6A
$GNGNS,000156.00,2959.773997,N,12000.479484,E,ANN,06,2.3,-5.9,7.0,,,V*72
$GPVTG,236.9,T,241.3,M,75.8,N,140.3,K,A*15
$GPRMC,000156.00,A,2959.773997,N,12000.479484,E,75.8,236.9,230721,4.4,W,A*16
$GARMC,000156.00,A,2959.773997,N,12000.479484,E,75.8,236.9,230721,4.4,W,A*07
$GPGSA,A,3,02,04,07,08,13,25,,,,,,,5.4,2.3,4.9*33
$GNGSA,A,3,02,04,07,08,13,25,,,,,,,5.4,2.3,4.9,1*30
$GNGSA,A,3,,,,,,,,,,,,,5.4,2.3,4.9,2*3F
$GNGSA,A,3,,,,,,,,,,,,,5.4,2.3,4.9,3*3E
$GLGSA,A,3,,,,,,,,,,,,,5.4,2.3,4.9*23
$GLGSV,2,1,07,78,06,330,41,86,33,023,42,77,55,326,42,75,10,151,41*66
$GLGSV,2,2,07,87,60,299,42,88,19,243,,71,00,080,*5C
$GPGSV,3,1,12,02,31,298,43,04,50,244,43,07,83,112,43,08,46,206,43*78
$GPGSV,3,2,12,13,48,030,42,25,65,042,43,10,00,309,,16,,,*49
$GPGSV,3,3,12,20,21,120,,23,26,056,,27,17,217,,28,,,*43
$GAGSV,2,1,08,09,12,316,,10,63,333,,11,55,116,,12,05,129,*60
$GAGSV,2,2,08,17,29,039,,23,37,222,,24,84,019,,27,29,125,*6A
$GPGGA,000157.00,2959.763190,N,12000.458868,E,1,06,2.3,-6.2,M,7.0,M,,*77
$GAGGA,000157.00,2959.763190,N,12000.458868,E,1,00,2.3,-6.2,M,7.0,M,,*60
$GNGNS,000157.00,2959.763190,N,12000.458868,E,ANN,06,2.3,-6.2,7.0,,,V*78
$GPVTG,241.4,T,245.8,M,75.8,N,140.4,K,A*10
$GPRMC,000157.00,A,2959.763190,N,12000.458868,E,75.8,241.4,230721,4.4,W,A*19
$GARMC,000157.00,A,2959.763190,N,12000.458868,E,75.8,241.4,230721,4.4,W,A*08
$GPGSA,A,3,02,04,07,08,13,25,,,,,,,5.4,2.3,4.9*33
$GNGSA,A,3,02,04,07,08,13,25,,,,,,,5.4,2.3,4.9,1*30
$GNGSA,A,3,,,,,,,,,,,,,5.4,2.3,4.9,2*3F
$GNGSA,A,3,,,,,,,,,,,,,5.4,2.3,4.9,3*3E
$GLGSA,A,3,,,,,,,,,,,,,5.4,2.3,4.9*23
$GLGSV,2,1,07,78,06,330,41,86,33,023,42,77,55,326,42,75,10,151,41*66
$GLGSV,2,2,07,87,60,299,42,88,19,243,,71,00,080,*5C
$GPGSV,3,1,12,02,31,298,43,04,50,244,43,07,83,112,43,08,46,206,43*78
$GPGSV,3,2,12,13,48,030,43,25,65,042,43,10,00,309,,16,,,*48
$GPGSV,3,3,12,20,21,120,,23,26,056,,27,17,217,,28,,,*43
$GAGSV,2,1,08,09,12,316,,10,63,333,,11,55,116,,12,05,129,*60
$GAGSV,2,2,08,17,29,039,,23,37,222,,24,84,019,,27,29,125,*6A
$GPGGA,000158.00,2959.753747,N,12000.437229,E,1,06,2.3,-6.6,M,7.0,M,,*75
$GAGGA,000158.00,2959.753747,N,12000.437229,E,1,00,2.3,-6.6,M,7.0,M,,*62
$GNGNS,000158.00,2959.753747,N,12000.437229,E,ANN,06,2.3,-6.6,7.0,,,V*7A
$GPVTG,245.9,T,250.3,M,75.8,N,140.3,K,A*11
$GPRMC,000158.00,A,2959.753747,N,12000.437229,E,75.8,245.9,230721,4.4,W,A*16
$GARMC,000158.00,A,2959.753747,N,12000.437229,E,75.8,245.9,230721,4.4,W,A*07
$GPGSA,A,3,02,04,07,08,13,25,,,,,,,5.4,2.3,4.9*33
$GNGSA,A,3,02,04,07,08,13,25,,,,,,,5.4,2.3,4.9,1*30
$GNGSA,A,3,,,,,,,,,,,,,5.4,2.3,4.9,2*3F
$GNGSA,A,3,,,,,,,,,,,,,5.4,2.3,4.9,3*3E
$GLGSA,A,3,,,,,,,,,,,,,5.4,2.3,4.9*23
$GLGSV,2,1,07,78,06,330,41,86,33,023,42,77,55,326,42,75,10,151,41*66
$GLGSV,2,2,07,87,60,299,42,88,19,243,,71,00,080,*5C
$GPGSV,3,1,12,02,31,298,43,04,50,244,43,07,83,112,43,08,46,206,42*79
$GPGSV,3,2,12,13,48,030,42,25,65,042,43,10,00,309,,16,,,*49
$GPGSV,3,3,12,20,21,120,,23,26,056,,27,17,217,,28,,,*43
$GAGSV,2,1,08,09,12,316,,10,63,333,,11,55,116,,12,05,129,*60
$GAGSV,2,2,08,17,29,039,,23,37,222,,24,84,019,,27,29,125,*6A
$GPGGA,000159.00,2959.745942,N,12000.414707,E,1,06,2.3,-6.3,M,7.0,M,,*75
$GAGGA,000159.00,2959.745942,N,12000.414707,E,1,00,2.3,-6.3,M,7.0,M,,*62
$GNGNS,000159.00,2959.745942,N,12000.414707,E,ANN,06,2.3,-6.3,7.0,,,V*7A
$GPVTG,250.3,T,254.7,M,75.8,N,140.4,K,A*18
$GPRMC,000159.00,A,2959.745942,N,12000.414707,E,75.8,250.3,230721,4.4,W,A*1D
$GARMC,000159.00,A,2959.745942,N,12000.414707,E,75.8,250.3,230721,4.4,W,A*0C
$GPGSA,A,3,02,04,07,08,13,25,,,,,,,5.4,2.3,4.9*33
$GNGSA,A,3,02,04,07,08,13,25,,,,,,,5.4,2.3,4.9,1*30
$GNGSA,A,3,,,,,,,,,,,,,5.4,2.3,4.9,2*3F
$GNGSA,A,3,,,,,,,,,,,,,5.4,2.3,4.9,3*3E
$GLGSA,A,3,,,,,,,,,,,,,5.4,2.3,4.9*23
$GLGSV,2,1,07,78,06,330,41,86,33,023,42,77,55,326,42,75,10,151,41*66
$GLGSV,2,2,07,87,60,299,42,88,19,243,,71,00,080,*5C
$GPGSV,3,1,12,02,31,298,42,04,50,244,43,07,83,112,43,08,46,206,43*79
$GPGSV,3,2,12,13,48,030,42,25,65,042,43,10,00,309,,16,,,*49
$GPGSV,3,3,12,20,21,120,,23,26,056,,27,17,217,,28,,,*43
$GAGSV,2,1,08,09,12,316,,10,63,333,,11,55,116,,12,05,129,*60
$GAGSV,2,2,08,17,29,039,,23,37,222,,24,84,019,,27,29,125,*6A
$GPGGA,000200.00,2959.739576,N,12000.391624,E,1,06,2.3,-6.4,M,7.0,M,,*77
$GAGGA,000200.00,2959.739576,N,12000.391624,E,1,00,2.3,-6.4,M,7.0,M,,*60
$GNGNS,000200.00,2959.739576,N,12000.391624,E,ANN,06,2.3,-6.4,7.0,,,V*78
$GPVTG,254.8,T,259.2,M,75.8,N,140.4,K,A*1F
$GPRMC,000200.00,A,2959.739576,N,12000.391624,E,75.8,254.8,230721,4.4,W,A*17
$GARMC,000200.00,A,2959.739576,N,12000.391624,E,75.8,254.8,230721,4.4,W,A*06
$GPGSA,A,3,02,04,07,08,13,25,,,,,,,5.4,2.3,4.9*33
$GNGSA,A,3,02,04,07,08,13,25,,,,,,,5.4,2.3,4.9,1*30
$GNGSA,A,3,,,,,,,,,,,,,5.4,2.3,4.9,2*3F
$GNGSA,A,3,,,,,,,,,,,,,5.4,2.3,4.9,3*3E
$GLGSA,A,3,,,,,,,,,,,,,5.4,2.3,4.9*23
$GLGSV,2,1,07,78,06,330,41,86,33,023,42,77,55,326,42,75,10,151,41*66
$GLGSV,2,2,07,87,60,299,42,88,19,243,,71,00,080,*5C
$GPGSV,3,1,12,02,31,298,43,04,50,244,43,07,83,112,43,08,46,206,43*78
$GPGSV,3,2,12,13,48,030,43,25,65,042,43,10,00,309,,16,,,*48
$GPGSV,3,3,12,20,21,120,,23,26,056,,27,17,217,,28,,,*43
$GAGSV,2,1,08,09,12,316,,10,63,333,,11,55,116,,12,05,129,*60
$GAGSV,2,2,08,17,29,039,,23,37,222,,24,84,019,,27,29,125,*6A
$GPGGA,000201.00,2959.734861,N,12000.368098,E,1,06,2.3,-6.4,M,7.0,M,,*77
$GAGGA,000201.00,2959.734861,N,12000.368098,E,1,00,2.3,-6.4,M,7.0,M,,*60
$GNGNS,000201.00,2959.734861,N,12000.368098,E,ANN,06,2.3,-6.4,7.0,,,V*78
$GPVTG,259.2,T,263.6,M,75.8,N,140.4,K,A*15
$GPRMC,000201.00,A,2959.734861,N,12000.368098,E,75.8,259.2,230721,4.4,W,A*10
$GARMC,000201.00,A,2959.734861,N,12000.368098,E,75.8,259.2,230721,4.4,W,A*01
$GPGSA,A,3,02,04,07,08,13,25,,,,,,,5.4,2.3,4.9*33
$GNGSA,A,3,02,04,07,08,13,25,,,,,,,5.4,2.3,4.9,1*30
$GNGSA,A,3,,,,,,,,,,,,,5.4,2.3,4.9,2*3F
$GNGSA,A,3,,,,,,,,,,,,,5.4,2.3,4.9,3*3E
$GLGSA,A,3,,,,,,,,,,,,,5.4,2.3,4.9*23
$GLGSV,2,1,07,78,06,330,41,86,33,023,42,77,55,326,42,75,10,151,41*66
$GLGSV,2,2,07,87,60,299,42,88,19,243,,71,00,080,*5C
$GPGSV,3,1,12,02,31,298,42,04,50,244,43,07,83,112,43,08,46,206,43*79
$GPGSV,3,2,12,13,48,030,43,25,65,042,43,10,00,309,,16,,,*48
$GPGSV,3,3,12,20,21,120,,23,26,056,,27,17,217,,28,,,*43
$GAGSV,2,1,08,09,12,316,,10,63,333,,11,55,116,,12,05,129,*60
$GAGSV,2,2,08,17,29,039,,23,37,222,,24,84,019,,27,29,125,*6A
$GPGGA,000202.00,2959.731685,N,12000.344324,E,1,06,2.3,-6.9,M,7.0,M,,*72
$GAGGA,000202.00,2959.731685,N,12000.344324,E,1,00,2.3,-6.9,M,7.0,M,,*65
$GNGNS,000202.00,2959.731685,N,12000.344324,E,ANN,06,2.3,-6.9,7.0,,,V*7D
$GPVTG,263.7,T,268.1,M,75.8,N,140.4,K,A*15
$GPRMC,000202.00,A,2959.731685,N,12000.344324,E,75.8,263.7,230721,4.4,W,A*14
$GARMC,000202.00,A,2959.731685,N,12000.344324,E,75.8,263.7,230721,4.4,W,A*05
$GPGSA,A,3,02,04,07,08,13,25,,,,,,,5.4,2.3,4.9*33
$GNGSA,A,3,02,04,07,08,13,25,,,,,,,5.4,2.3,4.9,1*30
$GNGSA,A,3,,,,,,,,,,,,,5.4,2.3,4.9,2*3F
$GNGSA,A,3,,,,,,,,,,,,,5.4,2.3,4.9,3*3E
$GLGSA,A,3,,,,,,,,,,,,,5.4,2.3,4.9*23
$GLGSV,2,1,07,78,06,330,41,86,33,023,42,77,55,326,42,75,10,151,41*66
$GLGSV,2,2,07,87,60,299,42,88,19,243,,71,00,080,*5C
$GPGSV,3,1,12,02,31,298,43,04,50,244,43,07,83,112,43,08,46,206,43*78
$GPGSV,3,2,12,13,48,030,43,25,65,042,43,10,00,309,,16,,,*48
$GPGSV,3,3,12,20,21,120,,23,26,056,,27,17,217,,28,,,*43
$GAGSV,2,1,08,09,12,316,,10,63,333,,11,55,116,,12,05,129,*60
$GAGSV,2,2,08,17,29,039,,23,37,222,,24,84,019,,27,29,125,*6A
$GPGGA,000203.00,2959.730102,N,12000.320358,E,1,06,2.3,-6.9,M,7.0,M,,*73
$GAGGA,000203.00,2959.730102,N,12000.320358,E,1,00,2.3,-6.9,M,7.0,M,,*64
$GNGNS,000203.00,2959.730102,N,12000.320358,E,ANN,06,2.3,-6.9,7.0,,,V*7C
$GPVTG,268.2,T,272.6,M,75.8,N,140.3,K,A*10
$GPRMC,000203.00,A,2959.730102,N,12000.320358,E,75.8,268.2,230721,4.4,W,A*1B
$GARMC,000203.00,A,2959.730102,N,12000.320358,E,75.8,268.2,230721,4.4,W,A*0A
$GPGSA,A,3,02,04,07,08,13,25,,,,,,,5.4,2.3,4.9*33
$GNGSA,A,3,02,04,07,08,13,25,,,,,,,5.4,2.3,4.9,1*30
$GNGSA,A,3,,,,,,,,,,,,,5.4,2.3,4.9,2*3F
$GNGSA,A,3,,,,,,,,,,,,,5.4,2.3,4.9,3*3E
$GLGSA,A,3,,,,,,,,,,,,,5.4,2.3,4.9*23
$GLGSV,2,1,07,78,06,330,41,86,33,023,42,77,55,326,42,75,10,151,41*66
$GLGSV,2,2,07,87,60,299,42,88,19,243,,71,00,080,*5C
$GPGSV,3,1,12,02,31,298,43,04,50,244,43,07,83,112,43,08,46,206,43*78
$GPGSV,3,2,12,13,48,030,42,25,65,042,43,10,00,309,,16,,,*49
$GPGSV,3,3,12,20,21,120,,23,26,056,,27,17,217,,28,,,*43
$GAGSV,2,1,08,09,12,316,,10,63,333,,11,55,116,,12,05,129,*60
$GAGSV,2,2,08,17,29,039,,23,37,222,,24,84,019,,27,29,125,*6A
$GPGGA,000204.00,2959.730181,N,12000.296177,E,1,06,2.1,-6.8,M,7.0,M,,*7F
$GAGGA,000204.00,2959.730181,N,12000.296177,E,1,00,2.1,-6.8,M,7.0,M,,*68
$GNGNS,000204.00,2959.730181,N,12000.296177,E,AAN,07,2.1,-6.8,7.0,,,V*7E
$GPVTG,272.6,T,277.0,M,75.8,N,140.4,K,A*1B
$GPRMC,000204.00,A,2959.730181,N,12000.296177,E,75.8,272.6,230721,4.4,W,A*1B
$GARMC,000204.00,A,2959.730181,N,12000.296177,E,75.8,272.6,230721,4.4,W,A*0A
$GPGSA,A,3,02,04,07,08,13,25,,,,,,,3.8,2.1,3.2*37
$GNGSA,A,3,02,04,07,08,13,25,,,,,,,3.8,2.1,3.2,1*34
$GNGSA,A,3,78,,,,,,,,,,,,3.8,2.1,3.2,2*34
$GNGSA,A,3,,,,,,,,,,,,,3.8,2.1,3.2,3*3A
$GLGSA,A,3,78,,,,,,,,,,,,3.8,2.1,3.2*28

$GLGSV,2,1,07,78,06,330,41,86,33,023,42,77,55,326,42,75,10,151,41*66
$GLGSV,2,2,07,87,60,299,42,88,19,243,,71,00,080,*5C
$GPGSV,3,1,12,02,31,298,42,04,50,244,43,07,83,112,43,08,46,206,42*78
$GPGSV,3,2,12,13,48,030,43,25,65,042,43,10,00,309,,16,,,*48
$GPGSV,3,3,12,20,21,120,,23,26,056,,27,17,217,,28,,,*43
$GAGSV,2,1,08,09,12,316,,10,63,333,,11,55,116,,12,05,129,*60
$GAGSV,2,2,08,17,29,039,,23,37,222,,24,84,019,,27,29,125,*6A
$GPGGA,000205.00,2959.732003,N,12000.272141,E,1,06,2.1,-7.2,M,7.0,M,,*73
$GAGGA,000205.00,2959.732003,N,12000.272141,E,1,00,2.1,-7.2,M,7.0,M,,*64
$GNGNS,000205.00,2959.732003,N,12000.272141,E,AAN,07,2.1,-7.2,7.0,,,V*72
$GPVTG,277.1,T,281.5,M,75.8,N,140.3,K,A*12
$GPRMC,000205.00,A,2959.732003,N,12000.272141,E,75.8,277.1,230721,4.4,W,A*1E
$GARMC,000205.00,A,2959.732003,N,12000.272141,E,75.8,277.1,230721,4.4,W,A*0F
$GPGSA,A,3,02,04,07,08,13,25,,,,,,,3.8,2.1,3.2*37
$GNGSA,A,3,02,04,07,08,13,25,,,,,,,3.8,2.1,3.2,1*34
$GNGSA,A,3,78,,,,,,,,,,,,3.8,2.1,3.2,2*34
$GNGSA,A,3,,,,,,,,,,,,,3.8,2.1,3.2,3*3A
$GLGSA,A,3,78,,,,,,,,,,,,3.8,2.1,3.2*28
$GLGSV,2,1,07,78,06,330,41,86,33,023,42,77,55,326,42,75,10,151,41*66
$GLGSV,2,2,07,87,60,299,42,88,19,243,,71,00,080,*5C
$GPGSV,3,1,12,02,31,298,43,04,50,244,43,07,83,112,43,08,46,206,43*78
$GPGSV,3,2,12,13,48,030,43,25,65,042,43,10,00,309,,16,,,*48
$GPGSV,3,3,12,20,21,120,,23,26,056,,27,17,217,,28,,,*43
$GAGSV,2,1,08,09,12,316,,10,63,333,,11,55,116,,12,05,129,*60
$GAGSV,2,2,08,17,29,039,,23,37,222,,24,84,019,,27,29,125,*6A
$GPGGA,000206.00,2959.735328,N,12000.248374,E,1,06,1.6,-7.9,M,7.0,M,,*7F
$GAGGA,000206.00,2959.735328,N,12000.248374,E,1,00,1.6,-7.9,M,7.0,M,,*68
$GNGNS,000206.00,2959.735328,N,12000.248374,E,AAN,09,1.6,-7.9,7.0,,,V*70
$GPVTG,281.5,T,285.9,M,75.8,N,140.4,K,A*10
$GPRMC,000206.00,A,2959.735328,N,12000.248374,E,75.8,281.5,230721,4.4,W,A*10
$GARMC,000206.00,A,2959.735328,N,12000.248374,E,75.8,281.5,230721,4.4,W,A*01
$GPGSA,A,3,02,04,07,08,13,25,,,,,,,2.7,1.6,2.1*3F
$GNGSA,A,3,02,04,07,08,13,25,,,,,,,2.7,1.6,2.1,1*3C
$GNGSA,A,3,78,86,77,,,,,,,,,,2.7,1.6,2.1,2*32
$GNGSA,A,3,,,,,,,,,,,,,2.7,1.6,2.1,3*32
$GLGSA,A,3,78,86,77,,,,,,,,,,2.7,1.6,2.1*2E
$GLGSV,2,1,07,78,06,330,41,86,33,025,42,77,55,326,42,75,10,151,41*60
$GLGSV,2,2,07,87,60,299,42,88,19,243,,71,00,080,*5C
$GPGSV,3,1,12,02,31,298,43,04,50,244,43,07,83,112,43,08,46,206,43*78
$GPGSV,3,2,12,13,48,030,43,25,65,042,42,10,00,309,,16,,,*49
$GPGSV,3,3,12,20,21,120,,23,26,056,,27,17,217,,28,,,*43
$GAGSV,2,1,08,09,12,316,,10,63,333,,11,55,116,,12,05,129,*60
$GAGSV,2,2,08,17,29,039,,23,37,222,,24,84,019,,27,29,125,*6A
$GPGGA,000207.00,2959.740291,N,12000.224889,E,1,06,1.6,-8.2,M,7.0,M,,*78
$GAGGA,000207.00,2959.740291,N,12000.224889,E,1,00,1.6,-8.2,M,7.0,M,,*6F
$GNGNS,000207.00,2959.740291,N,12000.224889,E,AAN,09,1.6,-8.2,7.0,,,V*77
$GPVTG,286.0,T,290.4,M,75.8,N,140.4,K,A*1B
$GPRMC,000207.00,A,2959.740291,N,12000.224889,E,75.8,286.0,230721,4.4,W,A*11
$GARMC,000207.00,A,2959.740291,N,12000.224889,E,75.8,286.0,230721,4.4,W,A*00
$GPGSA,A,3,02,04,07,08,13,25,,,,,,,2.7,1.6,2.1*3F
$GNGSA,A,3,02,04,07,08,13,25,,,,,,,2.7,1.6,2.1,1*3C
$GNGSA,A,3,78,86,77,,,,,,,,,,2.7,1.6,2.1,2*32
$GNGSA,A,3,,,,,,,,,,,,,2.7,1.6,2.1,3*32
$GLGSA,A,3,78,86,77,,,,,,,,,,2.7,1.6,2.1*2E
$GLGSV,2,1,07,78,06,330,41,86,33,025,42,77,55,326,42,75,10,151,41*60
$GLGSV,2,2,07,87,60,299,42,88,19,243,,71,00,080,*5C
$GPGSV,3,1,12,02,31,298,43,04,50,244,43,07,83,112,43,08,46,206,43*78
$GPGSV,3,2,12,13,48,030,43,25,65,042,43,10,00,309,,16,,,*48
$GPGSV,3,3,12,20,21,120,,23,26,056,,27,17,217,,28,,,*43
$GAGSV,2,1,08,09,12,316,,10,63,333,,11,55,116,,12,05,129,*60
$GAGSV,2,2,08,17,29,039,,23,37,222,,24,84,019,,27,29,125,*6A
$GPGGA,000208.00,2959.746862,N,12000.201782,E,1,06,1.0,-8.8,M,7.0,M,,*78
$GAGGA,000208.00,2959.746862,N,12000.201782,E,1,00,1.0,-8.8,M,7.0,M,,*6F
$GNGNS,000208.00,2959.746862,N,12000.201782,E,AAN,11,1.0,-8.8,7.0,,,V*7E
$GPVTG,290.4,T,294.8,M,75.8,N,140.4,K,A*10
$GPRMC,000208.00,A,2959.746862,N,12000.201782,E,75.8,290.4,230721,4.4,W,A*1E
$GARMC,000208.00,A,2959.746862,N,12000.201782,E,75.8,290.4,230721,4.4,W,A*0F
$GPGSA,A,3,02,04,07,08,13,25,,,,,,,1.6,1.0,1.2*3B
$GNGSA,A,3,02,04,07,08,13,25,,,,,,,1.6,1.0,1.2,1*38
$GNGSA,A,3,78,86,77,75,87,,,,,,,,1.6,1.0,1.2,2*3B
$GNGSA,A,3,,,,,,,,,,,,,1.6,1.0,1.2,3*36
$GLGSA,A,3,78,86,77,75,87,,,,,,,,1.6,1.0,1.2*27
$GLGSV,2,1,07,78,06,330,41,86,33,025,42,77,55,326,42,75,10,151,41*60
$GLGSV,2,2,07,87,60,300,42,88,19,243,,71,00,080,*5D
$GPGSV,3,1,12,02,31,298,43,04,50,244,43,07,83,112,43,08,46,206,43*78
$GPGSV,3,2,12,13,48,030,42,25,65,042,43,10,00,309,,16,,,*49
$GPGSV,3,3,12,20,21,120,,23,26,056,,27,17,217,,28,,,*43
$GAGSV,2,1,08,09,12,316,,10,63,333,,11,55,116,,12,05,129,*60
$GAGSV,2,2,08,17,29,039,,23,37,222,,24,84,019,,27,29,125,*6A
$GPGGA,000209.00,2959.754920,N,12000.179498,E,1,06,1.0,-9.3,M,7.0,M,,*73
$GAGGA,000209.00,2959.754920,N,12000.179498,E,1,00,1.0,-9.3,M,7.0,M,,*64
$GNGNS,000209.00,2959.754920,N,12000.179498,E,AAN,11,1.0,-9.3,7.0,,,V*75
$GPVTG,294.9,T,299.3,M,75.8,N,140.4,K,A*1F
$GPRMC,000209.00,A,2959.754920,N,12000.179498,E,75.8,294.9,230721,4.4,W,A*16
$GARMC,000209.00,A,2959.754920,N,12000.179498,E,75.8,294.9,230721,4.4,W,A*07
$GPGSA,A,3,02,04,07,08,13,25,,,,,,,1.6,1.0,1.2*3B
$GNGSA,A,3,02,04,07,08,13,25,,,,,,,1.6,1.0,1.2,1*38
$GNGSA,A,3,78,86,77,75,87,,,,,,,,1.6,1.0,1.2,2*3B
$GNGSA,A,3,,,,,,,,,,,,,1.6,1.0,1.2,3*36
$GLGSA,A,3,78,86,77,75,87,,,,,,,,1.6,1.0,1.2*27
$GLGSV,2,1,07,78,06,330,41,86,33,025,42,77,55,326,42,75,10,151,41*60
$GLGSV,2,2,07,87,60,300,42,88,19,243,,71,00,080,*5D
$GPGSV,3,1,12,02,31,298,43,04,50,244,43,07,83,112,43,08,46,206,43*78
$GPGSV,3,2,12,13,48,030,42,25,65,042,43,10,00,309,,16,,,*49
$GPGSV,3,3,12,20,21,120,,23,26,056,,27,17,217,,28,,,*43
$GAGSV,2,1,08,09,12,316,,10,63,333,,11,55,116,,12,05,129,*60
$GAGSV,2,2,08,17,29,039,,23,37,222,,24,84,019,,27,29,125,*6A
$GPGGA,000210.00,2959.764711,N,12000.157936,E,1,06,1.0,-9.3,M,7.0,M,,*71
$GAGGA,000210.00,2959.764711,N,12000.157936,E,1,00,1.0,-9.3,M,7.0,M,,*66
$GNGNS,000210.00,2959.764711,N,12000.157936,E,AAN,11,1.0,-9.3,7.0,,,V*77
$GPVTG,299.4,T,303.8,M,75.8,N,140.4,K,A*16
$GPRMC,000210.00,A,2959.764711,N,12000.157936,E,75.8,299.4,230721,4.4,W,A*14
$GARMC,000210.00,A,2959.764711,N,12000.157936,E,75.8,299.4,230721,4.4,W,A*05
$GPGSA,A,3,02,04,07,08,13,25,,,,,,,1.6,1.0,1.2*3B
$GNGSA,A,3,02,04,07,08,13,25,,,,,,,1.6,1.0,1.2,1*38
$GNGSA,A,3,78,86,77,75,87,,,,,,,,1.6,1.0,1.2,2*3B
$GNGSA,A,3,,,,,,,,,,,,,1.6,1.0,1.2,3*36
$GLGSA,A,3,78,86,77,75,87,,,,,,,,1.6,1.0,1.2*27
$GLGSV,2,1,07,78,06,330,41,86,33,025,42,77,55,326,42,75,10,151,41*60
$GLGSV,2,2,07,87,60,300,42,88,19,243,,71,00,080,*5D
$GPGSV,3,1,12,02,31,298,42,04,50,244,43,07,83,112,43,08,46,206,43*79
$GPGSV,3,2,12,13,48,030,43,25,65,042,43,10,00,309,,16,,,*48
$GPGSV,3,3,12,20,21,120,,23,26,056,,27,17,217,,28,,,*43
$GAGSV,2,1,08,09,12,316,,10,63,333,,11,55,116,,12,05,129,*60
$GAGSV,2,2,08,17,29,039,,23,37,222,,24,84,019,,27,29,125,*6A
$GPGGA,000211.00,2959.775953,N,12000.137287,E,1,06,1.0,-8.6,M,7.0,M,,*7B
$GAGGA,000211.00,2959.775953,N,12000.137287,E,1,00,1.0,-8.6,M,7.0,M,,*6C
$GNGNS,000211.00,2959.775953,N,12000.137287,E,AAN,11,1.0,-8.6,7.0,,,V*7D
$GPVTG,303.8,T,308.2,M,75.8,N,140.4,K,A*19
$GPRMC,000211.00,A,2959.775953,N,12000.137287,E,75.8,303.8,230721,4.4,W,A*14
$GARMC,000211.00,A,2959.775953,N,12000.137287,E,75.8,303.8,230721,4.4,W,A*05
$GPGSA,A,3,02,04,07,08,13,25,,,,,,,1.6,1.0,1.2*3B
$GNGSA,A,3,02,04,07,08,13,25,,,,,,,1.6,1.0,1.2,1*38
$GNGSA,A,3,78,86,77,75,87,,,,,,,,1.6,1.0,1.2,2*3B
$GNGSA,A,3,,,,,,,,,,,,,1.6,1.0,1.2,3*36
$GLGSA,A,3,78,86,77,75,87,,,,,,,,1.6,1.0,1.2*27
$GLGSV,2,1,07,78,06,330,41,86,33,025,42,77,55,326,42,75,10,151,41*60
$GLGSV,2,2,07,87,60,300,42,88,19,243,,71,00,080,*5D
$GPGSV,3,1,12,02,31,298,43,04,50,244,43,07,83,112,43,08,46,206,42*79
$GPGSV,3,2,12,13,48,030,43,25,65,042,43,10,00,309,,16,,,*48
$GPGSV,3,3,12,20,21,120,,23,26,056,,27,17,217,,28,,,*43
$GAGSV,2,1,08,09,12,316,,10,63,333,,11,55,116,,12,05,129,*60
$GAGSV,2,2,08,17,29,039,,23,37,222,,24,84,019,,27,29,125,*6A
$GPGGA,000212.00,2959.788380,N,12000.117519,E,1,06,1.0,-7.9,M,7.0,M,,*7C
$GAGGA,000212.00,2959.788380,N,12000.117519,E,1,00,1.0,-7.9,M,7.0,M,,*6B
$GNGNS,000212.00,2959.788380,N,12000.117519,E,AAN,11,1.0,-7.9,7.0,,,V*7A
$GPVTG,308.3,T,312.7,M,75.8,N,140.4,K,A*17
$GPRMC,000212.00,A,2959.788380,N,12000.117519,E,75.8,308.3,230721,4.4,W,A*13
$GARMC,000212.00,A,2959.788380,N,12000.117519,E,75.8,308.3,230721,4.4,W,A*02
$GPGSA,A,3,02,04,07,08,13,25,,,,,,,1.6,1.0,1.2*3B
$GNGSA,A,3,02,04,07,08,13,25,,,,,,,1.6,1.0,1.2,1*38
$GNGSA,A,3,78,86,77,75,87,,,,,,,,1.6,1.0,1.2,2*3B
$GNGSA,A,3,,,,,,,,,,,,,1.6,1.0,1.2,3*36
$GLGSA,A,3,78,86,77,75,87,,,,,,,,1.6,1.0,1.2*27
$GLGSV,2,1,07,78,06,330,41,86,33,025,42,77,55,326,42,75,10,151,41*60
$GLGSV,2,2,07,87,60,300,42,88,19,243,,71,00,080,*5D
$GPGSV,3,1,12,02,31,298,42,04,50,244,43,07,83,112,43,08,46,206,42*78
$GPGSV,3,2,12,13,48,030,42,25,65,042,43,10,00,309,,16,,,*49
$GPGSV,3,3,12,20,21,120,,23,26,056,,27,17,217,,28,,,*43
$GAGSV,2,1,08,09,12,316,,10,63,333,,11,55,116,,12,05,129,*60
$GAGSV,2,2,08,17,29,039,,23,37,222,,24,84,019,,27,29,125,*6A
$GPGGA,000213.00,2959.802059,N,12000.098997,E,1,06,1.0,-7.9,M,7.0,M,,*7B
$GAGGA,000213.00,2959.802059,N,12000.098997,E,1,00,1.0,-7.9,M,7.0,M,,*6C
$GNGNS,000213.00,2959.802059,N,12000.098997,E,AAN,11,1.0,-7.9,7.0,,,V*7D
$GPVTG,312.7,T,317.1,M,75.8,N,140.4,K,A*1B
$GPRMC,000213.00,A,2959.802059,N,12000.098997,E,75.8,312.7,230721,4.4,W,A*1B
$GARMC,000213.00,A,2959.802059,N,12000.098997,E,75.8,312.7,230721,4.4,W,A*0A
$GPGSA,A,3,02,04,07,08,13,25,,,,,,,1.6,1.0,1.2*3B
$GNGSA,A,3,02,04,07,08,13,25,,,,,,,1.6,1.0,1.2,1*38
$GNGSA,A,3,78,86,77,75,87,,,,,,,,1.6,1.0,1.2,2*3B
$GNGSA,A,3,,,,,,,,,,,,,1.6,1.0,1.2,3*36
$GLGSA,A,3,78,86,77,75,87,,,,,,,,1.6,1.0,1.2*27
$GLGSV,2,1,07,78,06,330,41,86,33,025,42,77,55,326,42,75,10,151,41*60
$GLGSV,2,2,07,87,60,300,42,88,19,243,,71,00,080,*5D
$GPGSV,3,1,12,02,31,298,43,04,50,244,42,07,83,112,43,08,46,206,43*79
$GPGSV,3,2,12,13,48,030,42,25,65,042,43,10,00,309,,16,,,*49
$GPGSV,3,3,12,20,21,120,,23,26,056,,27,17,217,,28,,,*43
$GAGSV,2,1,08,09,12,316,,10,63,333,,11,55,116,,12,05,129,*60
$GAGSV,2,2,08,17,29,039,,23,37,222,,24,84,019,,27,29,125,*6A
$GPGGA,000214.00,2959.816873,N,12000.081872,E,1,06,1.0,-7.6,M,7.0,M,,*74
$GAGGA,000214.00,2959.816873,N,12000.081872,E,1,00,1.0,-7.6,M,7.0,M,,*63
$GNGNS,000214.00,2959.816873,N,12000.081872,E,AAN,11,1.0,-7.6,7.0,,,V*72
$GPVTG,317.2,T,321.6,M,75.8,N,140.3,K,A*1E
$GPRMC,000214.00,A,2959.816873,N,12000.081872,E,75.8,317.2,230721,4.4,W,A*1B
$GARMC,000214.00,A,2959.816873,N,12000.081872,E,75.8,317.2,230721,4.4,W,A*0A
$GPGSA,A,3,02,04,07,08,13,25,,,,,,,1.6,1.0,1.2*3B
$GNGSA,A,3,02,04,07,08,13,25,,,,,,,1.6,1.0,1.2,1*38
$GNGSA,A,3,78,86,77,75,87,,,,,,,,1.6,1.0,1.2,2*3B
$GNGSA,A,3,,,,,,,,,,,,,1.6,1.0,1.2,3*36
$GLGSA,A,3,78,86,77,75,87,,,,,,,,1.6,1.0,1.2*27
$GLGSV,2,1,07,78,06,330,41,86,33,025,42,77,55,326,42,75,10,151,41*60
$GLGSV,2,2,07,87,60,300,42,88,19,243,,71,00,080,*5D
$GPGSV,3,1,12,02,31,298,42,04,50,244,42,07,83,112,43,08,46,206,43*78
$GPGSV,3,2,12,13,48,030,42,25,65,042,42,10,00,309,,16,,,*48
$GPGSV,3,3,12,20,21,120,,23,26,056,,27,17,217,,28,,,*43
$GAGSV,2,1,08,09,12,316,,10,63,333,,11,55,116,,12,05,129,*60
$GAGSV,2,2,08,17,29,039,,23,37,222,,24,84,019,,27,29,125,*6A
$GPGGA,000215.00,2959.832571,N,12000.066317,E,1,06,1.0,-7.7,M,7.0,M,,*7C
$GAGGA,000215.00,2959.832571,N,12000.066317,E,1,00,1.0,-7.7,M,7.0,M,,*6B
$GNGNS,000215.00,2959.832571,N,12000.066317,E,AAN,11,1.0,-7.7,7.0,,,V*7A
$GPVTG,321.6,T,326.0,M,75.8,N,140.4,K,A*19
$GPRMC,000215.00,A,2959.832571,N,12000.066317,E,75.8,321.6,230721,4.4,W,A*13
$GARMC,000215.00,A,2959.832571,N,12000.066317,E,75.8,321.6,230721,4.4,W,A*02
$GPGSA,A,3,02,04,07,08,13,25,,,,,,,1.6,1.0,1.2*3B
$GNGSA,A,3,02,04,07,08,13,25,,,,,,,1.6,1.0,1.2,1*38
$GNGSA,A,3,78,86,77,75,87,,,,,,,,1.6,1.0,1.2,2*3B
$GNGSA,A,3,,,,,,,,,,,,,1.6,1.0,1.2,3*36
$GLGSA,A,3,78,86,77,75,87,,,,,,,,1.6,1.0,1.2*27
$GLGSV,2,1,07,78,06,330,41,86,33,025,42,77,55,326,42,75,10,151,42*63
$GLGSV,2,2,07,87,60,300,42,88,19,243,,71,00,080,*5D
$GPGSV,3,1,12,02,31,298,42,04,50,244,42,07,83,112,43,08,46,206,43*78
$GPGSV,3,2,12,13,48,030,42,25,65,042,42,10,00,309,,16,,,*48
$GPGSV,3,3,12,20,21,120,,23,26,056,,27,17,217,,28,,,*43
$GAGSV,2,1,08,09,12,316,,10,63,333,,11,55,116,,12,05,129,*60
$GAGSV,2,2,08,17,29,039,,23,37,222,,24,84,019,,27,29,125,*6A
$GPGGA,000216.00,2959.849683,N,12000.052083,E,1,06,1.0,-7.7,M,7.0,M,,*74
$GAGGA,000216.00,2959.849683,N,12000.052083,E,1,00,1.0,-7.7,M,7.0,M,,*63
$GNGNS,000216.00,2959.849683,N,12000.052083,E,AAN,11,1.0,-7.7,7.0,,,V*72
$GPVTG,326.1,T,330.5,M,75.8,N,140.4,K,A*1B
$GPRMC,000216.00,A,2959.849683,N,12000.052083,E,75.8,326.1,230721,4.4,W,A*1B
$GARMC,000216.00,A,2959.849683,N,12000.052083,E,75.8,326.1,230721,4.4,W,A*0A
$GPGSA,A,3,02,04,07,08,13,25,,,,,,,1.6,1.0,1.2*3B
$GNGSA,A,3,02,04,07,08,13,25,,,,,,,1.6,1.0,1.2,1*38
$GNGSA,A,3,78,86,77,75,87,,,,,,,,1.6,1.0,1.2,2*3B
$GNGSA,A,3,,,,,,,,,,,,,1.6,1.0,1.2,3*36
$GLGSA,A,3,78,86,77,75,87,,,,,,,,1.6,1.0,1.2*27
$GLGSV,2,1,07,78,06,330,41,86,33,025,42,77,55,326,42,75,10,151,42*63
$GLGSV,2,2,07,87,60,300,42,88,19,243,,71,00,080,*5D
$GPGSV,3,1,12,02,31,298,43,04,50,244,42,07,83,112,43,08,46,206,42*78
$GPGSV,3,2,12,13,48,030,42,25,65,042,42,10,00,309,,16,,,*48
$GPGSV,3,3,12,20,21,120,,23,26,056,,27,17,217,,28,,,*43
$GAGSV,2,1,08,09,12,316,,10,63,333,,11,55,116,,12,05,129,*60
$GAGSV,2,2,08,17,29,039,,23,37,222,,24,84,019,,27,29,125,*6A
$GPGGA,000217.00,2959.867541,N,12000.039405,E,1,06,1.0,-7.2,M,7.0,M,,*76
$GAGGA,000217.00,2959.867541,N,12000.039405,E,1,00,1.0,-7.2,M,7.0,M,,*61
$GNGNS,000217.00,2959.867541,N,12000.039405,E,AAN,11,1.0,-7.2,7.0,,,V*70
$GPVTG,330.6,T,335.0,M,75.8,N,140.3,K,A*1C
$GPRMC,000217.00,A,2959.867541,N,12000.039405,E,75.8,330.6,230721,4.4,W,A*1C
$GARMC,000217.00,A,2959.867541,N,12000.039405,E,75.8,330.6,230721,4.4,W,A*0D
$GPGSA,A,3,02,04,07,08,13,25,,,,,,,1.6,1.0,1.2*3B
$GNGSA,A,3,02,04,07,08,13,25,,,,,,,1.6,1.0,1.2,1*38
$GNGSA,A,3,78,86,77,75,87,,,,,,,,1.6,1.0,1.2,2*3B
$GNGSA,A,3,,,,,,,,,,,,,1.6,1.0,1.2,3*36
$GLGSA,A,3,78,86,77,75,87,,,,,,,,1.6,1.0,1.2*27
$GLGSV,2,1,07,78,06,330,41,86,33,025,42,77,55,326,42,75,10,151,42*63
$GLGSV,2,2,07,87,60,300,42,88,19,243,,71,00,080,*5D
$GPGSV,3,1,12,02,31,298,43,04,50,244,42,07,83,112,43,08,46,206,43*79
$GPGSV,3,2,12,13,48,030,42,25,65,042,43,10,00,309,,16,,,*49
$GPGSV,3,3,12,20,21,120,,23,26,056,,27,17,217,,28,,,*43
$GAGSV,2,1,08,09,12,316,,10,63,333,,11,55,116,,12,05,129,*60
$GAGSV,2,2,08,17,29,039,,23,37,222,,24,84,019,,27,29,125,*6A
$GPGGA,000218.00,2959.886284,N,12000.028299,E,1,06,1.0,-7.1,M,7.0,M,,*78
$GAGGA,000218.00,2959.886284,N,12000.028299,E,1,00,1.0,-7.1,M,7.0,M,,*6F
$GNGNS,000218.00,2959.886284,N,12000.028299,E,AAN,11,1.0,-7.1,7.0,,,V*7E
$GPVTG,335.0,T,339.4,M,75.8,N,140.4,K,A*10
$GPRMC,000218.00,A,2959.886284,N,12000.028299,E,75.8,335.0,230721,4.4,W,A*12
$GARMC,000218.00,A,2959.886284,N,12000.028299,E,75.8,335.0,230721,4.4,W,A*03
$GPGSA,A,3,02,04,07,08,13,25,,,,,,,1.6,1.0,1.2*3B
$GNGSA,A,3,02,04,07,08,13,25,,,,,,,1.6,1.0,1.2,1*38
$GNGSA,A,3,78,86,77,75,87,,,,,,,,1.6,1.0,1.2,2*3B
$GNGSA,A,3,,,,,,,,,,,,,1.6,1.0,1.2,3*36
$GLGSA,A,3,78,86,77,75,87,,,,,,,,1.6,1.0,1.2*27
$GLGSV,2,1,07,78,06,330,41,86,33,025,42,77,55,326,42,75,10,151,41*60
$GLGSV,2,2,07,87,60,300,42,88,19,243,,71,00,080,*5D
$GPGSV,3,1,12,02,31,298,43,04,50,244,42,07,83,112,43,08,46,206,43*79
$GPGSV,3,2,12,13,48,030,43,25,65,042,42,10,00,309,,16,,,*49
$GPGSV,3,3,12,20,21,120,,23,26,056,,27,17,217,,28,,,*43
$GAGSV,2,1,08,09,12,316,,10,63,333,,11,55,116,,12,05,129,*60
$GAGSV,2,2,08,17,29,039,,23,37,222,,24,84,019,,27,29,125,*6A
$GPGGA,000219.00,2959.905758,N,12000.018968,E,1,06,1.0,-7.1,M,7.0,M,,*71
$GAGGA,000219.00,2959.905758,N,12000.018968,E,1,00,1.0,-7.1,M,7.0,M,,*66
$GNGNS,000219.00,2959.905758,N,12000.018968,E,AAN,11,1.0,-7.1,7.0,,,V*77
$GPVTG,339.5,T,343.9,M,75.8,N,140.4,K,A*19
$GPRMC,000219.00,A,2959.905758,N,12000.018968,E,75.8,339.5,230721,4.4,W,A*12
$GARMC,000219.00,A,2959.905758,N,12000.018968,E,75.8,339.5,230721,4.4,W,A*03
$GPGSA,A,3,02,04,07,08,13,25,,,,,,,1.6,1.0,1.2*3B
$GNGSA,A,3,02,04,07,08,13,25,,,,,,,1.6,1.0,1.2,1*38
$GNGSA,A,3,78,86,77,75,87,,,,,,,,1.6,1.0,1.2,2*3B
$GNGSA,A,3,,,,,,,,,,,,,1.6,1.0,1.2,3*36
$GLGSA,A,3,78,86,77,75,87,,,,,,,,1.6,1.0,1.2*27
$GLGSV,2,1,07,78,06,330,41,86,33,025,42,77,55,326,42,75,10,151,42*63
$GLGSV,2,2,07,87,60,300,42,88,19,243,,71,00,080,*5D
$GPGSV,3,1,12,02,31,298,43,04,50,244,43,07,83,112,43,08,46,206,43*78
$GPGSV,3,2,12,13,48,030,43,25,65,042,42,10,00,309,,16,,,*49
$GPGSV,3,3,12,20,21,120,,23,26,056,,27,17,217,,28,,,*43
$GAGSV,2,1,08,09,12,316,,10,63,333,,11,55,116,,12,05,129,*60
$GAGSV,2,2,08,17,29,039,,23,37,222,,24,84,019,,27,29,125,*6A
$GPGGA,000220.00,2959.925756,N,12000.011361,E,1,06,1.0,-7.0,M,7.0,M,,*7C
$GAGGA,000220.00,2959.925756,N,12000.011361,E,1,00,1.0,-7.0,M,7.0,M,,*6B
$GNGNS,000220.00,2959.925756,N,12000.011361,E,AAN,11,1.0,-7.0,7.0,,,V*7A
$GPVTG,343.9,T,348.3,M,75.8,N,140.4,K,A*19
$GPRMC,000220.00,A,2959.925756,N,12000.011361,E,75.8,343.9,230721,4.4,W,A*1F
$GARMC,000220.00,A,2959.925756,N,12000.011361,E,75.8,343.9,230721,4.4,W,A*0E
$GPGSA,A,3,02,04,07,08,13,25,,,,,,,1.6,1.0,1.2*3B
$GNGSA,A,3,02,04,07,08,13,25,,,,,,,1.6,1.0,1.2,1*38
$GNGSA,A,3,78,86,77,75,87,,,,,,,,1.6,1.0,1.2,2*3B
$GNGSA,A,3,,,,,,,,,,,,,1.6,1.0,1.2,3*36
$GLGSA,A,3,78,86,77,75,87,,,,,,,,1.6,1.0,1.2*27
$GLGSV,2,1,07,78,06,330,41,86,33,025,42,77,55,326,42,75,10,151,41*60
$GLGSV,2,2,07,87,60,300,42,88,19,243,,71,00,080,*5D
$GPGSV,3,1,12,02,31,298,43,04,50,244,42,07,83,112,43,08,46,206,43*79
$GPGSV,3,2,12,13,48,030,43,25,65,042,42,10,00,309,,16,,,*49
$GPGSV,3,3,12,20,21,120,,23,26,056,,27,17,217,,28,,,*43
$GAGSV,2,1,08,09,12,316,,10,63,333,,11,55,116,,12,05,129,*60
$GAGSV,2,2,08,17,29,039,,23,37,222,,24,84,019,,27,29,125,*6A
$GPGGA,000221.00,2959.946089,N,12000.005605,E,1,06,1.0,-6.9,M,7.0,M,,*77
$GAGGA,000221.00,2959.946089,N,12000.005605,E,1,00,1.0,-6.9,M,7.0,M,,*60
$GNGNS,000221.00,2959.946089,N,12000.005605,E,AAN,11,1.0,-6.9,7.0,,,V*71
$GPVTG,348.4,T,352.8,M,75.8,N,140.4,K,A*1F
$GPRMC,000221.00,A,2959.946089,N,12000.005605,E,75.8,348.4,230721,4.4,W,A*1A
$GARMC,000221.00,A,2959.946089,N,12000.005605,E,75.8,348.4,230721,4.4,W,A*0B
$GPGSA,A,3,02,04,07,08,13,25,,,,,,,1.6,1.0,1.2*3B
$GNGSA,A,3,02,04,07,08,13,25,,,,,,,1.6,1.0,1.2,1*38
$GNGSA,A,3,78,86,77,75,87,,,,,,,,1.6,1.0,1.2,2*3B
$GNGSA,A,3,,,,,,,,,,,,,1.6,1.0,1.2,3*36
$GLGSA,A,3,78,86,77,75,87,,,,,,,,1.6,1.0,1.2*27
$GLGSV,2,1,07,78,06,330,41,86,33,025,42,77,55,326,42,75,10,151,41*60
$GLGSV,2,2,07,87,60,300,42,88,19,243,,71,00,080,*5D
$GPGSV,3,1,12,02,31,298,43,04,50,244,43,07,83,112,43,08,46,206,43*78
$GPGSV,3,2,12,13,48,030,43,25,65,042,42,10,00,309,,16,,,*49
$GPGSV,3,3,12,20,21,120,,23,26,056,,27,17,217,,28,,,*43
$GAGSV,2,1,08,09,12,316,,10,63,333,,11,55,116,,12,05,129,*60
$GAGSV,2,2,08,17,29,039,,23,37,222,,24,84,019,,27,29,125,*6A
$GPGGA,000222.00,2959.966898,N,12000.001703,E,1,06,1.0,-6.9,M,7.0,M,,*7D
$GAGGA,000222.00,2959.966898,N,12000.001703,E,1,00,1.0,-6.9,M,7.0,M,,*6A
$GNGNS,000222.00,2959.966898,N,12000.001703,E,AAN,11,1.0,-6.9,7.0,,,V*7B
$GPVTG,352.8,T,357.2,M,75.8,N,140.4,K,A*17
$GPRMC,000222.00,A,2959.966898,N,12000.001703,E,75.8,352.8,230721,4.4,W,A*17
$GARMC,000222.00,A,2959.966898,N,12000.001703,E,75.8,352.8,230721,4.4,W,A*06
$GPGSA,A,3,02,04,07,08,13,25,,,,,,,1.6,1.0,1.2*3B
$GNGSA,A,3,02,04,07,08,13,25,,,,,,,1.6,1.0,1.2,1*38
$GNGSA,A,3,78,86,77,75,87,,,,,,,,1.6,1.0,1.2,2*3B
$GNGSA,A,3,,,,,,,,,,,,,1.6,1.0,1.2,3*36
$GLGSA,A,3,78,86,77,75,87,,,,,,,,1.6,1.0,1.2*27
$GLGSV,2,1,07,78,06,330,41,86,33,025,42,77,55,326,42,75,10,151,42*63
$GLGSV,2,2,07,87,60,300,42,88,19,243,,71,00,080,*5D
$GPGSV,3,1,12,02,31,298,42,04,50,244,42,07,83,112,43,08,46,206,42*79
$GPGSV,3,2,12,13,48,030,43,25,65,042,42,10,00,309,,16,,,*49
$GPGSV,3,3,12,20,21,120,,23,26,056,,27,17,217,,28,,,*43
$GAGSV,2,1,08,09,12,316,,10,63,333,,11,55,116,,12,05,129,*60
$GAGSV,2,2,08,17,29,039,,23,37,222,,24,84,019,,27,29,125,*6A
$GPGGA,000223.00,2959.987746,N,11959.999651,E,1,06,1.0,-6.9,M,7.0,M,,*77
$GAGGA,000223.00,2959.987746,N,11959.999651,E,1,00,1.0,-6.9,M,7.0,M,,*60
$GNGNS,000223.00,2959.987746,N,11959.999651,E,AAN,11,1.0,-6.9,7.0,,,V*71
$GPVTG,357.3,T,1.7,M,75.8,N,140.4,K,A*1C
$GPRMC,000223.00,A,2959.987746,N,11959.999651,E,75.8,357.3,230721,4.4,W,A*13
$GARMC,000223.00,A,2959.987746,N,11959.999651,E,75.8,357.3,230721,4.4,W,A*02
$GPGSA,A,3,02,04,07,08,13,25,,,,,,,1.6,1.0,1.2*3B
$GNGSA,A,3,02,04,07,08,13,25,,,,,,,1.6,1.0,1.2,1*38
$GNGSA,A,3,78,86,77,75,87,,,,,,,,1.6,1.0,1.2,2*3B
$GNGSA,A,3,,,,,,,,,,,,,1.6,1.0,1.2,3*36
$GLGSA,A,3,78,86,77,75,87,,,,,,,,1.6,1.0,1.2*27
$GLGSV,2,1,07,78,06,330,41,86,33,025,42,77,55,326,42,75,10,151,41*60
$GLGSV,2,2,07,87,60,300,42,88,19,243,,71,00,080,*5D
$GPGSV,3,1,12,02,31,298,43,04,50,244,42,07,83,112,43,08,46,206,43*79
$GPGSV,3,2,12,13,48,030,43,25,65,042,42,10,00,309,,16,,,*49
$GPGSV,3,3,12,20,21,120,,23,26,056,,27,17,217,,28,,,*43
$GAGSV,2,1,08,09,12,316,,10,63,333,,11,55,116,,12,05,129,*60
$GAGSV,2,2,08,17,29,039,,23,37,222,,24,84,019,,27,29,125,*6A
$GPGGA,000224.00,3000.008784,N,11959.999464,E,1,06,1.0,-7.4,M,7.0,M,,*7C
$GAGGA,000224.00,3000.008784,N,11959.999464,E,1,00,1.0,-7.4,M,7.0,M,,*6B
$GNGNS,000224.00,3000.008784,N,11959.999464,E,AAN,11,1.0,-7.4,7.0,,,V*7A
$GPVTG,1.8,T,6.2,M,75.8,N,140.4,K,A*15
$GPRMC,000224.00,A,3000.008784,N,11959.999464,E,75.8,1.8,230721,4.4,W,A*1F
$GARMC,000224.00,A,3000.008784,N,11959.999464,E,75.8,1.8,230721,4.4,W,A*0E
$GPGSA,A,3,02,04,07,08,13,25,,,,,,,1.6,1.0,1.2*3B
$GNGSA,A,3,02,04,07,08,13,25,,,,,,,1.6,1.0,1.2,1*38
$GNGSA,A,3,78,86,77,75,87,,,,,,,,1.6,1.0,1.2,2*3B
$GNGSA,A,3,,,,,,,,,,,,,1.6,1.0,1.2,3*36
$GLGSA,A,3,78,86,77,75,87,,,,,,,,1.6,1.0,1.2*27
$GLGSV,2,1,07,78,06,330,41,86,33,025,42,77,55,326,42,75,10,151,41*60
$GLGSV,2,2,07,87,60,300,42,88,19,243,,71,00,080,*5D
$GPGSV,3,1,12,02,31,298,42,04,50,244,42,07,83,112,43,08,46,206,43*78
$GPGSV,3,2,12,13,48,030,42,25,65,042,43,10,00,309,,16,,,*49
$GPGSV,3,3,12,20,21,120,,23,26,056,,27,17,217,,28,,,*43
$GAGSV,2,1,08,09,12,316,,10,63,333,,11,55,116,,12,05,129,*60
$GAGSV,2,2,08,17,29,039,,23,37,222,,24,84,019,,27,29,125,*6A
$GPGGA,000225.00,3000.029793,N,12000.001178,E,1,06,1.0,-7.4,M,7.0,M,,*7E
$GAGGA,000225.00,3000.029793,N,12000.001178,E,1,00,1.0,-7.4,M,7.0,M,,*69
$GNGNS,000225.00,3000.029793,N,12000.001178,E,AAN,11,1.0,-7.4,7.0,,,V*78
$GPVTG,6.2,T,10.6,M,75.8,N,140.4,K,A*2B
$GPRMC,000225.00,A,3000.029793,N,12000.001178,E,75.8,6.2,230721,4.4,W,A*10
$GARMC,000225.00,A,3000.029793,N,12000.001178,E,75.8,6.2,230721,4.4,W,A*01
$GPGSA,A,3,02,04,07,08,13,25,,,,,,,1.6,1.0,1.2*3B
$GNGSA,A,3,02,04,07,08,13,25,,,,,,,1.6,1.0,1.2,1*38
$GNGSA,A,3,78,86,77,75,87,,,,,,,,1.6,1.0,1.2,2*3B
$GNGSA,A,3,,,,,,,,,,,,,1.6,1.0,1.2,3*36
$GLGSA,A,3,78,86,77,75,87,,,,,,,,1.6,1.0,1.2*27
$GLGSV,2,1,07,78,06,330,41,86,33,025,42,77,55,326,42,75,10,151,41*60
$GLGSV,2,2,07,87,60,300,42,88,19,243,,71,00,080,*5D
$GPGSV,3,1,12,02,31,298,43,04,50,244,42,07,83,112,43,08,46,206,43*79
$GPGSV,3,2,12,13,48,030,43,25,65,042,43,10,00,309,,16,,,*48
$GPGSV,3,3,12,20,21,120,,23,26,056,,27,17,217,,28,,,*43
$GAGSV,2,1,08,09,12,316,,10,63,333,,11,55,116,,12,05,129,*60
$GAGSV,2,2,08,17,29,039,,23,37,222,,24,84,019,,27,29,125,*6A
$GPGGA,000226.00,3000.050537,N,12000.004669,E,1,06,1.0,-7.0,M,7.0,M,,*79
$GAGGA,000226.00,3000.050537,N,12000.004669,E,1,00,1.0,-7.0,M,7.0,M,,*6E
$GNGNS,000226.00,3000.050537,N,12000.004669,E,AAN,11,1.0,-7.0,7.0,,,V*7F
$GPVTG,10.7,T,15.1,M,75.8,N,140.4,K,A*1B
$GPRMC,000226.00,A,3000.050537,N,12000.004669,E,75.8,10.7,230721,4.4,W,A*21
$GARMC,000226.00,A,3000.050537,N,12000.004669,E,75.8,10.7,230721,4.4,W,A*30
$GPGSA,A,3,02,04,07,08,13,25,,,,,,,1.6,1.0,1.2*3B
$GNGSA,A,3,02,04,07,08,13,25,,,,,,,1.6,1.0,1.2,1*38
$GNGSA,A,3,78,86,77,75,87,,,,,,,,1.6,1.0,1.2,2*3B
$GNGSA,A,3,,,,,,,,,,,,,1.6,1.0,1.2,3*36
$GLGSA,A,3,78,86,77,75,87,,,,,,,,1.6,1.0,1.2*27
$GLGSV,2,1,07,78,06,330,41,86,33,025,42,77,55,326,42,75,10,151,41*60
$GLGSV,2,2,07,87,60,300,42,88,19,243,,71,00,080,*5D
$GPGSV,3,1,12,02,31,298,43,04,50,244,43,07,83,112,43,08,46,206,43*78
$GPGSV,3,2,12,13,48,030,42,25,65,042,43,10,00,309,,16,,,*49
$GPGSV,3,3,12,20,21,120,,23,26,056,,27,17,217,,28,,,*43
$GAGSV,2,1,08,09,12,316,,10,63,333,,11,55,116,,12,05,129,*60
$GAGSV,2,2,08,17,29,039,,23,37,222,,24,84,019,,27,29,125,*6A
$GPGGA,000227.00,3000.071095,N,12000.010112,E,1,06,1.0,-7.2,M,7.0,M,,*7A
$GAGGA,000227.00,3000.071095,N,12000.010112,E,1,00,1.0,-7.2,M,7.0,M,,*6D
$GNGNS,000227.00,3000.071095,N,12000.010112,E,AAN,11,1.0,-7.2,7.0,,,V*7C
$GPVTG,15.1,T,19.5,M,75.8,N,140.4,K,A*10
$GPRMC,000227.00,A,3000.071095,N,12000.010112,E,75.8,15.1,230721,4.4,W,A*23
$GARMC,000227.00,A,3000.071095,N,12000.010112,E,75.8,15.1,230721,4.4,W,A*32
$GPGSA,A,3,02,04,07,08,13,25,,,,,,,1.6,1.0,1.2*3B
$GNGSA,A,3,02,04,07,08,13,25,,,,,,,1.6,1.0,1.2,1*38
$GNGSA,A,3,78,86,77,75,87,,,,,,,,1.6,1.0,1.2,2*3B
$GNGSA,A,3,,,,,,,,,,,,,1.6,1.0,1.2,3*36
$GLGSA,A,3,78,86,77,75,87,,,,,,,,1.6,1.0,1.2*27
$GLGSV,2,1,07,78,06,330,41,86,33,025,42,77,55,326,42,75,10,151,41*60
$GLGSV,2,2,07,87,60,300,42,88,19,243,,71,00,080,*5D
$GPGSV,3,1,12,02,31,298,43,04,50,244,42,07,83,112,43,08,46,206,43*79
$GPGSV,3,2,12,13,48,030,43,25,65,042,43,10,00,309,,16,,,*48
$GPGSV,3,3,12,20,21,120,,23,26,056,,27,17,217,,28,,,*43
$GAGSV,2,1,08,09,12,316,,10,63,333,,11,55,116,,12,05,129,*60
$GAGSV,2,2,08,17,29,039,,23,37,222,,24,84,019,,27,29,125,*6A
$GPGGA,000228.00,3000.091118,N,12000.017284,E,1,06,1.0,-7.1,M,7.0,M,,*77
$GAGGA,000228.00,3000.091118,N,12000.017284,E,1,00,1.0,-7.1,M,7.0,M,,*60
$GNGNS,000228.00,3000.091118,N,12000.017284,E,AAN,11,1.0,-7.1,7.0,,,V*71
$GPVTG,19.6,T,24.0,M,75.8,N,140.4,K,A*10
$GPRMC,000228.00,A,3000.091118,N,12000.017284,E,75.8,19.6,230721,4.4,W,A*26
$GARMC,000228.00,A,3000.091118,N,12000.017284,E,75.8,19.6,230721,4.4,W,A*37
$GPGSA,A,3,02,04,07,08,13,25,,,,,,,1.6,1.0,1.2*3B
$GNGSA,A,3,02,04,07,08,13,25,,,,,,,1.6,1.0,1.2,1*38
$GNGSA,A,3,78,86,77,75,87,,,,,,,,1.6,1.0,1.2,2*3B
$GNGSA,A,3,,,,,,,,,,,,,1.6,1.0,1.2,3*36
$GLGSA,A,3,78,86,77,75,87,,,,,,,,1.6,1.0,1.2*27
$GLGSV,2,1,07,78,06,330,41,86,33,025,42,77,55,326,42,75,10,151,41*60
$GLGSV,2,2,07,87,60,300,42,88,19,243,,71,00,080,*5D
$GPGSV,3,1,12,02,31,298,42,04,50,244,43,07,83,112,43,08,46,206,43*79
$GPGSV,3,2,12,13,48,030,42,25,65,042,43,10,00,309,,16,,,*49
$GPGSV,3,3,12,20,21,120,,23,26,056,,27,17,217,,28,,,*43
$GAGSV,2,1,08,09,12,316,,10,63,333,,11,55,116,,12,05,129,*60
$GAGSV,2,2,08,17,29,039,,23,37,222,,24,84,019,,27,29,125,*6A
$GPGGA,000229.00,3000.110824,N,12000.026211,E,1,06,1.0,-7.0,M,7.0,M,,*77
$GAGGA,000229.00,3000.110824,N,12000.026211,E,1,00,1.0,-7.0,M,7.0,M,,*60
$GNGNS,000229.00,3000.110824,N,12000.026211,E,AAN,11,1.0,-7.0,7.0,,,V*71
$GPVTG,24.0,T,28.4,M,75.8,N,140.4,K,A*10
$GPRMC,000229.00,A,3000.110824,N,12000.026211,E,75.8,24.0,230721,4.4,W,A*2F
$GARMC,000229.00,A,3000.110824,N,12000.026211,E,75.8,24.0,230721,4.4,W,A*3E
$GPGSA,A,3,02,04,07,08,13,25,,,,,,,1.6,1.0,1.2*3B
$GNGSA,A,3,02,04,07,08,13,25,,,,,,,1.6,1.0,1.2,1*38
$GNGSA,A,3,78,86,77,75,87,,,,,,,,1.6,1.0,1.2,2*3B
$GNGSA,A,3,,,,,,,,,,,,,1.6,1.0,1.2,3*36
$GLGSA,A,3,78,86,77,75,87,,,,,,,,1.6,1.0,1.2*27
$GLGSV,2,1,07,78,06,330,41,86,33,025,42,77,55,326,42,75,10,151,41*60
$GLGSV,2,2,07,87,60,300,42,88,19,243,,71,00,080,*5D
$GPGSV,3,1,12,02,31,298,43,04,50,244,43,07,83,112,43,08,46,206,43*78
$GPGSV,3,2,12,13,48,030,43,25,65,042,43,10,00,309,,16,,,*48
$GPGSV,3,3,12,20,21,120,,23,26,056,,27,17,217,,28,,,*43
$GAGSV,2,1,08,09,12,316,,10,63,333,,11,55,116,,12,05,129,*60
$GAGSV,2,2,08,17,29,039,,23,37,222,,24,84,019,,27,29,125,*6A
$GPGGA,000230.00,3000.129735,N,12000.036850,E,1,06,1.0,-7.1,M,7.0,M,,*75
$GAGGA,000230.00,3000.129735,N,12000.036850,E,1,00,1.0,-7.1,M,7.0,M,,*62
$GNGNS,000230.00,3000.129735,N,12000.036850,E,AAN,11,1.0,-7.1,7.0,,,V*73
$GPVTG,28.5,T,32.9,M,75.8,N,140.4,K,A*1F
$GPRMC,000230.00,A,3000.129735,N,12000.036850,E,75.8,28.5,230721,4.4,W,A*25
$GARMC,000230.00,A,3000.129735,N,12000.036850,E,75.8,28.5,230721,4.4,W,A*34
$GPGSA,A,3,02,04,07,08,13,25,,,,,,,1.6,1.0,1.2*3B
$GNGSA,A,3,02,04,07,08,13,25,,,,,,,1.6,1.0,1.2,1*38
$GNGSA,A,3,78,86,77,75,87,,,,,,,,1.6,1.0,1.2,2*3B
$GNGSA,A,3,,,,,,,,,,,,,1.6,1.0,1.2,3*36
$GLGSA,A,3,78,86,77,75,87,,,,,,,,1.6,1.0,1.2*27
$GLGSV,2,1,07,78,06,330,41,86,33,025,42,77,55,326,42,75,10,151,41*60
$GLGSV,2,2,07,87,60,300,42,88,19,243,,71,00,080,*5D
$GPGSV,3,1,12,02,31,298,42,04,50,244,42,07,83,112,43,08,46,206,43*78
$GPGSV,3,2,12,13,48,030,43,25,65,042,43,10,00,309,,16,,,*48
$GPGSV,3,3,12,20,21,120,,23,26,056,,27,17,217,,28,,,*43
$GAGSV,2,1,08,09,12,316,,10,63,333,,11,55,116,,12,05,129,*60
$GAGSV,2,2,08,17,29,039,,23,37,222,,24,84,019,,27,29,125,*6A
$GPGGA,000231.00,3000.147764,N,12000.049268,E,1,06,1.0,-7.6,M,7.0,M,,*76
$GAGGA,000231.00,3000.147764,N,12000.049268,E,1,00,1.0,-7.6,M,7.0,M,,*61
$GNGNS,000231.00,3000.147764,N,12000.049268,E,AAN,11,1.0,-7.6,7.0,,,V*70
$GPVTG,32.9,T,37.3,M,75.8,N,140.4,K,A*17
$GPRMC,000231.00,A,3000.147764,N,12000.049268,E,75.8,32.9,230721,4.4,W,A*26
$GARMC,000231.00,A,3000.147764,N,12000.049268,E,75.8,32.9,230721,4.4,W,A*37
$GPGSA,A,3,02,04,07,08,13,25,,,,,,,1.6,1.0,1.2*3B
$GNGSA,A,3,02,04,07,08,13,25,,,,,,,1.6,1.0,1.2,1*38
$GNGSA,A,3,78,86,77,75,87,,,,,,,,1.6,1.0,1.2,2*3B
$GNGSA,A,3,,,,,,,,,,,,,1.6,1.0,1.2,3*36
$GLGSA,A,3,78,86,77,75,87,,,,,,,,1.6,1.0,1.2*27
$GLGSV,2,1,07,78,06,330,41,86,33,025,42,77,55,326,42,75,10,151,41*60
$GLGSV,2,2,07,87,60,300,42,88,19,243,,71,00,080,*5D
$GPGSV,3,1,12,02,31,298,42,04,50,244,43,07,83,112,43,08,46,206,43*79
$GPGSV,3,2,12,13,48,030,43,25,65,042,43,10,00,309,,16,,,*48
$GPGSV,3,3,12,20,21,120,,23,26,056,,27,17,217,,28,,,*43
$GAGSV,2,1,08,09,12,316,,10,63,333,,11,55,116,,12,05,129,*60
