$GPVTG,,T,4.4,M,0.0,N,0.0,K,A*0D
$GPRMC,003548.00,A,2959.997503,N,12000.000105,E,0.0,,230721,4.4,W,A*07
$GARMC,003548.00,A,2959.997503,N,12000.000105,E,0.0,,230721,4.4,W,A*16
$GPGSA,A,1,,,,,,,,,,,,,,,,*32
$GNGSA,A,3,,,,,,,,,,,,,2.0,1.2,1.7,1*36
$GNGSA,A,3,71,72,77,78,86,87,88,,,,,,2.0,1.2,1.7,2*38
$GNGSA,A,3,,,,,,,,,,,,,2.0,1.2,1.7,3*34
$GLGSA,A,3,71,72,77,78,86,87,88,,,,,,2.0,1.2,1.7*24
$GLGSV,2,1,07,78,21,329,38,86,20,035,38,77,70,299,39,88,28,260,38*65
$GLGSV,2,2,07,87,55,334,39,71,07,066,38,72,05,113,38*51
$GAGSV,1,1,03,23,56,253,,24,59,022,,27,09,142,*5C
$GPGGA,003549.00,2959.997494,N,11959.999836,E,1,00,1.2,-1.8,M,7.0,M,,*7F
$GAGGA,003549.00,2959.997494,N,11959.999836,E,1,00,1.2,-1.8,M,7.0,M,,*6E
$GNGNS,003549.00,2959.997494,N,11959.999836,E,NAN,07,1.2,-1.8,7.0,,,V*77
$GPVTG,,T,4.4,M,0.0,N,0.0,K,A*0D
$GPRMC,003549.00,A,2959.997494,N,11959.999836,E,0.0,,230721,4.4,W,A*0F
$GARMC,003549.00,A,2959.997494,N,11959.999836,E,0.0,,230721,4.4,W,A*1E
$GPGSA,A,1,,,,,,,,,,,,,,,,*32
$GNGSA,A,3,,,,,,,,,,,,,2.0,1.2,1.7,1*36
$GNGSA,A,3,71,72,77,78,86,87,88,,,,,,2.0,1.2,1.7,2*38
$GNGSA,A,3,,,,,,,,,,,,,2.0,1.2,1.7,3*34
$GLGSA,A,3,71,72,77,78,86,87,88,,,,,,2.0,1.2,1.7*24
$GLGSV,2,1,07,78,21,329,38,86,20,035,38,77,70,299,40,88,28,260,38*6B
$GLGSV,2,2,07,87,55,334,39,71,07,066,38,72,05,113,37*5E
$GAGSV,1,1,03,23,56,253,,24,59,022,,27,09,142,*5C
$GPGGA,003550.00,2959.997527,N,11959.999815,E,1,00,1.2,-2.3,M,7.0,M,,*77
$GAGGA,003550.00,2959.997527,N,11959.999815,E,1,00,1.2,-2.3,M,7.0,M,,*66
$GNGNS,003550.00,2959.997527,N,11959.999815,E,NAN,07,1.2,-2.3,7.0,,,V*7F
$GPVTG,,T,4.4,M,0.0,N,0.0,K,A*0D
$GPRMC,003550.00,A,2959.997527,N,11959.999815,E,0.0,,230721,4.4,W,A*0F
$GARMC,003550.00,A,2959.997527,N,11959.999815,E,0.0,,230721,4.4,W,A*1E
$GPGSA,A,1,,,,,,,,,,,,,,,,*32
$GNGSA,A,3,,,,,,,,,,,,,2.0,1.2,1.7,1*36
$GNGSA,A,3,71,72,77,78,86,87,88,,,,,,2.0,1.2,1.7,2*38
$GNGSA,A,3,,,,,,,,,,,,,2.0,1.2,1.7,3*34
$GLGSA,A,3,71,72,77,78,86,87,88,,,,,,2.0,1.2,1.7*24
$GLGSV,2,1,07,78,21,329,38,86,20,035,38,77,70,299,39,88,28,260,38*65
$GLGSV,2,2,07,87,55,334,39,71,07,066,38,72,05,113,38*51
$GAGSV,1,1,03,23,56,253,,24,59,022,,27,09,142,*5C
$GPGGA,003551.00,2959.997574,N,11959.999685,E,1,00,1.2,-2.9,M,7.0,M,,*7D
$GAGGA,003551.00,2959.997574,N,11959.999685,E,1,00,1.2,-2.9,M,7.0,M,,*6C
$GNGNS,003551.00,2959.997574,N,11959.999685,E,NAN,07,1.2,-2.9,7.0,,,V*75
$GPVTG,,T,4.4,M,0.0,N,0.0,K,A*0D
$GPRMC,003551.00,A,2959.997574,N,11959.999685,E,0.0,,230721,4.4,W,A*0F
$GARMC,003551.00,A,2959.997574,N,11959.999685,E,0.0,,230721,4.4,W,A*1E
$GPGSA,A,1,,,,,,,,,,,,,,,,*32
$GNGSA,A,3,,,,,,,,,,,,,2.0,1.2,1.7,1*36
$GNGSA,A,3,71,72,77,78,86,87,88,,,,,,2.0,1.2,1.7,2*38
$GNGSA,A,3,,,,,,,,,,,,,2.0,1.2,1.7,3*34
$GLGSA,A,3,71,72,77,78,86,87,88,,,,,,2.0,1.2,1.7*24
$GLGSV,2,1,07,78,21,329,38,86,20,035,38,77,70,299,39,88,28,260,38*65
$GLGSV,2,2,07,87,55,334,39,71,07,066,37,72,05,113,38*5E
$GAGSV,1,1,03,23,56,253,,24,59,022,,27,09,142,*5C
$GPGGA,003552.00,2959.997496,N,11959.999684,E,1,00,1.2,-2.9,M,7.0,M,,*72
$GAGGA,003552.00,2959.997496,N,11959.999684,E,1,00,1.2,-2.9,M,7.0,M,,*63
$GNGNS,003552.00,2959.997496,N,11959.999684,E,NAN,07,1.2,-2.9,7.0,,,V*7A
$GPVTG,,T,4.4,M,0.0,N,0.0,K,A*0D
$GPRMC,003552.00,A,2959.997496,N,11959.999684,E,0.0,,230721,4.4,W,A*00
$GARMC,003552.00,A,2959.997496,N,11959.999684,E,0.0,,230721,4.4,W,A*11
$GPGSA,A,1,,,,,,,,,,,,,,,,*32
$GNGSA,A,3,,,,,,,,,,,,,2.0,1.2,1.7,1*36
$GNGSA,A,3,71,72,77,78,86,87,88,,,,,,2.0,1.2,1.7,2*38
$GNGSA,A,3,,,,,,,,,,,,,2.0,1.2,1.7,3*34
$GLGSA,A,3,71,72,77,78,86,87,88,,,,,,2.0,1.2,1.7*24
$GLGSV,2,1,07,78,21,329,38,86,20,035,38,77,70,299,39,88,28,260,38*65
$GLGSV,2,2,07,87,55,334,39,71,07,066,38,72,05,113,38*51
$GAGSV,1,1,03,23,56,253,,24,59,022,,27,09,142,*5C
$GPGGA,003553.00,2959.997398,N,11959.999547,E,1,00,1.2,-3.1,M,7.0,M,,*7F
$GAGGA,003553.00,2959.997398,N,11959.999547,E,1,00,1.2,-3.1,M,7.0,M,,*6E
$GNGNS,003553.00,2959.997398,N,11959.999547,E,NAN,07,1.2,-3.1,7.0,,,V*77
$GPVTG,,T,4.4,M,0.0,N,0.0,K,A*0D
$GPRMC,003553.00,A,2959.997398,N,11959.999547,E,0.0,,230721,4.4,W,A*04
$GARMC,003553.00,A,2959.997398,N,11959.999547,E,0.0,,230721,4.4,W,A*15
$GPGSA,A,1,,,,,,,,,,,,,,,,*32
$GNGSA,A,3,,,,,,,,,,,,,2.0,1.2,1.7,1*36
$GNGSA,A,3,71,72,77,78,86,87,88,,,,,,2.0,1.2,1.7,2*38
$GNGSA,A,3,,,,,,,,,,,,,2.0,1.2,1.7,3*34
$GLGSA,A,3,71,72,77,78,86,87,88,,,,,,2.0,1.2,1.7*24
$GLGSV,2,1,07,78,21,329,38,86,20,035,38,77,70,299,39,88,28,260,38*65
$GLGSV,2,2,07,87,55,334,39,71,07,066,37,72,05,113,38*5E
$GAGSV,1,1,03,23,56,253,,24,59,022,,27,09,142,*5C
$GPGGA,003554.00,2959.997253,N,11959.999559,E,1,00,1.2,-3.1,M,7.0,M,,*71
$GAGGA,003554.00,2959.997253,N,11959.999559,E,1,00,1.2,-3.1,M,7.0,M,,*60
$GNGNS,003554.00,2959.997253,N,11959.999559,E,NAN,07,1.2,-3.1,7.0,,,V*79
$GPVTG,,T,4.4,M,0.0,N,0.0,K,A*0D
$GPRMC,003554.00,A,2959.997253,N,11959.999559,E,0.0,,230721,4.4,W,A*0A
$GARMC,003554.00,A,2959.997253,N,11959.999559,E,0.0,,230721,4.4,W,A*1B
$GPGSA,A,1,,,,,,,,,,,,,,,,*32
$GNGSA,A,3,,,,,,,,,,,,,2.0,1.2,1.7,1*36
$GNGSA,A,3,71,72,77,78,86,87,88,,,,,,2.0,1.2,1.7,2*38
$GNGSA,A,3,,,,,,,,,,,,,2.0,1.2,1.7,3*34
$GLGSA,A,3,71,72,77,78,86,87,88,,,,,,2.0,1.2,1.7*24
$GLGSV,2,1,07,78,21,329,38,86,20,035,38,77,70,299,39,88,28,260,38*65
$GLGSV,2,2,07,87,55,334,39,71,07,066,38,72,05,113,38*51
$GAGSV,1,1,03,23,56,253,,24,59,022,,27,09,142,*5C
$GPGGA,003555.00,2959.997377,N,11959.999475,E,1,00,1.2,-3.6,M,7.0,M,,*7F
$GAGGA,003555.00,2959.997377,N,11959.999475,E,1,00,1.2,-3.6,M,7.0,M,,*6E
$GNGNS,003555.00,2959.997377,N,11959.999475,E,NAN,07,1.2,-3.6,7.0,,,V*77
$GPVTG,,T,4.4,M,0.0,N,0.0,K,A*0D
$GPRMC,003555.00,A,2959.997377,N,11959.999475,E,0.0,,230721,4.4,W,A*03
$GARMC,003555.00,A,2959.997377,N,11959.999475,E,0.0,,230721,4.4,W,A*12
$GPGSA,A,1,,,,,,,,,,,,,,,,*32
$GNGSA,A,3,,,,,,,,,,,,,2.0,1.2,1.7,1*36
$GNGSA,A,3,71,72,77,78,86,87,88,,,,,,2.0,1.2,1.7,2*38
$GNGSA,A,3,,,,,,,,,,,,,2.0,1.2,1.7,3*34
$GLGSA,A,3,71,72,77,78,86,87,88,,,,,,2.0,1.2,1.7*24
$GLGSV,2,1,07,78,21,329,38,86,20,035,38,77,70,299,39,88,28,260,38*65
$GLGSV,2,2,07,87,55,334,39,71,07,066,37,72,05,113,38*5E
$GAGSV,1,1,03,23,56,253,,24,59,022,,27,09,142,*5C
$GPGGA,003556.00,2959.997554,N,11959.999537,E,1,00,1.2,-3.7,M,7.0,M,,*7D
$GAGGA,003556.00,2959.997554,N,11959.999537,E,1,00,1.2,-3.7,M,7.0,M,,*6C
$GNGNS,003556.00,2959.997554,N,11959.999537,E,NAN,07,1.2,-3.7,7.0,,,V*75
$GPVTG,,T,4.4,M,0.0,N,0.0,K,A*0D
$GPRMC,003556.00,A,2959.997554,N,11959.999537,E,0.0,,230721,4.4,W,A*00
$GARMC,003556.00,A,2959.997554,N,11959.999537,E,0.0,,230721,4.4,W,A*11
$GPGSA,A,1,,,,,,,,,,,,,,,,*32
$GNGSA,A,3,,,,,,,,,,,,,2.0,1.2,1.7,1*36
$GNGSA,A,3,71,72,77,78,86,87,88,,,,,,2.0,1.2,1.7,2*38
$GNGSA,A,3,,,,,,,,,,,,,2.0,1.2,1.7,3*34
$GLGSA,A,3,71,72,77,78,86,87,88,,,,,,2.0,1.2,1.7*24
$GLGSV,2,1,07,78,21,329,38,86,20,035,38,77,70,299,39,88,28,260,38*65
$GLGSV,2,2,07,87,55,334,39,71,07,066,37,72,05,113,38*5E
$GAGSV,1,1,03,23,56,253,,24,59,022,,27,09,142,*5C
$GPGGA,003557.00,2959.997568,N,11959.999621,E,1,00,1.2,-4.2,M,7.0,M,,*75
$GAGGA,003557.00,2959.997568,N,11959.999621,E,1,00,1.2,-4.2,M,7.0,M,,*64
$GNGNS,003557.00,2959.997568,N,11959.999621,E,NAN,07,1.2,-4.2,7.0,,,V*7D
$GPVTG,,T,4.4,M,0.0,N,0.0,K,A*0D
$GPRMC,003557.00,A,2959.997568,N,11959.999621,E,0.0,,230721,4.4,W,A*0A
$GARMC,003557.00,A,2959.997568,N,11959.999621,E,0.0,,230721,4.4,W,A*1B
$GPGSA,A,1,,,,,,,,,,,,,,,,*32
$GNGSA,A,3,,,,,,,,,,,,,2.0,1.2,1.7,1*36
$GNGSA,A,3,71,72,77,78,86,87,88,,,,,,2.0,1.2,1.7,2*38
$GNGSA,A,3,,,,,,,,,,,,,2.0,1.2,1.7,3*34
$GLGSA,A,3,71,72,77,78,86,87,88,,,,,,2.0,1.2,1.7*24
$GLGSV,2,1,07,78,21,329,38,86,20,035,38,77,70,299,39,88,28,260,38*65
$GLGSV,2,2,07,87,55,334,39,71,07,066,38,72,05,113,38*51
$GAGSV,1,1,03,23,56,253,,24,59,022,,27,09,142,*5C
$GPGGA,003558.00,2959.997662,N,11959.999729,E,1,00,1.2,-4.5,M,7.0,M,,*7D
$GAGGA,003558.00,2959.997662,N,11959.999729,E,1,00,1.2,-4.5,M,7.0,M,,*6C
$GNGNS,003558.00,2959.997662,N,11959.999729,E,NAN,07,1.2,-4.5,7.0,,,V*75
$GPVTG,,T,4.4,M,0.0,N,0.0,K,A*0D
$GPRMC,003558.00,A,2959.997662,N,11959.999729,E,0.0,,230721,4.4,W,A*05
$GARMC,003558.00,A,2959.997662,N,11959.999729,E,0.0,,230721,4.4,W,A*14
$GPGSA,A,1,,,,,,,,,,,,,,,,*32
$GNGSA,A,3,,,,,,,,,,,,,2.0,1.2,1.7,1*36
$GNGSA,A,3,71,72,77,78,86,87,88,,,,,,2.0,1.2,1.7,2*38
$GNGSA,A,3,,,,,,,,,,,,,2.0,1.2,1.7,3*34
$GLGSA,A,3,71,72,77,78,86,87,88,,,,,,2.0,1.2,1.7*24
$GLGSV,2,1,07,78,21,329,38,86,20,035,38,77,70,299,39,88,28,260,38*65
$GLGSV,2,2,07,87,55,334,39,71,07,066,38,72,05,113,38*51
$GAGSV,1,1,03,23,56,253,,24,59,022,,27,09,142,*5C
$GPGGA,003559.00,2959.997699,N,11959.999749,E,1,00,1.2,-4.3,M,7.0,M,,*78
$GAGGA,003559.00,2959.997699,N,11959.999749,E,1,00,1.2,-4.3,M,7.0,M,,*69
$GNGNS,003559.00,2959.997699,N,11959.999749,E,NAN,07,1.2,-4.3,7.0,,,V*70
$GPVTG,,T,4.4,M,0.0,N,0.0,K,A*0D
$GPRMC,003559.00,A,2959.997699,N,11959.999749,E,0.0,,230721,4.4,W,A*06
$GARMC,003559.00,A,2959.997699,N,11959.999749,E,0.0,,230721,4.4,W,A*17
$GPGSA,A,1,,,,,,,,,,,,,,,,*32
$GNGSA,A,3,,,,,,,,,,,,,2.0,1.2,1.7,1*36
$GNGSA,A,3,71,72,77,78,86,87,88,,,,,,2.0,1.2,1.7,2*38
$GNGSA,A,3,,,,,,,,,,,,,2.0,1.2,1.7,3*34
$GLGSA,A,3,71,72,77,78,86,87,88,,,,,,2.0,1.2,1.7*24
$GLGSV,2,1,07,78,21,329,38,86,20,035,38,77,70,299,39,88,28,260,38*65
$GLGSV,2,2,07,87,55,334,39,71,07,066,38,72,05,113,38*51
$GAGSV,1,1,03,23,56,253,,24,59,022,,27,09,142,*5C
$GPGGA,003600.00,2959.997704,N,11959.999654,E,1,00,1.2,-4.5,M,7.0,M,,*79
$GAGGA,003600.00,2959.997704,N,11959.999654,E,1,00,1.2,-4.5,M,7.0,M,,*68
$GNGNS,003600.00,2959.997704,N,11959.999654,E,NAN,07,1.2,-4.5,7.0,,,V*71
$GPVTG,,T,4.4,M,0.0,N,0.0,K,A*0D
$GPRMC,003600.00,A,2959.997704,N,11959.999654,E,0.0,,230721,4.4,W,A*01
$GARMC,003600.00,A,2959.997704,N,11959.999654,E,0.0,,230721,4.4,W,A*10
$GPGSA,A,1,,,,,,,,,,,,,,,,*32
$GNGSA,A,3,,,,,,,,,,,,,2.0,1.2,1.7,1*36
$GNGSA,A,3,71,72,77,78,86,87,88,,,,,,2.0,1.2,1.7,2*38
$GNGSA,A,3,,,,,,,,,,,,,2.0,1.2,1.7,3*34
$GLGSA,A,3,71,72,77,78,86,87,88,,,,,,2.0,1.2,1.7*24
$GLGSV,2,1,07,78,21,329,38,86,20,035,38,77,70,299,39,88,28,260,38*65
$GLGSV,2,2,07,87,55,334,39,71,07,066,38,72,05,113,38*51
$GAGSV,1,1,03,23,56,253,,24,59,022,,27,09,142,*5C
$GPGGA,003601.00,2959.997731,N,11959.999814,E,1,00,1.2,-3.8,M,7.0,M,,*7E
$GAGGA,003601.00,2959.997731,N,11959.999814,E,1,00,1.2,-3.8,M,7.0,M,,*6F
$GNGNS,003601.00,2959.997731,N,11959.999814,E,NAN,07,1.2,-3.8,7.0,,,V*76
$GPVTG,,T,4.4,M,0.0,N,0.0,K,A*0D
$GPRMC,003601.00,A,2959.997731,N,11959.999814,E,0.0,,230721,4.4,W,A*0C
$GARMC,003601.00,A,2959.997731,N,11959.999814,E,0.0,,230721,4.4,W,A*1D
$GPGSA,A,1,,,,,,,,,,,,,,,,*32
$GNGSA,A,3,,,,,,,,,,,,,2.1,1.2,1.7,1*37
$GNGSA,A,3,71,72,77,78,86,87,88,,,,,,2.1,1.2,1.7,2*39
$GNGSA,A,3,,,,,,,,,,,,,2.1,1.2,1.7,3*35
$GLGSA,A,3,71,72,77,78,86,87,88,,,,,,2.1,1.2,1.7*25
$GLGSV,2,1,07,78,21,329,38,86,20,035,38,77,70,299,39,88,28,260,38*65
$GLGSV,2,2,07,87,55,334,39,71,07,066,38,72,05,113,38*51
$GAGSV,1,1,03,23,56,253,,24,59,022,,27,09,142,*5C
$GPGGA,003602.00,2959.997600,N,11959.999707,E,1,00,1.2,-4.0,M,7.0,M,,*7C
$GAGGA,003602.00,2959.997600,N,11959.999707,E,1,00,1.2,-4.0,M,7.0,M,,*6D
$GNGNS,003602.00,2959.997600,N,11959.999707,E,NAN,07,1.2,-4.0,7.0,,,V*74
$GPVTG,,T,4.4,M,0.0,N,0.0,K,A*0D
$GPRMC,003602.00,A,2959.997600,N,11959.999707,E,0.0,,230721,4.4,W,A*01
$GARMC,003602.00,A,2959.997600,N,11959.999707,E,0.0,,230721,4.4,W,A*10
$GPGSA,A,1,,,,,,,,,,,,,,,,*32
$GNGSA,A,3,,,,,,,,,,,,,2.1,1.2,1.7,1*37
$GNGSA,A,3,71,72,77,78,86,87,88,,,,,,2.1,1.2,1.7,2*39
$GNGSA,A,3,,,,,,,,,,,,,2.1,1.2,1.7,3*35
$GLGSA,A,3,71,72,77,78,86,87,88,,,,,,2.1,1.2,1.7*25
$GLGSV,2,1,07,78,21,329,38,86,20,035,38,77,70,299,39,88,28,260,38*65
$GLGSV,2,2,07,87,55,334,39,71,07,066,38,72,05,113,38*51
$GAGSV,1,1,03,23,56,253,,24,59,022,,27,09,142,*5C
$GPGGA,003603.00,2959.997493,N,11959.999683,E,1,00,1.2,-4.2,M,7.0,M,,*7A
$GAGGA,003603.00,2959.997493,N,11959.999683,E,1,00,1.2,-4.2,M,7.0,M,,*6B
$GNGNS,003603.00,2959.997493,N,11959.999683,E,NAN,07,1.2,-4.2,7.0,,,V*72
$GPVTG,,T,4.4,M,0.0,N,0.0,K,A*0D
$GPRMC,003603.00,A,2959.997493,N,11959.999683,E,0.0,,230721,4.4,W,A*05
$GARMC,003603.00,A,2959.997493,N,11959.999683,E,0.0,,230721,4.4,W,A*14
$GPGSA,A,1,,,,,,,,,,,,,,,,*32
$GNGSA,A,3,,,,,,,,,,,,,2.1,1.2,1.7,1*37
$GNGSA,A,3,71,72,77,78,86,87,88,,,,,,2.1,1.2,1.7,2*39
$GNGSA,A,3,,,,,,,,,,,,,2.1,1.2,1.7,3*35
$GLGSA,A,3,71,72,77,78,86,87,88,,,,,,2.1,1.2,1.7*25
$GLGSV,2,1,07,78,21,329,38,86,20,035,38,77,70,299,40,88,28,260,39*6A
$GLGSV,2,2,07,87,55,334,39,71,07,066,38,72,05,113,38*51
$GAGSV,1,1,03,23,56,253,,24,59,022,,27,09,142,*5C
$GPGGA,003604.00,2959.997377,N,11959.999685,E,1,00,1.2,-4.3,M,7.0,M,,*77
$GAGGA,003604.00,2959.997377,N,11959.999685,E,1,00,1.2,-4.3,M,7.0,M,,*66
$GNGNS,003604.00,2959.997377,N,11959.999685,E,NAN,07,1.2,-4.3,7.0,,,V*7F
$GPVTG,,T,4.4,M,0.0,N,0.0,K,A*0D
$GPRMC,003604.00,A,2959.997377,N,11959.999685,E,0.0,,230721,4.4,W,A*09
$GARMC,003604.00,A,2959.997377,N,11959.999685,E,0.0,,230721,4.4,W,A*18
$GPGSA,A,1,,,,,,,,,,,,,,,,*32
$GNGSA,A,3,,,,,,,,,,,,,2.1,1.2,1.7,1*37
$GNGSA,A,3,71,72,77,78,86,87,88,,,,,,2.1,1.2,1.7,2*39
$GNGSA,A,3,,,,,,,,,,,,,2.1,1.2,1.7,3*35
$GLGSA,A,3,71,72,77,78,86,87,88,,,,,,2.1,1.2,1.7*25
$GLGSV,2,1,07,78,21,329,38,86,20,035,38,77,70,299,39,88,28,260,38*65
$GLGSV,2,2,07,87,55,334,39,71,07,066,37,72,05,113,37*51
$GAGSV,1,1,03,23,56,253,,24,59,022,,27,09,142,*5C
$GPGGA,003605.00,2959.997535,N,11959.999702,E,1,00,1.2,-4.2,M,7.0,M,,*79
$GAGGA,003605.00,2959.997535,N,11959.999702,E,1,00,1.2,-4.2,M,7.0,M,,*68
$GNGNS,003605.00,2959.997535,N,11959.999702,E,NAN,07,1.2,-4.2,7.0,,,V*71
$GPVTG,,T,4.4,M,0.0,N,0.0,K,A*0D
$GPRMC,003605.00,A,2959.997535,N,11959.999702,E,0.0,,230721,4.4,W,A*06
$GARMC,003605.00,A,2959.997535,N,11959.999702,E,0.0,,230721,4.4,W,A*17
$GPGSA,A,1,,,,,,,,,,,,,,,,*32
$GNGSA,A,3,,,,,,,,,,,,,2.1,1.2,1.7,1*37
$GNGSA,A,3,71,72,77,78,86,87,88,,,,,,2.1,1.2,1.7,2*39
$GNGSA,A,3,,,,,,,,,,,,,2.1,1.2,1.7,3*35
$GLGSA,A,3,71,72,77,78,86,87,88,,,,,,2.1,1.2,1.7*25
$GLGSV,2,1,07,78,21,329,38,86,20,035,38,77,70,299,40,88,28,260,38*6B
$GLGSV,2,2,07,87,55,334,39,71,07,066,37,72,05,113,38*5E
$GAGSV,1,1,03,23,56,253,,24,59,022,,27,09,142,*5C
$GPGGA,003606.00,2959.997555,N,11959.999597,E,1,00,1.2,-4.5,M,7.0,M,,*75
$GAGGA,003606.00,2959.997555,N,11959.999597,E,1,00,1.2,-4.5,M,7.0,M,,*64
$GNGNS,003606.00,2959.997555,N,11959.999597,E,NAN,07,1.2,-4.5,7.0,,,V*7D
$GPVTG,,T,4.4,M,0.0,N,0.0,K,A*0D
$GPRMC,003606.00,A,2959.997555,N,11959.999597,E,0.0,,230721,4.4,W,A*0D
$GARMC,003606.00,A,2959.997555,N,11959.999597,E,0.0,,230721,4.4,W,A*1C
$GPGSA,A,1,,,,,,,,,,,,,,,,*32
$GNGSA,A,3,,,,,,,,,,,,,2.1,1.2,1.7,1*37
$GNGSA,A,3,71,72,77,78,86,87,88,,,,,,2.1,1.2,1.7,2*39
$GNGSA,A,3,,,,,,,,,,,,,2.1,1.2,1.7,3*35
$GLGSA,A,3,71,72,77,78,86,87,88,,,,,,2.1,1.2,1.7*25
$GLGSV,2,1,07,78,21,329,38,86,20,035,38,77,70,299,39,88,28,260,38*65
$GLGSV,2,2,07,87,55,334,39,71,07,066,38,72,05,113,38*51
$GAGSV,1,1,03,23,56,253,,24,59,022,,27,09,142,*5C
$GPGGA,003607.00,2959.997529,N,11959.999348,E,1,00,1.2,-4.9,M,7.0,M,,*77
$GAGGA,003607.00,2959.997529,N,11959.999348,E,1,00,1.2,-4.9,M,7.0,M,,*66
$GNGNS,003607.00,2959.997529,N,11959.999348,E,NAN,07,1.2,-4.9,7.0,,,V*7F
$GPVTG,,T,4.4,M,0.0,N,0.0,K,A*0D
$GPRMC,003607.00,A,2959.997529,N,11959.999348,E,0.0,,230721,4.4,W,A*03
$GARMC,003607.00,A,2959.997529,N,11959.999348,E,0.0,,230721,4.4,W,A*12
$GPGSA,A,1,,,,,,,,,,,,,,,,*32
$GNGSA,A,3,,,,,,,,,,,,,2.1,1.2,1.7,1*37
$GNGSA,A,3,71,72,77,78,86,87,88,,,,,,2.1,1.2,1.7,2*39
$GNGSA,A,3,,,,,,,,,,,,,2.1,1.2,1.7,3*35
$GLGSA,A,3,71,72,77,78,86,87,88,,,,,,2.1,1.2,1.7*25
$GLGSV,2,1,07,78,21,329,38,86,20,035,38,77,70,299,39,88,28,260,38*65
$GLGSV,2,2,07,87,55,334,39,71,07,066,37,72,05,113,37*51
$GAGSV,1,1,03,23,56,253,,24,59,022,,27,09,142,*5C
$GPGGA,003608.00,2959.997512,N,11959.999255,E,1,00,1.2,-5.1,M,7.0,M,,*74
$GAGGA,003608.00,2959.997512,N,11959.999255,E,1,00,1.2,-5.1,M,7.0,M,,*65
$GNGNS,003608.00,2959.997512,N,11959.999255,E,NAN,07,1.2,-5.1,7.0,,,V*7C
$GPVTG,,T,4.4,M,0.0,N,0.0,K,A*0D
$GPRMC,003608.00,A,2959.997512,N,11959.999255,E,0.0,,230721,4.4,W,A*09
$GARMC,003608.00,A,2959.997512,N,11959.999255,E,0.0,,230721,4.4,W,A*18
$GPGSA,A,1,,,,,,,,,,,,,,,,*32
$GNGSA,A,3,,,,,,,,,,,,,2.1,1.2,1.7,1*37
$GNGSA,A,3,71,72,77,78,86,87,88,,,,,,2.1,1.2,1.7,2*39
$GNGSA,A,3,,,,,,,,,,,,,2.1,1.2,1.7,3*35
$GLGSA,A,3,71,72,77,78,86,87,88,,,,,,2.1,1.2,1.7*25
$GLGSV,2,1,07,78,21,329,38,86,20,035,38,77,70,299,39,88,28,260,38*65
$GLGSV,2,2,07,87,55,334,39,71,07,066,38,72,05,113,38*51
$GAGSV,1,1,03,23,56,253,,24,59,022,,27,09,142,*5C
$GPGGA,003609.00,2959.997608,N,11959.999441,E,1,00,1.2,-4.9,M,7.0,M,,*77
$GAGGA,003609.00,2959.997608,N,11959.999441,E,1,00,1.2,-4.9,M,7.0,M,,*66
$GNGNS,003609.00,2959.997608,N,11959.999441,E,NAN,07,1.2,-4.9,7.0,,,V*7F
$GPVTG,,T,4.4,M,0.0,N,0.0,K,A*0D
$GPRMC,003609.00,A,2959.997608,N,11959.999441,E,0.0,,230721,4.4,W,A*03
$GARMC,003609.00,A,2959.997608,N,11959.999441,E,0.0,,230721,4.4,W,A*12
$GPGSA,A,1,,,,,,,,,,,,,,,,*32
$GNGSA,A,3,,,,,,,,,,,,,2.1,1.2,1.7,1*37
$GNGSA,A,3,71,72,77,78,86,87,88,,,,,,2.1,1.2,1.7,2*39
$GNGSA,A,3,,,,,,,,,,,,,2.1,1.2,1.7,3*35
$GLGSA,A,3,71,72,77,78,86,87,88,,,,,,2.1,1.2,1.7*25
$GLGSV,2,1,07,78,21,329,38,86,19,036,38,77,71,296,39,88,29,261,38*62
$GLGSV,2,2,07,87,55,337,39,71,07,064,37,72,05,113,38*5F
$GAGSV,1,1,03,23,56,253,,24,59,022,,27,09,142,*5C
$GPGGA,003610.00,2959.997551,N,11959.999287,E,1,00,1.2,-4.7,M,7.0,M,,*72
$GAGGA,003610.00,2959.997551,N,11959.999287,E,1,00,1.2,-4.7,M,7.0,M,,*63
$GNGNS,003610.00,2959.997551,N,11959.999287,E,NAN,07,1.2,-4.7,7.0,,,V*7A
$GPVTG,,T,4.4,M,0.0,N,0.0,K,A*0D
$GPRMC,003610.00,A,2959.997551,N,11959.999287,E,0.0,,230721,4.4,W,A*08
$GARMC,003610.00,A,2959.997551,N,11959.999287,E,0.0,,230721,4.4,W,A*19
$GPGSA,A,1,,,,,,,,,,,,,,,,*32
$GNGSA,A,3,,,,,,,,,,,,,2.1,1.2,1.7,1*37
$GNGSA,A,3,71,72,77,78,86,87,88,,,,,,2.1,1.2,1.7,2*39
$GNGSA,A,3,,,,,,,,,,,,,2.1,1.2,1.7,3*35
$GLGSA,A,3,71,72,77,78,86,87,88,,,,,,2.1,1.2,1.7*25
$GLGSV,2,1,07,78,21,329,38,86,19,036,38,77,71,296,40,88,29,261,38*6C
$GLGSV,2,2,07,87,55,337,39,71,07,064,37,72,05,113,38*5F
$GAGSV,1,1,03,23,56,253,,24,59,022,,27,09,142,*5C
$GPGGA,003611.00,2959.997745,N,11959.999468,E,1,00,1.2,-5.0,M,7.0,M,,*75
$GAGGA,003611.00,2959.997745,N,11959.999468,E,1,00,1.2,-5.0,M,7.0,M,,*64
$GNGNS,003611.00,2959.997745,N,11959.999468,E,NAN,07,1.2,-5.0,7.0,,,V*7D
$GPVTG,,T,4.4,M,0.0,N,0.0,K,A*0D
$GPRMC,003611.00,A,2959.997745,N,11959.999468,E,0.0,,230721,4.4,W,A*09
$GARMC,003611.00,A,2959.997745,N,11959.999468,E,0.0,,230721,4.4,W,A*18
$GPGSA,A,1,,,,,,,,,,,,,,,,*32
$GNGSA,A,3,,,,,,,,,,,,,2.1,1.2,1.7,1*37
$GNGSA,A,3,71,72,77,78,86,87,88,,,,,,2.1,1.2,1.7,2*39
$GNGSA,A,3,,,,,,,,,,,,,2.1,1.2,1.7,3*35
$GLGSA,A,3,71,72,77,78,86,87,88,,,,,,2.1,1.2,1.7*25
$GLGSV,2,1,07,78,21,329,38,86,19,036,38,77,71,296,39,88,29,261,38*62
$GLGSV,2,2,07,87,55,337,39,71,07,064,38,72,05,113,37*5F
$GAGSV,1,1,03,23,56,253,,24,59,022,,27,09,142,*5C
$GPGGA,003612.00,2959.997650,N,11959.999578,E,1,00,1.2,-4.9,M,7.0,M,,*7B
$GAGGA,003612.00,2959.997650,N,11959.999578,E,1,00,1.2,-4.9,M,7.0,M,,*6A
$GNGNS,003612.00,2959.997650,N,11959.999578,E,NAN,07,1.2,-4.9,7.0,,,V*73
$GPVTG,,T,4.4,M,0.0,N,0.0,K,A*0D
$GPRMC,003612.00,A,2959.997650,N,11959.999578,E,0.0,,230721,4.4,W,A*0F
$GARMC,003612.00,A,2959.997650,N,11959.999578,E,0.0,,230721,4.4,W,A*1E
$GPGSA,A,1,,,,,,,,,,,,,,,,*32
$GNGSA,A,3,,,,,,,,,,,,,2.1,1.2,1.7,1*37
$GNGSA,A,3,71,72,77,78,86,87,88,,,,,,2.1,1.2,1.7,2*39
$GNGSA,A,3,,,,,,,,,,,,,2.1,1.2,1.7,3*35
$GLGSA,A,3,71,72,77,78,86,87,88,,,,,,2.1,1.2,1.7*25
$GLGSV,2,1,07,78,21,329,38,86,19,036,38,77,71,296,39,88,29,261,38*62
$GLGSV,2,2,07,87,55,337,39,71,07,064,38,72,05,113,38*50
$GAGSV,1,1,03,23,56,253,,24,59,022,,27,09,142,*5C
$GPGGA,003613.00,2959.997802,N,11959.999668,E,1,00,1.2,-4.8,M,7.0,M,,*70
$GAGGA,003613.00,2959.997802,N,11959.999668,E,1,00,1.2,-4.8,M,7.0,M,,*61
$GNGNS,003613.00,2959.997802,N,11959.999668,E,NAN,07,1.2,-4.8,7.0,,,V*78
$GPVTG,,T,4.4,M,0.0,N,0.0,K,A*0D
$GPRMC,003613.00,A,2959.997802,N,11959.999668,E,0.0,,230721,4.4,W,A*05
$GARMC,003613.00,A,2959.997802,N,11959.999668,E,0.0,,230721,4.4,W,A*14
$GPGSA,A,1,,,,,,,,,,,,,,,,*32
$GNGSA,A,3,,,,,,,,,,,,,2.1,1.2,1.7,1*37
$GNGSA,A,3,71,72,77,78,86,87,88,,,,,,2.1,1.2,1.7,2*39
$GNGSA,A,3,,,,,,,,,,,,,2.1,1.2,1.7,3*35
$GLGSA,A,3,71,72,77,78,86,87,88,,,,,,2.1,1.2,1.7*25
$GLGSV,2,1,07,78,21,329,38,86,19,036,38,77,71,296,39,88,29,261,38*62
$GLGSV,2,2,07,87,55,337,39,71,07,064,37,72,05,113,38*5F
$GAGSV,1,1,03,23,56,253,,24,59,022,,27,09,142,*5C
$GPGGA,003614.00,2959.997697,N,11959.999579,E,1,00,1.2,-5.2,M,7.0,M,,*7D
$GAGGA,003614.00,2959.997697,N,11959.999579,E,1,00,1.2,-5.2,M,7.0,M,,*6C
$GNGNS,003614.00,2959.997697,N,11959.999579,E,NAN,07,1.2,-5.2,7.0,,,V*75
$GPVTG,,T,4.4,M,0.0,N,0.0,K,A*0D
$GPRMC,003614.00,A,2959.997697,N,11959.999579,E,0.0,,230721,4.4,W,A*03
$GARMC,003614.00,A,2959.997697,N,11959.999579,E,0.0,,230721,4.4,W,A*12
$GPGSA,A,1,,,,,,,,,,,,,,,,*32
$GNGSA,A,3,,,,,,,,,,,,,2.1,1.2,1.7,1*37
$GNGSA,A,3,71,72,77,78,86,87,88,,,,,,2.1,1.2,1.7,2*39
$GNGSA,A,3,,,,,,,,,,,,,2.1,1.2,1.7,3*35
$GLGSA,A,3,71,72,77,78,86,87,88,,,,,,2.1,1.2,1.7*25
$GLGSV,2,1,07,78,21,329,38,86,19,036,38,77,71,296,39,88,29,261,38*62
$GLGSV,2,2,07,87,55,337,39,71,07,064,37,72,05,113,38*5F
$GAGSV,1,1,03,23,56,253,,24,59,022,,27,09,142,*5C
$GPGGA,003615.00,2959.997651,N,11959.999467,E,1,00,1.2,-5.6,M,7.0,M,,*7C
$GAGGA,003615.00,2959.997651,N,11959.999467,E,1,00,1.2,-5.6,M,7.0,M,,*6D
$GNGNS,003615.00,2959.997651,N,11959.999467,E,NAN,07,1.2,-5.6,7.0,,,V*74
$GPVTG,,T,4.4,M,0.0,N,0.0,K,A*0D
$GPRMC,003615.00,A,2959.997651,N,11959.999467,E,0.0,,230721,4.4,W,A*06
$GARMC,003615.00,A,2959.997651,N,11959.999467,E,0.0,,230721,4.4,W,A*17
$GPGSA,A,1,,,,,,,,,,,,,,,,*32
$GNGSA,A,3,,,,,,,,,,,,,2.1,1.2,1.7,1*37
$GNGSA,A,3,71,72,77,78,86,87,88,,,,,,2.1,1.2,1.7,2*39
$GNGSA,A,3,,,,,,,,,,,,,2.1,1.2,1.7,3*35
$GLGSA,A,3,71,72,77,78,86,87,88,,,,,,2.1,1.2,1.7*25
$GLGSV,2,1,07,78,21,329,38,86,19,036,38,77,71,296,39,88,29,261,38*62
$GLGSV,2,2,07,87,55,337,39,71,07,064,38,72,05,113,37*5F
$GAGSV,1,1,03,23,56,253,,24,59,022,,27,09,142,*5C
$GPGGA,003616.00,2959.997626,N,11959.999497,E,1,00,1.2,-5.5,M,7.0,M,,*73
$GAGGA,003616.00,2959.997626,N,11959.999497,E,1,00,1.2,-5.5,M,7.0,M,,*62
$GNGNS,003616.00,2959.997626,N,11959.999497,E,NAN,07,1.2,-5.5,7.0,,,V*7B
$GPVTG,,T,4.4,M,0.0,N,0.0,K,A*0D
$GPRMC,003616.00,A,2959.997626,N,11959.999497,E,0.0,,230721,4.4,W,A*0A
$GARMC,003616.00,A,2959.997626,N,11959.999497,E,0.0,,230721,4.4,W,A*1B
$GPGSA,A,1,,,,,,,,,,,,,,,,*32
$GNGSA,A,3,,,,,,,,,,,,,2.1,1.2,1.7,1*37
$GNGSA,A,3,71,72,77,78,86,87,88,,,,,,2.1,1.2,1.7,2*39
$GNGSA,A,3,,,,,,,,,,,,,2.1,1.2,1.7,3*35
$GLGSA,A,3,71,72,77,78,86,87,88,,,,,,2.1,1.2,1.7*25
$GLGSV,2,1,07,78,21,329,38,86,19,036,38,77,71,296,39,88,29,261,38*62
$GLGSV,2,2,07,87,55,337,39,71,07,064,38,72,05,113,38*50
$GAGSV,1,1,03,23,56,253,,24,59,022,,27,09,142,*5C
$GPGGA,003617.00,2959.997574,N,11959.999544,E,1,00,1.2,-4.5,M,7.0,M,,*78
$GAGGA,003617.00,2959.997574,N,11959.999544,E,1,00,1.2,-4.5,M,7.0,M,,*69
$GNGNS,003617.00,2959.997574,N,11959.999544,E,NAN,07,1.2,-4.5,7.0,,,V*70
$GPVTG,,T,4.4,M,0.0,N,0.0,K,A*0D
$GPRMC,003617.00,A,2959.997574,N,11959.999544,E,0.0,,230721,4.4,W,A*00
$GARMC,003617.00,A,2959.997574,N,11959.999544,E,0.0,,230721,4.4,W,A*11
$GPGSA,A,1,,,,,,,,,,,,,,,,*32
$GNGSA,A,3,,,,,,,,,,,,,2.1,1.2,1.7,1*37
$GNGSA,A,3,71,72,77,78,86,87,88,,,,,,2.1,1.2,1.7,2*39
$GNGSA,A,3,,,,,,,,,,,,,2.1,1.2,1.7,3*35
$GLGSA,A,3,71,72,77,78,86,87,88,,,,,,2.1,1.2,1.7*25
$GLGSV,2,1,07,78,21,329,38,86,19,036,38,77,71,296,39,88,29,261,38*62
$GLGSV,2,2,07,87,55,337,39,71,07,064,37,72,05,113,38*5F
$GAGSV,1,1,03,23,56,253,,24,59,022,,27,09,142,*5C
$GPGGA,003618.00,2959.997656,N,11959.999690,E,1,00,1.2,-4.9,M,7.0,M,,*72
$GAGGA,003618.00,2959.997656,N,11959.999690,E,1,00,1.2,-4.9,M,7.0,M,,*63
$GNGNS,003618.00,2959.997656,N,11959.999690,E,NAN,07,1.2,-4.9,7.0,,,V*7A
$GPVTG,,T,4.4,M,0.0,N,0.0,K,A*0D
$GPRMC,003618.00,A,2959.997656,N,11959.999690,E,0.0,,230721,4.4,W,A*06
$GARMC,003618.00,A,2959.997656,N,11959.999690,E,0.0,,230721,4.4,W,A*17
$GPGSA,A,1,,,,,,,,,,,,,,,,*32
$GNGSA,A,3,,,,,,,,,,,,,2.1,1.2,1.7,1*37
$GNGSA,A,3,71,72,77,78,86,87,88,,,,,,2.1,1.2,1.7,2*39
$GNGSA,A,3,,,,,,,,,,,,,2.1,1.2,1.7,3*35
$GLGSA,A,3,71,72,77,78,86,87,88,,,,,,2.1,1.2,1.7*25
$GLGSV,2,1,07,78,21,329,38,86,19,036,38,77,71,296,39,88,29,261,38*62
$GLGSV,2,2,07,87,55,337,39,71,07,064,38,72,05,113,38*50
$GAGSV,1,1,03,23,56,253,,24,59,022,,27,09,142,*5C
$GPGGA,003619.00,2959.997783,N,11959.999628,E,1,00,1.2,-4.7,M,7.0,M,,*77
$GAGGA,003619.00,2959.997783,N,11959.999628,E,1,00,1.2,-4.7,M,7.0,M,,*66
$GNGNS,003619.00,2959.997783,N,11959.999628,E,NAN,07,1.2,-4.7,7.0,,,V*7F
$GPVTG,,T,4.4,M,0.0,N,0.0,K,A*0D
$GPRMC,003619.00,A,2959.997783,N,11959.999628,E,0.0,,230721,4.4,W,A*0D
$GARMC,003619.00,A,2959.997783,N,11959.999628,E,0.0,,230721,4.4,W,A*1C
$GPGSA,A,1,,,,,,,,,,,,,,,,*32
$GNGSA,A,3,,,,,,,,,,,,,2.1,1.2,1.7,1*37
$GNGSA,A,3,71,72,77,78,86,87,88,,,,,,2.1,1.2,1.7,2*39
$GNGSA,A,3,,,,,,,,,,,,,2.1,1.2,1.7,3*35
$GLGSA,A,3,71,72,77,78,86,87,88,,,,,,2.1,1.2,1.7*25
$GLGSV,2,1,07,78,21,329,38,86,19,036,38,77,71,296,39,88,29,261,38*62
$GLGSV,2,2,07,87,55,337,39,71,07,064,38,72,05,113,38*50
$GAGSV,1,1,03,23,56,253,,24,59,022,,27,09,142,*5C
$GPGGA,003620.00,2959.997690,N,11959.999713,E,1,00,1.2,-4.9,M,7.0,M,,*79
$GAGGA,003620.00,2959.997690,N,11959.999713,E,1,00,1.2,-4.9,M,7.0,M,,*68
$GNGNS,003620.00,2959.997690,N,11959.999713,E,NAN,07,1.2,-4.9,7.0,,,V*71
$GPVTG,,T,4.4,M,0.0,N,0.0,K,A*0D
$GPRMC,003620.00,A,2959.997690,N,11959.999713,E,0.0,,230721,4.4,W,A*0D
$GARMC,003620.00,A,2959.997690,N,11959.999713,E,0.0,,230721,4.4,W,A*1C
$GPGSA,A,1,,,,,,,,,,,,,,,,*32
$GNGSA,A,3,,,,,,,,,,,,,2.1,1.2,1.7,1*37
$GNGSA,A,3,71,72,77,78,86,87,88,,,,,,2.1,1.2,1.7,2*39
$GNGSA,A,3,,,,,,,,,,,,,2.1,1.2,1.7,3*35
$GLGSA,A,3,71,72,77,78,86,87,88,,,,,,2.1,1.2,1.7*25
$GLGSV,2,1,07,78,21,329,38,86,19,036,38,77,71,296,39,88,29,261,38*62
$GLGSV,2,2,07,87,55,337,39,71,07,064,38,72,05,113,38*50
$GAGSV,1,1,03,23,56,253,,24,59,022,,27,09,142,*5C
$GPGGA,003621.00,2959.997587,N,11959.999768,E,1,00,1.2,-5.2,M,7.0,M,,*7B
$GAGGA,003621.00,2959.997587,N,11959.999768,E,1,00,1.2,-5.2,M,7.0,M,,*6A
$GNGNS,003621.00,2959.997587,N,11959.999768,E,NAN,07,1.2,-5.2,7.0,,,V*73
$GPVTG,,T,4.4,M,0.0,N,0.0,K,A*0D
$GPRMC,003621.00,A,2959.997587,N,11959.999768,E,0.0,,230721,4.4,W,A*05
$GARMC,003621.00,A,2959.997587,N,11959.999768,E,0.0,,230721,4.4,W,A*14
$GPGSA,A,1,,,,,,,,,,,,,,,,*32
$GNGSA,A,3,,,,,,,,,,,,,2.1,1.2,1.7,1*37
$GNGSA,A,3,71,72,77,78,86,87,88,,,,,,2.1,1.2,1.7,2*39
$GNGSA,A,3,,,,,,,,,,,,,2.1,1.2,1.7,3*35
$GLGSA,A,3,71,72,77,78,86,87,88,,,,,,2.1,1.2,1.7*25
$GLGSV,2,1,07,78,21,329,38,86,19,036,38,77,71,296,39,88,29,261,38*62
$GLGSV,2,2,07,87,55,337,39,71,07,064,37,72,05,113,37*50
$GAGSV,1,1,03,23,56,253,,24,59,022,,27,09,142,*5C
$GPGGA,003622.00,2959.997577,N,11959.999867,E,1,00,1.2,-5.5,M,7.0,M,,*70
$GAGGA,003622.00,2959.997577,N,11959.999867,E,1,00,1.2,-5.5,M,7.0,M,,*61
$GNGNS,003622.00,2959.997577,N,11959.999867,E,NAN,07,1.2,-5.5,7.0,,,V*78
$GPVTG,,T,4.4,M,0.0,N,0.0,K,A*0D
$GPRMC,003622.00,A,2959.997577,N,11959.999867,E,0.0,,230721,4.4,W,A*09
$GARMC,003622.00,A,2959.997577,N,11959.999867,E,0.0,,230721,4.4,W,A*18
$GPGSA,A,1,,,,,,,,,,,,,,,,*32
$GNGSA,A,3,,,,,,,,,,,,,2.1,1.2,1.7,1*37
$GNGSA,A,3,71,72,77,78,86,87,88,,,,,,2.1,1.2,1.7,2*39
$GNGSA,A,3,,,,,,,,,,,,,2.1,1.2,1.7,3*35
$GLGSA,A,3,71,72,77,78,86,87,88,,,,,,2.1,1.2,1.7*25
$GLGSV,2,1,07,78,21,329,38,86,19,036,38,77,71,296,39,88,29,261,38*62
$GLGSV,2,2,07,87,55,337,39,71,07,064,37,72,05,113,37*50
$GAGSV,1,1,03,23,56,253,,24,59,022,,27,09,142,*5C
$GPGGA,003623.00,2959.997630,N,11959.999932,E,1,00,1.2,-5.5,M,7.0,M,,*70
$GAGGA,003623.00,2959.997630,N,11959.999932,E,1,00,1.2,-5.5,M,7.0,M,,*61
$GNGNS,003623.00,2959.997630,N,11959.999932,E,NAN,07,1.2,-5.5,7.0,,,V*78
$GPVTG,,T,4.4,M,0.0,N,0.0,K,A*0D
$GPRMC,003623.00,A,2959.997630,N,11959.999932,E,0.0,,230721,4.4,W,A*09
$GARMC,003623.00,A,2959.997630,N,11959.999932,E,0.0,,230721,4.4,W,A*18
$GPGSA,A,1,,,,,,,,,,,,,,,,*32
$GNGSA,A,3,,,,,,,,,,,,,2.1,1.2,1.7,1*37
$GNGSA,A,3,71,72,77,78,86,87,88,,,,,,2.1,1.2,1.7,2*39
$GNGSA,A,3,,,,,,,,,,,,,2.1,1.2,1.7,3*35
$GLGSA,A,3,71,72,77,78,86,87,88,,,,,,2.1,1.2,1.7*25

$GLGSV,2,1,07,78,21,329,38,86,19,036,38,77,71,296,39,88,29,261,38*62
$GLGSV,2,2,07,87,55,337,39,71,07,064,37,72,05,113,38*5F
$GAGSV,1,1,03,23,56,253,,24,59,022,,27,09,142,*5C
$GPGGA,003624.00,2959.997692,N,12000.000121,E,1,00,1.2,-5.6,M,7.0,M,,*79
$GAGGA,003624.00,2959.997692,N,12000.000121,E,1,00,1.2,-5.6,M,7.0,M,,*68
$GNGNS,003624.00,2959.997692,N,12000.000121,E,NAN,07,1.2,-5.6,7.0,,,V*71
$GPVTG,,T,4.4,M,0.0,N,0.0,K,A*0D
$GPRMC,003624.00,A,2959.997692,N,12000.000121,E,0.0,,230721,4.4,W,A*03
$GARMC,003624.00,A,2959.997692,N,12000.000121,E,0.0,,230721,4.4,W,A*12
$GPGSA,A,1,,,,,,,,,,,,,,,,*32
$GNGSA,A,3,,,,,,,,,,,,,2.1,1.2,1.7,1*37
$GNGSA,A,3,71,72,77,78,86,87,88,,,,,,2.1,1.2,1.7,2*39
$GNGSA,A,3,,,,,,,,,,,,,2.1,1.2,1.7,3*35
$GLGSA,A,3,71,72,77,78,86,87,88,,,,,,2.1,1.2,1.7*25
$GLGSV,2,1,07,78,21,329,38,86,19,036,38,77,71,296,39,88,29,261,38*62
$GLGSV,2,2,07,87,55,337,39,71,07,064,38,72,05,113,38*50
$GAGSV,1,1,03,23,56,253,,24,59,022,,27,09,142,*5C
$GPGGA,003625.00,2959.997610,N,12000.000062,E,1,00,1.2,-5.8,M,7.0,M,,*7A
$GAGGA,003625.00,2959.997610,N,12000.000062,E,1,00,1.2,-5.8,M,7.0,M,,*6B
$GNGNS,003625.00,2959.997610,N,12000.000062,E,NAN,07,1.2,-5.8,7.0,,,V*72
$GPVTG,,T,4.4,M,0.0,N,0.0,K,A*0D
$GPRMC,003625.00,A,2959.997610,N,12000.000062,E,0.0,,230721,4.4,W,A*0E
$GARMC,003625.00,A,2959.997610,N,12000.000062,E,0.0,,230721,4.4,W,A*1F
$GPGSA,A,1,,,,,,,,,,,,,,,,*32
$GNGSA,A,3,,,,,,,,,,,,,2.1,1.2,1.7,1*37
$GNGSA,A,3,71,72,77,78,86,87,88,,,,,,2.1,1.2,1.7,2*39
$GNGSA,A,3,,,,,,,,,,,,,2.1,1.2,1.7,3*35
$GLGSA,A,3,71,72,77,78,86,87,88,,,,,,2.1,1.2,1.7*25
$GLGSV,2,1,07,78,21,329,38,86,19,036,38,77,71,296,39,88,29,261,39*63
$GLGSV,2,2,07,87,55,337,39,71,07,064,37,72,05,113,38*5F
$GAGSV,1,1,03,23,56,253,,24,59,022,,27,09,142,*5C
$GPGGA,003626.00,2959.997528,N,11959.999951,E,1,00,1.2,-6.1,M,7.0,M,,*7D
$GAGGA,003626.00,2959.997528,N,11959.999951,E,1,00,1.2,-6.1,M,7.0,M,,*6C
$GNGNS,003626.00,2959.997528,N,11959.999951,E,NAN,07,1.2,-6.1,7.0,,,V*75
$GPVTG,,T,4.4,M,0.0,N,0.0,K,A*0D
$GPRMC,003626.00,A,2959.997528,N,11959.999951,E,0.0,,230721,4.4,W,A*03
$GARMC,003626.00,A,2959.997528,N,11959.999951,E,0.0,,230721,4.4,W,A*12
$GPGSA,A,1,,,,,,,,,,,,,,,,*32
$GNGSA,A,3,,,,,,,,,,,,,2.1,1.2,1.7,1*37
$GNGSA,A,3,71,72,77,78,86,87,88,,,,,,2.1,1.2,1.7,2*39
$GNGSA,A,3,,,,,,,,,,,,,2.1,1.2,1.7,3*35
$GLGSA,A,3,71,72,77,78,86,87,88,,,,,,2.1,1.2,1.7*25
$GLGSV,2,1,07,78,21,329,38,86,19,036,38,77,71,296,39,88,29,261,38*62
$GLGSV,2,2,07,87,55,337,39,71,07,064,38,72,05,113,38*50
$GAGSV,1,1,03,23,56,253,,24,59,022,,27,09,142,*5C
$GPGGA,003627.00,2959.997430,N,11959.999857,E,1,00,1.2,-6.3,M,7.0,M,,*71
$GAGGA,003627.00,2959.997430,N,11959.999857,E,1,00,1.2,-6.3,M,7.0,M,,*60
$GNGNS,003627.00,2959.997430,N,11959.999857,E,NAN,07,1.2,-6.3,7.0,,,V*79
$GPVTG,,T,4.4,M,0.0,N,0.0,K,A*0D
$GPRMC,003627.00,A,2959.997430,N,11959.999857,E,0.0,,230721,4.4,W,A*0D
$GARMC,003627.00,A,2959.997430,N,11959.999857,E,0.0,,230721,4.4,W,A*1C
$GPGSA,A,1,,,,,,,,,,,,,,,,*32
$GNGSA,A,3,,,,,,,,,,,,,2.1,1.2,1.7,1*37
$GNGSA,A,3,71,72,77,78,86,87,88,,,,,,2.1,1.2,1.7,2*39
$GNGSA,A,3,,,,,,,,,,,,,2.1,1.2,1.7,3*35
$GLGSA,A,3,71,72,77,78,86,87,88,,,,,,2.1,1.2,1.7*25
$GLGSV,2,1,07,78,21,329,38,86,19,036,38,77,71,296,39,88,29,261,38*62
$GLGSV,2,2,07,87,55,337,39,71,07,064,38,72,05,113,37*5F
$GAGSV,1,1,03,23,56,253,,24,59,022,,27,09,142,*5C
$GPGGA,003628.00,2959.997394,N,12000.000014,E,1,00,1.2,-5.6,M,7.0,M,,*71
$GAGGA,003628.00,2959.997394,N,12000.000014,E,1,00,1.2,-5.6,M,7.0,M,,*60
$GNGNS,003628.00,2959.997394,N,12000.000014,E,NAN,07,1.2,-5.6,7.0,,,V*79
$GPVTG,,T,4.4,M,0.0,N,0.0,K,A*0D
$GPRMC,003628.00,A,2959.997394,N,12000.000014,E,0.0,,230721,4.4,W,A*0B
$GARMC,003628.00,A,2959.997394,N,12000.000014,E,0.0,,230721,4.4,W,A*1A
$GPGSA,A,1,,,,,,,,,,,,,,,,*32
$GNGSA,A,3,,,,,,,,,,,,,2.1,1.2,1.7,1*37
$GNGSA,A,3,71,72,77,78,86,87,88,,,,,,2.1,1.2,1.7,2*39
$GNGSA,A,3,,,,,,,,,,,,,2.1,1.2,1.7,3*35
$GLGSA,A,3,71,72,77,78,86,87,88,,,,,,2.1,1.2,1.7*25
$GLGSV,2,1,07,78,21,329,38,86,19,036,38,77,71,296,39,88,29,261,38*62
$GLGSV,2,2,07,87,55,337,39,71,07,064,37,72,05,113,38*5F
$GAGSV,1,1,03,23,56,253,,24,59,022,,27,09,142,*5C
$GPGGA,003629.00,2959.997341,N,11959.999927,E,1,00,1.2,-5.5,M,7.0,M,,*7D
$GAGGA,003629.00,2959.997341,N,11959.999927,E,1,00,1.2,-5.5,M,7.0,M,,*6C
$GNGNS,003629.00,2959.997341,N,11959.999927,E,NAN,07,1.2,-5.5,7.0,,,V*75
$GPVTG,,T,4.4,M,0.0,N,0.0,K,A*0D
$GPRMC,003629.00,A,2959.997341,N,11959.999927,E,0.0,,230721,4.4,W,A*04
$GARMC,003629.00,A,2959.997341,N,11959.999927,E,0.0,,230721,4.4,W,A*15
$GPGSA,A,1,,,,,,,,,,,,,,,,*32
$GNGSA,A,3,,,,,,,,,,,,,2.1,1.2,1.7,1*37
$GNGSA,A,3,71,72,77,78,86,87,88,,,,,,2.1,1.2,1.7,2*39
$GNGSA,A,3,,,,,,,,,,,,,2.1,1.2,1.7,3*35
$GLGSA,A,3,71,72,77,78,86,87,88,,,,,,2.1,1.2,1.7*25
$GLGSV,2,1,07,78,21,329,38,86,19,036,38,77,71,296,39,88,29,261,38*62
$GLGSV,2,2,07,87,55,337,39,71,07,064,37,72,05,113,38*5F
$GAGSV,1,1,03,23,56,253,,24,59,022,,27,09,142,*5C
$GPGGA,003630.00,2959.997458,N,12000.000068,E,1,00,1.2,-5.5,M,7.0,M,,*77
$GAGGA,003630.00,2959.997458,N,12000.000068,E,1,00,1.2,-5.5,M,7.0,M,,*66
$GNGNS,003630.00,2959.997458,N,12000.000068,E,NAN,07,1.2,-5.5,7.0,,,V*7F
$GPVTG,,T,4.4,M,0.0,N,0.0,K,A*0D
$GPRMC,003630.00,A,2959.997458,N,12000.000068,E,0.0,,230721,4.4,W,A*0E
$GARMC,003630.00,A,2959.997458,N,12000.000068,E,0.0,,230721,4.4,W,A*1F
$GPGSA,A,1,,,,,,,,,,,,,,,,*32
$GNGSA,A,3,,,,,,,,,,,,,2.1,1.2,1.7,1*37
$GNGSA,A,3,71,72,77,78,86,87,88,,,,,,2.1,1.2,1.7,2*39
$GNGSA,A,3,,,,,,,,,,,,,2.1,1.2,1.7,3*35
$GLGSA,A,3,71,72,77,78,86,87,88,,,,,,2.1,1.2,1.7*25
$GLGSV,2,1,07,78,21,329,38,86,19,036,38,77,71,296,39,88,29,261,38*62
$GLGSV,2,2,07,87,55,337,39,71,07,064,37,72,05,113,37*50
$GAGSV,1,1,03,23,56,253,,24,59,022,,27,09,142,*5C
$GPGGA,003631.00,2959.997731,N,12000.000198,E,1,00,1.2,-5.1,M,7.0,M,,*70
$GAGGA,003631.00,2959.997731,N,12000.000198,E,1,00,1.2,-5.1,M,7.0,M,,*61
$GNGNS,003631.00,2959.997731,N,12000.000198,E,NAN,07,1.2,-5.1,7.0,,,V*78
$GPVTG,,T,4.4,M,0.0,N,0.0,K,A*0D
$GPRMC,003631.00,A,2959.997731,N,12000.000198,E,0.0,,230721,4.4,W,A*0D
$GARMC,003631.00,A,2959.997731,N,12000.000198,E,0.0,,230721,4.4,W,A*1C
$GPGSA,A,1,,,,,,,,,,,,,,,,*32
$GNGSA,A,3,,,,,,,,,,,,,2.1,1.2,1.7,1*37
$GNGSA,A,3,71,72,77,78,86,87,88,,,,,,2.1,1.2,1.7,2*39
$GNGSA,A,3,,,,,,,,,,,,,2.1,1.2,1.7,3*35
$GLGSA,A,3,71,72,77,78,86,87,88,,,,,,2.1,1.2,1.7*25
$GLGSV,2,1,07,78,21,329,38,86,19,036,38,77,71,296,39,88,29,261,38*62
$GLGSV,2,2,07,87,55,337,39,71,07,064,37,72,05,113,38*5F
$GAGSV,1,1,03,23,56,253,,24,59,022,,27,09,142,*5C
$GPGGA,003632.00,2959.997699,N,12000.000105,E,1,00,1.2,-5.2,M,7.0,M,,*77
$GAGGA,003632.00,2959.997699,N,12000.000105,E,1,00,1.2,-5.2,M,7.0,M,,*66
$GNGNS,003632.00,2959.997699,N,12000.000105,E,NAN,07,1.2,-5.2,7.0,,,V*7F
$GPVTG,,T,4.4,M,0.0,N,0.0,K,A*0D
$GPRMC,003632.00,A,2959.997699,N,12000.000105,E,0.0,,230721,4.4,W,A*09
$GARMC,003632.00,A,2959.997699,N,12000.000105,E,0.0,,230721,4.4,W,A*18
$GPGSA,A,1,,,,,,,,,,,,,,,,*32
$GNGSA,A,3,,,,,,,,,,,,,2.1,1.2,1.7,1*37
$GNGSA,A,3,71,72,77,78,86,87,88,,,,,,2.1,1.2,1.7,2*39
$GNGSA,A,3,,,,,,,,,,,,,2.1,1.2,1.7,3*35
$GLGSA,A,3,71,72,77,78,86,87,88,,,,,,2.1,1.2,1.7*25
$GLGSV,2,1,07,78,21,329,38,86,19,036,38,77,71,296,39,88,29,261,38*62
$GLGSV,2,2,07,87,55,337,39,71,07,064,37,72,05,113,38*5F
$GAGSV,1,1,03,23,56,253,,24,59,022,,27,09,142,*5C
$GPGGA,003633.00,2959.997688,N,12000.000180,E,1,00,1.2,-4.7,M,7.0,M,,*7F
$GAGGA,003633.00,2959.997688,N,12000.000180,E,1,00,1.2,-4.7,M,7.0,M,,*6E
$GNGNS,003633.00,2959.997688,N,12000.000180,E,NAN,07,1.2,-4.7,7.0,,,V*77
$GPVTG,,T,4.4,M,0.0,N,0.0,K,A*0D
$GPRMC,003633.00,A,2959.997688,N,12000.000180,E,0.0,,230721,4.4,W,A*05
$GARMC,003633.00,A,2959.997688,N,12000.000180,E,0.0,,230721,4.4,W,A*14
$GPGSA,A,1,,,,,,,,,,,,,,,,*32
$GNGSA,A,3,,,,,,,,,,,,,2.1,1.2,1.7,1*37
$GNGSA,A,3,71,72,77,78,86,87,88,,,,,,2.1,1.2,1.7,2*39
$GNGSA,A,3,,,,,,,,,,,,,2.1,1.2,1.7,3*35
$GLGSA,A,3,71,72,77,78,86,87,88,,,,,,2.1,1.2,1.7*25
$GLGSV,2,1,07,78,21,329,38,86,19,036,38,77,71,296,39,88,29,261,38*62
$GLGSV,2,2,07,87,55,337,39,71,07,064,37,72,05,113,37*50
$GAGSV,1,1,03,23,56,253,,24,59,022,,27,09,142,*5C
$GPGGA,003634.00,2959.997670,N,12000.000060,E,1,00,1.2,-4.9,M,7.0,M,,*7E
$GAGGA,003634.00,2959.997670,N,12000.000060,E,1,00,1.2,-4.9,M,7.0,M,,*6F
$GNGNS,003634.00,2959.997670,N,12000.000060,E,NAN,07,1.2,-4.9,7.0,,,V*76
$GPVTG,,T,4.4,M,0.0,N,0.0,K,A*0D
$GPRMC,003634.00,A,2959.997670,N,12000.000060,E,0.0,,230721,4.4,W,A*0A
$GARMC,003634.00,A,2959.997670,N,12000.000060,E,0.0,,230721,4.4,W,A*1B
$GPGSA,A,1,,,,,,,,,,,,,,,,*32
$GNGSA,A,3,,,,,,,,,,,,,2.1,1.2,1.7,1*37
$GNGSA,A,3,71,72,77,78,86,87,88,,,,,,2.1,1.2,1.7,2*39
$GNGSA,A,3,,,,,,,,,,,,,2.1,1.2,1.7,3*35
$GLGSA,A,3,71,72,77,78,86,87,88,,,,,,2.1,1.2,1.7*25
$GLGSV,2,1,07,78,21,329,38,86,19,036,38,77,71,296,39,88,29,261,38*62
$GLGSV,2,2,07,87,55,337,39,71,07,064,38,72,05,113,37*5F
$GAGSV,1,1,03,23,56,253,,24,59,022,,27,09,142,*5C
$GPGGA,003635.00,2959.997818,N,12000.000016,E,1,00,1.2,-4.8,M,7.0,M,,*7F
$GAGGA,003635.00,2959.997818,N,12000.000016,E,1,00,1.2,-4.8,M,7.0,M,,*6E
$GNGNS,003635.00,2959.997818,N,12000.000016,E,NAN,07,1.2,-4.8,7.0,,,V*77
$GPVTG,,T,4.4,M,0.0,N,0.0,K,A*0D
$GPRMC,003635.00,A,2959.997818,N,12000.000016,E,0.0,,230721,4.4,W,A*0A
$GARMC,003635.00,A,2959.997818,N,12000.000016,E,0.0,,230721,4.4,W,A*1B
$GPGSA,A,1,,,,,,,,,,,,,,,,*32
$GNGSA,A,3,,,,,,,,,,,,,2.1,1.2,1.7,1*37
$GNGSA,A,3,71,72,77,78,86,87,88,,,,,,2.1,1.2,1.7,2*39
$GNGSA,A,3,,,,,,,,,,,,,2.1,1.2,1.7,3*35
$GLGSA,A,3,71,72,77,78,86,87,88,,,,,,2.1,1.2,1.7*25
$GLGSV,2,1,07,78,21,329,38,86,19,036,38,77,71,296,39,88,29,261,38*62
$GLGSV,2,2,07,87,55,337,39,71,07,064,37,72,05,113,38*5F
$GAGSV,1,1,03,23,56,253,,24,59,022,,27,09,142,*5C
$GPGGA,003636.00,2959.997814,N,11959.999960,E,1,00,1.2,-4.7,M,7.0,M,,*78
$GAGGA,003636.00,2959.997814,N,11959.999960,E,1,00,1.2,-4.7,M,7.0,M,,*69
$GNGNS,003636.00,2959.997814,N,11959.999960,E,NAN,07,1.2,-4.7,7.0,,,V*70
$GPVTG,,T,4.4,M,0.0,N,0.0,K,A*0D
$GPRMC,003636.00,A,2959.997814,N,11959.999960,E,0.0,,230721,4.4,W,A*02
$GARMC,003636.00,A,2959.997814,N,11959.999960,E,0.0,,230721,4.4,W,A*13
$GPGSA,A,1,,,,,,,,,,,,,,,,*32
$GNGSA,A,3,,,,,,,,,,,,,2.1,1.2,1.7,1*37
$GNGSA,A,3,71,72,77,78,86,87,88,,,,,,2.1,1.2,1.7,2*39
$GNGSA,A,3,,,,,,,,,,,,,2.1,1.2,1.7,3*35
$GLGSA,A,3,71,72,77,78,86,87,88,,,,,,2.1,1.2,1.7*25
$GLGSV,2,1,07,78,21,329,38,86,19,036,38,77,71,296,39,88,29,261,38*62
$GLGSV,2,2,07,87,55,337,39,71,07,064,38,72,05,113,38*50
$GAGSV,1,1,03,23,56,253,,24,59,022,,27,09,142,*5C
$GPGGA,003637.00,2959.997854,N,12000.000060,E,1,00,1.2,-4.7,M,7.0,M,,*7B
$GAGGA,003637.00,2959.997854,N,12000.000060,E,1,00,1.2,-4.7,M,7.0,M,,*6A
$GNGNS,003637.00,2959.997854,N,12000.000060,E,NAN,07,1.2,-4.7,7.0,,,V*73
$GPVTG,,T,4.4,M,0.0,N,0.0,K,A*0D
$GPRMC,003637.00,A,2959.997854,N,12000.000060,E,0.0,,230721,4.4,W,A*01
$GARMC,003637.00,A,2959.997854,N,12000.000060,E,0.0,,230721,4.4,W,A*10
$GPGSA,A,1,,,,,,,,,,,,,,,,*32
$GNGSA,A,3,,,,,,,,,,,,,2.1,1.2,1.7,1*37
$GNGSA,A,3,71,72,77,78,86,87,88,,,,,,2.1,1.2,1.7,2*39
$GNGSA,A,3,,,,,,,,,,,,,2.1,1.2,1.7,3*35
$GLGSA,A,3,71,72,77,78,86,87,88,,,,,,2.1,1.2,1.7*25
$GLGSV,2,1,07,78,21,329,38,86,19,036,38,77,71,296,39,88,29,261,38*62
$GLGSV,2,2,07,87,55,337,39,71,07,064,38,72,05,113,38*50
$GAGSV,1,1,03,23,56,253,,24,59,022,,27,09,142,*5C
$GPGGA,003638.00,2959.997770,N,11959.999804,E,1,00,1.2,-4.7,M,7.0,M,,*78
$GAGGA,003638.00,2959.997770,N,11959.999804,E,1,00,1.2,-4.7,M,7.0,M,,*69
$GNGNS,003638.00,2959.997770,N,11959.999804,E,NAN,07,1.2,-4.7,7.0,,,V*70
$GPVTG,,T,4.4,M,0.0,N,0.0,K,A*0D
$GPRMC,003638.00,A,2959.997770,N,11959.999804,E,0.0,,230721,4.4,W,A*02
$GARMC,003638.00,A,2959.997770,N,11959.999804,E,0.0,,230721,4.4,W,A*13
$GPGSA,A,1,,,,,,,,,,,,,,,,*32
$GNGSA,A,3,,,,,,,,,,,,,2.1,1.2,1.7,1*37
$GNGSA,A,3,71,72,77,78,86,87,88,,,,,,2.1,1.2,1.7,2*39
$GNGSA,A,3,,,,,,,,,,,,,2.1,1.2,1.7,3*35
$GLGSA,A,3,71,72,77,78,86,87,88,,,,,,2.1,1.2,1.7*25
$GLGSV,2,1,07,78,21,329,38,86,19,036,38,77,71,296,39,88,29,261,38*62
$GLGSV,2,2,07,87,55,337,39,71,07,064,37,72,05,113,37*50
$GAGSV,1,1,03,23,56,253,,24,59,022,,27,09,142,*5C
$GPGGA,003639.00,2959.997560,N,11959.999568,E,1,00,1.2,-5.0,M,7.0,M,,*7B
$GAGGA,003639.00,2959.997560,N,11959.999568,E,1,00,1.2,-5.0,M,7.0,M,,*6A
$GNGNS,003639.00,2959.997560,N,11959.999568,E,NAN,07,1.2,-5.0,7.0,,,V*73
$GPVTG,,T,4.4,M,0.0,N,0.0,K,A*0D
$GPRMC,003639.00,A,2959.997560,N,11959.999568,E,0.0,,230721,4.4,W,A*07
$GARMC,003639.00,A,2959.997560,N,11959.999568,E,0.0,,230721,4.4,W,A*16
$GPGSA,A,1,,,,,,,,,,,,,,,,*32
$GNGSA,A,3,,,,,,,,,,,,,2.1,1.2,1.7,1*37
$GNGSA,A,3,71,72,77,78,86,87,88,,,,,,2.1,1.2,1.7,2*39
$GNGSA,A,3,,,,,,,,,,,,,2.1,1.2,1.7,3*35
$GLGSA,A,3,71,72,77,78,86,87,88,,,,,,2.1,1.2,1.7*25
$GLGSV,2,1,07,78,21,329,38,86,19,036,38,77,71,296,39,88,29,261,38*62
$GLGSV,2,2,07,87,55,337,39,71,07,064,38,72,05,113,38*50
$GAGSV,1,1,03,23,56,253,,24,59,022,,27,09,142,*5C
$GPGGA,003640.00,2959.997450,N,11959.999348,E,1,00,1.2,-5.0,M,7.0,M,,*73
$GAGGA,003640.00,2959.997450,N,11959.999348,E,1,00,1.2,-5.0,M,7.0,M,,*62
$GNGNS,003640.00,2959.997450,N,11959.999348,E,NAN,07,1.2,-5.0,7.0,,,V*7B
$GPVTG,,T,4.4,M,0.0,N,0.0,K,A*0D
$GPRMC,003640.00,A,2959.997450,N,11959.999348,E,0.0,,230721,4.4,W,A*0F
$GARMC,003640.00,A,2959.997450,N,11959.999348,E,0.0,,230721,4.4,W,A*1E
$GPGSA,A,1,,,,,,,,,,,,,,,,*32
$GNGSA,A,3,,,,,,,,,,,,,2.1,1.2,1.7,1*37
$GNGSA,A,3,71,72,77,78,86,87,88,,,,,,2.1,1.2,1.7,2*39
$GNGSA,A,3,,,,,,,,,,,,,2.1,1.2,1.7,3*35
$GLGSA,A,3,71,72,77,78,86,87,88,,,,,,2.1,1.2,1.7*25
$GLGSV,2,1,07,78,21,329,38,86,19,036,38,77,71,296,39,88,29,261,38*62
$GLGSV,2,2,07,87,55,337,39,71,07,064,37,72,05,113,37*50
$GAGSV,1,1,03,23,56,253,,24,59,022,,27,09,142,*5C
$GPGGA,003641.00,2959.997454,N,11959.999323,E,1,00,1.2,-5.0,M,7.0,M,,*7B
$GAGGA,003641.00,2959.997454,N,11959.999323,E,1,00,1.2,-5.0,M,7.0,M,,*6A
$GNGNS,003641.00,2959.997454,N,11959.999323,E,NAN,07,1.2,-5.0,7.0,,,V*73
$GPVTG,,T,4.4,M,0.0,N,0.0,K,A*0D
$GPRMC,003641.00,A,2959.997454,N,11959.999323,E,0.0,,230721,4.4,W,A*07
$GARMC,003641.00,A,2959.997454,N,11959.999323,E,0.0,,230721,4.4,W,A*16
$GPGSA,A,1,,,,,,,,,,,,,,,,*32
$GNGSA,A,3,,,,,,,,,,,,,2.1,1.2,1.7,1*37
$GNGSA,A,3,71,72,77,78,86,87,88,,,,,,2.1,1.2,1.7,2*39
$GNGSA,A,3,,,,,,,,,,,,,2.1,1.2,1.7,3*35
$GLGSA,A,3,71,72,77,78,86,87,88,,,,,,2.1,1.2,1.7*25
$GLGSV,2,1,07,78,21,329,38,86,19,036,38,77,71,296,39,88,29,261,38*62
$GLGSV,2,2,07,87,55,337,39,71,07,064,37,72,05,113,38*5F
$GAGSV,1,1,03,23,56,253,,24,59,022,,27,09,142,*5C
$GPGGA,003642.00,2959.997463,N,11959.999210,E,1,00,1.2,-5.0,M,7.0,M,,*7D
$GAGGA,003642.00,2959.997463,N,11959.999210,E,1,00,1.2,-5.0,M,7.0,M,,*6C
$GNGNS,003642.00,2959.997463,N,11959.999210,E,NAN,07,1.2,-5.0,7.0,,,V*75
$GPVTG,,T,4.4,M,0.0,N,0.0,K,A*0D
$GPRMC,003642.00,A,2959.997463,N,11959.999210,E,0.0,,230721,4.4,W,A*01
$GARMC,003642.00,A,2959.997463,N,11959.999210,E,0.0,,230721,4.4,W,A*10
$GPGSA,A,1,,,,,,,,,,,,,,,,*32
$GNGSA,A,3,,,,,,,,,,,,,2.1,1.2,1.7,1*37
$GNGSA,A,3,71,72,77,78,86,87,88,,,,,,2.1,1.2,1.7,2*39
$GNGSA,A,3,,,,,,,,,,,,,2.1,1.2,1.7,3*35
$GLGSA,A,3,71,72,77,78,86,87,88,,,,,,2.1,1.2,1.7*25
$GLGSV,2,1,07,78,21,329,38,86,19,036,38,77,71,296,40,88,29,261,38*6C
$GLGSV,2,2,07,87,55,337,39,71,07,064,38,72,05,113,38*50
$GAGSV,1,1,03,23,56,253,,24,59,022,,27,09,142,*5C
$GPGGA,003643.00,2959.997708,N,11959.999258,E,1,00,1.2,-4.7,M,7.0,M,,*78
$GAGGA,003643.00,2959.997708,N,11959.999258,E,1,00,1.2,-4.7,M,7.0,M,,*69
$GNGNS,003643.00,2959.997708,N,11959.999258,E,NAN,07,1.2,-4.7,7.0,,,V*70
$GPVTG,,T,4.4,M,0.0,N,0.0,K,A*0D
$GPRMC,003643.00,A,2959.997708,N,11959.999258,E,0.0,,230721,4.4,W,A*02
$GARMC,003643.00,A,2959.997708,N,11959.999258,E,0.0,,230721,4.4,W,A*13
$GPGSA,A,1,,,,,,,,,,,,,,,,*32
$GNGSA,A,3,,,,,,,,,,,,,2.1,1.2,1.7,1*37
$GNGSA,A,3,71,72,77,78,86,87,88,,,,,,2.1,1.2,1.7,2*39
$GNGSA,A,3,,,,,,,,,,,,,2.1,1.2,1.7,3*35
$GLGSA,A,3,71,72,77,78,86,87,88,,,,,,2.1,1.2,1.7*25
$GLGSV,2,1,07,78,21,329,38,86,19,036,38,77,71,296,39,88,29,261,38*62
$GLGSV,2,2,07,87,55,337,39,71,07,064,37,72,05,113,37*50
$GAGSV,1,1,03,23,56,253,,24,59,022,,27,09,142,*5C
$GPGGA,003644.00,2959.997644,N,11959.999370,E,1,00,1.2,-4.7,M,7.0,M,,*7D
$GAGGA,003644.00,2959.997644,N,11959.999370,E,1,00,1.2,-4.7,M,7.0,M,,*6C
$GNGNS,003644.00,2959.997644,N,11959.999370,E,NAN,07,1.2,-4.7,7.0,,,V*75
$GPVTG,,T,4.4,M,0.0,N,0.0,K,A*0D
$GPRMC,003644.00,A,2959.997644,N,11959.999370,E,0.0,,230721,4.4,W,A*07
$GARMC,003644.00,A,2959.997644,N,11959.999370,E,0.0,,230721,4.4,W,A*16
$GPGSA,A,1,,,,,,,,,,,,,,,,*32
$GNGSA,A,3,,,,,,,,,,,,,2.1,1.2,1.7,1*37
$GNGSA,A,3,71,72,77,78,86,87,88,,,,,,2.1,1.2,1.7,2*39
$GNGSA,A,3,,,,,,,,,,,,,2.1,1.2,1.7,3*35
$GLGSA,A,3,71,72,77,78,86,87,88,,,,,,2.1,1.2,1.7*25
$GLGSV,2,1,07,78,21,329,38,86,19,036,38,77,71,296,39,88,29,261,38*62
$GLGSV,2,2,07,87,55,337,39,71,07,064,38,72,05,113,37*5F
$GAGSV,1,1,03,23,56,253,,24,59,022,,27,09,142,*5C
$GPGGA,003645.00,2959.997606,N,11959.999210,E,1,00,1.2,-4.6,M,7.0,M,,*7C
$GAGGA,003645.00,2959.997606,N,11959.999210,E,1,00,1.2,-4.6,M,7.0,M,,*6D
$GNGNS,003645.00,2959.997606,N,11959.999210,E,NAN,07,1.2,-4.6,7.0,,,V*74
$GPVTG,,T,4.4,M,0.0,N,0.0,K,A*0D
$GPRMC,003645.00,A,2959.997606,N,11959.999210,E,0.0,,230721,4.4,W,A*07
$GARMC,003645.00,A,2959.997606,N,11959.999210,E,0.0,,230721,4.4,W,A*16
$GPGSA,A,1,,,,,,,,,,,,,,,,*32
$GNGSA,A,3,,,,,,,,,,,,,2.1,1.2,1.7,1*37
$GNGSA,A,3,71,72,77,78,86,87,88,,,,,,2.1,1.2,1.7,2*39
$GNGSA,A,3,,,,,,,,,,,,,2.1,1.2,1.7,3*35
$GLGSA,A,3,71,72,77,78,86,87,88,,,,,,2.1,1.2,1.7*25
$GLGSV,2,1,07,78,21,329,38,86,19,036,38,77,71,296,39,88,29,261,38*62
$GLGSV,2,2,07,87,55,337,39,71,07,064,37,72,05,113,38*5F
$GAGSV,1,1,03,23,56,253,,24,59,022,,27,09,142,*5C
$GPGGA,003646.00,2959.997574,N,11959.999217,E,1,00,1.2,-4.4,M,7.0,M,,*7C
$GAGGA,003646.00,2959.997574,N,11959.999217,E,1,00,1.2,-4.4,M,7.0,M,,*6D
$GNGNS,003646.00,2959.997574,N,11959.999217,E,NAN,07,1.2,-4.4,7.0,,,V*74
$GPVTG,,T,4.4,M,0.0,N,0.0,K,A*0D
$GPRMC,003646.00,A,2959.997574,N,11959.999217,E,0.0,,230721,4.4,W,A*05
$GARMC,003646.00,A,2959.997574,N,11959.999217,E,0.0,,230721,4.4,W,A*14
$GPGSA,A,1,,,,,,,,,,,,,,,,*32
$GNGSA,A,3,,,,,,,,,,,,,2.1,1.2,1.7,1*37
$GNGSA,A,3,71,72,77,78,86,87,88,,,,,,2.1,1.2,1.7,2*39
$GNGSA,A,3,,,,,,,,,,,,,2.1,1.2,1.7,3*35
$GLGSA,A,3,71,72,77,78,86,87,88,,,,,,2.1,1.2,1.7*25
$GLGSV,2,1,07,78,21,329,38,86,19,036,38,77,71,296,39,88,29,261,38*62
$GLGSV,2,2,07,87,55,337,39,71,07,064,38,72,05,113,37*5F
$GAGSV,1,1,03,23,56,253,,24,59,022,,27,09,142,*5C
$GPGGA,003647.00,2959.997643,N,11959.999107,E,1,00,1.2,-4.6,M,7.0,M,,*7A
$GAGGA,003647.00,2959.997643,N,11959.999107,E,1,00,1.2,-4.6,M,7.0,M,,*6B
$GNGNS,003647.00,2959.997643,N,11959.999107,E,NAN,07,1.2,-4.6,7.0,,,V*72
$GPVTG,,T,4.4,M,0.0,N,0.0,K,A*0D
$GPRMC,003647.00,A,2959.997643,N,11959.999107,E,0.0,,230721,4.4,W,A*01
$GARMC,003647.00,A,2959.997643,N,11959.999107,E,0.0,,230721,4.4,W,A*10
$GPGSA,A,1,,,,,,,,,,,,,,,,*32
$GNGSA,A,3,,,,,,,,,,,,,2.1,1.2,1.7,1*37
$GNGSA,A,3,71,72,77,78,86,87,88,,,,,,2.1,1.2,1.7,2*39
$GNGSA,A,3,,,,,,,,,,,,,2.1,1.2,1.7,3*35
$GLGSA,A,3,71,72,77,78,86,87,88,,,,,,2.1,1.2,1.7*25

$GLGSV,2,1,07,78,21,329,38,86,19,036,38,77,71,296,39,88,29,261,38*62
$GLGSV,2,2,07,87,55,337,39,71,07,064,38,72,05,113,38*50
$GAGSV,1,1,03,23,56,253,,24,59,022,,27,09,142,*5C
$GPGGA,003648.00,2959.997605,N,11959.999150,E,1,00,1.2,-4.0,M,7.0,M,,*73
$GAGGA,003648.00,2959.997605,N,11959.999150,E,1,00,1.2,-4.0,M,7.0,M,,*62
$GNGNS,003648.00,2959.997605,N,11959.999150,E,NAN,07,1.2,-4.0,7.0,,,V*7B
$GPVTG,,T,4.4,M,0.0,N,0.0,K,A*0D
$GPRMC,003648.00,A,2959.997605,N,11959.999150,E,0.0,,230721,4.4,W,A*0E
$GARMC,003648.00,A,2959.997605,N,11959.999150,E,0.0,,230721,4.4,W,A*1F
$GPGSA,A,1,,,,,,,,,,,,,,,,*32
$GNGSA,A,3,,,,,,,,,,,,,2.1,1.2,1.7,1*37
$GNGSA,A,3,71,72,77,78,86,87,88,,,,,,2.1,1.2,1.7,2*39
$GNGSA,A,3,,,,,,,,,,,,,2.1,1.2,1.7,3*35
$GLGSA,A,3,71,72,77,78,86,87,88,,,,,,2.1,1.2,1.7*25
$GLGSV,2,1,07,78,21,329,38,86,19,036,38,77,71,296,39,88,29,261,38*62
$GLGSV,2,2,07,87,55,337,39,71,07,064,38,72,05,113,37*5F
$GAGSV,1,1,03,23,56,253,,24,59,022,,27,09,142,*5C
$GPGGA,003649.00,2959.997584,N,11959.999173,E,1,00,1.2,-3.6,M,7.0,M,,*78
$GAGGA,003649.00,2959.997584,N,11959.999173,E,1,00,1.2,-3.6,M,7.0,M,,*69
$GNGNS,003649.00,2959.997584,N,11959.999173,E,NAN,07,1.2,-3.6,7.0,,,V*70
$GPVTG,,T,4.4,M,0.0,N,0.0,K,A*0D
$GPRMC,003649.00,A,2959.997584,N,11959.999173,E,0.0,,230721,4.4,W,A*04
$GARMC,003649.00,A,2959.997584,N,11959.999173,E,0.0,,230721,4.4,W,A*15
$GPGSA,A,1,,,,,,,,,,,,,,,,*32
$GNGSA,A,3,,,,,,,,,,,,,2.1,1.2,1.7,1*37
$GNGSA,A,3,71,72,77,78,86,87,88,,,,,,2.1,1.2,1.7,2*39
$GNGSA,A,3,,,,,,,,,,,,,2.1,1.2,1.7,3*35
$GLGSA,A,3,71,72,77,78,86,87,88,,,,,,2.1,1.2,1.7*25
$GLGSV,2,1,07,78,21,329,38,86,19,036,38,77,71,296,39,88,29,261,38*62
$GLGSV,2,2,07,87,55,337,39,71,07,064,38,72,05,113,38*50
$GAGSV,1,1,03,23,56,253,,24,59,022,,27,09,142,*5C
$GPGGA,003650.00,2959.997618,N,11959.999251,E,1,00,1.2,-3.4,M,7.0,M,,*77
$GAGGA,003650.00,2959.997618,N,11959.999251,E,1,00,1.2,-3.4,M,7.0,M,,*66
$GNGNS,003650.00,2959.997618,N,11959.999251,E,NAN,07,1.2,-3.4,7.0,,,V*7F
$GPVTG,,T,4.4,M,0.0,N,0.0,K,A*0D
$GPRMC,003650.00,A,2959.997618,N,11959.999251,E,0.0,,230721,4.4,W,A*09
$GARMC,003650.00,A,2959.997618,N,11959.999251,E,0.0,,230721,4.4,W,A*18
$GPGSA,A,1,,,,,,,,,,,,,,,,*32
$GNGSA,A,3,,,,,,,,,,,,,2.1,1.2,1.7,1*37
$GNGSA,A,3,71,72,77,78,86,87,88,,,,,,2.1,1.2,1.7,2*39
$GNGSA,A,3,,,,,,,,,,,,,2.1,1.2,1.7,3*35
$GLGSA,A,3,71,72,77,78,86,87,88,,,,,,2.1,1.2,1.7*25
$GLGSV,2,1,07,78,21,329,38,86,19,036,38,77,71,296,39,88,29,261,38*62
$GLGSV,2,2,07,87,55,337,39,71,07,064,38,72,05,113,38*50
$GAGSV,1,1,03,23,56,253,,24,59,022,,27,09,142,*5C
$GPGGA,003651.00,2959.997671,N,11959.999201,E,1,00,1.2,-3.2,M,7.0,M,,*7A
$GAGGA,003651.00,2959.997671,N,11959.999201,E,1,00,1.2,-3.2,M,7.0,M,,*6B
$GNGNS,003651.00,2959.997671,N,11959.999201,E,NAN,07,1.2,-3.2,7.0,,,V*72
$GPVTG,,T,4.4,M,0.0,N,0.0,K,A*0D
$GPRMC,003651.00,A,2959.997671,N,11959.999201,E,0.0,,230721,4.4,W,A*02
$GARMC,003651.00,A,2959.997671,N,11959.999201,E,0.0,,230721,4.4,W,A*13
$GPGSA,A,1,,,,,,,,,,,,,,,,*32
$GNGSA,A,3,,,,,,,,,,,,,2.1,1.2,1.7,1*37
$GNGSA,A,3,71,72,77,78,86,87,88,,,,,,2.1,1.2,1.7,2*39
$GNGSA,A,3,,,,,,,,,,,,,2.1,1.2,1.7,3*35
$GLGSA,A,3,71,72,77,78,86,87,88,,,,,,2.1,1.2,1.7*25
$GLGSV,2,1,07,78,21,329,38,86,19,036,38,77,71,296,39,88,29,261,38*62
$GLGSV,2,2,07,87,55,337,39,71,07,064,37,72,05,113,38*5F
$GAGSV,1,1,03,23,56,253,,24,59,022,,27,09,142,*5C
$GPGGA,003652.00,2959.997777,N,11959.999100,E,1,00,1.2,-3.4,M,7.0,M,,*7A
$GAGGA,003652.00,2959.997777,N,11959.999100,E,1,00,1.2,-3.4,M,7.0,M,,*6B
$GNGNS,003652.00,2959.997777,N,11959.999100,E,NAN,07,1.2,-3.4,7.0,,,V*72
$GPVTG,,T,4.4,M,0.0,N,0.0,K,A*0D
$GPRMC,003652.00,A,2959.997777,N,11959.999100,E,0.0,,230721,4.4,W,A*04
$GARMC,003652.00,A,2959.997777,N,11959.999100,E,0.0,,230721,4.4,W,A*15
$GPGSA,A,1,,,,,,,,,,,,,,,,*32
$GNGSA,A,3,,,,,,,,,,,,,2.1,1.2,1.7,1*37
$GNGSA,A,3,71,72,77,78,86,87,88,,,,,,2.1,1.2,1.7,2*39
$GNGSA,A,3,,,,,,,,,,,,,2.1,1.2,1.7,3*35
$GLGSA,A,3,71,72,77,78,86,87,88,,,,,,2.1,1.2,1.7*25
$GLGSV,2,1,07,78,21,329,38,86,19,036,38,77,71,296,39,88,29,261,38*62
$GLGSV,2,2,07,87,55,337,39,71,07,064,37,72,05,113,38*5F
$GAGSV,1,1,03,23,56,253,,24,59,022,,27,09,142,*5C
$GPGGA,003653.00,2959.997685,N,11959.999199,E,1,00,1.2,-3.2,M,7.0,M,,*71
$GAGGA,003653.00,2959.997685,N,11959.999199,E,1,00,1.2,-3.2,M,7.0,M,,*60
$GNGNS,003653.00,2959.997685,N,11959.999199,E,NAN,07,1.2,-3.2,7.0,,,V*79
$GPVTG,,T,4.4,M,0.0,N,0.0,K,A*0D
$GPRMC,003653.00,A,2959.997685,N,11959.999199,E,0.0,,230721,4.4,W,A*09
$GARMC,003653.00,A,2959.997685,N,11959.999199,E,0.0,,230721,4.4,W,A*18
$GPGSA,A,1,,,,,,,,,,,,,,,,*32
$GNGSA,A,3,,,,,,,,,,,,,2.1,1.2,1.7,1*37
$GNGSA,A,3,71,72,77,78,86,87,88,,,,,,2.1,1.2,1.7,2*39
$GNGSA,A,3,,,,,,,,,,,,,2.1,1.2,1.7,3*35
$GLGSA,A,3,71,72,77,78,86,87,88,,,,,,2.1,1.2,1.7*25
$GLGSV,2,1,07,78,21,329,38,86,19,036,38,77,71,296,39,88,29,261,38*62
$GLGSV,2,2,07,87,55,337,39,71,07,064,38,72,05,113,37*5F
$GAGSV,1,1,03,23,56,253,,24,59,022,,27,09,142,*5C
$GPGGA,003654.00,2959.997795,N,11959.999104,E,1,00,1.2,-3.6,M,7.0,M,,*76
$GAGGA,003654.00,2959.997795,N,11959.999104,E,1,00,1.2,-3.6,M,7.0,M,,*67
$GNGNS,003654.00,2959.997795,N,11959.999104,E,NAN,07,1.2,-3.6,7.0,,,V*7E
$GPVTG,,T,4.4,M,0.0,N,0.0,K,A*0D
$GPRMC,003654.00,A,2959.997795,N,11959.999104,E,0.0,,230721,4.4,W,A*0A
$GARMC,003654.00,A,2959.997795,N,11959.999104,E,0.0,,230721,4.4,W,A*1B
$GPGSA,A,1,,,,,,,,,,,,,,,,*32
$GNGSA,A,3,,,,,,,,,,,,,2.1,1.2,1.7,1*37
$GNGSA,A,3,71,72,77,78,86,87,88,,,,,,2.1,1.2,1.7,2*39
$GNGSA,A,3,,,,,,,,,,,,,2.1,1.2,1.7,3*35
$GLGSA,A,3,71,72,77,78,86,87,88,,,,,,2.1,1.2,1.7*25
$GLGSV,2,1,07,78,21,329,38,86,19,036,38,77,71,296,39,88,29,261,38*62
$GLGSV,2,2,07,87,55,337,39,71,07,064,38,72,05,113,37*5F
$GAGSV,1,1,03,23,56,253,,24,59,022,,27,09,142,*5C
$GPGGA,003655.00,2959.997670,N,11959.999108,E,1,00,1.2,-3.7,M,7.0,M,,*70
$GAGGA,003655.00,2959.997670,N,11959.999108,E,1,00,1.2,-3.7,M,7.0,M,,*61
$GNGNS,003655.00,2959.997670,N,11959.999108,E,NAN,07,1.2,-3.7,7.0,,,V*78
$GPVTG,,T,4.4,M,0.0,N,0.0,K,A*0D
$GPRMC,003655.00,A,2959.997670,N,11959.999108,E,0.0,,230721,4.4,W,A*0D
$GARMC,003655.00,A,2959.997670,N,11959.999108,E,0.0,,230721,4.4,W,A*1C
$GPGSA,A,1,,,,,,,,,,,,,,,,*32
$GNGSA,A,3,,,,,,,,,,,,,2.1,1.2,1.7,1*37
$GNGSA,A,3,71,72,77,78,86,87,88,,,,,,2.1,1.2,1.7,2*39
$GNGSA,A,3,,,,,,,,,,,,,2.1,1.2,1.7,3*35
$GLGSA,A,3,71,72,77,78,86,87,88,,,,,,2.1,1.2,1.7*25
$GLGSV,2,1,07,78,21,329,38,86,19,036,38,77,71,296,39,88,29,261,38*62
$GLGSV,2,2,07,87,55,337,39,71,07,064,38,72,05,113,38*50
$GAGSV,1,1,03,23,56,253,,24,59,022,,27,09,142,*5C
$GPGGA,003656.00,2959.997711,N,11959.998909,E,1,00,1.2,-3.8,M,7.0,M,,*72
$GAGGA,003656.00,2959.997711,N,11959.998909,E,1,00,1.2,-3.8,M,7.0,M,,*63
$GNGNS,003656.00,2959.997711,N,11959.998909,E,NAN,07,1.2,-3.8,7.0,,,V*7A
$GPVTG,,T,4.4,M,0.0,N,0.0,K,A*0D
$GPRMC,003656.00,A,2959.997711,N,11959.998909,E,0.0,,230721,4.4,W,A*00
$GARMC,003656.00,A,2959.997711,N,11959.998909,E,0.0,,230721,4.4,W,A*11
$GPGSA,A,1,,,,,,,,,,,,,,,,*32
$GNGSA,A,3,,,,,,,,,,,,,2.1,1.2,1.7,1*37
$GNGSA,A,3,71,72,77,78,86,87,88,,,,,,2.1,1.2,1.7,2*39
$GNGSA,A,3,,,,,,,,,,,,,2.1,1.2,1.7,3*35
$GLGSA,A,3,71,72,77,78,86,87,88,,,,,,2.1,1.2,1.7*25
$GLGSV,2,1,07,78,21,329,38,86,19,036,38,77,71,296,40,88,29,261,38*6C
$GLGSV,2,2,07,87,55,337,39,71,07,064,37,72,05,113,38*5F
$GAGSV,1,1,03,23,56,253,,24,59,022,,27,09,142,*5C
$GPGGA,003657.00,2959.997705,N,11959.998841,E,1,00,1.2,-3.9,M,7.0,M,,*7A
$GAGGA,003657.00,2959.997705,N,11959.998841,E,1,00,1.2,-3.9,M,7.0,M,,*6B
$GNGNS,003657.00,2959.997705,N,11959.998841,E,NAN,07,1.2,-3.9,7.0,,,V*72
$GPVTG,,T,4.4,M,0.0,N,0.0,K,A*0D
$GPRMC,003657.00,A,2959.997705,N,11959.998841,E,0.0,,230721,4.4,W,A*09
$GARMC,003657.00,A,2959.997705,N,11959.998841,E,0.0,,230721,4.4,W,A*18
$GPGSA,A,1,,,,,,,,,,,,,,,,*32
$GNGSA,A,3,,,,,,,,,,,,,2.1,1.2,1.7,1*37
$GNGSA,A,3,71,72,77,78,86,87,88,,,,,,2.1,1.2,1.7,2*39
$GNGSA,A,3,,,,,,,,,,,,,2.1,1.2,1.7,3*35
$GLGSA,A,3,71,72,77,78,86,87,88,,,,,,2.1,1.2,1.7*25
$GLGSV,2,1,07,78,21,329,38,86,19,036,38,77,71,296,39,88,29,261,38*62
$GLGSV,2,2,07,87,55,337,39,71,07,064,37,72,05,113,38*5F
$GAGSV,1,1,03,23,56,253,,24,59,022,,27,09,142,*5C
$GPGGA,003658.00,2959.997981,N,11959.998870,E,1,00,1.2,-3.8,M,7.0,M,,*74
$GAGGA,003658.00,2959.997981,N,11959.998870,E,1,00,1.2,-3.8,M,7.0,M,,*65
$GNGNS,003658.00,2959.997981,N,11959.998870,E,NAN,07,1.2,-3.8,7.0,,,V*7C
$GPVTG,,T,4.4,M,0.0,N,0.0,K,A*0D
$GPRMC,003658.00,A,2959.997981,N,11959.998870,E,0.0,,230721,4.4,W,A*06
$GARMC,003658.00,A,2959.997981,N,11959.998870,E,0.0,,230721,4.4,W,A*17
$GPGSA,A,1,,,,,,,,,,,,,,,,*32
$GNGSA,A,3,,,,,,,,,,,,,2.1,1.2,1.7,1*37
$GNGSA,A,3,71,72,77,78,86,87,88,,,,,,2.1,1.2,1.7,2*39
$GNGSA,A,3,,,,,,,,,,,,,2.1,1.2,1.7,3*35
$GLGSA,A,3,71,72,77,78,86,87,88,,,,,,2.1,1.2,1.7*25
$GLGSV,2,1,07,78,21,329,38,86,19,036,38,77,71,296,39,88,29,261,39*63
$GLGSV,2,2,07,87,55,337,39,71,07,064,37,72,05,113,38*5F
$GAGSV,1,1,03,23,56,253,,24,59,022,,27,09,142,*5C
$GPGGA,003659.00,2959.997826,N,11959.998983,E,1,00,1.2,-3.7,M,7.0,M,,*7B
$GAGGA,003659.00,2959.997826,N,11959.998983,E,1,00,1.2,-3.7,M,7.0,M,,*6A
$GNGNS,003659.00,2959.997826,N,11959.998983,E,NAN,07,1.2,-3.7,7.0,,,V*73
$GPVTG,,T,4.4,M,0.0,N,0.0,K,A*0D
$GPRMC,003659.00,A,2959.997826,N,11959.998983,E,0.0,,230721,4.4,W,A*06
$GARMC,003659.00,A,2959.997826,N,11959.998983,E,0.0,,230721,4.4,W,A*17
$GPGSA,A,1,,,,,,,,,,,,,,,,*32
$GNGSA,A,3,,,,,,,,,,,,,2.1,1.2,1.7,1*37
$GNGSA,A,3,71,72,77,78,86,87,88,,,,,,2.1,1.2,1.7,2*39
$GNGSA,A,3,,,,,,,,,,,,,2.1,1.2,1.7,3*35
$GLGSA,A,3,71,72,77,78,86,87,88,,,,,,2.1,1.2,1.7*25
$GLGSV,2,1,07,78,21,329,38,86,19,036,38,77,71,296,39,88,29,261,38*62
$GLGSV,2,2,07,87,55,337,39,71,07,064,38,72,05,113,38*50
$GAGSV,1,1,03,23,56,253,,24,59,022,,27,09,142,*5C
$GPGGA,003700.00,2959.998122,N,11959.999019,E,1,00,1.2,-3.7,M,7.0,M,,*7F
$GAGGA,003700.00,2959.998122,N,11959.999019,E,1,00,1.2,-3.7,M,7.0,M,,*6E
$GNGNS,003700.00,2959.998122,N,11959.999019,E,NAN,07,1.2,-3.7,7.0,,,V*77
$GPVTG,,T,4.4,M,0.0,N,0.0,K,A*0D
$GPRMC,003700.00,A,2959.998122,N,11959.999019,E,0.0,,230721,4.4,W,A*02
$GARMC,003700.00,A,2959.998122,N,11959.999019,E,0.0,,230721,4.4,W,A*13
$GPGSA,A,1,,,,,,,,,,,,,,,,*32
$GNGSA,A,3,,,,,,,,,,,,,2.1,1.2,1.7,1*37
$GNGSA,A,3,71,72,77,78,86,87,88,,,,,,2.1,1.2,1.7,2*39
$GNGSA,A,3,,,,,,,,,,,,,2.1,1.2,1.7,3*35
$GLGSA,A,3,71,72,77,78,86,87,88,,,,,,2.1,1.2,1.7*25
$GLGSV,2,1,07,78,21,329,38,86,19,036,38,77,71,296,39,88,29,261,38*62
$GLGSV,2,2,07,87,55,337,39,71,07,064,37,72,05,113,38*5F
$GAGSV,1,1,03,23,56,253,,24,59,022,,27,09,142,*5C
$GPGGA,003701.00,2959.998103,N,11959.999059,E,1,00,1.2,-3.8,M,7.0,M,,*76
$GAGGA,003701.00,2959.998103,N,11959.999059,E,1,00,1.2,-3.8,M,7.0,M,,*67
$GNGNS,003701.00,2959.998103,N,11959.999059,E,NAN,07,1.2,-3.8,7.0,,,V*7E
$GPVTG,,T,4.4,M,0.0,N,0.0,K,A*0D
$GPRMC,003701.00,A,2959.998103,N,11959.999059,E,0.0,,230721,4.4,W,A*04
$GARMC,003701.00,A,2959.998103,N,11959.999059,E,0.0,,230721,4.4,W,A*15
$GPGSA,A,1,,,,,,,,,,,,,,,,*32
$GNGSA,A,3,,,,,,,,,,,,,2.1,1.2,1.7,1*37
$GNGSA,A,3,71,72,77,78,86,87,88,,,,,,2.1,1.2,1.7,2*39
$GNGSA,A,3,,,,,,,,,,,,,2.1,1.2,1.7,3*35
$GLGSA,A,3,71,72,77,78,86,87,88,,,,,,2.1,1.2,1.7*25
$GLGSV,2,1,07,78,21,329,38,86,19,036,38,77,71,296,39,88,29,261,38*62
$GLGSV,2,2,07,87,55,337,39,71,07,064,38,72,05,113,38*50
$GAGSV,1,1,03,23,56,253,,24,59,022,,27,09,142,*5C
$GPGGA,003702.00,2959.998154,N,11959.999230,E,1,00,1.2,-3.7,M,7.0,M,,*75
$GAGGA,003702.00,2959.998154,N,11959.999230,E,1,00,1.2,-3.7,M,7.0,M,,*64
$GNGNS,003702.00,2959.998154,N,11959.999230,E,NAN,07,1.2,-3.7,7.0,,,V*7D
$GPVTG,,T,4.4,M,0.0,N,0.0,K,A*0D
$GPRMC,003702.00,A,2959.998154,N,11959.999230,E,0.0,,230721,4.4,W,A*08
$GARMC,003702.00,A,2959.998154,N,11959.999230,E,0.0,,230721,4.4,W,A*19
$GPGSA,A,1,,,,,,,,,,,,,,,,*32
$GNGSA,A,3,,,,,,,,,,,,,2.1,1.2,1.7,1*37
$GNGSA,A,3,71,72,77,78,86,87,88,,,,,,2.1,1.2,1.7,2*39
$GNGSA,A,3,,,,,,,,,,,,,2.1,1.2,1.7,3*35
$GLGSA,A,3,71,72,77,78,86,87,88,,,,,,2.1,1.2,1.7*25
$GLGSV,2,1,07,78,21,329,38,86,19,036,38,77,71,296,39,88,29,261,38*62
$GLGSV,2,2,07,87,55,337,39,71,07,064,38,72,05,113,38*50
$GAGSV,1,1,03,23,56,253,,24,59,022,,27,09,142,*5C
$GPGGA,003703.00,2959.998177,N,11959.999338,E,1,00,1.2,-4.1,M,7.0,M,,*7D
$GAGGA,003703.00,2959.998177,N,11959.999338,E,1,00,1.2,-4.1,M,7.0,M,,*6C
$GNGNS,003703.00,2959.998177,N,11959.999338,E,NAN,07,1.2,-4.1,7.0,,,V*75
$GPVTG,,T,4.4,M,0.0,N,0.0,K,A*0D
$GPRMC,003703.00,A,2959.998177,N,11959.999338,E,0.0,,230721,4.4,W,A*01
$GARMC,003703.00,A,2959.998177,N,11959.999338,E,0.0,,230721,4.4,W,A*10
$GPGSA,A,1,,,,,,,,,,,,,,,,*32
$GNGSA,A,3,,,,,,,,,,,,,2.1,1.2,1.7,1*37
$GNGSA,A,3,71,72,77,78,86,87,88,,,,,,2.1,1.2,1.7,2*39
$GNGSA,A,3,,,,,,,,,,,,,2.1,1.2,1.7,3*35
$GLGSA,A,3,71,72,77,78,86,87,88,,,,,,2.1,1.2,1.7*25
$GLGSV,2,1,07,78,21,329,38,86,19,036,38,77,71,296,39,88,29,261,38*62
$GLGSV,2,2,07,87,55,337,39,71,07,064,38,72,05,113,38*50
$GAGSV,1,1,03,23,56,253,,24,59,022,,27,09,142,*5C
$GPGGA,003704.00,2959.998098,N,11959.999207,E,1,00,1.2,-4.3,M,7.0,M,,*75
$GAGGA,003704.00,2959.998098,N,11959.999207,E,1,00,1.2,-4.3,M,7.0,M,,*64
$GNGNS,003704.00,2959.998098,N,11959.999207,E,NAN,07,1.2,-4.3,7.0,,,V*7D
$GPVTG,,T,4.4,M,0.0,N,0.0,K,A*0D
$GPRMC,003704.00,A,2959.998098,N,11959.999207,E,0.0,,230721,4.4,W,A*0B
$GARMC,003704.00,A,2959.998098,N,11959.999207,E,0.0,,230721,4.4,W,A*1A
$GPGSA,A,1,,,,,,,,,,,,,,,,*32
$GNGSA,A,3,,,,,,,,,,,,,2.1,1.2,1.7,1*37
$GNGSA,A,3,71,72,77,78,86,87,88,,,,,,2.1,1.2,1.7,2*39
