$GPGSA,A,1,,,,,,,,,,,,,,,*1E
$GNGSA,A,1,,,,,,,,,,,,,,,*00
$PQGSA,A,1,,,,,,,,,,,,,,,*08
$GPVTG,,T,,M,,N,,K,N*2C
$GPRMC,,V,,,,,,,,,,N*53
$GPGGA,,,,,,0,,,,,,,,*66
$GPGSA,A,1,,,,,,,,,,,,,,,*1E
$GNGSA,A,1,,,,,,,,,,,,,,,*00
$PQGSA,A,1,,,,,,,,,,,,,,,*08
$GPVTG,,T,,M,,N,,K,N*2C
$GPRMC,,V,,,,,,,,,,N*53
$GPGGA,,,,,,0,,,,,,,,*66
$GPGSA,A,1,,,,,,,,,,,,,,,*1E
$GNGSA,A,1,,,,,,,,,,,,,,,*00
$PQGSA,A,1,,,,,,,,,,,,,,,*08
$GPVTG,,T,,M,,N,,K,N*2C
$GPRMC,,V,,,,,,,,,,N*53
$GPGGA,,,,,,0,,,,,,,,*66
$GPGSA,A,1,,,,,,,,,,,,,,,*1E
$GNGSA,A,1,,,,,,,,,,,,,,,*00
$PQGSA,A,1,,,,,,,,,,,,,,,*08
$GPVTG,,T,,M,,N,,K,N*2C
$GPRMC,,V,,,,,,,,,,N*53
$GPGGA,,,,,,0,,,,,,,,*66
$GPGSV,1,1,01,05,00,000,32*4C
$GLGSV,1,1,0,1*48
$GAGSV,1,1,0,7*43
$PQGSV,1,1,0,0*43
$PQGSV,1,1,0,0*43
$GPGSA,A,1,,,,,,,,,,,,,,,*1E
$GNGSA,A,1,,,,,,,,,,,,,,,*00
$PQGSA,A,1,,,,,,,,,,,,,,,*08
$GPVTG,,T,,M,,N,,K,N*2C
$GPRMC,,V,,,,,,,,,,N*53
$GPGGA,,,,,,0,,,,,,,,*66
$GPGSV,1,1,02,02,00,000,31,05,00,000,33*7E
$GLGSV,1,1,0,1*48
$GAGSV,1,1,0,7*43
$PQGSV,1,1,0,0*43
$PQGSV,1,1,0,0*43
$GPGSA,A,1,,,,,,,,,,,,,,,*1E
$GNGSA,A,1,,,,,,,,,,,,,,,*00
$PQGSA,A,1,,,,,,,,,,,,,,,*08
$GPVTG,,T,,M,,N,,K,N*2C
$GPRMC,,V,,,,,,,,,,N*53
$GPGGA,,,,,,0,,,,,,,,*66
$GPGSV,1,1,02,02,00,000,32,05,00,000,33*7D
$GLGSV,1,1,0,1*48
$GAGSV,1,1,0,7*43
$PQGSV,1,1,0,0*43
$PQGSV,1,1,0,0*43
$GPGSA,A,1,,,,,,,,,,,,,,,*1E
$GNGSA,A,1,,,,,,,,,,,,,,,*00
$PQGSA,A,1,,,,,,,,,,,,,,,*08
$GPVTG,,T,,M,,N,,K,N*2C
$GPRMC,,V,,,,,,,,,,N*53
$GPGGA,,,,,,0,,,,,,,,*66
$GPGSV,1,1,04,02,00,000,33,05,00,000,33,12,00,000,32,24,00,000,32*7F
$GLGSV,1,1,0,1*48
$GAGSV,1,1,0,7*43
$PQGSV,1,1,0,0*43
$PQGSV,1,1,0,0*43
$GPGSA,A,1,,,,,,,,,,,,,,,*1E
$GNGSA,A,1,,,,,,,,,,,,,,,*00
$PQGSA,A,1,,,,,,,,,,,,,,,*08
$GPVTG,,T,,M,,N,,K,N*2C
$GPRMC,,V,,,,,,,,,,N*53
$GPGGA,,,,,,0,,,,,,,,*66
$GPGSV,2,1,05,02,00,000,33,05,00,000,33,12,00,000,32,24,00,000,32*7D
$GPGSV,2,2,05,29,00,000,32*46
$GLGSV,1,1,0,1*48
$GAGSV,1,1,0,7*43
$PQGSV,1,1,0,0*43
$PQGSV,1,1,0,0*43
$GPGSA,A,1,,,,,,,,,,,,,,,*1E
$GNGSA,A,1,,,,,,,,,,,,,,,*00
$PQGSA,A,1,,,,,,,,,,,,,,,*08
$GPVTG,,T,,M,,N,,K,N*2C
$GPRMC,,V,,,,,,,,,,N*53
$GPGGA,,,,,,0,,,,,,,,*66
$GPGSV,2,1,06,02,00,000,33,05,00,000,33,12,00,000,32,21,00,000,33*7A
$GPGSV,2,2,06,24,00,000,33,29,00,000,33*72
$GLGSV,1,1,0,1*48
$GAGSV,1,1,0,7*43
$PQGSV,1,1,0,0*43
$PQGSV,1,1,0,0*43
$GPGSA,A,1,,,,,,,,,,,,,,,*1E
$GNGSA,A,1,,,,,,,,,,,,,,,*00
$PQGSA,A,1,,,,,,,,,,,,,,,*08
$GPVTG,,T,,M,,N,,K,N*2C
$GPRMC,,V,,,,,,,,,,N*53
$GPGGA,,,,,,0,,,,,,,,*66
$GPGSV,2,1,07,02,00,000,33,05,00,000,33,10,00,000,33,12,00,000,33*78
$GPGSV,2,2,07,21,00,000,33,24,00,000,33,29,00,000,33*40
$GLGSV,1,1,0,1*48
$GAGSV,1,1,0,7*43
$PQGSV,1,1,0,0*43
$PQGSV,1,1,0,0*43
$GPGSA,A,1,,,,,,,,,,,,,,,*1E
$GNGSA,A,1,,,,,,,,,,,,,,,*00
$PQGSA,A,1,,,,,,,,,,,,,,,*08
$GPVTG,,T,,M,,N,,K,N*2C
$GPRMC,,V,,,,,,,,,,N*53
$GPGGA,,,,,,0,,,,,,,,*66
$GPGSV,2,1,07,02,00,000,33,05,00,000,33,10,00,000,33,12,00,000,33*78
$GPGSV,2,2,07,21,00,000,33,24,00,000,33,29,00,000,33*40
$GLGSV,1,1,0,1*48
$GAGSV,1,1,0,7*43
$PQGSV,1,1,0,0*43
$PQGSV,1,1,0,0*43
$GPGSA,A,1,,,,,,,,,,,,,,,*1E
$GNGSA,A,1,,,,,,,,,,,,,,,*00
$PQGSA,A,1,,,,,,,,,,,,,,,*08
$GPVTG,,T,,M,,N,,K,N*2C
$GPRMC,,V,,,,,,,,,,N*53
$GPGGA,,,,,,0,,,,,,,,*66
$GPGSV,3,1,09,02,00,000,33,05,00,000,33,10,00,000,33,12,00,000,33*77
$GPGSV,3,2,09,21,00,000,33,24,00,000,33,26,00,000,32,29,00,000,33*7A
$GPGSV,3,3,09,30,00,000,33*43
$GLGSV,1,1,0,1*48
$GAGSV,1,1,0,7*43
$PQGSV,1,1,0,0*43
$PQGSV,1,1,0,0*43
$GPGSA,A,1,,,,,,,,,,,,,,,*1E
$GNGSA,A,1,,,,,,,,,,,,,,,*00
$PQGSA,A,1,,,,,,,,,,,,,,,*08
$GPVTG,,T,,M,,N,,K,N*2C
$GPRMC,,V,,,,,,,,,,N*53
$GPGGA,,,,,,0,,,,,,,,*66
$GPGSV,3,1,09,02,00,000,33,05,00,000,33,10,00,000,33,12,00,000,33*77
$GPGSV,3,2,09,21,00,000,33,24,00,000,33,26,00,000,33,29,00,000,33*7B
$GPGSV,3,3,09,30,00,000,33*43
$GLGSV,1,1,0,1*48
$GAGSV,1,1,0,7*43
$PQGSV,1,1,0,0*43
$PQGSV,1,1,0,0*43
$GPGSA,A,1,,,,,,,,,,,,,,,*1E
$GNGSA,A,1,,,,,,,,,,,,,,,*00
$PQGSA,A,1,,,,,,,,,,,,,,,*08
$GPVTG,,T,,M,,N,,K,N*2C
$GPRMC,,V,,,,,,,,,,N*53
$GPGGA,,,,,,0,,,,,,,,*66
$GPGSV,3,1,09,02,00,000,33,05,00,000,33,10,00,000,33,12,00,000,32*76
$GPGSV,3,2,09,21,00,000,33,24,00,000,33,26,00,000,33,29,00,000,33*7B
$GPGSV,3,3,09,30,00,000,32*42
$GLGSV,1,1,0,1*48
$GAGSV,1,1,0,7*43
$PQGSV,1,1,0,0*43
$PQGSV,1,1,0,0*43
$GPGSA,A,1,,,,,,,,,,,,,,,*1E
$GNGSA,A,1,,,,,,,,,,,,,,,*00
$PQGSA,A,1,,,,,,,,,,,,,,,*08
$GPVTG,,T,,M,,N,,K,N*2C
$GPRMC,,V,,,,,,,,,,N*53
$GPGGA,,,,,,0,,,,,,,,*66
$GPGSV,3,1,09,02,00,000,32,05,00,000,33,10,00,000,33,12,00,000,32*77
$GPGSV,3,2,09,21,00,000,33,24,00,000,33,26,00,000,33,29,00,000,33*7B
$GPGSV,3,3,09,30,00,000,33*43
$GLGSV,1,1,0,1*48
$GAGSV,1,1,0,7*43
$PQGSV,1,1,0,0*43
$PQGSV,1,1,0,0*43
$GPGSA,A,1,,,,,,,,,,,,,,,*1E
$GNGSA,A,1,,,,,,,,,,,,,,,*00
$PQGSA,A,1,,,,,,,,,,,,,,,*08
$GPVTG,,T,,M,,N,,K,N*2C
$GPRMC,,V,,,,,,,,,,N*53
$GPGGA,,,,,,0,,,,,,,,*66
$GPGSV,3,1,09,02,00,000,33,05,00,000,33,10,00,000,33,12,00,000,33*77
$GPGSV,3,2,09,21,00,000,33,24,00,000,33,26,00,000,33,29,00,000,33*7B
$GPGSV,3,3,09,30,00,000,33*43
$GLGSV,1,1,0,1*48
$GAGSV,1,1,0,7*43
$PQGSV,1,1,0,0*43
$PQGSV,1,1,0,0*43
$GPGSA,A,1,,,,,,,,,,,,,,,*1E
$GNGSA,A,1,,,,,,,,,,,,,,,*00
$PQGSA,A,1,,,,,,,,,,,,,,,*08
$GPVTG,,T,,M,,N,,K,N*2C
$GPRMC,,V,,,,,,,,,,N*53
$GPGGA,,,,,,0,,,,,,,,*66
$GPGSV,3,1,09,02,00,000,33,05,00,000,33,10,00,000,33,12,00,000,33*77
$GPGSV,3,2,09,21,00,000,33,24,00,000,33,26,00,000,33,29,00,000,32*7A
$GPGSV,3,3,09,30,00,000,33*43
$GLGSV,1,1,0,1*48
$GAGSV,1,1,0,7*43
$PQGSV,1,1,0,0*43
$PQGSV,1,1,0,0*43
$GPGSA,A,1,,,,,,,,,,,,,,,*1E
$GNGSA,A,1,,,,,,,,,,,,,,,*00
$PQGSA,A,1,,,,,,,,,,,,,,,*08
$GPVTG,,T,,M,,N,,K,N*2C
$GPRMC,,V,,,,,,,,,,N*53
$GPGGA,,,,,,0,,,,,,,,*66
$GPGSV,3,1,09,02,00,000,33,05,00,000,33,10,00,000,33,12,00,000,33*77
$GPGSV,3,2,09,21,00,000,33,24,00,000,33,26,00,000,33,29,00,000,33*7B
$GPGSV,3,3,09,30,00,000,33*43
$GLGSV,1,1,0,1*48
$GAGSV,1,1,0,7*43
$PQGSV,1,1,0,0*43
$PQGSV,1,1,0,0*43
$GPGSA,A,1,,,,,,,,,,,,,,,*1E
$GNGSA,A,1,,,,,,,,,,,,,,,*00
$PQGSA,A,1,,,,,,,,,,,,,,,*08
$GPVTG,,T,,M,,N,,K,N*2C
$GPRMC,,V,,,,,,,,,,N*53
$GPGGA,,,,,,0,,,,,,,,*66
$GPGSV,3,1,09,02,00,000,33,05,00,000,33,10,00,000,33,12,00,000,33*77
$GPGSV,3,2,09,21,00,000,33,24,00,000,33,26,00,000,33,29,00,000,33*7B
$GPGSV,3,3,09,30,00,000,33*43
$GLGSV,1,1,0,1*48
$GAGSV,1,1,0,7*43
$PQGSV,1,1,0,0*43
$PQGSV,1,1,0,0*43
$GPGSA,A,1,,,,,,,,,,,,,,,*1E
$GNGSA,A,1,,,,,,,,,,,,,,,*00
$PQGSA,A,1,,,,,,,,,,,,,,,*08
$GPVTG,,T,,M,,N,,K,N*2C
$GPRMC,,V,,,,,,,,,,N*53
$GPGGA,,,,,,0,,,,,,,,*66
$GPGSV,3,1,10,02,00,000,33,05,00,000,33,10,00,000,34,12,00,000,33*78
$GPGSV,3,2,10,15,00,000,32,21,00,000,33,24,00,000,33,26,00,000,33*7D
$GPGSV,3,3,10,29,00,000,33,30,00,000,33*70
$GLGSV,1,1,0,1*48
$GAGSV,1,1,0,7*43
$PQGSV,1,1,0,0*43
$PQGSV,1,1,0,0*43
$GPGSA,A,1,,,,,,,,,,,,,,,*1E
$GNGSA,A,1,,,,,,,,,,,,,,,*00
$PQGSA,A,1,,,,,,,,,,,,,,,*08
$GPVTG,,T,,M,,N,,K,N*2C
$GPRMC,,V,,,,,,,,,,N*53
$GPGGA,,,,,,0,,,,,,,,*66
$GPGSV,3,1,10,02,00,000,33,05,00,000,33,10,00,000,33,12,00,000,33*7F
$GPGSV,3,2,10,15,00,000,33,21,00,000,33,24,00,000,33,26,00,000,33*7C
$GPGSV,3,3,10,29,00,000,33,30,00,000,33*70
$GLGSV,1,1,0,1*48
$GAGSV,1,1,0,7*43
$PQGSV,1,1,0,0*43
$PQGSV,1,1,0,0*43
$GPGSA,A,1,,,,,,,,,,,,,,,*1E
$GNGSA,A,1,,,,,,,,,,,,,,,*00
$PQGSA,A,1,,,,,,,,,,,,,,,*08
$GPVTG,,T,,M,,N,,K,N*2C
$GPRMC,,V,,,,,,,,,,N*53
$GPGGA,,,,,,0,,,,,,,,*66
$GPGSV,3,1,10,02,00,000,33,05,00,000,33,10,00,000,33,12,00,000,33*7F
$GPGSV,3,2,10,15,00,000,33,21,00,000,33,24,00,000,33,26,00,000,33*7C
$GPGSV,3,3,10,29,00,000,33,30,00,000,33*70
$GLGSV,1,1,0,1*48
$GAGSV,1,1,0,7*43
$PQGSV,1,1,0,0*43
$PQGSV,1,1,0,0*43
$GPGSA,A,1,,,,,,,,,,,,,,,*1E
$GNGSA,A,1,,,,,,,,,,,,,,,*00
$PQGSA,A,1,,,,,,,,,,,,,,,*08
$GPVTG,,T,,M,,N,,K,N*2C
$GPRMC,,V,,,,,,,,,,N*53
$GPGGA,,,,,,0,,,,,,,,*66
$GPGSV,3,1,10,02,00,000,33,05,00,000,33,10,00,000,33,12,00,000,33*7F
$GPGSV,3,2,10,15,00,000,33,21,00,000,33,24,00,000,33,26,00,000,33*7C
$GPGSV,3,3,10,29,00,000,33,30,00,000,33*70
$GLGSV,1,1,0,1*48
$GAGSV,1,1,0,7*43
$PQGSV,1,1,0,0*43
$PQGSV,1,1,0,0*43
$GPGSA,A,1,,,,,,,,,,,,,,,*1E
$GNGSA,A,1,,,,,,,,,,,,,,,*00
$PQGSA,A,1,,,,,,,,,,,,,,,*08
$GPVTG,,T,,M,,N,,K,N*2C
$GPRMC,,V,,,,,,,,,,N*53
$GPGGA,,,,,,0,,,,,,,,*66
$GPGSV,3,1,10,02,00,000,33,05,00,000,33,10,00,000,33,12,00,000,33*7F
$GPGSV,3,2,10,15,00,000,33,21,00,000,33,24,00,000,33,26,00,000,33*7C
$GPGSV,3,3,10,29,00,000,33,30,00,000,33*70
$GLGSV,1,1,0,1*48
$GAGSV,1,1,0,7*43
$PQGSV,1,1,0,0*43
$PQGSV,1,1,0,0*43
$GPGSA,A,1,,,,,,,,,,,,,,,*1E
$GNGSA,A,1,,,,,,,,,,,,,,,*00
$PQGSA,A,1,,,,,,,,,,,,,,,*08
$GPVTG,,T,,M,,N,,K,N*2C
$GPRMC,,V,,,,,,,,,,N*53
$GPGGA,,,,,,0,,,,,,,,*66
$GPGSV,3,1,10,02,00,000,33,05,00,000,33,10,00,000,33,12,00,000,33*7F
$GPGSV,3,2,10,15,00,000,33,21,00,000,33,24,00,000,33,26,00,000,33*7C
$GPGSV,3,3,10,29,00,000,33,30,00,000,33*70
$GLGSV,1,1,0,1*48
$GAGSV,1,1,0,7*43
$PQGSV,1,1,0,0*43
$PQGSV,1,1,0,0*43
$GPGSA,A,1,,,,,,,,,,,,,,,*1E
$GNGSA,A,1,,,,,,,,,,,,,,,*00
$PQGSA,A,1,,,,,,,,,,,,,,,*08
$GPVTG,,T,,M,,N,,K,N*2C
$GPRMC,,V,,,,,,,,,,N*53
$GPGGA,,,,,,0,,,,,,,,*66
$GPGSV,3,1,11,02,00,000,33,05,00,000,33,10,00,000,33,12,00,000,33*7E
$GPGSV,3,2,11,13,00,000,31,15,00,000,33,21,00,000,33,24,00,000,33*79
$GPGSV,3,3,11,26,00,000,33,29,00,000,33,30,00,000,33*45
$GLGSV,1,1,0,1*48
$GAGSV,1,1,0,7*43
$PQGSV,1,1,0,0*43
$PQGSV,1,1,0,0*43
$GPGSA,A,1,,,,,,,,,,,,,,,*1E
$GNGSA,A,1,,,,,,,,,,,,,,,*00
$PQGSA,A,1,,,,,,,,,,,,,,,*08
$GPVTG,,T,,M,,N,,K,N*2C
$GPRMC,,V,,,,,,,,,,N*53
$GPGGA,,,,,,0,,,,,,,,*66
$GPGSV,3,1,11,02,00,000,33,05,00,000,33,10,00,000,33,12,00,000,33*7E
$GPGSV,3,2,11,13,00,000,33,15,00,000,33,21,00,000,33,24,00,000,33*7B
$GPGSV,3,3,11,26,00,000,33,29,00,000,33,30,00,000,33*45
$GLGSV,1,1,0,1*48
$GAGSV,1,1,0,7*43
$PQGSV,1,1,0,0*43
$PQGSV,1,1,0,0*43
$GPGSA,A,1,,,,,,,,,,,,,,,*1E
$GNGSA,A,1,,,,,,,,,,,,,,,*00
$PQGSA,A,1,,,,,,,,,,,,,,,*08
$GPVTG,,T,,M,,N,,K,N*2C
$GPRMC,,V,,,,,,,,,,N*53
$GPGGA,,,,,,0,,,,,,,,*66
$GPGSV,3,1,11,02,00,000,33,05,00,000,33,10,00,000,33,12,00,000,33*7E
$GPGSV,3,2,11,13,00,000,33,15,00,000,33,21,00,000,33,24,00,000,33*7B
$GPGSV,3,3,11,26,00,000,33,29,00,000,33,30,00,000,33*45
$GLGSV,1,1,0,1*48
$GAGSV,1,1,0,7*43
$PQGSV,1,1,0,0*43
$PQGSV,1,1,0,0*43
$GPGSA,A,1,,,,,,,,,,,,,,,*1E
$GNGSA,A,1,,,,,,,,,,,,,,,*00
$PQGSA,A,1,,,,,,,,,,,,,,,*08
$GPVTG,,T,,M,,N,,K,N*2C
$GPRMC,,V,,,,,,,,,,N*53
$GPGGA,,,,,,0,,,,,,,,*66
$GPGSV,3,1,11,02,00,000,33,05,00,000,33,10,00,000,33,12,00,000,33*7E
$GPGSV,3,2,11,13,00,000,33,15,00,000,33,21,00,000,33,24,00,000,33*7B
$GPGSV,3,3,11,26,00,000,33,29,00,000,33,30,00,000,33*45
$GLGSV,1,1,0,1*48
$GAGSV,1,1,0,7*43
$PQGSV,1,1,0,0*43
$PQGSV,1,1,0,0*43
$GPGSA,A,1,,,,,,,,,,,,,,,*1E
$GNGSA,A,1,,,,,,,,,,,,,,,*00
$PQGSA,A,1,,,,,,,,,,,,,,,*08
$GPVTG,,T,,M,,N,,K,N*2C
$GPRMC,,V,,,,,,,,,,N*53
$GPGGA,,,,,,0,,,,,,,,*66
$GPGSV,3,1,11,02,00,000,33,05,00,000,33,10,00,000,33,12,00,000,33*7E
$GPGSV,3,2,11,13,00,000,33,15,00,000,33,21,00,000,33,24,00,000,33*7B
$GPGSV,3,3,11,26,00,000,33,29,00,000,33,30,00,000,33*45
$GLGSV,1,1,0,1*48
$GAGSV,1,1,0,7*43
$PQGSV,1,1,0,0*43
$PQGSV,1,1,0,0*43
$GPGSA,A,1,,,,,,,,,,,,,,,*1E
$GNGSA,A,1,,,,,,,,,,,,,,,*00
$PQGSA,A,1,,,,,,,,,,,,,,,*08
$GPVTG,,T,,M,,N,,K,N*2C
$GPRMC,,V,,,,,,,,,,N*53
$GPGGA,,,,,,0,,,,,,,,*66
$GPGSV,3,1,11,02,00,000,33,05,00,000,33,10,00,000,33,12,00,000,33*7E
$GPGSV,3,2,11,13,00,000,33,15,00,000,33,21,00,000,33,24,00,000,33*7B
$GPGSV,3,3,11,26,00,000,33,29,00,000,33,30,00,000,33*45
$GLGSV,1,1,0,1*48
$GAGSV,1,1,0,7*43
$PQGSV,1,1,0,0*43
$PQGSV,1,1,0,0*43
$GPGSA,A,1,,,,,,,,,,,,,,,*1E
$GNGSA,A,1,,,,,,,,,,,,,,,*00
$PQGSA,A,1,,,,,,,,,,,,,,,*08
$GPVTG,,T,,M,,N,,K,N*2C
$GPRMC,,V,,,,,,,,,,N*53
$GPGGA,,,,,,0,,,,,,,,*66
$GPGSV,3,1,11,02,00,000,33,05,00,000,33,10,00,000,33,12,00,000,33*7E
$GPGSV,3,2,11,13,00,000,33,15,00,000,33,21,00,000,33,24,00,000,33*7B
$GPGSV,3,3,11,26,00,000,33,29,00,000,33,30,00,000,33*45
$GLGSV,1,1,0,1*48
$GAGSV,1,1,0,7*43
$PQGSV,1,1,0,0*43
$PQGSV,1,1,0,0*43
$GPGSA,A,1,,,,,,,,,,,,,,,*1E
$GNGSA,A,1,,,,,,,,,,,,,,,*00
$PQGSA,A,1,,,,,,,,,,,,,,,*08
$GPVTG,,T,,M,,N,,K,N*2C
$GPRMC,,V,,,,,,,,,,N*53
$GPGGA,,,,,,0,,,,,,,,*66
$GPGSV,3,1,11,02,00,000,33,05,00,000,33,10,00,000,33,12,00,000,33*7E
$GPGSV,3,2,11,13,00,000,33,15,00,000,33,21,00,000,33,24,00,000,33*7B
$GPGSV,3,3,11,26,00,000,33,29,00,000,33,30,00,000,33*45
$GLGSV,1,1,0,1*48
$GAGSV,1,1,0,7*43
$PQGSV,1,1,0,0*43
$PQGSV,1,1,0,0*43
$GPGSA,A,1,,,,,,,,,,,,,,,*1E
$GNGSA,A,1,,,,,,,,,,,,,,,*00
$PQGSA,A,1,,,,,,,,,,,,,,,*08
$GPVTG,,T,,M,,N,,K,N*2C
$GPRMC,,V,,,,,,,,,,N*53
$GPGGA,,,,,,0,,,,,,,,*66
$GPGSV,3,1,11,02,00,000,33,05,00,000,33,10,00,000,33,12,00,000,33*7E
$GPGSV,3,2,11,13,00,000,33,15,00,000,33,21,00,000,33,24,00,000,33*7B
$GPGSV,3,3,11,26,00,000,33,29,00,000,33,30,00,000,33*45
$GLGSV,1,1,0,1*48
$GAGSV,1,1,0,7*43
$PQGSV,1,1,0,0*43
$PQGSV,1,1,0,0*43
$GPGSA,A,1,,,,,,,,,,,,,,,*1E
$GNGSA,A,1,,,,,,,,,,,,,,,*00
$PQGSA,A,1,,,,,,,,,,,,,,,*08
$GPVTG,,T,,M,,N,,K,N*2C
$GPRMC,,V,,,,,,,,,,N*53
$GPGGA,,,,,,0,,,,,,,,*66
$GPGSV,3,1,11,02,00,000,33,05,00,000,33,10,00,000,33,12,00,000,33*7E
$GPGSV,3,2,11,13,00,000,33,15,00,000,33,21,00,000,33,24,00,000,33*7B
$GPGSV,3,3,11,26,00,000,33,29,00,000,33,30,00,000,33*45
$GLGSV,1,1,0,1*48
$GAGSV,1,1,0,7*43
$PQGSV,1,1,0,0*43
$PQGSV,1,1,0,0*43
$GPGSA,A,1,,,,,,,,,,,,,,,*1E
$GNGSA,A,1,,,,,,,,,,,,,,,*00
$PQGSA,A,1,,,,,,,,,,,,,,,*08
$GPVTG,,T,,M,,N,,K,N*2C
$GPRMC,,V,,,,,,,,,,N*53
$GPGGA,,,,,,0,,,,,,,,*66
$GPGSV,3,1,11,02,00,000,33,05,00,000,33,10,00,000,33,12,00,000,33*7E
$GPGSV,3,2,11,13,00,000,33,15,00,000,33,21,00,000,33,24,00,000,33*7B
$GPGSV,3,3,11,26,00,000,33,29,00,000,33,30,00,000,33*45
$GLGSV,1,1,0,1*48
$GAGSV,1,1,0,7*43
$PQGSV,1,1,0,0*43
$PQGSV,1,1,0,0*43
$GPGSA,A,1,,,,,,,,,,,,,,,*1E
$GNGSA,A,1,,,,,,,,,,,,,,,*00
$PQGSA,A,1,,,,,,,,,,,,,,,*08
$GPVTG,,T,,M,,N,,K,N*2C
$GPRMC,,V,,,,,,,,,,N*53
$GPGGA,,,,,,0,,,,,,,,*66
$GPGSV,3,1,11,02,00,000,33,05,00,000,33,10,00,000,33,12,00,000,33*7E
$GPGSV,3,2,11,13,00,000,33,15,00,000,33,21,00,000,33,24,00,000,33*7B
$GPGSV,3,3,11,26,00,000,33,29,00,000,33,30,00,000,33*45
$GLGSV,1,1,0,1*48
$GAGSV,1,1,0,7*43
$PQGSV,1,1,0,0*43
$PQGSV,1,1,0,0*43
$GPGSA,A,1,,,,,,,,,,,,,,,*1E
$GNGSA,A,1,,,,,,,,,,,,,,,*00
$PQGSA,A,1,,,,,,,,,,,,,,,*08
$GPVTG,,T,,M,,N,,K,N*2C
$GPRMC,,V,,,,,,,,,,N*53
$GPGGA,,,,,,0,,,,,,,,*66
$GPGSV,3,1,11,02,00,000,33,05,00,000,33,10,00,000,34,12,00,000,33*79
$GPGSV,3,2,11,13,00,000,33,15,00,000,33,21,00,000,33,24,00,000,33*7B
$GPGSV,3,3,11,26,00,000,33,29,00,000,33,30,00,000,33*45
$GLGSV,1,1,0,1*48
$GAGSV,1,1,0,7*43
$PQGSV,1,1,0,0*43
$PQGSV,1,1,0,0*43
$GPGSA,A,1,,,,,,,,,,,,,,,*1E
$GNGSA,A,1,,,,,,,,,,,,,,,*00
$PQGSA,A,1,,,,,,,,,,,,,,,*08
$GPVTG,,T,,M,,N,,K,N*2C
$GPRMC,,V,,,,,,,,,,N*53
$GPGGA,,,,,,0,,,,,,,,*66
$GPGSV,3,1,11,02,45,299,32,05,00,000,33,10,00,000,33,12,00,000,33*7C
$GPGSV,3,2,11,13,00,000,33,15,00,000,33,21,00,000,33,24,00,000,33*7B
$GPGSV,3,3,11,26,00,000,33,29,00,000,33,30,00,000,33*45
$GLGSV,1,1,0,1*48
$GAGSV,1,1,0,7*43
$PQGSV,1,1,03,193,02,137,,194,46,115,,195,60,061,*67
$PQGSV,1,1,0,0*43
$GPGSA,A,1,,,,,,,,,,,,,,,*1E
$GNGSA,A,1,,,,,,,,,,,,,,,*00
$PQGSA,A,1,,,,,,,,,,,,,,,*08
$GPVTG,,T,,M,,N,,K,N*2C
$GPRMC,,V,,,,,,,,,,N*53
$GPGGA,,,,,,0,,,,,,,,*66
$GPGSV,3,1,11,02,45,299,33,05,00,000,24,10,00,000,33,12,00,000,33*7B
$GPGSV,3,2,11,13,00,000,33,15,00,000,33,21,00,000,33,24,00,000,33*7B
$GPGSV,3,3,11,26,00,000,33,29,00,000,33,30,00,000,33*45
$GLGSV,1,1,0,1*48
$GAGSV,1,1,0,7*43
$PQGSV,1,1,03,193,02,137,,194,46,115,,195,60,061,*67
$PQGSV,1,1,0,0*43
$GPGSA,A,1,,,,,,,,,,,,,,,*1E
$GNGSA,A,1,,,,,,,,,,,,,,,*00
$PQGSA,A,1,,,,,,,,,,,,,,,*08
$GPVTG,,T,,M,,N,,K,N*2C
$GPRMC,,V,,,,,,,,,,N*53
$GPGGA,,,,,,0,,,,,,,,*66
$GPGSA,A,1,,,,,,,,,,,,,,,*1E
$GNGSA,A,1,,,,,,,,,,,,,,,*00
$PQGSA,A,1,,,,,,,,,,,,,,,*08
$GPVTG,,T,,M,,N,,K,N*2C
$GPRMC,,V,,,,,,,,,,N*53
$GPGGA,,,,,,0,,,,,,,,*66
$GPGSV,3,1,11,02,41,080,33,05,16,216,33,10,00,000,34,12,14,203,33*72
$GPGSV,3,2,11,13,00,000,33,15,00,000,33,21,00,000,33,24,51,278,33*72
$GPGSV,3,3,11,26,00,000,33,29,56,296,33,30,00,000,33*4B
$GLGSV,1,1,0,1*48
$GAGSV,1,1,0,7*43
$PQGSV,1,1,01,195,02,042,*67
$PQGSV,1,1,0,0*43
$GPGSA,A,1,,,,,,,,,,,,,,,*1E
$GNGSA,A,1,,,,,,,,,,,,,,,*00
$PQGSA,A,1,,,,,,,,,,,,,,,*08
$GPVTG,,T,,M,,N,,K,N*2C
$GPRMC,,V,,,,,,,,,,N*53
$GPGGA,,,,,,0,,,,,,,,*66
$GPGSV,3,1,11,02,41,080,33,05,16,216,33,10,75,123,33,12,14,203,33*77
$GPGSV,3,2,11,13,00,000,33,15,00,000,33,21,09,270,33,24,51,278,34*79
$GPGSV,3,3,11,26,00,000,33,29,56,296,33,30,00,000,33*4B
$GLGSV,1,1,0,1*48
$GAGSV,1,1,0,7*43
$PQGSV,1,1,01,195,02,042,*67
$PQGSV,1,1,0,0*43
$GPVTG,,T,,M,0.0,N,0.0,K,A*23
$GPDTM,P90,,0000.000026,S,00000.000000,E,0.976,W84*4C
$GPRMC,000023.00,A,4815.004907,N,01129.999105,E,0.0,,230721,0.4,E,A*1F
$GPGGA,000023.00,4815.004907,N,01129.999105,E,1,00,1.2,-54.3,M,47.0,M,,*76
$GPGSV,3,1,11,02,41,080,33,05,16,216,33,10,75,123,33,12,14,203,33*77
$GPGSV,3,2,11,13,00,000,33,15,00,000,33,21,09,270,33,24,51,278,32*7F
$GPGSV,3,3,11,26,00,000,33,29,56,296,33,30,00,000,33*4B
$GLGSV,1,1,0,1*48
$GAGSV,1,1,0,7*43
$PQGSV,1,1,01,195,02,042,*67
$PQGSV,1,1,0,0*43
$GPGSA,A,3,02,05,10,12,21,24,29,,,,,,1.5,1.2,0.9*37
$GPVTG,,T,,M,0.0,N,0.0,K,A*23
$GPDTM,P90,,0000.000026,S,00000.000000,E,0.976,W84*4C
$GPRMC,000024.00,A,4815.002722,N,01129.999252,E,0.0,,230721,0.4,E,A*16
$GPGGA,000024.00,4815.002722,N,01129.999252,E,1,07,1.2,-52.3,M,47.0,M,,*7E
$GPGSV,3,1,11,02,41,080,33,05,16,216,33,10,75,123,33,12,14,203,33*77
$GPGSV,3,2,11,13,00,000,33,15,00,000,33,21,09,270,33,24,51,278,33*7E
$GPGSV,3,3,11,26,13,149,33,29,56,296,33,30,29,240,33*48
$GLGSV,1,1,0,1*48
$GAGSV,1,1,0,7*43
$PQGSV,1,1,01,195,02,042,*67
$PQGSV,1,1,0,0*43
$GPGSA,A,3,02,05,10,12,21,24,29,,,,,,1.4,1.1,0.9*35
$GPVTG,,T,,M,0.0,N,0.0,K,A*23
$GPDTM,P90,,0000.000026,S,00000.000000,E,0.976,W84*4C
$GPRMC,000025.00,A,4815.003494,N,01129.999381,E,0.0,,230721,0.4,E,A*17
$GPGGA,000025.00,4815.003494,N,01129.999381,E,1,07,1.1,-54.7,M,47.0,M,,*7E
$GPGSV,3,1,11,02,41,080,33,05,16,216,33,10,75,123,33,12,14,203,33*77
$GPGSV,3,2,11,13,00,000,33,15,00,000,33,21,09,270,33,24,51,278,33*7E
$GPGSV,3,3,11,26,13,149,33,29,56,296,33,30,29,240,33*48
$GLGSV,1,1,0,1*48
$GAGSV,1,1,0,7*43
$PQGSV,1,1,01,195,02,042,*67
$PQGSV,1,1,0,0*43
$GPGSA,A,3,02,05,10,12,21,24,26,29,30,,,,1.4,1.1,0.9*32
$GPVTG,,T,,M,0.0,N,0.0,K,A*23
$GPDTM,P90,,0000.000026,S,00000.000000,E,0.976,W84*4C
$GPRMC,000026.00,A,4815.003119,N,01129.999803,E,0.0,,230721,0.4,E,A*15
$GPGGA,000026.00,4815.003119,N,01129.999803,E,1,09,1.1,-52.8,M,47.0,M,,*7B
$GPGSV,3,1,11,02,41,080,33,05,16,216,33,10,75,123,33,12,14,203,33*77
$GPGSV,3,2,11,13,00,000,32,15,00,000,33,21,09,270,33,24,51,278,33*7F
$GPGSV,3,3,11,26,13,149,33,29,56,296,33,30,29,240,33*48
$GLGSV,1,1,0,1*48
$GAGSV,1,1,0,7*43
$PQGSV,1,1,01,195,02,042,*67
$PQGSV,1,1,0,0*43
$GPGSA,A,3,02,05,10,12,21,24,26,29,30,,,,1.4,1.1,0.9*32
$GPVTG,,T,,M,0.0,N,0.0,K,A*23
$GPDTM,P90,,0000.000026,S,00000.000000,E,0.976,W84*4C
$GPRMC,000027.00,A,4815.002755,N,01129.999482,E,0.0,,230721,0.4,E,A*1E
$GPGGA,000027.00,4815.002755,N,01129.999482,E,1,09,1.1,-51.0,M,47.0,M,,*7B
$GPGSV,3,1,11,02,41,080,33,05,16,216,33,10,75,123,33,12,14,203,33*77
$GPGSV,3,2,11,13,00,000,33,15,00,000,33,21,09,270,33,24,51,278,33*7E
$GPGSV,3,3,11,26,13,149,33,29,56,296,33,30,29,240,33*48
$GLGSV,1,1,0,1*48
$GAGSV,1,1,0,7*43
$PQGSV,1,1,01,195,02,042,*67
$PQGSV,1,1,0,0*43
$GPGSA,A,3,02,05,10,12,21,24,26,29,30,,,,1.4,1.1,0.9*32
$GPVTG,,T,,M,0.0,N,0.0,K,A*23
$GPDTM,P90,,0000.000026,S,00000.000000,E,0.976,W84*4C
$GPRMC,000028.00,A,4815.002348,N,01129.999417,E,0.0,,230721,0.4,E,A*15
$GPGGA,000028.00,4815.002348,N,01129.999417,E,1,09,1.1,-48.8,M,47.0,M,,*70
$GPGSV,3,1,11,02,41,080,33,05,16,216,33,10,75,123,33,12,14,203,33*77
$GPGSV,3,2,11,13,00,000,33,15,00,000,33,21,09,270,33,24,51,278,33*7E
$GPGSV,3,3,11,26,13,149,33,29,56,296,33,30,29,240,33*48
$GLGSV,1,1,0,1*48
$GAGSV,1,1,0,7*43
$PQGSV,1,1,01,195,02,042,*67
$PQGSV,1,1,0,0*43
$GPGSA,A,3,02,05,10,12,21,24,26,29,30,,,,1.4,1.1,0.9*32
$GPVTG,,T,,M,0.0,N,0.0,K,A*23
$GPDTM,P90,,0000.000026,S,00000.000000,E,0.976,W84*4C
$GPRMC,000029.00,A,4815.001922,N,01129.999725,E,0.0,,230721,0.4,E,A*13
$GPGGA,000029.00,4815.001922,N,01129.999725,E,1,09,1.1,-48.5,M,47.0,M,,*7B
$GPGSV,3,1,11,02,41,080,33,05,16,216,33,10,75,123,33,12,14,203,33*77
$GPGSV,3,2,11,13,00,000,33,15,00,000,33,21,09,270,33,24,51,278,33*7E
$GPGSV,3,3,11,26,13,149,33,29,56,296,33,30,29,240,33*48
$GLGSV,1,1,0,1*48
$GAGSV,1,1,0,7*43
$PQGSV,1,1,01,195,02,042,*67
$PQGSV,1,1,0,0*43
$GPGSA,A,3,02,05,10,12,21,24,26,29,30,,,,1.4,1.1,0.9*32
$GPVTG,,T,,M,0.0,N,0.0,K,A*23
$GPDTM,P90,,0000.000026,S,00000.000000,E,0.976,W84*4C
$GPRMC,000030.00,A,4815.002273,N,01129.999978,E,0.0,,230721,0.4,E,A*11
$GPGGA,000030.00,4815.002273,N,01129.999978,E,1,09,1.1,-48.4,M,47.0,M,,*78
$GPGSV,3,1,11,02,41,080,33,05,16,216,33,10,75,122,33,12,14,203,33*76
$GPGSV,3,2,11,13,04,025,33,15,04,164,33,21,09,270,33,24,51,278,33*7A
$GPGSV,3,3,11,26,13,149,33,29,56,296,33,30,29,240,33*48
$GLGSV,1,1,0,1*48
$GAGSV,1,1,0,7*43
$PQGSV,1,1,01,195,02,042,*67
$PQGSV,1,1,0,0*43
$GPGSA,A,3,02,05,10,12,21,24,26,29,30,,,,1.1,0.8,0.7*31
$GPVTG,,T,,M,0.0,N,0.0,K,A*23
$GPDTM,P90,,0000.000026,S,00000.000000,E,0.976,W84*4C
$GPRMC,000031.00,A,4815.000874,N,01130.000016,E,0.0,,230721,0.4,E,A*1F
$GPGGA,000031.00,4815.000874,N,01130.000016,E,1,09,0.8,-45.6,M,47.0,M,,*71
$GPGSV,3,1,11,02,41,080,33,05,16,216,33,10,75,122,33,12,14,203,33*76
$GPGSV,3,2,11,13,04,025,33,15,04,164,33,21,09,270,33,24,51,278,33*7A
$GPGSV,3,3,11,26,13,149,33,29,56,296,33,30,29,240,33*48
$GLGSV,1,1,0,1*48
$GAGSV,1,1,0,7*43
$PQGSV,1,1,01,195,02,042,*67
$PQGSV,1,1,0,0*43
$GPGSA,A,3,02,05,10,12,13,15,21,24,26,29,30,,1.1,0.8,0.7*37
$GPVTG,,T,,M,0.0,N,0.0,K,A*23
$GPDTM,P90,,0000.000026,S,00000.000000,E,0.976,W84*4C
$GPRMC,000032.00,A,4815.000622,N,01130.000010,E,0.0,,230721,0.4,E,A*17
$GPGGA,000032.00,4815.000622,N,01130.000010,E,1,11,0.8,-44.8,M,47.0,M,,*7F
$GPGSV,3,1,11,02,41,080,33,05,16,216,33,10,75,122,33,12,14,203,33*76
$GPGSV,3,2,11,13,04,025,33,15,04,164,33,21,09,270,33,24,51,278,33*7A
$GPGSV,3,3,11,26,13,149,32,29,56,296,33,30,29,240,33*49
$GLGSV,1,1,0,1*48
$GAGSV,1,1,0,7*43
$PQGSV,1,1,01,195,02,042,*67
$PQGSV,1,1,0,0*43
$GPGSA,A,3,02,05,10,12,13,15,21,24,26,29,30,,1.1,0.8,0.7*37
$GPVTG,,T,,M,0.0,N,0.0,K,A*23
$GPDTM,P90,,0000.000026,S,00000.000000,E,0.976,W84*4C
$GPRMC,000033.00,A,4815.000023,N,01129.999803,E,0.0,,230721,0.4,E,A*1A
$GPGGA,000033.00,4815.000023,N,01129.999803,E,1,11,0.8,-44.0,M,47.0,M,,*7A
$GPGSV,3,1,11,02,41,080,33,05,16,216,33,10,75,122,33,12,14,203,33*76
$GPGSV,3,2,11,13,04,025,33,15,04,164,33,21,09,270,33,24,51,278,33*7A
$GPGSV,3,3,11,26,13,149,33,29,56,296,33,30,29,240,33*48
$GLGSV,1,1,0,1*48
$GAGSV,1,1,0,7*43
$PQGSV,1,1,01,195,02,042,*67
$PQGSV,1,1,0,0*43
$GPGSA,A,3,02,05,10,12,13,15,21,24,26,29,30,,1.1,0.8,0.7*37
$GPVTG,,T,,M,0.0,N,0.0,K,A*23
$GPDTM,P90,,0000.000026,S,00000.000000,E,0.976,W84*4C
$GPRMC,000034.00,A,4814.999827,N,01129.999608,E,0.0,,230721,0.4,E,A*1C
$GPGGA,000034.00,4814.999827,N,01129.999608,E,1,11,0.8,-43.3,M,47.0,M,,*78
$GPGSV,3,1,11,02,41,080,33,05,16,216,33,10,75,122,33,12,14,203,33*76
$GPGSV,3,2,11,13,04,025,33,15,04,164,33,21,09,270,33,24,51,278,33*7A
$GPGSV,3,3,11,26,13,149,33,29,56,296,33,30,29,240,33*48
$GLGSV,1,1,0,1*48
$GAGSV,1,1,0,7*43
$PQGSV,1,1,01,195,02,042,*67
$PQGSV,1,1,0,0*43
$GPGSA,A,3,02,05,10,12,13,15,21,24,26,29,30,,1.1,0.8,0.7*37
$GPVTG,,T,,M,0.0,N,0.0,K,A*23
$GPDTM,P90,,0000.000026,S,00000.000000,E,0.976,W84*4C
$GPRMC,000035.00,A,4814.999754,N,01129.999527,E,0.0,,230721,0.4,E,A*18
$GPGGA,000035.00,4814.999754,N,01129.999527,E,1,11,0.8,-43.1,M,47.0,M,,*7E
$GPGSV,3,1,11,02,41,080,33,05,16,216,33,10,75,122,33,12,14,203,33*76
$GPGSV,3,2,11,13,04,025,33,15,04,164,33,21,09,270,33,24,51,278,33*7A
$GPGSV,3,3,11,26,13,149,33,29,56,296,33,30,29,240,33*48
$GLGSV,1,1,0,1*48
$GAGSV,1,1,0,7*43
$PQGSV,1,1,01,195,02,042,*67
$PQGSV,1,1,0,0*43
$GPGSA,A,3,02,05,10,12,13,15,21,24,26,29,30,,1.1,0.8,0.7*37
$GPVTG,,T,,M,0.0,N,0.0,K,A*23
$GPDTM,P90,,0000.000026,S,00000.000000,E,0.976,W84*4C
$GPRMC,000036.00,A,4814.999619,N,01129.999563,E,0.0,,230721,0.4,E,A*13
$GPGGA,000036.00,4814.999619,N,01129.999563,E,1,11,0.8,-43.1,M,47.0,M,,*75
$GPGSV,3,1,11,02,41,080,34,05,16,216,33,10,75,122,33,12,14,203,33*71
$GPGSV,3,2,11,13,04,025,33,15,04,164,33,21,09,270,33,24,51,278,33*7A
$GPGSV,3,3,11,26,13,149,33,29,56,296,33,30,29,240,33*48
$GLGSV,1,1,0,1*48
$GAGSV,1,1,0,7*43
$PQGSV,1,1,01,195,02,042,*67
$PQGSV,1,1,0,0*43
$GPGSA,A,3,02,05,10,12,13,15,21,24,26,29,30,,1.1,0.8,0.7*37
$GPVTG,,T,,M,0.0,N,0.0,K,A*23
$GPDTM,P90,,0000.000026,S,00000.000000,E,0.976,W84*4C
$GPRMC,000037.00,A,4814.999650,N,01129.999605,E,0.0,,230721,0.4,E,A*1C
$GPGGA,000037.00,4814.999650,N,01129.999605,E,1,11,0.8,-43.3,M,47.0,M,,*78
$GPGSV,3,1,11,02,41,080,33,05,16,216,33,10,75,122,33,12,14,203,33*76
$GPGSV,3,2,11,13,04,025,33,15,04,164,33,21,09,270,33,24,51,278,33*7A
$GPGSV,3,3,11,26,13,149,33,29,56,296,33,30,29,240,33*48
$GLGSV,1,1,0,1*48
$GAGSV,1,1,0,7*43
$PQGSV,1,1,01,195,02,042,*67
$PQGSV,1,1,0,0*43
$GPGSA,A,3,02,05,10,12,13,15,21,24,26,29,30,,1.1,0.8,0.7*37
$GPVTG,,T,,M,0.0,N,0.0,K,A*23
$GPDTM,P90,,0000.000026,S,00000.000000,E,0.976,W84*4C
$GPRMC,000038.00,A,4814.999680,N,01129.999609,E,0.0,,230721,0.4,E,A*12
$GPGGA,000038.00,4814.999680,N,01129.999609,E,1,11,0.8,-43.4,M,47.0,M,,*71
$GPGSV,3,1,11,02,41,080,33,05,16,216,33,10,75,122,33,12,14,203,33*76
$GPGSV,3,2,11,13,04,025,33,15,04,164,33,21,09,270,33,24,51,278,33*7A
$GPGSV,3,3,11,26,13,149,33,29,56,296,33,30,29,240,33*48
$GLGSV,1,1,0,1*48
$GAGSV,1,1,0,7*43
$PQGSV,1,1,01,195,02,042,*67
$PQGSV,1,1,0,0*43
$GPGSA,A,3,02,05,10,12,13,15,21,24,26,29,30,,1.1,0.8,0.7*37
$GPVTG,,T,,M,0.0,N,0.0,K,A*23
$GPDTM,P90,,0000.000026,S,00000.000000,E,0.976,W84*4C
$GPRMC,000039.00,A,4814.999596,N,01129.999611,E,0.0,,230721,0.4,E,A*1E
$GPGGA,000039.00,4814.999596,N,01129.999611,E,1,11,0.8,-43.3,M,47.0,M,,*7A
$GPGSV,3,1,11,02,41,080,33,05,16,216,33,10,75,122,33,12,14,203,33*76
$GPGSV,3,2,11,13,04,025,33,15,04,164,33,21,09,270,33,24,51,278,33*7A
$GPGSV,3,3,11,26,13,149,33,29,56,296,33,30,29,240,33*48
$GLGSV,1,1,0,1*48
$GAGSV,1,1,0,7*43
$PQGSV,1,1,01,195,02,042,*67
$PQGSV,1,1,0,0*43
$GPGSA,A,3,02,05,10,12,13,15,21,24,26,29,30,,1.1,0.8,0.7*37
$GPVTG,,T,,M,0.0,N,0.0,K,A*23
$GPDTM,P90,,0000.000026,S,00000.000000,E,0.976,W84*4C
$GPRMC,000040.00,A,4814.999549,N,01129.999608,E,0.0,,230721,0.4,E,A*1A
$GPGGA,000040.00,4814.999549,N,01129.999608,E,1,11,0.8,-43.2,M,47.0,M,,*7F
$GPGSV,3,1,11,02,41,080,33,05,16,216,33,10,75,122,33,12,14,203,33*76
$GPGSV,3,2,11,13,04,025,33,15,04,164,33,21,09,270,33,24,51,278,33*7A
$GPGSV,3,3,11,26,13,149,33,29,56,296,33,30,29,240,33*48
$GLGSV,1,1,0,1*48
$GAGSV,1,1,0,7*43
$PQGSV,1,1,01,195,02,042,*67
$PQGSV,1,1,0,0*43
$GPGSA,A,3,02,05,10,12,13,15,21,24,26,29,30,,1.1,0.8,0.7*37
$GPVTG,,T,,M,0.0,N,0.0,K,A*23
$GPDTM,P90,,0000.000026,S,00000.000000,E,0.976,W84*4C
$GPRMC,000041.00,A,4814.999488,N,01129.999611,E,0.0,,230721,0.4,E,A*1F
$GPGGA,000041.00,4814.999488,N,01129.999611,E,1,11,0.8,-43.1,M,47.0,M,,*79
$GPGSV,3,1,11,02,41,080,32,05,16,216,34,10,75,122,33,12,14,203,33*70
$GPGSV,3,2,11,13,04,025,33,15,04,164,33,21,09,270,33,24,51,278,33*7A
$GPGSV,3,3,11,26,13,149,33,29,56,296,33,30,29,240,33*48
$GLGSV,1,1,0,1*48
$GAGSV,1,1,0,7*43
$PQGSV,1,1,01,195,02,042,*67
$PQGSV,1,1,0,0*43
$GPGSA,A,3,02,05,10,12,13,15,21,24,26,29,30,,1.1,0.8,0.7*37
$GPVTG,,T,,M,0.0,N,0.0,K,A*23
$GPDTM,P90,,0000.000026,S,00000.000000,E,0.976,W84*4C
$GPRMC,000042.00,A,4814.999498,N,01129.999618,E,0.0,,230721,0.4,E,A*14
$GPGGA,000042.00,4814.999498,N,01129.999618,E,1,11,0.8,-43.2,M,47.0,M,,*71
$GPGSV,3,1,11,02,40,080,33,05,16,216,33,10,75,122,33,12,14,203,33*77
$GPGSV,3,2,11,13,04,025,33,15,04,164,33,21,09,270,33,24,51,278,33*7A
$GPGSV,3,3,11,26,13,149,33,29,56,296,33,30,29,240,33*48
$GLGSV,1,1,0,1*48
$GAGSV,1,1,0,7*43
$PQGSV,1,1,01,195,02,042,*67
$PQGSV,1,1,0,0*43
$GPGSA,A,3,02,05,10,12,13,15,21,24,26,29,30,,1.1,0.8,0.7*37
$GPVTG,,T,,M,0.0,N,0.0,K,A*23
$GPDTM,P90,,0000.000026,S,00000.000000,E,0.976,W84*4C
$GPRMC,000043.00,A,4814.999487,N,01129.999621,E,0.0,,230721,0.4,E,A*11
$GPGGA,000043.00,4814.999487,N,01129.999621,E,1,11,0.8,-43.2,M,47.0,M,,*74
$GPGSV,3,1,11,02,40,080,33,05,16,216,33,10,75,122,33,12,14,203,33*77
$GPGSV,3,2,11,13,04,025,33,15,04,164,33,21,09,270,33,24,51,278,33*7A
$GPGSV,3,3,11,26,13,149,33,29,56,296,33,30,29,240,33*48
$GLGSV,1,1,0,1*48
$GAGSV,1,1,0,7*43
$PQGSV,1,1,01,195,02,042,*67
$PQGSV,1,1,0,0*43
$GPGSA,A,3,02,05,10,12,13,15,21,24,26,29,30,,1.1,0.8,0.7*37
$GPVTG,,T,,M,0.0,N,0.0,K,A*23
$GPDTM,P90,,0000.000026,S,00000.000000,E,0.976,W84*4C
$GPRMC,000044.00,A,4814.999483,N,01129.999626,E,0.0,,230721,0.4,E,A*15
$GPGGA,000044.00,4814.999483,N,01129.999626,E,1,11,0.8,-43.2,M,47.0,M,,*70
$GPGSV,3,1,11,02,40,080,33,05,16,216,33,10,75,122,33,12,14,203,33*77
$GPGSV,3,2,11,13,04,025,33,15,04,164,33,21,09,270,33,24,51,278,33*7A
$GPGSV,3,3,11,26,13,149,33,29,56,296,33,30,29,240,33*48
$GLGSV,1,1,0,1*48
$GAGSV,1,1,0,7*43
$PQGSV,1,1,01,195,02,042,*67
$PQGSV,1,1,0,0*43
$GPGSA,A,3,02,05,10,12,13,15,21,24,26,29,30,,1.1,0.8,0.7*37
$GPVTG,,T,,M,0.0,N,0.0,K,A*23
$GPDTM,P90,,0000.000026,S,00000.000000,E,0.976,W84*4C
$GPRMC,000045.00,A,4814.999482,N,01129.999627,E,0.0,,230721,0.4,E,A*14
$GPGGA,000045.00,4814.999482,N,01129.999627,E,1,11,0.8,-43.2,M,47.0,M,,*71
$GPGSV,3,1,11,02,40,080,33,05,16,216,33,10,75,122,33,12,14,203,33*77
$GPGSV,3,2,11,13,04,025,33,15,04,164,33,21,09,270,33,24,51,278,33*7A
$GPGSV,3,3,11,26,13,149,33,29,56,296,32,30,29,240,33*49
$GLGSV,1,1,0,1*48
$GAGSV,1,1,0,7*43
$PQGSV,1,1,01,195,02,042,*67
$PQGSV,1,1,0,0*43
$GPGSA,A,3,02,05,10,12,13,15,21,24,26,29,30,,1.1,0.8,0.7*37
$GPVTG,,T,,M,0.0,N,0.0,K,A*23
$GPDTM,P90,,0000.000026,S,00000.000000,E,0.976,W84*4C
$GPRMC,000046.00,A,4814.999482,N,01129.999629,E,0.0,,230721,0.4,E,A*19
$GPGGA,000046.00,4814.999482,N,01129.999629,E,1,11,0.8,-43.2,M,47.0,M,,*7C
$GPGSV,3,1,11,02,40,080,33,05,16,216,33,10,75,122,33,12,14,203,33*77
$GPGSV,3,2,11,13,04,025,33,15,04,164,33,21,09,270,33,24,51,278,33*7A
$GPGSV,3,3,11,26,13,149,33,29,56,296,33,30,29,240,33*48
$GLGSV,1,1,0,1*48
$GAGSV,1,1,0,7*43
$PQGSV,1,1,01,195,02,042,*67
$PQGSV,1,1,0,0*43
$GPGSA,A,3,02,05,10,12,13,15,21,24,26,29,30,,1.1,0.8,0.7*37
$GPVTG,,T,,M,0.0,N,0.0,K,A*23
$GPDTM,P90,,0000.000026,S,00000.000000,E,0.976,W84*4C
$GPRMC,000047.00,A,4814.999482,N,01129.999631,E,0.0,,230721,0.4,E,A*11
$GPGGA,000047.00,4814.999482,N,01129.999631,E,1,11,0.8,-43.2,M,47.0,M,,*74
$GPGSV,3,1,11,02,40,080,33,05,16,216,33,10,75,122,33,12,14,203,33*77
$GPGSV,3,2,11,13,04,025,33,15,04,164,33,21,09,270,33,24,51,278,33*7A
$GPGSV,3,3,11,26,13,149,33,29,56,296,33,30,29,240,33*48
$GLGSV,1,1,0,1*48
$GAGSV,1,1,0,7*43
$PQGSV,1,1,01,195,02,042,*67
$PQGSV,1,1,0,0*43
$GPGSA,A,3,02,05,10,12,13,15,21,24,26,29,30,,1.1,0.8,0.7*37
$GPVTG,,T,,M,0.0,N,0.0,K,A*23
$GPDTM,P90,,0000.000026,S,00000.000000,E,0.976,W84*4C
$GPRMC,000048.00,A,4814.999482,N,01129.999636,E,0.0,,230721,0.4,E,A*19
$GPGGA,000048.00,4814.999482,N,01129.999636,E,1,11,0.8,-43.2,M,47.0,M,,*7C
$GPGSV,3,1,11,02,40,080,33,05,16,216,33,10,75,122,32,12,14,203,33*76
$GPGSV,3,2,11,13,04,025,33,15,04,164,32,21,09,270,33,24,51,278,33*7B
$GPGSV,3,3,11,26,13,149,34,29,56,296,33,30,29,240,33*4F
$GLGSV,1,1,0,1*48
$GAGSV,1,1,0,7*43
$PQGSV,1,1,01,195,02,042,*67
$PQGSV,1,1,0,0*43
$GPGSA,A,3,02,05,10,12,13,15,21,24,26,29,30,,1.1,0.8,0.7*37
$GPVTG,,T,,M,0.0,N,0.0,K,A*23
$GPDTM,P90,,0000.000026,S,00000.000000,E,0.976,W84*4C
$GPRMC,000049.00,A,4814.999483,N,01129.999638,E,0.0,,230721,0.4,E,A*17
$GPGGA,000049.00,4814.999483,N,01129.999638,E,1,11,0.8,-43.2,M,47.0,M,,*72
$GPGSV,3,1,11,02,40,080,33,05,16,216,33,10,75,122,33,12,14,203,33*77
$GPGSV,3,2,11,13,04,025,33,15,04,164,33,21,09,270,34,24,51,278,33*7D
$GPGSV,3,3,11,26,13,149,33,29,56,296,33,30,29,240,33*48
$GLGSV,1,1,0,1*48
$GAGSV,1,1,0,7*43
$PQGSV,1,1,01,195,02,042,*67
$PQGSV,1,1,0,0*43
$GPGSA,A,3,02,05,10,12,13,15,21,24,26,29,30,,1.1,0.8,0.7*37
$GPVTG,,T,,M,0.0,N,0.0,K,A*23
$GPDTM,P90,,0000.000026,S,00000.000000,E,0.976,W84*4C
$GPRMC,000050.00,A,4814.999484,N,01129.999641,E,0.0,,230721,0.4,E,A*16
$GPGGA,000050.00,4814.999484,N,01129.999641,E,1,11,0.8,-43.2,M,47.0,M,,*73
$GPGSV,3,1,11,02,40,080,33,05,16,216,33,10,75,122,33,12,14,203,33*77
$GPGSV,3,2,11,13,04,025,33,15,04,164,33,21,09,270,33,24,51,278,33*7A
$GPGSV,3,3,11,26,13,149,33,29,56,296,33,30,29,240,33*48
$GLGSV,1,1,0,1*48
$GAGSV,1,1,0,7*43
$PQGSV,1,1,01,195,02,042,*67
$PQGSV,1,1,0,0*43
$GPGSA,A,3,02,05,10,12,13,15,21,24,26,29,30,,1.1,0.8,0.7*37
$GPVTG,,T,,M,0.0,N,0.0,K,A*23
$GPDTM,P90,,0000.000026,S,00000.000000,E,0.976,W84*4C
$GPRMC,000051.00,A,4814.999482,N,01129.999639,E,0.0,,230721,0.4,E,A*1E
$GPGGA,000051.00,4814.999482,N,01129.999639,E,1,11,0.8,-43.2,M,47.0,M,,*7B
$GPGSV,3,1,11,02,40,080,33,05,16,216,33,10,75,122,33,12,14,203,33*77
$GPGSV,3,2,11,13,04,025,33,15,04,164,33,21,09,270,33,24,51,278,33*7A
$GPGSV,3,3,11,26,13,149,33,29,56,296,33,30,29,240,33*48
$GLGSV,1,1,0,1*48
$GAGSV,1,1,0,7*43
$PQGSV,1,1,01,195,02,042,*67
$PQGSV,1,1,0,0*43
$GPGSA,A,3,02,05,10,12,13,15,21,24,26,29,30,,1.1,0.8,0.7*37
$GPVTG,,T,,M,0.0,N,0.0,K,A*23
$GPDTM,P90,,0000.000026,S,00000.000000,E,0.976,W84*4C
$GPRMC,000052.00,A,4814.999483,N,01129.999643,E,0.0,,230721,0.4,E,A*11
$GPGGA,000052.00,4814.999483,N,01129.999643,E,1,11,0.8,-43.2,M,47.0,M,,*74
$GPGSV,3,1,11,02,40,080,33,05,16,216,33,10,75,122,33,12,14,203,33*77
$GPGSV,3,2,11,13,04,025,33,15,04,164,33,21,09,270,33,24,51,278,33*7A
$GPGSV,3,3,11,26,13,149,33,29,56,296,33,30,29,240,33*48
$GLGSV,1,1,0,1*48
$GAGSV,1,1,0,7*43
$PQGSV,1,1,01,195,02,042,*67
$PQGSV,1,1,0,0*43
$GPGSA,A,3,02,05,10,12,13,15,21,24,26,29,30,,1.1,0.8,0.7*37
$GPVTG,,T,,M,0.0,N,0.0,K,A*23
$GPDTM,P90,,0000.000026,S,00000.000000,E,0.976,W84*4C
$GPRMC,000053.00,A,4814.999483,N,01129.999647,E,0.0,,230721,0.4,E,A*14
$GPGGA,000053.00,4814.999483,N,01129.999647,E,1,11,0.8,-43.2,M,47.0,M,,*71
$GPGSV,3,1,11,02,40,080,33,05,16,216,33,10,75,122,33,12,14,203,33*77
$GPGSV,3,2,11,13,04,025,33,15,04,164,33,21,09,270,33,24,51,278,33*7A
$GPGSV,3,3,11,26,13,149,33,29,56,296,33,30,29,240,33*48
$GLGSV,1,1,0,1*48
$GAGSV,1,1,0,7*43
$PQGSV,1,1,01,195,02,042,*67
$PQGSV,1,1,0,0*43
$GPGSA,A,3,02,05,10,12,13,15,21,24,26,29,30,,1.1,0.8,0.7*37
$GPVTG,,T,,M,0.0,N,0.0,K,A*23
$GPDTM,P90,,0000.000026,S,00000.000000,E,0.976,W84*4C
$GPRMC,000054.00,A,4814.999483,N,01129.999647,E,0.0,,230721,0.4,E,A*13
$GPGGA,000054.00,4814.999483,N,01129.999647,E,1,11,0.8,-43.2,M,47.0,M,,*76
$GPGSV,3,1,11,02,40,080,33,05,16,216,33,10,75,122,33,12,14,203,33*77
$GPGSV,3,2,11,13,04,025,33,15,04,164,33,21,09,270,33,24,51,278,33*7A
$GPGSV,3,3,11,26,13,149,33,29,56,296,33,30,29,240,33*48
$GLGSV,1,1,0,1*48
$GAGSV,1,1,0,7*43
$PQGSV,1,1,01,195,02,042,*67
$PQGSV,1,1,0,0*43
$GPGSA,A,3,02,05,10,12,13,15,21,24,26,29,30,,1.1,0.8,0.7*37
$GPVTG,,T,,M,0.0,N,0.0,K,A*23
$GPDTM,P90,,0000.000026,S,00000.000000,E,0.976,W84*4C
$GPRMC,000055.00,A,4814.999482,N,01129.999647,E,0.0,,230721,0.4,E,A*13
$GPGGA,000055.00,4814.999482,N,01129.999647,E,1,11,0.8,-43.2,M,47.0,M,,*76
$GPGSV,3,1,11,02,40,080,33,05,16,216,33,10,75,122,33,12,14,203,33*77
$GPGSV,3,2,11,13,04,025,33,15,04,164,33,21,09,270,33,24,51,278,33*7A
$GPGSV,3,3,11,26,13,149,33,29,56,296,33,30,29,240,33*48
$GLGSV,1,1,0,1*48
$GAGSV,1,1,0,7*43
$PQGSV,1,1,01,195,02,042,*67
$PQGSV,1,1,0,0*43
$GPGSA,A,3,02,05,10,12,13,15,21,24,26,29,30,,1.1,0.8,0.7*37
$GPVTG,,T,,M,0.0,N,0.0,K,A*23
$GPDTM,P90,,0000.000026,S,00000.000000,E,0.976,W84*4C
$GPRMC,000056.00,A,4814.999482,N,01129.999648,E,0.0,,230721,0.4,E,A*1F
$GPGGA,000056.00,4814.999482,N,01129.999648,E,1,11,0.8,-43.2,M,47.0,M,,*7A
$GPGSV,3,1,11,02,40,080,33,05,16,216,33,10,75,122,33,12,14,203,33*77
$GPGSV,3,2,11,13,04,025,33,15,04,164,33,21,09,270,33,24,51,278,33*7A
$GPGSV,3,3,11,26,13,149,33,29,56,296,33,30,29,240,33*48
$GLGSV,1,1,0,1*48
$GAGSV,1,1,0,7*43
$PQGSV,1,1,01,195,02,042,*67
$PQGSV,1,1,0,0*43
$GPGSA,A,3,02,05,10,12,13,15,21,24,26,29,30,,1.1,0.8,0.7*37
$GPVTG,,T,,M,0.0,N,0.0,K,A*23
$GPDTM,P90,,0000.000026,S,00000.000000,E,0.976,W84*4C
$GPRMC,000057.00,A,4814.999482,N,01129.999650,E,0.0,,230721,0.4,E,A*17
$GPGGA,000057.00,4814.999482,N,01129.999650,E,1,11,0.8,-43.2,M,47.0,M,,*72
$GPGSV,3,1,11,02,40,080,33,05,16,216,33,10,75,122,33,12,14,203,33*77
$GPGSV,3,2,11,13,04,025,33,15,04,164,33,21,09,270,33,24,51,278,33*7A
$GPGSV,3,3,11,26,13,149,33,29,56,296,33,30,29,240,33*48
$GLGSV,1,1,0,1*48
$GAGSV,1,1,0,7*43
$PQGSV,1,1,01,195,02,042,*67
$PQGSV,1,1,0,0*43
$GPGSA,A,3,02,05,10,12,13,15,21,24,26,29,30,,1.1,0.8,0.7*37
$GPVTG,,T,,M,0.0,N,0.0,K,A*23
$GPDTM,P90,,0000.000026,S,00000.000000,E,0.976,W84*4C
$GPRMC,000058.00,A,4814.999479,N,01129.999650,E,0.0,,230721,0.4,E,A*1C
$GPGGA,000058.00,4814.999479,N,01129.999650,E,1,11,0.8,-43.2,M,47.0,M,,*79
$GPGSV,3,1,11,02,40,080,33,05,16,216,33,10,75,122,33,12,14,203,33*77
$GPGSV,3,2,11,13,04,025,34,15,04,164,33,21,09,270,33,24,51,278,33*7D
$GPGSV,3,3,11,26,13,149,33,29,56,296,33,30,29,240,33*48
$GLGSV,1,1,0,1*48
$GAGSV,1,1,0,7*43
$PQGSV,1,1,01,195,02,042,*67
$PQGSV,1,1,0,0*43
$GPGSA,A,3,02,05,10,12,13,15,21,24,26,29,30,,1.1,0.8,0.7*37
$GPVTG,,T,,M,0.0,N,0.0,K,A*23
$GPDTM,P90,,0000.000026,S,00000.000000,E,0.976,W84*4C
$GPRMC,000059.00,A,4814.999477,N,01129.999650,E,0.0,,230721,0.4,E,A*13
$GPGGA,000059.00,4814.999477,N,01129.999650,E,1,11,0.8,-43.2,M,47.0,M,,*76
$GPGSV,3,1,11,02,40,080,33,05,16,216,33,10,75,122,33,12,14,203,33*77
$GPGSV,3,2,11,13,04,025,33,15,04,164,33,21,09,270,33,24,51,278,33*7A
$GPGSV,3,3,11,26,13,149,33,29,56,296,33,30,29,240,33*48
$GLGSV,1,1,0,1*48
$GAGSV,1,1,0,7*43
$PQGSV,1,1,01,195,02,042,*67
$PQGSV,1,1,0,0*43
$GPGSA,A,3,02,05,10,12,13,15,21,24,26,29,30,,1.1,0.8,0.7*37
$GPVTG,,T,,M,0.0,N,0.0,K,A*23
$GPDTM,P90,,0000.000026,S,00000.000000,E,0.976,W84*4C
$GPRMC,000100.00,A,4814.999474,N,01129.999651,E,0.0,,230721,0.4,E,A*1C
$GPGGA,000100.00,4814.999474,N,01129.999651,E,1,11,0.8,-43.2,M,47.0,M,,*79
$GPGSV,3,1,11,02,40,080,33,05,16,216,33,10,75,122,33,12,14,203,33*77
$GPGSV,3,2,11,13,04,025,33,15,04,164,33,21,09,270,33,24,51,278,33*7A
$GPGSV,3,3,11,26,13,149,33,29,56,296,33,30,29,240,33*48
$GLGSV,1,1,0,1*48
$GAGSV,1,1,0,7*43
$PQGSV,1,1,01,195,02,042,*67
$PQGSV,1,1,0,0*43
$GPGSA,A,3,02,05,10,12,13,15,21,24,26,29,30,,1.1,0.8,0.7*37
$GPVTG,,T,,M,0.0,N,0.0,K,A*23
$GPDTM,P90,,0000.000026,S,00000.000000,E,0.976,W84*4C
$GPRMC,000101.00,A,4814.999473,N,01129.999651,E,0.0,,230721,0.4,E,A*1A
$GPGGA,000101.00,4814.999473,N,01129.999651,E,1,11,0.8,-43.2,M,47.0,M,,*7F
$GPGSV,3,1,11,02,40,080,33,05,16,216,33,10,75,122,33,12,14,203,33*77
$GPGSV,3,2,11,13,04,025,33,15,04,164,33,21,09,270,33,24,51,278,33*7A
$GPGSV,3,3,11,26,13,149,33,29,56,296,33,30,29,240,33*48
$GLGSV,1,1,0,1*48
$GAGSV,1,1,0,7*43
$PQGSV,1,1,01,195,02,042,*67
$PQGSV,1,1,0,0*43
$GPGSA,A,3,02,05,10,12,13,15,21,24,26,29,30,,1.1,0.8,0.7*37
$GPVTG,,T,,M,0.0,N,0.0,K,A*23
$GPDTM,P90,,0000.000026,S,00000.000000,E,0.976,W84*4C
$GPRMC,000102.00,A,4814.999473,N,01129.999650,E,0.0,,230721,0.4,E,A*18
$GPGGA,000102.00,4814.999473,N,01129.999650,E,1,11,0.8,-43.2,M,47.0,M,,*7D
$GPGSV,3,1,11,02,40,080,33,05,16,216,33,10,75,122,33,12,14,203,33*77
$GPGSV,3,2,11,13,04,025,33,15,04,164,33,21,09,270,33,24,51,278,33*7A
$GPGSV,3,3,11,26,13,149,33,29,56,296,32,30,29,240,33*49
$GLGSV,1,1,0,1*48
$GAGSV,1,1,0,7*43
$PQGSV,1,1,01,195,02,042,*67
$PQGSV,1,1,0,0*43
$GPGSA,A,3,02,05,10,12,13,15,21,24,26,29,30,,1.1,0.8,0.7*37
$GPVTG,,T,,M,0.0,N,0.0,K,A*23
$GPDTM,P90,,0000.000026,S,00000.000000,E,0.976,W84*4C
$GPRMC,000103.00,A,4814.999471,N,01129.999648,E,0.0,,230721,0.4,E,A*12
$GPGGA,000103.00,4814.999471,N,01129.999648,E,1,11,0.8,-43.2,M,47.0,M,,*77
$GPGSV,3,1,11,02,40,080,33,05,16,216,33,10,75,122,33,12,14,203,33*77
$GPGSV,3,2,11,13,04,025,33,15,04,164,33,21,09,270,33,24,51,278,33*7A
$GPGSV,3,3,11,26,13,149,33,29,56,296,33,30,29,240,33*48
$GLGSV,1,1,0,1*48
$GAGSV,1,1,0,7*43
$PQGSV,1,1,01,195,02,042,*67
$PQGSV,1,1,0,0*43
$GPGSA,A,3,02,05,10,12,13,15,21,24,26,29,30,,1.1,0.8,0.7*37
$GPVTG,,T,,M,0.0,N,0.0,K,A*23
$GPDTM,P90,,0000.000026,S,00000.000000,E,0.976,W84*4C
$GPRMC,000104.00,A,4814.999470,N,01129.999646,E,0.0,,230721,0.4,E,A*1A
$GPGGA,000104.00,4814.999470,N,01129.999646,E,1,11,0.8,-43.2,M,47.0,M,,*7F
$GPGSV,3,1,11,02,40,080,33,05,16,216,33,10,75,122,33,12,14,203,33*77
$GPGSV,3,2,11,13,04,025,33,15,04,164,33,21,09,270,33,24,51,278,33*7A
$GPGSV,3,3,11,26,13,149,33,29,56,296,33,30,29,240,33*48
$GLGSV,1,1,0,1*48
$GAGSV,1,1,0,7*43
$PQGSV,1,1,01,195,02,042,*67
$PQGSV,1,1,0,0*43
$GPGSA,A,3,02,05,10,12,13,15,21,24,26,29,30,,1.1,0.8,0.7*37
$GPVTG,,T,,M,0.0,N,0.0,K,A*23
$GPDTM,P90,,0000.000026,S,00000.000000,E,0.976,W84*4C
$GPRMC,000105.00,A,4814.999467,N,01129.999644,E,0.0,,230721,0.4,E,A*1F
$GPGGA,000105.00,4814.999467,N,01129.999644,E,1,11,0.8,-43.2,M,47.0,M,,*7A
$GPGSV,3,1,11,02,40,080,33,05,16,216,33,10,75,122,33,12,14,203,33*77
$GPGSV,3,2,11,13,04,025,34,15,04,164,33,21,09,270,33,24,51,278,33*7D
$GPGSV,3,3,11,26,13,149,33,29,56,296,33,30,29,240,33*48
$GLGSV,1,1,0,1*48
$GAGSV,1,1,0,7*43
$PQGSV,1,1,01,195,02,042,*67
$PQGSV,1,1,0,0*43
$GPGSA,A,3,02,05,10,12,13,15,21,24,26,29,30,,1.1,0.8,0.7*37
$GPVTG,,T,,M,0.0,N,0.0,K,A*23
$GPDTM,P90,,0000.000026,S,00000.000000,E,0.976,W84*4C
$GPRMC,000106.00,A,4814.999467,N,01129.999647,E,0.0,,230721,0.4,E,A*1F
$GPGGA,000106.00,4814.999467,N,01129.999647,E,1,11,0.8,-43.2,M,47.0,M,,*7A
$GPGSV,3,1,11,02,40,080,33,05,16,216,33,10,75,122,33,12,14,203,33*77
$GPGSV,3,2,11,13,04,025,33,15,04,164,33,21,09,270,33,24,51,278,33*7A
$GPGSV,3,3,11,26,13,149,33,29,56,296,33,30,29,240,33*48
$GLGSV,1,1,0,1*48
$GAGSV,1,1,0,7*43
$PQGSV,1,1,01,195,02,042,*67
$PQGSV,1,1,0,0*43
$GPGSA,A,3,02,05,10,12,13,15,21,24,26,29,30,,1.1,0.8,0.7*37
$GPVTG,,T,,M,0.0,N,0.0,K,A*23
$GPDTM,P90,,0000.000026,S,00000.000000,E,0.976,W84*4C
$GPRMC,000107.00,A,4814.999465,N,01129.999648,E,0.0,,230721,0.4,E,A*13
$GPGGA,000107.00,4814.999465,N,01129.999648,E,1,11,0.8,-43.2,M,47.0,M,,*76
$GPGSV,3,1,11,02,40,080,33,05,16,216,33,10,75,122,33,12,14,203,33*77
$GPGSV,3,2,11,13,04,025,33,15,04,164,33,21,09,270,33,24,51,278,33*7A
$GPGSV,3,3,11,26,13,149,33,29,56,296,33,30,29,240,33*48
$GLGSV,1,1,0,1*48
$GAGSV,1,1,0,7*43
$PQGSV,1,1,01,195,02,042,*67
$PQGSV,1,1,0,0*43
$GPGSA,A,3,02,05,10,12,13,15,21,24,26,29,30,,1.1,0.8,0.7*37
$GPVTG,,T,,M,0.0,N,0.0,K,A*23
$GPDTM,P90,,0000.000026,S,00000.000000,E,0.976,W84*4C
$GPRMC,000108.00,A,4814.999464,N,01129.999650,E,0.0,,230721,0.4,E,A*14
$GPGGA,000108.00,4814.999464,N,01129.999650,E,1,11,0.8,-43.2,M,47.0,M,,*71
$GPGSV,3,1,11,02,40,080,33,05,16,216,33,10,75,122,33,12,14,203,33*77
$GPGSV,3,2,11,13,04,025,33,15,04,164,33,21,09,270,33,24,51,278,33*7A
$GPGSV,3,3,11,26,13,149,33,29,56,296,33,30,29,240,33*48
$GLGSV,1,1,0,1*48
$GAGSV,1,1,0,7*43
$PQGSV,1,1,01,195,02,042,*67
$PQGSV,1,1,0,0*43
$GPGSA,A,3,02,05,10,12,13,15,21,24,26,29,30,,1.1,0.8,0.7*37
$GPVTG,,T,,M,0.0,N,0.0,K,A*23
$GPDTM,P90,,0000.000026,S,00000.000000,E,0.976,W84*4C
$GPRMC,000109.00,A,4814.999462,N,01129.999651,E,0.0,,230721,0.4,E,A*12
$GPGGA,000109.00,4814.999462,N,01129.999651,E,1,11,0.8,-43.2,M,47.0,M,,*77
$GPGSV,3,1,11,02,40,080,33,05,16,216,33,10,75,122,33,12,14,203,33*77
$GPGSV,3,2,11,13,04,025,33,15,04,164,33,21,09,270,33,24,51,278,33*7A
$GPGSV,3,3,11,26,13,149,33,29,56,296,33,30,29,240,33*48
$GLGSV,1,1,0,1*48
$GAGSV,1,1,0,7*43
$PQGSV,1,1,01,195,02,042,*67
$PQGSV,1,1,0,0*43
$GPGSA,A,3,02,05,10,12,13,15,21,24,26,29,30,,1.1,0.8,0.7*37
$GPVTG,,T,,M,0.0,N,0.0,K,A*23
$GPDTM,P90,,0000.000026,S,00000.000000,E,0.976,W84*4C
$GPRMC,000110.00,A,4814.999461,N,01129.999650,E,0.0,,230721,0.4,E,A*18
$GPGGA,000110.00,4814.999461,N,01129.999650,E,1,11,0.8,-43.2,M,47.0,M,,*7D
$GPGSV,3,1,11,02,40,080,33,05,16,216,33,10,75,122,33,12,14,203,33*77
$GPGSV,3,2,11,13,04,025,33,15,04,164,33,21,09,270,33,24,51,278,33*7A
$GPGSV,3,3,11,26,13,149,33,29,56,296,33,30,29,240,33*48
$GLGSV,1,1,0,1*48
$GAGSV,1,1,0,7*43
$PQGSV,1,1,01,195,02,042,*67
$PQGSV,1,1,0,0*43
$GPGSA,A,3,02,05,10,12,13,15,21,24,26,29,30,,1.1,0.8,0.7*37
$GPVTG,,T,,M,0.0,N,0.0,K,A*23
$GPDTM,P90,,0000.000026,S,00000.000000,E,0.976,W84*4C
$GPRMC,000111.00,A,4814.999460,N,01129.999650,E,0.0,,230721,0.4,E,A*18
$GPGGA,000111.00,4814.999460,N,01129.999650,E,1,11,0.8,-43.2,M,47.0,M,,*7D
$GPGSV,3,1,11,02,40,080,33,05,16,216,33,10,75,122,33,12,14,203,33*77
$GPGSV,3,2,11,13,04,025,33,15,04,164,33,21,09,270,33,24,51,278,33*7A
$GPGSV,3,3,11,26,13,149,33,29,56,296,33,30,29,240,33*48
$GLGSV,1,1,0,1*48
$GAGSV,1,1,0,7*43
$PQGSV,1,1,01,195,02,042,*67
$PQGSV,1,1,0,0*43
$GPGSA,A,3,02,05,10,12,13,15,21,24,26,29,30,,1.1,0.8,0.7*37
$GPVTG,,T,,M,0.0,N,0.0,K,A*23
$GPDTM,P90,,0000.000026,S,00000.000000,E,0.976,W84*4C
$GPRMC,000112.00,A,4814.999460,N,01129.999651,E,0.0,,230721,0.4,E,A*1A
$GPGGA,000112.00,4814.999460,N,01129.999651,E,1,11,0.8,-43.2,M,47.0,M,,*7F
$GPGSV,3,1,11,02,40,080,33,05,16,216,33,10,75,122,33,12,14,203,33*77
$GPGSV,3,2,11,13,04,025,33,15,04,164,33,21,09,270,33,24,51,278,33*7A
$GPGSV,3,3,11,26,13,149,33,29,56,296,33,30,29,240,33*48
$GLGSV,1,1,0,1*48
$GAGSV,1,1,0,7*43
$PQGSV,1,1,01,195,02,042,*67
$PQGSV,1,1,0,0*43
$GPGSA,A,3,02,05,10,12,13,15,21,24,26,29,30,,1.1,0.8,0.7*37
$GPVTG,,T,,M,0.0,N,0.0,K,A*23
$GPDTM,P90,,0000.000026,S,00000.000000,E,0.976,W84*4C
$GPRMC,000113.00,A,4814.999461,N,01129.999651,E,0.0,,230721,0.4,E,A*1A
$GPGGA,000113.00,4814.999461,N,01129.999651,E,1,11,0.8,-43.2,M,47.0,M,,*7F
$GPGSV,3,1,11,02,40,080,33,05,16,216,32,10,75,122,33,12,14,203,33*76
$GPGSV,3,2,11,13,04,025,33,15,04,164,33,21,09,270,33,24,51,278,33*7A
$GPGSV,3,3,11,26,13,149,33,29,56,296,33,30,29,240,33*48
$GLGSV,1,1,0,1*48
$GAGSV,1,1,0,7*43
$PQGSV,1,1,01,195,02,042,*67
$PQGSV,1,1,0,0*43
$GPGSA,A,3,02,05,10,12,13,15,21,24,26,29,30,,1.1,0.8,0.7*37
$GPVTG,,T,,M,0.0,N,0.0,K,A*23
$GPDTM,P90,,0000.000026,S,00000.000000,E,0.976,W84*4C
$GPRMC,000114.00,A,4814.999459,N,01129.999651,E,0.0,,230721,0.4,E,A*16
$GPGGA,000114.00,4814.999459,N,01129.999651,E,1,11,0.8,-43.2,M,47.0,M,,*73
$GPGSV,3,1,11,02,40,080,33,05,16,216,33,10,75,122,33,12,14,203,33*77
$GPGSV,3,2,11,13,04,025,33,15,04,164,33,21,09,270,33,24,51,278,33*7A
$GPGSV,3,3,11,26,13,149,33,29,56,296,33,30,29,240,33*48
$GLGSV,1,1,0,1*48
$GAGSV,1,1,0,7*43
$PQGSV,1,1,01,195,02,042,*67
$PQGSV,1,1,0,0*43
$GPGSA,A,3,02,05,10,12,13,15,21,24,26,29,30,,1.1,0.8,0.7*37
$GPVTG,,T,,M,0.0,N,0.0,K,A*23
$GPDTM,P90,,0000.000026,S,00000.000000,E,0.976,W84*4C
$GPRMC,000115.00,A,4814.999459,N,01129.999651,E,0.0,,230721,0.4,E,A*17
$GPGGA,000115.00,4814.999459,N,01129.999651,E,1,11,0.8,-43.2,M,47.0,M,,*72
$GPGSV,3,1,11,02,40,080,33,05,16,216,33,10,75,122,33,12,14,203,33*77
$GPGSV,3,2,11,13,04,025,33,15,04,164,33,21,09,270,33,24,51,278,33*7A
$GPGSV,3,3,11,26,13,149,34,29,56,296,33,30,29,240,33*4F
$GLGSV,1,1,0,1*48
$GAGSV,1,1,0,7*43
$PQGSV,1,1,01,195,02,042,*67
$PQGSV,1,1,0,0*43
$GPGSA,A,3,02,05,10,12,13,15,21,24,26,29,30,,1.1,0.8,0.7*37
$GPVTG,,T,,M,0.0,N,0.0,K,A*23
$GPDTM,P90,,0000.000026,S,00000.000000,E,0.976,W84*4C
$GPRMC,000116.00,A,4814.999458,N,01129.999652,E,0.0,,230721,0.4,E,A*16
$GPGGA,000116.00,4814.999458,N,01129.999652,E,1,11,0.8,-43.2,M,47.0,M,,*73
$GPGSV,3,1,11,02,40,080,33,05,16,216,33,10,75,122,33,12,14,203,33*77
$GPGSV,3,2,11,13,04,025,33,15,04,164,33,21,09,270,33,24,51,278,33*7A
$GPGSV,3,3,11,26,13,149,33,29,56,296,33,30,29,240,33*48
$GLGSV,1,1,0,1*48
$GAGSV,1,1,0,7*43
$PQGSV,1,1,01,195,02,042,*67
$PQGSV,1,1,0,0*43
$GPGSA,A,3,02,05,10,12,13,15,21,24,26,29,30,,1.1,0.8,0.7*37
$GPVTG,,T,,M,0.0,N,0.0,K,A*23
$GPDTM,P90,,0000.000026,S,00000.000000,E,0.976,W84*4C
$GPRMC,000117.00,A,4814.999458,N,01129.999651,E,0.0,,230721,0.4,E,A*14
$GPGGA,000117.00,4814.999458,N,01129.999651,E,1,11,0.8,-43.2,M,47.0,M,,*71
$GPGSV,3,1,11,02,40,080,33,05,16,216,33,10,75,122,33,12,14,203,33*77
$GPGSV,3,2,11,13,04,025,33,15,04,164,33,21,09,270,33,24,51,278,33*7A
$GPGSV,3,3,11,26,13,149,33,29,56,296,33,30,29,240,33*48
$GLGSV,1,1,0,1*48
$GAGSV,1,1,0,7*43
$PQGSV,1,1,01,195,02,042,*67
$PQGSV,1,1,0,0*43
$GPGSA,A,3,02,05,10,12,13,15,21,24,26,29,30,,1.1,0.8,0.7*37
$GPVTG,,T,,M,0.0,N,0.0,K,A*23
$GPDTM,P90,,0000.000026,S,00000.000000,E,0.976,W84*4C
$GPRMC,000118.00,A,4814.999456,N,01129.999651,E,0.0,,230721,0.4,E,A*15
$GPGGA,000118.00,4814.999456,N,01129.999651,E,1,11,0.8,-43.3,M,47.0,M,,*71
$GPGSV,3,1,11,02,40,080,33,05,16,216,33,10,75,122,33,12,14,203,33*77
$GPGSV,3,2,11,13,04,025,33,15,04,164,33,21,09,270,33,24,51,278,33*7A
$GPGSV,3,3,11,26,13,149,33,29,56,296,33,30,29,240,33*48
$GLGSV,1,1,0,1*48
$GAGSV,1,1,0,7*43
$PQGSV,1,1,01,195,02,042,*67
$PQGSV,1,1,0,0*43
$GPGSA,A,3,02,05,10,12,13,15,21,24,26,29,30,,1.1,0.8,0.7*37
$GPVTG,,T,,M,0.0,N,0.0,K,A*23
$GPDTM,P90,,0000.000026,S,00000.000000,E,0.976,W84*4C
$GPRMC,000119.00,A,4814.999456,N,01129.999651,E,0.0,,230721,0.4,E,A*14
$GPGGA,000119.00,4814.999456,N,01129.999651,E,1,11,0.8,-43.3,M,47.0,M,,*70
$GPGSV,3,1,11,02,40,080,33,05,16,216,33,10,75,122,33,12,14,203,33*77
$GPGSV,3,2,11,13,04,025,33,15,04,164,33,21,09,270,33,24,51,278,33*7A
$GPGSV,3,3,11,26,13,149,33,29,56,296,33,30,29,240,33*48
$GLGSV,1,1,0,1*48
$GAGSV,1,1,0,7*43
$PQGSV,1,1,01,195,02,042,*67
$PQGSV,1,1,0,0*43
$GPGSA,A,3,02,05,10,12,13,15,21,24,26,29,30,,1.1,0.8,0.7*37
$GPVTG,,T,,M,0.0,N,0.0,K,A*23
$GPDTM,P90,,0000.000026,S,00000.000000,E,0.976,W84*4C
$GPRMC,000120.00,A,4814.999458,N,01129.999653,E,0.0,,230721,0.4,E,A*12
$GPGGA,000120.00,4814.999458,N,01129.999653,E,1,11,0.8,-43.3,M,47.0,M,,*76
$GPGSV,3,1,11,02,40,080,33,05,16,216,33,10,75,122,33,12,14,203,33*77
$GPGSV,3,2,11,13,04,025,33,15,04,164,33,21,09,270,33,24,51,278,33*7A
$GPGSV,3,3,11,26,13,149,33,29,56,296,33,30,29,240,33*48
$GLGSV,1,1,0,1*48
$GAGSV,1,1,0,7*43
$PQGSV,1,1,01,195,02,042,*67
$PQGSV,1,1,0,0*43
$GPGSA,A,3,02,05,10,12,13,15,21,24,26,29,30,,1.1,0.8,0.7*37
$GPVTG,,T,,M,0.0,N,0.0,K,A*23
$GPDTM,P90,,0000.000026,S,00000.000000,E,0.976,W84*4C
$GPRMC,000121.00,A,4814.999456,N,01129.999654,E,0.0,,230721,0.4,E,A*1A
$GPGGA,000121.00,4814.999456,N,01129.999654,E,1,11,0.8,-43.3,M,47.0,M,,*7E
$GPGSV,3,1,11,02,40,080,33,05,16,216,33,10,75,122,33,12,14,203,33*77
$GPGSV,3,2,11,13,04,025,33,15,04,164,33,21,09,270,33,24,51,278,33*7A
$GPGSV,3,3,11,26,13,149,33,29,56,296,33,30,29,240,33*48
$GLGSV,1,1,0,1*48
$GAGSV,1,1,0,7*43
$PQGSV,1,1,01,195,02,042,*67
$PQGSV,1,1,0,0*43
$GPGSA,A,3,02,05,10,12,13,15,21,24,26,29,30,,1.1,0.8,0.7*37
$GPVTG,,T,,M,0.0,N,0.0,K,A*23
$GPDTM,P90,,0000.000026,S,00000.000000,E,0.976,W84*4C
$GPRMC,000122.00,A,4814.999456,N,01129.999656,E,0.0,,230721,0.4,E,A*1B
$GPGGA,000122.00,4814.999456,N,01129.999656,E,1,11,0.8,-43.3,M,47.0,M,,*7F
$GPGSV,3,1,11,02,40,080,33,05,16,216,33,10,75,122,33,12,14,203,33*77
$GPGSV,3,2,11,13,04,025,33,15,04,164,33,21,09,270,33,24,51,278,33*7A
$GPGSV,3,3,11,26,13,149,34,29,56,296,33,30,29,240,33*4F
$GLGSV,1,1,0,1*48
$GAGSV,1,1,0,7*43
$PQGSV,1,1,01,195,02,042,*67
$PQGSV,1,1,0,0*43
$GPGSA,A,3,02,05,10,12,13,15,21,24,26,29,30,,1.1,0.8,0.7*37
$GPVTG,,T,,M,0.0,N,0.0,K,A*23
$GPDTM,P90,,0000.000026,S,00000.000000,E,0.976,W84*4C
$GPRMC,000123.00,A,4814.999456,N,01129.999656,E,0.0,,230721,0.4,E,A*1A
$GPGGA,000123.00,4814.999456,N,01129.999656,E,1,11,0.8,-43.3,M,47.0,M,,*7E
$GPGSV,3,1,11,02,40,080,33,05,16,216,33,10,75,122,33,12,14,203,33*77
$GPGSV,3,2,11,13,04,025,33,15,04,164,33,21,09,270,33,24,51,278,34*7D
$GPGSV,3,3,11,26,13,149,33,29,56,296,33,30,29,240,33*48
$GLGSV,1,1,0,1*48
$GAGSV,1,1,0,7*43
$PQGSV,1,1,01,195,02,042,*67
$PQGSV,1,1,0,0*43
$GPGSA,A,3,02,05,10,12,13,15,21,24,26,29,30,,1.1,0.8,0.7*37
$GPVTG,,T,,M,0.0,N,0.0,K,A*23
$GPDTM,P90,,0000.000026,S,00000.000000,E,0.976,W84*4C
$GPRMC,000124.00,A,4814.999456,N,01129.999653,E,0.0,,230721,0.4,E,A*18
$GPGGA,000124.00,4814.999456,N,01129.999653,E,1,11,0.8,-43.3,M,47.0,M,,*7C
$GPGSV,3,1,11,02,40,080,33,05,16,216,33,10,75,122,33,12,14,203,33*77
$GPGSV,3,2,11,13,04,025,33,15,04,164,33,21,09,270,33,24,51,278,33*7A
$GPGSV,3,3,11,26,13,149,33,29,56,296,33,30,29,240,33*48
$GLGSV,1,1,0,1*48
$GAGSV,1,1,0,7*43
$PQGSV,1,1,01,195,02,042,*67
$PQGSV,1,1,0,0*43
$GPGSA,A,3,02,05,10,12,13,15,21,24,26,29,30,,1.1,0.8,0.7*37
$GPVTG,,T,,M,0.0,N,0.0,K,A*23
$GPDTM,P90,,0000.000026,S,00000.000000,E,0.976,W84*4C
$GPRMC,000125.00,A,4814.999453,N,01129.999649,E,0.0,,230721,0.4,E,A*17
$GPGGA,000125.00,4814.999453,N,01129.999649,E,1,11,0.8,-43.3,M,47.0,M,,*73
$GPGSV,3,1,11,02,40,080,33,05,16,216,33,10,75,122,33,12,14,203,33*77
$GPGSV,3,2,11,13,04,025,33,15,04,164,33,21,09,270,33,24,51,278,33*7A
$GPGSV,3,3,11,26,13,149,33,29,56,296,33,30,29,240,33*48
$GLGSV,1,1,0,1*48
$GAGSV,1,1,0,7*43
$PQGSV,1,1,01,195,02,042,*67
$PQGSV,1,1,0,0*43
$GPGSA,A,3,02,05,10,12,13,15,21,24,26,29,30,,1.1,0.8,0.7*37
$GPVTG,,T,,M,0.0,N,0.0,K,A*23
$GPDTM,P90,,0000.000026,S,00000.000000,E,0.976,W84*4C
$GPRMC,000126.00,A,4814.999452,N,01129.999648,E,0.0,,230721,0.4,E,A*14
$GPGGA,000126.00,4814.999452,N,01129.999648,E,1,11,0.8,-43.3,M,47.0,M,,*70
$GPGSV,3,1,11,02,40,080,33,05,16,216,33,10,75,122,33,12,14,203,33*77
$GPGSV,3,2,11,13,04,025,33,15,04,164,33,21,09,270,33,24,51,278,33*7A
$GPGSV,3,3,11,26,13,149,33,29,56,296,33,30,29,240,33*48
$GLGSV,1,1,0,1*48
$GAGSV,1,1,0,7*43
$PQGSV,1,1,01,195,02,042,*67
$PQGSV,1,1,0,0*43
$GPGSA,A,3,02,05,10,12,13,15,21,24,26,29,30,,1.1,0.8,0.7*37
$GPVTG,,T,,M,0.0,N,0.0,K,A*23
$GPDTM,P90,,0000.000026,S,00000.000000,E,0.976,W84*4C
$GPRMC,000127.00,A,4814.999450,N,01129.999648,E,0.0,,230721,0.4,E,A*17
$GPGGA,000127.00,4814.999450,N,01129.999648,E,1,11,0.8,-43.3,M,47.0,M,,*73
$GPGSV,3,1,11,02,40,080,33,05,16,216,33,10,75,122,33,12,14,203,33*77
$GPGSV,3,2,11,13,04,025,33,15,04,164,33,21,09,270,33,24,51,278,33*7A
$GPGSV,3,3,11,26,13,149,33,29,56,296,33,30,29,240,33*48
$GLGSV,1,1,0,1*48
$GAGSV,1,1,0,7*43
$PQGSV,1,1,01,195,02,042,*67
$PQGSV,1,1,0,0*43
$GPGSA,A,3,02,05,10,12,13,15,21,24,26,29,30,,1.1,0.8,0.7*37
$GPVTG,,T,,M,0.0,N,0.0,K,A*23
$GPDTM,P90,,0000.000026,S,00000.000000,E,0.976,W84*4C
$GPRMC,000128.00,A,4814.999447,N,01129.999648,E,0.0,,230721,0.4,E,A*1E
$GPGGA,000128.00,4814.999447,N,01129.999648,E,1,11,0.8,-43.2,M,47.0,M,,*7B
$GPGSV,3,1,11,02,40,080,33,05,16,216,33,10,75,122,33,12,14,203,33*77
$GPGSV,3,2,11,13,04,025,33,15,04,164,33,21,09,270,33,24,51,278,33*7A
$GPGSV,3,3,11,26,13,149,33,29,56,296,33,30,29,240,33*48
$GLGSV,1,1,0,1*48
$GAGSV,1,1,0,7*43
$PQGSV,1,1,01,195,02,042,*67
$PQGSV,1,1,0,0*43
$GPGSA,A,3,02,05,10,12,13,15,21,24,26,29,30,,1.1,0.8,0.7*37
$GPVTG,,T,,M,0.0,N,0.0,K,A*23
$GPDTM,P90,,0000.000026,S,00000.000000,E,0.976,W84*4C
$GPRMC,000129.00,A,4814.999446,N,01129.999647,E,0.0,,230721,0.4,E,A*11
$GPGGA,000129.00,4814.999446,N,01129.999647,E,1,11,0.8,-43.2,M,47.0,M,,*74
$GPGSV,3,1,11,02,40,080,33,05,16,216,33,10,75,122,33,12,14,203,33*77
$GPGSV,3,2,11,13,04,025,28,15,04,164,33,21,09,270,33,24,51,278,33*70
$GPGSV,3,3,11,26,13,149,33,29,56,296,33,30,29,240,33*48
$GLGSV,1,1,0,1*48
$GAGSV,1,1,0,7*43
$PQGSV,1,1,01,195,02,042,*67
$PQGSV,1,1,0,0*43
$GPGSA,A,3,02,05,10,12,13,15,21,24,26,29,30,,1.1,0.8,0.7*37
$GPVTG,,T,,M,0.0,N,0.0,K,A*23
$GPDTM,P90,,0000.000026,S,00000.000000,E,0.976,W84*4C
$GPRMC,000130.00,A,4814.999444,N,01129.999648,E,0.0,,230721,0.4,E,A*14
$GPGGA,000130.00,4814.999444,N,01129.999648,E,1,11,0.8,-43.2,M,47.0,M,,*71
$GPGSV,3,1,11,02,40,080,33,05,16,216,33,10,75,122,33,12,14,203,33*77
$GPGSV,3,2,11,13,04,025,28,15,04,164,33,21,09,270,33,24,51,278,33*70
$GPGSV,3,3,11,26,13,149,33,29,56,296,33,30,29,240,33*48
$GLGSV,1,1,0,1*48
$GAGSV,1,1,0,7*43
$PQGSV,1,1,01,195,02,042,*67
$PQGSV,1,1,0,0*43
$GPGSA,A,3,02,05,10,12,13,15,21,24,26,29,30,,1.3,1.0,0.9*32
$GPVTG,,T,,M,0.0,N,0.0,K,A*23
$GPDTM,P90,,0000.000026,S,00000.000000,E,0.976,W84*4C
$GPRMC,000131.00,A,4814.999445,N,01129.999647,E,0.0,,230721,0.4,E,A*1B
$GPGGA,000131.00,4814.999445,N,01129.999647,E,1,11,1.0,-43.3,M,47.0,M,,*76
$GPGSV,3,1,11,02,40,080,33,05,16,216,33,10,75,122,33,12,14,203,33*77
$GPGSV,3,2,11,13,04,025,24,15,04,164,33,21,09,270,33,24,51,278,34*7B
$GPGSV,3,3,11,26,13,149,33,29,56,296,33,30,29,240,33*48
$GLGSV,1,1,0,1*48
$GAGSV,1,1,0,7*43
$PQGSV,1,1,01,195,02,042,*67
$PQGSV,1,1,0,0*43
$GPGSA,A,3,02,05,10,12,15,21,24,26,29,30,,,1.3,1.0,0.9*30
$GPVTG,,T,,M,0.0,N,0.0,K,A*23
$GPDTM,P90,,0000.000026,S,00000.000000,E,0.976,W84*4C
$GPRMC,000132.00,A,4814.999444,N,01129.999646,E,0.0,,230721,0.4,E,A*18
$GPGGA,000132.00,4814.999444,N,01129.999646,E,1,10,1.0,-43.2,M,47.0,M,,*75
$GPGSV,3,1,11,02,40,080,33,05,16,216,33,10,75,122,33,12,14,203,33*77
$GPGSV,3,2,11,13,04,025,22,15,04,164,33,21,09,270,33,24,51,278,33*7A
$GPGSV,3,3,11,26,13,149,33,29,56,296,33,30,29,240,33*48
$GLGSV,1,1,0,1*48
$GAGSV,1,1,0,7*43
$PQGSV,1,1,01,195,02,042,*67
$PQGSV,1,1,0,0*43
$GPGSA,A,3,02,05,10,12,15,21,24,26,29,30,,,1.3,1.0,0.9*30
$GPVTG,,T,,M,0.0,N,0.0,K,A*23
$GPDTM,P90,,0000.000026,S,00000.000000,E,0.976,W84*4C
$GPRMC,000133.00,A,4814.999442,N,01129.999647,E,0.0,,230721,0.4,E,A*1E
$GPGGA,000133.00,4814.999442,N,01129.999647,E,1,10,1.0,-43.2,M,47.0,M,,*73
$GPGSV,3,1,11,02,40,080,33,05,16,216,33,10,75,122,33,12,14,203,33*77
$GPGSV,3,2,11,13,04,025,21,15,04,164,33,21,09,270,33,24,51,278,33*79
$GPGSV,3,3,11,26,13,149,33,29,56,296,33,30,29,240,33*48
$GLGSV,1,1,0,1*48
$GAGSV,1,1,0,7*43
$PQGSV,1,1,01,195,02,042,*67
$PQGSV,1,1,0,0*43
$GPGSA,A,3,02,05,10,12,15,21,24,26,29,30,,,1.3,1.0,0.9*30
$GPVTG,,T,,M,0.0,N,0.0,K,A*23
$GPDTM,P90,,0000.000026,S,00000.000000,E,0.976,W84*4C
$GPRMC,000134.00,A,4814.999441,N,01129.999647,E,0.0,,230721,0.4,E,A*1A
$GPGGA,000134.00,4814.999441,N,01129.999647,E,1,10,1.0,-43.3,M,47.0,M,,*76
$GPGSV,3,1,11,02,40,080,33,05,16,216,32,10,75,122,33,12,14,203,33*76
$GPGSV,3,2,11,13,04,025,21,15,04,164,33,21,09,270,33,24,51,278,33*79
$GPGSV,3,3,11,26,13,149,33,29,56,296,33,30,29,240,33*48
$GLGSV,1,1,0,1*48
$GAGSV,1,1,0,7*43
$PQGSV,1,1,01,195,02,042,*67
$PQGSV,1,1,0,0*43
$GPGSA,A,3,02,05,10,12,15,21,24,26,29,30,,,1.3,1.0,0.9*30
$GPVTG,,T,,M,0.0,N,0.0,K,A*23
$GPDTM,P90,,0000.000026,S,00000.000000,E,0.976,W84*4C
$GPRMC,000135.00,A,4814.999441,N,01129.999645,E,0.0,,230721,0.4,E,A*19
$GPGGA,000135.00,4814.999441,N,01129.999645,E,1,10,1.0,-43.3,M,47.0,M,,*75
$GPGSV,3,1,11,02,40,080,33,05,16,216,33,10,75,122,33,12,14,203,33*77
$GPGSV,3,2,11,13,04,025,20,15,04,164,33,21,09,270,33,24,51,278,33*78
$GPGSV,3,3,11,26,13,149,33,29,56,296,33,30,29,240,33*48
$GLGSV,1,1,0,1*48
$GAGSV,1,1,0,7*43
$PQGSV,1,1,01,195,02,042,*67
$PQGSV,1,1,0,0*43
$GPGSA,A,3,02,05,10,12,15,21,24,26,29,30,,,1.3,1.0,0.9*30
$GPVTG,,T,,M,0.0,N,0.0,K,A*23
$GPDTM,P90,,0000.000026,S,00000.000000,E,0.976,W84*4C
$GPRMC,000136.00,A,4814.999441,N,01129.999645,E,0.0,,230721,0.4,E,A*1A
$GPGGA,000136.00,4814.999441,N,01129.999645,E,1,10,1.0,-43.3,M,47.0,M,,*76
$GPGSV,3,1,11,02,40,080,33,05,16,216,33,10,75,122,33,12,14,203,33*77
$GPGSV,3,2,11,13,04,025,20,15,04,164,33,21,09,270,33,24,51,278,33*78
$GPGSV,3,3,11,26,13,149,33,29,56,296,33,30,29,240,33*48
$GLGSV,1,1,0,1*48
$GAGSV,1,1,0,7*43
$PQGSV,1,1,01,195,02,042,*67
$PQGSV,1,1,0,0*43
$GPGSA,A,3,02,05,10,12,15,21,24,26,29,30,,,1.3,1.0,0.9*30
$GPVTG,,T,,M,0.0,N,0.0,K,A*23
$GPDTM,P90,,0000.000026,S,00000.000000,E,0.976,W84*4C
$GPRMC,000137.00,A,4814.999441,N,01129.999644,E,0.0,,230721,0.4,E,A*1A
$GPGGA,000137.00,4814.999441,N,01129.999644,E,1,10,1.0,-43.3,M,47.0,M,,*76
$GPGSV,3,1,11,02,40,080,33,05,16,216,33,10,75,122,33,12,14,203,33*77
$GPGSV,3,2,11,13,04,025,20,15,04,164,33,21,09,270,33,24,51,278,33*78
$GPGSV,3,3,11,26,13,149,33,29,56,296,33,30,29,240,32*49
$GLGSV,1,1,0,1*48
$GAGSV,1,1,0,7*43
$PQGSV,1,1,01,195,02,042,*67
$PQGSV,1,1,0,0*43
$GPGSA,A,3,02,05,10,12,15,21,24,26,29,30,,,1.3,1.0,0.9*30
$GPVTG,,T,,M,0.0,N,0.0,K,A*23
$GPDTM,P90,,0000.000026,S,00000.000000,E,0.976,W84*4C
$GPRMC,000138.00,A,4814.999440,N,01129.999642,E,0.0,,230721,0.4,E,A*12
$GPGGA,000138.00,4814.999440,N,01129.999642,E,1,10,1.0,-43.3,M,47.0,M,,*7E
$GPGSV,3,1,11,02,40,080,33,05,16,216,33,10,75,122,33,12,14,203,33*77
$GPGSV,3,2,11,13,04,025,19,15,04,164,33,21,09,270,33,24,51,278,33*72
$GPGSV,3,3,11,26,13,149,33,29,56,296,33,30,29,240,33*48
$GLGSV,1,1,0,1*48
$GAGSV,1,1,0,7*43
$PQGSV,1,1,01,195,02,042,*67
$PQGSV,1,1,0,0*43
$GPGSA,A,3,02,05,10,12,15,21,24,26,29,30,,,1.3,1.0,0.9*30
$GPVTG,,T,,M,0.0,N,0.0,K,A*23
$GPDTM,P90,,0000.000026,S,00000.000000,E,0.976,W84*4C
$GPRMC,000139.00,A,4814.999441,N,01129.999640,E,0.0,,230721,0.4,E,A*10
$GPGGA,000139.00,4814.999441,N,01129.999640,E,1,10,1.0,-43.3,M,47.0,M,,*7C
$GPGSV,3,1,11,02,40,080,33,05,16,216,33,10,75,122,33,12,14,203,33*77
$GPGSV,3,2,11,13,04,025,19,15,04,164,33,21,09,270,33,24,51,278,33*72
$GPGSV,3,3,11,26,13,149,33,29,56,296,33,30,29,240,33*48
$GLGSV,1,1,0,1*48
$GAGSV,1,1,0,7*43
$PQGSV,1,1,01,195,02,042,*67
$PQGSV,1,1,0,0*43
$GPGSA,A,3,02,05,10,12,15,21,24,26,29,30,,,1.3,1.0,0.9*30
$GPVTG,,T,,M,0.0,N,0.0,K,A*23
$GPDTM,P90,,0000.000026,S,00000.000000,E,0.976,W84*4C
$GPRMC,000140.00,A,4814.999440,N,01129.999641,E,0.0,,230721,0.4,E,A*1E
$GPGGA,000140.00,4814.999440,N,01129.999641,E,1,10,1.0,-43.3,M,47.0,M,,*72
