$GPGGA,235942,4815.00000,N,01130.00000,E,3,11,0.78,-46.05,M,46.05,M,,*62
$GPGGA,235943,4815.00000,N,01130.00000,E,3,11,0.78,-46.05,M,46.05,M,,*63
$GPGGA,235944,4815.00000,N,01130.00000,E,3,11,0.78,-46.05,M,46.05,M,,*64
$GPGGA,235945,4815.00000,N,01130.00000,E,3,11,0.78,-46.05,M,46.05,M,,*65
$GPGGA,235946,4815.00000,N,01130.00000,E,3,11,0.78,-46.05,M,46.05,M,,*66
$GPGGA,235947,4815.00000,N,01130.00000,E,3,11,0.78,-46.05,M,46.05,M,,*67
$GPGGA,235948,4815.00000,N,01130.00000,E,3,11,0.78,-46.05,M,46.05,M,,*68
$GPGGA,235949,4815.00000,N,01130.00000,E,3,11,0.78,-46.05,M,46.05,M,,*69
$GPGGA,235950,4815.00000,N,01130.00000,E,3,11,0.78,-46.05,M,46.05,M,,*61
$GPGGA,235951,4815.00000,N,01130.00000,E,3,11,0.78,-46.05,M,46.05,M,,*60
$GPGGA,235952,4815.00000,N,01130.00000,E,3,11,0.78,-46.05,M,46.05,M,,*63
$GPGGA,235953,4815.00000,N,01130.00000,E,3,11,0.78,-46.05,M,46.05,M,,*62
$GPGGA,235954,4815.00000,N,01130.00000,E,3,11,0.78,-46.05,M,46.05,M,,*65
$GPGGA,235955,4815.00000,N,01130.00000,E,3,11,0.78,-46.05,M,46.05,M,,*64
$GPGGA,235956,4815.00000,N,01130.00000,E,3,11,0.78,-46.05,M,46.05,M,,*67
$GPGGA,235957,4815.00000,N,01130.00000,E,3,11,0.78,-46.05,M,46.05,M,,*66
$GPGGA,235958,4815.00000,N,01130.00000,E,3,11,0.78,-46.05,M,46.05,M,,*69
$GPGGA,235959,4815.00000,N,01130.00000,E,3,11,0.78,-46.05,M,46.05,M,,*68
$GPGGA,000000,4815.00000,N,01130.00000,E,3,11,0.78,-46.05,M,46.05,M,,*69
$GPGGA,000001,4815.00000,N,01130.00000,E,3,11,0.78,-46.05,M,46.05,M,,*68
$GPGGA,000002,4815.00000,N,01130.00000,E,3,11,0.78,-46.05,M,46.05,M,,*6B
$GPGGA,000003,4815.00000,N,01130.00000,E,3,11,0.78,-46.05,M,46.05,M,,*6A
$GPGGA,000004,4815.00000,N,01130.00000,E,3,11,0.78,-46.05,M,46.05,M,,*6D
$GPGGA,000005,4815.00000,N,01130.00000,E,3,11,0.78,-46.05,M,46.05,M,,*6C
$GPGGA,000006,4815.00000,N,01130.00000,E,3,11,0.78,-46.05,M,46.05,M,,*6F
$GPGGA,000007,4815.00000,N,01130.00000,E,3,11,0.78,-46.05,M,46.05,M,,*6E
$GPGGA,000008,4815.00000,N,01130.00000,E,3,11,0.78,-46.05,M,46.05,M,,*61
$GPGGA,000009,4815.00000,N,01130.00000,E,3,11,0.78,-46.05,M,46.05,M,,*60
$GPGGA,000010,4815.00000,N,01130.00000,E,3,11,0.78,-46.05,M,46.05,M,,*68
$GPGGA,000011,4815.00000,N,01130.00000,E,3,11,0.78,-46.05,M,46.05,M,,*69
$GPGGA,000012,4815.00000,N,01130.00000,E,3,11,0.78,-46.05,M,46.05,M,,*6A
$GPGGA,000013,4815.00000,N,01130.00000,E,3,11,0.78,-46.05,M,46.05,M,,*6B
$GPGGA,000014,4815.00000,N,01130.00000,E,3,11,0.78,-46.05,M,46.05,M,,*6C
$GPGGA,000015,4815.00000,N,01130.00000,E,3,11,0.78,-46.05,M,46.05,M,,*6D
$GPGGA,000016,4815.00000,N,01130.00000,E,3,11,0.78,-46.05,M,46.05,M,,*6E
$GPGGA,000017,4815.00000,N,01130.00000,E,3,11,0.78,-46.05,M,46.05,M,,*6F
$GPGGA,000018,4815.00000,N,01130.00000,E,3,11,0.78,-46.05,M,46.05,M,,*60
$GPGGA,000019,4815.00000,N,01130.00000,E,3,11,0.78,-46.05,M,46.05,M,,*61
$GPGGA,000020,4815.00000,N,01130.00000,E,3,11,0.78,-46.05,M,46.05,M,,*6B
$GPGGA,000021,4815.00000,N,01130.00000,E,3,11,0.78,-46.05,M,46.05,M,,*6A
$GPGGA,000022,4815.00000,N,01130.00000,E,3,11,0.78,-46.05,M,46.05,M,,*69
$GPGGA,000023,4815.00000,N,01130.00000,E,3,11,0.78,-46.05,M,46.05,M,,*68
$GPGGA,000024,4815.00000,N,01130.00000,E,3,11,0.78,-46.05,M,46.05,M,,*6F
$GPGGA,000025,4815.00000,N,01130.00000,E,3,11,0.78,-46.05,M,46.05,M,,*6E
$GPGGA,000026,4815.00000,N,01130.00000,E,3,11,0.78,-46.05,M,46.05,M,,*6D
$GPGGA,000027,4815.00000,N,01130.00000,E,3,11,0.78,-46.05,M,46.05,M,,*6C
$GPGGA,000028,4815.00000,N,01130.00000,E,3,11,0.78,-46.05,M,46.05,M,,*63
$GPGGA,000029,4815.00000,N,01130.00000,E,3,11,0.78,-46.05,M,46.05,M,,*62
$GPGGA,000030,4815.00000,N,01130.00000,E,3,11,0.78,-46.05,M,46.05,M,,*6A
$GPGGA,000031,4815.00000,N,01130.00000,E,3,11,0.78,-46.05,M,46.05,M,,*6B
$GPGGA,000032,4815.00000,N,01130.00000,E,3,11,0.78,-46.05,M,46.05,M,,*68
$GPGGA,000033,4815.00000,N,01130.00000,E,3,11,0.78,-46.05,M,46.05,M,,*69
$GPGGA,000034,4815.00000,N,01130.00000,E,3,11,0.78,-46.05,M,46.05,M,,*6E
$GPGGA,000035,4815.00000,N,01130.00000,E,3,11,0.78,-46.05,M,46.05,M,,*6F
$GPGGA,000036,4815.00000,N,01130.00000,E,3,11,0.78,-46.05,M,46.05,M,,*6C
$GPGGA,000037,4815.00000,N,01130.00000,E,3,11,0.78,-46.05,M,46.05,M,,*6D
$GPGGA,000038,4815.00000,N,01130.00000,E,3,11,0.78,-46.05,M,46.05,M,,*62
$GPGGA,000039,4815.00000,N,01130.00000,E,3,11,0.78,-46.05,M,46.05,M,,*63
$GPGGA,000040,4815.00000,N,01130.00000,E,3,11,0.78,-46.05,M,46.05,M,,*6D
$GPGGA,000041,4815.00000,N,01130.00000,E,3,11,0.78,-46.05,M,46.05,M,,*6C
$GPGGA,000042,4815.00000,N,01130.00000,E,3,11,0.78,-46.05,M,46.05,M,,*6F
$GPGGA,000043,4815.00000,N,01130.00000,E,3,11,0.78,-46.05,M,46.05,M,,*6E
$GPGGA,000044,4815.00000,N,01130.00000,E,3,11,0.78,-46.05,M,46.05,M,,*69
$GPGGA,000045,4815.00000,N,01130.00000,E,3,11,0.78,-46.05,M,46.05,M,,*68
$GPGGA,000046,4815.00000,N,01130.00000,E,3,11,0.78,-46.05,M,46.05,M,,*6B
$GPGGA,000047,4815.00000,N,01130.00000,E,3,11,0.78,-46.05,M,46.05,M,,*6A
$GPGGA,000048,4815.00000,N,01130.00000,E,3,11,0.78,-46.05,M,46.05,M,,*65
$GPGGA,000049,4815.00000,N,01130.00000,E,3,11,0.78,-46.05,M,46.05,M,,*64
$GPGGA,000050,4815.00000,N,01130.00000,E,3,11,0.78,-46.05,M,46.05,M,,*6C
$GPGGA,000051,4815.00000,N,01130.00000,E,3,11,0.78,-46.05,M,46.05,M,,*6D
$GPGGA,000052,4815.00000,N,01130.00000,E,3,11,0.78,-46.05,M,46.05,M,,*6E
$GPGGA,000053,4815.00000,N,01130.00000,E,3,11,0.78,-46.05,M,46.05,M,,*6F
$GPGGA,000054,4815.00000,N,01130.00000,E,3,11,0.78,-46.05,M,46.05,M,,*68
$GPGGA,000055,4815.00000,N,01130.00000,E,3,11,0.78,-46.05,M,46.05,M,,*69
$GPGGA,000056,4815.00000,N,01130.00000,E,3,11,0.78,-46.05,M,46.05,M,,*6A
$GPGGA,000057,4815.00000,N,01130.00000,E,3,11,0.78,-46.05,M,46.05,M,,*6B
$GPGGA,000058,4815.00000,N,01130.00000,E,3,11,0.78,-46.05,M,46.05,M,,*64
$GPGGA,000059,4815.00000,N,01130.00000,E,3,11,0.78,-46.05,M,46.05,M,,*65
$GPGGA,000100,4815.00000,N,01130.00000,E,3,11,0.78,-46.05,M,46.05,M,,*68
$GPGGA,000101,4815.00000,N,01130.00000,E,3,11,0.78,-46.05,M,46.05,M,,*69
$GPGGA,000102,4815.00000,N,01130.00000,E,3,11,0.78,-46.05,M,46.05,M,,*6A
$GPGGA,000103,4815.00000,N,01130.00000,E,3,11,0.78,-46.05,M,46.05,M,,*6B
$GPGGA,000104,4815.00000,N,01130.00000,E,3,11,0.78,-46.05,M,46.05,M,,*6C
$GPGGA,000105,4815.00000,N,01130.00000,E,3,11,0.78,-46.05,M,46.05,M,,*6D
$GPGGA,000106,4815.00000,N,01130.00000,E,3,11,0.78,-46.05,M,46.05,M,,*6E
$GPGGA,000107,4815.00000,N,01130.00000,E,3,11,0.78,-46.05,M,46.05,M,,*6F
$GPGGA,000108,4815.00000,N,01130.00000,E,3,11,0.78,-46.05,M,46.05,M,,*60
$GPGGA,000109,4815.00000,N,01130.00000,E,3,11,0.78,-46.05,M,46.05,M,,*61
$GPGGA,000110,4815.00000,N,01130.00000,E,3,11,0.78,-46.05,M,46.05,M,,*69
$GPGGA,000111,4815.00000,N,01130.00000,E,3,11,0.78,-46.05,M,46.05,M,,*68
$GPGGA,000112,4815.00000,N,01130.00000,E,3,11,0.78,-46.05,M,46.05,M,,*6B
$GPGGA,000113,4815.00000,N,01130.00000,E,3,11,0.78,-46.05,M,46.05,M,,*6A
$GPGGA,000114,4815.00000,N,01130.00000,E,3,11,0.78,-46.05,M,46.05,M,,*6D
$GPGGA,000115,4815.00000,N,01130.00000,E,3,11,0.78,-46.05,M,46.05,M,,*6C
$GPGGA,000116,4815.00000,N,01130.00000,E,3,11,0.78,-46.05,M,46.05,M,,*6F
$GPGGA,000117,4815.00000,N,01130.00000,E,3,11,0.78,-46.05,M,46.05,M,,*6E
$GPGGA,000118,4815.00000,N,01130.00000,E,3,11,0.78,-46.05,M,46.05,M,,*61
$GPGGA,000119,4815.00000,N,01130.00000,E,3,11,0.78,-46.05,M,46.05,M,,*60
$GPGGA,000120,4815.00000,N,01130.00000,E,3,11,0.78,-46.05,M,46.05,M,,*6A
$GPGGA,000121,4815.00000,N,01130.00000,E,3,11,0.78,-46.05,M,46.05,M,,*6B
$GPGGA,000122,4815.00000,N,01130.00000,E,3,11,0.78,-46.05,M,46.05,M,,*68
$GPGGA,000123,4815.00000,N,01130.00000,E,3,11,0.78,-46.05,M,46.05,M,,*69
$GPGGA,000124,4815.00000,N,01130.00000,E,3,11,0.78,-46.05,M,46.05,M,,*6E
$GPGGA,000125,4815.00000,N,01130.00000,E,3,11,0.78,-46.05,M,46.05,M,,*6F
$GPGGA,000126,4815.00000,N,01130.00000,E,3,11,0.78,-46.05,M,46.05,M,,*6C
$GPGGA,000127,4815.00000,N,01130.00000,E,3,11,0.78,-46.05,M,46.05,M,,*6D
$GPGGA,000128,4815.00000,N,01130.00000,E,3,10,1.26,-46.05,M,46.05,M,,*69
$GPGGA,000129,4815.00000,N,01130.00000,E,3,10,1.26,-46.05,M,46.05,M,,*68
$GPGGA,000130,4815.00000,N,01130.00000,E,3,10,1.26,-46.05,M,46.05,M,,*60
$GPGGA,000131,4815.00000,N,01130.00000,E,3,10,1.26,-46.05,M,46.05,M,,*61
$GPGGA,000132,4815.00000,N,01130.00000,E,3,10,1.26,-46.05,M,46.05,M,,*62
$GPGGA,000133,4815.00000,N,01130.00000,E,3,10,1.26,-46.05,M,46.05,M,,*63
$GPGGA,000134,4815.00000,N,01130.00000,E,3,10,1.26,-46.05,M,46.05,M,,*64
$GPGGA,000135,4815.00000,N,01130.00000,E,3,10,1.26,-46.05,M,46.05,M,,*65
$GPGGA,000136,4815.00000,N,01130.00000,E,3,10,1.26,-46.05,M,46.05,M,,*66
$GPGGA,000137,4815.00000,N,01130.00000,E,3,10,1.26,-46.05,M,46.05,M,,*67
$GPGGA,000138,4815.00000,N,01130.00000,E,3,10,1.26,-46.05,M,46.05,M,,*68
$GPGGA,000139,4815.00000,N,01130.00000,E,3,10,1.26,-46.05,M,46.05,M,,*69
$GPGGA,000140,4815.00000,N,01130.00000,E,3,10,1.26,-46.05,M,46.05,M,,*67
$GPGGA,000141,4815.00000,N,01130.00000,E,3,10,1.26,-46.05,M,46.05,M,,*66
$GPGGA,000142,4815.00000,N,01130.00000,E,3,10,1.26,-46.05,M,46.05,M,,*65
$GPGGA,000143,4815.00000,N,01130.00000,E,3,10,1.26,-46.05,M,46.05,M,,*64
$GPGGA,000144,4815.00000,N,01130.00000,E,3,10,1.26,-46.05,M,46.05,M,,*63
$GPGGA,000145,4815.00000,N,01130.00000,E,3,10,1.26,-46.05,M,46.05,M,,*62
$GPGGA,000146,4815.00000,N,01130.00000,E,3,10,1.26,-46.05,M,46.05,M,,*61
$GPGGA,000147,4815.00000,N,01130.00000,E,3,10,1.26,-46.05,M,46.05,M,,*60
$GPGGA,000148,4815.00000,N,01130.00000,E,3,10,1.26,-46.05,M,46.05,M,,*6F
$GPGGA,000149,4815.00000,N,01130.00000,E,3,10,1.26,-46.05,M,46.05,M,,*6E
$GPGGA,000150,4815.00000,N,01130.00000,E,3,10,1.26,-46.05,M,46.05,M,,*66
$GPGGA,000151,4815.00000,N,01130.00000,E,3,10,1.26,-46.05,M,46.05,M,,*67
$GPGGA,000152,4815.00000,N,01130.00000,E,3,10,1.26,-46.05,M,46.05,M,,*64
$GPGGA,000153,4815.00000,N,01130.00000,E,3,10,1.26,-46.05,M,46.05,M,,*65
$GPGGA,000154,4815.00000,N,01130.00000,E,3,10,1.26,-46.05,M,46.05,M,,*62
$GPGGA,000155,4815.00000,N,01130.00000,E,3,10,1.26,-46.05,M,46.05,M,,*63
$GPGGA,000156,4815.00000,N,01130.00000,E,3,10,1.26,-46.05,M,46.05,M,,*60
$GPGGA,000157,4815.00000,N,01130.00000,E,3,10,1.26,-46.05,M,46.05,M,,*61
$GPGGA,000158,4815.00000,N,01130.00000,E,3,10,1.26,-46.05,M,46.05,M,,*6E
$GPGGA,000159,4815.00000,N,01130.00000,E,3,10,1.26,-46.05,M,46.05,M,,*6F
$GPGGA,000200,4815.00000,N,01130.00000,E,3,10,1.26,-46.05,M,46.05,M,,*60
$GPGGA,000201,4815.00000,N,01130.00000,E,3,10,1.26,-46.05,M,46.05,M,,*61
$GPGGA,000202,4815.00000,N,01130.00000,E,3,10,1.26,-46.05,M,46.05,M,,*62
$GPGGA,000203,4815.00000,N,01130.00000,E,3,10,1.26,-46.05,M,46.05,M,,*63
$GPGGA,000204,4815.00000,N,01130.00000,E,3,10,1.26,-46.05,M,46.05,M,,*64
$GPGGA,000205,4815.00000,N,01130.00000,E,3,10,1.26,-46.05,M,46.05,M,,*65
$GPGGA,000206,4815.00000,N,01130.00000,E,3,10,1.26,-46.05,M,46.05,M,,*66
$GPGGA,000207,4815.00000,N,01130.00000,E,3,10,1.26,-46.05,M,46.05,M,,*67
$GPGGA,000208,4815.00000,N,01130.00000,E,3,10,1.26,-46.05,M,46.05,M,,*68
$GPGGA,000209,4815.00000,N,01130.00000,E,3,10,1.26,-46.05,M,46.05,M,,*69
$GPGGA,000210,4815.00000,N,01130.00000,E,3,10,1.26,-46.05,M,46.05,M,,*61
$GPGGA,000211,4815.00000,N,01130.00000,E,3,10,1.26,-46.05,M,46.05,M,,*60
$GPGGA,000212,4815.00000,N,01130.00000,E,3,10,1.26,-46.05,M,46.05,M,,*63
$GPGGA,000213,4815.00000,N,01130.00000,E,3,10,1.26,-46.05,M,46.05,M,,*62
$GPGGA,000214,4815.00000,N,01130.00000,E,3,10,1.26,-46.05,M,46.05,M,,*65
$GPGGA,000215,4815.00000,N,01130.00000,E,3,10,1.26,-46.05,M,46.05,M,,*64
$GPGGA,000216,4815.00000,N,01130.00000,E,3,10,1.26,-46.05,M,46.05,M,,*67
$GPGGA,000217,4815.00000,N,01130.00000,E,3,10,1.26,-46.05,M,46.05,M,,*66
$GPGGA,000218,4815.00000,N,01130.00000,E,3,10,1.26,-46.05,M,46.05,M,,*69
$GPGGA,000219,4815.00000,N,01130.00000,E,3,10,1.26,-46.05,M,46.05,M,,*68
$GPGGA,000220,4815.00000,N,01130.00000,E,3,10,1.26,-46.05,M,46.05,M,,*62
$GPGGA,000221,4815.00000,N,01130.00000,E,3,10,1.26,-46.05,M,46.05,M,,*63
$GPGGA,000222,4815.00000,N,01130.00000,E,3,10,1.27,-46.05,M,46.05,M,,*61
$GPGGA,000223,4815.00000,N,01130.00000,E,3,10,1.27,-46.05,M,46.05,M,,*60
$GPGGA,000224,4815.00000,N,01130.00000,E,3,10,1.27,-46.05,M,46.05,M,,*67
$GPGGA,000225,4815.00000,N,01130.00000,E,3,10,1.27,-46.05,M,46.05,M,,*66
$GPGGA,000226,4815.00000,N,01130.00000,E,3,10,1.27,-46.05,M,46.05,M,,*65
$GPGGA,000227,4815.00000,N,01130.00000,E,3,10,1.27,-46.05,M,46.05,M,,*64
$GPGGA,000228,4815.00000,N,01130.00000,E,3,10,1.27,-46.05,M,46.05,M,,*6B
$GPGGA,000229,4815.00000,N,01130.00000,E,3,10,1.27,-46.05,M,46.05,M,,*6A
$GPGGA,000230,4815.00000,N,01130.00000,E,3,10,1.27,-46.05,M,46.05,M,,*62
$GPGGA,000231,4815.00000,N,01130.00000,E,3,10,1.27,-46.05,M,46.05,M,,*63
$GPGGA,000232,4815.00000,N,01130.00000,E,3,10,1.27,-46.05,M,46.05,M,,*60
$GPGGA,000233,4815.00000,N,01130.00000,E,3,10,1.27,-46.05,M,46.05,M,,*61
$GPGGA,000234,4815.00000,N,01130.00000,E,3,10,1.27,-46.05,M,46.05,M,,*66
$GPGGA,000235,4815.00000,N,01130.00000,E,3,10,1.27,-46.05,M,46.05,M,,*67
$GPGGA,000236,4815.00000,N,01130.00000,E,3,10,1.27,-46.05,M,46.05,M,,*64
$GPGGA,000237,4815.00000,N,01130.00000,E,3,10,1.27,-46.05,M,46.05,M,,*65
$GPGGA,000238,4815.00000,N,01130.00000,E,3,10,1.27,-46.05,M,46.05,M,,*6A
$GPGGA,000239,4815.00000,N,01130.00000,E,3,10,1.27,-46.05,M,46.05,M,,*6B
$GPGGA,000240,4815.00000,N,01130.00000,E,3,10,1.27,-46.05,M,46.05,M,,*65
$GPGGA,000241,4815.00000,N,01130.00000,E,3,10,1.27,-46.05,M,46.05,M,,*64
$GPGGA,000242,4815.00000,N,01130.00000,E,3,10,1.27,-46.05,M,46.05,M,,*67
$GPGGA,000243,4815.00000,N,01130.00000,E,3,10,1.27,-46.05,M,46.05,M,,*66
$GPGGA,000244,4815.00000,N,01130.00000,E,3,10,1.27,-46.05,M,46.05,M,,*61
$GPGGA,000245,4815.00000,N,01130.00000,E,3,10,1.27,-46.05,M,46.05,M,,*60
$GPGGA,000246,4815.00000,N,01130.00000,E,3,10,1.27,-46.05,M,46.05,M,,*63
$GPGGA,000247,4815.00000,N,01130.00000,E,3,10,1.27,-46.05,M,46.05,M,,*62
$GPGGA,000248,4815.00000,N,01130.00000,E,3,10,1.27,-46.05,M,46.05,M,,*6D
$GPGGA,000249,4815.00000,N,01130.00000,E,3,10,1.27,-46.05,M,46.05,M,,*6C
$GPGGA,000250,4815.00000,N,01130.00000,E,3,10,1.27,-46.05,M,46.05,M,,*64
$GPGGA,000251,4815.00000,N,01130.00000,E,3,10,1.27,-46.05,M,46.05,M,,*65
$GPGGA,000252,4815.00000,N,01130.00000,E,3,10,1.27,-46.05,M,46.05,M,,*66
$GPGGA,000253,4815.00000,N,01130.00000,E,3,10,1.27,-46.05,M,46.05,M,,*67
$GPGGA,000254,4815.00000,N,01130.00000,E,3,10,1.27,-46.05,M,46.05,M,,*60
$GPGGA,000255,4815.00000,N,01130.00000,E,3,10,1.27,-46.05,M,46.05,M,,*61
$GPGGA,000256,4815.00000,N,01130.00000,E,3,10,1.27,-46.05,M,46.05,M,,*62
$GPGGA,000257,4815.00000,N,01130.00000,E,3,10,1.27,-46.05,M,46.05,M,,*63
$GPGGA,000258,4815.00000,N,01130.00000,E,3,10,1.27,-46.05,M,46.05,M,,*6C
$GPGGA,000259,4815.00000,N,01130.00000,E,3,10,1.27,-46.05,M,46.05,M,,*6D
$GPGGA,000300,4815.00000,N,01130.00000,E,3,10,1.27,-46.05,M,46.05,M,,*60
$GPGGA,000301,4815.00000,N,01130.00000,E,3,10,1.27,-46.05,M,46.05,M,,*61
$GPGGA,000302,4815.00000,N,01130.00000,E,3,10,1.27,-46.05,M,46.05,M,,*62
$GPGGA,000303,4815.00000,N,01130.00000,E,3,10,1.27,-46.05,M,46.05,M,,*63
$GPGGA,000304,4815.00000,N,01130.00000,E,3,10,1.27,-46.05,M,46.05,M,,*64
$GPGGA,000305,4815.00000,N,01130.00000,E,3,10,1.27,-46.05,M,46.05,M,,*65
$GPGGA,000306,4815.00000,N,01130.00000,E,3,10,1.27,-46.05,M,46.05,M,,*66
$GPGGA,000307,4815.00000,N,01130.00000,E,3,10,1.27,-46.05,M,46.05,M,,*67
$GPGGA,000308,4815.00000,N,01130.00000,E,3,10,1.27,-46.05,M,46.05,M,,*68
$GPGGA,000309,4815.00000,N,01130.00000,E,3,10,1.27,-46.05,M,46.05,M,,*69
$GPGGA,000310,4815.00000,N,01130.00000,E,3,10,1.27,-46.05,M,46.05,M,,*61
$GPGGA,000311,4815.00000,N,01130.00000,E,3,10,1.27,-46.05,M,46.05,M,,*60
$GPGGA,000312,4815.00000,N,01130.00000,E,3,10,1.27,-46.05,M,46.05,M,,*63
$GPGGA,000313,4815.00000,N,01130.00000,E,3,10,1.27,-46.05,M,46.05,M,,*62
$GPGGA,000314,4815.00000,N,01130.00000,E,3,10,1.27,-46.05,M,46.05,M,,*65
$GPGGA,000315,4815.00000,N,01130.00000,E,3,10,1.27,-46.05,M,46.05,M,,*64
$GPGGA,000316,4815.00000,N,01130.00000,E,3,10,1.27,-46.05,M,46.05,M,,*67
$GPGGA,000317,4815.00000,N,01130.00000,E,3,10,1.27,-46.05,M,46.05,M,,*66
$GPGGA,000318,4815.00000,N,01130.00000,E,3,10,1.27,-46.05,M,46.05,M,,*69
$GPGGA,000319,4815.00000,N,01130.00000,E,3,10,1.27,-46.05,M,46.05,M,,*68
$GPGGA,000320,4815.00000,N,01130.00000,E,3,10,1.27,-46.05,M,46.05,M,,*62
$GPGGA,000321,4815.00000,N,01130.00000,E,3,10,1.27,-46.05,M,46.05,M,,*63
$GPGGA,000322,4815.00000,N,01130.00000,E,3,10,1.27,-46.05,M,46.05,M,,*60
$GPGGA,000323,4815.00000,N,01130.00000,E,3,10,1.27,-46.05,M,46.05,M,,*61
$GPGGA,000324,4815.00000,N,01130.00000,E,3,10,1.27,-46.05,M,46.05,M,,*66
$GPGGA,000325,4815.00000,N,01130.00000,E,3,10,1.27,-46.05,M,46.05,M,,*67
$GPGGA,000326,4815.00000,N,01130.00000,E,3,10,1.27,-46.05,M,46.05,M,,*64
$GPGGA,000327,4815.00000,N,01130.00000,E,3,10,1.27,-46.05,M,46.05,M,,*65
$GPGGA,000328,4815.00000,N,01130.00000,E,3,10,1.27,-46.05,M,46.05,M,,*6A
$GPGGA,000329,4815.00000,N,01130.00000,E,3,10,1.27,-46.05,M,46.05,M,,*6B
$GPGGA,000330,4815.00000,N,01130.00000,E,3,10,1.27,-46.05,M,46.05,M,,*63
$GPGGA,000331,4815.00000,N,01130.00000,E,3,10,1.27,-46.05,M,46.05,M,,*62
$GPGGA,000332,4815.00000,N,01130.00000,E,3,10,1.27,-46.05,M,46.05,M,,*61
$GPGGA,000333,4815.00000,N,01130.00000,E,3,10,1.27,-46.05,M,46.05,M,,*60
$GPGGA,000334,4815.00000,N,01130.00000,E,3,10,1.27,-46.05,M,46.05,M,,*67
$GPGGA,000335,4815.00000,N,01130.00000,E,3,10,1.27,-46.05,M,46.05,M,,*66
$GPGGA,000336,4815.00000,N,01130.00000,E,3,10,1.27,-46.05,M,46.05,M,,*65
$GPGGA,000337,4815.00000,N,01130.00000,E,3,10,1.27,-46.05,M,46.05,M,,*64
$GPGGA,000338,4815.00000,N,01130.00000,E,3,10,1.27,-46.05,M,46.05,M,,*6B
$GPGGA,000339,4815.00000,N,01130.00000,E,3,10,1.27,-46.05,M,46.05,M,,*6A
$GPGGA,000340,4815.00000,N,01130.00000,E,3,10,1.27,-46.05,M,46.05,M,,*64
$GPGGA,000341,4815.00000,N,01130.00000,E,3,10,1.27,-46.05,M,46.05,M,,*65
$GPGGA,000342,4815.00000,N,01130.00000,E,3,10,1.27,-46.05,M,46.05,M,,*66
$GPGGA,000343,4815.00000,N,01130.00000,E,3,10,1.27,-46.05,M,46.05,M,,*67
$GPGGA,000344,4815.00000,N,01130.00000,E,3,10,1.27,-46.05,M,46.05,M,,*60
$GPGGA,000345,4815.00000,N,01130.00000,E,3,10,1.27,-46.05,M,46.05,M,,*61
$GPGGA,000346,4815.00000,N,01130.00000,E,3,10,1.27,-46.05,M,46.05,M,,*62
$GPGGA,000347,4815.00000,N,01130.00000,E,3,10,1.27,-46.05,M,46.05,M,,*63
$GPGGA,000348,4815.00000,N,01130.00000,E,3,10,1.27,-46.05,M,46.05,M,,*6C
$GPGGA,000349,4815.00000,N,01130.00000,E,3,10,1.27,-46.05,M,46.05,M,,*6D
$GPGGA,000350,4815.00000,N,01130.00000,E,3,10,1.27,-46.05,M,46.05,M,,*65
$GPGGA,000351,4815.00000,N,01130.00000,E,3,10,1.27,-46.05,M,46.05,M,,*64
$GPGGA,000352,4815.00000,N,01130.00000,E,3,10,1.27,-46.05,M,46.05,M,,*67
$GPGGA,000353,4815.00000,N,01130.00000,E,3,10,1.27,-46.05,M,46.05,M,,*66
$GPGGA,000354,4815.00000,N,01130.00000,E,3,10,1.27,-46.05,M,46.05,M,,*61
$GPGGA,000355,4815.00000,N,01130.00000,E,3,10,1.27,-46.05,M,46.05,M,,*60
$GPGGA,000356,4815.00000,N,01130.00000,E,3,10,1.27,-46.05,M,46.05,M,,*63
$GPGGA,000357,4815.00000,N,01130.00000,E,3,10,1.27,-46.05,M,46.05,M,,*62
$GPGGA,000358,4815.00000,N,01130.00000,E,3,10,1.27,-46.05,M,46.05,M,,*6D
$GPGGA,000359,4815.00000,N,01130.00000,E,3,10,1.27,-46.05,M,46.05,M,,*6C
$GPGGA,000400,4815.00000,N,01130.00000,E,3,10,1.27,-46.05,M,46.05,M,,*67
$GPGGA,000401,4815.00000,N,01130.00000,E,3,10,1.27,-46.05,M,46.05,M,,*66
$GPGGA,000402,4815.00000,N,01130.00000,E,3,10,1.27,-46.05,M,46.05,M,,*65
$GPGGA,000403,4815.00000,N,01130.00000,E,3,10,1.27,-46.05,M,46.05,M,,*64
$GPGGA,000404,4815.00000,N,01130.00000,E,3,10,1.27,-46.05,M,46.05,M,,*63
$GPGGA,000405,4815.00000,N,01130.00000,E,3,10,1.27,-46.05,M,46.05,M,,*62
$GPGGA,000406,4815.00000,N,01130.00000,E,3,10,1.27,-46.05,M,46.05,M,,*61
$GPGGA,000407,4815.00000,N,01130.00000,E,3,10,1.27,-46.05,M,46.05,M,,*60
$GPGGA,000408,4815.00000,N,01130.00000,E,3,10,1.27,-46.05,M,46.05,M,,*6F
$GPGGA,000409,4815.00000,N,01130.00000,E,3,10,1.27,-46.05,M,46.05,M,,*6E
$GPGGA,000410,4815.00000,N,01130.00000,E,3,10,1.28,-46.05,M,46.05,M,,*69
$GPGGA,000411,4815.00000,N,01130.00000,E,3,10,1.28,-46.05,M,46.05,M,,*68
$GPGGA,000412,4815.00000,N,01130.00000,E,3,10,1.28,-46.05,M,46.05,M,,*6B
$GPGGA,000413,4815.00000,N,01130.00000,E,3,10,1.28,-46.05,M,46.05,M,,*6A
$GPGGA,000414,4815.00000,N,01130.00000,E,3,10,1.28,-46.05,M,46.05,M,,*6D
$GPGGA,000415,4815.00000,N,01130.00000,E,3,10,1.28,-46.05,M,46.05,M,,*6C
$GPGGA,000416,4815.00000,N,01130.00000,E,3,10,1.28,-46.05,M,46.05,M,,*6F
$GPGGA,000417,4815.00000,N,01130.00000,E,3,10,1.28,-46.05,M,46.05,M,,*6E
$GPGGA,000418,4815.00000,N,01130.00000,E,3,10,1.28,-46.05,M,46.05,M,,*61
$GPGGA,000419,4815.00000,N,01130.00000,E,3,10,1.28,-46.05,M,46.05,M,,*60
$GPGGA,000420,4815.00000,N,01130.00000,E,3,10,1.28,-46.05,M,46.05,M,,*6A
$GPGGA,000421,4815.00000,N,01130.00000,E,3,10,1.28,-46.05,M,46.05,M,,*6B
$GPGGA,000422,4815.00000,N,01130.00000,E,3,10,1.28,-46.05,M,46.05,M,,*68
$GPGGA,000423,4815.00000,N,01130.00000,E,3,10,1.28,-46.05,M,46.05,M,,*69
$GPGGA,000424,4815.00000,N,01130.00000,E,3,10,1.28,-46.05,M,46.05,M,,*6E
$GPGGA,000425,4815.00000,N,01130.00000,E,3,10,1.28,-46.05,M,46.05,M,,*6F
$GPGGA,000426,4815.00000,N,01130.00000,E,3,10,1.28,-46.05,M,46.05,M,,*6C
$GPGGA,000427,4815.00000,N,01130.00000,E,3,10,1.28,-46.05,M,46.05,M,,*6D
$GPGGA,000428,4815.00000,N,01130.00000,E,3,10,1.28,-46.05,M,46.05,M,,*62
$GPGGA,000429,4815.00000,N,01130.00000,E,3,10,1.28,-46.05,M,46.05,M,,*63
$GPGGA,000430,4815.00000,N,01130.00000,E,3,10,1.28,-46.05,M,46.05,M,,*6B
$GPGGA,000431,4815.00000,N,01130.00000,E,3,10,1.28,-46.05,M,46.05,M,,*6A
$GPGGA,000432,4815.00000,N,01130.00000,E,3,10,1.28,-46.05,M,46.05,M,,*69
$GPGGA,000433,4815.00000,N,01130.00000,E,3,10,1.28,-46.05,M,46.05,M,,*68
$GPGGA,000434,4815.00000,N,01130.00000,E,3,10,1.28,-46.05,M,46.05,M,,*6F
$GPGGA,000435,4815.00000,N,01130.00000,E,3,10,1.28,-46.05,M,46.05,M,,*6E
$GPGGA,000436,4815.00000,N,01130.00000,E,3,10,1.28,-46.05,M,46.05,M,,*6D
$GPGGA,000437,4815.00000,N,01130.00000,E,3,10,1.28,-46.05,M,46.05,M,,*6C
$GPGGA,000438,4815.00000,N,01130.00000,E,3,10,1.28,-46.05,M,46.05,M,,*63
$GPGGA,000439,4815.00000,N,01130.00000,E,3,10,1.28,-46.05,M,46.05,M,,*62
$GPGGA,000440,4815.00000,N,01130.00000,E,3,10,1.28,-46.05,M,46.05,M,,*6C
$GPGGA,000441,4815.00000,N,01130.00000,E,3,10,1.28,-46.05,M,46.05,M,,*6D
$GPGGA,000442,4815.00000,N,01130.00000,E,3,10,1.28,-46.05,M,46.05,M,,*6E
$GPGGA,000443,4815.00000,N,01130.00000,E,3,10,1.28,-46.05,M,46.05,M,,*6F
$GPGGA,000444,4815.00000,N,01130.00000,E,3,10,1.28,-46.05,M,46.05,M,,*68
$GPGGA,000445,4815.00000,N,01130.00000,E,3,10,1.28,-46.05,M,46.05,M,,*69
$GPGGA,000446,4815.00000,N,01130.00000,E,3,10,1.28,-46.05,M,46.05,M,,*6A
$GPGGA,000447,4815.00000,N,01130.00000,E,3,10,1.28,-46.05,M,46.05,M,,*6B
$GPGGA,000448,4815.00000,N,01130.00000,E,3,10,1.28,-46.05,M,46.05,M,,*64
$GPGGA,000449,4815.00000,N,01130.00000,E,3,10,1.28,-46.05,M,46.05,M,,*65
$GPGGA,000450,4815.00000,N,01130.00000,E,3,10,1.28,-46.05,M,46.05,M,,*6D
$GPGGA,000451,4815.00000,N,01130.00000,E,3,10,1.28,-46.05,M,46.05,M,,*6C
$GPGGA,000452,4815.00000,N,01130.00000,E,3,10,1.28,-46.05,M,46.05,M,,*6F
$GPGGA,000453,4815.00000,N,01130.00000,E,3,10,1.28,-46.05,M,46.05,M,,*6E
$GPGGA,000454,4815.00000,N,01130.00000,E,3,10,1.28,-46.05,M,46.05,M,,*69
$GPGGA,000455,4815.00000,N,01130.00000,E,3,10,1.28,-46.05,M,46.05,M,,*68
$GPGGA,000456,4815.00000,N,01130.00000,E,3,10,1.28,-46.05,M,46.05,M,,*6B
$GPGGA,000457,4815.00000,N,01130.00000,E,3,10,1.28,-46.05,M,46.05,M,,*6A
$GPGGA,000458,4815.00000,N,01130.00000,E,3,10,1.28,-46.05,M,46.05,M,,*65
$GPGGA,000459,4815.00000,N,01130.00000,E,3,10,1.28,-46.05,M,46.05,M,,*64
$GPGGA,000500,4815.00000,N,01130.00000,E,3,10,1.28,-46.05,M,46.05,M,,*69
$GPGGA,000501,4815.00000,N,01130.00000,E,3,10,1.28,-46.05,M,46.05,M,,*68
$GPGGA,000502,4815.00000,N,01130.00000,E,3,10,1.28,-46.05,M,46.05,M,,*6B
$GPGGA,000503,4815.00000,N,01130.00000,E,3,10,1.28,-46.05,M,46.05,M,,*6A
$GPGGA,000504,4815.00000,N,01130.00000,E,3,10,1.28,-46.05,M,46.05,M,,*6D
$GPGGA,000505,4815.00000,N,01130.00000,E,3,10,1.28,-46.05,M,46.05,M,,*6C
$GPGGA,000506,4815.00000,N,01130.00000,E,3,10,1.28,-46.05,M,46.05,M,,*6F
$GPGGA,000507,4815.00000,N,01130.00000,E,3,10,1.28,-46.05,M,46.05,M,,*6E
$GPGGA,000508,4815.00000,N,01130.00000,E,3,10,1.28,-46.05,M,46.05,M,,*61
$GPGGA,000509,4815.00000,N,01130.00000,E,3,10,1.28,-46.05,M,46.05,M,,*60
$GPGGA,000510,4815.00000,N,01130.00000,E,3,10,1.28,-46.05,M,46.05,M,,*68
$GPGGA,000511,4815.00000,N,01130.00000,E,3,10,1.28,-46.05,M,46.05,M,,*69
$GPGGA,000512,4815.00000,N,01130.00000,E,3,10,1.28,-46.05,M,46.05,M,,*6A
$GPGGA,000513,4815.00000,N,01130.00000,E,3,10,1.28,-46.05,M,46.05,M,,*6B
$GPGGA,000514,4815.00000,N,01130.00000,E,3,10,1.28,-46.05,M,46.05,M,,*6C
$GPGGA,000515,4815.00000,N,01130.00000,E,3,10,1.28,-46.05,M,46.05,M,,*6D
$GPGGA,000516,4815.00000,N,01130.00000,E,3,10,1.28,-46.05,M,46.05,M,,*6E
$GPGGA,000517,4815.00000,N,01130.00000,E,3,10,1.28,-46.05,M,46.05,M,,*6F
$GPGGA,000518,4815.00000,N,01130.00000,E,3,10,1.28,-46.05,M,46.05,M,,*60
$GPGGA,000519,4815.00000,N,01130.00000,E,3,10,1.28,-46.05,M,46.05,M,,*61
$GPGGA,000520,4815.00000,N,01130.00000,E,3,10,1.28,-46.05,M,46.05,M,,*6B
$GPGGA,000521,4815.00000,N,01130.00000,E,3,10,1.28,-46.05,M,46.05,M,,*6A
$GPGGA,000522,4815.00000,N,01130.00000,E,3,10,1.28,-46.05,M,46.05,M,,*69
$GPGGA,000523,4815.00000,N,01130.00000,E,3,10,1.28,-46.05,M,46.05,M,,*68
$GPGGA,000524,4815.00000,N,01130.00000,E,3,10,1.28,-46.05,M,46.05,M,,*6F
$GPGGA,000525,4815.00000,N,01130.00000,E,3,10,1.28,-46.05,M,46.05,M,,*6E
$GPGGA,000526,4815.00000,N,01130.00000,E,3,10,1.28,-46.05,M,46.05,M,,*6D
$GPGGA,000527,4815.00000,N,01130.00000,E,3,10,1.28,-46.05,M,46.05,M,,*6C
$GPGGA,000528,4815.00000,N,01130.00000,E,3,10,1.28,-46.05,M,46.05,M,,*63
$GPGGA,000529,4815.00000,N,01130.00000,E,3,10,1.28,-46.05,M,46.05,M,,*62
$GPGGA,000530,4815.00000,N,01130.00000,E,3,10,1.28,-46.05,M,46.05,M,,*6A
$GPGGA,000531,4815.00000,N,01130.00000,E,3,10,1.28,-46.05,M,46.05,M,,*6B
$GPGGA,000532,4815.00000,N,01130.00000,E,3,10,1.28,-46.05,M,46.05,M,,*68
$GPGGA,000533,4815.00000,N,01130.00000,E,3,10,1.28,-46.05,M,46.05,M,,*69
$GPGGA,000534,4815.00000,N,01130.00000,E,3,10,1.28,-46.05,M,46.05,M,,*6E
$GPGGA,000535,4815.00000,N,01130.00000,E,3,10,1.28,-46.05,M,46.05,M,,*6F
$GPGGA,000536,4815.00000,N,01130.00000,E,3,10,1.28,-46.05,M,46.05,M,,*6C
$GPGGA,000537,4815.00000,N,01130.00000,E,3,10,1.28,-46.05,M,46.05,M,,*6D
$GPGGA,000538,4815.00000,N,01130.00000,E,3,10,1.28,-46.05,M,46.05,M,,*62
$GPGGA,000539,4815.00000,N,01130.00000,E,3,10,1.28,-46.05,M,46.05,M,,*63
$GPGGA,000540,4815.00000,N,01130.00000,E,3,10,1.28,-46.05,M,46.05,M,,*6D
$GPGGA,000541,4815.00000,N,01130.00000,E,3,10,1.28,-46.05,M,46.05,M,,*6C
$GPGGA,000542,4815.00000,N,01130.00000,E,3,10,1.28,-46.05,M,46.05,M,,*6F
$GPGGA,000543,4815.00000,N,01130.00000,E,3,10,1.28,-46.05,M,46.05,M,,*6E
$GPGGA,000544,4815.00000,N,01130.00000,E,3,10,1.28,-46.05,M,46.05,M,,*69
$GPGGA,000545,4815.00000,N,01130.00000,E,3,10,1.28,-46.05,M,46.05,M,,*68
$GPGGA,000546,4815.00000,N,01130.00000,E,3,10,1.28,-46.05,M,46.05,M,,*6B
$GPGGA,000547,4815.00000,N,01130.00000,E,3,10,1.28,-46.05,M,46.05,M,,*6A
$GPGGA,000548,4815.00000,N,01130.00000,E,3,10,1.28,-46.05,M,46.05,M,,*65
$GPGGA,000549,4815.00000,N,01130.00000,E,3,10,1.28,-46.05,M,46.05,M,,*64
$GPGGA,000550,4815.00000,N,01130.00000,E,3,10,1.28,-46.05,M,46.05,M,,*6C
$GPGGA,000551,4815.00000,N,01130.00000,E,3,10,1.28,-46.05,M,46.05,M,,*6D
$GPGGA,000552,4815.00000,N,01130.00000,E,3,10,1.28,-46.05,M,46.05,M,,*6E
$GPGGA,000553,4815.00000,N,01130.00000,E,3,10,1.28,-46.05,M,46.05,M,,*6F
$GPGGA,000554,4815.00000,N,01130.00000,E,3,10,1.28,-46.05,M,46.05,M,,*68
$GPGGA,000555,4815.00000,N,01130.00000,E,3,10,1.28,-46.05,M,46.05,M,,*69
$GPGGA,000556,4815.00000,N,01130.00000,E,3,10,1.28,-46.05,M,46.05,M,,*6A
$GPGGA,000557,4815.00000,N,01130.00000,E,3,10,1.28,-46.05,M,46.05,M,,*6B
$GPGGA,000558,4815.00000,N,01130.00000,E,3,10,1.29,-46.05,M,46.05,M,,*65
$GPGGA,000559,4815.00000,N,01130.00000,E,3,10,1.29,-46.05,M,46.05,M,,*64
$GPGGA,000600,4815.00000,N,01130.00000,E,3,10,1.29,-46.05,M,46.05,M,,*6B
$GPGGA,000601,4815.00000,N,01130.00000,E,3,10,1.29,-46.05,M,46.05,M,,*6A
$GPGGA,000602,4815.00000,N,01130.00000,E,3,10,1.29,-46.05,M,46.05,M,,*69
$GPGGA,000603,4815.00000,N,01130.00000,E,3,10,1.29,-46.05,M,46.05,M,,*68
$GPGGA,000604,4815.00000,N,01130.00000,E,3,10,1.29,-46.05,M,46.05,M,,*6F
$GPGGA,000605,4815.00000,N,01130.00000,E,3,10,1.29,-46.05,M,46.05,M,,*6E
$GPGGA,000606,4815.00000,N,01130.00000,E,3,10,1.29,-46.05,M,46.05,M,,*6D
$GPGGA,000607,4815.00000,N,01130.00000,E,3,10,1.29,-46.05,M,46.05,M,,*6C
$GPGGA,000608,4815.00000,N,01130.00000,E,3,10,1.29,-46.05,M,46.05,M,,*63
$GPGGA,000609,4815.00000,N,01130.00000,E,3,10,1.29,-46.05,M,46.05,M,,*62
$GPGGA,000610,4815.00000,N,01130.00000,E,3,10,1.29,-46.05,M,46.05,M,,*6A
$GPGGA,000611,4815.00000,N,01130.00000,E,3,10,1.29,-46.05,M,46.05,M,,*6B
$GPGGA,000612,4815.00000,N,01130.00000,E,3,10,1.29,-46.05,M,46.05,M,,*68
$GPGGA,000613,4815.00000,N,01130.00000,E,3,10,1.29,-46.05,M,46.05,M,,*69
$GPGGA,000614,4815.00000,N,01130.00000,E,3,10,1.29,-46.05,M,46.05,M,,*6E
$GPGGA,000615,4815.00000,N,01130.00000,E,3,10,1.29,-46.05,M,46.05,M,,*6F
$GPGGA,000616,4815.00000,N,01130.00000,E,3,10,1.29,-46.05,M,46.05,M,,*6C
$GPGGA,000617,4815.00000,N,01130.00000,E,3,10,1.29,-46.05,M,46.05,M,,*6D
$GPGGA,000618,4815.00000,N,01130.00000,E,3,10,1.29,-46.05,M,46.05,M,,*62
$GPGGA,000619,4815.00000,N,01130.00000,E,3,10,1.29,-46.05,M,46.05,M,,*63
$GPGGA,000620,4815.00000,N,01130.00000,E,3,10,1.29,-46.05,M,46.05,M,,*69
$GPGGA,000621,4815.00000,N,01130.00000,E,3,10,1.29,-46.05,M,46.05,M,,*68
$GPGGA,000622,4815.00000,N,01130.00000,E,3,10,1.29,-46.05,M,46.05,M,,*6B
$GPGGA,000623,4815.00000,N,01130.00000,E,3,10,1.29,-46.05,M,46.05,M,,*6A
$GPGGA,000624,4815.00000,N,01130.00000,E,3,10,1.29,-46.05,M,46.05,M,,*6D
$GPGGA,000625,4815.00000,N,01130.00000,E,3,10,1.29,-46.05,M,46.05,M,,*6C
$GPGGA,000626,4815.00000,N,01130.00000,E,3,10,1.29,-46.05,M,46.05,M,,*6F
$GPGGA,000627,4815.00000,N,01130.00000,E,3,10,1.29,-46.05,M,46.05,M,,*6E
$GPGGA,000628,4815.00000,N,01130.00000,E,3,10,1.29,-46.05,M,46.05,M,,*61
$GPGGA,000629,4815.00000,N,01130.00000,E,3,10,1.29,-46.05,M,46.05,M,,*60
$GPGGA,000630,4815.00000,N,01130.00000,E,3,10,1.29,-46.05,M,46.05,M,,*68
$GPGGA,000631,4815.00000,N,01130.00000,E,3,10,1.29,-46.05,M,46.05,M,,*69
$GPGGA,000632,4815.00000,N,01130.00000,E,3,10,1.29,-46.05,M,46.05,M,,*6A
$GPGGA,000633,4815.00000,N,01130.00000,E,3,10,1.29,-46.05,M,46.05,M,,*6B
$GPGGA,000634,4815.00000,N,01130.00000,E,3,10,1.29,-46.05,M,46.05,M,,*6C
$GPGGA,000635,4815.00000,N,01130.00000,E,3,10,1.29,-46.05,M,46.05,M,,*6D
$GPGGA,000636,4815.00000,N,01130.00000,E,3,10,1.29,-46.05,M,46.05,M,,*6E
$GPGGA,000637,4815.00000,N,01130.00000,E,3,10,1.29,-46.05,M,46.05,M,,*6F
$GPGGA,000638,4815.00000,N,01130.00000,E,3,10,1.29,-46.05,M,46.05,M,,*60
$GPGGA,000639,4815.00000,N,01130.00000,E,3,10,1.29,-46.05,M,46.05,M,,*61
$GPGGA,000640,4815.00000,N,01130.00000,E,3,10,1.29,-46.05,M,46.05,M,,*6F
$GPGGA,000641,4815.00000,N,01130.00000,E,3,10,1.29,-46.05,M,46.05,M,,*6E
$GPGGA,000642,4815.00000,N,01130.00000,E,3,10,1.29,-46.05,M,46.05,M,,*6D
$GPGGA,000643,4815.00000,N,01130.00000,E,3,10,1.29,-46.05,M,46.05,M,,*6C
$GPGGA,000644,4815.00000,N,01130.00000,E,3,10,1.29,-46.05,M,46.05,M,,*6B
$GPGGA,000645,4815.00000,N,01130.00000,E,3,10,1.29,-46.05,M,46.05,M,,*6A
$GPGGA,000646,4815.00000,N,01130.00000,E,3,10,1.29,-46.05,M,46.05,M,,*69
$GPGGA,000647,4815.00000,N,01130.00000,E,3,10,1.29,-46.05,M,46.05,M,,*68
$GPGGA,000648,4815.00000,N,01130.00000,E,3,10,1.29,-46.05,M,46.05,M,,*67
$GPGGA,000649,4815.00000,N,01130.00000,E,3,10,1.29,-46.05,M,46.05,M,,*66
$GPGGA,000650,4815.00000,N,01130.00000,E,3,10,1.29,-46.05,M,46.05,M,,*6E
$GPGGA,000651,4815.00000,N,01130.00000,E,3,10,1.29,-46.05,M,46.05,M,,*6F
$GPGGA,000652,4815.00000,N,01130.00000,E,3,10,1.29,-46.05,M,46.05,M,,*6C
$GPGGA,000653,4815.00000,N,01130.00000,E,3,10,1.29,-46.05,M,46.05,M,,*6D
$GPGGA,000654,4815.00000,N,01130.00000,E,3,10,1.29,-46.05,M,46.05,M,,*6A
$GPGGA,000655,4815.00000,N,01130.00000,E,3,10,1.29,-46.05,M,46.05,M,,*6B
$GPGGA,000656,4815.00000,N,01130.00000,E,3,10,1.29,-46.05,M,46.05,M,,*68
$GPGGA,000657,4815.00000,N,01130.00000,E,3,10,1.29,-46.05,M,46.05,M,,*69
$GPGGA,000658,4815.00000,N,01130.00000,E,3,10,1.29,-46.05,M,46.05,M,,*66
$GPGGA,000659,4815.00000,N,01130.00000,E,3,10,1.29,-46.05,M,46.05,M,,*67
$GPGGA,000700,4815.00000,N,01130.00000,E,3,10,1.29,-46.05,M,46.05,M,,*6A
$GPGGA,000701,4815.00000,N,01130.00000,E,3,10,1.29,-46.05,M,46.05,M,,*6B
$GPGGA,000702,4815.00000,N,01130.00000,E,3,10,1.29,-46.05,M,46.05,M,,*68
$GPGGA,000703,4815.00000,N,01130.00000,E,3,10,1.29,-46.05,M,46.05,M,,*69
$GPGGA,000704,4815.00000,N,01130.00000,E,3,10,1.29,-46.05,M,46.05,M,,*6E
$GPGGA,000705,4815.00000,N,01130.00000,E,3,10,1.29,-46.05,M,46.05,M,,*6F
$GPGGA,000706,4815.00000,N,01130.00000,E,3,10,1.29,-46.05,M,46.05,M,,*6C
$GPGGA,000707,4815.00000,N,01130.00000,E,3,10,1.29,-46.05,M,46.05,M,,*6D
$GPGGA,000708,4815.00000,N,01130.00000,E,3,10,1.29,-46.05,M,46.05,M,,*62
$GPGGA,000709,4815.00000,N,01130.00000,E,3,10,1.29,-46.05,M,46.05,M,,*63
$GPGGA,000710,4815.00000,N,01130.00000,E,3,10,1.29,-46.05,M,46.05,M,,*6B
$GPGGA,000711,4815.00000,N,01130.00000,E,3,10,1.29,-46.05,M,46.05,M,,*6A
$GPGGA,000712,4815.00000,N,01130.00000,E,3,10,1.29,-46.05,M,46.05,M,,*69
$GPGGA,000713,4815.00000,N,01130.00000,E,3,10,1.29,-46.05,M,46.05,M,,*68
$GPGGA,000714,4815.00000,N,01130.00000,E,3,10,1.29,-46.05,M,46.05,M,,*6F
$GPGGA,000715,4815.00000,N,01130.00000,E,3,10,1.29,-46.05,M,46.05,M,,*6E
$GPGGA,000716,4815.00000,N,01130.00000,E,3,10,1.29,-46.05,M,46.05,M,,*6D
$GPGGA,000717,4815.00000,N,01130.00000,E,3,10,1.29,-46.05,M,46.05,M,,*6C
$GPGGA,000718,4815.00000,N,01130.00000,E,3,10,1.29,-46.05,M,46.05,M,,*63
$GPGGA,000719,4815.00000,N,01130.00000,E,3,10,1.29,-46.05,M,46.05,M,,*62
$GPGGA,000720,4815.00000,N,01130.00000,E,3,10,1.29,-46.05,M,46.05,M,,*68
$GPGGA,000721,4815.00000,N,01130.00000,E,3,10,1.29,-46.05,M,46.05,M,,*69
$GPGGA,000722,4815.00000,N,01130.00000,E,3,10,1.29,-46.05,M,46.05,M,,*6A
$GPGGA,000723,4815.00000,N,01130.00000,E,3,10,1.29,-46.05,M,46.05,M,,*6B
$GPGGA,000724,4815.00000,N,01130.00000,E,3,10,1.29,-46.05,M,46.05,M,,*6C
$GPGGA,000725,4815.00000,N,01130.00000,E,3,10,1.29,-46.05,M,46.05,M,,*6D
$GPGGA,000726,4815.00000,N,01130.00000,E,3,10,1.29,-46.05,M,46.05,M,,*6E
$GPGGA,000727,4815.00000,N,01130.00000,E,3,10,1.29,-46.05,M,46.05,M,,*6F
$GPGGA,000728,4815.00000,N,01130.00000,E,3,10,1.29,-46.05,M,46.05,M,,*60
$GPGGA,000729,4815.00000,N,01130.00000,E,3,10,1.29,-46.05,M,46.05,M,,*61
$GPGGA,000730,4815.00000,N,01130.00000,E,3,10,1.29,-46.05,M,46.05,M,,*69
$GPGGA,000731,4815.00000,N,01130.00000,E,3,10,1.29,-46.05,M,46.05,M,,*68
$GPGGA,000732,4815.00000,N,01130.00000,E,3,10,1.29,-46.05,M,46.05,M,,*6B
$GPGGA,000733,4815.00000,N,01130.00000,E,3,10,1.29,-46.05,M,46.05,M,,*6A
$GPGGA,000734,4815.00000,N,01130.00000,E,3,10,1.29,-46.05,M,46.05,M,,*6D
$GPGGA,000735,4815.00000,N,01130.00000,E,3,10,1.29,-46.05,M,46.05,M,,*6C
$GPGGA,000736,4815.00000,N,01130.00000,E,3,10,1.29,-46.05,M,46.05,M,,*6F
$GPGGA,000737,4815.00000,N,01130.00000,E,3,10,1.29,-46.05,M,46.05,M,,*6E
$GPGGA,000738,4815.00000,N,01130.00000,E,3,10,1.29,-46.05,M,46.05,M,,*61
$GPGGA,000739,4815.00000,N,01130.00000,E,3,10,1.29,-46.05,M,46.05,M,,*60
$GPGGA,000740,4815.00000,N,01130.00000,E,3,10,1.29,-46.05,M,46.05,M,,*6E
$GPGGA,000741,4815.00000,N,01130.00000,E,3,10,1.29,-46.05,M,46.05,M,,*6F
$GPGGA,000742,4815.00000,N,01130.00000,E,3,10,1.29,-46.05,M,46.05,M,,*6C
$GPGGA,000743,4815.00000,N,01130.00000,E,3,10,1.29,-46.05,M,46.05,M,,*6D
$GPGGA,000744,4815.00000,N,01130.00000,E,3,10,1.29,-46.05,M,46.05,M,,*6A
$GPGGA,000745,4815.00000,N,01130.00000,E,3,10,1.29,-46.05,M,46.05,M,,*6B
$GPGGA,000746,4815.00000,N,01130.00000,E,3,10,1.29,-46.05,M,46.05,M,,*68
$GPGGA,000747,4815.00000,N,01130.00000,E,3,10,1.29,-46.05,M,46.05,M,,*69
$GPGGA,000748,4815.00000,N,01130.00000,E,3,10,1.29,-46.05,M,46.05,M,,*66
$GPGGA,000749,4815.00000,N,01130.00000,E,3,10,1.29,-46.05,M,46.05,M,,*67
$GPGGA,000750,4815.00000,N,01130.00000,E,3,10,1.29,-46.05,M,46.05,M,,*6F
$GPGGA,000751,4815.00000,N,01130.00000,E,3,10,1.29,-46.05,M,46.05,M,,*6E
$GPGGA,000752,4815.00000,N,01130.00000,E,3,10,1.30,-46.05,M,46.05,M,,*65
$GPGGA,000753,4815.00000,N,01130.00000,E,3,10,1.30,-46.05,M,46.05,M,,*64
$GPGGA,000754,4815.00000,N,01130.00000,E,3,10,1.30,-46.05,M,46.05,M,,*63
$GPGGA,000755,4815.00000,N,01130.00000,E,3,10,1.30,-46.05,M,46.05,M,,*62
$GPGGA,000756,4815.00000,N,01130.00000,E,3,10,1.30,-46.05,M,46.05,M,,*61
$GPGGA,000757,4815.00000,N,01130.00000,E,3,10,1.30,-46.05,M,46.05,M,,*60
$GPGGA,000758,4815.00000,N,01130.00000,E,3,10,1.30,-46.05,M,46.05,M,,*6F
$GPGGA,000759,4815.00000,N,01130.00000,E,3,10,1.30,-46.05,M,46.05,M,,*6E
$GPGGA,000800,4815.00000,N,01130.00000,E,3,10,1.30,-46.05,M,46.05,M,,*6D
$GPGGA,000801,4815.00000,N,01130.00000,E,3,10,1.30,-46.05,M,46.05,M,,*6C
$GPGGA,000802,4815.00000,N,01130.00000,E,3,10,1.30,-46.05,M,46.05,M,,*6F
$GPGGA,000803,4815.00000,N,01130.00000,E,3,10,1.30,-46.05,M,46.05,M,,*6E
$GPGGA,000804,4815.00000,N,01130.00000,E,3,10,1.30,-46.05,M,46.05,M,,*69
$GPGGA,000805,4815.00000,N,01130.00000,E,3,10,1.30,-46.05,M,46.05,M,,*68
$GPGGA,000806,4815.00000,N,01130.00000,E,3,10,1.30,-46.05,M,46.05,M,,*6B
$GPGGA,000807,4815.00000,N,01130.00000,E,3,10,1.30,-46.05,M,46.05,M,,*6A
$GPGGA,000808,4815.00000,N,01130.00000,E,3,10,1.30,-46.05,M,46.05,M,,*65
$GPGGA,000809,4815.00000,N,01130.00000,E,3,10,1.30,-46.05,M,46.05,M,,*64
$GPGGA,000810,4815.00000,N,01130.00000,E,3,10,1.30,-46.05,M,46.05,M,,*6C
$GPGGA,000811,4815.00000,N,01130.00000,E,3,10,1.30,-46.05,M,46.05,M,,*6D
$GPGGA,000812,4815.00000,N,01130.00000,E,3,10,1.30,-46.05,M,46.05,M,,*6E
$GPGGA,000813,4815.00000,N,01130.00000,E,3,10,1.30,-46.05,M,46.05,M,,*6F
$GPGGA,000814,4815.00000,N,01130.00000,E,3,10,1.30,-46.05,M,46.05,M,,*68
$GPGGA,000815,4815.00000,N,01130.00000,E,3,10,1.30,-46.05,M,46.05,M,,*69
$GPGGA,000816,4815.00000,N,01130.00000,E,3,10,1.30,-46.05,M,46.05,M,,*6A
$GPGGA,000817,4815.00000,N,01130.00000,E,3,10,1.30,-46.05,M,46.05,M,,*6B
$GPGGA,000818,4815.00000,N,01130.00000,E,3,10,1.30,-46.05,M,46.05,M,,*64
$GPGGA,000819,4815.00000,N,01130.00000,E,3,10,1.30,-46.05,M,46.05,M,,*65
$GPGGA,000820,4815.00000,N,01130.00000,E,3,10,1.30,-46.05,M,46.05,M,,*6F
$GPGGA,000821,4815.00000,N,01130.00000,E,3,10,1.30,-46.05,M,46.05,M,,*6E
$GPGGA,000822,4815.00000,N,01130.00000,E,3,10,1.30,-46.05,M,46.05,M,,*6D
$GPGGA,000823,4815.00000,N,01130.00000,E,3,10,1.30,-46.05,M,46.05,M,,*6C
$GPGGA,000824,4815.00000,N,01130.00000,E,3,10,1.30,-46.05,M,46.05,M,,*6B
$GPGGA,000825,4815.00000,N,01130.00000,E,3,10,1.30,-46.05,M,46.05,M,,*6A
$GPGGA,000826,4815.00000,N,01130.00000,E,3,10,1.30,-46.05,M,46.05,M,,*69
$GPGGA,000827,4815.00000,N,01130.00000,E,3,10,1.30,-46.05,M,46.05,M,,*68
$GPGGA,000828,4815.00000,N,01130.00000,E,3,10,1.30,-46.05,M,46.05,M,,*67
$GPGGA,000829,4815.00000,N,01130.00000,E,3,10,1.30,-46.05,M,46.05,M,,*66
$GPGGA,000830,4815.00000,N,01130.00000,E,3,10,1.30,-46.05,M,46.05,M,,*6E
$GPGGA,000831,4815.00000,N,01130.00000,E,3,10,1.30,-46.05,M,46.05,M,,*6F
$GPGGA,000832,4815.00000,N,01130.00000,E,3,10,1.30,-46.05,M,46.05,M,,*6C
$GPGGA,000833,4815.00000,N,01130.00000,E,3,10,1.30,-46.05,M,46.05,M,,*6D
$GPGGA,000834,4815.00000,N,01130.00000,E,3,10,1.30,-46.05,M,46.05,M,,*6A
$GPGGA,000835,4815.00000,N,01130.00000,E,3,10,1.30,-46.05,M,46.05,M,,*6B
$GPGGA,000836,4815.00000,N,01130.00000,E,3,10,1.30,-46.05,M,46.05,M,,*68
$GPGGA,000837,4815.00000,N,01130.00000,E,3,10,1.30,-46.05,M,46.05,M,,*69
$GPGGA,000838,4815.00000,N,01130.00000,E,3,10,1.30,-46.05,M,46.05,M,,*66
$GPGGA,000839,4815.00000,N,01130.00000,E,3,10,1.30,-46.05,M,46.05,M,,*67
$GPGGA,000840,4815.00000,N,01130.00000,E,3,10,1.30,-46.05,M,46.05,M,,*69
$GPGGA,000841,4815.00000,N,01130.00000,E,3,10,1.30,-46.05,M,46.05,M,,*68
$GPGGA,000842,4815.00000,N,01130.00000,E,3,10,1.30,-46.05,M,46.05,M,,*6B
$GPGGA,000843,4815.00000,N,01130.00000,E,3,10,1.30,-46.05,M,46.05,M,,*6A
$GPGGA,000844,4815.00000,N,01130.00000,E,3,10,1.30,-46.05,M,46.05,M,,*6D
$GPGGA,000845,4815.00000,N,01130.00000,E,3,10,1.30,-46.05,M,46.05,M,,*6C
$GPGGA,000846,4815.00000,N,01130.00000,E,3,10,1.30,-46.05,M,46.05,M,,*6F
$GPGGA,000847,4815.00000,N,01130.00000,E,3,10,1.30,-46.05,M,46.05,M,,*6E
$GPGGA,000848,4815.00000,N,01130.00000,E,3,10,1.30,-46.05,M,46.05,M,,*61
$GPGGA,000849,4815.00000,N,01130.00000,E,3,10,1.30,-46.05,M,46.05,M,,*60
$GPGGA,000850,4815.00000,N,01130.00000,E,3,10,1.30,-46.05,M,46.05,M,,*68
$GPGGA,000851,4815.00000,N,01130.00000,E,3,10,1.30,-46.05,M,46.05,M,,*69
$GPGGA,000852,4815.00000,N,01130.00000,E,3,10,1.30,-46.05,M,46.05,M,,*6A
$GPGGA,000853,4815.00000,N,01130.00000,E,3,10,1.30,-46.05,M,46.05,M,,*6B
$GPGGA,000854,4815.00000,N,01130.00000,E,3,10,1.30,-46.05,M,46.05,M,,*6C
$GPGGA,000855,4815.00000,N,01130.00000,E,3,10,1.30,-46.05,M,46.05,M,,*6D
$GPGGA,000856,4815.00000,N,01130.00000,E,3,10,1.30,-46.05,M,46.05,M,,*6E
$GPGGA,000857,4815.00000,N,01130.00000,E,3,10,1.30,-46.05,M,46.05,M,,*6F
$GPGGA,000858,4815.00000,N,01130.00000,E,3,10,1.30,-46.05,M,46.05,M,,*60
$GPGGA,000859,4815.00000,N,01130.00000,E,3,10,1.30,-46.05,M,46.05,M,,*61
$GPGGA,000900,4815.00000,N,01130.00000,E,3,10,1.30,-46.05,M,46.05,M,,*6C
$GPGGA,000901,4815.00000,N,01130.00000,E,3,10,1.30,-46.05,M,46.05,M,,*6D
$GPGGA,000902,4815.00000,N,01130.00000,E,3,10,1.30,-46.05,M,46.05,M,,*6E
$GPGGA,000903,4815.00000,N,01130.00000,E,3,10,1.30,-46.05,M,46.05,M,,*6F
$GPGGA,000904,4815.00000,N,01130.00000,E,3,10,1.30,-46.05,M,46.05,M,,*68
$GPGGA,000905,4815.00000,N,01130.00000,E,3,10,1.30,-46.05,M,46.05,M,,*69
$GPGGA,000906,4815.00000,N,01130.00000,E,3,10,1.30,-46.05,M,46.05,M,,*6A
$GPGGA,000907,4815.00000,N,01130.00000,E,3,10,1.30,-46.05,M,46.05,M,,*6B
$GPGGA,000908,4815.00000,N,01130.00000,E,3,10,1.30,-46.05,M,46.05,M,,*64
$GPGGA,000909,4815.00000,N,01130.00000,E,3,10,1.30,-46.05,M,46.05,M,,*65
$GPGGA,000910,4815.00000,N,01130.00000,E,3,10,1.30,-46.05,M,46.05,M,,*6D
$GPGGA,000911,4815.00000,N,01130.00000,E,3,10,1.30,-46.05,M,46.05,M,,*6C
$GPGGA,000912,4815.00000,N,01130.00000,E,3,10,1.30,-46.05,M,46.05,M,,*6F
$GPGGA,000913,4815.00000,N,01130.00000,E,3,10,1.30,-46.05,M,46.05,M,,*6E
$GPGGA,000914,4815.00000,N,01130.00000,E,3,10,1.30,-46.05,M,46.05,M,,*69
$GPGGA,000915,4815.00000,N,01130.00000,E,3,10,1.30,-46.05,M,46.05,M,,*68
$GPGGA,000916,4815.00000,N,01130.00000,E,3,10,1.30,-46.05,M,46.05,M,,*6B
$GPGGA,000917,4815.00000,N,01130.00000,E,3,10,1.30,-46.05,M,46.05,M,,*6A
$GPGGA,000918,4815.00000,N,01130.00000,E,3,10,1.30,-46.05,M,46.05,M,,*65
$GPGGA,000919,4815.00000,N,01130.00000,E,3,10,1.30,-46.05,M,46.05,M,,*64
$GPGGA,000920,4815.00000,N,01130.00000,E,3,10,1.30,-46.05,M,46.05,M,,*6E
$GPGGA,000921,4815.00000,N,01130.00000,E,3,10,1.30,-46.05,M,46.05,M,,*6F
$GPGGA,000922,4815.00000,N,01130.00000,E,3,10,1.30,-46.05,M,46.05,M,,*6C
$GPGGA,000923,4815.00000,N,01130.00000,E,3,10,1.30,-46.05,M,46.05,M,,*6D
$GPGGA,000924,4815.00000,N,01130.00000,E,3,10,1.30,-46.05,M,46.05,M,,*6A
$GPGGA,000925,4815.00000,N,01130.00000,E,3,10,1.30,-46.05,M,46.05,M,,*6B
$GPGGA,000926,4815.00000,N,01130.00000,E,3,10,1.30,-46.05,M,46.05,M,,*68
$GPGGA,000927,4815.00000,N,01130.00000,E,3,10,1.30,-46.05,M,46.05,M,,*69
$GPGGA,000928,4815.00000,N,01130.00000,E,3,10,1.30,-46.05,M,46.05,M,,*66
$GPGGA,000929,4815.00000,N,01130.00000,E,3,10,1.30,-46.05,M,46.05,M,,*67
$GPGGA,000930,4815.00000,N,01130.00000,E,3,10,1.30,-46.05,M,46.05,M,,*6F
$GPGGA,000931,4815.00000,N,01130.00000,E,3,10,1.30,-46.05,M,46.05,M,,*6E
$GPGGA,000932,4815.00000,N,01130.00000,E,3,10,1.30,-46.05,M,46.05,M,,*6D
$GPGGA,000933,4815.00000,N,01130.00000,E,3,10,1.30,-46.05,M,46.05,M,,*6C
$GPGGA,000934,4815.00000,N,01130.00000,E,3,10,1.30,-46.05,M,46.05,M,,*6B
$GPGGA,000935,4815.00000,N,01130.00000,E,3,10,1.30,-46.05,M,46.05,M,,*6A
$GPGGA,000936,4815.00000,N,01130.00000,E,3,10,1.30,-46.05,M,46.05,M,,*69
$GPGGA,000937,4815.00000,N,01130.00000,E,3,10,1.30,-46.05,M,46.05,M,,*68
$GPGGA,000938,4815.00000,N,01130.00000,E,3,10,1.30,-46.05,M,46.05,M,,*67
$GPGGA,000939,4815.00000,N,01130.00000,E,3,10,1.30,-46.05,M,46.05,M,,*66
$GPGGA,000940,4815.00000,N,01130.00000,E,3,10,1.30,-46.05,M,46.05,M,,*68
$GPGGA,000941,4815.00000,N,01130.00000,E,3,10,1.30,-46.05,M,46.05,M,,*69
$GPGGA,000942,4815.00000,N,01130.00000,E,3,10,1.30,-46.05,M,46.05,M,,*6A
$GPGGA,000943,4815.00000,N,01130.00000,E,3,10,1.30,-46.05,M,46.05,M,,*6B
$GPGGA,000944,4815.00000,N,01130.00000,E,3,10,1.30,-46.05,M,46.05,M,,*6C
$GPGGA,000945,4815.00000,N,01130.00000,E,3,10,1.30,-46.05,M,46.05,M,,*6D
$GPGGA,000946,4815.00000,N,01130.00000,E,3,10,1.30,-46.05,M,46.05,M,,*6E
$GPGGA,000947,4815.00000,N,01130.00000,E,3,10,1.30,-46.05,M,46.05,M,,*6F
$GPGGA,000948,4815.00000,N,01130.00000,E,3,10,1.30,-46.05,M,46.05,M,,*60
$GPGGA,000949,4815.00000,N,01130.00000,E,3,10,1.30,-46.05,M,46.05,M,,*61
$GPGGA,000950,4815.00000,N,01130.00000,E,3,10,1.30,-46.05,M,46.05,M,,*69
$GPGGA,000951,4815.00000,N,01130.00000,E,3,10,1.30,-46.05,M,46.05,M,,*68
$GPGGA,000952,4815.00000,N,01130.00000,E,3,10,1.31,-46.05,M,46.05,M,,*6A
$GPGGA,000953,4815.00000,N,01130.00000,E,3,10,1.31,-46.05,M,46.05,M,,*6B
$GPGGA,000954,4815.00000,N,01130.00000,E,3,10,1.31,-46.05,M,46.05,M,,*6C
$GPGGA,000955,4815.00000,N,01130.00000,E,3,10,1.31,-46.05,M,46.05,M,,*6D
$GPGGA,000956,4815.00000,N,01130.00000,E,3,10,1.31,-46.05,M,46.05,M,,*6E
$GPGGA,000957,4815.00000,N,01130.00000,E,3,10,1.31,-46.05,M,46.05,M,,*6F
$GPGGA,000958,4815.00000,N,01130.00000,E,3,10,1.31,-46.05,M,46.05,M,,*60
$GPGGA,000959,4815.00000,N,01130.00000,E,3,10,1.31,-46.05,M,46.05,M,,*61
$GPGGA,001000,4815.00000,N,01130.00000,E,3,10,1.31,-46.05,M,46.05,M,,*65
$GPGGA,001001,4815.00000,N,01130.00000,E,3,10,1.31,-46.05,M,46.05,M,,*64
$GPGGA,001002,4815.00000,N,01130.00000,E,3,10,1.31,-46.05,M,46.05,M,,*67
$GPGGA,001003,4815.00000,N,01130.00000,E,3,10,1.31,-46.05,M,46.05,M,,*66
$GPGGA,001004,4815.00000,N,01130.00000,E,3,10,1.31,-46.05,M,46.05,M,,*61
$GPGGA,001005,4815.00000,N,01130.00000,E,3,10,1.31,-46.05,M,46.05,M,,*60
$GPGGA,001006,4815.00000,N,01130.00000,E,3,10,1.31,-46.05,M,46.05,M,,*63
$GPGGA,001007,4815.00000,N,01130.00000,E,3,10,1.31,-46.05,M,46.05,M,,*62
$GPGGA,001008,4815.00000,N,01130.00000,E,3,10,1.31,-46.05,M,46.05,M,,*6D
$GPGGA,001009,4815.00000,N,01130.00000,E,3,10,1.31,-46.05,M,46.05,M,,*6C
$GPGGA,001010,4815.00000,N,01130.00000,E,3,10,1.31,-46.05,M,46.05,M,,*64
$GPGGA,001011,4815.00000,N,01130.00000,E,3,10,1.31,-46.05,M,46.05,M,,*65
$GPGGA,001012,4815.00000,N,01130.00000,E,3,10,1.31,-46.05,M,46.05,M,,*66
$GPGGA,001013,4815.00000,N,01130.00000,E,3,10,1.31,-46.05,M,46.05,M,,*67
$GPGGA,001014,4815.00000,N,01130.00000,E,3,10,1.31,-46.05,M,46.05,M,,*60
$GPGGA,001015,4815.00000,N,01130.00000,E,3,10,1.31,-46.05,M,46.05,M,,*61
$GPGGA,001016,4815.00000,N,01130.00000,E,3,10,1.31,-46.05,M,46.05,M,,*62
$GPGGA,001017,4815.00000,N,01130.00000,E,3,10,1.31,-46.05,M,46.05,M,,*63
$GPGGA,001018,4815.00000,N,01130.00000,E,3,10,1.31,-46.05,M,46.05,M,,*6C
$GPGGA,001019,4815.00000,N,01130.00000,E,3,10,1.31,-46.05,M,46.05,M,,*6D
$GPGGA,001020,4815.00000,N,01130.00000,E,3,10,1.31,-46.05,M,46.05,M,,*67
$GPGGA,001021,4815.00000,N,01130.00000,E,3,10,1.31,-46.05,M,46.05,M,,*66
$GPGGA,001022,4815.00000,N,01130.00000,E,3,10,1.31,-46.05,M,46.05,M,,*65
$GPGGA,001023,4815.00000,N,01130.00000,E,3,10,1.31,-46.05,M,46.05,M,,*64
$GPGGA,001024,4815.00000,N,01130.00000,E,3,10,1.31,-46.05,M,46.05,M,,*63
$GPGGA,001025,4815.00000,N,01130.00000,E,3,10,1.31,-46.05,M,46.05,M,,*62
$GPGGA,001026,4815.00000,N,01130.00000,E,3,10,1.31,-46.05,M,46.05,M,,*61
$GPGGA,001027,4815.00000,N,01130.00000,E,3,10,1.31,-46.05,M,46.05,M,,*60
$GPGGA,001028,4815.00000,N,01130.00000,E,3,10,1.31,-46.05,M,46.05,M,,*6F
$GPGGA,001029,4815.00000,N,01130.00000,E,3,10,1.31,-46.05,M,46.05,M,,*6E
$GPGGA,001030,4815.00000,N,01130.00000,E,3,10,1.31,-46.05,M,46.05,M,,*66
$GPGGA,001031,4815.00000,N,01130.00000,E,3,10,1.31,-46.05,M,46.05,M,,*67
$GPGGA,001032,4815.00000,N,01130.00000,E,3,10,1.31,-46.05,M,46.05,M,,*64
$GPGGA,001033,4815.00000,N,01130.00000,E,3,10,1.31,-46.05,M,46.05,M,,*65
$GPGGA,001034,4815.00000,N,01130.00000,E,3,10,1.31,-46.05,M,46.05,M,,*62
$GPGGA,001035,4815.00000,N,01130.00000,E,3,10,1.31,-46.05,M,46.05,M,,*63
$GPGGA,001036,4815.00000,N,01130.00000,E,3,10,1.31,-46.05,M,46.05,M,,*60
$GPGGA,001037,4815.00000,N,01130.00000,E,3,10,1.31,-46.05,M,46.05,M,,*61
$GPGGA,001038,4815.00000,N,01130.00000,E,3,10,1.31,-46.05,M,46.05,M,,*6E
$GPGGA,001039,4815.00000,N,01130.00000,E,3,10,1.31,-46.05,M,46.05,M,,*6F
$GPGGA,001040,4815.00000,N,01130.00000,E,3,10,1.31,-46.05,M,46.05,M,,*61
$GPGGA,001041,4815.00000,N,01130.00000,E,3,10,1.31,-46.05,M,46.05,M,,*60
$GPGGA,001042,4815.00000,N,01130.00000,E,3,10,1.31,-46.05,M,46.05,M,,*63
$GPGGA,001043,4815.00000,N,01130.00000,E,3,10,1.31,-46.05,M,46.05,M,,*62
$GPGGA,001044,4815.00000,N,01130.00000,E,3,10,1.31,-46.05,M,46.05,M,,*65
$GPGGA,001045,4815.00000,N,01130.00000,E,3,10,1.31,-46.05,M,46.05,M,,*64
$GPGGA,001046,4815.00000,N,01130.00000,E,3,10,1.31,-46.05,M,46.05,M,,*67
$GPGGA,001047,4815.00000,N,01130.00000,E,3,10,1.31,-46.05,M,46.05,M,,*66
$GPGGA,001048,4815.00000,N,01130.00000,E,3,10,1.31,-46.05,M,46.05,M,,*69
$GPGGA,001049,4815.00000,N,01130.00000,E,3,10,1.31,-46.05,M,46.05,M,,*68
$GPGGA,001050,4815.00000,N,01130.00000,E,3,10,1.31,-46.05,M,46.05,M,,*60
$GPGGA,001051,4815.00000,N,01130.00000,E,3,10,1.31,-46.05,M,46.05,M,,*61
$GPGGA,001052,4815.00000,N,01130.00000,E,3,10,1.31,-46.05,M,46.05,M,,*62
$GPGGA,001053,4815.00000,N,01130.00000,E,3,10,1.31,-46.05,M,46.05,M,,*63
$GPGGA,001054,4815.00000,N,01130.00000,E,3,10,1.31,-46.05,M,46.05,M,,*64
$GPGGA,001055,4815.00000,N,01130.00000,E,3,10,1.31,-46.05,M,46.05,M,,*65
$GPGGA,001056,4815.00000,N,01130.00000,E,3,10,1.31,-46.05,M,46.05,M,,*66
$GPGGA,001057,4815.00000,N,01130.00000,E,3,10,1.31,-46.05,M,46.05,M,,*67
$GPGGA,001058,4815.00000,N,01130.00000,E,3,10,1.31,-46.05,M,46.05,M,,*68
$GPGGA,001059,4815.00000,N,01130.00000,E,3,10,1.31,-46.05,M,46.05,M,,*69
$GPGGA,001100,4815.00000,N,01130.00000,E,3,10,1.31,-46.05,M,46.05,M,,*64
$GPGGA,001101,4815.00000,N,01130.00000,E,3,10,1.31,-46.05,M,46.05,M,,*65
$GPGGA,001102,4815.00000,N,01130.00000,E,3,10,1.31,-46.05,M,46.05,M,,*66
$GPGGA,001103,4815.00000,N,01130.00000,E,3,10,1.31,-46.05,M,46.05,M,,*67
$GPGGA,001104,4815.00000,N,01130.00000,E,3,10,1.31,-46.05,M,46.05,M,,*60
$GPGGA,001105,4815.00000,N,01130.00000,E,3,10,1.31,-46.05,M,46.05,M,,*61
$GPGGA,001106,4815.00000,N,01130.00000,E,3,10,1.31,-46.05,M,46.05,M,,*62
$GPGGA,001107,4815.00000,N,01130.00000,E,3,10,1.31,-46.05,M,46.05,M,,*63
$GPGGA,001108,4815.00000,N,01130.00000,E,3,10,1.31,-46.05,M,46.05,M,,*6C
$GPGGA,001109,4815.00000,N,01130.00000,E,3,10,1.31,-46.05,M,46.05,M,,*6D
$GPGGA,001110,4815.00000,N,01130.00000,E,3,10,1.31,-46.05,M,46.05,M,,*65
$GPGGA,001111,4815.00000,N,01130.00000,E,3,10,1.31,-46.05,M,46.05,M,,*64
$GPGGA,001112,4815.00000,N,01130.00000,E,3,10,1.31,-46.05,M,46.05,M,,*67
$GPGGA,001113,4815.00000,N,01130.00000,E,3,10,1.31,-46.05,M,46.05,M,,*66
$GPGGA,001114,4815.00000,N,01130.00000,E,3,10,1.31,-46.05,M,46.05,M,,*61
$GPGGA,001115,4815.00000,N,01130.00000,E,3,10,1.31,-46.05,M,46.05,M,,*60
$GPGGA,001116,4815.00000,N,01130.00000,E,3,10,1.31,-46.05,M,46.05,M,,*63
$GPGGA,001117,4815.00000,N,01130.00000,E,3,10,1.31,-46.05,M,46.05,M,,*62
$GPGGA,001118,4815.00000,N,01130.00000,E,3,10,1.31,-46.05,M,46.05,M,,*6D
$GPGGA,001119,4815.00000,N,01130.00000,E,3,10,1.31,-46.05,M,46.05,M,,*6C
$GPGGA,001120,4815.00000,N,01130.00000,E,3,10,1.31,-46.05,M,46.05,M,,*66
$GPGGA,001121,4815.00000,N,01130.00000,E,3,10,1.31,-46.05,M,46.05,M,,*67
$GPGGA,001122,4815.00000,N,01130.00000,E,3,10,1.31,-46.05,M,46.05,M,,*64
$GPGGA,001123,4815.00000,N,01130.00000,E,3,10,1.31,-46.05,M,46.05,M,,*65
$GPGGA,001124,4815.00000,N,01130.00000,E,3,10,1.31,-46.05,M,46.05,M,,*62
$GPGGA,001125,4815.00000,N,01130.00000,E,3,10,1.31,-46.05,M,46.05,M,,*63
$GPGGA,001126,4815.00000,N,01130.00000,E,3,10,1.31,-46.05,M,46.05,M,,*60
$GPGGA,001127,4815.00000,N,01130.00000,E,3,10,1.31,-46.05,M,46.05,M,,*61
$GPGGA,001128,4815.00000,N,01130.00000,E,3,10,1.31,-46.05,M,46.05,M,,*6E
$GPGGA,001129,4815.00000,N,01130.00000,E,3,10,1.31,-46.05,M,46.05,M,,*6F
$GPGGA,001130,4815.00000,N,01130.00000,E,3,10,1.31,-46.05,M,46.05,M,,*67
$GPGGA,001131,4815.00000,N,01130.00000,E,3,10,1.31,-46.05,M,46.05,M,,*66
$GPGGA,001132,4815.00000,N,01130.00000,E,3,10,1.31,-46.05,M,46.05,M,,*65
$GPGGA,001133,4815.00000,N,01130.00000,E,3,10,1.31,-46.05,M,46.05,M,,*64
$GPGGA,001134,4815.00000,N,01130.00000,E,3,10,1.31,-46.05,M,46.05,M,,*63
$GPGGA,001135,4815.00000,N,01130.00000,E,3,10,1.31,-46.05,M,46.05,M,,*62
$GPGGA,001136,4815.00000,N,01130.00000,E,3,10,1.31,-46.05,M,46.05,M,,*61
$GPGGA,001137,4815.00000,N,01130.00000,E,3,10,1.31,-46.05,M,46.05,M,,*60
$GPGGA,001138,4815.00000,N,01130.00000,E,3,10,1.31,-46.05,M,46.05,M,,*6F
$GPGGA,001139,4815.00000,N,01130.00000,E,3,10,1.31,-46.05,M,46.05,M,,*6E
$GPGGA,001140,4815.00000,N,01130.00000,E,3,10,1.31,-46.05,M,46.05,M,,*60
$GPGGA,001141,4815.00000,N,01130.00000,E,3,10,1.31,-46.05,M,46.05,M,,*61
$GPGGA,001142,4815.00000,N,01130.00000,E,3,10,1.31,-46.05,M,46.05,M,,*62
$GPGGA,001143,4815.00000,N,01130.00000,E,3,10,1.31,-46.05,M,46.05,M,,*63
$GPGGA,001144,4815.00000,N,01130.00000,E,3,10,1.31,-46.05,M,46.05,M,,*64
$GPGGA,001145,4815.00000,N,01130.00000,E,3,10,1.31,-46.05,M,46.05,M,,*65
$GPGGA,001146,4815.00000,N,01130.00000,E,3,10,1.31,-46.05,M,46.05,M,,*66
$GPGGA,001147,4815.00000,N,01130.00000,E,3,10,1.31,-46.05,M,46.05,M,,*67
$GPGGA,001148,4815.00000,N,01130.00000,E,3,10,1.31,-46.05,M,46.05,M,,*68
$GPGGA,001149,4815.00000,N,01130.00000,E,3,10,1.31,-46.05,M,46.05,M,,*69
$GPGGA,001150,4815.00000,N,01130.00000,E,3,10,1.31,-46.05,M,46.05,M,,*61
$GPGGA,001151,4815.00000,N,01130.00000,E,3,10,1.31,-46.05,M,46.05,M,,*60
$GPGGA,001152,4815.00000,N,01130.00000,E,3,10,1.31,-46.05,M,46.05,M,,*63
$GPGGA,001153,4815.00000,N,01130.00000,E,3,10,1.31,-46.05,M,46.05,M,,*62
$GPGGA,001154,4815.00000,N,01130.00000,E,3,10,1.31,-46.05,M,46.05,M,,*65
$GPGGA,001155,4815.00000,N,01130.00000,E,3,10,1.31,-46.05,M,46.05,M,,*64
$GPGGA,001156,4815.00000,N,01130.00000,E,3,10,1.31,-46.05,M,46.05,M,,*67
$GPGGA,001157,4815.00000,N,01130.00000,E,3,10,1.31,-46.05,M,46.05,M,,*66
$GPGGA,001158,4815.00000,N,01130.00000,E,3,10,1.31,-46.05,M,46.05,M,,*69
$GPGGA,001159,4815.00000,N,01130.00000,E,3,10,1.31,-46.05,M,46.05,M,,*68
$GPGGA,001200,4815.00000,N,01130.00000,E,3,10,1.31,-46.05,M,46.05,M,,*67
$GPGGA,001201,4815.00000,N,01130.00000,E,3,10,1.31,-46.05,M,46.05,M,,*66
$GPGGA,001202,4815.00000,N,01130.00000,E,3,10,1.31,-46.05,M,46.05,M,,*65
$GPGGA,001203,4815.00000,N,01130.00000,E,3,10,1.31,-46.05,M,46.05,M,,*64
$GPGGA,001204,4815.00000,N,01130.00000,E,3,10,1.32,-46.05,M,46.05,M,,*60
$GPGGA,001205,4815.00000,N,01130.00000,E,3,10,1.32,-46.05,M,46.05,M,,*61
$GPGGA,001206,4815.00000,N,01130.00000,E,3,10,1.32,-46.05,M,46.05,M,,*62
$GPGGA,001207,4815.00000,N,01130.00000,E,3,10,1.32,-46.05,M,46.05,M,,*63
$GPGGA,001208,4815.00000,N,01130.00000,E,3,10,1.32,-46.05,M,46.05,M,,*6C
$GPGGA,001209,4815.00000,N,01130.00000,E,3,10,1.32,-46.05,M,46.05,M,,*6D
$GPGGA,001210,4815.00000,N,01130.00000,E,3,10,1.32,-46.05,M,46.05,M,,*65
$GPGGA,001211,4815.00000,N,01130.00000,E,3,10,1.32,-46.05,M,46.05,M,,*64
$GPGGA,001212,4815.00000,N,01130.00000,E,3,10,1.32,-46.05,M,46.05,M,,*67
$GPGGA,001213,4815.00000,N,01130.00000,E,3,10,1.32,-46.05,M,46.05,M,,*66
$GPGGA,001214,4815.00000,N,01130.00000,E,3,10,1.32,-46.05,M,46.05,M,,*61
$GPGGA,001215,4815.00000,N,01130.00000,E,3,10,1.32,-46.05,M,46.05,M,,*60
$GPGGA,001216,4815.00000,N,01130.00000,E,3,10,1.32,-46.05,M,46.05,M,,*63
$GPGGA,001217,4815.00000,N,01130.00000,E,3,10,1.32,-46.05,M,46.05,M,,*62
$GPGGA,001218,4815.00000,N,01130.00000,E,3,10,1.32,-46.05,M,46.05,M,,*6D
$GPGGA,001219,4815.00000,N,01130.00000,E,3,10,1.32,-46.05,M,46.05,M,,*6C
$GPGGA,001220,4815.00000,N,01130.00000,E,3,10,1.32,-46.05,M,46.05,M,,*66
$GPGGA,001221,4815.00000,N,01130.00000,E,3,10,1.32,-46.05,M,46.05,M,,*67
$GPGGA,001222,4815.00000,N,01130.00000,E,3,10,1.32,-46.05,M,46.05,M,,*64
$GPGGA,001223,4815.00000,N,01130.00000,E,3,10,1.32,-46.05,M,46.05,M,,*65
$GPGGA,001224,4815.00000,N,01130.00000,E,3,10,1.32,-46.05,M,46.05,M,,*62
$GPGGA,001225,4815.00000,N,01130.00000,E,3,10,1.32,-46.05,M,46.05,M,,*63
$GPGGA,001226,4815.00000,N,01130.00000,E,3,10,1.32,-46.05,M,46.05,M,,*60
$GPGGA,001227,4815.00000,N,01130.00000,E,3,10,1.32,-46.05,M,46.05,M,,*61
$GPGGA,001228,4815.00000,N,01130.00000,E,3,10,1.32,-46.05,M,46.05,M,,*6E
$GPGGA,001229,4815.00000,N,01130.00000,E,3,10,1.32,-46.05,M,46.05,M,,*6F
$GPGGA,001230,4815.00000,N,01130.00000,E,3,10,1.32,-46.05,M,46.05,M,,*67
$GPGGA,001231,4815.00000,N,01130.00000,E,3,10,1.32,-46.05,M,46.05,M,,*66
$GPGGA,001232,4815.00000,N,01130.00000,E,3,10,1.32,-46.05,M,46.05,M,,*65
$GPGGA,001233,4815.00000,N,01130.00000,E,3,10,1.32,-46.05,M,46.05,M,,*64
$GPGGA,001234,4815.00000,N,01130.00000,E,3,10,1.32,-46.05,M,46.05,M,,*63
$GPGGA,001235,4815.00000,N,01130.00000,E,3,10,1.32,-46.05,M,46.05,M,,*62
$GPGGA,001236,4815.00000,N,01130.00000,E,3,10,1.32,-46.05,M,46.05,M,,*61
$GPGGA,001237,4815.00000,N,01130.00000,E,3,10,1.32,-46.05,M,46.05,M,,*60
$GPGGA,001238,4815.00000,N,01130.00000,E,3,10,1.32,-46.05,M,46.05,M,,*6F
$GPGGA,001239,4815.00000,N,01130.00000,E,3,10,1.32,-46.05,M,46.05,M,,*6E
$GPGGA,001240,4815.00000,N,01130.00000,E,3,10,1.32,-46.05,M,46.05,M,,*60
$GPGGA,001241,4815.00000,N,01130.00000,E,3,10,1.32,-46.05,M,46.05,M,,*61
$GPGGA,001242,4815.00000,N,01130.00000,E,3,10,1.32,-46.05,M,46.05,M,,*62
$GPGGA,001243,4815.00000,N,01130.00000,E,3,10,1.32,-46.05,M,46.05,M,,*63
$GPGGA,001244,4815.00000,N,01130.00000,E,3,10,1.32,-46.05,M,46.05,M,,*64
$GPGGA,001245,4815.00000,N,01130.00000,E,3,10,1.32,-46.05,M,46.05,M,,*65
$GPGGA,001246,4815.00000,N,01130.00000,E,3,10,1.32,-46.05,M,46.05,M,,*66
$GPGGA,001247,4815.00000,N,01130.00000,E,3,10,1.32,-46.05,M,46.05,M,,*67
$GPGGA,001248,4815.00000,N,01130.00000,E,3,10,1.32,-46.05,M,46.05,M,,*68
$GPGGA,001249,4815.00000,N,01130.00000,E,3,10,1.32,-46.05,M,46.05,M,,*69
$GPGGA,001250,4815.00000,N,01130.00000,E,3,10,1.32,-46.05,M,46.05,M,,*61
$GPGGA,001251,4815.00000,N,01130.00000,E,3,10,1.32,-46.05,M,46.05,M,,*60
$GPGGA,001252,4815.00000,N,01130.00000,E,3,10,1.32,-46.05,M,46.05,M,,*63
$GPGGA,001253,4815.00000,N,01130.00000,E,3,10,1.32,-46.05,M,46.05,M,,*62
$GPGGA,001254,4815.00000,N,01130.00000,E,3,10,1.32,-46.05,M,46.05,M,,*65
$GPGGA,001255,4815.00000,N,01130.00000,E,3,10,1.32,-46.05,M,46.05,M,,*64
$GPGGA,001256,4815.00000,N,01130.00000,E,3,10,1.32,-46.05,M,46.05,M,,*67
$GPGGA,001257,4815.00000,N,01130.00000,E,3,10,1.32,-46.05,M,46.05,M,,*66
$GPGGA,001258,4815.00000,N,01130.00000,E,3,10,1.32,-46.05,M,46.05,M,,*69
$GPGGA,001259,4815.00000,N,01130.00000,E,3,10,1.32,-46.05,M,46.05,M,,*68
$GPGGA,001300,4815.00000,N,01130.00000,E,3,10,1.32,-46.05,M,46.05,M,,*65
$GPGGA,001301,4815.00000,N,01130.00000,E,3,10,1.32,-46.05,M,46.05,M,,*64
$GPGGA,001302,4815.00000,N,01130.00000,E,3,10,1.32,-46.05,M,46.05,M,,*67
$GPGGA,001303,4815.00000,N,01130.00000,E,3,10,1.32,-46.05,M,46.05,M,,*66
$GPGGA,001304,4815.00000,N,01130.00000,E,3,10,1.32,-46.05,M,46.05,M,,*61
$GPGGA,001305,4815.00000,N,01130.00000,E,3,10,1.32,-46.05,M,46.05,M,,*60
$GPGGA,001306,4815.00000,N,01130.00000,E,3,10,1.32,-46.05,M,46.05,M,,*63
$GPGGA,001307,4815.00000,N,01130.00000,E,3,10,1.32,-46.05,M,46.05,M,,*62
$GPGGA,001308,4815.00000,N,01130.00000,E,3,10,1.32,-46.05,M,46.05,M,,*6D
$GPGGA,001309,4815.00000,N,01130.00000,E,3,10,1.32,-46.05,M,46.05,M,,*6C
$GPGGA,001310,4815.00000,N,01130.00000,E,3,10,1.32,-46.05,M,46.05,M,,*64
$GPGGA,001311,4815.00000,N,01130.00000,E,3,10,1.32,-46.05,M,46.05,M,,*65
$GPGGA,001312,4815.00000,N,01130.00000,E,3,10,1.32,-46.05,M,46.05,M,,*66
$GPGGA,001313,4815.00000,N,01130.00000,E,3,10,1.32,-46.05,M,46.05,M,,*67
$GPGGA,001314,4815.00000,N,01130.00000,E,3,10,1.32,-46.05,M,46.05,M,,*60
$GPGGA,001315,4815.00000,N,01130.00000,E,3,10,1.32,-46.05,M,46.05,M,,*61
$GPGGA,001316,4815.00000,N,01130.00000,E,3,10,1.32,-46.05,M,46.05,M,,*62
$GPGGA,001317,4815.00000,N,01130.00000,E,3,10,1.32,-46.05,M,46.05,M,,*63
$GPGGA,001318,4815.00000,N,01130.00000,E,3,10,1.32,-46.05,M,46.05,M,,*6C
$GPGGA,001319,4815.00000,N,01130.00000,E,3,10,1.32,-46.05,M,46.05,M,,*6D
$GPGGA,001320,4815.00000,N,01130.00000,E,3,10,1.32,-46.05,M,46.05,M,,*67
$GPGGA,001321,4815.00000,N,01130.00000,E,3,10,1.32,-46.05,M,46.05,M,,*66
$GPGGA,001322,4815.00000,N,01130.00000,E,3,10,1.32,-46.05,M,46.05,M,,*65
