$GPGGA,000529,3000.26023,N,12000.39816,E,3,22,1.03,-7.86,M,7.86,M,,*61
$GPRMC,000529,A,3000.26023,N,12000.39816,E,75.594,106.260,230721,0.000,E,A,V*53
$GPGGA,000530,3000.25356,N,12000.42109,E,3,22,1.03,-7.86,M,7.86,M,,*60
$GPRMC,000530,A,3000.25356,N,12000.42109,E,75.594,110.716,230721,0.000,E,A,V*51
$GPGGA,000531,3000.24536,N,12000.44336,E,3,22,1.03,-7.86,M,7.86,M,,*68
$GPRMC,000531,A,3000.24536,N,12000.44336,E,75.594,115.173,230721,0.000,E,A,V*59
$GPGGA,000532,3000.23567,N,12000.46482,E,3,22,1.03,-7.86,M,7.86,M,,*62
$GPRMC,000532,A,3000.23567,N,12000.46482,E,75.594,119.630,230721,0.000,E,A,V*5F
$GPGGA,000533,3000.22457,N,12000.48536,E,3,22,1.03,-7.86,M,7.86,M,,*60
$GPRMC,000533,A,3000.22457,N,12000.48536,E,75.594,124.086,230721,0.000,E,A,V*58
$GPGGA,000534,3000.21211,N,12000.50484,E,3,22,1.03,-7.86,M,7.86,M,,*61
$GPRMC,000534,A,3000.21211,N,12000.50484,E,75.594,128.543,230721,0.000,E,A,V*59
$GPGGA,000535,3000.19837,N,12000.52315,E,3,22,1.03,-7.86,M,7.86,M,,*68
$GPRMC,000535,A,3000.19837,N,12000.52315,E,75.594,132.999,230721,0.000,E,A,V*50
$GPGGA,000536,3000.18343,N,12000.54018,E,3,22,1.03,-7.86,M,7.86,M,,*6A
$GPRMC,000536,A,3000.18343,N,12000.54018,E,75.594,137.455,230721,0.000,E,A,V*5A
$GPGGA,000537,3000.16738,N,12000.55583,E,3,22,1.03,-7.86,M,7.86,M,,*6B
$GPRMC,000537,A,3000.16738,N,12000.55583,E,75.594,141.912,230721,0.000,E,A,V*54
$GPGGA,000538,3000.15033,N,12000.56999,E,3,22,1.03,-7.86,M,7.86,M,,*6F
$GPRMC,000538,A,3000.15033,N,12000.56999,E,75.594,146.368,230721,0.000,E,A,V*50
$GPGGA,000539,3000.13237,N,12000.58259,E,3,22,1.03,-7.86,M,7.86,M,,*67
$GPRMC,000539,A,3000.13237,N,12000.58259,E,75.594,150.825,230721,0.000,E,A,V*5D
$GPGGA,000540,3000.11361,N,12000.59355,E,3,22,1.04,-7.86,M,7.86,M,,*62
$GPRMC,000540,A,3000.11361,N,12000.59355,E,75.594,155.281,230721,0.000,E,A,V*5E
$GPGGA,000541,3000.09417,N,12000.60280,E,3,22,1.04,-7.86,M,7.86,M,,*6F
$GPRMC,000541,A,3000.09417,N,12000.60280,E,75.594,159.738,230721,0.000,E,A,V*58
$GPGGA,000542,3000.07416,N,12000.61029,E,3,22,1.04,-7.86,M,7.86,M,,*63
$GPRMC,000542,A,3000.07416,N,12000.61029,E,75.594,164.194,230721,0.000,E,A,V*5A
$GPGGA,000543,3000.05370,N,12000.61597,E,3,22,1.04,-7.86,M,7.86,M,,*67
$GPRMC,000543,A,3000.05370,N,12000.61597,E,75.594,168.650,230721,0.000,E,A,V*5D
$GPGGA,000544,3000.03293,N,12000.61980,E,3,22,1.04,-7.86,M,7.86,M,,*60
$GPRMC,000544,A,3000.03293,N,12000.61980,E,75.594,173.107,230721,0.000,E,A,V*55
$GPGGA,000545,3000.01195,N,12000.62177,E,3,22,1.04,-7.86,M,7.86,M,,*65
$GPRMC,000545,A,3000.01195,N,12000.62177,E,75.594,177.563,230721,0.000,E,A,V*52
$GPGGA,000546,2959.99091,N,12000.62186,E,3,22,1.04,-7.86,M,7.86,M,,*68
$GPRMC,000546,A,2959.99091,N,12000.62186,E,75.594,182.019,230721,0.000,E,A,V*5D
$GPGGA,000547,2959.96992,N,12000.62007,E,3,22,1.04,-7.86,M,7.86,M,,*64
$GPRMC,000547,A,2959.96992,N,12000.62007,E,75.594,186.476,230721,0.000,E,A,V*58
$GPGGA,000548,2959.94912,N,12000.61642,E,3,22,1.04,-7.86,M,7.86,M,,*65
$GPRMC,000548,A,2959.94912,N,12000.61642,E,75.594,190.932,230721,0.000,E,A,V*53
$GPGGA,000549,2959.92863,N,12000.61091,E,3,22,1.04,-7.86,M,7.86,M,,*6D
$GPRMC,000549,A,2959.92863,N,12000.61091,E,75.594,195.388,230721,0.000,E,A,V*55
$GPGGA,000550,2959.90857,N,12000.60360,E,3,22,1.04,-7.86,M,7.86,M,,*6C
$GPRMC,000550,A,2959.90857,N,12000.60360,E,75.594,199.845,230721,0.000,E,A,V*52
$GPGGA,000551,2959.88907,N,12000.59451,E,3,22,1.04,-7.86,M,7.86,M,,*6F
$GPRMC,000551,A,2959.88907,N,12000.59451,E,75.594,204.301,230721,0.000,E,A,V*5D
$GPGGA,000552,2959.87024,N,12000.58372,E,3,22,1.04,-7.86,M,7.86,M,,*6C
$GPRMC,000552,A,2959.87024,N,12000.58372,E,75.594,208.757,230721,0.000,E,A,V*55
$GPGGA,000553,2959.85220,N,12000.57127,E,3,22,1.04,-7.86,M,7.86,M,,*64
$GPRMC,000553,A,2959.85220,N,12000.57127,E,75.594,213.213,230721,0.000,E,A,V*52
$GPGGA,000554,2959.83505,N,12000.55726,E,3,22,1.04,-7.86,M,7.86,M,,*60
$GPRMC,000554,A,2959.83505,N,12000.55726,E,75.594,217.670,230721,0.000,E,A,V*53
$GPGGA,000555,2959.81891,N,12000.54175,E,3,22,1.04,-7.86,M,7.86,M,,*62
$GPRMC,000555,A,2959.81891,N,12000.54175,E,75.594,222.126,230721,0.000,E,A,V*53
$GPGGA,000556,2959.80386,N,12000.52485,E,3,22,1.04,-7.86,M,7.86,M,,*61
$GPRMC,000556,A,2959.80386,N,12000.52485,E,75.594,226.582,230721,0.000,E,A,V*5E
$GPGGA,000557,2959.79000,N,12000.50666,E,3,22,1.04,-7.86,M,7.86,M,,*66
$GPRMC,000557,A,2959.79000,N,12000.50666,E,75.594,231.038,230721,0.000,E,A,V*5B
$GPGGA,000558,2959.77741,N,12000.48728,E,3,22,1.04,-7.86,M,7.86,M,,*67
$GPRMC,000558,A,2959.77741,N,12000.48728,E,75.594,235.494,230721,0.000,E,A,V*5C
$GPGGA,000559,2959.76617,N,12000.46684,E,3,22,1.04,-7.86,M,7.86,M,,*6C
$GPRMC,000559,A,2959.76617,N,12000.46684,E,75.594,239.950,230721,0.000,E,A,V*5E
$GPGGA,000600,2959.75635,N,12000.44546,E,3,22,1.04,-7.86,M,7.86,M,,*6F
$GPRMC,000600,A,2959.75635,N,12000.44546,E,75.594,244.407,230721,0.000,E,A,V*58
$GPGGA,000601,2959.74800,N,12000.42327,E,3,22,1.04,-7.86,M,7.86,M,,*60
$GPRMC,000601,A,2959.74800,N,12000.42327,E,75.594,248.863,230721,0.000,E,A,V*55
$GPGGA,000602,2959.74118,N,12000.40040,E,3,22,1.04,-7.86,M,7.86,M,,*63
$GPRMC,000602,A,2959.74118,N,12000.40040,E,75.594,253.319,230721,0.000,E,A,V*5A
$GPGGA,000603,2959.73593,N,12000.37699,E,3,22,1.04,-7.86,M,7.86,M,,*60
$GPRMC,000603,A,2959.73593,N,12000.37699,E,75.594,257.775,230721,0.000,E,A,V*53
$GPGGA,000604,2959.73228,N,12000.35318,E,3,22,1.04,-7.86,M,7.86,M,,*6E
$GPRMC,000604,A,2959.73228,N,12000.35318,E,75.594,262.231,230721,0.000,E,A,V*5E
$GPGGA,000605,2959.73024,N,12000.32912,E,3,22,1.04,-7.86,M,7.86,M,,*66
$GPRMC,000605,A,2959.73024,N,12000.32912,E,75.594,266.687,230721,0.000,E,A,V*5B
$GPGGA,000606,2959.72984,N,12000.30495,E,3,22,1.04,-7.86,M,7.86,M,,*67
$GPRMC,000606,A,2959.72984,N,12000.30495,E,75.594,271.143,230721,0.000,E,A,V*53
$GPGGA,000607,2959.73108,N,12000.28081,E,3,22,1.04,-7.86,M,7.86,M,,*63
$GPRMC,000607,A,2959.73108,N,12000.28081,E,75.594,275.599,230721,0.000,E,A,V*50
$GPGGA,000608,2959.73394,N,12000.25686,E,3,22,1.04,-7.86,M,7.86,M,,*67
$GPRMC,000608,A,2959.73394,N,12000.25686,E,75.594,280.056,230721,0.000,E,A,V*58
$GPGGA,000609,2959.73842,N,12000.23324,E,3,22,1.04,-7.86,M,7.86,M,,*6D
$GPRMC,000609,A,2959.73842,N,12000.23324,E,75.594,284.512,230721,0.000,E,A,V*53
$GPGGA,000610,2959.74448,N,12000.21009,E,3,22,1.04,-7.86,M,7.86,M,,*6A
$GPRMC,000610,A,2959.74448,N,12000.21009,E,75.594,288.968,230721,0.000,E,A,V*59
$GPGGA,000611,2959.75209,N,12000.18755,E,3,22,1.04,-7.86,M,7.86,M,,*6D
$GPRMC,000611,A,2959.75209,N,12000.18755,E,75.594,293.424,230721,0.000,E,A,V*51
$GPGGA,000612,2959.76120,N,12000.16575,E,3,22,1.04,-7.86,M,7.86,M,,*6B
$GPRMC,000612,A,2959.76120,N,12000.16575,E,75.594,297.880,230721,0.000,E,A,V*51
$GPGGA,000613,2959.77176,N,12000.14484,E,3,22,1.04,-7.86,M,7.86,M,,*65
$GPRMC,000613,A,2959.77176,N,12000.14484,E,75.594,302.336,230721,0.000,E,A,V*54
$GPGGA,000614,2959.78369,N,12000.12493,E,3,22,1.04,-7.86,M,7.86,M,,*61
$GPRMC,000614,A,2959.78369,N,12000.12493,E,75.594,306.792,230721,0.000,E,A,V*5E
$GPGGA,000615,2959.79694,N,12000.10615,E,3,22,1.04,-7.86,M,7.86,M,,*68
$GPRMC,000615,A,2959.79694,N,12000.10615,E,75.594,311.249,230721,0.000,E,A,V*52
$GPGGA,000616,2959.81142,N,12000.08860,E,3,22,1.04,-7.86,M,7.86,M,,*65
$GPRMC,000616,A,2959.81142,N,12000.08860,E,75.594,315.705,230721,0.000,E,A,V*56
$GPGGA,000617,2959.82704,N,12000.07240,E,3,22,1.04,-7.86,M,7.86,M,,*64
$GPRMC,000617,A,2959.82704,N,12000.07240,E,75.594,320.161,230721,0.000,E,A,V*55
$GPGGA,000618,2959.84371,N,12000.05765,E,3,22,1.04,-7.86,M,7.86,M,,*6B
$GPRMC,000618,A,2959.84371,N,12000.05765,E,75.594,324.617,230721,0.000,E,A,V*58
$GPGGA,000619,2959.86133,N,12000.04443,E,3,22,1.04,-7.86,M,7.86,M,,*6A
$GPRMC,000619,A,2959.86133,N,12000.04443,E,75.594,329.073,230721,0.000,E,A,V*50
$GPGGA,000620,2959.87979,N,12000.03282,E,3,22,1.04,-7.86,M,7.86,M,,*6B
$GPRMC,000620,A,2959.87979,N,12000.03282,E,75.594,333.530,230721,0.000,E,A,V*58
$GPGGA,000621,2959.89898,N,12000.02289,E,3,22,1.04,-7.86,M,7.86,M,,*60
$GPRMC,000621,A,2959.89898,N,12000.02289,E,75.594,337.986,230721,0.000,E,A,V*56
$GPGGA,000622,2959.91878,N,12000.01471,E,3,22,1.04,-7.86,M,7.86,M,,*66
$GPRMC,000622,A,2959.91878,N,12000.01471,E,75.594,342.442,230721,0.000,E,A,V*57
$GPGGA,000623,2959.93907,N,12000.00831,E,3,22,1.04,-7.86,M,7.86,M,,*65
$GPRMC,000623,A,2959.93907,N,12000.00831,E,75.594,346.898,230721,0.000,E,A,V*5B
$GPGGA,000624,2959.95974,N,12000.00375,E,3,22,1.04,-7.86,M,7.86,M,,*6B
$GPRMC,000624,A,2959.95974,N,12000.00375,E,75.594,351.355,230721,0.000,E,A,V*59
$GPGGA,000625,2959.98065,N,12000.00105,E,3,22,1.04,-7.86,M,7.86,M,,*6B
$GPRMC,000625,A,2959.98065,N,12000.00105,E,75.594,355.811,230721,0.000,E,A,V*56
$GPGGA,000626,3000.00168,N,12000.00022,E,3,22,1.04,-7.86,M,7.86,M,,*65
$GPRMC,000626,A,3000.00168,N,12000.00022,E,75.594,0.267,230721,0.000,E,A,V*50
$GPGGA,000627,3000.02271,N,12000.00128,E,3,22,1.04,-7.85,M,7.85,M,,*66
$GPRMC,000627,A,3000.02271,N,12000.00128,E,75.594,4.724,230721,0.000,E,A,V*55
$GPGGA,000628,3000.04360,N,12000.00420,E,3,22,1.04,-7.85,M,7.85,M,,*63
$GPRMC,000628,A,3000.04360,N,12000.00420,E,75.594,9.180,230721,0.000,E,A,V*55
$GPGGA,000629,3000.06422,N,12000.00899,E,3,22,1.04,-7.85,M,7.85,M,,*6F
$GPRMC,000629,A,3000.06422,N,12000.00899,E,75.594,13.636,230721,0.000,E,A,V*68
$GPGGA,000630,3000.08447,N,12000.01559,E,3,22,1.04,-7.85,M,7.85,M,,*6A
$GPRMC,000630,A,3000.08447,N,12000.01559,E,75.594,18.093,230721,0.000,E,A,V*6F
$GPGGA,000631,3000.10420,N,12000.02399,E,3,22,1.04,-7.85,M,7.85,M,,*6A
$GPRMC,000631,A,3000.10420,N,12000.02399,E,75.594,22.549,230721,0.000,E,A,V*64
$GPGGA,000632,3000.12331,N,12000.03412,E,3,22,1.04,-7.85,M,7.85,M,,*69
$GPRMC,000632,A,3000.12331,N,12000.03412,E,75.594,27.006,230721,0.000,E,A,V*6C
$GPGGA,000633,3000.14167,N,12000.04593,E,3,22,1.04,-7.85,M,7.85,M,,*60
$GPRMC,000633,A,3000.14167,N,12000.04593,E,75.594,31.462,230721,0.000,E,A,V*64
$GPGGA,000634,3000.15918,N,12000.05934,E,3,22,1.04,-7.85,M,7.85,M,,*66
$GPRMC,000634,A,3000.15918,N,12000.05934,E,75.594,35.918,230721,0.000,E,A,V*66
$GPGGA,000635,3000.17573,N,12000.07428,E,3,22,1.04,-7.85,M,7.85,M,,*66
$GPRMC,000635,A,3000.17573,N,12000.07428,E,75.594,40.375,230721,0.000,E,A,V*65
$GPGGA,000636,3000.19122,N,12000.09064,E,3,22,1.04,-7.85,M,7.85,M,,*69
$GPRMC,000636,A,3000.19122,N,12000.09064,E,75.594,44.831,230721,0.000,E,A,V*65
$GPGGA,000637,3000.20556,N,12000.10834,E,3,22,1.04,-7.85,M,7.85,M,,*60
$GPRMC,000637,A,3000.20556,N,12000.10834,E,75.594,49.288,230721,0.000,E,A,V*69
$GPGGA,000638,3000.21865,N,12000.12727,E,3,22,1.04,-7.85,M,7.85,M,,*6C
$GPRMC,000638,A,3000.21865,N,12000.12727,E,75.594,53.744,230721,0.000,E,A,V*6B
$GPGGA,000639,3000.23043,N,12000.14731,E,3,22,1.04,-7.85,M,7.85,M,,*62
$GPRMC,000639,A,3000.23043,N,12000.14731,E,75.594,58.201,230721,0.000,E,A,V*6A
$GPGGA,000640,3000.24081,N,12000.16833,E,3,22,1.04,-7.86,M,7.86,M,,*6A
$GPRMC,000640,A,3000.24081,N,12000.16833,E,75.594,62.657,230721,0.000,E,A,V*6C
$GPGGA,000641,3000.24975,N,12000.19023,E,3,22,1.04,-7.86,M,7.86,M,,*6F
$GPRMC,000641,A,3000.24975,N,12000.19023,E,75.594,67.114,230721,0.000,E,A,V*6C
$GPGGA,000642,3000.25717,N,12000.21285,E,3,22,1.04,-7.86,M,7.86,M,,*62
$GPRMC,000642,A,3000.25717,N,12000.21285,E,75.594,71.570,230721,0.000,E,A,V*60
$GPGGA,000643,3000.26304,N,12000.23607,E,3,22,1.04,-7.86,M,7.86,M,,*6A
$GPRMC,000643,A,3000.26304,N,12000.23607,E,75.594,76.027,230721,0.000,E,A,V*68
$GPGGA,000644,3000.26733,N,12000.25974,E,3,22,1.04,-7.86,M,7.86,M,,*60
$GPRMC,000644,A,3000.26733,N,12000.25974,E,75.594,80.483,230721,0.000,E,A,V*61
$GPGGA,000645,3000.27000,N,12000.28372,E,3,22,1.04,-7.86,M,7.86,M,,*66
$GPRMC,000645,A,3000.27000,N,12000.28372,E,75.594,84.940,230721,0.000,E,A,V*61
$GPGGA,000646,3000.27104,N,12000.30787,E,3,22,1.04,-7.86,M,7.86,M,,*67
$GPRMC,000646,A,3000.27104,N,12000.30787,E,75.594,89.396,230721,0.000,E,A,V*6C
$GPGGA,000647,3000.27044,N,12000.33204,E,3,22,1.04,-7.86,M,7.86,M,,*6E
$GPRMC,000647,A,3000.27044,N,12000.33204,E,75.594,93.853,230721,0.000,E,A,V*6C
$GPGGA,000648,3000.26821,N,12000.35608,E,3,22,1.04,-7.86,M,7.86,M,,*65
$GPRMC,000648,A,3000.26821,N,12000.35608,E,75.594,98.310,230721,0.000,E,A,V*60
$GPGGA,000649,3000.26437,N,12000.37985,E,3,22,1.04,-7.86,M,7.86,M,,*67
$GPRMC,000649,A,3000.26437,N,12000.37985,E,75.594,102.766,230721,0.000,E,A,V*55
$GPGGA,000650,3000.25892,N,12000.40321,E,3,22,1.04,-7.86,M,7.86,M,,*6B
$GPRMC,000650,A,3000.25892,N,12000.40321,E,75.594,107.223,230721,0.000,E,A,V*58
$GPGGA,000651,3000.25192,N,12000.42600,E,3,22,1.04,-7.86,M,7.86,M,,*67
$GPRMC,000651,A,3000.25192,N,12000.42600,E,75.594,111.679,230721,0.000,E,A,V*58
$GPGGA,000652,3000.24339,N,12000.44811,E,3,22,1.04,-7.86,M,7.86,M,,*6E
$GPRMC,000652,A,3000.24339,N,12000.44811,E,75.594,116.136,230721,0.000,E,A,V*5A
$GPGGA,000653,3000.23339,N,12000.46939,E,3,22,1.04,-7.86,M,7.86,M,,*61
$GPRMC,000653,A,3000.23339,N,12000.46939,E,75.594,120.592,230721,0.000,E,A,V*5A
$GPGGA,000654,3000.22199,N,12000.48970,E,3,22,1.04,-7.86,M,7.86,M,,*6C
$GPRMC,000654,A,3000.22199,N,12000.48970,E,75.594,125.049,230721,0.000,E,A,V*51
$GPGGA,000655,3000.20924,N,12000.50894,E,3,22,1.04,-7.86,M,7.86,M,,*63
$GPRMC,000655,A,3000.20924,N,12000.50894,E,75.594,129.505,230721,0.000,E,A,V*5F
$GPGGA,000656,3000.19524,N,12000.52699,E,3,22,1.04,-7.86,M,7.86,M,,*67
$GPRMC,000656,A,3000.19524,N,12000.52699,E,75.594,133.962,230721,0.000,E,A,V*5D
$GPGGA,000657,3000.18005,N,12000.54373,E,3,22,1.04,-7.86,M,7.86,M,,*66
$GPRMC,000657,A,3000.18005,N,12000.54373,E,75.594,138.418,230721,0.000,E,A,V*57
$GPGGA,000658,3000.16378,N,12000.55906,E,3,22,1.04,-7.86,M,7.86,M,,*67
$GPRMC,000658,A,3000.16378,N,12000.55906,E,75.594,142.875,230721,0.000,E,A,V*5C
$GPGGA,000659,3000.14652,N,12000.57289,E,3,22,1.04,-7.86,M,7.86,M,,*67
$GPRMC,000659,A,3000.14652,N,12000.57289,E,75.594,147.331,230721,0.000,E,A,V*52
$GPGGA,000700,3000.12838,N,12000.58515,E,3,22,1.04,-7.86,M,7.86,M,,*63
$GPRMC,000700,A,3000.12838,N,12000.58515,E,75.594,151.787,230721,0.000,E,A,V*58
$GPGGA,000701,3000.10947,N,12000.59574,E,3,22,1.04,-7.86,M,7.86,M,,*6F
$GPRMC,000701,A,3000.10947,N,12000.59574,E,75.594,156.244,230721,0.000,E,A,V*59
$GPGGA,000702,3000.08989,N,12000.60461,E,3,22,1.04,-7.86,M,7.86,M,,*68
$GPRMC,000702,A,3000.08989,N,12000.60461,E,75.594,160.700,230721,0.000,E,A,V*5E
$GPGGA,000703,3000.06977,N,12000.61171,E,3,22,1.04,-7.86,M,7.86,M,,*63
$GPRMC,000703,A,3000.06977,N,12000.61171,E,75.594,165.157,230721,0.000,E,A,V*54
$GPGGA,000704,3000.04924,N,12000.61700,E,3,22,1.04,-7.86,M,7.86,M,,*60
$GPRMC,000704,A,3000.04924,N,12000.61700,E,75.594,169.613,230721,0.000,E,A,V*5C
$GPGGA,000705,3000.02841,N,12000.62043,E,3,22,1.04,-7.86,M,7.86,M,,*66
$GPRMC,000705,A,3000.02841,N,12000.62043,E,75.594,174.069,230721,0.000,E,A,V*5D
$GPGGA,000706,3000.00741,N,12000.62199,E,3,22,1.04,-7.86,M,7.86,M,,*6E
$GPRMC,000706,A,3000.00741,N,12000.62199,E,75.594,178.526,230721,0.000,E,A,V*57
$GPGGA,000707,2959.98637,N,12000.62168,E,3,22,1.04,-7.86,M,7.86,M,,*64
$GPRMC,000707,A,2959.98637,N,12000.62168,E,75.594,182.982,230721,0.000,E,A,V*5A
$GPGGA,000708,2959.96541,N,12000.61948,E,3,22,1.04,-7.86,M,7.86,M,,*6E
$GPRMC,000708,A,2959.96541,N,12000.61948,E,75.594,187.438,230721,0.000,E,A,V*59
$GPGGA,000709,2959.94466,N,12000.61543,E,3,22,1.04,-7.86,M,7.86,M,,*6E
$GPRMC,000709,A,2959.94466,N,12000.61543,E,75.594,191.895,230721,0.000,E,A,V*55
$GPGGA,000710,2959.92426,N,12000.60953,E,3,22,1.04,-7.86,M,7.86,M,,*68
$GPRMC,000710,A,2959.92426,N,12000.60953,E,75.594,196.351,230721,0.000,E,A,V*57
$GPGGA,000711,2959.90431,N,12000.60183,E,3,22,1.04,-7.86,M,7.86,M,,*68
$GPRMC,000711,A,2959.90431,N,12000.60183,E,75.594,200.807,230721,0.000,E,A,V*53
$GPGGA,000712,2959.88494,N,12000.59237,E,3,22,1.04,-7.86,M,7.86,M,,*6B
$GPRMC,000712,A,2959.88494,N,12000.59237,E,75.594,205.263,230721,0.000,E,A,V*5D
$GPGGA,000713,2959.86627,N,12000.58121,E,3,22,1.04,-7.86,M,7.86,M,,*6B
$GPRMC,000713,A,2959.86627,N,12000.58121,E,75.594,209.720,230721,0.000,E,A,V*53
$GPGGA,000714,2959.84842,N,12000.56842,E,3,22,1.04,-7.86,M,7.86,M,,*61
$GPRMC,000714,A,2959.84842,N,12000.56842,E,75.594,214.176,230721,0.000,E,A,V*50
$GPGGA,000715,2959.83148,N,12000.55407,E,3,22,1.04,-7.86,M,7.86,M,,*6A
$GPRMC,000715,A,2959.83148,N,12000.55407,E,75.594,218.632,230721,0.000,E,A,V*50
$GPGGA,000716,2959.81556,N,12000.53826,E,3,22,1.04,-7.86,M,7.86,M,,*69
$GPRMC,000716,A,2959.81556,N,12000.53826,E,75.594,223.088,230721,0.000,E,A,V*5C
$GPGGA,000717,2959.80076,N,12000.52107,E,3,22,1.04,-7.86,M,7.86,M,,*65
$GPRMC,000717,A,2959.80076,N,12000.52107,E,75.594,227.544,230721,0.000,E,A,V*51
$GPGGA,000718,2959.78717,N,12000.50261,E,3,22,1.04,-7.86,M,7.86,M,,*6C
$GPRMC,000718,A,2959.78717,N,12000.50261,E,75.594,232.001,230721,0.000,E,A,V*58
$GPGGA,000719,2959.77487,N,12000.48300,E,3,22,1.04,-7.86,M,7.86,M,,*67
$GPRMC,000719,A,2959.77487,N,12000.48300,E,75.594,236.457,230721,0.000,E,A,V*50
$GPGGA,000720,2959.76393,N,12000.46235,E,3,22,1.04,-7.86,M,7.86,M,,*67
$GPRMC,000720,A,2959.76393,N,12000.46235,E,75.594,240.913,230721,0.000,E,A,V*5C
$GPGGA,000721,2959.75442,N,12000.44078,E,3,22,1.04,-7.86,M,7.86,M,,*67
$GPRMC,000721,A,2959.75442,N,12000.44078,E,75.594,245.369,230721,0.000,E,A,V*5E
$GPGGA,000722,2959.74640,N,12000.41843,E,3,22,1.04,-7.86,M,7.86,M,,*60
$GPRMC,000722,A,2959.74640,N,12000.41843,E,75.594,249.825,230721,0.000,E,A,V*56
$GPGGA,000723,2959.73991,N,12000.39543,E,3,21,1.04,-7.86,M,7.86,M,,*64
$GPRMC,000723,A,2959.73991,N,12000.39543,E,75.594,254.281,230721,0.000,E,A,V*59
$GPGGA,000724,2959.73500,N,12000.37192,E,3,21,1.04,-7.86,M,7.86,M,,*61
$GPRMC,000724,A,2959.73500,N,12000.37192,E,75.594,258.737,230721,0.000,E,A,V*58
$GPGGA,000725,2959.73170,N,12000.34804,E,3,21,1.04,-7.86,M,7.86,M,,*66
$GPRMC,000725,A,2959.73170,N,12000.34804,E,75.594,263.194,230721,0.000,E,A,V*58
$GPGGA,000726,2959.73002,N,12000.32395,E,3,21,1.04,-7.86,M,7.86,M,,*64
$GPRMC,000726,A,2959.73002,N,12000.32395,E,75.594,267.650,230721,0.000,E,A,V*51
$GPGGA,000727,2959.72997,N,12000.29977,E,3,21,1.04,-7.86,M,7.86,M,,*6D
$GPRMC,000727,A,2959.72997,N,12000.29977,E,75.594,272.106,230721,0.000,E,A,V*58
$GPGGA,000728,2959.73156,N,12000.27566,E,3,21,1.04,-7.86,M,7.86,M,,*64
$GPRMC,000728,A,2959.73156,N,12000.27566,E,75.594,276.562,230721,0.000,E,A,V*53
$GPGGA,000729,2959.73478,N,12000.25177,E,3,21,1.04,-7.86,M,7.86,M,,*6A
$GPRMC,000729,A,2959.73478,N,12000.25177,E,75.594,281.018,230721,0.000,E,A,V*5D
$GPGGA,000730,2959.73960,N,12000.22824,E,3,21,1.04,-7.86,M,7.86,M,,*6E
$GPRMC,000730,A,2959.73960,N,12000.22824,E,75.594,285.474,230721,0.000,E,A,V*53
$GPGGA,000731,2959.74600,N,12000.20521,E,3,21,1.04,-7.86,M,7.86,M,,*6B
$GPRMC,000731,A,2959.74600,N,12000.20521,E,75.594,289.930,230721,0.000,E,A,V*57
$GPGGA,000732,2959.75393,N,12000.18282,E,3,21,1.04,-7.86,M,7.86,M,,*63
$GPRMC,000732,A,2959.75393,N,12000.18282,E,75.594,294.387,230721,0.000,E,A,V*55
$GPGGA,000733,2959.76336,N,12000.16120,E,3,21,1.04,-7.86,M,7.86,M,,*6B
$GPRMC,000733,A,2959.76336,N,12000.16120,E,75.594,298.843,230721,0.000,E,A,V*52
$GPGGA,000734,2959.77422,N,12000.14049,E,3,21,1.04,-7.86,M,7.86,M,,*63
$GPRMC,000734,A,2959.77422,N,12000.14049,E,75.594,303.299,230721,0.000,E,A,V*54
$GPGGA,000735,2959.78645,N,12000.12082,E,3,21,1.04,-7.86,M,7.86,M,,*6F
$GPRMC,000735,A,2959.78645,N,12000.12082,E,75.594,307.755,230721,0.000,E,A,V*59
$GPGGA,000736,2959.79997,N,12000.10229,E,3,21,1.04,-7.86,M,7.86,M,,*6C
$GPRMC,000736,A,2959.79997,N,12000.10229,E,75.594,312.211,230721,0.000,E,A,V*5B
$GPGGA,000737,2959.81470,N,12000.08503,E,3,21,1.04,-7.86,M,7.86,M,,*68
$GPRMC,000737,A,2959.81470,N,12000.08503,E,75.594,316.667,230721,0.000,E,A,V*5E
$GPGGA,000738,2959.83056,N,12000.06914,E,3,21,1.04,-7.86,M,7.86,M,,*61
$GPRMC,000738,A,2959.83056,N,12000.06914,E,75.594,321.124,230721,0.000,E,A,V*53
$GPGGA,000739,2959.84744,N,12000.05470,E,3,21,1.04,-7.86,M,7.86,M,,*6F
$GPRMC,000739,A,2959.84744,N,12000.05470,E,75.594,325.580,230721,0.000,E,A,V*53
$GPGGA,000740,2959.86525,N,12000.04182,E,3,21,1.04,-7.86,M,7.86,M,,*6F
$GPRMC,000740,A,2959.86525,N,12000.04182,E,75.594,330.036,230721,0.000,E,A,V*5F
$GPGGA,000741,2959.88388,N,12000.03057,E,3,21,1.04,-7.86,M,7.86,M,,*6F
$GPRMC,000741,A,2959.88388,N,12000.03057,E,75.594,334.492,230721,0.000,E,A,V*51
$GPGGA,000742,2959.90321,N,12000.02102,E,3,21,1.04,-7.86,M,7.86,M,,*66
$GPRMC,000742,A,2959.90321,N,12000.02102,E,75.594,338.948,230721,0.000,E,A,V*5E
$GPGGA,000743,2959.92313,N,12000.01322,E,3,21,1.04,-7.86,M,7.86,M,,*67
$GPRMC,000743,A,2959.92313,N,12000.01322,E,75.594,343.405,230721,0.000,E,A,V*57
$GPGGA,000744,2959.94351,N,12000.00722,E,3,21,1.04,-7.86,M,7.86,M,,*65
$GPRMC,000744,A,2959.94351,N,12000.00722,E,75.594,347.861,230721,0.000,E,A,V*5F
$GPGGA,000745,2959.96424,N,12000.00306,E,3,21,1.04,-7.86,M,7.86,M,,*61
$GPRMC,000745,A,2959.96424,N,12000.00306,E,75.594,352.317,230721,0.000,E,A,V*55
$GPGGA,000746,2959.98519,N,12000.00076,E,3,21,1.04,-7.86,M,7.86,M,,*67
$GPRMC,000746,A,2959.98519,N,12000.00076,E,75.594,356.774,230721,0.000,E,A,V*56
$GPGGA,000747,3000.00623,N,12000.00034,E,3,21,1.04,-7.86,M,7.85,M,,*6C
$GPRMC,000747,A,3000.00623,N,12000.00034,E,75.594,1.230,230721,0.000,E,A,V*5A
$GPGGA,000748,3000.02724,N,12000.00180,E,3,21,1.04,-7.85,M,7.85,M,,*6A
$GPRMC,000748,A,3000.02724,N,12000.00180,E,75.594,5.686,230721,0.000,E,A,V*52
$GPGGA,000749,3000.04808,N,12000.00512,E,3,21,1.04,-7.85,M,7.85,M,,*63
$GPRMC,000749,A,3000.04808,N,12000.00512,E,75.594,10.143,230721,0.000,E,A,V*61
$GPGGA,000750,3000.06863,N,12000.01030,E,3,21,1.04,-7.85,M,7.85,M,,*60
$GPRMC,000750,A,3000.06863,N,12000.01030,E,75.594,14.599,230721,0.000,E,A,V*65
$GPGGA,000751,3000.08878,N,12000.01730,E,3,21,1.04,-7.85,M,7.85,M,,*62
$GPRMC,000751,A,3000.08878,N,12000.01730,E,75.594,19.055,230721,0.000,E,A,V*6F
$GPGGA,000752,3000.10839,N,12000.02608,E,3,21,1.04,-7.85,M,7.85,M,,*64
$GPRMC,000752,A,3000.10839,N,12000.02608,E,75.594,23.512,230721,0.000,E,A,V*66
$GPGGA,000753,3000.12734,N,12000.03658,E,3,21,1.04,-7.85,M,7.85,M,,*61
$GPRMC,000753,A,3000.12734,N,12000.03658,E,75.594,27.968,230721,0.000,E,A,V*66
$GPGGA,000754,3000.14553,N,12000.04874,E,3,21,1.04,-7.85,M,7.85,M,,*64
$GPRMC,000754,A,3000.14553,N,12000.04874,E,75.594,32.425,230721,0.000,E,A,V*63
$GPGGA,000755,3000.16284,N,12000.06249,E,3,21,1.04,-7.85,M,7.85,M,,*6C
$GPRMC,000755,A,3000.16284,N,12000.06249,E,75.594,36.881,230721,0.000,E,A,V*6D
$GPGGA,000756,3000.17917,N,12000.07774,E,3,21,1.04,-7.85,M,7.85,M,,*65
$GPRMC,000756,A,3000.17917,N,12000.07774,E,75.594,41.338,230721,0.000,E,A,V*6D
$GPGGA,000757,3000.19442,N,12000.09440,E,3,21,1.04,-7.85,M,7.85,M,,*6D
$GPRMC,000757,A,3000.19442,N,12000.09440,E,75.594,45.794,230721,0.000,E,A,V*63
$GPGGA,000758,3000.20849,N,12000.11237,E,3,21,1.04,-7.85,M,7.85,M,,*60
$GPRMC,000758,A,3000.20849,N,12000.11237,E,75.594,50.250,230721,0.000,E,A,V*67
$GPGGA,000759,3000.22131,N,12000.13155,E,3,21,1.04,-7.85,M,7.85,M,,*60
$GPRMC,000759,A,3000.22131,N,12000.13155,E,75.594,54.707,230721,0.000,E,A,V*64
$GPGGA,000800,3000.23279,N,12000.15181,E,3,21,1.04,-7.85,M,7.85,M,,*62
$GPRMC,000800,A,3000.23279,N,12000.15181,E,75.594,59.163,230721,0.000,E,A,V*6F
$GPGGA,000801,3000.24287,N,12000.17304,E,3,21,1.04,-7.86,M,7.86,M,,*68
$GPRMC,000801,A,3000.24287,N,12000.17304,E,75.594,63.620,230721,0.000,E,A,V*6C
$GPGGA,000802,3000.25148,N,12000.19510,E,3,21,1.04,-7.86,M,7.86,M,,*67
$GPRMC,000802,A,3000.25148,N,12000.19510,E,75.594,68.076,230721,0.000,E,A,V*6D
$GPGGA,000803,3000.25857,N,12000.21786,E,3,21,1.04,-7.86,M,7.86,M,,*67
$GPRMC,000803,A,3000.25857,N,12000.21786,E,75.594,72.533,230721,0.000,E,A,V*62
$GPGGA,000804,3000.26410,N,12000.24119,E,3,21,1.04,-7.86,M,7.86,M,,*69
$GPRMC,000804,A,3000.26410,N,12000.24119,E,75.594,76.989,230721,0.000,E,A,V*65
$GPGGA,000805,3000.26804,N,12000.26494,E,3,21,1.04,-7.86,M,7.86,M,,*63
$GPRMC,000805,A,3000.26804,N,12000.26494,E,75.594,81.446,230721,0.000,E,A,V*69
$GPGGA,000806,3000.27036,N,12000.28897,E,3,21,1.04,-7.86,M,7.86,M,,*69
$GPRMC,000806,A,3000.27036,N,12000.28897,E,75.594,85.903,230721,0.000,E,A,V*6B
$GPGGA,000807,3000.27105,N,12000.31314,E,3,21,1.04,-7.86,M,7.86,M,,*61
$GPRMC,000807,A,3000.27105,N,12000.31314,E,75.594,90.359,230721,0.000,E,A,V*62
$GPGGA,000808,3000.27010,N,12000.33729,E,3,21,1.04,-7.86,M,7.86,M,,*63
$GPRMC,000808,A,3000.27010,N,12000.33729,E,75.594,94.816,230721,0.000,E,A,V*64
$GPGGA,000809,3000.26752,N,12000.36129,E,3,21,1.04,-7.86,M,7.86,M,,*61
$GPRMC,000809,A,3000.26752,N,12000.36129,E,75.594,99.272,230721,0.000,E,A,V*63
$GPGGA,000810,3000.26332,N,12000.38498,E,3,21,1.04,-7.86,M,7.86,M,,*6A
$GPRMC,000810,A,3000.26332,N,12000.38498,E,75.594,103.729,230721,0.000,E,A,V*51
$GPGGA,000811,3000.25754,N,12000.40823,E,3,21,1.04,-7.86,M,7.86,M,,*6F
$GPRMC,000811,A,3000.25754,N,12000.40823,E,75.594,108.185,230721,0.000,E,A,V*5F
$GPGGA,000812,3000.25020,N,12000.43089,E,3,21,1.04,-7.86,M,7.86,M,,*63
$GPRMC,000812,A,3000.25020,N,12000.43089,E,75.594,112.642,230721,0.000,E,A,V*54
$GPGGA,000813,3000.24135,N,12000.45282,E,3,21,1.04,-7.86,M,7.86,M,,*69
$GPRMC,000813,A,3000.24135,N,12000.45282,E,75.594,117.098,230721,0.000,E,A,V*5A
$GPGGA,000814,3000.23105,N,12000.47390,E,3,21,1.04,-7.86,M,7.86,M,,*6A
$GPRMC,000814,A,3000.23105,N,12000.47390,E,75.594,121.555,230721,0.000,E,A,V*58
$GPGGA,000815,3000.21935,N,12000.49400,E,3,21,1.04,-7.86,M,7.86,M,,*62
$GPRMC,000815,A,3000.21935,N,12000.49400,E,75.594,126.011,230721,0.000,E,A,V*52
$GPGGA,000816,3000.20632,N,12000.51299,E,3,21,1.05,-7.86,M,7.86,M,,*66
$GPRMC,000816,A,3000.20632,N,12000.51299,E,75.594,130.468,230721,0.000,E,A,V*5A
$GPGGA,000817,3000.19205,N,12000.53076,E,3,21,1.05,-7.86,M,7.86,M,,*6C
$GPRMC,000817,A,3000.19205,N,12000.53076,E,75.594,134.924,230721,0.000,E,A,V*51
$GPGGA,000818,3000.17663,N,12000.54721,E,3,21,1.05,-7.86,M,7.86,M,,*6B
$GPRMC,000818,A,3000.17663,N,12000.54721,E,75.594,139.381,230721,0.000,E,A,V*5E
$GPGGA,000819,3000.16013,N,12000.56222,E,3,21,1.05,-7.86,M,7.86,M,,*6E
$GPRMC,000819,A,3000.16013,N,12000.56222,E,75.594,143.837,230721,0.000,E,A,V*50
$GPGGA,000820,3000.14268,N,12000.57572,E,3,21,1.05,-7.86,M,7.86,M,,*6B
$GPRMC,000820,A,3000.14268,N,12000.57572,E,75.594,148.294,230721,0.000,E,A,V*5D
$GPGGA,000821,3000.12436,N,12000.58762,E,3,21,1.05,-7.86,M,7.86,M,,*6D
$GPRMC,000821,A,3000.12436,N,12000.58762,E,75.594,152.750,230721,0.000,E,A,V*5D
$GPGGA,000822,3000.10529,N,12000.59785,E,3,21,1.05,-7.86,M,7.86,M,,*6B
$GPRMC,000822,A,3000.10529,N,12000.59785,E,75.594,157.206,230721,0.000,E,A,V*58
$GPGGA,000823,3000.08559,N,12000.60634,E,3,21,1.05,-7.86,M,7.86,M,,*65
$GPRMC,000823,A,3000.08559,N,12000.60634,E,75.594,161.663,230721,0.000,E,A,V*54
$GPGGA,000824,3000.06537,N,12000.61305,E,3,21,1.05,-7.86,M,7.86,M,,*62
$GPRMC,000824,A,3000.06537,N,12000.61305,E,75.594,166.119,230721,0.000,E,A,V*5E
$GPGGA,000825,3000.04476,N,12000.61794,E,3,21,1.05,-7.86,M,7.86,M,,*69
$GPRMC,000825,A,3000.04476,N,12000.61794,E,75.594,170.576,230721,0.000,E,A,V*5F
$GPGGA,000826,3000.02388,N,12000.62097,E,3,21,1.05,-7.86,M,7.86,M,,*6D
$GPRMC,000826,A,3000.02388,N,12000.62097,E,75.594,175.032,230721,0.000,E,A,V*5B
$GPGGA,000827,3000.00286,N,12000.62213,E,3,21,1.05,-7.86,M,7.86,M,,*6F
$GPRMC,000827,A,3000.00286,N,12000.62213,E,75.594,179.488,230721,0.000,E,A,V*50
$GPGGA,000828,2959.98183,N,12000.62141,E,3,21,1.05,-7.86,M,7.86,M,,*67
$GPRMC,000828,A,2959.98183,N,12000.62141,E,75.594,183.945,230721,0.000,E,A,V*51
$GPGGA,000829,2959.96091,N,12000.61881,E,3,21,1.05,-7.86,M,7.86,M,,*6C
$GPRMC,000829,A,2959.96091,N,12000.61881,E,75.594,188.401,230721,0.000,E,A,V*5C
$GPGGA,000830,2959.94022,N,12000.61435,E,3,21,1.05,-7.86,M,7.86,M,,*6D
$GPRMC,000830,A,2959.94022,N,12000.61435,E,75.594,192.857,230721,0.000,E,A,V*59
$GPGGA,000831,2959.91990,N,12000.60806,E,3,21,1.05,-7.86,M,7.86,M,,*64
$GPRMC,000831,A,2959.91990,N,12000.60806,E,75.594,197.313,230721,0.000,E,A,V*5E
$GPGGA,000832,2959.90007,N,12000.59998,E,3,21,1.05,-7.86,M,7.86,M,,*6D
$GPRMC,000832,A,2959.90007,N,12000.59998,E,75.594,201.770,230721,0.000,E,A,V*5A
$GPGGA,000833,2959.88085,N,12000.59015,E,3,21,1.05,-7.86,M,7.86,M,,*63
$GPRMC,000833,A,2959.88085,N,12000.59015,E,75.594,206.226,230721,0.000,E,A,V*55
$GPGGA,000834,2959.86234,N,12000.57863,E,3,21,1.05,-7.86,M,7.86,M,,*65
$GPRMC,000834,A,2959.86234,N,12000.57863,E,75.594,210.682,230721,0.000,E,A,V*5E
$GPGGA,000835,2959.84468,N,12000.56549,E,3,21,1.05,-7.86,M,7.86,M,,*6D
$GPRMC,000835,A,2959.84468,N,12000.56549,E,75.594,215.138,230721,0.000,E,A,V*55
$GPGGA,000836,2959.82795,N,12000.55082,E,3,21,1.05,-7.86,M,7.86,M,,*68
$GPRMC,000836,A,2959.82795,N,12000.55082,E,75.594,219.595,230721,0.000,E,A,V*5F
$GPGGA,000837,2959.81227,N,12000.53470,E,3,21,1.05,-7.86,M,7.86,M,,*69
$GPRMC,000837,A,2959.81227,N,12000.53470,E,75.594,224.051,230721,0.000,E,A,V*5D
$GPGGA,000838,2959.79772,N,12000.51723,E,3,21,1.05,-7.86,M,7.86,M,,*63
$GPRMC,000838,A,2959.79772,N,12000.51723,E,75.594,228.507,230721,0.000,E,A,V*5D
$GPGGA,000839,2959.78440,N,12000.49851,E,3,21,1.05,-7.86,M,7.86,M,,*62
$GPRMC,000839,A,2959.78440,N,12000.49851,E,75.594,232.963,230721,0.000,E,A,V*59
$GPGGA,000840,2959.77239,N,12000.47867,E,3,21,1.05,-7.86,M,7.86,M,,*60
$GPRMC,000840,A,2959.77239,N,12000.47867,E,75.594,237.419,230721,0.000,E,A,V*5E
$GPGGA,000841,2959.76175,N,12000.45780,E,3,21,1.05,-7.86,M,7.86,M,,*6F
$GPRMC,000841,A,2959.76175,N,12000.45780,E,75.594,241.875,230721,0.000,E,A,V*56
$GPGGA,000842,2959.75256,N,12000.43606,E,3,21,1.05,-7.86,M,7.86,M,,*64
$GPRMC,000842,A,2959.75256,N,12000.43606,E,75.594,246.332,230721,0.000,E,A,V*52
$GPGGA,000843,2959.74487,N,12000.41355,E,3,21,1.05,-7.86,M,7.86,M,,*6F
$GPRMC,000843,A,2959.74487,N,12000.41355,E,75.594,250.788,230721,0.000,E,A,V*5B
$GPGGA,000844,2959.73872,N,12000.39043,E,3,21,1.05,-7.86,M,7.86,M,,*62
$GPRMC,000844,A,2959.73872,N,12000.39043,E,75.594,255.244,230721,0.000,E,A,V*56
$GPGGA,000845,2959.73415,N,12000.36683,E,3,21,1.05,-7.86,M,7.86,M,,*6B
$GPRMC,000845,A,2959.73415,N,12000.36683,E,75.594,259.700,230721,0.000,E,A,V*56
$GPGGA,000846,2959.73120,N,12000.34290,E,3,21,1.05,-7.86,M,7.86,M,,*6F
$GPRMC,000846,A,2959.73120,N,12000.34290,E,75.594,264.156,230721,0.000,E,A,V*59
$GPGGA,000847,2959.72987,N,12000.31877,E,3,21,1.05,-7.86,M,7.86,M,,*6C
$GPRMC,000847,A,2959.72987,N,12000.31877,E,75.594,268.612,230721,0.000,E,A,V*51
$GPGGA,000848,2959.73018,N,12000.29460,E,3,21,1.05,-7.86,M,7.86,M,,*6E
$GPRMC,000848,A,2959.73018,N,12000.29460,E,75.594,273.068,230721,0.000,E,A,V*52
$GPGGA,000849,2959.73212,N,12000.27052,E,3,21,1.05,-7.86,M,7.86,M,,*6C
$GPRMC,000849,A,2959.73212,N,12000.27052,E,75.594,277.524,230721,0.000,E,A,V*59
$GPGGA,000850,2959.73568,N,12000.24670,E,3,21,1.05,-7.86,M,7.86,M,,*6B
$GPRMC,000850,A,2959.73568,N,12000.24670,E,75.594,281.981,230721,0.000,E,A,V*54
$GPGGA,000851,2959.74085,N,12000.22326,E,3,21,1.05,-7.86,M,7.86,M,,*6B
$GPRMC,000851,A,2959.74085,N,12000.22326,E,75.594,286.437,230721,0.000,E,A,V*53
$GPGGA,000852,2959.74758,N,12000.20035,E,3,21,1.05,-7.86,M,7.86,M,,*6C
$GPRMC,000852,A,2959.74758,N,12000.20035,E,75.594,290.893,230721,0.000,E,A,V*51
$GPGGA,000853,2959.75584,N,12000.17812,E,3,21,1.05,-7.86,M,7.86,M,,*66
$GPRMC,000853,A,2959.75584,N,12000.17812,E,75.594,295.349,230721,0.000,E,A,V*52
$GPGGA,000854,2959.76559,N,12000.15669,E,3,21,1.05,-7.86,M,7.86,M,,*62
$GPRMC,000854,A,2959.76559,N,12000.15669,E,75.594,299.805,230721,0.000,E,A,V*59
$GPGGA,000855,2959.77675,N,12000.13620,E,3,21,1.05,-7.86,M,7.86,M,,*64
$GPRMC,000855,A,2959.77675,N,12000.13620,E,75.594,304.261,230721,0.000,E,A,V*52
$GPGGA,000856,2959.78926,N,12000.11676,E,3,21,1.05,-7.86,M,7.86,M,,*60
$GPRMC,000856,A,2959.78926,N,12000.11676,E,75.594,308.718,230721,0.000,E,A,V*51
$GPGGA,000857,2959.80305,N,12000.09850,E,3,21,1.05,-7.86,M,7.86,M,,*6E
$GPRMC,000857,A,2959.80305,N,12000.09850,E,75.594,313.174,230721,0.000,E,A,V*59
$GPGGA,000858,2959.81804,N,12000.08152,E,3,21,1.05,-7.86,M,7.86,M,,*60
$GPRMC,000858,A,2959.81804,N,12000.08152,E,75.594,317.630,230721,0.000,E,A,V*54
$GPGGA,000859,2959.83412,N,12000.06594,E,3,21,1.05,-7.86,M,7.86,M,,*68
$GPRMC,000859,A,2959.83412,N,12000.06594,E,75.594,322.086,230721,0.000,E,A,V*51
$GPGGA,000900,2959.85121,N,12000.05183,E,3,21,1.05,-7.86,M,7.86,M,,*67
$GPRMC,000900,A,2959.85121,N,12000.05183,E,75.594,326.542,230721,0.000,E,A,V*57
$GPGGA,000901,2959.86921,N,12000.03930,E,3,21,1.05,-7.86,M,7.86,M,,*6B
$GPRMC,000901,A,2959.86921,N,12000.03930,E,75.594,330.999,230721,0.000,E,A,V*56
$GPGGA,000902,2959.88800,N,12000.02841,E,3,21,1.05,-7.86,M,7.86,M,,*62
$GPRMC,000902,A,2959.88800,N,12000.02841,E,75.594,335.455,230721,0.000,E,A,V*57
$GPGGA,000903,2959.90746,N,12000.01923,E,3,21,1.05,-7.86,M,7.86,M,,*61
$GPRMC,000903,A,2959.90746,N,12000.01923,E,75.594,339.911,230721,0.000,E,A,V*55
$GPGGA,000904,2959.92749,N,12000.01181,E,3,21,1.05,-7.86,M,7.86,M,,*6B
$GPRMC,000904,A,2959.92749,N,12000.01181,E,75.594,344.367,230721,0.000,E,A,V*5E
$GPGGA,000905,2959.94796,N,12000.00621,E,3,21,1.05,-7.86,M,7.86,M,,*62
$GPRMC,000905,A,2959.94796,N,12000.00621,E,75.594,348.824,230721,0.000,E,A,V*57
$GPGGA,000906,2959.96875,N,12000.00245,E,3,21,1.05,-7.86,M,7.86,M,,*67
$GPRMC,000906,A,2959.96875,N,12000.00245,E,75.594,353.280,230721,0.000,E,A,V*5C
$GPGGA,000907,2959.98973,N,12000.00055,E,3,21,1.05,-7.86,M,7.86,M,,*6C
$GPRMC,000907,A,2959.98973,N,12000.00055,E,75.594,357.736,230721,0.000,E,A,V*5B
$GPGGA,000908,3000.01077,N,12000.00054,E,3,21,1.05,-7.85,M,7.85,M,,*6B
$GPRMC,000908,A,3000.01077,N,12000.00054,E,75.594,2.192,230721,0.000,E,A,V*57
$GPGGA,000909,3000.03176,N,12000.00240,E,3,21,1.05,-7.85,M,7.85,M,,*6F
$GPRMC,000909,A,3000.03176,N,12000.00240,E,75.594,6.649,230721,0.000,E,A,V*56
$GPGGA,000910,3000.05255,N,12000.00613,E,3,21,1.05,-7.85,M,7.85,M,,*61
$GPRMC,000910,A,3000.05255,N,12000.00613,E,75.594,11.105,230721,0.000,E,A,V*61
$GPGGA,000911,3000.07302,N,12000.01171,E,3,21,1.05,-7.85,M,7.85,M,,*63
$GPRMC,000911,A,3000.07302,N,12000.01171,E,75.594,15.562,230721,0.000,E,A,V*62
$GPGGA,000912,3000.09306,N,12000.01909,E,3,21,1.05,-7.85,M,7.85,M,,*6D
$GPRMC,000912,A,3000.09306,N,12000.01909,E,75.594,20.018,230721,0.000,E,A,V*62
$GPGGA,000913,3000.11254,N,12000.02825,E,3,21,1.05,-7.85,M,7.85,M,,*6F
$GPRMC,000913,A,3000.11254,N,12000.02825,E,75.594,24.474,230721,0.000,E,A,V*6A
$GPGGA,000914,3000.13134,N,12000.03911,E,3,21,1.05,-7.85,M,7.85,M,,*68
$GPRMC,000914,A,3000.13134,N,12000.03911,E,75.594,28.931,230721,0.000,E,A,V*6D
$GPGGA,000915,3000.14935,N,12000.05162,E,3,21,1.05,-7.85,M,7.85,M,,*6D
$GPRMC,000915,A,3000.14935,N,12000.05162,E,75.594,33.387,230721,0.000,E,A,V*65
$GPGGA,000916,3000.16645,N,12000.06570,E,3,21,1.05,-7.85,M,7.85,M,,*60
$GPRMC,000916,A,3000.16645,N,12000.06570,E,75.594,37.844,230721,0.000,E,A,V*68
$GPGGA,000917,3000.18256,N,12000.08126,E,3,21,1.05,-7.85,M,7.85,M,,*60
$GPRMC,000917,A,3000.18256,N,12000.08126,E,75.594,42.300,230721,0.000,E,A,V*61
$GPGGA,000918,3000.19756,N,12000.09822,E,3,21,1.05,-7.85,M,7.85,M,,*67
$GPRMC,000918,A,3000.19756,N,12000.09822,E,75.594,46.757,230721,0.000,E,A,V*64
$GPGGA,000919,3000.21137,N,12000.11646,E,3,21,1.05,-7.85,M,7.85,M,,*69
$GPRMC,000919,A,3000.21137,N,12000.11646,E,75.594,51.213,230721,0.000,E,A,V*69
$GPGGA,000920,3000.22391,N,12000.13588,E,3,21,1.05,-7.85,M,7.85,M,,*6D
$GPRMC,000920,A,3000.22391,N,12000.13588,E,75.594,55.670,230721,0.000,E,A,V*68
$GPGGA,000921,3000.23509,N,12000.15636,E,3,21,1.05,-7.85,M,7.85,M,,*6A
$GPRMC,000921,A,3000.23509,N,12000.15636,E,75.594,60.126,230721,0.000,E,A,V*6D
$GPGGA,000922,3000.24485,N,12000.17778,E,3,21,1.05,-7.86,M,7.86,M,,*62
$GPRMC,000922,A,3000.24485,N,12000.17778,E,75.594,64.583,230721,0.000,E,A,V*6A
$GPGGA,000923,3000.25314,N,12000.20001,E,3,21,1.05,-7.86,M,7.86,M,,*60
$GPRMC,000923,A,3000.25314,N,12000.20001,E,75.594,69.039,230721,0.000,E,A,V*61
$GPGGA,000924,3000.25990,N,12000.22290,E,3,21,1.05,-7.86,M,7.86,M,,*69
$GPRMC,000924,A,3000.25990,N,12000.22290,E,75.594,73.496,230721,0.000,E,A,V*62
$GPGGA,000925,3000.26509,N,12000.24633,E,3,21,1.05,-7.86,M,7.86,M,,*6C
$GPRMC,000925,A,3000.26509,N,12000.24633,E,75.594,77.952,230721,0.000,E,A,V*66
$GPGGA,000926,3000.26868,N,12000.27016,E,3,21,1.05,-7.86,M,7.86,M,,*67
$GPRMC,000926,A,3000.26868,N,12000.27016,E,75.594,82.409,230721,0.000,E,A,V*64
$GPGGA,000927,3000.27065,N,12000.29423,E,3,21,1.05,-7.86,M,7.86,M,,*6E
$GPRMC,000927,A,3000.27065,N,12000.29423,E,75.594,86.865,230721,0.000,E,A,V*6F
$GPGGA,000928,3000.27098,N,12000.31840,E,3,21,1.05,-7.86,M,7.86,M,,*63
$GPRMC,000928,A,3000.27098,N,12000.31840,E,75.594,91.322,230721,0.000,E,A,V*6C
$GPGGA,000929,3000.26968,N,12000.34254,E,3,21,1.05,-7.86,M,7.86,M,,*6F
$GPRMC,000929,A,3000.26968,N,12000.34254,E,75.594,95.778,230721,0.000,E,A,V*6F
$GPGGA,000930,3000.26675,N,12000.36648,E,3,21,1.05,-7.86,M,7.86,M,,*6F
$GPRMC,000930,A,3000.26675,N,12000.36648,E,75.594,100.235,230721,0.000,E,A,V*5E
$GPGGA,000931,3000.26221,N,12000.39009,E,3,21,1.05,-7.86,M,7.86,M,,*67
$GPRMC,000931,A,3000.26221,N,12000.39009,E,75.594,104.691,230721,0.000,E,A,V*58
$GPGGA,000932,3000.25609,N,12000.41322,E,3,21,1.05,-7.86,M,7.86,M,,*6C
$GPRMC,000932,A,3000.25609,N,12000.41322,E,75.594,109.148,230721,0.000,E,A,V*5D
$GPGGA,000933,3000.24842,N,12000.43574,E,3,21,1.05,-7.86,M,7.86,M,,*6A
$GPRMC,000933,A,3000.24842,N,12000.43574,E,75.594,113.604,230721,0.000,E,A,V*5F
$GPGGA,000934,3000.23925,N,12000.45750,E,3,21,1.05,-7.86,M,7.86,M,,*68
$GPRMC,000934,A,3000.23925,N,12000.45750,E,75.594,118.061,230721,0.000,E,A,V*53
$GPGGA,000935,3000.22864,N,12000.47838,E,3,21,1.05,-7.86,M,7.86,M,,*6F
$GPRMC,000935,A,3000.22864,N,12000.47838,E,75.594,122.517,230721,0.000,E,A,V*59
$GPGGA,000936,3000.21664,N,12000.49824,E,3,21,1.05,-7.86,M,7.86,M,,*62
$GPRMC,000936,A,3000.21664,N,12000.49824,E,75.594,126.974,230721,0.000,E,A,V*59
$GPGGA,000937,3000.20334,N,12000.51698,E,3,21,1.05,-7.86,M,7.86,M,,*62
$GPRMC,000937,A,3000.20334,N,12000.51698,E,75.594,131.430,230721,0.000,E,A,V*52
$GPGGA,000938,3000.18882,N,12000.53447,E,3,21,1.05,-7.86,M,7.86,M,,*62
$GPRMC,000938,A,3000.18882,N,12000.53447,E,75.594,135.887,230721,0.000,E,A,V*56
$GPGGA,000939,3000.17315,N,12000.55062,E,3,21,1.05,-7.86,M,7.86,M,,*6C
$GPRMC,000939,A,3000.17315,N,12000.55062,E,75.594,140.343,230721,0.000,E,A,V*59
$GPGGA,000940,3000.15644,N,12000.56531,E,3,21,1.05,-7.86,M,7.86,M,,*61
$GPRMC,000940,A,3000.15644,N,12000.56531,E,75.594,144.800,230721,0.000,E,A,V*5C
$GPGGA,000941,3000.13879,N,12000.57847,E,3,21,1.05,-7.86,M,7.86,M,,*6B
$GPRMC,000941,A,3000.13879,N,12000.57847,E,75.594,149.256,230721,0.000,E,A,V*52
$GPGGA,000942,3000.12030,N,12000.59002,E,3,21,1.05,-7.86,M,7.86,M,,*6B
$GPRMC,000942,A,3000.12030,N,12000.59002,E,75.594,153.713,230721,0.000,E,A,V*5D
$GPGGA,000943,3000.10108,N,12000.59988,E,3,21,1.05,-7.86,M,7.86,M,,*69
$GPRMC,000943,A,3000.10108,N,12000.59988,E,75.594,158.169,230721,0.000,E,A,V*5F
$GPGGA,000944,3000.08126,N,12000.60799,E,3,21,1.05,-7.86,M,7.86,M,,*6F
$GPRMC,000944,A,3000.08126,N,12000.60799,E,75.594,162.625,230721,0.000,E,A,V*5F
$GPGGA,000945,3000.06095,N,12000.61431,E,3,21,1.05,-7.86,M,7.86,M,,*69
$GPRMC,000945,A,3000.06095,N,12000.61431,E,75.594,167.082,230721,0.000,E,A,V*57
$GPGGA,000946,3000.04027,N,12000.61880,E,3,21,1.05,-7.86,M,7.86,M,,*67
$GPRMC,000946,A,3000.04027,N,12000.61880,E,75.594,171.538,230721,0.000,E,A,V*5A
$GPGGA,000947,3000.01935,N,12000.62142,E,3,21,1.05,-7.86,M,7.86,M,,*6D
$GPRMC,000947,A,3000.01935,N,12000.62142,E,75.594,175.994,230721,0.000,E,A,V*5E
$GPGGA,000948,2959.99832,N,12000.62218,E,3,21,1.05,-7.86,M,7.86,M,,*6D
$GPRMC,000948,A,2959.99832,N,12000.62218,E,75.594,180.451,230721,0.000,E,A,V*50
$GPGGA,000949,2959.97730,N,12000.62105,E,3,21,1.05,-7.86,M,7.86,M,,*60
$GPRMC,000949,A,2959.97730,N,12000.62105,E,75.594,184.907,230721,0.000,E,A,V*57
$GPGGA,000950,2959.95641,N,12000.61805,E,3,21,1.05,-7.86,M,7.86,M,,*67
$GPRMC,000950,A,2959.95641,N,12000.61805,E,75.594,189.363,230721,0.000,E,A,V*55
$GPGGA,000951,2959.93580,N,12000.61319,E,3,21,1.05,-7.86,M,7.86,M,,*68
$GPRMC,000951,A,2959.93580,N,12000.61319,E,75.594,193.820,230721,0.000,E,A,V*5D
$GPGGA,000952,2959.91558,N,12000.60651,E,3,21,1.05,-7.86,M,7.86,M,,*64
$GPRMC,000952,A,2959.91558,N,12000.60651,E,75.594,198.276,230721,0.000,E,A,V*53
$GPGGA,000953,2959.89586,N,12000.59804,E,3,21,1.05,-7.86,M,7.86,M,,*6B
$GPRMC,000953,A,2959.89586,N,12000.59804,E,75.594,202.732,230721,0.000,E,A,V*59
$GPGGA,000954,2959.87678,N,12000.58784,E,3,21,1.05,-7.86,M,7.86,M,,*66
$GPRMC,000954,A,2959.87678,N,12000.58784,E,75.594,207.188,230721,0.000,E,A,V*56
$GPGGA,000955,2959.85845,N,12000.57597,E,3,21,1.05,-7.86,M,7.86,M,,*6A
$GPRMC,000955,A,2959.85845,N,12000.57597,E,75.594,211.645,230721,0.000,E,A,V*5B
$GPGGA,000956,2959.84098,N,12000.56250,E,3,21,1.05,-7.86,M,7.86,M,,*6D
$GPRMC,000956,A,2959.84098,N,12000.56250,E,75.594,216.101,230721,0.000,E,A,V*5C
$GPGGA,000957,2959.82447,N,12000.54750,E,3,21,1.05,-7.86,M,7.86,M,,*6B
$GPRMC,000957,A,2959.82447,N,12000.54750,E,75.594,220.557,230721,0.000,E,A,V*58
$GPGGA,000958,2959.80903,N,12000.53108,E,3,21,1.05,-7.86,M,7.86,M,,*67
$GPRMC,000958,A,2959.80903,N,12000.53108,E,75.594,225.013,230721,0.000,E,A,V*54
$GPGGA,000959,2959.79474,N,12000.51333,E,3,21,1.05,-7.86,M,7.86,M,,*65
$GPRMC,000959,A,2959.79474,N,12000.51333,E,75.594,229.469,230721,0.000,E,A,V*53
$GPGGA,001000,2959.78169,N,12000.49436,E,3,21,1.05,-7.86,M,7.86,M,,*62
$GPRMC,001000,A,2959.78169,N,12000.49436,E,75.594,233.926,230721,0.000,E,A,V*59
$GPGGA,001001,2959.76997,N,12000.47429,E,3,21,1.05,-7.86,M,7.86,M,,*64
$GPRMC,001001,A,2959.76997,N,12000.47429,E,75.594,238.382,230721,0.000,E,A,V*50
$GPGGA,001002,2959.75964,N,12000.45322,E,3,21,1.05,-7.86,M,7.86,M,,*66
$GPRMC,001002,A,2959.75964,N,12000.45322,E,75.594,242.838,230721,0.000,E,A,V*55
$GPGGA,001003,2959.75077,N,12000.43130,E,3,21,1.05,-7.86,M,7.86,M,,*6B
$GPRMC,001003,A,2959.75077,N,12000.43130,E,75.594,247.294,230721,0.000,E,A,V*51
$GPGGA,001004,2959.74341,N,12000.40865,E,3,21,1.05,-7.86,M,7.86,M,,*61
$GPRMC,001004,A,2959.74341,N,12000.40865,E,75.594,251.750,230721,0.000,E,A,V*51
$GPGGA,001005,2959.73760,N,12000.38542,E,3,21,1.05,-7.86,M,7.86,M,,*67
$GPRMC,001005,A,2959.73760,N,12000.38542,E,75.594,256.206,230721,0.000,E,A,V*56
$GPGGA,001006,2959.73338,N,12000.36173,E,3,21,1.05,-7.86,M,7.86,M,,*65
$GPRMC,001006,A,2959.73338,N,12000.36173,E,75.594,260.663,230721,0.000,E,A,V*56
$GPGGA,001007,2959.73077,N,12000.33774,E,3,21,1.05,-7.86,M,7.86,M,,*68
$GPRMC,001007,A,2959.73077,N,12000.33774,E,75.594,265.119,230721,0.000,E,A,V*54
$GPGGA,001008,2959.72980,N,12000.31359,E,3,21,1.05,-7.86,M,7.86,M,,*6E
$GPRMC,001008,A,2959.72980,N,12000.31359,E,75.594,269.575,230721,0.000,E,A,V*50
$GPGGA,001009,2959.73046,N,12000.28943,E,3,21,1.05,-7.86,M,7.86,M,,*64
$GPRMC,001009,A,2959.73046,N,12000.28943,E,75.594,274.031,230721,0.000,E,A,V*53
$GPGGA,001010,2959.73275,N,12000.26539,E,3,21,1.05,-7.86,M,7.86,M,,*61
$GPRMC,001010,A,2959.73275,N,12000.26539,E,75.594,278.487,230721,0.000,E,A,V*53
$GPGGA,001011,2959.73666,N,12000.24164,E,3,21,1.05,-7.86,M,7.86,M,,*68
$GPRMC,001011,A,2959.73666,N,12000.24164,E,75.594,282.943,230721,0.000,E,A,V*5A
$GPGGA,001012,2959.74217,N,12000.21831,E,3,21,1.05,-7.86,M,7.86,M,,*62
$GPRMC,001012,A,2959.74217,N,12000.21831,E,75.594,287.399,230721,0.000,E,A,V*58
$GPGGA,001013,2959.74924,N,12000.19553,E,3,21,1.05,-7.86,M,7.86,M,,*6A
$GPRMC,001013,A,2959.74924,N,12000.19553,E,75.594,291.855,230721,0.000,E,A,V*5C
$GPGGA,001014,2959.75782,N,12000.17346,E,3,21,1.05,-7.86,M,7.86,M,,*62
$GPRMC,001014,A,2959.75782,N,12000.17346,E,75.594,296.312,230721,0.000,E,A,V*5B
$GPGGA,001015,2959.76788,N,12000.15222,E,3,21,1.05,-7.86,M,7.86,M,,*6B
$GPRMC,001015,A,2959.76788,N,12000.15222,E,75.594,300.768,230721,0.000,E,A,V*55
$GPGGA,001016,2959.77934,N,12000.13195,E,3,21,1.05,-7.86,M,7.86,M,,*69
$GPRMC,001016,A,2959.77934,N,12000.13195,E,75.594,305.224,230721,0.000,E,A,V*5F
$GPGGA,001017,2959.79213,N,12000.11275,E,3,21,1.05,-7.86,M,7.86,M,,*67
$GPRMC,001017,A,2959.79213,N,12000.11275,E,75.594,309.680,230721,0.000,E,A,V*57
$GPGGA,001018,2959.80619,N,12000.09476,E,3,21,1.05,-7.86,M,7.86,M,,*6C
$GPRMC,001018,A,2959.80619,N,12000.09476,E,75.594,314.136,230721,0.000,E,A,V*5A
$GPGGA,001019,2959.82142,N,12000.07808,E,3,21,1.05,-7.86,M,7.86,M,,*6D
$GPRMC,001019,A,2959.82142,N,12000.07808,E,75.594,318.592,230721,0.000,E,A,V*5D
$GPGGA,001020,2959.83773,N,12000.06280,E,3,21,1.05,-7.86,M,7.86,M,,*69
$GPRMC,001020,A,2959.83773,N,12000.06280,E,75.594,323.049,230721,0.000,E,A,V*52
$GPGGA,001021,2959.85503,N,12000.04903,E,3,21,1.05,-7.86,M,7.86,M,,*69
$GPRMC,001021,A,2959.85503,N,12000.04903,E,75.594,327.505,230721,0.000,E,A,V*5B
$GPGGA,001022,2959.87320,N,12000.03685,E,3,21,1.05,-7.86,M,7.86,M,,*69
$GPRMC,001022,A,2959.87320,N,12000.03685,E,75.594,331.961,230721,0.000,E,A,V*52
$GPGGA,001023,2959.89215,N,12000.02632,E,3,21,1.05,-7.86,M,7.86,M,,*6C
$GPRMC,001023,A,2959.89215,N,12000.02632,E,75.594,336.417,230721,0.000,E,A,V*5C
$GPGGA,001024,2959.91175,N,12000.01752,E,3,21,1.05,-7.86,M,7.86,M,,*63
$GPRMC,001024,A,2959.91175,N,12000.01752,E,75.594,340.874,230721,0.000,E,A,V*5B
$GPGGA,001025,2959.93188,N,12000.01049,E,3,21,1.05,-7.86,M,7.86,M,,*6F
$GPRMC,001025,A,2959.93188,N,12000.01049,E,75.594,345.330,230721,0.000,E,A,V*59
$GPGGA,001026,2959.95243,N,12000.00528,E,3,21,1.05,-7.86,M,7.86,M,,*6D
$GPRMC,001026,A,2959.95243,N,12000.00528,E,75.594,349.786,230721,0.000,E,A,V*5E
$GPGGA,001027,2959.97327,N,12000.00192,E,3,21,1.05,-7.86,M,7.86,M,,*68
$GPRMC,001027,A,2959.97327,N,12000.00192,E,75.594,354.242,230721,0.000,E,A,V*5A
$GPGGA,001028,2959.99428,N,12000.00043,E,3,21,1.05,-7.86,M,7.86,M,,*6C
$GPRMC,001028,A,2959.99428,N,12000.00043,E,75.594,358.699,230721,0.000,E,A,V*50
$GPGGA,001029,3000.01532,N,12000.00082,E,3,21,1.05,-7.85,M,7.85,M,,*6F
$GPRMC,001029,A,3000.01532,N,12000.00082,E,75.594,3.155,230721,0.000,E,A,V*59
$GPGGA,001030,3000.03627,N,12000.00309,E,3,21,1.05,-7.85,M,7.85,M,,*62
$GPRMC,001030,A,3000.03627,N,12000.00309,E,75.594,7.611,230721,0.000,E,A,V*57
$GPGGA,001031,3000.05700,N,12000.00722,E,3,21,1.05,-7.85,M,7.85,M,,*6C
$GPRMC,001031,A,3000.05700,N,12000.00722,E,75.594,12.068,230721,0.000,E,A,V*65
$GPGGA,001032,3000.07739,N,12000.01319,E,3,21,1.05,-7.85,M,7.85,M,,*6A
$GPRMC,001032,A,3000.07739,N,12000.01319,E,75.594,16.524,230721,0.000,E,A,V*6A
$GPGGA,001033,3000.09732,N,12000.02097,E,3,21,1.05,-7.85,M,7.85,M,,*68
$GPRMC,001033,A,3000.09732,N,12000.02097,E,75.594,20.981,230721,0.000,E,A,V*6E
$GPGGA,001034,3000.11666,N,12000.03050,E,3,21,1.05,-7.85,M,7.85,M,,*6C
$GPRMC,001034,A,3000.11666,N,12000.03050,E,75.594,25.437,230721,0.000,E,A,V*6F
$GPGGA,001035,3000.13530,N,12000.04172,E,3,21,1.05,-7.85,M,7.85,M,,*69
$GPRMC,001035,A,3000.13530,N,12000.04172,E,75.594,29.893,230721,0.000,E,A,V*64
$GPGGA,001036,3000.15312,N,12000.05458,E,3,21,1.05,-7.85,M,7.85,M,,*66
$GPRMC,001036,A,3000.15312,N,12000.05458,E,75.594,34.350,230721,0.000,E,A,V*63
$GPGGA,001037,3000.17002,N,12000.06898,E,3,21,1.05,-7.85,M,7.85,M,,*64
$GPRMC,001037,A,3000.17002,N,12000.06898,E,75.594,38.806,230721,0.000,E,A,V*65
$GPGGA,001038,3000.18589,N,12000.08486,E,3,21,1.05,-7.85,M,7.85,M,,*6F
$GPRMC,001038,A,3000.18589,N,12000.08486,E,75.594,43.263,230721,0.000,E,A,V*6B
$GPGGA,001039,3000.20065,N,12000.10210,E,3,21,1.05,-7.85,M,7.85,M,,*62
$GPRMC,001039,A,3000.20065,N,12000.10210,E,75.594,47.719,230721,0.000,E,A,V*6A
$GPGGA,001040,3000.21419,N,12000.12061,E,3,21,1.06,-7.85,M,7.85,M,,*67
$GPRMC,001040,A,3000.21419,N,12000.12061,E,75.594,52.176,230721,0.000,E,A,V*67
$GPGGA,001041,3000.22644,N,12000.14027,E,3,21,1.06,-7.85,M,7.85,M,,*6B
$GPRMC,001041,A,3000.22644,N,12000.14027,E,75.594,56.632,230721,0.000,E,A,V*68
$GPGGA,001042,3000.23732,N,12000.16096,E,3,21,1.06,-7.86,M,7.86,M,,*61
$GPRMC,001042,A,3000.23732,N,12000.16096,E,75.594,61.089,230721,0.000,E,A,V*60
$GPGGA,001043,3000.24677,N,12000.18256,E,3,21,1.06,-7.86,M,7.86,M,,*67
$GPRMC,001043,A,3000.24677,N,12000.18256,E,75.594,65.545,230721,0.000,E,A,V*67
$GPGGA,001044,3000.25473,N,12000.20494,E,3,21,1.06,-7.86,M,7.86,M,,*64
$GPRMC,001044,A,3000.25473,N,12000.20494,E,75.594,70.002,230721,0.000,E,A,V*66
$GPGGA,001045,3000.26115,N,12000.22797,E,3,21,1.06,-7.86,M,7.86,M,,*61
$GPRMC,001045,A,3000.26115,N,12000.22797,E,75.594,74.458,230721,0.000,E,A,V*6C
$GPGGA,001046,3000.26600,N,12000.25150,E,3,21,1.06,-7.86,M,7.86,M,,*6B
$GPRMC,001046,A,3000.26600,N,12000.25150,E,75.594,78.915,230721,0.000,E,A,V*6E
$GPGGA,001047,3000.26924,N,12000.27539,E,3,21,1.06,-7.86,M,7.86,M,,*6A
$GPRMC,001047,A,3000.26924,N,12000.27539,E,75.594,83.371,230721,0.000,E,A,V*63
$GPGGA,001048,3000.27086,N,12000.29949,E,3,21,1.06,-7.86,M,7.86,M,,*60
$GPRMC,001048,A,3000.27086,N,12000.29949,E,75.594,87.828,230721,0.000,E,A,V*6A
$GPGGA,001049,3000.27084,N,12000.32367,E,3,21,1.06,-7.86,M,7.86,M,,*6F
$GPRMC,001049,A,3000.27084,N,12000.32367,E,75.594,92.284,230721,0.000,E,A,V*6D
$GPGGA,001050,3000.26918,N,12000.34777,E,3,21,1.06,-7.86,M,7.86,M,,*69
$GPRMC,001050,A,3000.26918,N,12000.34777,E,75.594,96.741,230721,0.000,E,A,V*63
$GPGGA,001051,3000.26590,N,12000.37166,E,3,21,1.06,-7.86,M,7.86,M,,*61
$GPRMC,001051,A,3000.26590,N,12000.37166,E,75.594,101.197,230721,0.000,E,A,V*59
$GPGGA,001052,3000.26102,N,12000.39517,E,3,21,1.06,-7.86,M,7.86,M,,*61
$GPRMC,001052,A,3000.26102,N,12000.39517,E,75.594,105.654,230721,0.000,E,A,V*55
$GPGGA,001053,3000.25456,N,12000.41818,E,3,21,1.06,-7.86,M,7.86,M,,*6A
$GPRMC,001053,A,3000.25456,N,12000.41818,E,75.594,110.110,230721,0.000,E,A,V*5D
$GPGGA,001054,3000.24656,N,12000.44055,E,3,21,1.06,-7.86,M,7.86,M,,*6A
$GPRMC,001054,A,3000.24656,N,12000.44055,E,75.594,114.567,230721,0.000,E,A,V*5D
$GPGGA,001055,3000.23708,N,12000.46213,E,3,21,1.06,-7.86,M,7.86,M,,*64
$GPRMC,001055,A,3000.23708,N,12000.46213,E,75.594,119.023,230721,0.000,E,A,V*5B
$GPGGA,001056,3000.22616,N,12000.48280,E,3,21,1.06,-7.86,M,7.86,M,,*6C
$GPRMC,001056,A,3000.22616,N,12000.48280,E,75.594,123.480,230721,0.000,E,A,V*57
$GPGGA,001057,3000.21388,N,12000.50243,E,3,21,1.06,-7.86,M,7.86,M,,*6A
$GPRMC,001057,A,3000.21388,N,12000.50243,E,75.594,127.936,230721,0.000,E,A,V*55
$GPGGA,001058,3000.20031,N,12000.52091,E,3,21,1.06,-7.86,M,7.86,M,,*6A
$GPRMC,001058,A,3000.20031,N,12000.52091,E,75.594,132.393,230721,0.000,E,A,V*54
$GPGGA,001059,3000.18553,N,12000.53812,E,3,21,1.06,-7.86,M,7.86,M,,*63
$GPRMC,001059,A,3000.18553,N,12000.53812,E,75.594,136.849,230721,0.000,E,A,V*55
$GPGGA,001100,3000.16963,N,12000.55396,E,3,21,1.06,-7.86,M,7.86,M,,*6E
$GPRMC,001100,A,3000.16963,N,12000.55396,E,75.594,141.306,230721,0.000,E,A,V*58
$GPGGA,001101,3000.15270,N,12000.56833,E,3,21,1.06,-7.86,M,7.86,M,,*62
$GPRMC,001101,A,3000.15270,N,12000.56833,E,75.594,145.762,230721,0.000,E,A,V*56
$GPGGA,001102,3000.13486,N,12000.58115,E,3,21,1.06,-7.86,M,7.86,M,,*6B
$GPRMC,001102,A,3000.13486,N,12000.58115,E,75.594,150.219,230721,0.000,E,A,V*52
$GPGGA,001103,3000.11620,N,12000.59234,E,3,21,1.06,-7.86,M,7.86,M,,*67
$GPRMC,001103,A,3000.11620,N,12000.59234,E,75.594,154.675,230721,0.000,E,A,V*54
$GPGGA,001104,3000.09685,N,12000.60182,E,3,21,1.06,-7.86,M,7.86,M,,*62
$GPRMC,001104,A,3000.09685,N,12000.60182,E,75.594,159.132,230721,0.000,E,A,V*58
$GPGGA,001105,3000.07691,N,12000.60955,E,3,21,1.06,-7.86,M,7.86,M,,*6A
$GPRMC,001105,A,3000.07691,N,12000.60955,E,75.594,163.588,230721,0.000,E,A,V*5C
$GPGGA,001106,3000.05651,N,12000.61548,E,3,21,1.06,-7.86,M,7.86,M,,*66
$GPRMC,001106,A,3000.05651,N,12000.61548,E,75.594,168.044,230721,0.000,E,A,V*5E
$GPGGA,001107,3000.03577,N,12000.61957,E,3,21,1.06,-7.86,M,7.86,M,,*64
$GPRMC,001107,A,3000.03577,N,12000.61957,E,75.594,172.501,230721,0.000,E,A,V*53
$GPGGA,001108,3000.01481,N,12000.62179,E,3,21,1.06,-7.86,M,7.86,M,,*66
$GPRMC,001108,A,3000.01481,N,12000.62179,E,75.594,176.957,230721,0.000,E,A,V*5A
$GPGGA,001109,2959.99377,N,12000.62213,E,3,21,1.06,-7.86,M,7.86,M,,*63
$GPRMC,001109,A,2959.99377,N,12000.62213,E,75.594,181.413,230721,0.000,E,A,V*5A
$GPGGA,001110,2959.97277,N,12000.62060,E,3,21,1.06,-7.86,M,7.86,M,,*62
$GPRMC,001110,A,2959.97277,N,12000.62060,E,75.594,185.870,230721,0.000,E,A,V*56
$GPGGA,001111,2959.95193,N,12000.61720,E,3,21,1.06,-7.86,M,7.86,M,,*68
$GPRMC,001111,A,2959.95193,N,12000.61720,E,75.594,190.326,230721,0.000,E,A,V*50
$GPGGA,001112,2959.93139,N,12000.61195,E,3,21,1.06,-7.86,M,7.86,M,,*65
$GPRMC,001112,A,2959.93139,N,12000.61195,E,75.594,194.782,230721,0.000,E,A,V*53
$GPGGA,001113,2959.91127,N,12000.60487,E,3,21,1.06,-7.86,M,7.86,M,,*6E
$GPRMC,001113,A,2959.91127,N,12000.60487,E,75.594,199.239,230721,0.000,E,A,V*50
$GPGGA,001114,2959.89169,N,12000.59603,E,3,21,1.06,-7.86,M,7.86,M,,*6E
$GPRMC,001114,A,2959.89169,N,12000.59603,E,75.594,203.695,230721,0.000,E,A,V*52
$GPGGA,001115,2959.87276,N,12000.58546,E,3,21,1.06,-7.86,M,7.86,M,,*6F
$GPRMC,001115,A,2959.87276,N,12000.58546,E,75.594,208.151,230721,0.000,E,A,V*57
$GPGGA,001116,2959.85460,N,12000.57324,E,3,21,1.06,-7.86,M,7.86,M,,*62
$GPRMC,001116,A,2959.85460,N,12000.57324,E,75.594,212.607,230721,0.000,E,A,V*55
$GPGGA,001117,2959.83733,N,12000.55943,E,3,21,1.06,-7.86,M,7.86,M,,*69
$GPRMC,001117,A,2959.83733,N,12000.55943,E,75.594,217.063,230721,0.000,E,A,V*5F
$GPGGA,001118,2959.82104,N,12000.54412,E,3,21,1.06,-7.86,M,7.86,M,,*6D
$GPRMC,001118,A,2959.82104,N,12000.54412,E,75.594,221.520,230721,0.000,E,A,V*5C
$GPGGA,001119,2959.80584,N,12000.52740,E,3,21,1.06,-7.86,M,7.86,M,,*60
$GPRMC,001119,A,2959.80584,N,12000.52740,E,75.594,225.976,230721,0.000,E,A,V*5A
$GPGGA,001120,2959.79181,N,12000.50938,E,3,21,1.06,-7.86,M,7.86,M,,*6E
$GPRMC,001120,A,2959.79181,N,12000.50938,E,75.594,230.432,230721,0.000,E,A,V*5D
$GPGGA,001121,2959.77905,N,12000.49016,E,3,21,1.06,-7.86,M,7.86,M,,*68
$GPRMC,001121,A,2959.77905,N,12000.49016,E,75.594,234.888,230721,0.000,E,A,V*52
$GPGGA,001122,2959.76762,N,12000.46986,E,3,21,1.06,-7.86,M,7.86,M,,*6A
$GPRMC,001122,A,2959.76762,N,12000.46986,E,75.594,239.344,230721,0.000,E,A,V*56
$GPGGA,001123,2959.75760,N,12000.44860,E,3,21,1.06,-7.86,M,7.86,M,,*61
$GPRMC,001123,A,2959.75760,N,12000.44860,E,75.594,243.800,230721,0.000,E,A,V*5B
$GPGGA,001124,2959.74905,N,12000.42651,E,3,21,1.06,-7.86,M,7.86,M,,*60
$GPRMC,001124,A,2959.74905,N,12000.42651,E,75.594,248.257,230721,0.000,E,A,V*59
$GPGGA,001125,2959.74202,N,12000.40372,E,3,21,1.06,-7.86,M,7.86,M,,*6B
$GPRMC,001125,A,2959.74202,N,12000.40372,E,75.594,252.713,230721,0.000,E,A,V*5C
$GPGGA,001126,2959.73655,N,12000.38038,E,3,21,1.06,-7.86,M,7.86,M,,*6B
$GPRMC,001126,A,2959.73655,N,12000.38038,E,75.594,257.169,230721,0.000,E,A,V*52
$GPGGA,001127,2959.73268,N,12000.35661,E,3,21,1.06,-7.86,M,7.86,M,,*67
$GPRMC,001127,A,2959.73268,N,12000.35661,E,75.594,261.625,230721,0.000,E,A,V*54
$GPGGA,001128,2959.73042,N,12000.33258,E,3,21,1.06,-7.86,M,7.86,M,,*6A
$GPRMC,001128,A,2959.73042,N,12000.33258,E,75.594,266.081,230721,0.000,E,A,V*56
$GPGGA,001129,2959.72980,N,12000.30841,E,3,21,1.06,-7.86,M,7.86,M,,*6C
$GPRMC,001129,A,2959.72980,N,12000.30841,E,75.594,270.537,230721,0.000,E,A,V*5F
$GPGGA,001130,2959.73082,N,12000.28426,E,3,21,1.06,-7.86,M,7.86,M,,*6A
$GPRMC,001130,A,2959.73082,N,12000.28426,E,75.594,274.993,230721,0.000,E,A,V*5F
$GPGGA,001131,2959.73346,N,12000.26028,E,3,21,1.06,-7.86,M,7.86,M,,*64
$GPRMC,001131,A,2959.73346,N,12000.26028,E,75.594,279.450,230721,0.000,E,A,V*5E
$GPGGA,001132,2959.73772,N,12000.23660,E,3,21,1.06,-7.86,M,7.86,M,,*6B
$GPRMC,001132,A,2959.73772,N,12000.23660,E,75.594,283.906,230721,0.000,E,A,V*5A
$GPGGA,001133,2959.74357,N,12000.21338,E,3,21,1.06,-7.86,M,7.86,M,,*64
$GPRMC,001133,A,2959.74357,N,12000.21338,E,75.594,288.362,230721,0.000,E,A,V*56
$GPGGA,001134,2959.75097,N,12000.19075,E,3,21,1.06,-7.86,M,7.86,M,,*6C
$GPRMC,001134,A,2959.75097,N,12000.19075,E,75.594,292.818,230721,0.000,E,A,V*53
$GPGGA,001135,2959.75987,N,12000.16884,E,3,21,1.06,-7.86,M,7.86,M,,*6C
$GPRMC,001135,A,2959.75987,N,12000.16884,E,75.594,297.274,230721,0.000,E,A,V*56
$GPGGA,001136,2959.77024,N,12000.14780,E,3,21,1.06,-7.86,M,7.86,M,,*64
$GPRMC,001136,A,2959.77024,N,12000.14780,E,75.594,301.730,230721,0.000,E,A,V*55
$GPGGA,001137,2959.78199,N,12000.12775,E,3,21,1.06,-7.86,M,7.86,M,,*61
$GPRMC,001137,A,2959.78199,N,12000.12775,E,75.594,306.186,230721,0.000,E,A,V*5C
$GPGGA,001138,2959.79507,N,12000.10881,E,3,21,1.06,-7.86,M,7.86,M,,*6A
$GPRMC,001138,A,2959.79507,N,12000.10881,E,75.594,310.643,230721,0.000,E,A,V*5E
$GPGGA,001139,2959.80938,N,12000.09109,E,3,21,1.06,-7.86,M,7.86,M,,*6C
$GPRMC,001139,A,2959.80938,N,12000.09109,E,75.594,315.099,230721,0.000,E,A,V*5C
$GPGGA,001140,2959.82486,N,12000.07470,E,3,21,1.06,-7.86,M,7.86,M,,*6D
$GPRMC,001140,A,2959.82486,N,12000.07470,E,75.594,319.555,230721,0.000,E,A,V*54
$GPGGA,001141,2959.84139,N,12000.05974,E,3,21,1.06,-7.86,M,7.86,M,,*60
$GPRMC,001141,A,2959.84139,N,12000.05974,E,75.594,324.011,230721,0.000,E,A,V*52
$GPGGA,001142,2959.85888,N,12000.04631,E,3,21,1.06,-7.86,M,7.86,M,,*6E
$GPRMC,001142,A,2959.85888,N,12000.04631,E,75.594,328.467,230721,0.000,E,A,V*55
$GPGGA,001143,2959.87723,N,12000.03448,E,3,21,1.06,-7.86,M,7.86,M,,*68
$GPRMC,001143,A,2959.87723,N,12000.03448,E,75.594,332.924,230721,0.000,E,A,V*52
$GPGGA,001144,2959.89633,N,12000.02432,E,3,21,1.06,-7.86,M,7.86,M,,*6D
$GPRMC,001144,A,2959.89633,N,12000.02432,E,75.594,337.380,230721,0.000,E,A,V*56
$GPGGA,001145,2959.91605,N,12000.01589,E,3,21,1.06,-7.86,M,7.86,M,,*62
$GPRMC,001145,A,2959.91605,N,12000.01589,E,75.594,341.836,230721,0.000,E,A,V*5E
$GPGGA,001146,2959.93629,N,12000.00925,E,3,21,1.06,-7.86,M,7.86,M,,*66
$GPRMC,001146,A,2959.93629,N,12000.00925,E,75.594,346.292,230721,0.000,E,A,V*59
$GPGGA,001147,2959.95691,N,12000.00444,E,3,21,1.06,-7.86,M,7.86,M,,*68
$GPRMC,001147,A,2959.95691,N,12000.00444,E,75.594,350.749,230721,0.000,E,A,V*53
$GPGGA,001148,2959.97780,N,12000.00149,E,3,21,1.06,-7.86,M,7.86,M,,*6C
$GPRMC,001148,A,2959.97780,N,12000.00149,E,75.594,355.205,230721,0.000,E,A,V*5F
$GPGGA,001149,2959.99882,N,12000.00040,E,3,21,1.06,-7.86,M,7.86,M,,*66
$GPRMC,001149,A,2959.99882,N,12000.00040,E,75.594,359.661,230721,0.000,E,A,V*5F
$GPGGA,001150,3000.01985,N,12000.00120,E,3,21,1.06,-7.85,M,7.85,M,,*6A
$GPRMC,001150,A,3000.01985,N,12000.00120,E,75.594,4.118,230721,0.000,E,A,V*51
$GPGGA,001151,3000.04077,N,12000.00387,E,3,21,1.06,-7.85,M,7.85,M,,*65
$GPRMC,001151,A,3000.04077,N,12000.00387,E,75.594,8.574,230721,0.000,E,A,V*5C
$GPGGA,001152,3000.06144,N,12000.00840,E,3,21,1.06,-7.85,M,7.85,M,,*65
$GPRMC,001152,A,3000.06144,N,12000.00840,E,75.594,13.030,230721,0.000,E,A,V*63
$GPGGA,001153,3000.08174,N,12000.01477,E,3,21,1.06,-7.85,M,7.85,M,,*60
$GPRMC,001153,A,3000.08174,N,12000.01477,E,75.594,17.487,230721,0.000,E,A,V*6A
$GPGGA,001154,3000.10155,N,12000.02292,E,3,21,1.06,-7.85,M,7.85,M,,*63
$GPRMC,001154,A,3000.10155,N,12000.02292,E,75.594,21.943,230721,0.000,E,A,V*69
$GPGGA,001155,3000.12075,N,12000.03282,E,3,21,1.06,-7.85,M,7.85,M,,*63
$GPRMC,001155,A,3000.12075,N,12000.03282,E,75.594,26.400,230721,0.000,E,A,V*64
$GPGGA,001156,3000.13922,N,12000.04441,E,3,21,1.06,-7.85,M,7.85,M,,*64
$GPRMC,001156,A,3000.13922,N,12000.04441,E,75.594,30.856,230721,0.000,E,A,V*6B
$GPGGA,001157,3000.15685,N,12000.05760,E,3,21,1.06,-7.85,M,7.85,M,,*60
$GPRMC,001157,A,3000.15685,N,12000.05760,E,75.594,35.312,230721,0.000,E,A,V*61
$GPGGA,001158,3000.17354,N,12000.07234,E,3,21,1.06,-7.85,M,7.85,M,,*62
$GPRMC,001158,A,3000.17354,N,12000.07234,E,75.594,39.769,230721,0.000,E,A,V*67
$GPGGA,001159,3000.18918,N,12000.08851,E,3,21,1.06,-7.85,M,7.85,M,,*68
$GPRMC,001159,A,3000.18918,N,12000.08851,E,75.594,44.225,230721,0.000,E,A,V*6A
$GPGGA,001200,3000.20368,N,12000.10604,E,3,21,1.06,-7.85,M,7.85,M,,*66
$GPRMC,001200,A,3000.20368,N,12000.10604,E,75.594,48.682,230721,0.000,E,A,V*61
$GPGGA,001201,3000.21695,N,12000.12480,E,3,21,1.06,-7.85,M,7.85,M,,*6D
