$GPVTG,,T,,M,0.0,N,0.0,K,A*23
$GPDTM,P90,,0000.000022,S,00000.000001,W,0.988,W84*5A
$GPRMC,001303.40,A,2959.998979,N,12000.001502,E,0.0,,230721,4.3,W,A*03
$GPGGA,001303.40,2959.998979,N,12000.001502,E,1,00,1.4,-10.5,M,7.0,M,,*4F

$GPVTG,,T,,M,0.0,N,0.0,K,A*23
$GPDTM,P90,,0000.000022,S,00000.000001,W,0.988,W84*5A
$GPRMC,001303.50,A,2959.998979,N,12000.001502,E,0.0,,230721,4.3,W,A*02
$GPGGA,001303.50,2959.998979,N,12000.001502,E,1,00,1.4,-10.5,M,7.0,M,,*4E

$GPVTG,,T,,M,0.0,N,0.0,K,A*23
$GPDTM,P90,,0000.000022,S,00000.000001,W,0.988,W84*5A
$GPRMC,001303.60,A,2959.998979,N,12000.001502,E,0.0,,230721,4.3,W,A*01
$GPGGA,001303.60,2959.998979,N,12000.001502,E,1,00,1.4,-10.5,M,7.0,M,,*4D

$GPVTG,,T,,M,0.0,N,0.0,K,A*23
$GPDTM,P90,,0000.000022,S,00000.000001,W,0.988,W84*5A
$GPRMC,001303.70,A,2959.998979,N,12000.001502,E,0.0,,230721,4.3,W,A*00
$GPGGA,001303.70,2959.998979,N,12000.001502,E,1,00,1.4,-10.5,M,7.0,M,,*4C

$GPVTG,,T,,M,0.0,N,0.0,K,A*23
$GPDTM,P90,,0000.000022,S,00000.000001,W,0.988,W84*5A
$GPRMC,001303.80,A,2959.998979,N,12000.001502,E,0.0,,230721,4.3,W,A*0F
$GPGGA,001303.80,2959.998979,N,12000.001502,E,1,00,1.4,-10.5,M,7.0,M,,*43

$GPVTG,,T,,M,0.0,N,0.0,K,A*23
$GPDTM,P90,,0000.000022,S,00000.000001,W,0.988,W84*5A
$GPRMC,001303.90,A,2959.998979,N,12000.001502,E,0.0,,230721,4.3,W,A*0E
$GPGGA,001303.90,2959.998979,N,12000.001502,E,1,00,1.4,-10.5,M,7.0,M,,*42

$GPGSV,2,1,08,02,33,293,27,04,48,239,26,07,82,067,27,08,51,209,27*72
$GPGSV,2,2,08,13,46,035,27,23,23,060,27,25,61,039,28,27,21,220,26*73
$GLGSV,1,1,03,78,09,330,23,77,62,317,,76,57,164,*50
$GAGSV,1,1,0,7*43
$PQGSV,1,1,0,0*43
$PQGSV,1,1,0,0*43
$GPGSA,A,3,02,04,07,08,13,23,25,27,,,,,1.6,1.4,0.9*31
$GPVTG,,T,,M,0.0,N,0.0,K,A*23
$GPDTM,P90,,0000.000022,S,00000.000001,W,0.988,W84*5A
$GPRMC,001304.00,A,2959.998978,N,12000.001504,E,0.0,,230721,4.3,W,A*07
$GPGGA,001304.00,2959.998978,N,12000.001504,E,1,08,1.4,-10.5,M,7.0,M,,*43

$GPVTG,,T,,M,0.0,N,0.0,K,A*23
$GPDTM,P90,,0000.000022,S,00000.000001,W,0.988,W84*5A
$GPRMC,001304.10,A,2959.998978,N,12000.001504,E,0.0,,230721,4.3,W,A*06
$GPGGA,001304.10,2959.998978,N,12000.001504,E,1,00,1.4,-10.5,M,7.0,M,,*4A

$GPVTG,,T,,M,0.0,N,0.0,K,A*23
$GPDTM,P90,,0000.000022,S,00000.000001,W,0.988,W84*5A
$GPRMC,001304.20,A,2959.998978,N,12000.001504,E,0.0,,230721,4.3,W,A*05
$GPGGA,001304.20,2959.998978,N,12000.001504,E,1,00,1.4,-10.5,M,7.0,M,,*49

$GPVTG,,T,,M,0.0,N,0.0,K,A*23
$GPDTM,P90,,0000.000022,S,00000.000001,W,0.988,W84*5A
$GPRMC,001304.30,A,2959.998978,N,12000.001504,E,0.0,,230721,4.3,W,A*04
$GPGGA,001304.30,2959.998978,N,12000.001504,E,1,00,1.4,-10.5,M,7.0,M,,*48

$GPVTG,,T,,M,0.0,N,0.0,K,A*23
$GPDTM,P90,,0000.000022,S,00000.000001,W,0.988,W84*5A
$GPRMC,001304.40,A,2959.998978,N,12000.001504,E,0.0,,230721,4.3,W,A*03
$GPGGA,001304.40,2959.998978,N,12000.001504,E,1,00,1.4,-10.5,M,7.0,M,,*4F

$GPVTG,,T,,M,0.0,N,0.0,K,A*23
$GPDTM,P90,,0000.000022,S,00000.000001,W,0.988,W84*5A
$GPRMC,001304.50,A,2959.998978,N,12000.001504,E,0.0,,230721,4.3,W,A*02
$GPGGA,001304.50,2959.998978,N,12000.001504,E,1,00,1.4,-10.5,M,7.0,M,,*4E

$GPVTG,,T,,M,0.0,N,0.0,K,A*23
$GPDTM,P90,,0000.000022,S,00000.000001,W,0.988,W84*5A
$GPRMC,001304.60,A,2959.998978,N,12000.001504,E,0.0,,230721,4.3,W,A*01
$GPGGA,001304.60,2959.998978,N,12000.001504,E,1,00,1.4,-10.5,M,7.0,M,,*4D

$GPVTG,,T,,M,0.0,N,0.0,K,A*23
$GPDTM,P90,,0000.000022,S,00000.000001,W,0.988,W84*5A
$GPRMC,001304.70,A,2959.998978,N,12000.001504,E,0.0,,230721,4.3,W,A*00
$GPGGA,001304.70,2959.998978,N,12000.001504,E,1,00,1.4,-10.5,M,7.0,M,,*4C

$GPVTG,,T,,M,0.0,N,0.0,K,A*23
$GPDTM,P90,,0000.000022,S,00000.000001,W,0.988,W84*5A
$GPRMC,001304.80,A,2959.998978,N,12000.001504,E,0.0,,230721,4.3,W,A*0F
$GPGGA,001304.80,2959.998978,N,12000.001504,E,1,00,1.4,-10.5,M,7.0,M,,*43

$GPVTG,,T,,M,0.0,N,0.0,K,A*23
$GPDTM,P90,,0000.000022,S,00000.000001,W,0.988,W84*5A
$GPRMC,001304.90,A,2959.998978,N,12000.001504,E,0.0,,230721,4.3,W,A*0E
$GPGGA,001304.90,2959.998978,N,12000.001504,E,1,00,1.4,-10.5,M,7.0,M,,*42

$GPGSV,2,1,08,02,33,293,27,04,48,239,27,07,82,067,26,08,51,209,27*72
$GPGSV,2,2,08,13,46,035,27,23,23,060,27,25,61,039,27,27,21,220,27*7D
$GLGSV,1,1,03,78,09,330,25,77,62,317,,76,57,164,*56
$GAGSV,1,1,0,7*43
$PQGSV,1,1,0,0*43
$PQGSV,1,1,0,0*43
$GPGSA,A,3,02,04,07,08,13,23,25,27,,,,,1.6,1.4,0.9*31
$GPVTG,,T,,M,0.0,N,0.0,K,A*23
$GPDTM,P90,,0000.000022,S,00000.000001,W,0.988,W84*5A
$GPRMC,001305.00,A,2959.998982,N,12000.001501,E,0.0,,230721,4.3,W,A*06
$GPGGA,001305.00,2959.998982,N,12000.001501,E,1,08,1.4,-10.5,M,7.0,M,,*42

$GPVTG,,T,,M,0.0,N,0.0,K,A*23
$GPDTM,P90,,0000.000022,S,00000.000001,W,0.988,W84*5A
$GPRMC,001305.10,A,2959.998982,N,12000.001501,E,0.0,,230721,4.3,W,A*07
$GPGGA,001305.10,2959.998982,N,12000.001501,E,1,00,1.4,-10.5,M,7.0,M,,*4B

$GPVTG,,T,,M,0.0,N,0.0,K,A*23
$GPDTM,P90,,0000.000022,S,00000.000001,W,0.988,W84*5A
$GPRMC,001305.20,A,2959.998982,N,12000.001501,E,0.0,,230721,4.3,W,A*04
$GPGGA,001305.20,2959.998982,N,12000.001501,E,1,00,1.4,-10.5,M,7.0,M,,*48

$GPVTG,,T,,M,0.0,N,0.0,K,A*23
$GPDTM,P90,,0000.000022,S,00000.000001,W,0.988,W84*5A
$GPRMC,001305.30,A,2959.998982,N,12000.001501,E,0.0,,230721,4.3,W,A*05
$GPGGA,001305.30,2959.998982,N,12000.001501,E,1,00,1.4,-10.5,M,7.0,M,,*49

$GPVTG,,T,,M,0.0,N,0.0,K,A*23
$GPDTM,P90,,0000.000022,S,00000.000001,W,0.988,W84*5A
$GPRMC,001305.40,A,2959.998982,N,12000.001501,E,0.0,,230721,4.3,W,A*02
$GPGGA,001305.40,2959.998982,N,12000.001501,E,1,00,1.4,-10.5,M,7.0,M,,*4E

$GPVTG,,T,,M,0.0,N,0.0,K,A*23
$GPDTM,P90,,0000.000022,S,00000.000001,W,0.988,W84*5A
$GPRMC,001305.50,A,2959.998982,N,12000.001501,E,0.0,,230721,4.3,W,A*03
$GPGGA,001305.50,2959.998982,N,12000.001501,E,1,00,1.4,-10.5,M,7.0,M,,*4F

$GPVTG,,T,,M,0.0,N,0.0,K,A*23
$GPDTM,P90,,0000.000022,S,00000.000001,W,0.988,W84*5A
$GPRMC,001305.60,A,2959.998982,N,12000.001501,E,0.0,,230721,4.3,W,A*00
$GPGGA,001305.60,2959.998982,N,12000.001501,E,1,00,1.4,-10.5,M,7.0,M,,*4C

$GPVTG,,T,,M,0.0,N,0.0,K,A*23
$GPDTM,P90,,0000.000022,S,00000.000001,W,0.988,W84*5A
$GPRMC,001305.70,A,2959.998982,N,12000.001501,E,0.0,,230721,4.3,W,A*01
$GPGGA,001305.70,2959.998982,N,12000.001501,E,1,00,1.4,-10.5,M,7.0,M,,*4D

$GPVTG,,T,,M,0.0,N,0.0,K,A*23
$GPDTM,P90,,0000.000022,S,00000.000001,W,0.988,W84*5A
$GPRMC,001305.80,A,2959.998982,N,12000.001501,E,0.0,,230721,4.3,W,A*0E
$GPGGA,001305.80,2959.998982,N,12000.001501,E,1,00,1.4,-10.5,M,7.0,M,,*42

$GPVTG,,T,,M,0.0,N,0.0,K,A*23
$GPDTM,P90,,0000.000022,S,00000.000001,W,0.988,W84*5A
$GPRMC,001305.90,A,2959.998982,N,12000.001501,E,0.0,,230721,4.3,W,A*0F
$GPGGA,001305.90,2959.998982,N,12000.001501,E,1,00,1.4,-10.5,M,7.0,M,,*43

$GPGSV,2,1,08,02,33,293,27,04,48,239,27,07,82,067,27,08,51,209,27*73
$GPGSV,2,2,08,13,46,035,27,23,23,060,28,25,61,039,27,27,21,220,27*72
$GLGSV,1,1,03,78,09,330,24,77,62,317,,76,57,164,*57
$GAGSV,1,1,0,7*43
$PQGSV,1,1,0,0*43
$PQGSV,1,1,0,0*43
$GPGSA,A,3,02,04,07,08,13,23,25,27,,,,,1.6,1.4,0.9*31
$GPVTG,,T,,M,0.0,N,0.0,K,A*23
$GPDTM,P90,,0000.000022,S,00000.000001,W,0.988,W84*5A
$GPRMC,001306.00,A,2959.998990,N,12000.001492,E,0.0,,230721,4.3,W,A*0D
$GPGGA,001306.00,2959.998990,N,12000.001492,E,1,08,1.4,-10.6,M,7.0,M,,*4A

$GPVTG,,T,,M,0.0,N,0.0,K,A*23
$GPDTM,P90,,0000.000022,S,00000.000001,W,0.988,W84*5A
$GPRMC,001306.10,A,2959.998990,N,12000.001492,E,0.0,,230721,4.3,W,A*0C
$GPGGA,001306.10,2959.998990,N,12000.001492,E,1,00,1.4,-10.6,M,7.0,M,,*43

$GPVTG,,T,,M,0.0,N,0.0,K,A*23
$GPDTM,P90,,0000.000022,S,00000.000001,W,0.988,W84*5A
$GPRMC,001306.20,A,2959.998990,N,12000.001492,E,0.0,,230721,4.3,W,A*0F
$GPGGA,001306.20,2959.998990,N,12000.001492,E,1,00,1.4,-10.6,M,7.0,M,,*40

$GPVTG,,T,,M,0.0,N,0.0,K,A*23
$GPDTM,P90,,0000.000022,S,00000.000001,W,0.988,W84*5A
$GPRMC,001306.30,A,2959.998990,N,12000.001492,E,0.0,,230721,4.3,W,A*0E
$GPGGA,001306.30,2959.998990,N,12000.001492,E,1,00,1.4,-10.6,M,7.0,M,,*41

$GPVTG,,T,,M,0.0,N,0.0,K,A*23
$GPDTM,P90,,0000.000022,S,00000.000001,W,0.988,W84*5A
$GPRMC,001306.40,A,2959.998990,N,12000.001492,E,0.0,,230721,4.3,W,A*09
$GPGGA,001306.40,2959.998990,N,12000.001492,E,1,00,1.4,-10.6,M,7.0,M,,*46

$GPVTG,,T,,M,0.0,N,0.0,K,A*23
$GPDTM,P90,,0000.000022,S,00000.000001,W,0.988,W84*5A
$GPRMC,001306.50,A,2959.998990,N,12000.001492,E,0.0,,230721,4.3,W,A*08
$GPGGA,001306.50,2959.998990,N,12000.001492,E,1,00,1.4,-10.6,M,7.0,M,,*47

$GPVTG,,T,,M,0.0,N,0.0,K,A*23
$GPDTM,P90,,0000.000022,S,00000.000001,W,0.988,W84*5A
$GPRMC,001306.60,A,2959.998990,N,12000.001492,E,0.0,,230721,4.3,W,A*0B
$GPGGA,001306.60,2959.998990,N,12000.001492,E,1,00,1.4,-10.6,M,7.0,M,,*44

$GPVTG,,T,,M,0.0,N,0.0,K,A*23
$GPDTM,P90,,0000.000022,S,00000.000001,W,0.988,W84*5A
$GPRMC,001306.70,A,2959.998990,N,12000.001492,E,0.0,,230721,4.3,W,A*0A
$GPGGA,001306.70,2959.998990,N,12000.001492,E,1,00,1.4,-10.6,M,7.0,M,,*45

$GPVTG,,T,,M,0.0,N,0.0,K,A*23
$GPDTM,P90,,0000.000022,S,00000.000001,W,0.988,W84*5A
$GPRMC,001306.80,A,2959.998990,N,12000.001492,E,0.0,,230721,4.3,W,A*05
$GPGGA,001306.80,2959.998990,N,12000.001492,E,1,00,1.4,-10.6,M,7.0,M,,*4A

$GPVTG,,T,,M,0.0,N,0.0,K,A*23
$GPDTM,P90,,0000.000022,S,00000.000001,W,0.988,W84*5A
$GPRMC,001306.90,A,2959.998990,N,12000.001492,E,0.0,,230721,4.3,W,A*04
$GPGGA,001306.90,2959.998990,N,12000.001492,E,1,00,1.4,-10.6,M,7.0,M,,*4B

$GPGSV,2,1,08,02,33,293,27,04,48,239,27,07,82,067,26,08,51,209,27*72
$GPGSV,2,2,08,13,46,035,27,23,23,060,27,25,61,039,27,27,21,220,27*7D
$GLGSV,1,1,03,78,09,330,24,77,62,317,,76,57,164,*57
$GAGSV,1,1,0,7*43
$PQGSV,1,1,0,0*43
$PQGSV,1,1,0,0*43
$GPGSA,A,3,02,04,07,08,13,23,25,27,,,,,1.6,1.4,0.9*31
$GPVTG,,T,,M,0.0,N,0.0,K,A*23
$GPDTM,P90,,0000.000022,S,00000.000001,W,0.988,W84*5A
$GPRMC,001307.00,A,2959.998988,N,12000.001492,E,0.0,,230721,4.3,W,A*05
$GPGGA,001307.00,2959.998988,N,12000.001492,E,1,08,1.4,-10.6,M,7.0,M,,*42

$GPVTG,,T,,M,0.0,N,0.0,K,A*23
$GPDTM,P90,,0000.000022,S,00000.000001,W,0.988,W84*5A
$GPRMC,001307.10,A,2959.998988,N,12000.001492,E,0.0,,230721,4.3,W,A*04
$GPGGA,001307.10,2959.998988,N,12000.001492,E,1,00,1.4,-10.6,M,7.0,M,,*4B

$GPVTG,,T,,M,0.0,N,0.0,K,A*23
$GPDTM,P90,,0000.000022,S,00000.000001,W,0.988,W84*5A
$GPRMC,001307.20,A,2959.998988,N,12000.001492,E,0.0,,230721,4.3,W,A*07
$GPGGA,001307.20,2959.998988,N,12000.001492,E,1,00,1.4,-10.6,M,7.0,M,,*48

$GPVTG,,T,,M,0.0,N,0.0,K,A*23
$GPDTM,P90,,0000.000022,S,00000.000001,W,0.988,W84*5A
$GPRMC,001307.30,A,2959.998988,N,12000.001492,E,0.0,,230721,4.3,W,A*06
$GPGGA,001307.30,2959.998988,N,12000.001492,E,1,00,1.4,-10.6,M,7.0,M,,*49

$GPVTG,,T,,M,0.0,N,0.0,K,A*23
$GPDTM,P90,,0000.000022,S,00000.000001,W,0.988,W84*5A
$GPRMC,001307.40,A,2959.998988,N,12000.001492,E,0.0,,230721,4.3,W,A*01
$GPGGA,001307.40,2959.998988,N,12000.001492,E,1,00,1.4,-10.6,M,7.0,M,,*4E

$GPVTG,,T,,M,0.0,N,0.0,K,A*23
$GPDTM,P90,,0000.000022,S,00000.000001,W,0.988,W84*5A
$GPRMC,001307.50,A,2959.998988,N,12000.001492,E,0.0,,230721,4.3,W,A*00
$GPGGA,001307.50,2959.998988,N,12000.001492,E,1,00,1.4,-10.6,M,7.0,M,,*4F

$GPVTG,,T,,M,0.0,N,0.0,K,A*23
$GPDTM,P90,,0000.000022,S,00000.000001,W,0.988,W84*5A
$GPRMC,001307.60,A,2959.998988,N,12000.001492,E,0.0,,230721,4.3,W,A*03
$GPGGA,001307.60,2959.998988,N,12000.001492,E,1,00,1.4,-10.6,M,7.0,M,,*4C

$GPVTG,,T,,M,0.0,N,0.0,K,A*23
$GPDTM,P90,,0000.000022,S,00000.000001,W,0.988,W84*5A
$GPRMC,001307.70,A,2959.998988,N,12000.001492,E,0.0,,230721,4.3,W,A*02
$GPGGA,001307.70,2959.998988,N,12000.001492,E,1,00,1.4,-10.6,M,7.0,M,,*4D

$GPVTG,,T,,M,0.0,N,0.0,K,A*23
$GPDTM,P90,,0000.000022,S,00000.000001,W,0.988,W84*5A
$GPRMC,001307.80,A,2959.998988,N,12000.001492,E,0.0,,230721,4.3,W,A*0D
$GPGGA,001307.80,2959.998988,N,12000.001492,E,1,00,1.4,-10.6,M,7.0,M,,*42

$GPVTG,,T,,M,0.0,N,0.0,K,A*23
$GPDTM,P90,,0000.000022,S,00000.000001,W,0.988,W84*5A
$GPRMC,001307.90,A,2959.998988,N,12000.001492,E,0.0,,230721,4.3,W,A*0C
$GPGGA,001307.90,2959.998988,N,12000.001492,E,1,00,1.4,-10.6,M,7.0,M,,*43

$GPGSV,2,1,08,02,33,293,26,04,48,239,27,07,82,067,27,08,51,209,28*7D
$GPGSV,2,2,08,13,46,035,28,23,23,060,27,25,61,039,27,27,21,220,27*72
$GLGSV,1,1,03,78,09,330,24,77,62,317,,76,57,164,*57
$GAGSV,1,1,0,7*43
$PQGSV,1,1,0,0*43
$PQGSV,1,1,0,0*43
$GPGSA,A,3,02,04,07,08,13,23,25,27,,,,,1.6,1.4,0.9*31
$GPVTG,,T,,M,0.0,N,0.0,K,A*23
$GPDTM,P90,,0000.000022,S,00000.000001,W,0.988,W84*5A
$GPRMC,001308.00,A,2959.998986,N,12000.001491,E,0.0,,230721,4.3,W,A*07
$GPGGA,001308.00,2959.998986,N,12000.001491,E,1,08,1.4,-10.6,M,7.0,M,,*40

$GPVTG,,T,,M,0.0,N,0.0,K,A*23
$GPDTM,P90,,0000.000022,S,00000.000001,W,0.988,W84*5A
$GPRMC,001308.10,A,2959.998986,N,12000.001491,E,0.0,,230721,4.3,W,A*06
$GPGGA,001308.10,2959.998986,N,12000.001491,E,1,00,1.4,-10.6,M,7.0,M,,*49

$GPVTG,,T,,M,0.0,N,0.0,K,A*23
$GPDTM,P90,,0000.000022,S,00000.000001,W,0.988,W84*5A
$GPRMC,001308.20,A,2959.998986,N,12000.001491,E,0.0,,230721,4.3,W,A*05
$GPGGA,001308.20,2959.998986,N,12000.001491,E,1,00,1.4,-10.6,M,7.0,M,,*4A

$GPVTG,,T,,M,0.0,N,0.0,K,A*23
$GPDTM,P90,,0000.000022,S,00000.000001,W,0.988,W84*5A
$GPRMC,001308.30,A,2959.998986,N,12000.001491,E,0.0,,230721,4.3,W,A*04
$GPGGA,001308.30,2959.998986,N,12000.001491,E,1,00,1.4,-10.6,M,7.0,M,,*4B

$GPVTG,,T,,M,0.0,N,0.0,K,A*23
$GPDTM,P90,,0000.000022,S,00000.000001,W,0.988,W84*5A
$GPRMC,001308.40,A,2959.998986,N,12000.001491,E,0.0,,230721,4.3,W,A*03
$GPGGA,001308.40,2959.998986,N,12000.001491,E,1,00,1.4,-10.6,M,7.0,M,,*4C

$GPVTG,,T,,M,0.0,N,0.0,K,A*23
$GPDTM,P90,,0000.000022,S,00000.000001,W,0.988,W84*5A
$GPRMC,001308.50,A,2959.998986,N,12000.001491,E,0.0,,230721,4.3,W,A*02
$GPGGA,001308.50,2959.998986,N,12000.001491,E,1,00,1.4,-10.6,M,7.0,M,,*4D

$GPVTG,,T,,M,0.0,N,0.0,K,A*23
$GPDTM,P90,,0000.000022,S,00000.000001,W,0.988,W84*5A
$GPRMC,001308.60,A,2959.998986,N,12000.001491,E,0.0,,230721,4.3,W,A*01
$GPGGA,001308.60,2959.998986,N,12000.001491,E,1,00,1.4,-10.6,M,7.0,M,,*4E

$GPVTG,,T,,M,0.0,N,0.0,K,A*23
$GPDTM,P90,,0000.000022,S,00000.000001,W,0.988,W84*5A
$GPRMC,001308.70,A,2959.998986,N,12000.001491,E,0.0,,230721,4.3,W,A*00
$GPGGA,001308.70,2959.998986,N,12000.001491,E,1,00,1.4,-10.6,M,7.0,M,,*4F

$GPVTG,,T,,M,0.0,N,0.0,K,A*23
$GPDTM,P90,,0000.000022,S,00000.000001,W,0.988,W84*5A
$GPRMC,001308.80,A,2959.998986,N,12000.001491,E,0.0,,230721,4.3,W,A*0F
$GPGGA,001308.80,2959.998986,N,12000.001491,E,1,00,1.4,-10.6,M,7.0,M,,*40

$GPVTG,,T,,M,0.0,N,0.0,K,A*23
$GPDTM,P90,,0000.000022,S,00000.000001,W,0.988,W84*5A
$GPRMC,001308.90,A,2959.998986,N,12000.001491,E,0.0,,230721,4.3,W,A*0E
$GPGGA,001308.90,2959.998986,N,12000.001491,E,1,00,1.4,-10.6,M,7.0,M,,*41

$GPGSV,2,1,08,02,33,293,28,04,48,239,27,07,82,067,27,08,51,209,26*7D
$GPGSV,2,2,08,13,46,035,27,23,23,060,26,25,61,039,27,27,21,220,25*7E
$GLGSV,1,1,03,78,09,330,24,77,62,317,,76,57,164,*57
$GAGSV,1,1,0,7*43
$PQGSV,1,1,0,0*43
$PQGSV,1,1,0,0*43
$GPGSA,A,3,02,04,07,08,13,23,25,27,,,,,1.6,1.4,0.9*31
$GPVTG,,T,,M,0.0,N,0.0,K,A*23
$GPDTM,P90,,0000.000022,S,00000.000001,W,0.988,W84*5A
$GPRMC,001309.00,A,2959.998991,N,12000.001484,E,0.0,,230721,4.3,W,A*04
$GPGGA,001309.00,2959.998991,N,12000.001484,E,1,08,1.4,-10.6,M,7.0,M,,*43

$GPVTG,,T,,M,0.0,N,0.0,K,A*23
$GPDTM,P90,,0000.000022,S,00000.000001,W,0.988,W84*5A
$GPRMC,001309.10,A,2959.998991,N,12000.001484,E,0.0,,230721,4.3,W,A*05
$GPGGA,001309.10,2959.998991,N,12000.001484,E,1,00,1.4,-10.6,M,7.0,M,,*4A

$GPVTG,,T,,M,0.0,N,0.0,K,A*23
$GPDTM,P90,,0000.000022,S,00000.000001,W,0.988,W84*5A
$GPRMC,001309.20,A,2959.998991,N,12000.001484,E,0.0,,230721,4.3,W,A*06
$GPGGA,001309.20,2959.998991,N,12000.001484,E,1,00,1.4,-10.6,M,7.0,M,,*49

$GPVTG,,T,,M,0.0,N,0.0,K,A*23
$GPDTM,P90,,0000.000022,S,00000.000001,W,0.988,W84*5A
$GPRMC,001309.30,A,2959.998991,N,12000.001484,E,0.0,,230721,4.3,W,A*07
$GPGGA,001309.30,2959.998991,N,12000.001484,E,1,00,1.4,-10.6,M,7.0,M,,*48

$GPVTG,,T,,M,0.0,N,0.0,K,A*23
$GPDTM,P90,,0000.000022,S,00000.000001,W,0.988,W84*5A
$GPRMC,001309.40,A,2959.998991,N,12000.001484,E,0.0,,230721,4.3,W,A*00
$GPGGA,001309.40,2959.998991,N,12000.001484,E,1,00,1.4,-10.6,M,7.0,M,,*4F

$GPVTG,,T,,M,0.0,N,0.0,K,A*23
$GPDTM,P90,,0000.000022,S,00000.000001,W,0.988,W84*5A
$GPRMC,001309.50,A,2959.998991,N,12000.001484,E,0.0,,230721,4.3,W,A*01
$GPGGA,001309.50,2959.998991,N,12000.001484,E,1,00,1.4,-10.6,M,7.0,M,,*4E

$GPVTG,,T,,M,0.0,N,0.0,K,A*23
$GPDTM,P90,,0000.000022,S,00000.000001,W,0.988,W84*5A
$GPRMC,001309.60,A,2959.998991,N,12000.001484,E,0.0,,230721,4.3,W,A*02
$GPGGA,001309.60,2959.998991,N,12000.001484,E,1,00,1.4,-10.6,M,7.0,M,,*4D

$GPVTG,,T,,M,0.0,N,0.0,K,A*23
$GPDTM,P90,,0000.000022,S,00000.000001,W,0.988,W84*5A
$GPRMC,001309.70,A,2959.998991,N,12000.001484,E,0.0,,230721,4.3,W,A*03
$GPGGA,001309.70,2959.998991,N,12000.001484,E,1,00,1.4,-10.6,M,7.0,M,,*4C

$GPVTG,,T,,M,0.0,N,0.0,K,A*23
$GPDTM,P90,,0000.000022,S,00000.000001,W,0.988,W84*5A
$GPRMC,001309.80,A,2959.998991,N,12000.001484,E,0.0,,230721,4.3,W,A*0C
$GPGGA,001309.80,2959.998991,N,12000.001484,E,1,00,1.4,-10.6,M,7.0,M,,*43

$GPVTG,,T,,M,0.0,N,0.0,K,A*23
$GPDTM,P90,,0000.000022,S,00000.000001,W,0.988,W84*5A
$GPRMC,001309.90,A,2959.998991,N,12000.001484,E,0.0,,230721,4.3,W,A*0D
$GPGGA,001309.90,2959.998991,N,12000.001484,E,1,00,1.4,-10.6,M,7.0,M,,*42

$GPGSV,2,1,08,02,33,293,27,04,48,239,26,07,82,067,27,08,51,209,27*72
$GPGSV,2,2,08,13,46,035,27,23,23,060,27,25,61,039,27,27,21,220,26*7C
$GLGSV,1,1,03,78,09,330,25,77,62,317,,76,57,164,*56
$GAGSV,1,1,0,7*43
$PQGSV,1,1,0,0*43
$PQGSV,1,1,0,0*43
$GPGSA,A,3,02,04,07,08,13,23,25,27,,,,,1.6,1.4,0.9*31
$GPVTG,,T,,M,0.0,N,0.0,K,A*23
$GPDTM,P90,,0000.000022,S,00000.000001,W,0.988,W84*5A
$GPRMC,001310.00,A,2959.998985,N,12000.001493,E,0.0,,230721,4.3,W,A*0F
$GPGGA,001310.00,2959.998985,N,12000.001493,E,1,08,1.4,-10.6,M,7.0,M,,*48

$GPVTG,,T,,M,0.0,N,0.0,K,A*23
$GPDTM,P90,,0000.000022,S,00000.000001,W,0.988,W84*5A
$GPRMC,001310.10,A,2959.998985,N,12000.001493,E,0.0,,230721,4.3,W,A*0E
$GPGGA,001310.10,2959.998985,N,12000.001493,E,1,00,1.4,-10.6,M,7.0,M,,*41

$GPVTG,,T,,M,0.0,N,0.0,K,A*23
$GPDTM,P90,,0000.000022,S,00000.000001,W,0.988,W84*5A
$GPRMC,001310.20,A,2959.998985,N,12000.001493,E,0.0,,230721,4.3,W,A*0D
$GPGGA,001310.20,2959.998985,N,12000.001493,E,1,00,1.4,-10.6,M,7.0,M,,*42

$GPVTG,,T,,M,0.0,N,0.0,K,A*23
$GPDTM,P90,,0000.000022,S,00000.000001,W,0.988,W84*5A
$GPRMC,001310.30,A,2959.998985,N,12000.001493,E,0.0,,230721,4.3,W,A*0C
$GPGGA,001310.30,2959.998985,N,12000.001493,E,1,00,1.4,-10.6,M,7.0,M,,*43

$GPVTG,,T,,M,0.0,N,0.0,K,A*23
$GPDTM,P90,,0000.000022,S,00000.000001,W,0.988,W84*5A
$GPRMC,001310.40,A,2959.998985,N,12000.001493,E,0.0,,230721,4.3,W,A*0B
$GPGGA,001310.40,2959.998985,N,12000.001493,E,1,00,1.4,-10.6,M,7.0,M,,*44

$GPVTG,,T,,M,0.0,N,0.0,K,A*23
$GPDTM,P90,,0000.000022,S,00000.000001,W,0.988,W84*5A
$GPRMC,001310.50,A,2959.998985,N,12000.001493,E,0.0,,230721,4.3,W,A*0A
$GPGGA,001310.50,2959.998985,N,12000.001493,E,1,00,1.4,-10.6,M,7.0,M,,*45

$GPVTG,,T,,M,0.0,N,0.0,K,A*23
$GPDTM,P90,,0000.000022,S,00000.000001,W,0.988,W84*5A
$GPRMC,001310.60,A,2959.998985,N,12000.001493,E,0.0,,230721,4.3,W,A*09
$GPGGA,001310.60,2959.998985,N,12000.001493,E,1,00,1.4,-10.6,M,7.0,M,,*46

$GPVTG,,T,,M,0.0,N,0.0,K,A*23
$GPDTM,P90,,0000.000022,S,00000.000001,W,0.988,W84*5A
$GPRMC,001310.70,A,2959.998985,N,12000.001493,E,0.0,,230721,4.3,W,A*08
$GPGGA,001310.70,2959.998985,N,12000.001493,E,1,00,1.4,-10.6,M,7.0,M,,*47

$GPVTG,,T,,M,0.0,N,0.0,K,A*23
$GPDTM,P90,,0000.000022,S,00000.000001,W,0.988,W84*5A
$GPRMC,001310.80,A,2959.998985,N,12000.001493,E,0.0,,230721,4.3,W,A*07
$GPGGA,001310.80,2959.998985,N,12000.001493,E,1,00,1.4,-10.6,M,7.0,M,,*48

$GPVTG,,T,,M,0.0,N,0.0,K,A*23
$GPDTM,P90,,0000.000022,S,00000.000001,W,0.988,W84*5A
$GPRMC,001310.90,A,2959.998985,N,12000.001493,E,0.0,,230721,4.3,W,A*06
$GPGGA,001310.90,2959.998985,N,12000.001493,E,1,00,1.4,-10.6,M,7.0,M,,*49

$GPGSV,2,1,08,02,33,293,27,04,48,239,26,07,82,067,27,08,51,209,27*72
$GPGSV,2,2,08,13,46,035,27,23,23,060,26,25,61,039,27,27,21,220,26*7D
$GLGSV,1,1,03,78,09,330,25,77,62,317,,76,57,164,*56
$GAGSV,1,1,0,7*43
$PQGSV,1,1,0,0*43
$PQGSV,1,1,0,0*43
$GPGSA,A,3,02,04,07,08,13,23,25,27,,,,,1.6,1.4,0.9*31
$GPVTG,,T,,M,0.0,N,0.0,K,A*23
$GPDTM,P90,,0000.000022,S,00000.000001,W,0.988,W84*5A
$GPRMC,001311.00,A,2959.998989,N,12000.001489,E,0.0,,230721,4.3,W,A*09
$GPGGA,001311.00,2959.998989,N,12000.001489,E,1,08,1.4,-10.6,M,7.0,M,,*4E

$GPVTG,,T,,M,0.0,N,0.0,K,A*23
$GPDTM,P90,,0000.000022,S,00000.000001,W,0.988,W84*5A
$GPRMC,001311.10,A,2959.998989,N,12000.001489,E,0.0,,230721,4.3,W,A*08
$GPGGA,001311.10,2959.998989,N,12000.001489,E,1,00,1.4,-10.6,M,7.0,M,,*47

$GPVTG,,T,,M,0.0,N,0.0,K,A*23
$GPDTM,P90,,0000.000022,S,00000.000001,W,0.988,W84*5A
$GPRMC,001311.20,A,2959.998989,N,12000.001489,E,0.0,,230721,4.3,W,A*0B
$GPGGA,001311.20,2959.998989,N,12000.001489,E,1,00,1.4,-10.6,M,7.0,M,,*44

$GPVTG,,T,,M,0.0,N,0.0,K,A*23
$GPDTM,P90,,0000.000022,S,00000.000001,W,0.988,W84*5A
$GPRMC,001311.30,A,2959.998989,N,12000.001489,E,0.0,,230721,4.3,W,A*0A
$GPGGA,001311.30,2959.998989,N,12000.001489,E,1,00,1.4,-10.6,M,7.0,M,,*45

$GPVTG,,T,,M,0.0,N,0.0,K,A*23
$GPDTM,P90,,0000.000022,S,00000.000001,W,0.988,W84*5A
$GPRMC,001311.40,A,2959.998989,N,12000.001489,E,0.0,,230721,4.3,W,A*0D
$GPGGA,001311.40,2959.998989,N,12000.001489,E,1,00,1.4,-10.6,M,7.0,M,,*42

$GPVTG,,T,,M,0.0,N,0.0,K,A*23
$GPDTM,P90,,0000.000022,S,00000.000001,W,0.988,W84*5A
$GPRMC,001311.50,A,2959.998989,N,12000.001489,E,0.0,,230721,4.3,W,A*0C
$GPGGA,001311.50,2959.998989,N,12000.001489,E,1,00,1.4,-10.6,M,7.0,M,,*43

$GPVTG,,T,,M,0.0,N,0.0,K,A*23
$GPDTM,P90,,0000.000022,S,00000.000001,W,0.988,W84*5A
$GPRMC,001311.60,A,2959.998989,N,12000.001489,E,0.0,,230721,4.3,W,A*0F
$GPGGA,001311.60,2959.998989,N,12000.001489,E,1,00,1.4,-10.6,M,7.0,M,,*40

$GPVTG,,T,,M,0.0,N,0.0,K,A*23
$GPDTM,P90,,0000.000022,S,00000.000001,W,0.988,W84*5A
$GPRMC,001311.70,A,2959.998989,N,12000.001489,E,0.0,,230721,4.3,W,A*0E
$GPGGA,001311.70,2959.998989,N,12000.001489,E,1,00,1.4,-10.6,M,7.0,M,,*41

$GPVTG,,T,,M,0.0,N,0.0,K,A*23
$GPDTM,P90,,0000.000022,S,00000.000001,W,0.988,W84*5A
$GPRMC,001311.80,A,2959.998989,N,12000.001489,E,0.0,,230721,4.3,W,A*01
$GPGGA,001311.80,2959.998989,N,12000.001489,E,1,00,1.4,-10.6,M,7.0,M,,*4E

$GPVTG,,T,,M,0.0,N,0.0,K,A*23
$GPDTM,P90,,0000.000022,S,00000.000001,W,0.988,W84*5A
$GPRMC,001311.90,A,2959.998989,N,12000.001489,E,0.0,,230721,4.3,W,A*00
$GPGGA,001311.90,2959.998989,N,12000.001489,E,1,00,1.4,-10.6,M,7.0,M,,*4F

$GPGSV,2,1,08,02,33,293,27,04,48,239,27,07,82,067,27,08,51,209,27*73
$GPGSV,2,2,08,13,46,035,27,23,23,060,27,25,61,039,27,27,21,220,26*7C
$GLGSV,1,1,03,78,09,330,24,77,62,317,,76,57,164,*57
$GAGSV,1,1,0,7*43
$PQGSV,1,1,0,0*43
$PQGSV,1,1,0,0*43
$GPGSA,A,3,02,04,07,08,13,23,25,27,,,,,1.6,1.4,0.9*31
$GPVTG,,T,,M,0.0,N,0.0,K,A*23
$GPDTM,P90,,0000.000022,S,00000.000001,W,0.988,W84*5A
$GPRMC,001312.00,A,2959.998985,N,12000.001492,E,0.0,,230721,4.3,W,A*0C
$GPGGA,001312.00,2959.998985,N,12000.001492,E,1,08,1.4,-10.6,M,7.0,M,,*4B

$GPVTG,,T,,M,0.0,N,0.0,K,A*23
$GPDTM,P90,,0000.000022,S,00000.000001,W,0.988,W84*5A
$GPRMC,001312.10,A,2959.998985,N,12000.001492,E,0.0,,230721,4.3,W,A*0D
$GPGGA,001312.10,2959.998985,N,12000.001492,E,1,00,1.4,-10.6,M,7.0,M,,*42

$GPVTG,,T,,M,0.0,N,0.0,K,A*23
$GPDTM,P90,,0000.000022,S,00000.000001,W,0.988,W84*5A
$GPRMC,001312.20,A,2959.998985,N,12000.001492,E,0.0,,230721,4.3,W,A*0E
$GPGGA,001312.20,2959.998985,N,12000.001492,E,1,00,1.4,-10.6,M,7.0,M,,*41

$GPVTG,,T,,M,0.0,N,0.0,K,A*23
$GPDTM,P90,,0000.000022,S,00000.000001,W,0.988,W84*5A
$GPRMC,001312.30,A,2959.998985,N,12000.001492,E,0.0,,230721,4.3,W,A*0F
$GPGGA,001312.30,2959.998985,N,12000.001492,E,1,00,1.4,-10.6,M,7.0,M,,*40

$GPVTG,,T,,M,0.0,N,0.0,K,A*23
$GPDTM,P90,,0000.000022,S,00000.000001,W,0.988,W84*5A
$GPRMC,001312.40,A,2959.998985,N,12000.001492,E,0.0,,230721,4.3,W,A*08
$GPGGA,001312.40,2959.998985,N,12000.001492,E,1,00,1.4,-10.6,M,7.0,M,,*47

$GPVTG,,T,,M,0.0,N,0.0,K,A*23
$GPDTM,P90,,0000.000022,S,00000.000001,W,0.988,W84*5A
$GPRMC,001312.50,A,2959.998985,N,12000.001492,E,0.0,,230721,4.3,W,A*09
$GPGGA,001312.50,2959.998985,N,12000.001492,E,1,00,1.4,-10.6,M,7.0,M,,*46

$GPVTG,,T,,M,0.0,N,0.0,K,A*23
$GPDTM,P90,,0000.000022,S,00000.000001,W,0.988,W84*5A
$GPRMC,001312.60,A,2959.998985,N,12000.001492,E,0.0,,230721,4.3,W,A*0A
$GPGGA,001312.60,2959.998985,N,12000.001492,E,1,00,1.4,-10.6,M,7.0,M,,*45

$GPVTG,,T,,M,0.0,N,0.0,K,A*23
$GPDTM,P90,,0000.000022,S,00000.000001,W,0.988,W84*5A
$GPRMC,001312.70,A,2959.998985,N,12000.001492,E,0.0,,230721,4.3,W,A*0B
$GPGGA,001312.70,2959.998985,N,12000.001492,E,1,00,1.4,-10.6,M,7.0,M,,*44

$GPVTG,,T,,M,0.0,N,0.0,K,A*23
$GPDTM,P90,,0000.000022,S,00000.000001,W,0.988,W84*5A
$GPRMC,001312.80,A,2959.998985,N,12000.001492,E,0.0,,230721,4.3,W,A*04
$GPGGA,001312.80,2959.998985,N,12000.001492,E,1,00,1.4,-10.6,M,7.0,M,,*4B

$GPVTG,,T,,M,0.0,N,0.0,K,A*23
$GPDTM,P90,,0000.000022,S,00000.000001,W,0.988,W84*5A
$GPRMC,001312.90,A,2959.998985,N,12000.001492,E,0.0,,230721,4.3,W,A*05
$GPGGA,001312.90,2959.998985,N,12000.001492,E,1,00,1.4,-10.6,M,7.0,M,,*4A

$GPGSV,2,1,08,02,33,293,27,04,48,239,27,07,82,067,28,08,51,209,27*7C
$GPGSV,2,2,08,13,46,035,27,23,23,060,27,25,61,039,28,27,21,220,27*72
$GLGSV,1,1,03,78,09,330,24,77,62,317,,76,57,164,*57
$GAGSV,1,1,0,7*43
$PQGSV,1,1,0,0*43
$PQGSV,1,1,0,0*43
$GPGSA,A,3,02,04,07,08,13,23,25,27,,,,,1.6,1.4,0.9*31
$GPVTG,,T,,M,0.0,N,0.0,K,A*23
$GPDTM,P90,,0000.000022,S,00000.000001,W,0.988,W84*5A
$GPRMC,001313.00,A,2959.998983,N,12000.001495,E,0.0,,230721,4.3,W,A*0C
$GPGGA,001313.00,2959.998983,N,12000.001495,E,1,08,1.4,-10.6,M,7.0,M,,*4B

$GPVTG,,T,,M,0.0,N,0.0,K,A*23
$GPDTM,P90,,0000.000022,S,00000.000001,W,0.988,W84*5A
$GPRMC,001313.10,A,2959.998983,N,12000.001495,E,0.0,,230721,4.3,W,A*0D
$GPGGA,001313.10,2959.998983,N,12000.001495,E,1,00,1.4,-10.6,M,7.0,M,,*42

$GPVTG,,T,,M,0.0,N,0.0,K,A*23
$GPDTM,P90,,0000.000022,S,00000.000001,W,0.988,W84*5A
$GPRMC,001313.20,A,2959.998983,N,12000.001495,E,0.0,,230721,4.3,W,A*0E
$GPGGA,001313.20,2959.998983,N,12000.001495,E,1,00,1.4,-10.6,M,7.0,M,,*41

$GPVTG,,T,,M,0.0,N,0.0,K,A*23
$GPDTM,P90,,0000.000022,S,00000.000001,W,0.988,W84*5A
$GPRMC,001313.30,A,2959.998983,N,12000.001495,E,0.0,,230721,4.3,W,A*0F
$GPGGA,001313.30,2959.998983,N,12000.001495,E,1,00,1.4,-10.6,M,7.0,M,,*40

$GPVTG,,T,,M,0.0,N,0.0,K,A*23
$GPDTM,P90,,0000.000022,S,00000.000001,W,0.988,W84*5A
$GPRMC,001313.40,A,2959.998983,N,12000.001495,E,0.0,,230721,4.3,W,A*08
$GPGGA,001313.40,2959.998983,N,12000.001495,E,1,00,1.4,-10.6,M,7.0,M,,*47

$GPVTG,,T,,M,0.0,N,0.0,K,A*23
$GPDTM,P90,,0000.000022,S,00000.000001,W,0.988,W84*5A
$GPRMC,001313.50,A,2959.998983,N,12000.001495,E,0.0,,230721,4.3,W,A*09
$GPGGA,001313.50,2959.998983,N,12000.001495,E,1,00,1.4,-10.6,M,7.0,M,,*46

$GPVTG,,T,,M,0.0,N,0.0,K,A*23
$GPDTM,P90,,0000.000022,S,00000.000001,W,0.988,W84*5A
$GPRMC,001313.60,A,2959.998983,N,12000.001495,E,0.0,,230721,4.3,W,A*0A
$GPGGA,001313.60,2959.998983,N,12000.001495,E,1,00,1.4,-10.6,M,7.0,M,,*45

$GPVTG,,T,,M,0.0,N,0.0,K,A*23
$GPDTM,P90,,0000.000022,S,00000.000001,W,0.988,W84*5A
$GPRMC,001313.70,A,2959.998983,N,12000.001495,E,0.0,,230721,4.3,W,A*0B
$GPGGA,001313.70,2959.998983,N,12000.001495,E,1,00,1.4,-10.6,M,7.0,M,,*44

$GPVTG,,T,,M,0.0,N,0.0,K,A*23
$GPDTM,P90,,0000.000022,S,00000.000001,W,0.988,W84*5A
$GPRMC,001313.80,A,2959.998983,N,12000.001495,E,0.0,,230721,4.3,W,A*04
$GPGGA,001313.80,2959.998983,N,12000.001495,E,1,00,1.4,-10.6,M,7.0,M,,*4B

$GPVTG,,T,,M,0.0,N,0.0,K,A*23
$GPDTM,P90,,0000.000022,S,00000.000001,W,0.988,W84*5A
$GPRMC,001313.90,A,2959.998983,N,12000.001495,E,0.0,,230721,4.3,W,A*05
$GPGGA,001313.90,2959.998983,N,12000.001495,E,1,00,1.4,-10.6,M,7.0,M,,*4A

$GPGSV,2,1,08,02,33,293,27,04,48,239,27,07,82,067,28,08,51,209,27*7C
$GPGSV,2,2,08,13,46,035,27,23,23,060,27,25,61,039,27,27,21,220,27*7D
$GLGSV,1,1,03,78,09,330,25,77,62,317,,76,57,164,*56
$GAGSV,1,1,0,7*43
$PQGSV,1,1,0,0*43
$PQGSV,1,1,0,0*43
$GPGSA,A,3,02,04,07,08,13,23,25,27,,,,,1.6,1.4,0.9*31
$GPVTG,,T,,M,0.0,N,0.0,K,A*23
$GPDTM,P90,,0000.000022,S,00000.000001,W,0.988,W84*5A
$GPRMC,001314.00,A,2959.998982,N,12000.001495,E,0.0,,230721,4.3,W,A*0A
$GPGGA,001314.00,2959.998982,N,12000.001495,E,1,08,1.4,-10.6,M,7.0,M,,*4D

$GPVTG,,T,,M,0.0,N,0.0,K,A*23
$GPDTM,P90,,0000.000022,S,00000.000001,W,0.988,W84*5A
$GPRMC,001314.10,A,2959.998982,N,12000.001495,E,0.0,,230721,4.3,W,A*0B
$GPGGA,001314.10,2959.998982,N,12000.001495,E,1,00,1.4,-10.6,M,7.0,M,,*44

$GPVTG,,T,,M,0.0,N,0.0,K,A*23
$GPDTM,P90,,0000.000022,S,00000.000001,W,0.988,W84*5A
$GPRMC,001314.20,A,2959.998982,N,12000.001495,E,0.0,,230721,4.3,W,A*08
$GPGGA,001314.20,2959.998982,N,12000.001495,E,1,00,1.4,-10.6,M,7.0,M,,*47

$GPVTG,,T,,M,0.0,N,0.0,K,A*23
$GPDTM,P90,,0000.000022,S,00000.000001,W,0.988,W84*5A
$GPRMC,001314.30,A,2959.998982,N,12000.001495,E,0.0,,230721,4.3,W,A*09
$GPGGA,001314.30,2959.998982,N,12000.001495,E,1,00,1.4,-10.6,M,7.0,M,,*46

$GPVTG,,T,,M,0.0,N,0.0,K,A*23
$GPDTM,P90,,0000.000022,S,00000.000001,W,0.988,W84*5A
$GPRMC,001314.40,A,2959.998982,N,12000.001495,E,0.0,,230721,4.3,W,A*0E
$GPGGA,001314.40,2959.998982,N,12000.001495,E,1,00,1.4,-10.6,M,7.0,M,,*41

$GPVTG,,T,,M,0.0,N,0.0,K,A*23
$GPDTM,P90,,0000.000022,S,00000.000001,W,0.988,W84*5A
$GPRMC,001314.50,A,2959.998982,N,12000.001495,E,0.0,,230721,4.3,W,A*0F
$GPGGA,001314.50,2959.998982,N,12000.001495,E,1,00,1.4,-10.6,M,7.0,M,,*40

$GPVTG,,T,,M,0.0,N,0.0,K,A*23
$GPDTM,P90,,0000.000022,S,00000.000001,W,0.988,W84*5A
$GPRMC,001314.60,A,2959.998982,N,12000.001495,E,0.0,,230721,4.3,W,A*0C
$GPGGA,001314.60,2959.998982,N,12000.001495,E,1,00,1.4,-10.6,M,7.0,M,,*43

$GPVTG,,T,,M,0.0,N,0.0,K,A*23
$GPDTM,P90,,0000.000022,S,00000.000001,W,0.988,W84*5A
$GPRMC,001314.70,A,2959.998982,N,12000.001495,E,0.0,,230721,4.3,W,A*0D
$GPGGA,001314.70,2959.998982,N,12000.001495,E,1,00,1.4,-10.6,M,7.0,M,,*42

$GPVTG,,T,,M,0.0,N,0.0,K,A*23
$GPDTM,P90,,0000.000022,S,00000.000001,W,0.988,W84*5A
$GPRMC,001314.80,A,2959.998982,N,12000.001495,E,0.0,,230721,4.3,W,A*02
$GPGGA,001314.80,2959.998982,N,12000.001495,E,1,00,1.4,-10.6,M,7.0,M,,*4D

$GPVTG,,T,,M,0.0,N,0.0,K,A*23
$GPDTM,P90,,0000.000022,S,00000.000001,W,0.988,W84*5A
$GPRMC,001314.90,A,2959.998982,N,12000.001495,E,0.0,,230721,4.3,W,A*03
$GPGGA,001314.90,2959.998982,N,12000.001495,E,1,00,1.4,-10.6,M,7.0,M,,*4C

$GPGSV,2,1,08,02,33,293,27,04,48,239,26,07,82,067,27,08,51,209,27*72
$GPGSV,2,2,08,13,46,035,27,23,23,060,26,25,61,039,27,27,21,220,27*7C
$GLGSV,1,1,03,78,09,330,24,77,62,317,,76,57,164,*57
$GAGSV,1,1,0,7*43
$PQGSV,1,1,0,0*43
$PQGSV,1,1,0,0*43
$GPGSA,A,3,02,04,07,08,13,23,25,27,,,,,1.6,1.4,0.9*31
$GPVTG,,T,,M,0.0,N,0.0,K,A*23
$GPDTM,P90,,0000.000022,S,00000.000001,W,0.988,W84*5A
$GPRMC,001315.00,A,2959.998989,N,12000.001484,E,0.0,,230721,4.3,W,A*00
$GPGGA,001315.00,2959.998989,N,12000.001484,E,1,08,1.4,-10.6,M,7.0,M,,*47

$GPVTG,,T,,M,0.0,N,0.0,K,A*23
$GPDTM,P90,,0000.000022,S,00000.000001,W,0.988,W84*5A
$GPRMC,001315.10,A,2959.998989,N,12000.001484,E,0.0,,230721,4.3,W,A*01
$GPGGA,001315.10,2959.998989,N,12000.001484,E,1,00,1.4,-10.6,M,7.0,M,,*4E

$GPVTG,,T,,M,0.0,N,0.0,K,A*23
$GPDTM,P90,,0000.000022,S,00000.000001,W,0.988,W84*5A
$GPRMC,001315.20,A,2959.998989,N,12000.001484,E,0.0,,230721,4.3,W,A*02
$GPGGA,001315.20,2959.998989,N,12000.001484,E,1,00,1.4,-10.6,M,7.0,M,,*4D

$GPVTG,,T,,M,0.0,N,0.0,K,A*23
$GPDTM,P90,,0000.000022,S,00000.000001,W,0.988,W84*5A
$GPRMC,001315.30,A,2959.998989,N,12000.001484,E,0.0,,230721,4.3,W,A*03
$GPGGA,001315.30,2959.998989,N,12000.001484,E,1,00,1.4,-10.6,M,7.0,M,,*4C

$GPVTG,,T,,M,0.0,N,0.0,K,A*23
$GPDTM,P90,,0000.000022,S,00000.000001,W,0.988,W84*5A
$GPRMC,001315.40,A,2959.998989,N,12000.001484,E,0.0,,230721,4.3,W,A*04
$GPGGA,001315.40,2959.998989,N,12000.001484,E,1,00,1.4,-10.6,M,7.0,M,,*4B

$GPVTG,,T,,M,0.0,N,0.0,K,A*23
$GPDTM,P90,,0000.000022,S,00000.000001,W,0.988,W84*5A
$GPRMC,001315.50,A,2959.998989,N,12000.001484,E,0.0,,230721,4.3,W,A*05
$GPGGA,001315.50,2959.998989,N,12000.001484,E,1,00,1.4,-10.6,M,7.0,M,,*4A

$GPVTG,,T,,M,0.0,N,0.0,K,A*23
$GPDTM,P90,,0000.000022,S,00000.000001,W,0.988,W84*5A
$GPRMC,001315.60,A,2959.998989,N,12000.001484,E,0.0,,230721,4.3,W,A*06
$GPGGA,001315.60,2959.998989,N,12000.001484,E,1,00,1.4,-10.6,M,7.0,M,,*49

$GPVTG,,T,,M,0.0,N,0.0,K,A*23
$GPDTM,P90,,0000.000022,S,00000.000001,W,0.988,W84*5A
$GPRMC,001315.70,A,2959.998989,N,12000.001484,E,0.0,,230721,4.3,W,A*07
$GPGGA,001315.70,2959.998989,N,12000.001484,E,1,00,1.4,-10.6,M,7.0,M,,*48

$GPVTG,,T,,M,0.0,N,0.0,K,A*23
$GPDTM,P90,,0000.000022,S,00000.000001,W,0.988,W84*5A
$GPRMC,001315.80,A,2959.998989,N,12000.001484,E,0.0,,230721,4.3,W,A*08
$GPGGA,001315.80,2959.998989,N,12000.001484,E,1,00,1.4,-10.6,M,7.0,M,,*47

$GPVTG,,T,,M,0.0,N,0.0,K,A*23
$GPDTM,P90,,0000.000022,S,00000.000001,W,0.988,W84*5A
$GPRMC,001315.90,A,2959.998989,N,12000.001484,E,0.0,,230721,4.3,W,A*09
$GPGGA,001315.90,2959.998989,N,12000.001484,E,1,00,1.4,-10.6,M,7.0,M,,*46

$GPGSV,2,1,08,02,33,293,28,04,48,239,27,07,82,067,27,08,51,209,27*7C
$GPGSV,2,2,08,13,46,035,27,23,23,060,27,25,61,039,27,27,21,220,27*7D
$GLGSV,1,1,03,78,09,330,25,77,62,317,,76,57,164,*56
$GAGSV,1,1,0,7*43
$PQGSV,1,1,0,0*43
$PQGSV,1,1,0,0*43
$GPGSA,A,3,02,04,07,08,13,23,25,27,,,,,1.6,1.4,0.9*31
$GPVTG,,T,,M,0.0,N,0.0,K,A*23
$GPDTM,P90,,0000.000022,S,00000.000001,W,0.988,W84*5A
$GPRMC,001316.00,A,2959.998996,N,12000.001474,E,0.0,,230721,4.3,W,A*02
$GPGGA,001316.00,2959.998996,N,12000.001474,E,1,08,1.4,-10.6,M,7.0,M,,*45

$GPVTG,,T,,M,0.0,N,0.0,K,A*23
$GPDTM,P90,,0000.000022,S,00000.000001,W,0.988,W84*5A
$GPRMC,001316.10,A,2959.998996,N,12000.001474,E,0.0,,230721,4.3,W,A*03
$GPGGA,001316.10,2959.998996,N,12000.001474,E,1,00,1.4,-10.6,M,7.0,M,,*4C

$GPVTG,,T,,M,0.0,N,0.0,K,A*23
$GPDTM,P90,,0000.000022,S,00000.000001,W,0.988,W84*5A
$GPRMC,001316.20,A,2959.998996,N,12000.001474,E,0.0,,230721,4.3,W,A*00
$GPGGA,001316.20,2959.998996,N,12000.001474,E,1,00,1.4,-10.6,M,7.0,M,,*4F

$GPVTG,,T,,M,0.0,N,0.0,K,A*23
$GPDTM,P90,,0000.000022,S,00000.000001,W,0.988,W84*5A
$GPRMC,001316.30,A,2959.998996,N,12000.001474,E,0.0,,230721,4.3,W,A*01
$GPGGA,001316.30,2959.998996,N,12000.001474,E,1,00,1.4,-10.6,M,7.0,M,,*4E

$GPVTG,,T,,M,0.0,N,0.0,K,A*23
$GPDTM,P90,,0000.000022,S,00000.000001,W,0.988,W84*5A
$GPRMC,001316.40,A,2959.998996,N,12000.001474,E,0.0,,230721,4.3,W,A*06
$GPGGA,001316.40,2959.998996,N,12000.001474,E,1,00,1.4,-10.6,M,7.0,M,,*49

$GPVTG,,T,,M,0.0,N,0.0,K,A*23
$GPDTM,P90,,0000.000022,S,00000.000001,W,0.988,W84*5A
$GPRMC,001316.50,A,2959.998996,N,12000.001474,E,0.0,,230721,4.3,W,A*07
$GPGGA,001316.50,2959.998996,N,12000.001474,E,1,00,1.4,-10.6,M,7.0,M,,*48

$GPVTG,,T,,M,0.0,N,0.0,K,A*23
$GPDTM,P90,,0000.000022,S,00000.000001,W,0.988,W84*5A
$GPRMC,001316.60,A,2959.998996,N,12000.001474,E,0.0,,230721,4.3,W,A*04
$GPGGA,001316.60,2959.998996,N,12000.001474,E,1,00,1.4,-10.6,M,7.0,M,,*4B

$GPVTG,,T,,M,0.0,N,0.0,K,A*23
$GPDTM,P90,,0000.000022,S,00000.000001,W,0.988,W84*5A
$GPRMC,001316.70,A,2959.998996,N,12000.001474,E,0.0,,230721,4.3,W,A*05
$GPGGA,001316.70,2959.998996,N,12000.001474,E,1,00,1.4,-10.6,M,7.0,M,,*4A

$GPVTG,,T,,M,0.0,N,0.0,K,A*23
$GPDTM,P90,,0000.000022,S,00000.000001,W,0.988,W84*5A
$GPRMC,001316.80,A,2959.998996,N,12000.001474,E,0.0,,230721,4.3,W,A*0A
$GPGGA,001316.80,2959.998996,N,12000.001474,E,1,00,1.4,-10.6,M,7.0,M,,*45

$GPVTG,,T,,M,0.0,N,0.0,K,A*23
$GPDTM,P90,,0000.000022,S,00000.000001,W,0.988,W84*5A
$GPRMC,001316.90,A,2959.998996,N,12000.001474,E,0.0,,230721,4.3,W,A*0B
$GPGGA,001316.90,2959.998996,N,12000.001474,E,1,00,1.4,-10.6,M,7.0,M,,*44

$GPGSV,2,1,08,02,33,293,26,04,48,239,26,07,82,067,27,08,51,209,27*73
$GPGSV,2,2,08,13,46,035,27,23,23,060,27,25,61,039,27,27,21,220,28*72
$GLGSV,1,1,03,78,09,330,24,77,62,317,,76,57,164,*57
$GAGSV,1,1,0,7*43
$PQGSV,1,1,0,0*43
$PQGSV,1,1,0,0*43
$GPGSA,A,3,02,04,07,08,13,23,25,27,,,,,1.6,1.4,0.9*31
$GPVTG,,T,,M,0.0,N,0.0,K,A*23
$GPDTM,P90,,0000.000022,S,00000.000001,W,0.988,W84*5A
$GPRMC,001317.00,A,2959.998992,N,12000.001480,E,0.0,,230721,4.3,W,A*0C
$GPGGA,001317.00,2959.998992,N,12000.001480,E,1,08,1.4,-10.6,M,7.0,M,,*4B

$GPVTG,,T,,M,0.0,N,0.0,K,A*23
$GPDTM,P90,,0000.000022,S,00000.000001,W,0.988,W84*5A
$GPRMC,001317.10,A,2959.998992,N,12000.001480,E,0.0,,230721,4.3,W,A*0D
$GPGGA,001317.10,2959.998992,N,12000.001480,E,1,00,1.4,-10.6,M,7.0,M,,*42

$GPVTG,,T,,M,0.0,N,0.0,K,A*23
$GPDTM,P90,,0000.000022,S,00000.000001,W,0.988,W84*5A
$GPRMC,001317.20,A,2959.998992,N,12000.001480,E,0.0,,230721,4.3,W,A*0E
$GPGGA,001317.20,2959.998992,N,12000.001480,E,1,00,1.4,-10.6,M,7.0,M,,*41

$GPVTG,,T,,M,0.0,N,0.0,K,A*23
$GPDTM,P90,,0000.000022,S,00000.000001,W,0.988,W84*5A
$GPRMC,001317.30,A,2959.998992,N,12000.001480,E,0.0,,230721,4.3,W,A*0F
$GPGGA,001317.30,2959.998992,N,12000.001480,E,1,00,1.4,-10.6,M,7.0,M,,*40

$GPVTG,,T,,M,0.0,N,0.0,K,A*23
$GPDTM,P90,,0000.000022,S,00000.000001,W,0.988,W84*5A
$GPRMC,001317.40,A,2959.998992,N,12000.001480,E,0.0,,230721,4.3,W,A*08
$GPGGA,001317.40,2959.998992,N,12000.001480,E,1,00,1.4,-10.6,M,7.0,M,,*47

$GPVTG,,T,,M,0.0,N,0.0,K,A*23
$GPDTM,P90,,0000.000022,S,00000.000001,W,0.988,W84*5A
$GPRMC,001317.50,A,2959.998992,N,12000.001480,E,0.0,,230721,4.3,W,A*09
$GPGGA,001317.50,2959.998992,N,12000.001480,E,1,00,1.4,-10.6,M,7.0,M,,*46

$GPVTG,,T,,M,0.0,N,0.0,K,A*23
$GPDTM,P90,,0000.000022,S,00000.000001,W,0.988,W84*5A
$GPRMC,001317.60,A,2959.998992,N,12000.001480,E,0.0,,230721,4.3,W,A*0A
$GPGGA,001317.60,2959.998992,N,12000.001480,E,1,00,1.4,-10.6,M,7.0,M,,*45

$GPVTG,,T,,M,0.0,N,0.0,K,A*23
$GPDTM,P90,,0000.000022,S,00000.000001,W,0.988,W84*5A
$GPRMC,001317.70,A,2959.998992,N,12000.001480,E,0.0,,230721,4.3,W,A*0B
$GPGGA,001317.70,2959.998992,N,12000.001480,E,1,00,1.4,-10.6,M,7.0,M,,*44

$GPVTG,,T,,M,0.0,N,0.0,K,A*23
$GPDTM,P90,,0000.000022,S,00000.000001,W,0.988,W84*5A
$GPRMC,001317.80,A,2959.998992,N,12000.001480,E,0.0,,230721,4.3,W,A*04
$GPGGA,001317.80,2959.998992,N,12000.001480,E,1,00,1.4,-10.6,M,7.0,M,,*4B

$GPVTG,,T,,M,0.0,N,0.0,K,A*23
$GPDTM,P90,,0000.000022,S,00000.000001,W,0.988,W84*5A
$GPRMC,001317.90,A,2959.998992,N,12000.001480,E,0.0,,230721,4.3,W,A*05
$GPGGA,001317.90,2959.998992,N,12000.001480,E,1,00,1.4,-10.6,M,7.0,M,,*4A

$GPGSV,2,1,08,02,33,293,27,04,48,239,27,07,82,067,27,08,51,209,28*7C
$GPGSV,2,2,08,13,46,035,27,23,23,060,27,25,61,039,26,27,21,220,26*7D
$GLGSV,1,1,03,78,09,330,25,77,62,317,,76,57,164,*56
$GAGSV,1,1,0,7*43
$PQGSV,1,1,0,0*43
$PQGSV,1,1,0,0*43
$GPGSA,A,3,02,04,07,08,13,23,25,27,,,,,1.6,1.4,0.9*31
$GPVTG,,T,,M,0.0,N,0.0,K,A*23
$GPDTM,P90,,0000.000022,S,00000.000001,W,0.988,W84*5A
$GPRMC,001318.00,A,2959.998993,N,12000.001478,E,0.0,,230721,4.3,W,A*05
$GPGGA,001318.00,2959.998993,N,12000.001478,E,1,08,1.4,-10.6,M,7.0,M,,*42

$GPVTG,,T,,M,0.0,N,0.0,K,A*23
$GPDTM,P90,,0000.000022,S,00000.000001,W,0.988,W84*5A
$GPRMC,001318.10,A,2959.998993,N,12000.001478,E,0.0,,230721,4.3,W,A*04
$GPGGA,001318.10,2959.998993,N,12000.001478,E,1,00,1.4,-10.6,M,7.0,M,,*4B

$GPVTG,,T,,M,0.0,N,0.0,K,A*23
$GPDTM,P90,,0000.000022,S,00000.000001,W,0.988,W84*5A
$GPRMC,001318.20,A,2959.998993,N,12000.001478,E,0.0,,230721,4.3,W,A*07
$GPGGA,001318.20,2959.998993,N,12000.001478,E,1,00,1.4,-10.6,M,7.0,M,,*48

$GPVTG,,T,,M,0.0,N,0.0,K,A*23
$GPDTM,P90,,0000.000022,S,00000.000001,W,0.988,W84*5A
$GPRMC,001318.30,A,2959.998993,N,12000.001478,E,0.0,,230721,4.3,W,A*06
$GPGGA,001318.30,2959.998993,N,12000.001478,E,1,00,1.4,-10.6,M,7.0,M,,*49

$GPVTG,,T,,M,0.0,N,0.0,K,A*23
$GPDTM,P90,,0000.000022,S,00000.000001,W,0.988,W84*5A
$GPRMC,001318.40,A,2959.998993,N,12000.001478,E,0.0,,230721,4.3,W,A*01
$GPGGA,001318.40,2959.998993,N,12000.001478,E,1,00,1.4,-10.6,M,7.0,M,,*4E

$GPVTG,,T,,M,0.0,N,0.0,K,A*23
$GPDTM,P90,,0000.000022,S,00000.000001,W,0.988,W84*5A
$GPRMC,001318.50,A,2959.998993,N,12000.001478,E,0.0,,230721,4.3,W,A*00
$GPGGA,001318.50,2959.998993,N,12000.001478,E,1,00,1.4,-10.6,M,7.0,M,,*4F

$GPVTG,,T,,M,0.0,N,0.0,K,A*23
$GPDTM,P90,,0000.000022,S,00000.000001,W,0.988,W84*5A
$GPRMC,001318.60,A,2959.998993,N,12000.001478,E,0.0,,230721,4.3,W,A*03
$GPGGA,001318.60,2959.998993,N,12000.001478,E,1,00,1.4,-10.6,M,7.0,M,,*4C

$GPVTG,,T,,M,0.0,N,0.0,K,A*23
$GPDTM,P90,,0000.000022,S,00000.000001,W,0.988,W84*5A
$GPRMC,001318.70,A,2959.998993,N,12000.001478,E,0.0,,230721,4.3,W,A*02
$GPGGA,001318.70,2959.998993,N,12000.001478,E,1,00,1.4,-10.6,M,7.0,M,,*4D

$GPVTG,,T,,M,0.0,N,0.0,K,A*23
$GPDTM,P90,,0000.000022,S,00000.000001,W,0.988,W84*5A
$GPRMC,001318.80,A,2959.998993,N,12000.001478,E,0.0,,230721,4.3,W,A*0D
$GPGGA,001318.80,2959.998993,N,12000.001478,E,1,00,1.4,-10.6,M,7.0,M,,*42

$GPVTG,,T,,M,0.0,N,0.0,K,A*23
$GPDTM,P90,,0000.000022,S,00000.000001,W,0.988,W84*5A
$GPRMC,001318.90,A,2959.998993,N,12000.001478,E,0.0,,230721,4.3,W,A*0C
$GPGGA,001318.90,2959.998993,N,12000.001478,E,1,00,1.4,-10.6,M,7.0,M,,*43

$GPGSV,2,1,08,02,33,293,28,04,48,239,27,07,82,067,26,08,51,209,27*7D
$GPGSV,2,2,08,13,46,035,28,23,23,060,27,25,61,039,27,27,21,220,27*72
$GLGSV,1,1,03,78,09,330,25,77,62,317,,76,57,164,*56
$GAGSV,1,1,0,7*43
$PQGSV,1,1,0,0*43
$PQGSV,1,1,0,0*43
$GPGSA,A,3,02,04,07,08,13,23,25,27,,,,,1.6,1.4,0.9*31
$GPVTG,,T,,M,0.0,N,0.0,K,A*23
$GPDTM,P90,,0000.000022,S,00000.000001,W,0.988,W84*5A
$GPRMC,001319.00,A,2959.998988,N,12000.001483,E,0.0,,230721,4.3,W,A*0A
$GPGGA,001319.00,2959.998988,N,12000.001483,E,1,08,1.4,-10.6,M,7.0,M,,*4D

$GPVTG,,T,,M,0.0,N,0.0,K,A*23
$GPDTM,P90,,0000.000022,S,00000.000001,W,0.988,W84*5A
$GPRMC,001319.10,A,2959.998988,N,12000.001483,E,0.0,,230721,4.3,W,A*0B
$GPGGA,001319.10,2959.998988,N,12000.001483,E,1,00,1.4,-10.6,M,7.0,M,,*44

$GPVTG,,T,,M,0.0,N,0.0,K,A*23
$GPDTM,P90,,0000.000022,S,00000.000001,W,0.988,W84*5A
$GPRMC,001319.20,A,2959.998988,N,12000.001483,E,0.0,,230721,4.3,W,A*08
$GPGGA,001319.20,2959.998988,N,12000.001483,E,1,00,1.4,-10.6,M,7.0,M,,*47

$GPVTG,,T,,M,0.0,N,0.0,K,A*23
$GPDTM,P90,,0000.000022,S,00000.000001,W,0.988,W84*5A
$GPRMC,001319.30,A,2959.998988,N,12000.001483,E,0.0,,230721,4.3,W,A*09
$GPGGA,001319.30,2959.998988,N,12000.001483,E,1,00,1.4,-10.6,M,7.0,M,,*46

$GPVTG,,T,,M,0.0,N,0.0,K,A*23
$GPDTM,P90,,0000.000022,S,00000.000001,W,0.988,W84*5A
$GPRMC,001319.40,A,2959.998988,N,12000.001483,E,0.0,,230721,4.3,W,A*0E
$GPGGA,001319.40,2959.998988,N,12000.001483,E,1,00,1.4,-10.6,M,7.0,M,,*41

$GPVTG,,T,,M,0.0,N,0.0,K,A*23
$GPDTM,P90,,0000.000022,S,00000.000001,W,0.988,W84*5A
$GPRMC,001319.50,A,2959.998988,N,12000.001483,E,0.0,,230721,4.3,W,A*0F
$GPGGA,001319.50,2959.998988,N,12000.001483,E,1,00,1.4,-10.6,M,7.0,M,,*40

$GPVTG,,T,,M,0.0,N,0.0,K,A*23
$GPDTM,P90,,0000.000022,S,00000.000001,W,0.988,W84*5A
$GPRMC,001319.60,A,2959.998988,N,12000.001483,E,0.0,,230721,4.3,W,A*0C
$GPGGA,001319.60,2959.998988,N,12000.001483,E,1,00,1.4,-10.6,M,7.0,M,,*43

$GPVTG,,T,,M,0.0,N,0.0,K,A*23
$GPDTM,P90,,0000.000022,S,00000.000001,W,0.988,W84*5A
$GPRMC,001319.70,A,2959.998988,N,12000.001483,E,0.0,,230721,4.3,W,A*0D
$GPGGA,001319.70,2959.998988,N,12000.001483,E,1,00,1.4,-10.6,M,7.0,M,,*42

$GPVTG,,T,,M,0.0,N,0.0,K,A*23
$GPDTM,P90,,0000.000022,S,00000.000001,W,0.988,W84*5A
$GPRMC,001319.80,A,2959.998988,N,12000.001483,E,0.0,,230721,4.3,W,A*02
$GPGGA,001319.80,2959.998988,N,12000.001483,E,1,00,1.4,-10.6,M,7.0,M,,*4D

$GPVTG,,T,,M,0.0,N,0.0,K,A*23
$GPDTM,P90,,0000.000022,S,00000.000001,W,0.988,W84*5A
$GPRMC,001319.90,A,2959.998988,N,12000.001483,E,0.0,,230721,4.3,W,A*03
$GPGGA,001319.90,2959.998988,N,12000.001483,E,1,00,1.4,-10.6,M,7.0,M,,*4C

$GPGSV,2,1,08,02,33,293,26,04,48,239,27,07,82,067,25,08,51,209,26*71
$GPGSV,2,2,08,13,46,035,26,23,23,060,27,25,61,039,27,27,21,220,27*7C
$GLGSV,1,1,03,78,09,330,24,77,62,317,,76,57,164,*57
$GAGSV,1,1,0,7*43
$PQGSV,1,1,0,0*43
$PQGSV,1,1,0,0*43
$GPGSA,A,3,02,04,07,08,13,23,25,27,,,,,1.6,1.4,0.9*31
$GPVTG,,T,,M,0.0,N,0.0,K,A*23
$GPDTM,P90,,0000.000022,S,00000.000001,W,0.988,W84*5A
$GPRMC,001320.00,A,2959.998982,N,12000.001488,E,0.0,,230721,4.3,W,A*01
$GPGGA,001320.00,2959.998982,N,12000.001488,E,1,08,1.4,-10.6,M,7.0,M,,*46

$GPVTG,,T,,M,0.0,N,0.0,K,A*23
$GPDTM,P90,,0000.000022,S,00000.000001,W,0.988,W84*5A
$GPRMC,001320.10,A,2959.998982,N,12000.001488,E,0.0,,230721,4.3,W,A*00
$GPGGA,001320.10,2959.998982,N,12000.001488,E,1,00,1.4,-10.6,M,7.0,M,,*4F

$GPVTG,,T,,M,0.0,N,0.0,K,A*23
$GPDTM,P90,,0000.000022,S,00000.000001,W,0.988,W84*5A
$GPRMC,001320.20,A,2959.998982,N,12000.001488,E,0.0,,230721,4.3,W,A*03
$GPGGA,001320.20,2959.998982,N,12000.001488,E,1,00,1.4,-10.6,M,7.0,M,,*4C

$GPVTG,,T,,M,0.0,N,0.0,K,A*23
$GPDTM,P90,,0000.000022,S,00000.000001,W,0.988,W84*5A
$GPRMC,001320.30,A,2959.998982,N,12000.001488,E,0.0,,230721,4.3,W,A*02
$GPGGA,001320.30,2959.998982,N,12000.001488,E,1,00,1.4,-10.6,M,7.0,M,,*4D

$GPVTG,,T,,M,0.0,N,0.0,K,A*23
$GPDTM,P90,,0000.000022,S,00000.000001,W,0.988,W84*5A
$GPRMC,001320.40,A,2959.998982,N,12000.001488,E,0.0,,230721,4.3,W,A*05
$GPGGA,001320.40,2959.998982,N,12000.001488,E,1,00,1.4,-10.6,M,7.0,M,,*4A

$GPVTG,,T,,M,0.0,N,0.0,K,A*23
$GPDTM,P90,,0000.000022,S,00000.000001,W,0.988,W84*5A
$GPRMC,001320.50,A,2959.998982,N,12000.001488,E,0.0,,230721,4.3,W,A*04
$GPGGA,001320.50,2959.998982,N,12000.001488,E,1,00,1.4,-10.6,M,7.0,M,,*4B

$GPVTG,,T,,M,0.0,N,0.0,K,A*23
$GPDTM,P90,,0000.000022,S,00000.000001,W,0.988,W84*5A
$GPRMC,001320.60,A,2959.998982,N,12000.001488,E,0.0,,230721,4.3,W,A*07
$GPGGA,001320.60,2959.998982,N,12000.001488,E,1,00,1.4,-10.6,M,7.0,M,,*48

$GPVTG,,T,,M,0.0,N,0.0,K,A*23
$GPDTM,P90,,0000.000022,S,00000.000001,W,0.988,W84*5A
$GPRMC,001320.70,A,2959.998982,N,12000.001488,E,0.0,,230721,4.3,W,A*06
$GPGGA,001320.70,2959.998982,N,12000.001488,E,1,00,1.4,-10.6,M,7.0,M,,*49

$GPVTG,,T,,M,0.0,N,0.0,K,A*23
$GPDTM,P90,,0000.000022,S,00000.000001,W,0.988,W84*5A
$GPRMC,001320.80,A,2959.998982,N,12000.001488,E,0.0,,230721,4.3,W,A*09
$GPGGA,001320.80,2959.998982,N,12000.001488,E,1,00,1.4,-10.6,M,7.0,M,,*46

$GPVTG,,T,,M,0.0,N,0.0,K,A*23
$GPDTM,P90,,0000.000022,S,00000.000001,W,0.988,W84*5A
$GPRMC,001320.90,A,2959.998982,N,12000.001488,E,0.0,,230721,4.3,W,A*08
$GPGGA,001320.90,2959.998982,N,12000.001488,E,1,00,1.4,-10.6,M,7.0,M,,*47

$GPGSV,2,1,08,02,33,293,27,04,48,239,27,07,82,067,27,08,51,209,27*73
$GPGSV,2,2,08,13,46,035,26,23,23,060,27,25,61,039,27,27,21,220,26*7D
$GLGSV,1,1,03,78,09,330,25,77,62,317,,76,57,164,*56
$GAGSV,1,1,0,7*43
$PQGSV,1,1,0,0*43
$PQGSV,1,1,0,0*43
$GPGSA,A,3,02,04,07,08,13,23,25,27,,,,,1.6,1.4,0.9*31
$GPVTG,,T,,M,0.0,N,0.0,K,A*23
$GPDTM,P90,,0000.000022,S,00000.000001,W,0.988,W84*5A
$GPRMC,001321.00,A,2959.998990,N,12000.001478,E,0.0,,230721,4.3,W,A*0C
$GPGGA,001321.00,2959.998990,N,12000.001478,E,1,08,1.4,-10.6,M,7.0,M,,*4B

$GPVTG,,T,,M,0.0,N,0.0,K,A*23
$GPDTM,P90,,0000.000022,S,00000.000001,W,0.988,W84*5A
$GPRMC,001321.10,A,2959.998990,N,12000.001478,E,0.0,,230721,4.3,W,A*0D
$GPGGA,001321.10,2959.998990,N,12000.001478,E,1,00,1.4,-10.6,M,7.0,M,,*42

$GPVTG,,T,,M,0.0,N,0.0,K,A*23
$GPDTM,P90,,0000.000022,S,00000.000001,W,0.988,W84*5A
$GPRMC,001321.20,A,2959.998990,N,12000.001478,E,0.0,,230721,4.3,W,A*0E
$GPGGA,001321.20,2959.998990,N,12000.001478,E,1,00,1.4,-10.6,M,7.0,M,,*41

$GPVTG,,T,,M,0.0,N,0.0,K,A*23
$GPDTM,P90,,0000.000022,S,00000.000001,W,0.988,W84*5A
$GPRMC,001321.30,A,2959.998990,N,12000.001478,E,0.0,,230721,4.3,W,A*0F
$GPGGA,001321.30,2959.998990,N,12000.001478,E,1,00,1.4,-10.6,M,7.0,M,,*40

$GPVTG,,T,,M,0.0,N,0.0,K,A*23
$GPDTM,P90,,0000.000022,S,00000.000001,W,0.988,W84*5A
$GPRMC,001321.40,A,2959.998990,N,12000.001478,E,0.0,,230721,4.3,W,A*08
$GPGGA,001321.40,2959.998990,N,12000.001478,E,1,00,1.4,-10.6,M,7.0,M,,*47

$GPVTG,,T,,M,0.0,N,0.0,K,A*23
$GPDTM,P90,,0000.000022,S,00000.000001,W,0.988,W84*5A
$GPRMC,001321.50,A,2959.998990,N,12000.001478,E,0.0,,230721,4.3,W,A*09
$GPGGA,001321.50,2959.998990,N,12000.001478,E,1,00,1.4,-10.6,M,7.0,M,,*46

$GPVTG,,T,,M,0.0,N,0.0,K,A*23
$GPDTM,P90,,0000.000022,S,00000.000001,W,0.988,W84*5A
$GPRMC,001321.60,A,2959.998990,N,12000.001478,E,0.0,,230721,4.3,W,A*0A
$GPGGA,001321.60,2959.998990,N,12000.001478,E,1,00,1.4,-10.6,M,7.0,M,,*45

$GPVTG,,T,,M,0.0,N,0.0,K,A*23
$GPDTM,P90,,0000.000022,S,00000.000001,W,0.988,W84*5A
$GPRMC,001321.70,A,2959.998990,N,12000.001478,E,0.0,,230721,4.3,W,A*0B
$GPGGA,001321.70,2959.998990,N,12000.001478,E,1,00,1.4,-10.6,M,7.0,M,,*44

$GPVTG,,T,,M,0.0,N,0.0,K,A*23
$GPDTM,P90,,0000.000022,S,00000.000001,W,0.988,W84*5A
$GPRMC,001321.80,A,2959.998990,N,12000.001478,E,0.0,,230721,4.3,W,A*04
$GPGGA,001321.80,2959.998990,N,12000.001478,E,1,00,1.4,-10.6,M,7.0,M,,*4B

$GPVTG,,T,,M,0.0,N,0.0,K,A*23
$GPDTM,P90,,0000.000022,S,00000.000001,W,0.988,W84*5A
$GPRMC,001321.90,A,2959.998990,N,12000.001478,E,0.0,,230721,4.3,W,A*05
$GPGGA,001321.90,2959.998990,N,12000.001478,E,1,00,1.4,-10.6,M,7.0,M,,*4A

$GPGSV,2,1,08,02,33,293,27,04,48,239,27,07,82,067,27,08,51,209,27*73
$GPGSV,2,2,08,13,46,035,27,23,23,060,27,25,61,039,26,27,21,220,27*7C
$GLGSV,1,1,03,78,09,330,25,77,62,317,,76,57,164,*56
$GAGSV,1,1,0,7*43
$PQGSV,1,1,0,0*43
$PQGSV,1,1,0,0*43
$GPGSA,A,3,02,04,07,08,13,23,25,27,,,,,1.6,1.4,0.9*31
$GPVTG,,T,,M,0.0,N,0.0,K,A*23
$GPDTM,P90,,0000.000022,S,00000.000001,W,0.988,W84*5A
$GPRMC,001322.00,A,2959.998996,N,12000.001471,E,0.0,,230721,4.3,W,A*00
$GPGGA,001322.00,2959.998996,N,12000.001471,E,1,08,1.4,-10.6,M,7.0,M,,*47

$GPVTG,,T,,M,0.0,N,0.0,K,A*23
$GPDTM,P90,,0000.000022,S,00000.000001,W,0.988,W84*5A
$GPRMC,001322.10,A,2959.998996,N,12000.001471,E,0.0,,230721,4.3,W,A*01
$GPGGA,001322.10,2959.998996,N,12000.001471,E,1,00,1.4,-10.6,M,7.0,M,,*4E

$GPVTG,,T,,M,0.0,N,0.0,K,A*23
$GPDTM,P90,,0000.000022,S,00000.000001,W,0.988,W84*5A
$GPRMC,001322.20,A,2959.998996,N,12000.001471,E,0.0,,230721,4.3,W,A*02
$GPGGA,001322.20,2959.998996,N,12000.001471,E,1,00,1.4,-10.6,M,7.0,M,,*4D

$GPVTG,,T,,M,0.0,N,0.0,K,A*23
$GPDTM,P90,,0000.000022,S,00000.000001,W,0.988,W84*5A
$GPRMC,001322.30,A,2959.998996,N,12000.001471,E,0.0,,230721,4.3,W,A*03
$GPGGA,001322.30,2959.998996,N,12000.001471,E,1,00,1.4,-10.6,M,7.0,M,,*4C

$GPVTG,,T,,M,0.0,N,0.0,K,A*23
$GPDTM,P90,,0000.000022,S,00000.000001,W,0.988,W84*5A
$GPRMC,001322.40,A,2959.998996,N,12000.001471,E,0.0,,230721,4.3,W,A*04
$GPGGA,001322.40,2959.998996,N,12000.001471,E,1,00,1.4,-10.6,M,7.0,M,,*4B

$GPVTG,,T,,M,0.0,N,0.0,K,A*23
$GPDTM,P90,,0000.000022,S,00000.000001,W,0.988,W84*5A
$GPRMC,001322.50,A,2959.998996,N,12000.001471,E,0.0,,230721,4.3,W,A*05
$GPGGA,001322.50,2959.998996,N,12000.001471,E,1,00,1.4,-10.6,M,7.0,M,,*4A

$GPVTG,,T,,M,0.0,N,0.0,K,A*23
$GPDTM,P90,,0000.000022,S,00000.000001,W,0.988,W84*5A
$GPRMC,001322.60,A,2959.998996,N,12000.001471,E,0.0,,230721,4.3,W,A*06
$GPGGA,001322.60,2959.998996,N,12000.001471,E,1,00,1.4,-10.6,M,7.0,M,,*49

$GPVTG,,T,,M,0.0,N,0.0,K,A*23
$GPDTM,P90,,0000.000022,S,00000.000001,W,0.988,W84*5A
$GPRMC,001322.70,A,2959.998996,N,12000.001471,E,0.0,,230721,4.3,W,A*07
$GPGGA,001322.70,2959.998996,N,12000.001471,E,1,00,1.4,-10.6,M,7.0,M,,*48

$GPVTG,,T,,M,0.0,N,0.0,K,A*23
$GPDTM,P90,,0000.000022,S,00000.000001,W,0.988,W84*5A
$GPRMC,001322.80,A,2959.998996,N,12000.001471,E,0.0,,230721,4.3,W,A*08
$GPGGA,001322.80,2959.998996,N,12000.001471,E,1,00,1.4,-10.6,M,7.0,M,,*47

$GPVTG,,T,,M,0.0,N,0.0,K,A*23
$GPDTM,P90,,0000.000022,S,00000.000001,W,0.988,W84*5A
$GPRMC,001322.90,A,2959.998996,N,12000.001471,E,0.0,,230721,4.3,W,A*09
$GPGGA,001322.90,2959.998996,N,12000.001471,E,1,00,1.4,-10.6,M,7.0,M,,*46

$GPGSV,3,1,09,02,33,293,28,04,48,239,27,07,82,067,27,08,51,209,28*73
$GPGSV,3,2,09,13,46,035,27,20,00,000,26,23,23,060,26,25,61,039,27*79
$GPGSV,3,3,09,27,21,220,26*42
$GLGSV,1,1,03,78,09,330,25,77,62,317,,76,57,164,*56
$GAGSV,1,1,0,7*43
$PQGSV,1,1,0,0*43
$PQGSV,1,1,0,0*43
$GPGSA,A,3,02,04,07,08,13,23,25,27,,,,,1.6,1.4,0.9*31
$GPVTG,,T,,M,0.0,N,0.0,K,A*23
$GPDTM,P90,,0000.000022,S,00000.000001,W,0.988,W84*5A
$GPRMC,001323.00,A,2959.998999,N,12000.001465,E,0.0,,230721,4.3,W,A*0B
$GPGGA,001323.00,2959.998999,N,12000.001465,E,1,08,1.4,-10.6,M,7.0,M,,*4C

$GPVTG,,T,,M,0.0,N,0.0,K,A*23
$GPDTM,P90,,0000.000022,S,00000.000001,W,0.988,W84*5A
$GPRMC,001323.10,A,2959.998999,N,12000.001465,E,0.0,,230721,4.3,W,A*0A
$GPGGA,001323.10,2959.998999,N,12000.001465,E,1,00,1.4,-10.6,M,7.0,M,,*45

$GPVTG,,T,,M,0.0,N,0.0,K,A*23
$GPDTM,P90,,0000.000022,S,00000.000001,W,0.988,W84*5A
$GPRMC,001323.20,A,2959.998999,N,12000.001465,E,0.0,,230721,4.3,W,A*09
$GPGGA,001323.20,2959.998999,N,12000.001465,E,1,00,1.4,-10.6,M,7.0,M,,*46

$GPVTG,,T,,M,0.0,N,0.0,K,A*23
$GPDTM,P90,,0000.000022,S,00000.000001,W,0.988,W84*5A
$GPRMC,001323.30,A,2959.998999,N,12000.001465,E,0.0,,230721,4.3,W,A*08
$GPGGA,001323.30,2959.998999,N,12000.001465,E,1,00,1.4,-10.6,M,7.0,M,,*47

$GPVTG,,T,,M,0.0,N,0.0,K,A*23
$GPDTM,P90,,0000.000022,S,00000.000001,W,0.988,W84*5A
$GPRMC,001323.40,A,2959.998999,N,12000.001465,E,0.0,,230721,4.3,W,A*0F
$GPGGA,001323.40,2959.998999,N,12000.001465,E,1,00,1.4,-10.6,M,7.0,M,,*40

$GPVTG,,T,,M,0.0,N,0.0,K,A*23
$GPDTM,P90,,0000.000022,S,00000.000001,W,0.988,W84*5A
$GPRMC,001323.50,A,2959.998999,N,12000.001465,E,0.0,,230721,4.3,W,A*0E
$GPGGA,001323.50,2959.998999,N,12000.001465,E,1,00,1.4,-10.6,M,7.0,M,,*41

$GPVTG,,T,,M,0.0,N,0.0,K,A*23
$GPDTM,P90,,0000.000022,S,00000.000001,W,0.988,W84*5A
$GPRMC,001323.60,A,2959.998999,N,12000.001465,E,0.0,,230721,4.3,W,A*0D
$GPGGA,001323.60,2959.998999,N,12000.001465,E,1,00,1.4,-10.6,M,7.0,M,,*42

$GPVTG,,T,,M,0.0,N,0.0,K,A*23
$GPDTM,P90,,0000.000022,S,00000.000001,W,0.988,W84*5A
$GPRMC,001323.70,A,2959.998999,N,12000.001465,E,0.0,,230721,4.3,W,A*0C
$GPGGA,001323.70,2959.998999,N,12000.001465,E,1,00,1.4,-10.6,M,7.0,M,,*43

$GPVTG,,T,,M,0.0,N,0.0,K,A*23
$GPDTM,P90,,0000.000022,S,00000.000001,W,0.988,W84*5A
$GPRMC,001323.80,A,2959.998999,N,12000.001465,E,0.0,,230721,4.3,W,A*03
$GPGGA,001323.80,2959.998999,N,12000.001465,E,1,00,1.4,-10.6,M,7.0,M,,*4C

$GPVTG,,T,,M,0.0,N,0.0,K,A*23
$GPDTM,P90,,0000.000022,S,00000.000001,W,0.988,W84*5A
$GPRMC,001323.90,A,2959.998999,N,12000.001465,E,0.0,,230721,4.3,W,A*02
$GPGGA,001323.90,2959.998999,N,12000.001465,E,1,00,1.4,-10.6,M,7.0,M,,*4D

$GPGSV,3,1,09,02,33,293,27,04,48,239,26,07,82,067,27,08,51,209,27*72
$GPGSV,3,2,09,13,46,035,27,20,00,000,26,23,23,060,27,25,61,039,27*78
$GPGSV,3,3,09,27,21,220,26*42
$GLGSV,1,1,03,78,09,330,24,77,62,317,,76,57,164,*57
$GAGSV,1,1,0,7*43
$PQGSV,1,1,0,0*43
$PQGSV,1,1,0,0*43
$GPGSA,A,3,02,04,07,08,13,23,25,27,,,,,1.6,1.4,0.9*31
$GPVTG,,T,,M,0.0,N,0.0,K,A*23
$GPDTM,P90,,0000.000022,S,00000.000001,W,0.988,W84*5A
$GPRMC,001324.00,A,2959.999003,N,12000.001458,E,0.0,,230721,4.3,W,A*09
$GPGGA,001324.00,2959.999003,N,12000.001458,E,1,08,1.4,-10.6,M,7.0,M,,*4E

$GPVTG,,T,,M,0.0,N,0.0,K,A*23
$GPDTM,P90,,0000.000022,S,00000.000001,W,0.988,W84*5A
$GPRMC,001324.10,A,2959.999003,N,12000.001458,E,0.0,,230721,4.3,W,A*08
$GPGGA,001324.10,2959.999003,N,12000.001458,E,1,00,1.4,-10.6,M,7.0,M,,*47

$GPVTG,,T,,M,0.0,N,0.0,K,A*23
$GPDTM,P90,,0000.000022,S,00000.000001,W,0.988,W84*5A
$GPRMC,001324.20,A,2959.999003,N,12000.001458,E,0.0,,230721,4.3,W,A*0B
$GPGGA,001324.20,2959.999003,N,12000.001458,E,1,00,1.4,-10.6,M,7.0,M,,*44

$GPVTG,,T,,M,0.0,N,0.0,K,A*23
$GPDTM,P90,,0000.000022,S,00000.000001,W,0.988,W84*5A
$GPRMC,001324.30,A,2959.999003,N,12000.001458,E,0.0,,230721,4.3,W,A*0A
$GPGGA,001324.30,2959.999003,N,12000.001458,E,1,00,1.4,-10.6,M,7.0,M,,*45

$GPVTG,,T,,M,0.0,N,0.0,K,A*23
$GPDTM,P90,,0000.000022,S,00000.000001,W,0.988,W84*5A
$GPRMC,001324.40,A,2959.999003,N,12000.001458,E,0.0,,230721,4.3,W,A*0D
$GPGGA,001324.40,2959.999003,N,12000.001458,E,1,00,1.4,-10.6,M,7.0,M,,*42

$GPVTG,,T,,M,0.0,N,0.0,K,A*23
$GPDTM,P90,,0000.000022,S,00000.000001,W,0.988,W84*5A
$GPRMC,001324.50,A,2959.999003,N,12000.001458,E,0.0,,230721,4.3,W,A*0C
$GPGGA,001324.50,2959.999003,N,12000.001458,E,1,00,1.4,-10.6,M,7.0,M,,*43

$GPVTG,,T,,M,0.0,N,0.0,K,A*23
$GPDTM,P90,,0000.000022,S,00000.000001,W,0.988,W84*5A
$GPRMC,001324.60,A,2959.999003,N,12000.001458,E,0.0,,230721,4.3,W,A*0F
$GPGGA,001324.60,2959.999003,N,12000.001458,E,1,00,1.4,-10.6,M,7.0,M,,*40

$GPVTG,,T,,M,0.0,N,0.0,K,A*23
$GPDTM,P90,,0000.000022,S,00000.000001,W,0.988,W84*5A
$GPRMC,001324.70,A,2959.999003,N,12000.001458,E,0.0,,230721,4.3,W,A*0E
$GPGGA,001324.70,2959.999003,N,12000.001458,E,1,00,1.4,-10.6,M,7.0,M,,*41

$GPVTG,,T,,M,0.0,N,0.0,K,A*23
$GPDTM,P90,,0000.000022,S,00000.000001,W,0.988,W84*5A
$GPRMC,001324.80,A,2959.999003,N,12000.001458,E,0.0,,230721,4.3,W,A*01
$GPGGA,001324.80,2959.999003,N,12000.001458,E,1,00,1.4,-10.6,M,7.0,M,,*4E

$GPVTG,,T,,M,0.0,N,0.0,K,A*23
$GPDTM,P90,,0000.000022,S,00000.000001,W,0.988,W84*5A
$GPRMC,001324.90,A,2959.999003,N,12000.001458,E,0.0,,230721,4.3,W,A*00
$GPGGA,001324.90,2959.999003,N,12000.001458,E,1,00,1.4,-10.6,M,7.0,M,,*4F

$GPGSV,3,1,09,02,33,293,27,04,48,239,27,07,82,067,27,08,51,209,27*73
$GPGSV,3,2,09,13,46,035,27,20,00,000,25,23,23,060,26,25,61,039,26*7B
$GPGSV,3,3,09,27,21,220,27*43
$GLGSV,1,1,03,78,09,330,24,77,62,317,,76,57,164,*57
$GAGSV,1,1,0,7*43
$PQGSV,1,1,0,0*43
$PQGSV,1,1,0,0*43
$GPGSA,A,3,02,04,07,08,13,23,25,27,,,,,1.6,1.4,0.9*31
$GPVTG,,T,,M,0.0,N,0.0,K,A*23
$GPDTM,P90,,0000.000022,S,00000.000001,W,0.988,W84*5A
$GPRMC,001325.00,A,2959.999006,N,12000.001451,E,0.0,,230721,4.3,W,A*04
$GPGGA,001325.00,2959.999006,N,12000.001451,E,1,08,1.4,-10.7,M,7.0,M,,*42

$GPVTG,,T,,M,0.0,N,0.0,K,A*23
$GPDTM,P90,,0000.000022,S,00000.000001,W,0.988,W84*5A
$GPRMC,001325.10,A,2959.999006,N,12000.001451,E,0.0,,230721,4.3,W,A*05
$GPGGA,001325.10,2959.999006,N,12000.001451,E,1,00,1.4,-10.7,M,7.0,M,,*4B

$GPVTG,,T,,M,0.0,N,0.0,K,A*23
$GPDTM,P90,,0000.000022,S,00000.000001,W,0.988,W84*5A
$GPRMC,001325.20,A,2959.999006,N,12000.001451,E,0.0,,230721,4.3,W,A*06
$GPGGA,001325.20,2959.999006,N,12000.001451,E,1,00,1.4,-10.7,M,7.0,M,,*48

$GPVTG,,T,,M,0.0,N,0.0,K,A*23
$GPDTM,P90,,0000.000022,S,00000.000001,W,0.988,W84*5A
$GPRMC,001325.30,A,2959.999006,N,12000.001451,E,0.0,,230721,4.3,W,A*07
$GPGGA,001325.30,2959.999006,N,12000.001451,E,1,00,1.4,-10.7,M,7.0,M,,*49

$GPVTG,,T,,M,0.0,N,0.0,K,A*23
$GPDTM,P90,,0000.000022,S,00000.000001,W,0.988,W84*5A
$GPRMC,001325.40,A,2959.999006,N,12000.001451,E,0.0,,230721,4.3,W,A*00
$GPGGA,001325.40,2959.999006,N,12000.001451,E,1,00,1.4,-10.7,M,7.0,M,,*4E

$GPVTG,,T,,M,0.0,N,0.0,K,A*23
$GPDTM,P90,,0000.000022,S,00000.000001,W,0.988,W84*5A
$GPRMC,001325.50,A,2959.999006,N,12000.001451,E,0.0,,230721,4.3,W,A*01
$GPGGA,001325.50,2959.999006,N,12000.001451,E,1,00,1.4,-10.7,M,7.0,M,,*4F

$GPVTG,,T,,M,0.0,N,0.0,K,A*23
$GPDTM,P90,,0000.000022,S,00000.000001,W,0.988,W84*5A
$GPRMC,001325.60,A,2959.999006,N,12000.001451,E,0.0,,230721,4.3,W,A*02
$GPGGA,001325.60,2959.999006,N,12000.001451,E,1,00,1.4,-10.7,M,7.0,M,,*4C

$GPVTG,,T,,M,0.0,N,0.0,K,A*23
$GPDTM,P90,,0000.000022,S,00000.000001,W,0.988,W84*5A
$GPRMC,001325.70,A,2959.999006,N,12000.001451,E,0.0,,230721,4.3,W,A*03
$GPGGA,001325.70,2959.999006,N,12000.001451,E,1,00,1.4,-10.7,M,7.0,M,,*4D

$GPVTG,,T,,M,0.0,N,0.0,K,A*23
$GPDTM,P90,,0000.000022,S,00000.000001,W,0.988,W84*5A
$GPRMC,001325.80,A,2959.999006,N,12000.001451,E,0.0,,230721,4.3,W,A*0C
$GPGGA,001325.80,2959.999006,N,12000.001451,E,1,00,1.4,-10.7,M,7.0,M,,*42

$GPVTG,,T,,M,0.0,N,0.0,K,A*23
$GPDTM,P90,,0000.000022,S,00000.000001,W,0.988,W84*5A
$GPRMC,001325.90,A,2959.999006,N,12000.001451,E,0.0,,230721,4.3,W,A*0D
$GPGGA,001325.90,2959.999006,N,12000.001451,E,1,00,1.4,-10.7,M,7.0,M,,*43

$GPGSV,3,1,09,02,33,293,27,04,48,239,27,07,82,067,28,08,51,209,28*73
$GPGSV,3,2,09,13,46,035,27,20,00,000,24,23,23,060,27,25,61,039,27*7A
$GPGSV,3,3,09,27,21,220,27*43
$GLGSV,1,1,03,78,09,330,25,77,62,317,,76,57,164,*56
$GAGSV,1,1,0,7*43
$PQGSV,1,1,0,0*43
$PQGSV,1,1,0,0*43
$GPGSA,A,3,02,04,07,08,13,23,25,27,,,,,1.6,1.4,0.9*31
$GPVTG,,T,,M,0.0,N,0.0,K,A*23
$GPDTM,P90,,0000.000022,S,00000.000001,W,0.988,W84*5A
$GPRMC,001326.00,A,2959.999009,N,12000.001448,E,0.0,,230721,4.3,W,A*00
$GPGGA,001326.00,2959.999009,N,12000.001448,E,1,08,1.4,-10.6,M,7.0,M,,*47

$GPVTG,,T,,M,0.0,N,0.0,K,A*23
$GPDTM,P90,,0000.000022,S,00000.000001,W,0.988,W84*5A
$GPRMC,001326.10,A,2959.999009,N,12000.001448,E,0.0,,230721,4.3,W,A*01
$GPGGA,001326.10,2959.999009,N,12000.001448,E,1,00,1.4,-10.6,M,7.0,M,,*4E

$GPVTG,,T,,M,0.0,N,0.0,K,A*23
$GPDTM,P90,,0000.000022,S,00000.000001,W,0.988,W84*5A
$GPRMC,001326.20,A,2959.999009,N,12000.001448,E,0.0,,230721,4.3,W,A*02
$GPGGA,001326.20,2959.999009,N,12000.001448,E,1,00,1.4,-10.6,M,7.0,M,,*4D

$GPVTG,,T,,M,0.0,N,0.0,K,A*23
$GPDTM,P90,,0000.000022,S,00000.000001,W,0.988,W84*5A
$GPRMC,001326.30,A,2959.999009,N,12000.001448,E,0.0,,230721,4.3,W,A*03
$GPGGA,001326.30,2959.999009,N,12000.001448,E,1,00,1.4,-10.6,M,7.0,M,,*4C

$GPVTG,,T,,M,0.0,N,0.0,K,A*23
$GPDTM,P90,,0000.000022,S,00000.000001,W,0.988,W84*5A
