$GPGSV,3,1,12,02,17,232,,04,05,195,,07,29,042,,08,64,008,*7B
$GPGSV,3,2,12,10,50,307,,13,16,090,,15,03,296,,24,06,306,*78
$GPGSV,3,3,12,25,12,050,,26,20,302,,27,60,288,,28,51,150,*77
$GLGSV,2,1,08,78,50,274,41,77,35,201,41,79,14,327,37,88,43,326,41*6C
$GLGSV,2,2,08,87,30,039,42,81,14,279,41,72,26,066,37,71,00,000,*6B
$GAGSV,3,1,10,06,09,127,,07,08,080,,09,52,300,,10,58,184,*6B
$GAGSV,3,2,10,11,11,154,,16,05,323,,22,22,255,,23,62,307,*6B
$GAGSV,3,3,10,24,38,037,,26,03,151,*62
$PQGSV,1,1,0,0*43
$PQGSV,1,1,0,0*43
$GLGSA,A,3,72,77,78,79,81,87,88,,,,,,1.4,1.0,0.9*21
$GPVTG,,T,,M,0.0,N,0.0,K,A*23
$GPDTM,P90,,0000.000022,S,00000.000001,W,0.988,W84*5A
$GPRMC,021245.00,A,2959.999768,N,11959.998378,E,0.0,,230721,4.3,W,A*0D
$GPGGA,021245.00,2959.999768,N,11959.998378,E,1,07,1.0,-27.2,M,7.0,M,,*41

$GPGSV,3,1,12,02,17,232,,04,05,195,,07,29,042,,08,64,008,*7B
$GPGSV,3,2,12,10,50,307,,13,16,090,,15,03,296,,24,06,306,*78
$GPGSV,3,3,12,25,12,050,,26,20,302,,27,60,288,,28,51,150,*77
$GLGSV,2,1,08,78,50,274,41,77,35,201,41,79,14,327,37,88,43,326,41*6C
$GLGSV,2,2,08,87,30,039,42,81,14,279,41,72,26,066,38,71,00,000,*64
$GAGSV,3,1,10,06,09,127,,07,08,080,,09,52,300,,10,58,184,*6B
$GAGSV,3,2,10,11,11,154,,16,05,323,,22,22,255,,23,62,307,*6B
$GAGSV,3,3,10,24,38,037,,26,03,151,*62
$PQGSV,1,1,0,0*43
$PQGSV,1,1,0,0*43
$GLGSA,A,3,72,77,78,79,81,87,88,,,,,,1.4,1.0,0.9*21
$GPVTG,,T,,M,0.0,N,0.0,K,A*23
$GPDTM,P90,,0000.000022,S,00000.000001,W,0.988,W84*5A
$GPRMC,021246.00,A,2959.999804,N,11959.998360,E,0.0,,230721,4.3,W,A*02
$GPGGA,021246.00,2959.999804,N,11959.998360,E,1,07,1.0,-27.8,M,7.0,M,,*44

$GPGSV,3,1,12,02,17,232,,04,05,195,,07,29,042,,08,64,008,*7B
$GPGSV,3,2,12,10,50,307,,13,16,090,,15,03,296,,24,06,306,*78
$GPGSV,3,3,12,25,12,050,,26,20,302,,27,60,288,,28,51,150,*77
$GLGSV,2,1,08,78,50,274,41,77,35,201,41,79,14,327,37,88,43,326,41*6C
$GLGSV,2,2,08,87,30,039,41,81,14,279,41,72,26,066,38,71,00,000,*67
$GAGSV,3,1,10,06,09,127,,07,08,080,,09,52,300,,10,58,184,*6B
$GAGSV,3,2,10,11,11,154,,16,05,323,,22,22,255,,23,62,307,*6B
$GAGSV,3,3,10,24,38,037,,26,03,151,*62
$PQGSV,1,1,0,0*43
$PQGSV,1,1,0,0*43
$GLGSA,A,3,72,77,78,79,81,87,88,,,,,,1.4,1.0,0.9*21
$GPVTG,,T,,M,0.0,N,0.0,K,A*23
$GPDTM,P90,,0000.000022,S,00000.000001,W,0.988,W84*5A
$GPRMC,021247.00,A,2959.999722,N,11959.998691,E,0.0,,230721,4.3,W,A*03
$GPGGA,021247.00,2959.999722,N,11959.998691,E,1,07,1.0,-26.9,M,7.0,M,,*45

$GPGSV,3,1,12,02,17,232,,04,05,195,,07,29,042,,08,64,008,*7B
$GPGSV,3,2,12,10,50,307,,13,16,090,,15,03,296,,24,06,306,*78
$GPGSV,3,3,12,25,12,050,,26,20,302,,27,60,288,,28,51,150,*77
$GLGSV,2,1,08,78,50,274,41,77,35,201,41,79,14,327,37,88,43,326,41*6C
$GLGSV,2,2,08,87,30,039,41,81,14,279,41,72,26,066,37,71,00,000,*68
$GAGSV,3,1,10,06,09,127,,07,08,080,,09,52,300,,10,58,184,*6B
$GAGSV,3,2,10,11,11,154,,16,05,323,,22,22,255,,23,62,307,*6B
$GAGSV,3,3,10,24,38,037,,26,03,151,*62
$PQGSV,1,1,0,0*43
$PQGSV,1,1,0,0*43
$GLGSA,A,3,72,77,78,79,81,87,88,,,,,,1.4,1.0,0.9*21
$GPVTG,,T,,M,0.0,N,0.0,K,A*23
$GPDTM,P90,,0000.000022,S,00000.000001,W,0.988,W84*5A
$GPRMC,021248.00,A,2959.999714,N,11959.998701,E,0.0,,230721,4.3,W,A*01
$GPGGA,021248.00,2959.999714,N,11959.998701,E,1,07,1.0,-26.9,M,7.0,M,,*47

$GPGSV,3,1,12,02,17,232,,04,05,195,,07,29,042,,08,64,008,*7B
$GPGSV,3,2,12,10,50,307,,13,16,090,,15,03,296,,24,06,306,*78
$GPGSV,3,3,12,25,12,050,,26,20,302,,27,60,288,,28,51,150,*77
$GLGSV,3,1,09,78,50,274,41,77,35,201,41,79,14,327,37,88,43,326,41*6C
$GLGSV,3,2,09,87,30,039,41,81,14,279,41,72,26,066,37,66,04,164,*69
$GLGSV,3,3,09,71,00,000,*5A
$GAGSV,3,1,10,06,09,127,,07,08,080,,09,52,300,,10,58,184,*6B
$GAGSV,3,2,10,11,11,154,,16,05,323,,22,22,255,,23,62,307,*6B
$GAGSV,3,3,10,24,38,037,,26,03,151,*62
$PQGSV,1,1,0,0*43
$PQGSV,1,1,0,0*43
$GLGSA,A,3,72,77,78,79,81,87,88,,,,,,1.4,1.0,0.9*21
$GPVTG,,T,,M,0.0,N,0.0,K,A*23
$GPDTM,P90,,0000.000022,S,00000.000001,W,0.988,W84*5A
$GPRMC,021249.00,A,2959.999717,N,11959.998702,E,0.0,,230721,4.3,W,A*00
$GPGGA,021249.00,2959.999717,N,11959.998702,E,1,07,1.0,-27.0,M,7.0,M,,*4E

$GPGSV,3,1,12,02,17,232,,04,05,195,,07,29,042,,08,64,008,*7B
$GPGSV,3,2,12,10,50,307,,13,16,090,,15,03,296,,24,06,306,*78
$GPGSV,3,3,12,25,12,050,,26,20,302,,27,60,288,,28,51,150,*77
$GLGSV,3,1,09,78,50,274,41,77,35,201,41,79,14,327,37,88,43,326,41*6C
$GLGSV,3,2,09,87,30,039,42,81,14,279,41,72,26,066,38,66,04,164,*65
$GLGSV,3,3,09,71,00,000,*5A
$GAGSV,3,1,10,06,09,127,,07,08,080,,09,52,300,,10,58,184,*6B
$GAGSV,3,2,10,11,11,154,,16,05,323,,22,22,255,,23,62,307,*6B
$GAGSV,3,3,10,24,38,037,,26,03,151,*62
$PQGSV,1,1,0,0*43
$PQGSV,1,1,0,0*43
$GLGSA,A,3,72,77,78,79,81,87,88,,,,,,1.4,1.0,0.9*21
$GPVTG,,T,,M,0.0,N,0.0,K,A*23
$GPDTM,P90,,0000.000022,S,00000.000001,W,0.988,W84*5A
$GPRMC,021250.00,A,2959.999718,N,11959.998694,E,0.0,,230721,4.3,W,A*09
$GPGGA,021250.00,2959.999718,N,11959.998694,E,1,07,1.0,-27.0,M,7.0,M,,*47

$GPGSV,3,1,12,02,17,232,,04,05,195,,07,29,042,,08,64,008,*7B
$GPGSV,3,2,12,10,50,307,,13,16,090,,15,03,296,,24,06,306,*78
$GPGSV,3,3,12,25,12,050,,26,20,302,,27,60,288,,28,51,150,*77
$GLGSV,3,1,09,78,50,274,41,77,35,201,41,79,14,327,37,88,43,326,41*6C
$GLGSV,3,2,09,87,30,039,41,81,14,279,41,72,26,066,38,66,04,164,*66
$GLGSV,3,3,09,71,00,000,*5A
$GAGSV,3,1,10,06,09,127,,07,08,080,,09,52,300,,10,58,184,*6B
$GAGSV,3,2,10,11,11,154,,16,05,323,,22,22,255,,23,62,307,*6B
$GAGSV,3,3,10,24,38,037,,26,03,151,*62
$PQGSV,1,1,0,0*43
$PQGSV,1,1,0,0*43
$GLGSA,A,3,72,77,78,79,81,87,88,,,,,,1.4,1.0,0.9*21
$GPVTG,,T,,M,0.0,N,0.0,K,A*23
$GPDTM,P90,,0000.000022,S,00000.000001,W,0.988,W84*5A
$GPRMC,021251.00,A,2959.999722,N,11959.998692,E,0.0,,230721,4.3,W,A*07
$GPGGA,021251.00,2959.999722,N,11959.998692,E,1,07,1.0,-27.0,M,7.0,M,,*49

$GPGSV,3,1,12,02,17,232,,04,05,195,,07,29,042,,08,64,008,*7B
$GPGSV,3,2,12,10,50,307,,13,16,090,,15,03,296,,24,06,306,*78
$GPGSV,3,3,12,25,12,050,,26,20,302,,27,60,288,,28,51,150,*77
$GLGSV,3,1,09,78,50,274,41,77,35,201,41,79,14,327,37,88,43,326,41*6C
$GLGSV,3,2,09,87,30,039,41,81,14,279,41,72,26,066,37,66,04,164,*69
$GLGSV,3,3,09,71,00,000,*5A
$GAGSV,3,1,10,06,09,127,,07,08,080,,09,52,300,,10,58,184,*6B
$GAGSV,3,2,10,11,11,154,,16,05,323,,22,22,255,,23,62,307,*6B
$GAGSV,3,3,10,24,38,037,,26,03,151,*62
$PQGSV,1,1,0,0*43
$PQGSV,1,1,0,0*43
$GLGSA,A,3,72,77,78,79,81,87,88,,,,,,1.4,1.0,0.9*21
$GPVTG,,T,,M,0.0,N,0.0,K,A*23
$GPDTM,P90,,0000.000022,S,00000.000001,W,0.988,W84*5A
$GPRMC,021252.00,A,2959.999721,N,11959.998693,E,0.0,,230721,4.3,W,A*06
$GPGGA,021252.00,2959.999721,N,11959.998693,E,1,07,1.0,-27.0,M,7.0,M,,*48

$GPGSV,3,1,12,02,17,232,,04,05,195,,07,29,042,,08,64,008,*7B
$GPGSV,3,2,12,10,50,307,,13,16,090,,15,03,296,,24,06,306,*78
$GPGSV,3,3,12,25,12,050,,26,20,302,,27,60,288,,28,51,150,*77
$GLGSV,3,1,09,78,50,274,41,77,35,201,41,79,14,327,37,88,43,326,41*6C
$GLGSV,3,2,09,87,30,039,42,81,14,279,41,72,26,066,38,66,04,164,*65
$GLGSV,3,3,09,71,00,000,*5A
$GAGSV,3,1,10,06,09,127,,07,08,080,,09,52,300,,10,58,184,*6B
$GAGSV,3,2,10,11,11,154,,16,05,323,,22,22,255,,23,62,307,*6B
$GAGSV,3,3,10,24,38,037,,26,03,151,*62
$PQGSV,1,1,0,0*43
$PQGSV,1,1,0,0*43
$GLGSA,A,3,72,77,78,79,81,87,88,,,,,,1.4,1.0,0.9*21
$GPVTG,,T,,M,0.0,N,0.0,K,A*23
$GPDTM,P90,,0000.000022,S,00000.000001,W,0.988,W84*5A
$GPRMC,021253.00,A,2959.999723,N,11959.998693,E,0.0,,230721,4.3,W,A*05
$GPGGA,021253.00,2959.999723,N,11959.998693,E,1,07,1.0,-27.0,M,7.0,M,,*4B

$GPGSV,3,1,12,02,17,232,,04,05,195,,07,29,042,,08,64,008,*7B
$GPGSV,3,2,12,10,50,307,,13,16,090,,15,03,296,,24,06,306,*78
$GPGSV,3,3,12,25,12,050,,26,20,302,,27,60,288,,28,51,150,*77
$GLGSV,3,1,09,78,50,274,41,77,35,201,41,79,14,327,37,88,43,326,41*6C
$GLGSV,3,2,09,87,30,039,42,81,14,279,41,72,26,066,38,66,04,164,*65
$GLGSV,3,3,09,71,00,000,*5A
$GAGSV,3,1,10,06,09,127,,07,08,080,,09,52,300,,10,58,184,*6B
$GAGSV,3,2,10,11,11,154,,16,05,323,,22,22,255,,23,62,307,*6B
$GAGSV,3,3,10,24,38,037,,26,03,151,*62
$PQGSV,1,1,0,0*43
$PQGSV,1,1,0,0*43
$GLGSA,A,3,72,77,78,79,81,87,88,,,,,,1.4,1.0,0.9*21
$GPVTG,,T,,M,0.0,N,0.0,K,A*23
$GPDTM,P90,,0000.000022,S,00000.000001,W,0.988,W84*5A
$GPRMC,021254.00,A,2959.999723,N,11959.998693,E,0.0,,230721,4.3,W,A*02
$GPGGA,021254.00,2959.999723,N,11959.998693,E,1,07,1.0,-27.0,M,7.0,M,,*4C

$GPGSV,3,1,12,02,17,232,,04,05,195,,07,29,042,,08,64,008,*7B
$GPGSV,3,2,12,10,50,307,,13,16,090,,15,03,296,,24,06,306,*78
$GPGSV,3,3,12,25,12,050,,26,20,302,,27,60,288,,28,51,150,*77
$GLGSV,3,1,09,78,50,274,41,77,35,201,41,79,14,327,37,88,43,326,41*6C
$GLGSV,3,2,09,87,30,039,41,81,14,279,41,72,26,066,38,66,04,164,*66
$GLGSV,3,3,09,71,00,000,*5A
$GAGSV,3,1,10,06,09,127,,07,08,080,,09,52,300,,10,58,184,*6B
$GAGSV,3,2,10,11,11,154,,16,05,323,,22,22,255,,23,62,307,*6B
$GAGSV,3,3,10,24,38,037,,26,03,151,*62
$PQGSV,1,1,0,0*43
$PQGSV,1,1,0,0*43
$GLGSA,A,3,72,77,78,79,81,87,88,,,,,,1.4,1.0,0.9*21
$GPVTG,,T,,M,0.0,N,0.0,K,A*23
$GPDTM,P90,,0000.000022,S,00000.000001,W,0.988,W84*5A
$GPRMC,021255.00,A,2959.999722,N,11959.998694,E,0.0,,230721,4.3,W,A*05
$GPGGA,021255.00,2959.999722,N,11959.998694,E,1,07,1.0,-27.0,M,7.0,M,,*4B

$GPGSV,3,1,12,02,17,232,,04,05,195,,07,29,042,,08,64,008,*7B
$GPGSV,3,2,12,10,50,307,,13,16,090,,15,03,296,,24,06,306,*78
$GPGSV,3,3,12,25,12,050,,26,20,302,,27,60,288,,28,51,150,*77
$GLGSV,3,1,09,78,50,274,41,77,35,201,41,79,14,327,37,88,43,326,41*6C
$GLGSV,3,2,09,87,30,039,41,81,14,279,41,72,26,066,37,66,04,164,*69
$GLGSV,3,3,09,71,00,000,*5A
$GAGSV,3,1,10,06,09,127,,07,08,080,,09,52,300,,10,58,184,*6B
$GAGSV,3,2,10,11,11,154,,16,05,323,,22,22,255,,23,62,307,*6B
$GAGSV,3,3,10,24,38,037,,26,03,151,*62
$PQGSV,1,1,0,0*43
$PQGSV,1,1,0,0*43
$GLGSA,A,3,72,77,78,79,81,87,88,,,,,,1.4,1.0,0.9*21
$GPVTG,,T,,M,0.0,N,0.0,K,A*23
$GPDTM,P90,,0000.000022,S,00000.000001,W,0.988,W84*5A
$GPRMC,021256.00,A,2959.999723,N,11959.998696,E,0.0,,230721,4.3,W,A*05
$GPGGA,021256.00,2959.999723,N,11959.998696,E,1,07,1.0,-27.0,M,7.0,M,,*4B

$GPGSV,3,1,12,02,17,232,,04,05,195,,07,29,042,,08,64,008,*7B
$GPGSV,3,2,12,10,50,307,,13,16,090,,15,03,296,,24,06,306,*78
$GPGSV,3,3,12,25,12,050,,26,20,302,,27,60,288,,28,51,150,*77
$GLGSV,3,1,09,78,50,274,41,77,35,201,41,79,14,327,37,88,43,326,41*6C
$GLGSV,3,2,09,87,30,039,41,81,14,279,41,72,26,066,37,66,04,164,*69
$GLGSV,3,3,09,71,00,000,*5A
$GAGSV,3,1,10,06,09,127,,07,08,080,,09,52,300,,10,58,184,*6B
$GAGSV,3,2,10,11,11,154,,16,05,323,,22,22,255,,23,62,307,*6B
$GAGSV,3,3,10,24,38,037,,26,03,151,*62
$PQGSV,1,1,0,0*43
$PQGSV,1,1,0,0*43
$GLGSA,A,3,72,77,78,79,81,87,88,,,,,,1.4,1.0,0.9*21
$GPVTG,,T,,M,0.0,N,0.0,K,A*23
$GPDTM,P90,,0000.000022,S,00000.000001,W,0.988,W84*5A
$GPRMC,021257.00,A,2959.999722,N,11959.998698,E,0.0,,230721,4.3,W,A*0B
$GPGGA,021257.00,2959.999722,N,11959.998698,E,1,07,1.0,-27.0,M,7.0,M,,*45

$GPGSV,3,1,12,02,17,232,,04,05,195,,07,29,042,,08,64,008,*7B
$GPGSV,3,2,12,10,50,307,,13,16,090,,15,03,296,,24,06,306,*78
$GPGSV,3,3,12,25,12,050,,26,20,302,,27,60,288,,28,51,150,*77
$GLGSV,3,1,09,78,50,274,41,77,35,201,41,79,14,327,37,88,43,326,41*6C
$GLGSV,3,2,09,87,30,039,41,81,14,279,41,72,26,066,37,66,04,164,*69
$GLGSV,3,3,09,71,00,000,*5A
$GAGSV,3,1,10,06,09,127,,07,08,080,,09,52,300,,10,58,184,*6B
$GAGSV,3,2,10,11,11,154,,16,05,323,,22,22,255,,23,62,307,*6B
$GAGSV,3,3,10,24,38,037,,26,03,151,*62
$PQGSV,1,1,0,0*43
$PQGSV,1,1,0,0*43
$GLGSA,A,3,72,77,78,79,81,87,88,,,,,,1.4,1.0,0.9*21
$GPVTG,,T,,M,0.0,N,0.0,K,A*23
$GPDTM,P90,,0000.000022,S,00000.000001,W,0.988,W84*5A
$GPRMC,021258.00,A,2959.999721,N,11959.998698,E,0.0,,230721,4.3,W,A*07
$GPGGA,021258.00,2959.999721,N,11959.998698,E,1,07,1.0,-26.9,M,7.0,M,,*41

$GPGSV,3,1,12,02,17,232,,04,05,195,,07,29,042,,08,64,008,*7B
$GPGSV,3,2,12,10,50,307,,13,16,090,,15,03,296,,24,06,306,*78
$GPGSV,3,3,12,25,12,050,,26,20,302,,27,60,288,,28,51,150,*77
$GLGSV,3,1,09,78,50,274,41,77,35,201,41,79,14,327,37,88,43,326,41*6C
$GLGSV,3,2,09,87,30,039,41,81,14,279,41,72,26,066,38,66,04,164,*66
$GLGSV,3,3,09,71,00,000,*5A
$GAGSV,3,1,10,06,09,127,,07,08,080,,09,52,300,,10,58,184,*6B
$GAGSV,3,2,10,11,11,154,,16,05,323,,22,22,255,,23,62,307,*6B
$GAGSV,3,3,10,24,38,037,,26,03,151,*62
$PQGSV,1,1,0,0*43
$PQGSV,1,1,0,0*43
$GLGSA,A,3,72,77,78,79,81,87,88,,,,,,1.4,1.0,0.9*21
$GPVTG,,T,,M,0.0,N,0.0,K,A*23
$GPDTM,P90,,0000.000022,S,00000.000001,W,0.988,W84*5A
$GPRMC,021259.00,A,2959.999720,N,11959.998700,E,0.0,,230721,4.3,W,A*07
$GPGGA,021259.00,2959.999720,N,11959.998700,E,1,07,1.0,-27.0,M,7.0,M,,*49

$GPGSV,3,1,12,02,17,232,,04,05,195,,07,29,042,,08,64,008,*7B
$GPGSV,3,2,12,10,50,307,,13,16,090,,15,03,296,,24,06,306,*78
$GPGSV,3,3,12,25,12,050,,26,20,302,,27,60,288,,28,51,150,*77
$GLGSV,3,1,09,78,50,274,41,77,35,201,41,79,14,327,37,88,43,326,41*6C
$GLGSV,3,2,09,87,30,039,41,81,14,279,41,72,26,066,37,66,04,164,*69
$GLGSV,3,3,09,71,00,000,*5A
$GAGSV,3,1,10,06,09,127,,07,08,080,,09,52,300,,10,58,184,*6B
$GAGSV,3,2,10,11,11,154,,16,05,323,,22,22,255,,23,62,307,*6B
$GAGSV,3,3,10,24,38,037,,26,03,151,*62
$PQGSV,1,1,0,0*43
$PQGSV,1,1,0,0*43
$GLGSA,A,3,72,77,78,79,81,87,88,,,,,,1.4,1.0,0.9*21
$GPVTG,,T,,M,0.0,N,0.0,K,A*23
$GPDTM,P90,,0000.000022,S,00000.000001,W,0.988,W84*5A
$GPRMC,021300.00,A,2959.999719,N,11959.998702,E,0.0,,230721,4.3,W,A*02
$GPGGA,021300.00,2959.999719,N,11959.998702,E,1,07,1.0,-26.9,M,7.0,M,,*44

$GPGSV,3,1,12,02,17,232,,04,05,195,,07,29,042,,08,64,008,*7B
$GPGSV,3,2,12,10,50,307,,13,16,090,,15,03,296,,24,06,306,*78
$GPGSV,3,3,12,25,12,050,,26,20,302,,27,60,288,,28,51,150,*77
$GLGSV,3,1,09,78,50,274,41,77,35,201,41,79,14,327,37,88,43,326,41*6C
$GLGSV,3,2,09,87,30,039,42,81,14,279,41,72,26,066,37,66,04,164,*6A
$GLGSV,3,3,09,71,00,000,*5A
$GAGSV,3,1,10,06,09,127,,07,08,080,,09,52,300,,10,58,184,*6B
$GAGSV,3,2,10,11,11,154,,16,05,323,,22,22,255,,23,62,307,*6B
$GAGSV,3,3,10,24,38,037,,26,03,151,*62
$PQGSV,1,1,0,0*43
$PQGSV,1,1,0,0*43
$GLGSA,A,3,72,77,78,79,81,87,88,,,,,,1.4,1.0,0.9*21
$GPVTG,,T,,M,0.0,N,0.0,K,A*23
$GPDTM,P90,,0000.000022,S,00000.000001,W,0.988,W84*5A
$GPRMC,021301.00,A,2959.999717,N,11959.998703,E,0.0,,230721,4.3,W,A*0C
$GPGGA,021301.00,2959.999717,N,11959.998703,E,1,07,1.0,-26.9,M,7.0,M,,*4A

$GPGSV,3,1,12,02,17,232,,04,05,195,,07,29,042,,08,64,008,*7B
$GPGSV,3,2,12,10,50,307,,13,16,090,,15,03,296,,24,06,306,*78
$GPGSV,3,3,12,25,12,050,,26,20,302,,27,60,288,,28,51,150,*77
$GLGSV,3,1,09,78,50,274,41,77,35,201,41,79,14,327,37,88,43,326,41*6C
$GLGSV,3,2,09,87,30,039,42,81,14,279,41,72,26,066,38,66,04,164,*65
$GLGSV,3,3,09,71,00,000,*5A
$GAGSV,3,1,10,06,09,127,,07,08,080,,09,52,300,,10,58,184,*6B
$GAGSV,3,2,10,11,11,154,,16,05,323,,22,22,255,,23,62,307,*6B
$GAGSV,3,3,10,24,38,037,,26,03,151,*62
$PQGSV,1,1,0,0*43
$PQGSV,1,1,0,0*43
$GLGSA,A,3,72,77,78,79,81,87,88,,,,,,1.4,1.0,0.9*21
$GPVTG,,T,,M,0.0,N,0.0,K,A*23
$GPDTM,P90,,0000.000022,S,00000.000001,W,0.988,W84*5A
$GPRMC,021302.00,A,2959.999716,N,11959.998705,E,0.0,,230721,4.3,W,A*08
$GPGGA,021302.00,2959.999716,N,11959.998705,E,1,07,1.0,-26.9,M,7.0,M,,*4E

$GPGSV,3,1,12,02,17,232,,04,05,195,,07,29,042,,08,64,008,*7B
$GPGSV,3,2,12,10,50,307,,13,16,090,,15,03,296,,24,06,306,*78
$GPGSV,3,3,12,25,12,050,,26,20,302,,27,60,288,,28,51,150,*77
$GLGSV,3,1,09,78,50,274,41,77,35,201,42,79,14,327,37,88,43,326,41*6F
$GLGSV,3,2,09,87,30,039,41,81,14,279,41,72,26,066,38,66,04,164,*66
$GLGSV,3,3,09,71,00,000,*5A
$GAGSV,3,1,10,06,09,127,,07,08,080,,09,52,300,,10,58,184,*6B
$GAGSV,3,2,10,11,11,154,,16,05,323,,22,22,255,,23,62,307,*6B
$GAGSV,3,3,10,24,38,037,,26,03,151,*62
$PQGSV,1,1,0,0*43
$PQGSV,1,1,0,0*43
$GLGSA,A,3,72,77,78,79,81,87,88,,,,,,1.4,1.0,0.9*21
$GPVTG,,T,,M,0.0,N,0.0,K,A*23
$GPDTM,P90,,0000.000022,S,00000.000001,W,0.988,W84*5A
$GPRMC,021303.00,A,2959.999717,N,11959.998704,E,0.0,,230721,4.3,W,A*09
$GPGGA,021303.00,2959.999717,N,11959.998704,E,1,07,1.0,-26.9,M,7.0,M,,*4F

$GPGSV,3,1,12,02,17,232,,04,05,195,,07,29,042,,08,64,008,*7B
$GPGSV,3,2,12,10,50,307,,13,16,090,,15,03,296,,24,06,306,*78
$GPGSV,3,3,12,25,12,050,,26,20,302,,27,60,288,,28,51,150,*77
$GLGSV,3,1,09,78,50,274,41,77,35,201,41,79,14,327,37,88,43,326,41*6C
$GLGSV,3,2,09,87,30,039,41,81,14,279,41,72,26,066,37,66,04,164,*69
$GLGSV,3,3,09,71,00,000,*5A
$GAGSV,3,1,10,06,09,127,,07,08,080,,09,52,300,,10,58,184,*6B
$GAGSV,3,2,10,11,11,154,,16,05,323,,22,22,255,,23,62,307,*6B
$GAGSV,3,3,10,24,38,037,,26,03,151,*62
$PQGSV,1,1,0,0*43
$PQGSV,1,1,0,0*43
$GLGSA,A,3,72,77,78,79,81,87,88,,,,,,1.4,1.0,0.9*21
$GPVTG,,T,,M,0.0,N,0.0,K,A*23
$GPDTM,P90,,0000.000022,S,00000.000001,W,0.988,W84*5A
$GPRMC,021304.00,A,2959.999717,N,11959.998704,E,0.0,,230721,4.3,W,A*0E
$GPGGA,021304.00,2959.999717,N,11959.998704,E,1,07,1.0,-26.9,M,7.0,M,,*48

$GPGSV,3,1,12,02,17,232,,04,05,195,,07,29,042,,08,64,008,*7B
$GPGSV,3,2,12,10,50,307,,13,16,090,,15,03,296,,24,06,306,*78
$GPGSV,3,3,12,25,12,050,,26,20,302,,27,60,288,,28,51,150,*77
$GLGSV,3,1,09,78,50,274,41,77,35,201,41,79,14,327,37,88,43,326,41*6C
$GLGSV,3,2,09,87,30,039,42,81,14,279,41,72,26,066,37,66,04,164,*6A
$GLGSV,3,3,09,71,00,000,*5A
$GAGSV,3,1,10,06,09,127,,07,08,080,,09,52,300,,10,58,184,*6B
$GAGSV,3,2,10,11,11,154,,16,05,323,,22,22,255,,23,62,307,*6B
$GAGSV,3,3,10,24,38,037,,26,03,151,*62
$PQGSV,1,1,0,0*43
$PQGSV,1,1,0,0*43
$GLGSA,A,3,72,77,78,79,81,87,88,,,,,,1.4,1.0,0.9*21
$GPVTG,,T,,M,0.0,N,0.0,K,A*23
$GPDTM,P90,,0000.000022,S,00000.000001,W,0.988,W84*5A
$GPRMC,021305.00,A,2959.999719,N,11959.998704,E,0.0,,230721,4.3,W,A*01
$GPGGA,021305.00,2959.999719,N,11959.998704,E,1,07,1.0,-26.9,M,7.0,M,,*47

$GPGSV,3,1,12,02,17,232,,04,05,195,,07,29,042,,08,64,008,*7B
$GPGSV,3,2,12,10,50,307,,13,16,090,,15,03,296,,24,06,306,*78
$GPGSV,3,3,12,25,12,050,,26,20,302,,27,60,288,,28,51,150,*77
$GLGSV,3,1,09,78,50,274,41,77,35,201,41,79,14,327,37,88,43,326,41*6C
$GLGSV,3,2,09,87,30,039,41,81,14,279,41,72,26,066,37,66,04,164,*69
$GLGSV,3,3,09,71,00,000,*5A
$GAGSV,3,1,10,06,09,127,,07,08,080,,09,52,300,,10,58,184,*6B
$GAGSV,3,2,10,11,11,154,,16,05,323,,22,22,255,,23,62,307,*6B
$GAGSV,3,3,10,24,38,037,,26,03,151,*62
$PQGSV,1,1,0,0*43
$PQGSV,1,1,0,0*43
$GLGSA,A,3,72,77,78,79,81,87,88,,,,,,1.4,1.0,0.9*21
$GPVTG,,T,,M,0.0,N,0.0,K,A*23
$GPDTM,P90,,0000.000022,S,00000.000001,W,0.988,W84*5A
$GPRMC,021306.00,A,2959.999717,N,11959.998705,E,0.0,,230721,4.3,W,A*0D
$GPGGA,021306.00,2959.999717,N,11959.998705,E,1,07,1.0,-26.9,M,7.0,M,,*4B

$GPGSV,3,1,12,02,17,232,,04,05,195,,07,29,042,,08,64,008,*7B
$GPGSV,3,2,12,10,50,307,,13,16,090,,15,03,296,,24,06,306,*78
$GPGSV,3,3,12,25,12,050,,26,20,302,,27,60,288,,28,51,150,*77
$GLGSV,3,1,09,78,50,274,41,77,35,201,41,79,14,327,37,88,43,326,41*6C
$GLGSV,3,2,09,87,30,039,41,81,14,279,41,72,26,066,38,66,04,164,*66
$GLGSV,3,3,09,71,00,000,*5A
$GAGSV,3,1,10,06,09,127,,07,08,080,,09,52,300,,10,58,184,*6B
$GAGSV,3,2,10,11,11,154,,16,05,323,,22,22,255,,23,62,307,*6B
$GAGSV,3,3,10,24,38,037,,26,03,151,*62
$PQGSV,1,1,0,0*43
$PQGSV,1,1,0,0*43
$GLGSA,A,3,72,77,78,79,81,87,88,,,,,,1.4,1.0,0.9*21
$GPVTG,,T,,M,0.0,N,0.0,K,A*23
$GPDTM,P90,,0000.000022,S,00000.000001,W,0.988,W84*5A
$GPRMC,021307.00,A,2959.999716,N,11959.998706,E,0.0,,230721,4.3,W,A*0E
$GPGGA,021307.00,2959.999716,N,11959.998706,E,1,07,1.0,-26.9,M,7.0,M,,*48

$GPGSV,3,1,12,02,17,232,,04,05,195,,07,29,042,,08,64,008,*7B
$GPGSV,3,2,12,10,50,307,,13,16,090,,15,03,296,,24,06,306,*78
$GPGSV,3,3,12,25,12,050,,26,20,302,,27,60,288,,28,51,150,*77
$GLGSV,3,1,09,78,50,274,41,77,35,201,42,79,14,327,37,88,43,326,41*6F
$GLGSV,3,2,09,87,30,039,41,81,14,279,41,72,26,066,38,66,04,164,*66
$GLGSV,3,3,09,71,00,000,*5A
$GAGSV,3,1,10,06,09,127,,07,08,080,,09,52,300,,10,58,184,*6B
$GAGSV,3,2,10,11,11,154,,16,05,323,,22,22,255,,23,62,307,*6B
$GAGSV,3,3,10,24,38,037,,26,03,151,*62
$PQGSV,1,1,0,0*43
$PQGSV,1,1,0,0*43
$GLGSA,A,3,72,77,78,79,81,87,88,,,,,,1.4,1.0,0.9*21
$GPVTG,,T,,M,0.0,N,0.0,K,A*23
$GPDTM,P90,,0000.000022,S,00000.000001,W,0.988,W84*5A
$GPRMC,021308.00,A,2959.999716,N,11959.998708,E,0.0,,230721,4.3,W,A*0F
$GPGGA,021308.00,2959.999716,N,11959.998708,E,1,07,1.0,-26.9,M,7.0,M,,*49

$GPGSV,3,1,12,02,17,232,,04,05,195,,07,29,042,,08,64,008,*7B
$GPGSV,3,2,12,10,50,307,,13,16,090,,15,03,296,,24,06,306,*78
$GPGSV,3,3,12,25,12,050,,26,20,302,,27,60,288,,28,51,150,*77
$GLGSV,3,1,09,78,50,274,41,77,35,201,41,79,14,327,37,88,43,326,41*6C
$GLGSV,3,2,09,87,30,039,41,81,14,279,41,72,26,066,37,66,04,164,*69
$GLGSV,3,3,09,71,00,000,*5A
$GAGSV,3,1,10,06,09,127,,07,08,080,,09,52,300,,10,58,184,*6B
$GAGSV,3,2,10,11,11,154,,16,05,323,,22,22,255,,23,62,307,*6B
$GAGSV,3,3,10,24,38,037,,26,03,151,*62
$PQGSV,1,1,0,0*43
$PQGSV,1,1,0,0*43
$GLGSA,A,3,72,77,78,79,81,87,88,,,,,,1.4,1.0,0.9*21
$GPVTG,,T,,M,0.0,N,0.0,K,A*23
$GPDTM,P90,,0000.000022,S,00000.000001,W,0.988,W84*5A
$GPRMC,021309.00,A,2959.999714,N,11959.998709,E,0.0,,230721,4.3,W,A*0D
$GPGGA,021309.00,2959.999714,N,11959.998709,E,1,07,1.0,-26.9,M,7.0,M,,*4B

$GPGSV,3,1,12,02,17,232,,04,05,195,,07,29,042,,08,64,008,*7B
$GPGSV,3,2,12,10,50,307,,13,16,090,,15,03,296,,24,06,306,*78
$GPGSV,3,3,12,25,12,050,,26,20,302,,27,60,288,,28,51,150,*77
$GLGSV,3,1,09,78,50,274,41,77,35,201,42,79,14,327,37,88,43,326,41*6F
$GLGSV,3,2,09,87,30,039,41,81,14,279,41,72,26,066,38,66,04,164,*66
$GLGSV,3,3,09,71,00,000,*5A
$GAGSV,3,1,10,06,09,127,,07,08,080,,09,52,300,,10,58,184,*6B
$GAGSV,3,2,10,11,11,154,,16,05,323,,22,22,255,,23,62,307,*6B
$GAGSV,3,3,10,24,38,037,,26,03,151,*62
$PQGSV,1,1,0,0*43
$PQGSV,1,1,0,0*43
$GLGSA,A,3,72,77,78,79,81,87,88,,,,,,1.4,1.0,0.9*21
$GPVTG,,T,,M,0.0,N,0.0,K,A*23
$GPDTM,P90,,0000.000022,S,00000.000001,W,0.988,W84*5A
$GPRMC,021310.00,A,2959.999714,N,11959.998712,E,0.0,,230721,4.3,W,A*0F
$GPGGA,021310.00,2959.999714,N,11959.998712,E,1,07,1.0,-26.9,M,7.0,M,,*49

$GPGSV,3,1,12,02,17,232,,04,05,195,,07,29,042,,08,64,008,*7B
$GPGSV,3,2,12,10,50,307,,13,16,090,,15,03,296,,24,06,306,*78
$GPGSV,3,3,12,25,12,050,,26,20,302,,27,60,288,,28,51,150,*77
$GLGSV,3,1,09,78,50,274,41,77,35,201,41,79,14,327,37,88,43,326,41*6C
$GLGSV,3,2,09,87,30,039,41,81,14,279,41,72,26,066,38,66,04,164,*66
$GLGSV,3,3,09,71,00,000,*5A
$GAGSV,3,1,10,06,09,127,,07,08,080,,09,52,300,,10,58,184,*6B
$GAGSV,3,2,10,11,11,154,,16,05,323,,22,22,255,,23,62,307,*6B
$GAGSV,3,3,10,24,38,037,,26,03,151,*62
$PQGSV,1,1,0,0*43
$PQGSV,1,1,0,0*43
$GLGSA,A,3,72,77,78,79,81,87,88,,,,,,1.4,1.0,0.9*21
$GPVTG,,T,,M,0.0,N,0.0,K,A*23
$GPDTM,P90,,0000.000022,S,00000.000001,W,0.988,W84*5A
$GPRMC,021311.00,A,2959.999714,N,11959.998712,E,0.0,,230721,4.3,W,A*0E
$GPGGA,021311.00,2959.999714,N,11959.998712,E,1,07,1.0,-26.9,M,7.0,M,,*48

$GPGSV,3,1,12,02,17,232,,04,05,195,,07,29,042,,08,64,008,*7B
$GPGSV,3,2,12,10,50,307,,13,16,090,,15,03,296,,24,06,306,*78
$GPGSV,3,3,12,25,12,050,,26,20,302,,27,60,288,,28,51,150,*77
$GLGSV,3,1,09,78,50,274,41,77,35,201,41,79,14,327,37,88,43,326,41*6C
$GLGSV,3,2,09,87,30,039,42,81,14,279,41,72,26,066,38,66,04,164,*65
$GLGSV,3,3,09,71,00,000,*5A
$GAGSV,3,1,10,06,09,127,,07,08,080,,09,52,300,,10,58,184,*6B
$GAGSV,3,2,10,11,11,154,,16,05,323,,22,22,255,,23,62,307,*6B
$GAGSV,3,3,10,24,38,037,,26,03,151,*62
$PQGSV,1,1,0,0*43
$PQGSV,1,1,0,0*43
$GLGSA,A,3,72,77,78,79,81,87,88,,,,,,1.4,1.0,0.9*21
$GPVTG,,T,,M,0.0,N,0.0,K,A*23
$GPDTM,P90,,0000.000022,S,00000.000001,W,0.988,W84*5A
$GPRMC,021312.00,A,2959.999714,N,11959.998712,E,0.0,,230721,4.3,W,A*0D
$GPGGA,021312.00,2959.999714,N,11959.998712,E,1,07,1.0,-26.9,M,7.0,M,,*4B

$GPGSV,3,1,12,02,17,232,,04,05,195,,07,29,042,,08,64,008,*7B
$GPGSV,3,2,12,10,50,307,,13,16,090,,15,03,296,,24,06,306,*78
$GPGSV,3,3,12,25,12,050,,26,20,302,,27,60,288,,28,51,150,*77
$GLGSV,3,1,09,78,50,274,41,77,35,201,41,79,14,327,37,88,43,326,41*6C
$GLGSV,3,2,09,87,30,039,42,81,14,279,41,72,26,066,38,66,04,164,*65
$GLGSV,3,3,09,71,00,000,*5A
$GAGSV,3,1,10,06,09,127,,07,08,080,,09,52,300,,10,58,184,*6B
$GAGSV,3,2,10,11,11,154,,16,05,323,,22,22,255,,23,62,307,*6B
$GAGSV,3,3,10,24,38,037,,26,03,151,*62
$PQGSV,1,1,0,0*43
$PQGSV,1,1,0,0*43
$GLGSA,A,3,72,77,78,79,81,87,88,,,,,,1.4,1.0,0.9*21
$GPVTG,,T,,M,0.0,N,0.0,K,A*23
$GPDTM,P90,,0000.000022,S,00000.000001,W,0.988,W84*5A
$GPRMC,021313.00,A,2959.999713,N,11959.998714,E,0.0,,230721,4.3,W,A*0D
$GPGGA,021313.00,2959.999713,N,11959.998714,E,1,07,1.0,-26.9,M,7.0,M,,*4B

$GPGSV,3,1,12,02,17,232,,04,05,195,,07,29,042,,08,64,008,*7B
$GPGSV,3,2,12,10,50,307,,13,16,090,,15,03,296,,24,06,306,*78
$GPGSV,3,3,12,25,12,050,,26,20,302,,27,60,288,,28,51,150,*77
$GLGSV,3,1,09,78,50,274,41,77,35,201,41,79,14,327,37,88,43,326,41*6C
$GLGSV,3,2,09,87,30,039,42,81,14,279,41,72,26,066,38,66,04,164,*65
$GLGSV,3,3,09,71,00,000,*5A
$GAGSV,3,1,10,06,09,127,,07,08,080,,09,52,300,,10,58,184,*6B
$GAGSV,3,2,10,11,11,154,,16,05,323,,22,22,255,,23,62,307,*6B
$GAGSV,3,3,10,24,38,037,,26,03,151,*62
$PQGSV,1,1,0,0*43
$PQGSV,1,1,0,0*43
$GLGSA,A,3,72,77,78,79,81,87,88,,,,,,1.4,1.0,0.9*21
$GPVTG,,T,,M,0.0,N,0.0,K,A*23
$GPDTM,P90,,0000.000022,S,00000.000001,W,0.988,W84*5A
$GPRMC,021314.00,A,2959.999712,N,11959.998714,E,0.0,,230721,4.3,W,A*0B
$GPGGA,021314.00,2959.999712,N,11959.998714,E,1,07,1.0,-26.9,M,7.0,M,,*4D

$GPGSV,3,1,12,02,17,232,,04,05,195,,07,29,042,,08,64,008,*7B
$GPGSV,3,2,12,10,50,307,,13,16,090,,15,03,296,,24,06,306,*78
$GPGSV,3,3,12,25,12,050,,26,20,302,,27,60,288,,28,51,150,*77
$GLGSV,3,1,09,78,50,274,41,77,35,201,41,79,14,327,37,88,43,326,41*6C
$GLGSV,3,2,09,87,30,039,41,81,14,279,41,72,26,066,37,66,04,164,*69
$GLGSV,3,3,09,71,00,000,*5A
$GAGSV,3,1,10,06,09,127,,07,08,080,,09,52,300,,10,58,184,*6B
$GAGSV,3,2,10,11,11,154,,16,05,323,,22,22,255,,23,62,307,*6B
$GAGSV,3,3,10,24,38,037,,26,03,151,*62
$PQGSV,1,1,0,0*43
$PQGSV,1,1,0,0*43
$GLGSA,A,3,72,77,78,79,81,87,88,,,,,,1.4,1.0,0.9*21
$GPVTG,,T,,M,0.0,N,0.0,K,A*23
$GPDTM,P90,,0000.000022,S,00000.000001,W,0.988,W84*5A
$GPRMC,021315.00,A,2959.999712,N,11959.998717,E,0.0,,230721,4.3,W,A*09
$GPGGA,021315.00,2959.999712,N,11959.998717,E,1,07,1.0,-26.9,M,7.0,M,,*4F

$GPGSV,3,1,12,02,17,232,,04,05,195,,07,29,042,,08,64,008,*7B
$GPGSV,3,2,12,10,50,307,,13,16,090,,15,03,296,,24,06,306,*78
$GPGSV,3,3,12,25,12,050,,26,20,302,,27,60,288,,28,51,150,*77
$GLGSV,3,1,09,78,50,274,41,77,35,201,42,79,14,327,37,88,43,326,41*6F
$GLGSV,3,2,09,87,30,039,41,81,14,279,41,72,26,066,38,66,04,164,*66
$GLGSV,3,3,09,71,00,000,*5A
$GAGSV,3,1,10,06,09,127,,07,08,080,,09,52,300,,10,58,184,*6B
$GAGSV,3,2,10,11,11,154,,16,05,323,,22,22,255,,23,62,307,*6B
$GAGSV,3,3,10,24,38,037,,26,03,151,*62
$PQGSV,1,1,0,0*43
$PQGSV,1,1,0,0*43
$GLGSA,A,3,72,77,78,79,81,87,88,,,,,,1.4,1.0,0.9*21
$GPVTG,,T,,M,0.0,N,0.0,K,A*23
$GPDTM,P90,,0000.000022,S,00000.000001,W,0.988,W84*5A
$GPRMC,021316.00,A,2959.999712,N,11959.998717,E,0.0,,230721,4.3,W,A*0A
$GPGGA,021316.00,2959.999712,N,11959.998717,E,1,07,1.0,-26.9,M,7.0,M,,*4C

$GPGSV,3,1,12,02,17,232,,04,05,195,,07,29,042,,08,64,008,*7B
$GPGSV,3,2,12,10,50,307,,13,16,090,,15,03,296,,24,06,306,*78
$GPGSV,3,3,12,25,12,050,,26,20,302,,27,60,288,,28,51,150,*77
$GLGSV,3,1,09,78,50,274,41,77,35,201,42,79,14,327,37,88,43,326,41*6F
$GLGSV,3,2,09,87,30,039,41,81,14,279,41,72,26,066,38,66,04,164,*66
$GLGSV,3,3,09,71,00,000,*5A
$GAGSV,3,1,10,06,09,127,,07,08,080,,09,52,300,,10,58,184,*6B
$GAGSV,3,2,10,11,11,154,,16,05,323,,22,22,255,,23,62,307,*6B
$GAGSV,3,3,10,24,38,037,,26,03,151,*62
$PQGSV,1,1,0,0*43
$PQGSV,1,1,0,0*43
$GLGSA,A,3,72,77,78,79,81,87,88,,,,,,1.4,1.0,0.9*21
$GPVTG,,T,,M,0.0,N,0.0,K,A*23
$GPDTM,P90,,0000.000022,S,00000.000001,W,0.988,W84*5A
$GPRMC,021317.00,A,2959.999713,N,11959.998716,E,0.0,,230721,4.3,W,A*0B
$GPGGA,021317.00,2959.999713,N,11959.998716,E,1,07,1.0,-26.9,M,7.0,M,,*4D

$GPGSV,3,1,12,02,17,232,,04,05,195,,07,29,042,,08,64,008,*7B
$GPGSV,3,2,12,10,50,307,,13,16,090,,15,03,296,,24,06,306,*78
$GPGSV,3,3,12,25,12,050,,26,20,302,,27,60,288,,28,51,150,*77
$GLGSV,3,1,09,78,50,274,41,77,35,201,42,79,14,327,37,88,43,326,41*6F
$GLGSV,3,2,09,87,30,039,41,81,14,279,41,72,26,066,37,66,04,164,*69
$GLGSV,3,3,09,71,00,000,*5A
$GAGSV,3,1,10,06,09,127,,07,08,080,,09,52,300,,10,58,184,*6B
$GAGSV,3,2,10,11,11,154,,16,05,323,,22,22,255,,23,62,307,*6B
$GAGSV,3,3,10,24,38,037,,26,03,151,*62
$PQGSV,1,1,0,0*43
$PQGSV,1,1,0,0*43
$GLGSA,A,3,72,77,78,79,81,87,88,,,,,,1.4,1.0,0.9*21
$GPVTG,,T,,M,0.0,N,0.0,K,A*23
$GPDTM,P90,,0000.000022,S,00000.000001,W,0.988,W84*5A
$GPRMC,021318.00,A,2959.999713,N,11959.998717,E,0.0,,230721,4.3,W,A*05
$GPGGA,021318.00,2959.999713,N,11959.998717,E,1,07,1.0,-26.9,M,7.0,M,,*43

$GPGSV,3,1,12,02,17,232,,04,05,195,,07,29,042,,08,64,008,*7B
$GPGSV,3,2,12,10,50,307,,13,16,090,,15,03,296,,24,06,306,*78
$GPGSV,3,3,12,25,12,050,,26,20,302,,27,60,288,,28,51,150,*77
$GLGSV,3,1,09,78,50,274,41,77,35,201,41,79,14,327,37,88,43,326,42*6F
$GLGSV,3,2,09,87,30,039,41,81,14,279,41,72,26,066,37,66,04,164,*69
$GLGSV,3,3,09,71,00,000,*5A
$GAGSV,3,1,10,06,09,127,,07,08,080,,09,52,300,,10,58,184,*6B
$GAGSV,3,2,10,11,11,154,,16,05,323,,22,22,255,,23,62,307,*6B
$GAGSV,3,3,10,24,38,037,,26,03,151,*62
$PQGSV,1,1,0,0*43
$PQGSV,1,1,0,0*43
$GLGSA,A,3,72,77,78,79,81,87,88,,,,,,1.4,1.0,0.9*21
$GPVTG,,T,,M,0.0,N,0.0,K,A*23
$GPDTM,P90,,0000.000022,S,00000.000001,W,0.988,W84*5A
$GPRMC,021319.00,A,2959.999711,N,11959.998718,E,0.0,,230721,4.3,W,A*09
$GPGGA,021319.00,2959.999711,N,11959.998718,E,1,07,1.0,-26.9,M,7.0,M,,*4F

$GPGSV,3,1,12,02,17,232,,04,05,195,,07,29,042,,08,64,008,*7B
$GPGSV,3,2,12,10,50,307,,13,16,090,,15,03,296,,24,06,306,*78
$GPGSV,3,3,12,25,12,050,,26,20,302,,27,60,288,,28,51,150,*77
$GLGSV,3,1,09,78,50,274,41,77,35,201,41,79,14,327,37,88,43,326,41*6C
$GLGSV,3,2,09,87,30,039,42,81,14,279,41,72,26,066,38,66,04,164,*65
$GLGSV,3,3,09,71,00,000,*5A
$GAGSV,3,1,10,06,09,127,,07,08,080,,09,52,300,,10,58,184,*6B
$GAGSV,3,2,10,11,11,154,,16,05,323,,22,22,255,,23,62,307,*6B
$GAGSV,3,3,10,24,38,037,,26,03,151,*62
$PQGSV,1,1,0,0*43
$PQGSV,1,1,0,0*43
$GLGSA,A,3,72,77,78,79,81,87,88,,,,,,1.4,1.0,0.9*21
$GPVTG,,T,,M,0.0,N,0.0,K,A*23
$GPDTM,P90,,0000.000022,S,00000.000001,W,0.988,W84*5A
$GPRMC,021320.00,A,2959.999713,N,11959.998719,E,0.0,,230721,4.3,W,A*00
$GPGGA,021320.00,2959.999713,N,11959.998719,E,1,07,1.0,-26.9,M,7.0,M,,*46

$GPGSV,3,1,12,02,17,232,,04,05,195,,07,29,042,,08,64,008,*7B
$GPGSV,3,2,12,10,50,307,,13,16,090,,15,03,296,,24,06,306,*78
$GPGSV,3,3,12,25,12,050,,26,20,302,,27,60,288,,28,51,150,*77
$GLGSV,3,1,09,78,50,274,41,77,35,201,41,79,14,327,37,88,43,326,41*6C
$GLGSV,3,2,09,87,30,039,42,81,14,279,41,72,26,066,37,66,04,164,*6A
$GLGSV,3,3,09,71,00,000,*5A
$GAGSV,3,1,10,06,09,127,,07,08,080,,09,52,300,,10,58,184,*6B
$GAGSV,3,2,10,11,11,154,,16,05,323,,22,22,255,,23,62,307,*6B
$GAGSV,3,3,10,24,38,037,,26,03,151,*62
$PQGSV,1,1,0,0*43
$PQGSV,1,1,0,0*43
$GLGSA,A,3,72,77,78,79,81,87,88,,,,,,1.4,1.0,0.9*21
$GPVTG,,T,,M,0.0,N,0.0,K,A*23
$GPDTM,P90,,0000.000022,S,00000.000001,W,0.988,W84*5A
$GPRMC,021321.00,A,2959.999714,N,11959.998718,E,0.0,,230721,4.3,W,A*07
$GPGGA,021321.00,2959.999714,N,11959.998718,E,1,07,1.0,-26.9,M,7.0,M,,*41

$GPGSV,3,1,12,02,17,232,,04,05,195,,07,29,042,,08,64,008,*7B
$GPGSV,3,2,12,10,50,307,,13,16,090,,15,03,296,,24,06,306,*78
$GPGSV,3,3,12,25,12,050,,26,20,302,,27,60,288,,28,51,150,*77
$GLGSV,3,1,09,78,50,274,41,77,35,201,41,79,14,327,37,88,43,326,41*6C
$GLGSV,3,2,09,87,30,039,42,81,14,279,41,72,26,066,38,66,04,164,*65
$GLGSV,3,3,09,71,00,000,*5A
$GAGSV,3,1,10,06,09,127,,07,08,080,,09,52,300,,10,58,184,*6B
$GAGSV,3,2,10,11,11,154,,16,05,323,,22,22,255,,23,62,307,*6B
$GAGSV,3,3,10,24,38,037,,26,03,151,*62
$PQGSV,1,1,0,0*43
$PQGSV,1,1,0,0*43
$GLGSA,A,3,72,77,78,79,81,87,88,,,,,,1.4,1.0,0.9*21
$GPVTG,,T,,M,0.0,N,0.0,K,A*23
$GPDTM,P90,,0000.000022,S,00000.000001,W,0.988,W84*5A
$GPRMC,021322.00,A,2959.999714,N,11959.998720,E,0.0,,230721,4.3,W,A*0F
$GPGGA,021322.00,2959.999714,N,11959.998720,E,1,07,1.0,-26.9,M,7.0,M,,*49

$GPGSV,3,1,12,02,17,232,,04,05,195,,07,29,042,,08,64,008,*7B
$GPGSV,3,2,12,10,50,307,,13,16,090,,15,03,296,,24,06,306,*78
$GPGSV,3,3,12,25,12,050,,26,20,302,,27,60,288,,28,51,150,*77
$GLGSV,3,1,09,78,50,274,41,77,35,201,41,79,14,327,37,88,43,326,41*6C
$GLGSV,3,2,09,87,30,039,41,81,14,279,41,72,26,064,37,66,04,164,*6B
$GLGSV,3,3,09,71,00,000,*5A
$GAGSV,3,1,10,06,09,127,,07,08,080,,09,52,300,,10,58,184,*6B
$GAGSV,3,2,10,11,11,154,,16,05,323,,22,22,255,,23,62,307,*6B
$GAGSV,3,3,10,24,38,037,,26,03,151,*62
$PQGSV,1,1,0,0*43
$PQGSV,1,1,0,0*43
$GLGSA,A,3,72,77,78,79,81,87,88,,,,,,1.4,1.0,0.9*21
$GPVTG,,T,,M,0.0,N,0.0,K,A*23
$GPDTM,P90,,0000.000022,S,00000.000001,W,0.988,W84*5A
$GPRMC,021323.00,A,2959.999713,N,11959.998720,E,0.0,,230721,4.3,W,A*09
$GPGGA,021323.00,2959.999713,N,11959.998720,E,1,07,1.0,-26.9,M,7.0,M,,*4F

$GPGSV,3,1,12,02,17,232,,04,05,195,,07,29,042,,08,64,008,*7B
$GPGSV,3,2,12,10,50,307,,13,16,090,,15,03,296,,24,06,306,*78
$GPGSV,3,3,12,25,12,050,,26,20,302,,27,60,288,,28,51,150,*77
$GLGSV,3,1,09,78,50,274,41,77,35,201,42,79,14,327,37,88,43,326,41*6F
$GLGSV,3,2,09,87,30,039,42,81,14,279,41,72,26,064,37,66,04,164,*68
$GLGSV,3,3,09,71,00,000,*5A
$GAGSV,3,1,10,06,09,127,,07,08,080,,09,52,300,,10,58,184,*6B
$GAGSV,3,2,10,11,11,154,,16,05,323,,22,22,255,,23,62,307,*6B
$GAGSV,3,3,10,24,38,037,,26,03,151,*62
$PQGSV,1,1,0,0*43
$PQGSV,1,1,0,0*43
$GLGSA,A,3,72,77,78,79,81,87,88,,,,,,1.4,1.0,0.9*21
$GPVTG,,T,,M,0.0,N,0.0,K,A*23
$GPDTM,P90,,0000.000022,S,00000.000001,W,0.988,W84*5A
$GPRMC,021324.00,A,2959.999713,N,11959.998721,E,0.0,,230721,4.3,W,A*0F
$GPGGA,021324.00,2959.999713,N,11959.998721,E,1,07,1.0,-26.9,M,7.0,M,,*49

$GPGSV,3,1,12,02,17,232,,04,05,195,,07,29,042,,08,64,008,*7B
$GPGSV,3,2,12,10,50,307,,13,16,090,,15,03,296,,24,06,306,*78
$GPGSV,3,3,12,25,12,050,,26,20,302,,27,60,288,,28,51,150,*77
$GLGSV,3,1,09,78,50,274,41,77,35,201,41,79,14,327,37,88,43,326,41*6C
$GLGSV,3,2,09,87,30,039,42,81,14,279,41,72,26,064,38,66,04,164,*67
$GLGSV,3,3,09,71,00,000,*5A
$GAGSV,3,1,10,06,09,127,,07,08,080,,09,52,300,,10,58,184,*6B
$GAGSV,3,2,10,11,11,154,,16,05,323,,22,22,255,,23,62,307,*6B
$GAGSV,3,3,10,24,38,037,,26,03,151,*62
$PQGSV,1,1,0,0*43
$PQGSV,1,1,0,0*43
$GLGSA,A,3,72,77,78,79,81,87,88,,,,,,1.4,1.0,0.9*21
$GPVTG,,T,,M,0.0,N,0.0,K,A*23
$GPDTM,P90,,0000.000022,S,00000.000001,W,0.988,W84*5A
$GPRMC,021325.00,A,2959.999711,N,11959.998722,E,0.0,,230721,4.3,W,A*0F
$GPGGA,021325.00,2959.999711,N,11959.998722,E,1,07,1.0,-26.9,M,7.0,M,,*49

$GPGSV,3,1,12,02,17,232,,04,05,195,,07,29,042,,08,64,008,*7B
$GPGSV,3,2,12,10,50,307,,13,16,090,,15,03,296,,24,06,306,*78
$GPGSV,3,3,12,25,12,050,,26,20,302,,27,60,288,,28,51,150,*77
$GLGSV,3,1,09,78,50,274,41,77,35,201,42,79,14,327,37,88,43,326,41*6F
$GLGSV,3,2,09,87,30,039,41,81,14,279,41,72,26,064,38,66,04,164,*64
$GLGSV,3,3,09,71,00,000,*5A
$GAGSV,3,1,10,06,09,127,,07,08,080,,09,52,300,,10,58,184,*6B
$GAGSV,3,2,10,11,11,154,,16,05,323,,22,22,255,,23,62,307,*6B
$GAGSV,3,3,10,24,38,037,,26,03,151,*62
$PQGSV,1,1,0,0*43
$PQGSV,1,1,0,0*43
$GLGSA,A,3,72,77,78,79,81,87,88,,,,,,1.4,1.0,0.9*21
$GPVTG,,T,,M,0.0,N,0.0,K,A*23
$GPDTM,P90,,0000.000022,S,00000.000001,W,0.988,W84*5A
$GPRMC,021326.00,A,2959.999712,N,11959.998723,E,0.0,,230721,4.3,W,A*0E
$GPGGA,021326.00,2959.999712,N,11959.998723,E,1,07,1.0,-26.9,M,7.0,M,,*48

$GPGSV,3,1,12,02,17,232,,04,05,195,,07,29,042,,08,64,008,*7B
$GPGSV,3,2,12,10,50,307,,13,16,090,,15,03,296,,24,06,306,*78
$GPGSV,3,3,12,25,12,050,,26,20,302,,27,60,288,,28,51,150,*77
$GLGSV,3,1,09,78,50,274,41,77,35,201,42,79,14,327,37,88,43,326,41*6F
$GLGSV,3,2,09,87,30,039,42,81,14,279,41,72,26,064,38,66,04,164,*67
$GLGSV,3,3,09,71,00,000,*5A
$GAGSV,3,1,10,06,09,127,,07,08,080,,09,52,300,,10,58,184,*6B
$GAGSV,3,2,10,11,11,154,,16,05,323,,22,22,255,,23,62,307,*6B
$GAGSV,3,3,10,24,38,037,,26,03,151,*62
$PQGSV,1,1,0,0*43
$PQGSV,1,1,0,0*43
$GLGSA,A,3,72,77,78,79,81,87,88,,,,,,1.4,1.0,0.9*21
$GPVTG,,T,,M,0.0,N,0.0,K,A*23
$GPDTM,P90,,0000.000022,S,00000.000001,W,0.988,W84*5A
$GPRMC,021327.00,A,2959.999711,N,11959.998723,E,0.0,,230721,4.3,W,A*0C
$GPGGA,021327.00,2959.999711,N,11959.998723,E,1,07,1.0,-26.9,M,7.0,M,,*4A

$GPGSV,3,1,12,02,17,232,,04,05,195,,07,29,042,,08,64,008,*7B
$GPGSV,3,2,12,10,50,307,,13,16,090,,15,03,296,,24,06,306,*78
$GPGSV,3,3,12,25,12,050,,26,20,302,,27,60,288,,28,51,150,*77
$GLGSV,3,1,09,78,50,274,41,77,35,201,41,79,14,327,37,88,43,326,41*6C
$GLGSV,3,2,09,87,30,039,42,81,14,279,41,72,26,064,38,66,04,164,*67
$GLGSV,3,3,09,71,00,000,*5A
$GAGSV,3,1,10,06,09,127,,07,08,080,,09,52,300,,10,58,184,*6B
$GAGSV,3,2,10,11,11,154,,16,05,323,,22,22,255,,23,62,307,*6B
$GAGSV,3,3,10,24,38,037,,26,03,151,*62
$PQGSV,1,1,0,0*43
$PQGSV,1,1,0,0*43
$GLGSA,A,3,72,77,78,79,81,87,88,,,,,,1.4,1.0,0.9*21
$GPVTG,,T,,M,0.0,N,0.0,K,A*23
$GPDTM,P90,,0000.000022,S,00000.000001,W,0.988,W84*5A
$GPRMC,021328.00,A,2959.999711,N,11959.998724,E,0.0,,230721,4.3,W,A*04
$GPGGA,021328.00,2959.999711,N,11959.998724,E,1,07,1.0,-26.9,M,7.0,M,,*42

$GPGSV,3,1,12,02,17,232,,04,05,195,,07,29,042,,08,64,008,*7B
$GPGSV,3,2,12,10,50,307,,13,16,090,,15,03,296,,24,06,306,*78
$GPGSV,3,3,12,25,12,050,,26,20,302,,27,60,288,,28,51,150,*77
$GLGSV,3,1,09,78,50,274,41,77,35,201,42,79,14,327,37,88,43,326,41*6F
$GLGSV,3,2,09,87,30,039,42,81,14,279,41,72,26,064,38,66,04,164,*67
$GLGSV,3,3,09,71,00,000,*5A
$GAGSV,3,1,10,06,09,127,,07,08,080,,09,52,300,,10,58,184,*6B
$GAGSV,3,2,10,11,11,154,,16,05,323,,22,22,255,,23,62,307,*6B
$GAGSV,3,3,10,24,38,037,,26,03,151,*62
$PQGSV,1,1,0,0*43
$PQGSV,1,1,0,0*43
$GLGSA,A,3,72,77,78,79,81,87,88,,,,,,1.4,1.0,0.9*21
$GPVTG,,T,,M,0.0,N,0.0,K,A*23
$GPDTM,P90,,0000.000022,S,00000.000001,W,0.988,W84*5A
$GPRMC,021329.00,A,2959.999711,N,11959.998724,E,0.0,,230721,4.3,W,A*05
$GPGGA,021329.00,2959.999711,N,11959.998724,E,1,07,1.0,-26.9,M,7.0,M,,*43

$GPGSV,3,1,12,02,17,232,,04,05,195,,07,29,042,,08,64,008,*7B
$GPGSV,3,2,12,10,50,307,,13,16,090,,15,03,296,,24,06,306,*78
$GPGSV,3,3,12,25,12,050,,26,20,302,,27,60,288,,28,51,150,*77
$GLGSV,3,1,09,78,50,274,41,77,35,201,41,79,14,327,37,88,43,326,41*6C
$GLGSV,3,2,09,87,30,039,41,81,14,279,41,72,26,064,38,66,04,164,*64
$GLGSV,3,3,09,71,00,000,*5A
$GAGSV,3,1,10,06,09,127,,07,08,080,,09,52,300,,10,58,184,*6B
$GAGSV,3,2,10,11,11,154,,16,05,323,,22,22,255,,23,62,307,*6B
$GAGSV,3,3,10,24,38,037,,26,03,151,*62
$PQGSV,1,1,0,0*43
$PQGSV,1,1,0,0*43
$GLGSA,A,3,72,77,78,79,81,87,88,,,,,,1.4,1.0,0.9*21
$GPVTG,,T,,M,0.0,N,0.0,K,A*23
$GPDTM,P90,,0000.000022,S,00000.000001,W,0.988,W84*5A
$GPRMC,021330.00,A,2959.999711,N,11959.998726,E,0.0,,230721,4.3,W,A*0F
$GPGGA,021330.00,2959.999711,N,11959.998726,E,1,07,1.0,-26.9,M,7.0,M,,*49

$GPGSV,3,1,12,02,17,232,,04,05,195,,07,29,042,,08,64,008,*7B
$GPGSV,3,2,12,10,50,307,,13,16,090,,15,03,296,,24,06,306,*78
$GPGSV,3,3,12,25,12,050,,26,20,302,,27,60,288,,28,51,150,*77
$GLGSV,3,1,09,78,50,274,41,77,35,201,41,79,14,327,37,88,43,326,41*6C
$GLGSV,3,2,09,87,30,039,41,81,14,279,41,72,26,064,38,66,04,164,*64
$GLGSV,3,3,09,71,00,000,*5A
$GAGSV,3,1,10,06,09,127,,07,08,080,,09,52,300,,10,58,184,*6B
$GAGSV,3,2,10,11,11,154,,16,05,323,,22,22,255,,23,62,307,*6B
$GAGSV,3,3,10,24,38,037,,26,03,151,*62
$PQGSV,1,1,0,0*43
$PQGSV,1,1,0,0*43
$GLGSA,A,3,72,77,78,79,81,87,88,,,,,,1.4,1.0,0.9*21
$GPVTG,,T,,M,0.0,N,0.0,K,A*23
$GPDTM,P90,,0000.000022,S,00000.000001,W,0.988,W84*5A
$GPRMC,021331.00,A,2959.999710,N,11959.998724,E,0.0,,230721,4.3,W,A*0D
$GPGGA,021331.00,2959.999710,N,11959.998724,E,1,07,1.0,-26.9,M,7.0,M,,*4B

$GPGSV,3,1,12,02,17,232,,04,05,195,,07,29,042,,08,64,008,*7B
$GPGSV,3,2,12,10,50,307,,13,16,090,,15,03,296,,24,06,306,*78
$GPGSV,3,3,12,25,12,050,,26,20,302,,27,60,288,,28,51,150,*77
$GLGSV,3,1,09,78,50,274,41,77,35,201,41,79,14,327,37,88,43,326,41*6C
$GLGSV,3,2,09,87,30,039,41,81,14,279,41,72,26,064,38,66,04,164,*64
$GLGSV,3,3,09,71,00,000,*5A
$GAGSV,3,1,10,06,09,127,,07,08,080,,09,52,300,,10,58,184,*6B
$GAGSV,3,2,10,11,11,154,,16,05,323,,22,22,255,,23,62,307,*6B
$GAGSV,3,3,10,24,38,037,,26,03,151,*62
$PQGSV,1,1,0,0*43
$PQGSV,1,1,0,0*43
$GLGSA,A,3,72,77,78,79,81,87,88,,,,,,1.4,1.0,0.9*21
$GPVTG,,T,,M,0.0,N,0.0,K,A*23
$GPDTM,P90,,0000.000022,S,00000.000001,W,0.988,W84*5A
$GPRMC,021332.00,A,2959.999711,N,11959.998724,E,0.0,,230721,4.3,W,A*0F
$GPGGA,021332.00,2959.999711,N,11959.998724,E,1,07,1.0,-26.9,M,7.0,M,,*49

$GPGSV,3,1,12,02,17,232,,04,05,195,,07,29,042,,08,64,008,*7B
$GPGSV,3,2,12,10,50,307,,13,16,090,,15,03,296,,24,06,306,*78
$GPGSV,3,3,12,25,12,050,,26,20,302,,27,60,288,,28,51,150,*77
$GLGSV,3,1,09,78,50,274,41,77,35,201,42,79,14,327,37,88,43,326,41*6F
$GLGSV,3,2,09,87,30,039,42,81,14,279,41,72,26,064,37,66,04,164,*68
$GLGSV,3,3,09,71,00,000,*5A
$GAGSV,3,1,10,06,09,127,,07,08,080,,09,52,300,,10,58,184,*6B
$GAGSV,3,2,10,11,11,154,,16,05,323,,22,22,255,,23,62,307,*6B
$GAGSV,3,3,10,24,38,037,,26,03,151,*62
$PQGSV,1,1,0,0*43
$PQGSV,1,1,0,0*43
$GLGSA,A,3,72,77,78,79,81,87,88,,,,,,1.4,1.0,0.9*21
$GPVTG,,T,,M,0.0,N,0.0,K,A*23
$GPDTM,P90,,0000.000022,S,00000.000001,W,0.988,W84*5A
$GPRMC,021333.00,A,2959.999712,N,11959.998722,E,0.0,,230721,4.3,W,A*0B
$GPGGA,021333.00,2959.999712,N,11959.998722,E,1,07,1.0,-26.9,M,7.0,M,,*4D

$GPGSV,3,1,12,02,17,232,,04,05,195,,07,29,042,,08,64,008,*7B
$GPGSV,3,2,12,10,50,307,,13,16,090,,15,03,296,,24,06,306,*78
$GPGSV,3,3,12,25,12,050,,26,20,302,,27,60,288,,28,51,150,*77
$GLGSV,3,1,09,78,50,274,41,77,35,201,41,79,14,327,37,88,43,326,41*6C
$GLGSV,3,2,09,87,30,039,41,81,14,279,41,72,26,064,38,66,04,164,*64
$GLGSV,3,3,09,71,00,000,*5A
$GAGSV,3,1,10,06,09,127,,07,08,080,,09,52,300,,10,58,184,*6B
$GAGSV,3,2,10,11,11,154,,16,05,323,,22,22,255,,23,62,307,*6B
$GAGSV,3,3,10,24,38,037,,26,03,151,*62
$PQGSV,1,1,0,0*43
$PQGSV,1,1,0,0*43
$GLGSA,A,3,72,77,78,79,81,87,88,,,,,,1.4,1.0,0.9*21
$GPVTG,,T,,M,0.0,N,0.0,K,A*23
$GPDTM,P90,,0000.000022,S,00000.000001,W,0.988,W84*5A
$GPRMC,021334.00,A,2959.999712,N,11959.998723,E,0.0,,230721,4.3,W,A*0D
$GPGGA,021334.00,2959.999712,N,11959.998723,E,1,07,1.0,-26.9,M,7.0,M,,*4B

$GPGSV,3,1,12,02,17,232,,04,05,195,,07,29,042,,08,64,008,*7B
$GPGSV,3,2,12,10,50,307,,13,16,090,,15,03,296,,24,06,306,*78
$GPGSV,3,3,12,25,12,050,,26,20,302,,27,60,288,,28,51,150,*77
$GLGSV,3,1,09,78,50,274,41,77,35,201,42,79,14,327,37,88,43,326,41*6F
$GLGSV,3,2,09,87,30,039,42,81,14,279,41,72,26,064,38,66,04,164,*67
$GLGSV,3,3,09,71,00,000,*5A
$GAGSV,3,1,10,06,09,127,,07,08,080,,09,52,300,,10,58,184,*6B
$GAGSV,3,2,10,11,11,154,,16,05,323,,22,22,255,,23,62,307,*6B
$GAGSV,3,3,10,24,38,037,,26,03,151,*62
$PQGSV,1,1,0,0*43
$PQGSV,1,1,0,0*43
$GLGSA,A,3,72,77,78,79,81,87,88,,,,,,1.4,1.0,0.9*21
$GPVTG,,T,,M,0.0,N,0.0,K,A*23
$GPDTM,P90,,0000.000022,S,00000.000001,W,0.988,W84*5A
$GPRMC,021335.00,A,2959.999712,N,11959.998724,E,0.0,,230721,4.3,W,A*0B
$GPGGA,021335.00,2959.999712,N,11959.998724,E,1,07,1.0,-26.9,M,7.0,M,,*4D

$GPGSV,3,1,12,02,17,232,,04,05,195,,07,29,042,,08,64,008,*7B
$GPGSV,3,2,12,10,50,307,,13,16,090,,15,03,296,,24,06,306,*78
$GPGSV,3,3,12,25,12,050,,26,20,302,,27,60,288,,28,51,150,*77
$GLGSV,3,1,09,78,50,274,41,77,35,201,41,79,14,327,37,88,43,326,41*6C
$GLGSV,3,2,09,87,30,039,42,81,14,279,41,72,26,064,38,66,04,164,*67
$GLGSV,3,3,09,71,00,000,*5A
$GAGSV,3,1,10,06,09,127,,07,08,080,,09,52,300,,10,58,184,*6B
$GAGSV,3,2,10,11,11,154,,16,05,323,,22,22,255,,23,62,307,*6B
$GAGSV,3,3,10,24,38,037,,26,03,151,*62
$PQGSV,1,1,0,0*43
$PQGSV,1,1,0,0*43
$GLGSA,A,3,72,77,78,79,81,87,88,,,,,,1.4,1.0,0.9*21
$GPVTG,,T,,M,0.0,N,0.0,K,A*23
$GPDTM,P90,,0000.000022,S,00000.000001,W,0.988,W84*5A
$GPRMC,021336.00,A,2959.999711,N,11959.998726,E,0.0,,230721,4.3,W,A*09
$GPGGA,021336.00,2959.999711,N,11959.998726,E,1,07,1.0,-26.9,M,7.0,M,,*4F

$GPGSV,3,1,12,02,17,232,,04,05,195,,07,29,042,,08,64,008,*7B
$GPGSV,3,2,12,10,50,307,,13,16,090,,15,03,296,,24,06,306,*78
$GPGSV,3,3,12,25,12,050,,26,20,302,,27,60,288,,28,51,150,*77
$GLGSV,3,1,09,78,50,274,41,77,35,201,41,79,14,327,37,88,43,326,41*6C
$GLGSV,3,2,09,87,30,039,42,81,14,279,41,72,26,064,38,66,04,164,*67
$GLGSV,3,3,09,71,00,000,*5A
$GAGSV,3,1,10,06,09,127,,07,08,080,,09,52,300,,10,58,184,*6B
$GAGSV,3,2,10,11,11,154,,16,05,323,,22,22,255,,23,62,307,*6B
$GAGSV,3,3,10,24,38,037,,26,03,151,*62
$PQGSV,1,1,0,0*43
$PQGSV,1,1,0,0*43
$GLGSA,A,3,72,77,78,79,81,87,88,,,,,,1.4,1.0,0.9*21
$GPVTG,,T,,M,0.0,N,0.0,K,A*23
$GPDTM,P90,,0000.000022,S,00000.000001,W,0.988,W84*5A
$GPRMC,021337.00,A,2959.999710,N,11959.998727,E,0.0,,230721,4.3,W,A*08
$GPGGA,021337.00,2959.999710,N,11959.998727,E,1,07,1.0,-26.9,M,7.0,M,,*4E

$GPGSV,3,1,12,02,17,232,,04,05,195,,07,29,042,,08,64,008,*7B
$GPGSV,3,2,12,10,50,307,,13,16,090,,15,03,296,,24,06,306,*78
$GPGSV,3,3,12,25,12,050,,26,20,302,,27,60,288,,28,51,150,*77
$GLGSV,3,1,09,78,50,274,41,77,35,201,41,79,14,327,37,88,43,326,41*6C
$GLGSV,3,2,09,87,30,039,42,81,14,279,41,72,26,064,38,66,04,164,*67
$GLGSV,3,3,09,71,00,000,*5A
$GAGSV,3,1,10,06,09,127,,07,08,080,,09,52,300,,10,58,184,*6B
$GAGSV,3,2,10,11,11,154,,16,05,323,,22,22,255,,23,62,307,*6B
$GAGSV,3,3,10,24,38,037,,26,03,151,*62
$PQGSV,1,1,0,0*43
$PQGSV,1,1,0,0*43
$GLGSA,A,3,72,77,78,79,81,87,88,,,,,,1.4,1.0,0.9*21
$GPVTG,,T,,M,0.0,N,0.0,K,A*23
$GPDTM,P90,,0000.000022,S,00000.000001,W,0.988,W84*5A
$GPRMC,021338.00,A,2959.999710,N,11959.998728,E,0.0,,230721,4.3,W,A*08
$GPGGA,021338.00,2959.999710,N,11959.998728,E,1,07,1.0,-26.9,M,7.0,M,,*4E

$GPGSV,3,1,12,02,17,232,,04,05,195,,07,29,042,,08,64,008,*7B
$GPGSV,3,2,12,10,50,307,,13,16,090,,15,03,296,,24,06,306,*78
$GPGSV,3,3,12,25,12,050,,26,20,302,,27,60,288,,28,51,150,*77
$GLGSV,3,1,09,78,50,274,41,77,35,201,41,79,14,327,37,88,43,326,41*6C
$GLGSV,3,2,09,87,30,039,42,81,14,279,41,72,26,064,38,66,04,164,*67
$GLGSV,3,3,09,71,00,000,*5A
$GAGSV,3,1,10,06,09,127,,07,08,080,,09,52,300,,10,58,184,*6B
$GAGSV,3,2,10,11,11,154,,16,05,323,,22,22,255,,23,62,307,*6B
$GAGSV,3,3,10,24,38,037,,26,03,151,*62
$PQGSV,1,1,0,0*43
$PQGSV,1,1,0,0*43
$GLGSA,A,3,72,77,78,79,81,87,88,,,,,,1.4,1.0,0.9*21
$GPVTG,,T,,M,0.0,N,0.0,K,A*23
$GPDTM,P90,,0000.000022,S,00000.000001,W,0.988,W84*5A
$GPRMC,021339.00,A,2959.999711,N,11959.998727,E,0.0,,230721,4.3,W,A*07
$GPGGA,021339.00,2959.999711,N,11959.998727,E,1,07,1.0,-26.9,M,7.0,M,,*41

$GPGSV,3,1,12,02,17,232,,04,05,195,,07,29,042,,08,64,008,*7B
$GPGSV,3,2,12,10,50,307,,13,16,090,,15,03,296,,24,06,306,*78
$GPGSV,3,3,12,25,12,050,,26,20,302,,27,60,288,,28,51,150,*77
$GLGSV,3,1,09,78,50,274,41,77,35,201,42,79,14,327,37,88,43,326,41*6F
$GLGSV,3,2,09,87,30,039,42,81,14,279,41,72,26,064,38,66,04,164,*67
$GLGSV,3,3,09,71,00,000,*5A
$GAGSV,3,1,10,06,09,127,,07,08,080,,09,52,300,,10,58,184,*6B
$GAGSV,3,2,10,11,11,154,,16,05,323,,22,22,255,,23,62,307,*6B
$GAGSV,3,3,10,24,38,037,,26,03,151,*62
$PQGSV,1,1,0,0*43
$PQGSV,1,1,0,0*43
$GLGSA,A,3,72,77,78,79,81,87,88,,,,,,1.4,1.0,0.9*21
$GPVTG,,T,,M,0.0,N,0.0,K,A*23
$GPDTM,P90,,0000.000022,S,00000.000001,W,0.988,W84*5A
$GPRMC,021340.00,A,2959.999710,N,11959.998730,E,0.0,,230721,4.3,W,A*0E
$GPGGA,021340.00,2959.999710,N,11959.998730,E,1,07,1.0,-26.9,M,7.0,M,,*48

$GPGSV,3,1,12,02,17,232,,04,05,195,,07,29,042,,08,64,008,*7B
$GPGSV,3,2,12,10,50,307,,13,16,090,,15,03,296,,24,06,306,*78
$GPGSV,3,3,12,25,12,050,,26,20,302,,27,60,288,,28,51,150,*77
$GLGSV,3,1,09,78,50,274,41,77,35,201,41,79,14,327,37,88,43,326,41*6C
$GLGSV,3,2,09,87,30,039,42,81,14,279,41,72,26,064,38,66,04,164,*67
$GLGSV,3,3,09,71,00,000,*5A
$GAGSV,3,1,10,06,09,127,,07,08,080,,09,52,300,,10,58,184,*6B
$GAGSV,3,2,10,11,11,154,,16,05,323,,22,22,255,,23,62,307,*6B
$GAGSV,3,3,10,24,38,037,,26,03,151,*62
$PQGSV,1,1,0,0*43
$PQGSV,1,1,0,0*43
$GLGSA,A,3,72,77,78,79,81,87,88,,,,,,1.4,1.0,0.9*21
$GPVTG,,T,,M,0.0,N,0.0,K,A*23
$GPDTM,P90,,0000.000022,S,00000.000001,W,0.988,W84*5A
$GPRMC,021341.00,A,2959.999708,N,11959.998732,E,0.0,,230721,4.3,W,A*04
$GPGGA,021341.00,2959.999708,N,11959.998732,E,1,07,1.0,-26.9,M,7.0,M,,*42

$GPGSV,3,1,12,02,17,232,,04,05,195,,07,29,042,,08,64,008,*7B
$GPGSV,3,2,12,10,50,307,,13,16,090,,15,03,296,,24,06,306,*78
$GPGSV,3,3,12,25,12,050,,26,20,302,,27,60,288,,28,51,150,*77
$GLGSV,3,1,09,78,50,274,41,77,35,201,42,79,14,327,37,88,43,326,41*6F
$GLGSV,3,2,09,87,30,039,42,81,14,279,41,72,26,064,38,66,04,164,*67
$GLGSV,3,3,09,71,00,000,*5A
$GAGSV,3,1,10,06,09,127,,07,08,080,,09,52,300,,10,58,184,*6B
$GAGSV,3,2,10,11,11,154,,16,05,323,,22,22,255,,23,62,307,*6B
$GAGSV,3,3,10,24,38,037,,26,03,151,*62
$PQGSV,1,1,0,0*43
$PQGSV,1,1,0,0*43
$GLGSA,A,3,72,77,78,79,81,87,88,,,,,,1.4,1.0,0.9*21
$GPVTG,,T,,M,0.0,N,0.0,K,A*23
$GPDTM,P90,,0000.000022,S,00000.000001,W,0.988,W84*5A
$GPRMC,021342.00,A,2959.999709,N,11959.998733,E,0.0,,230721,4.3,W,A*07
$GPGGA,021342.00,2959.999709,N,11959.998733,E,1,07,1.0,-26.9,M,7.0,M,,*41

$GPGSV,3,1,12,02,17,232,,04,05,195,,07,29,042,,08,64,008,*7B
$GPGSV,3,2,12,10,50,307,,13,16,090,,15,03,296,,24,06,306,*78
$GPGSV,3,3,12,25,12,050,,26,20,302,,27,60,288,,28,51,150,*77
$GLGSV,3,1,09,78,50,274,41,77,35,201,42,79,14,327,37,88,43,326,41*6F
$GLGSV,3,2,09,87,30,039,41,81,14,279,41,72,26,064,38,66,04,164,*64
$GLGSV,3,3,09,71,00,000,*5A
$GAGSV,3,1,10,06,09,127,,07,08,080,,09,52,300,,10,58,184,*6B
$GAGSV,3,2,10,11,11,154,,16,05,323,,22,22,255,,23,62,307,*6B
$GAGSV,3,3,10,24,38,037,,26,03,151,*62
$PQGSV,1,1,0,0*43
$PQGSV,1,1,0,0*43
$GLGSA,A,3,72,77,78,79,81,87,88,,,,,,1.4,1.0,0.9*21
$GPVTG,,T,,M,0.0,N,0.0,K,A*23
$GPDTM,P90,,0000.000022,S,00000.000001,W,0.988,W84*5A
$GPRMC,021343.00,A,2959.999708,N,11959.998735,E,0.0,,230721,4.3,W,A*01
$GPGGA,021343.00,2959.999708,N,11959.998735,E,1,07,1.0,-26.8,M,7.0,M,,*46

$GPGSV,3,1,12,02,17,232,,04,05,195,,07,29,042,,08,64,008,*7B
$GPGSV,3,2,12,10,50,307,,13,16,090,,15,03,296,,24,06,306,*78
$GPGSV,3,3,12,25,12,050,,26,20,302,,27,60,288,,28,51,150,*77
$GLGSV,3,1,09,78,50,274,41,77,35,201,42,79,14,327,37,88,43,326,41*6F
$GLGSV,3,2,09,87,30,039,42,81,14,279,41,72,26,064,37,66,04,164,*68
$GLGSV,3,3,09,71,00,000,*5A
$GAGSV,3,1,10,06,09,127,,07,08,080,,09,52,300,,10,58,184,*6B
$GAGSV,3,2,10,11,11,154,,16,05,323,,22,22,255,,23,62,307,*6B
$GAGSV,3,3,10,24,38,037,,26,03,151,*62
$PQGSV,1,1,0,0*43
$PQGSV,1,1,0,0*43
$GLGSA,A,3,72,77,78,79,81,87,88,,,,,,1.4,1.0,0.9*21
$GPVTG,,T,,M,0.0,N,0.0,K,A*23
$GPDTM,P90,,0000.000022,S,00000.000001,W,0.988,W84*5A
$GPRMC,021344.00,A,2959.999707,N,11959.998736,E,0.0,,230721,4.3,W,A*0A
$GPGGA,021344.00,2959.999707,N,11959.998736,E,1,07,1.0,-26.8,M,7.0,M,,*4D

$GPGSV,3,1,12,02,17,232,,04,05,195,,07,29,042,,08,64,008,*7B
$GPGSV,3,2,12,10,50,307,,13,16,090,,15,03,296,,24,06,306,*78
$GPGSV,3,3,12,25,12,050,,26,20,302,,27,60,288,,28,51,150,*77
$GLGSV,3,1,09,78,50,274,41,77,35,201,42,79,14,327,37,88,43,326,41*6F
$GLGSV,3,2,09,87,30,039,41,81,14,279,41,72,26,064,37,66,04,164,*6B
$GLGSV,3,3,09,71,00,000,*5A
$GAGSV,3,1,10,06,09,127,,07,08,080,,09,52,300,,10,58,184,*6B
$GAGSV,3,2,10,11,11,154,,16,05,323,,22,22,255,,23,62,307,*6B
$GAGSV,3,3,10,24,38,037,,26,03,151,*62
$PQGSV,1,1,0,0*43
$PQGSV,1,1,0,0*43
$GLGSA,A,3,72,77,78,79,81,87,88,,,,,,1.4,1.0,0.9*21
$GPVTG,,T,,M,0.0,N,0.0,K,A*23
$GPDTM,P90,,0000.000022,S,00000.000001,W,0.988,W84*5A
$GPRMC,021345.00,A,2959.999708,N,11959.998735,E,0.0,,230721,4.3,W,A*07
$GPGGA,021345.00,2959.999708,N,11959.998735,E,1,07,1.0,-26.8,M,7.0,M,,*40

$GPGSV,3,1,12,02,17,232,,04,05,195,,07,29,042,,08,64,008,*7B
$GPGSV,3,2,12,10,50,307,,13,16,090,,15,03,296,,24,06,306,*78
$GPGSV,3,3,12,25,12,050,,26,20,302,,27,60,288,,28,51,150,*77
$GLGSV,3,1,09,78,50,274,41,77,35,201,41,79,14,327,37,88,43,326,41*6C
$GLGSV,3,2,09,87,30,039,42,81,14,279,41,72,26,064,38,66,04,164,*67
$GLGSV,3,3,09,71,00,000,*5A
$GAGSV,3,1,10,06,09,127,,07,08,080,,09,52,300,,10,58,184,*6B
$GAGSV,3,2,10,11,11,154,,16,05,323,,22,22,255,,23,62,307,*6B
$GAGSV,3,3,10,24,38,037,,26,03,151,*62
$PQGSV,1,1,0,0*43
$PQGSV,1,1,0,0*43
$GLGSA,A,3,72,77,78,79,81,87,88,,,,,,1.4,1.0,0.9*21
$GPVTG,,T,,M,0.0,N,0.0,K,A*23
$GPDTM,P90,,0000.000022,S,00000.000001,W,0.988,W84*5A
$GPRMC,021346.00,A,2959.999707,N,11959.998739,E,0.0,,230721,4.3,W,A*07
$GPGGA,021346.00,2959.999707,N,11959.998739,E,1,07,1.0,-26.8,M,7.0,M,,*40

$GPGSV,3,1,12,02,17,232,,04,05,195,,07,29,042,,08,64,008,*7B
$GPGSV,3,2,12,10,50,307,,13,16,090,,15,03,296,,24,06,306,*78
$GPGSV,3,3,12,25,12,050,,26,20,302,,27,60,288,,28,51,150,*77
$GLGSV,3,1,09,78,50,274,41,77,35,201,41,79,14,327,37,88,43,326,42*6F
$GLGSV,3,2,09,87,30,039,42,81,14,279,41,72,26,064,37,66,04,164,*68
$GLGSV,3,3,09,71,00,000,*5A
$GAGSV,3,1,10,06,09,127,,07,08,080,,09,52,300,,10,58,184,*6B
$GAGSV,3,2,10,11,11,154,,16,05,323,,22,22,255,,23,62,307,*6B
$GAGSV,3,3,10,24,38,037,,26,03,151,*62
$PQGSV,1,1,0,0*43
$PQGSV,1,1,0,0*43
$GLGSA,A,3,72,77,78,79,81,87,88,,,,,,1.4,1.0,0.9*21
$GPVTG,,T,,M,0.0,N,0.0,K,A*23
$GPDTM,P90,,0000.000022,S,00000.000001,W,0.988,W84*5A
$GPRMC,021347.00,A,2959.999707,N,11959.998739,E,0.0,,230721,4.3,W,A*06
$GPGGA,021347.00,2959.999707,N,11959.998739,E,1,07,1.0,-26.8,M,7.0,M,,*41

$GPGSV,3,1,12,02,17,232,,04,05,195,,07,29,042,,08,64,008,*7B
$GPGSV,3,2,12,10,50,307,,13,16,090,,15,03,296,,24,06,306,*78
$GPGSV,3,3,12,25,12,050,,26,20,302,,27,60,288,,28,51,150,*77
$GLGSV,3,1,09,78,50,274,41,77,35,201,42,79,14,327,37,88,43,326,41*6F
$GLGSV,3,2,09,87,30,039,41,81,14,279,41,72,26,064,38,66,04,164,*64
$GLGSV,3,3,09,71,00,000,*5A
$GAGSV,3,1,10,06,09,127,,07,08,080,,09,52,300,,10,58,184,*6B
$GAGSV,3,2,10,11,11,154,,16,05,323,,22,22,255,,23,62,307,*6B
$GAGSV,3,3,10,24,38,037,,26,03,151,*62
$PQGSV,1,1,0,0*43
$PQGSV,1,1,0,0*43
$GLGSA,A,3,72,77,78,79,81,87,88,,,,,,1.4,1.0,0.9*21
$GPVTG,,T,,M,0.0,N,0.0,K,A*23
$GPDTM,P90,,0000.000022,S,00000.000001,W,0.988,W84*5A
$GPRMC,021348.00,A,2959.999704,N,11959.998742,E,0.0,,230721,4.3,W,A*06
$GPGGA,021348.00,2959.999704,N,11959.998742,E,1,07,1.0,-26.8,M,7.0,M,,*41

$GPGSV,3,1,12,02,17,232,,04,05,195,,07,29,042,,08,64,008,*7B
$GPGSV,3,2,12,10,50,307,,13,16,090,,15,03,296,,24,06,306,*78
$GPGSV,3,3,12,25,12,050,,26,20,302,,27,60,288,,28,51,150,*77
$GLGSV,3,1,09,78,50,274,41,77,35,201,41,79,14,327,37,66,04,164,41*6B
$GLGSV,3,2,09,88,43,326,41,87,30,039,41,81,14,279,41,72,26,064,38*66
$GLGSV,3,3,09,71,00,000,*5A
$GAGSV,3,1,10,06,09,127,,07,08,080,,09,52,300,,10,58,184,*6B
$GAGSV,3,2,10,11,11,154,,16,05,323,,22,22,255,,23,62,307,*6B
$GAGSV,3,3,10,24,38,037,,26,03,151,*62
$PQGSV,1,1,0,0*43
$PQGSV,1,1,0,0*43
$GLGSA,A,3,72,77,78,79,81,87,88,,,,,,1.4,1.0,0.9*21
$GPVTG,,T,,M,0.0,N,0.0,K,A*23
$GPDTM,P90,,0000.000022,S,00000.000001,W,0.988,W84*5A
$GPRMC,021349.00,A,2959.999703,N,11959.998744,E,0.0,,230721,4.3,W,A*06
$GPGGA,021349.00,2959.999703,N,11959.998744,E,1,07,1.0,-26.8,M,7.0,M,,*41

$GPGSV,3,1,12,02,17,232,,04,05,195,,07,29,042,,08,64,008,*7B
$GPGSV,3,2,12,10,50,307,,13,16,090,,15,03,296,,24,06,306,*78
$GPGSV,3,3,12,25,12,050,,26,20,302,,27,60,288,,28,51,150,*77
$GLGSV,3,1,09,78,50,274,41,77,35,201,41,79,14,327,37,66,04,164,41*6B
$GLGSV,3,2,09,88,43,326,41,87,30,039,42,81,14,279,41,72,26,064,38*65
$GLGSV,3,3,09,71,00,000,*5A
$GAGSV,3,1,10,06,09,127,,07,08,080,,09,52,300,,10,58,184,*6B
$GAGSV,3,2,10,11,11,154,,16,05,323,,22,22,255,,23,62,307,*6B
$GAGSV,3,3,10,24,38,037,,26,03,151,*62
$PQGSV,1,1,0,0*43
$PQGSV,1,1,0,0*43
$GLGSA,A,3,72,77,78,79,81,87,88,,,,,,1.4,1.0,0.9*21
$GPVTG,,T,,M,0.0,N,0.0,K,A*23
$GPDTM,P90,,0000.000022,S,00000.000001,W,0.988,W84*5A
$GPRMC,021350.00,A,2959.999703,N,11959.998744,E,0.0,,230721,4.3,W,A*0E
$GPGGA,021350.00,2959.999703,N,11959.998744,E,1,07,1.0,-26.8,M,7.0,M,,*49

$GPGSV,3,1,12,02,17,232,,04,05,195,,07,29,042,,08,64,008,*7B
$GPGSV,3,2,12,10,50,307,,13,16,090,,15,03,296,,24,06,306,*78
$GPGSV,3,3,12,25,12,050,,26,20,302,,27,60,288,,28,51,150,*77
$GLGSV,3,1,09,78,50,274,41,77,35,201,41,79,14,327,37,66,04,164,41*6B
$GLGSV,3,2,09,88,43,326,41,87,30,039,42,81,14,279,41,72,26,064,37*6A
$GLGSV,3,3,09,71,00,000,*5A
$GAGSV,3,1,10,06,09,127,,07,08,080,,09,52,300,,10,58,184,*6B
$GAGSV,3,2,10,11,11,154,,16,05,323,,22,22,255,,23,62,307,*6B
$GAGSV,3,3,10,24,38,037,,26,03,151,*62
$PQGSV,1,1,0,0*43
$PQGSV,1,1,0,0*43
$GLGSA,A,3,72,77,78,79,81,87,88,,,,,,1.4,1.0,0.9*21
$GPVTG,,T,,M,0.0,N,0.0,K,A*23
$GPDTM,P90,,0000.000022,S,00000.000001,W,0.988,W84*5A
$GPRMC,021351.00,A,2959.999704,N,11959.998747,E,0.0,,230721,4.3,W,A*0B
$GPGGA,021351.00,2959.999704,N,11959.998747,E,1,07,1.0,-26.8,M,7.0,M,,*4C

$GPGSV,3,1,12,02,17,232,,04,05,195,,07,29,042,,08,64,008,*7B
$GPGSV,3,2,12,10,50,307,,13,16,090,,15,03,296,,24,06,306,*78
$GPGSV,3,3,12,25,12,050,,26,20,302,,27,60,288,,28,51,150,*77
$GLGSV,3,1,09,78,50,274,41,77,35,201,41,79,14,327,37,66,04,164,41*6B
$GLGSV,3,2,09,88,43,326,41,87,30,039,42,81,14,279,41,72,26,064,38*65
$GLGSV,3,3,09,71,00,000,*5A
$GAGSV,3,1,10,06,09,127,,07,08,080,,09,52,300,,10,58,184,*6B
$GAGSV,3,2,10,11,11,154,,16,05,323,,22,22,255,,23,62,307,*6B
$GAGSV,3,3,10,24,38,037,,26,03,151,*62
$PQGSV,1,1,0,0*43
$PQGSV,1,1,0,0*43
$GLGSA,A,3,72,77,78,79,81,87,88,,,,,,1.4,1.0,0.9*21
$GPVTG,,T,,M,0.0,N,0.0,K,A*23
$GPDTM,P90,,0000.000022,S,00000.000001,W,0.988,W84*5A
$GPRMC,021352.00,A,2959.999704,N,11959.998748,E,0.0,,230721,4.3,W,A*07
$GPGGA,021352.00,2959.999704,N,11959.998748,E,1,07,1.0,-26.8,M,7.0,M,,*40

$GPGSV,3,1,12,02,17,232,,04,05,195,,07,29,042,,08,64,008,*7B
$GPGSV,3,2,12,10,50,307,,13,16,090,,15,03,296,,24,06,306,*78
$GPGSV,3,3,12,25,12,050,,26,20,302,,27,60,288,,28,51,150,*77
$GLGSV,3,1,09,78,50,274,41,77,35,201,41,79,14,327,37,66,04,164,41*6B
$GLGSV,3,2,09,88,43,326,41,87,30,039,42,81,14,279,41,72,26,064,37*6A
$GLGSV,3,3,09,71,00,000,*5A
$GAGSV,3,1,10,06,09,127,,07,08,080,,09,52,300,,10,58,184,*6B
$GAGSV,3,2,10,11,11,154,,16,05,323,,22,22,255,,23,62,307,*6B
$GAGSV,3,3,10,24,38,037,,26,03,151,*62
$PQGSV,1,1,0,0*43
$PQGSV,1,1,0,0*43
$GLGSA,A,3,72,77,78,79,81,87,88,,,,,,1.4,1.0,0.9*21
$GPVTG,,T,,M,0.0,N,0.0,K,A*23
$GPDTM,P90,,0000.000022,S,00000.000001,W,0.988,W84*5A
$GPRMC,021353.00,A,2959.999704,N,11959.998750,E,0.0,,230721,4.3,W,A*0F
$GPGGA,021353.00,2959.999704,N,11959.998750,E,1,07,1.0,-26.8,M,7.0,M,,*48

$GPGSV,3,1,12,02,17,232,,04,05,195,,07,29,042,,08,64,008,*7B
$GPGSV,3,2,12,10,50,307,,13,16,090,,15,03,296,,24,06,306,*78
$GPGSV,3,3,12,25,12,050,,26,20,302,,27,60,288,,28,51,150,*77
$GLGSV,3,1,09,78,50,274,41,77,35,201,41,79,14,327,37,66,04,164,42*68
$GLGSV,3,2,09,88,43,326,41,87,30,039,42,81,14,279,41,72,26,064,38*65
$GLGSV,3,3,09,71,00,000,*5A
$GAGSV,3,1,10,06,09,127,,07,08,080,,09,52,300,,10,58,184,*6B
$GAGSV,3,2,10,11,11,154,,16,05,323,,22,22,255,,23,62,307,*6B
$GAGSV,3,3,10,24,38,037,,26,03,151,*62
$PQGSV,1,1,0,0*43
$PQGSV,1,1,0,0*43
$GLGSA,A,3,72,77,78,79,81,87,88,,,,,,1.4,1.0,0.9*21
$GPVTG,,T,,M,0.0,N,0.0,K,A*23
$GPDTM,P90,,0000.000022,S,00000.000001,W,0.988,W84*5A
$GPRMC,021354.00,A,2959.999703,N,11959.998750,E,0.0,,230721,4.3,W,A*0F
$GPGGA,021354.00,2959.999703,N,11959.998750,E,1,07,1.0,-26.8,M,7.0,M,,*48

$GPGSV,3,1,12,02,17,232,,04,05,195,,07,29,042,,08,64,008,*7B
$GPGSV,3,2,12,10,50,307,,13,16,090,,15,03,296,,24,06,306,*78
$GPGSV,3,3,12,25,12,050,,26,20,302,,27,60,288,,28,51,150,*77
$GLGSV,3,1,09,78,50,274,41,77,35,201,41,79,14,327,37,66,04,164,42*68
$GLGSV,3,2,09,88,43,326,41,87,30,039,42,81,14,279,41,72,26,064,37*6A
$GLGSV,3,3,09,71,00,000,*5A
$GAGSV,3,1,10,06,09,127,,07,08,080,,09,52,300,,10,58,184,*6B
$GAGSV,3,2,10,11,11,154,,16,05,323,,22,22,255,,23,62,307,*6B
$GAGSV,3,3,10,24,38,037,,26,03,151,*62
$PQGSV,1,1,0,0*43
$PQGSV,1,1,0,0*43
$GLGSA,A,3,72,77,78,79,81,87,88,,,,,,1.4,1.0,0.9*21
$GPVTG,,T,,M,0.0,N,0.0,K,A*23
$GPDTM,P90,,0000.000022,S,00000.000001,W,0.988,W84*5A
$GPRMC,021355.00,A,2959.999703,N,11959.998752,E,0.0,,230721,4.3,W,A*0C
$GPGGA,021355.00,2959.999703,N,11959.998752,E,1,07,1.0,-26.8,M,7.0,M,,*4B

$GPGSV,3,1,12,02,17,232,,04,05,195,,07,29,042,,08,64,008,*7B
$GPGSV,3,2,12,10,50,307,,13,16,090,,15,03,296,,24,06,306,*78
$GPGSV,3,3,12,25,12,050,,26,20,302,,27,60,288,,28,51,150,*77
$GLGSV,3,1,09,78,50,274,41,77,35,201,42,79,14,327,37,66,04,164,42*6B
$GLGSV,3,2,09,88,43,326,41,87,30,039,42,81,14,279,41,72,26,064,38*65
$GLGSV,3,3,09,71,00,000,*5A
$GAGSV,3,1,10,06,09,127,,07,08,080,,09,52,300,,10,58,184,*6B
$GAGSV,3,2,10,11,11,154,,16,05,323,,22,22,255,,23,62,307,*6B
$GAGSV,3,3,10,24,38,037,,26,03,151,*62
$PQGSV,1,1,0,0*43
$PQGSV,1,1,0,0*43
$GLGSA,A,3,72,77,78,79,81,87,88,,,,,,1.4,1.0,0.9*21
$GPVTG,,T,,M,0.0,N,0.0,K,A*23
$GPDTM,P90,,0000.000022,S,00000.000001,W,0.988,W84*5A
$GPRMC,021356.00,A,2959.999702,N,11959.998751,E,0.0,,230721,4.3,W,A*0D
$GPGGA,021356.00,2959.999702,N,11959.998751,E,1,07,1.0,-26.8,M,7.0,M,,*4A

$GPGSV,3,1,12,02,17,232,,04,05,195,,07,29,042,,08,64,008,*7B
$GPGSV,3,2,12,10,50,307,,13,16,090,,15,03,296,,24,06,306,*78
$GPGSV,3,3,12,25,12,050,,26,20,302,,27,60,288,,28,51,150,*77
$GLGSV,3,1,09,78,50,274,41,77,35,201,42,79,14,327,37,66,04,164,41*68
$GLGSV,3,2,09,88,43,326,41,87,30,039,41,81,14,279,41,72,26,064,38*66
$GLGSV,3,3,09,71,00,000,*5A
$GAGSV,3,1,10,06,09,127,,07,08,080,,09,52,300,,10,58,184,*6B
$GAGSV,3,2,10,11,11,154,,16,05,323,,22,22,255,,23,62,307,*6B
$GAGSV,3,3,10,24,38,037,,26,03,151,*62
$PQGSV,1,1,0,0*43
$PQGSV,1,1,0,0*43
$GLGSA,A,3,72,77,78,79,81,87,88,,,,,,1.4,1.0,0.9*21
