$GPGSV,3,1,11,02,33,295,42,04,48,240,42,07,82,075,42,08,50,208,42*71
$GPGSV,3,2,11,13,46,035,42,20,19,123,42,23,24,059,42,25,62,039,42*76
$GPGSV,3,3,11,27,20,219,42,10,02,310,,28,01,180,*41
$GLGSV,2,1,07,78,09,330,40,86,30,026,40,77,59,323,40,75,07,153,40*62
$GLGSV,2,2,07,88,21,246,40,87,59,307,40,71,02,077,*52
$GAGSV,2,1,08,09,14,316,,10,65,334,,11,53,120,,12,03,132,*68
$GAGSV,2,2,08,17,27,039,,23,40,224,,24,81,016,,27,27,127,*64
$PQGSV,1,1,0,0*43
$PQGSV,1,1,0,0*43
$GPGSA,A,3,02,04,07,08,13,20,23,25,27,,,,1.0,0.7,0.7*39
$GLGSA,A,3,75,77,78,86,87,88,,,,,,,1.0,0.7,0.7*23
$GPVTG,,T,,M,0.0,N,0.0,K,A*23
$GPDTM,P90,,0000.000022,S,00000.000001,W,0.988,W84*5A
$GPRMC,000845.00,A,2959.999948,N,11959.999258,E,0.0,,230721,4.3,W,A*0A
$GPGGA,000845.00,2959.999948,N,11959.999258,E,1,12,0.7,-5.8,M,7.0,M,,*7E

$GPGSV,3,1,11,02,33,295,42,04,48,240,42,07,82,075,42,08,50,208,42*71
$GPGSV,3,2,11,13,46,035,42,20,19,123,42,23,24,059,42,25,62,039,42*76
$GPGSV,3,3,11,27,20,219,42,10,02,310,,28,01,180,*41
$GLGSV,2,1,07,78,09,330,40,86,30,026,40,77,59,323,40,75,07,153,40*62
$GLGSV,2,2,07,88,21,246,40,87,59,307,41,71,02,077,*53
$GAGSV,2,1,08,09,14,316,,10,65,334,,11,53,120,,12,03,132,*68
$GAGSV,2,2,08,17,27,039,,23,40,224,,24,81,016,,27,27,127,*64
$PQGSV,1,1,0,0*43
$PQGSV,1,1,0,0*43
$GPGSA,A,3,02,04,07,08,13,20,23,25,27,,,,1.0,0.7,0.7*39
$GLGSA,A,3,75,77,78,86,87,88,,,,,,,1.0,0.7,0.7*23
$GPVTG,,T,,M,0.0,N,0.0,K,A*23
$GPDTM,P90,,0000.000022,S,00000.000001,W,0.988,W84*5A
$GPRMC,000846.00,A,2959.999947,N,11959.999257,E,0.0,,230721,4.3,W,A*09
$GPGGA,000846.00,2959.999947,N,11959.999257,E,1,12,0.7,-5.8,M,7.0,M,,*7D

$GPGSV,3,1,11,02,33,295,42,04,48,240,42,07,82,075,42,08,50,208,42*71
$GPGSV,3,2,11,13,46,035,42,20,19,123,42,23,24,059,42,25,62,039,42*76
$GPGSV,3,3,11,27,20,219,42,10,02,310,,28,01,180,*41
$GLGSV,2,1,07,78,09,330,40,86,30,026,40,77,59,323,41,75,07,153,41*62
$GLGSV,2,2,07,88,21,246,40,87,59,307,41,71,02,077,*53
$GAGSV,2,1,08,09,14,316,,10,65,334,,11,53,120,,12,03,132,*68
$GAGSV,2,2,08,17,27,039,,23,40,224,,24,81,016,,27,27,127,*64
$PQGSV,1,1,0,0*43
$PQGSV,1,1,0,0*43
$GPGSA,A,3,02,04,07,08,13,20,23,25,27,,,,1.0,0.7,0.7*39
$GLGSA,A,3,75,77,78,86,87,88,,,,,,,1.0,0.7,0.7*23
$GPVTG,,T,,M,0.0,N,0.0,K,A*23
$GPDTM,P90,,0000.000022,S,00000.000001,W,0.988,W84*5A
$GPRMC,000847.00,A,2959.999948,N,11959.999258,E,0.0,,230721,4.3,W,A*08
$GPGGA,000847.00,2959.999948,N,11959.999258,E,1,12,0.7,-5.8,M,7.0,M,,*7C

$GPGSV,3,1,11,02,33,295,42,04,48,240,42,07,82,075,42,08,50,208,42*71
$GPGSV,3,2,11,13,46,035,42,20,19,123,42,23,24,059,42,25,62,039,42*76
$GPGSV,3,3,11,27,20,219,42,10,02,310,,28,01,180,*41
$GLGSV,2,1,07,78,09,330,40,86,30,026,40,77,59,323,41,75,07,153,41*62
$GLGSV,2,2,07,88,21,246,40,87,59,307,41,71,02,077,*53
$GAGSV,2,1,08,09,14,316,,10,65,334,,11,53,120,,12,03,132,*68
$GAGSV,2,2,08,17,27,039,,23,40,224,,24,81,016,,27,27,127,*64
$PQGSV,1,1,0,0*43
$PQGSV,1,1,0,0*43
$GPGSA,A,3,02,04,07,08,13,20,23,25,27,,,,1.0,0.7,0.7*39
$GLGSA,A,3,75,77,78,86,87,88,,,,,,,1.0,0.7,0.7*23
$GPVTG,,T,,M,0.0,N,0.0,K,A*23
$GPDTM,P90,,0000.000022,S,00000.000001,W,0.988,W84*5A
$GPRMC,000848.00,A,2959.999950,N,11959.999260,E,0.0,,230721,4.3,W,A*05
$GPGGA,000848.00,2959.999950,N,11959.999260,E,1,12,0.7,-5.9,M,7.0,M,,*70

$GPGSV,3,1,11,02,33,295,42,04,48,240,42,07,82,075,42,08,50,208,42*71
$GPGSV,3,2,11,13,46,035,42,20,19,123,42,23,24,059,42,25,62,039,42*76
$GPGSV,3,3,11,27,20,219,42,10,02,310,,28,01,180,*41
$GLGSV,2,1,07,78,09,330,40,86,30,026,40,77,59,323,40,75,07,153,40*62
$GLGSV,2,2,07,88,21,246,41,87,59,307,41,71,02,077,*52
$GAGSV,2,1,08,09,14,316,,10,65,334,,11,53,120,,12,03,132,*68
$GAGSV,2,2,08,17,27,039,,23,40,224,,24,81,016,,27,27,127,*64
$PQGSV,1,1,0,0*43
$PQGSV,1,1,0,0*43
$GPGSA,A,3,02,04,07,08,13,20,23,25,27,,,,1.0,0.7,0.7*39
$GLGSA,A,3,75,77,78,86,87,88,,,,,,,1.0,0.7,0.7*23
$GPVTG,,T,,M,0.0,N,0.0,K,A*23
$GPDTM,P90,,0000.000022,S,00000.000001,W,0.988,W84*5A
$GPRMC,000849.00,A,2959.999952,N,11959.999259,E,0.0,,230721,4.3,W,A*0C
$GPGGA,000849.00,2959.999952,N,11959.999259,E,1,12,0.7,-5.9,M,7.0,M,,*79

$GPGSV,3,1,11,02,33,295,42,04,48,240,42,07,82,075,42,08,50,208,42*71
$GPGSV,3,2,11,13,46,035,42,20,19,123,42,23,24,059,42,25,62,039,42*76
$GPGSV,3,3,11,27,20,219,42,10,02,310,,28,01,180,*41
$GLGSV,2,1,07,78,09,330,40,86,30,026,40,77,59,323,40,75,07,153,40*62
$GLGSV,2,2,07,88,21,246,40,87,59,307,41,71,02,077,*53
$GAGSV,2,1,08,09,14,316,,10,65,334,,11,53,120,,12,03,132,*68
$GAGSV,2,2,08,17,27,039,,23,40,224,,24,81,016,,27,27,127,*64
$PQGSV,1,1,0,0*43
$PQGSV,1,1,0,0*43
$GPGSA,A,3,02,04,07,08,13,20,23,25,27,,,,1.0,0.7,0.7*39
$GLGSA,A,3,75,77,78,86,87,88,,,,,,,1.0,0.7,0.7*23
$GPVTG,,T,,M,0.0,N,0.0,K,A*23
$GPDTM,P90,,0000.000022,S,00000.000001,W,0.988,W84*5A
$GPRMC,000850.00,A,2959.999950,N,11959.999260,E,0.0,,230721,4.3,W,A*0C
$GPGGA,000850.00,2959.999950,N,11959.999260,E,1,12,0.7,-5.9,M,7.0,M,,*79

$GPGSV,3,1,11,02,33,295,42,04,48,240,42,07,82,075,42,08,50,208,42*71
$GPGSV,3,2,11,13,46,035,42,20,19,123,42,23,24,059,42,25,62,039,42*76
$GPGSV,3,3,11,27,20,219,42,10,02,310,,28,01,180,*41
$GLGSV,2,1,07,78,09,330,40,86,30,026,40,77,59,323,40,75,07,153,40*62
$GLGSV,2,2,07,88,21,246,40,87,59,307,41,71,02,077,*53
$GAGSV,2,1,08,09,14,316,,10,65,334,,11,53,120,,12,03,132,*68
$GAGSV,2,2,08,17,27,039,,23,40,224,,24,81,016,,27,27,127,*64
$PQGSV,1,1,0,0*43
$PQGSV,1,1,0,0*43
$GPGSA,A,3,02,04,07,08,13,20,23,25,27,,,,1.0,0.7,0.7*39
$GLGSA,A,3,75,77,78,86,87,88,,,,,,,1.0,0.7,0.7*23
$GPVTG,,T,,M,0.0,N,0.0,K,A*23
$GPDTM,P90,,0000.000022,S,00000.000001,W,0.988,W84*5A
$GPRMC,000851.00,A,2959.999948,N,11959.999261,E,0.0,,230721,4.3,W,A*05
$GPGGA,000851.00,2959.999948,N,11959.999261,E,1,12,0.7,-5.9,M,7.0,M,,*70

$GPGSV,3,1,11,02,33,295,42,04,48,240,42,07,82,075,42,08,50,208,42*71
$GPGSV,3,2,11,13,46,035,42,20,19,123,42,23,24,059,42,25,62,039,42*76
$GPGSV,3,3,11,27,20,219,42,10,02,310,,28,01,180,*41
$GLGSV,2,1,07,78,09,330,41,86,30,026,40,77,59,323,41,75,07,153,40*62
$GLGSV,2,2,07,88,21,246,40,87,59,307,41,71,02,077,*53
$GAGSV,2,1,08,09,14,316,,10,65,334,,11,53,120,,12,03,132,*68
$GAGSV,2,2,08,17,27,039,,23,40,224,,24,81,016,,27,27,127,*64
$PQGSV,1,1,0,0*43
$PQGSV,1,1,0,0*43
$GPGSA,A,3,02,04,07,08,13,20,23,25,27,,,,1.0,0.7,0.7*39
$GLGSA,A,3,75,77,78,86,87,88,,,,,,,1.0,0.7,0.7*23
$GPVTG,,T,,M,0.0,N,0.0,K,A*23
$GPDTM,P90,,0000.000022,S,00000.000001,W,0.988,W84*5A
$GPRMC,000852.00,A,2959.999947,N,11959.999258,E,0.0,,230721,4.3,W,A*03
$GPGGA,000852.00,2959.999947,N,11959.999258,E,1,12,0.7,-5.9,M,7.0,M,,*76

$GPGSV,3,1,11,02,33,295,42,04,48,240,42,07,82,075,42,08,50,208,42*71
$GPGSV,3,2,11,13,46,035,42,20,19,123,42,23,24,059,42,25,62,039,42*76
$GPGSV,3,3,11,27,20,219,42,10,02,310,,28,01,180,*41
$GLGSV,2,1,07,78,09,330,40,86,30,026,40,77,59,323,41,75,07,153,40*63
$GLGSV,2,2,07,88,21,246,40,87,59,307,41,71,02,077,*53
$GAGSV,2,1,08,09,14,316,,10,65,334,,11,53,120,,12,03,132,*68
$GAGSV,2,2,08,17,27,039,,23,40,224,,24,81,016,,27,27,127,*64
$PQGSV,1,1,0,0*43
$PQGSV,1,1,0,0*43
$GPGSA,A,3,02,04,07,08,13,20,23,25,27,,,,1.0,0.7,0.7*39
$GLGSA,A,3,75,77,78,86,87,88,,,,,,,1.0,0.7,0.7*23
$GPVTG,,T,,M,0.0,N,0.0,K,A*23
$GPDTM,P90,,0000.000022,S,00000.000001,W,0.988,W84*5A
$GPRMC,000853.00,A,2959.999947,N,11959.999259,E,0.0,,230721,4.3,W,A*03
$GPGGA,000853.00,2959.999947,N,11959.999259,E,1,12,0.7,-5.9,M,7.0,M,,*76

$GPGSV,3,1,11,02,33,295,42,04,48,240,42,07,82,075,42,08,50,208,42*71
$GPGSV,3,2,11,13,46,035,42,20,19,123,42,23,24,059,42,25,62,039,42*76
$GPGSV,3,3,11,27,20,219,42,10,02,310,,28,01,180,*41
$GLGSV,2,1,07,78,09,330,40,86,30,026,40,77,59,323,40,75,07,153,40*62
$GLGSV,2,2,07,88,21,246,40,87,59,307,41,71,02,077,*53
$GAGSV,2,1,08,09,14,316,,10,65,334,,11,53,120,,12,03,132,*68
$GAGSV,2,2,08,17,27,039,,23,40,224,,24,81,016,,27,27,127,*64
$PQGSV,1,1,0,0*43
$PQGSV,1,1,0,0*43
$GPGSA,A,3,02,04,07,08,13,20,23,25,27,,,,1.0,0.7,0.7*39
$GLGSA,A,3,75,77,78,86,87,88,,,,,,,1.0,0.7,0.7*23
$GPVTG,,T,,M,0.0,N,0.0,K,A*23
$GPDTM,P90,,0000.000022,S,00000.000001,W,0.988,W84*5A
$GPRMC,000854.00,A,2959.999948,N,11959.999258,E,0.0,,230721,4.3,W,A*0A
$GPGGA,000854.00,2959.999948,N,11959.999258,E,1,12,0.7,-5.9,M,7.0,M,,*7F

$GPGSV,3,1,11,02,33,295,42,04,48,240,42,07,82,075,42,08,50,208,42*71
$GPGSV,3,2,11,13,46,035,42,20,19,123,42,23,24,059,42,25,62,039,42*76
$GPGSV,3,3,11,27,20,219,42,10,02,310,,28,01,180,*41
$GLGSV,2,1,07,78,09,330,40,86,30,026,40,77,59,323,40,75,07,153,40*62
$GLGSV,2,2,07,88,21,246,40,87,59,307,41,71,02,077,*53
$GAGSV,2,1,08,09,14,316,,10,65,334,,11,53,120,,12,03,132,*68
$GAGSV,2,2,08,17,27,039,,23,40,224,,24,81,016,,27,27,127,*64
$PQGSV,1,1,0,0*43
$PQGSV,1,1,0,0*43
$GPGSA,A,3,02,04,07,08,13,20,23,25,27,,,,1.0,0.7,0.7*39
$GLGSA,A,3,75,77,78,86,87,88,,,,,,,1.0,0.7,0.7*23
$GPVTG,,T,,M,0.0,N,0.0,K,A*23
$GPDTM,P90,,0000.000022,S,00000.000001,W,0.988,W84*5A
$GPRMC,000855.00,A,2959.999950,N,11959.999258,E,0.0,,230721,4.3,W,A*02
$GPGGA,000855.00,2959.999950,N,11959.999258,E,1,12,0.7,-5.9,M,7.0,M,,*77

$GPGSV,3,1,11,02,33,295,42,04,48,240,42,07,82,075,42,08,50,208,42*71
$GPGSV,3,2,11,13,46,035,42,20,19,123,42,23,24,059,42,25,62,039,42*76
$GPGSV,3,3,11,27,20,219,42,10,02,310,,28,01,180,*41
$GLGSV,2,1,07,78,09,330,40,86,30,026,40,77,59,323,40,75,07,153,40*62
$GLGSV,2,2,07,88,21,246,40,87,59,307,41,71,02,077,*53
$GAGSV,2,1,08,09,14,316,,10,65,334,,11,53,120,,12,03,132,*68
$GAGSV,2,2,08,17,27,039,,23,40,224,,24,81,016,,27,27,127,*64
$PQGSV,1,1,0,0*43
$PQGSV,1,1,0,0*43
$GPGSA,A,3,02,04,07,08,13,20,23,25,27,,,,1.0,0.7,0.7*39
$GLGSA,A,3,75,77,78,86,87,88,,,,,,,1.0,0.7,0.7*23
$GPVTG,,T,,M,0.0,N,0.0,K,A*23
$GPDTM,P90,,0000.000022,S,00000.000001,W,0.988,W84*5A
$GPRMC,000856.00,A,2959.999947,N,11959.999258,E,0.0,,230721,4.3,W,A*07
$GPGGA,000856.00,2959.999947,N,11959.999258,E,1,12,0.7,-5.9,M,7.0,M,,*72

$GPGSV,3,1,11,02,33,295,42,04,48,240,42,07,82,075,42,08,50,208,42*71
$GPGSV,3,2,11,13,46,035,42,20,19,123,42,23,24,059,42,25,62,039,42*76
$GPGSV,3,3,11,27,20,219,42,10,02,310,,28,01,180,*41
$GLGSV,2,1,07,78,09,330,41,86,30,026,40,77,59,323,40,75,07,153,41*62
$GLGSV,2,2,07,88,21,246,40,87,59,307,41,71,02,077,*53
$GAGSV,2,1,08,09,14,316,,10,65,334,,11,53,120,,12,03,132,*68
$GAGSV,2,2,08,17,27,039,,23,40,224,,24,81,016,,27,27,127,*64
$PQGSV,1,1,0,0*43
$PQGSV,1,1,0,0*43
$GPGSA,A,3,02,04,07,08,13,20,23,25,27,,,,1.0,0.7,0.7*39
$GLGSA,A,3,75,77,78,86,87,88,,,,,,,1.0,0.7,0.7*23
$GPVTG,,T,,M,0.0,N,0.0,K,A*23
$GPDTM,P90,,0000.000022,S,00000.000001,W,0.988,W84*5A
$GPRMC,000857.00,A,2959.999945,N,11959.999256,E,0.0,,230721,4.3,W,A*0A
$GPGGA,000857.00,2959.999945,N,11959.999256,E,1,12,0.7,-5.9,M,7.0,M,,*7F

$GPGSV,3,1,11,02,33,295,42,04,48,240,42,07,82,075,42,08,50,208,42*71
$GPGSV,3,2,11,13,46,035,42,20,19,123,42,23,24,059,42,25,62,039,42*76
$GPGSV,3,3,11,27,20,219,42,10,02,310,,28,01,180,*41
$GLGSV,2,1,07,78,09,330,41,86,30,026,40,77,59,323,41,75,07,153,40*62
$GLGSV,2,2,07,88,21,246,40,87,59,307,40,71,02,077,*52
$GAGSV,2,1,08,09,14,316,,10,65,334,,11,53,120,,12,03,132,*68
$GAGSV,2,2,08,17,27,039,,23,40,224,,24,81,016,,27,27,127,*64
$PQGSV,1,1,0,0*43
$PQGSV,1,1,0,0*43
$GPGSA,A,3,02,04,07,08,13,20,23,25,27,,,,1.0,0.7,0.7*39
$GLGSA,A,3,75,77,78,86,87,88,,,,,,,1.0,0.7,0.7*23
$GPVTG,,T,,M,0.0,N,0.0,K,A*23
$GPDTM,P90,,0000.000022,S,00000.000001,W,0.988,W84*5A
$GPRMC,000858.00,A,2959.999945,N,11959.999255,E,0.0,,230721,4.3,W,A*06
$GPGGA,000858.00,2959.999945,N,11959.999255,E,1,12,0.7,-5.9,M,7.0,M,,*73

$GPGSV,3,1,11,02,33,295,42,04,48,240,42,07,82,075,42,08,50,208,42*71
$GPGSV,3,2,11,13,46,035,42,20,19,123,42,23,24,059,42,25,62,039,42*76
$GPGSV,3,3,11,27,20,219,42,10,02,310,,28,01,180,*41
$GLGSV,2,1,07,78,09,330,41,86,30,026,40,77,59,323,40,75,07,153,40*63
$GLGSV,2,2,07,88,21,246,41,87,59,307,40,71,02,077,*53
$GAGSV,2,1,08,09,14,316,,10,65,334,,11,53,120,,12,03,132,*68
$GAGSV,2,2,08,17,27,039,,23,40,224,,24,81,016,,27,27,127,*64
$PQGSV,1,1,0,0*43
$PQGSV,1,1,0,0*43
$GPGSA,A,3,02,04,07,08,13,20,23,25,27,,,,1.0,0.7,0.7*39
$GLGSA,A,3,75,77,78,86,87,88,,,,,,,1.0,0.7,0.7*23
$GPVTG,,T,,M,0.0,N,0.0,K,A*23
$GPDTM,P90,,0000.000022,S,00000.000001,W,0.988,W84*5A
$GPRMC,000859.00,A,2959.999947,N,11959.999254,E,0.0,,230721,4.3,W,A*04
$GPGGA,000859.00,2959.999947,N,11959.999254,E,1,12,0.7,-5.9,M,7.0,M,,*71

$GPGSV,3,1,11,02,33,295,42,04,48,240,42,07,82,075,42,08,50,208,42*71
$GPGSV,3,2,11,13,46,035,42,20,19,123,42,23,24,059,42,25,62,039,42*76
$GPGSV,3,3,11,27,20,219,42,10,02,310,,28,01,180,*41
$GLGSV,2,1,07,78,09,330,40,86,30,026,40,77,59,323,40,75,07,153,41*63
$GLGSV,2,2,07,88,21,246,40,87,59,307,41,71,02,077,*53
$GAGSV,2,1,08,09,14,316,,10,65,334,,11,53,120,,12,03,132,*68
$GAGSV,2,2,08,17,27,039,,23,40,224,,24,81,016,,27,27,127,*64
$PQGSV,1,1,0,0*43
$PQGSV,1,1,0,0*43
$GPGSA,A,3,02,04,07,08,13,20,23,25,27,,,,1.0,0.7,0.7*39
$GLGSA,A,3,75,77,78,86,87,88,,,,,,,1.0,0.7,0.7*23
$GPVTG,,T,,M,0.0,N,0.0,K,A*23
$GPDTM,P90,,0000.000022,S,00000.000001,W,0.988,W84*5A
$GPRMC,000900.00,A,2959.999946,N,11959.999254,E,0.0,,230721,4.3,W,A*08
$GPGGA,000900.00,2959.999946,N,11959.999254,E,1,12,0.7,-5.9,M,7.0,M,,*7D

$GPGSV,3,1,11,02,33,295,42,04,48,240,42,07,82,075,42,08,50,208,42*71
$GPGSV,3,2,11,13,46,035,42,20,19,123,42,23,24,059,42,25,62,039,42*76
$GPGSV,3,3,11,27,20,219,42,10,02,310,,28,01,180,*41
$GLGSV,2,1,07,78,09,330,41,86,30,026,40,77,59,323,41,75,07,153,40*62
$GLGSV,2,2,07,88,21,246,41,87,59,307,41,71,02,077,*52
$GAGSV,2,1,08,09,14,316,,10,65,334,,11,53,120,,12,03,132,*68
$GAGSV,2,2,08,17,27,039,,23,40,224,,24,81,016,,27,27,127,*64
$PQGSV,1,1,0,0*43
$PQGSV,1,1,0,0*43
$GPGSA,A,3,02,04,07,08,13,20,23,25,27,,,,1.0,0.7,0.7*39
$GLGSA,A,3,75,77,78,86,87,88,,,,,,,1.0,0.7,0.7*23
$GPVTG,,T,,M,0.0,N,0.0,K,A*23
$GPDTM,P90,,0000.000022,S,00000.000001,W,0.988,W84*5A
$GPRMC,000901.00,A,2959.999944,N,11959.999252,E,0.0,,230721,4.3,W,A*0D
$GPGGA,000901.00,2959.999944,N,11959.999252,E,1,12,0.7,-5.9,M,7.0,M,,*78

$GPGSV,3,1,11,02,33,295,42,04,48,240,42,07,82,075,42,08,50,208,42*71
$GPGSV,3,2,11,13,46,035,42,20,19,123,42,23,24,059,42,25,62,039,42*76
$GPGSV,3,3,11,27,20,219,42,10,02,310,,28,01,180,*41
$GLGSV,2,1,07,78,09,330,41,86,30,026,40,77,59,323,40,75,07,153,41*62
$GLGSV,2,2,07,88,21,246,40,87,59,307,41,71,02,077,*53
$GAGSV,2,1,08,09,14,316,,10,65,334,,11,53,120,,12,03,132,*68
$GAGSV,2,2,08,17,27,039,,23,40,224,,24,81,016,,27,27,127,*64
$PQGSV,1,1,0,0*43
$PQGSV,1,1,0,0*43
$GPGSA,A,3,02,04,07,08,13,20,23,25,27,,,,1.0,0.7,0.7*39
$GLGSA,A,3,75,77,78,86,87,88,,,,,,,1.0,0.7,0.7*23
$GPVTG,,T,,M,0.0,N,0.0,K,A*23
$GPDTM,P90,,0000.000022,S,00000.000001,W,0.988,W84*5A
$GPRMC,000902.00,A,2959.999945,N,11959.999252,E,0.0,,230721,4.3,W,A*0F
$GPGGA,000902.00,2959.999945,N,11959.999252,E,1,12,0.7,-5.9,M,7.0,M,,*7A

$GPGSV,3,1,11,02,33,295,42,04,48,240,42,07,82,075,42,08,50,208,42*71
$GPGSV,3,2,11,13,46,035,42,20,19,123,42,23,24,059,42,25,62,039,42*76
$GPGSV,3,3,11,27,20,219,42,10,02,310,,28,01,180,*41
$GLGSV,2,1,07,78,09,330,40,86,30,026,40,77,59,323,41,75,07,153,40*63
$GLGSV,2,2,07,88,21,246,40,87,59,307,40,71,02,077,*52
$GAGSV,2,1,08,09,14,316,,10,65,334,,11,53,120,,12,03,132,*68
$GAGSV,2,2,08,17,27,039,,23,40,224,,24,81,016,,27,27,127,*64
$PQGSV,1,1,0,0*43
$PQGSV,1,1,0,0*43
$GPGSA,A,3,02,04,07,08,13,20,23,25,27,,,,1.0,0.7,0.7*39
$GLGSA,A,3,75,77,78,86,87,88,,,,,,,1.0,0.7,0.7*23
$GPVTG,,T,,M,0.0,N,0.0,K,A*23
$GPDTM,P90,,0000.000022,S,00000.000001,W,0.988,W84*5A
$GPRMC,000903.00,A,2959.999945,N,11959.999252,E,0.0,,230721,4.3,W,A*0E
$GPGGA,000903.00,2959.999945,N,11959.999252,E,1,12,0.7,-5.9,M,7.0,M,,*7B

$GPGSV,3,1,11,02,33,295,42,04,48,240,42,07,82,075,42,08,50,208,42*71
$GPGSV,3,2,11,13,46,035,42,20,19,123,42,23,24,059,42,25,62,039,42*76
$GPGSV,3,3,11,27,20,219,42,10,02,310,,28,01,180,*41
$GLGSV,2,1,07,78,09,330,40,86,30,026,40,77,59,323,40,75,07,153,40*62
$GLGSV,2,2,07,88,21,246,40,87,59,307,40,71,02,077,*52
$GAGSV,2,1,08,09,14,316,,10,65,334,,11,53,120,,12,03,132,*68
$GAGSV,2,2,08,17,27,039,,23,40,224,,24,81,016,,27,27,127,*64
$PQGSV,1,1,0,0*43
$PQGSV,1,1,0,0*43
$GPGSA,A,3,02,04,07,08,13,20,23,25,27,,,,1.0,0.7,0.7*39
$GLGSA,A,3,75,77,78,86,87,88,,,,,,,1.0,0.7,0.7*23
$GPVTG,,T,,M,0.0,N,0.0,K,A*23
$GPDTM,P90,,0000.000022,S,00000.000001,W,0.988,W84*5A
$GPRMC,000904.00,A,2959.999944,N,11959.999252,E,0.0,,230721,4.3,W,A*08
$GPGGA,000904.00,2959.999944,N,11959.999252,E,1,12,0.7,-5.9,M,7.0,M,,*7D

$GPGSV,3,1,11,02,33,295,42,04,48,240,42,07,82,075,42,08,50,208,42*71
$GPGSV,3,2,11,13,46,035,42,20,19,123,42,23,24,059,42,25,62,039,42*76
$GPGSV,3,3,11,27,20,219,42,10,02,310,,28,01,180,*41
$GLGSV,2,1,07,78,09,330,40,86,30,026,40,77,59,323,41,75,07,153,41*62
$GLGSV,2,2,07,88,21,246,40,87,59,307,41,71,02,077,*53
$GAGSV,2,1,08,09,14,316,,10,65,334,,11,53,120,,12,03,132,*68
$GAGSV,2,2,08,17,27,039,,23,40,224,,24,81,016,,27,27,127,*64
$PQGSV,1,1,0,0*43
$PQGSV,1,1,0,0*43
$GPGSA,A,3,02,04,07,08,13,20,23,25,27,,,,1.0,0.7,0.7*39
$GLGSA,A,3,75,77,78,86,87,88,,,,,,,1.0,0.7,0.7*23
$GPVTG,,T,,M,0.0,N,0.0,K,A*23
$GPDTM,P90,,0000.000022,S,00000.000001,W,0.988,W84*5A
$GPRMC,000905.00,A,2959.999943,N,11959.999252,E,0.0,,230721,4.3,W,A*0E
$GPGGA,000905.00,2959.999943,N,11959.999252,E,1,12,0.7,-5.9,M,7.0,M,,*7B

$GPGSV,3,1,11,02,33,295,42,04,48,240,42,07,82,075,42,08,50,208,42*71
$GPGSV,3,2,11,13,46,035,42,20,19,123,42,23,24,059,42,25,62,039,42*76
$GPGSV,3,3,11,27,20,219,42,10,02,310,,28,01,180,*41
$GLGSV,2,1,07,78,09,330,41,86,30,026,40,77,59,323,40,75,07,153,40*63
$GLGSV,2,2,07,88,21,246,40,87,59,307,41,71,02,077,*53
$GAGSV,2,1,08,09,14,316,,10,65,334,,11,53,120,,12,03,132,*68
$GAGSV,2,2,08,17,27,039,,23,40,224,,24,81,016,,27,27,127,*64
$PQGSV,1,1,0,0*43
$PQGSV,1,1,0,0*43
$GPGSA,A,3,02,04,07,08,13,20,23,25,27,,,,1.0,0.7,0.7*39
$GLGSA,A,3,75,77,78,86,87,88,,,,,,,1.0,0.7,0.7*23
$GPVTG,,T,,M,0.0,N,0.0,K,A*23
$GPDTM,P90,,0000.000022,S,00000.000001,W,0.988,W84*5A
$GPRMC,000906.00,A,2959.999942,N,11959.999252,E,0.0,,230721,4.3,W,A*0C
$GPGGA,000906.00,2959.999942,N,11959.999252,E,1,12,0.7,-5.9,M,7.0,M,,*79

$GPGSV,3,1,11,02,33,295,42,04,48,240,42,07,82,075,42,08,50,208,42*71
$GPGSV,3,2,11,13,46,035,42,20,19,123,42,23,24,059,42,25,62,039,42*76
$GPGSV,3,3,11,27,20,219,42,10,02,310,,28,01,180,*41
$GLGSV,2,1,07,78,09,330,40,86,30,026,40,77,59,323,40,75,07,153,40*62
$GLGSV,2,2,07,88,21,246,40,87,59,307,41,71,02,077,*53
$GAGSV,2,1,08,09,14,316,,10,65,334,,11,53,120,,12,03,132,*68
$GAGSV,2,2,08,17,27,039,,23,40,224,,24,81,016,,27,27,127,*64
$PQGSV,1,1,0,0*43
$PQGSV,1,1,0,0*43
$GPGSA,A,3,02,04,07,08,13,20,23,25,27,,,,1.0,0.7,0.7*39
$GLGSA,A,3,75,77,78,86,87,88,,,,,,,1.0,0.7,0.7*23
$GPVTG,,T,,M,0.0,N,0.0,K,A*23
$GPDTM,P90,,0000.000022,S,00000.000001,W,0.988,W84*5A
$GPRMC,000907.00,A,2959.999941,N,11959.999251,E,0.0,,230721,4.3,W,A*0D
$GPGGA,000907.00,2959.999941,N,11959.999251,E,1,12,0.7,-5.9,M,7.0,M,,*78

$GPGSV,3,1,11,02,33,295,42,04,48,240,42,07,82,075,42,08,50,208,42*71
$GPGSV,3,2,11,13,46,035,42,20,19,123,42,23,24,059,42,25,62,039,42*76
$GPGSV,3,3,11,27,20,219,42,10,02,310,,28,01,180,*41
$GLGSV,2,1,07,78,09,330,40,86,30,026,40,77,59,323,41,75,07,153,40*63
$GLGSV,2,2,07,88,21,246,40,87,59,307,41,71,02,077,*53
$GAGSV,2,1,08,09,14,316,,10,65,334,,11,53,120,,12,03,132,*68
$GAGSV,2,2,08,17,27,039,,23,40,224,,24,81,016,,27,27,127,*64
$PQGSV,1,1,0,0*43
$PQGSV,1,1,0,0*43
$GPGSA,A,3,02,04,07,08,13,20,23,25,27,,,,1.0,0.7,0.7*39
$GLGSA,A,3,75,77,78,86,87,88,,,,,,,1.0,0.7,0.7*23
$GPVTG,,T,,M,0.0,N,0.0,K,A*23
$GPDTM,P90,,0000.000022,S,00000.000001,W,0.988,W84*5A
$GPRMC,000908.00,A,2959.999942,N,11959.999248,E,0.0,,230721,4.3,W,A*09
$GPGGA,000908.00,2959.999942,N,11959.999248,E,1,12,0.7,-5.9,M,7.0,M,,*7C

$GPGSV,3,1,11,02,33,295,42,04,48,240,42,07,82,075,42,08,50,208,42*71
$GPGSV,3,2,11,13,46,035,42,20,19,123,42,23,24,059,42,25,62,039,42*76
$GPGSV,3,3,11,27,20,219,42,10,02,310,,28,01,180,*41
$GLGSV,2,1,07,78,09,330,41,86,30,026,40,77,59,323,40,75,07,153,40*63
$GLGSV,2,2,07,88,21,246,40,87,59,307,41,71,02,077,*53
$GAGSV,2,1,08,09,14,316,,10,65,334,,11,53,120,,12,03,132,*68
$GAGSV,2,2,08,17,27,039,,23,40,224,,24,81,016,,27,27,127,*64
$PQGSV,1,1,0,0*43
$PQGSV,1,1,0,0*43
$GPGSA,A,3,02,04,07,08,13,20,23,25,27,,,,1.0,0.7,0.7*39
$GLGSA,A,3,75,77,78,86,87,88,,,,,,,1.0,0.7,0.7*23
$GPVTG,,T,,M,0.0,N,0.0,K,A*23
$GPDTM,P90,,0000.000022,S,00000.000001,W,0.988,W84*5A
$GPRMC,000909.00,A,2959.999941,N,11959.999249,E,0.0,,230721,4.3,W,A*0A
$GPGGA,000909.00,2959.999941,N,11959.999249,E,1,12,0.7,-5.9,M,7.0,M,,*7F

$GPGSV,3,1,11,02,33,295,42,04,48,240,42,07,82,075,42,08,50,208,42*71
$GPGSV,3,2,11,13,46,035,42,20,19,123,42,23,24,059,42,25,62,039,42*76
$GPGSV,3,3,11,27,20,219,42,10,02,310,,28,01,180,*41
$GLGSV,2,1,07,78,09,330,40,86,30,026,40,77,59,323,40,75,07,153,40*62
$GLGSV,2,2,07,88,21,246,40,87,59,307,41,71,02,077,*53
$GAGSV,2,1,08,27,27,127,45,09,14,316,,10,65,334,,11,53,120,*6D
$GAGSV,2,2,08,12,03,132,,17,27,039,,23,40,224,,24,81,016,*60
$PQGSV,1,1,0,0*43
$PQGSV,1,1,0,0*43
$GPGSA,A,3,02,04,07,08,13,20,23,25,27,,,,1.0,0.7,0.7*39
$GLGSA,A,3,75,77,78,86,87,88,,,,,,,1.0,0.7,0.7*23
$GPVTG,,T,,M,0.0,N,0.0,K,A*23
$GPDTM,P90,,0000.000022,S,00000.000001,W,0.988,W84*5A
$GPRMC,000910.00,A,2959.999953,N,11959.999230,E,0.0,,230721,4.3,W,A*0F
$GPGGA,000910.00,2959.999953,N,11959.999230,E,1,12,0.7,-5.9,M,7.0,M,,*7A

$GPGSV,3,1,11,02,33,295,42,04,48,240,42,07,82,075,42,08,50,208,42*71
$GPGSV,3,2,11,13,46,035,42,20,19,123,42,23,24,059,42,25,62,039,42*76
$GPGSV,3,3,11,27,20,219,42,10,02,310,,28,01,180,*41
$GLGSV,2,1,07,78,09,330,40,86,30,026,40,77,59,323,40,75,07,153,40*62
$GLGSV,2,2,07,88,21,246,40,87,59,307,41,71,02,077,*53
$GAGSV,2,1,08,27,27,127,46,09,14,316,,10,65,334,,11,53,120,*6E
$GAGSV,2,2,08,12,03,132,,17,27,039,,23,40,224,,24,81,016,*60
$PQGSV,1,1,0,0*43
$PQGSV,1,1,0,0*43
$GPGSA,A,3,02,04,07,08,13,20,23,25,27,,,,1.0,0.7,0.7*39
$GLGSA,A,3,75,77,78,86,87,88,,,,,,,1.0,0.7,0.7*23
$GAGSA,A,3,27,,,,,,,,,,,,1.0,0.7,0.7*27
$GPVTG,,T,,M,0.0,N,0.0,K,A*23
$GPDTM,P90,,0000.000022,S,00000.000001,W,0.988,W84*5A
$GPRMC,000911.00,A,2959.999952,N,11959.999233,E,0.0,,230721,4.3,W,A*0C
$GPGGA,000911.00,2959.999952,N,11959.999233,E,1,12,0.7,-5.9,M,7.0,M,,*79

$GPGSV,3,1,11,02,33,295,42,04,48,240,42,07,82,075,42,08,50,208,42*71
$GPGSV,3,2,11,13,46,035,42,20,19,123,42,23,24,059,42,25,62,039,42*76
$GPGSV,3,3,11,27,20,219,42,10,02,310,,28,01,180,*41
$GLGSV,2,1,07,78,09,330,40,86,30,026,40,77,59,323,41,75,07,153,41*62
$GLGSV,2,2,07,88,21,246,40,87,59,307,41,71,02,077,*53
$GAGSV,2,1,08,27,27,127,45,09,14,316,,10,65,334,,11,53,120,*6D
$GAGSV,2,2,08,12,03,132,,17,27,039,,23,40,224,,24,81,016,*60
$PQGSV,1,1,0,0*43
$PQGSV,1,1,0,0*43
$GPGSA,A,3,02,04,07,08,13,20,23,25,27,,,,1.0,0.7,0.7*39
$GLGSA,A,3,75,77,78,86,87,88,,,,,,,1.0,0.7,0.7*23
$GAGSA,A,3,27,,,,,,,,,,,,1.0,0.7,0.7*27
$GPVTG,,T,,M,0.0,N,0.0,K,A*23
$GPDTM,P90,,0000.000022,S,00000.000001,W,0.988,W84*5A
$GPRMC,000912.00,A,2959.999947,N,11959.999238,E,0.0,,230721,4.3,W,A*00
$GPGGA,000912.00,2959.999947,N,11959.999238,E,1,12,0.7,-5.9,M,7.0,M,,*75

$GPGSV,3,1,11,02,33,295,42,04,48,240,42,07,82,075,42,08,50,208,42*71
$GPGSV,3,2,11,13,46,035,42,20,19,123,42,23,24,059,42,25,62,039,42*76
$GPGSV,3,3,11,27,20,219,42,10,02,310,,28,01,180,*41
$GLGSV,2,1,07,78,09,330,40,86,30,026,40,77,59,323,40,75,07,153,41*63
$GLGSV,2,2,07,88,21,246,40,87,59,307,41,71,02,077,*53
$GAGSV,2,1,08,27,27,127,45,09,14,316,,10,65,334,,11,53,120,*6D
$GAGSV,2,2,08,12,03,132,,17,27,039,,23,40,224,,24,81,016,*60
$PQGSV,1,1,0,0*43
$PQGSV,1,1,0,0*43
$GPGSA,A,3,02,04,07,08,13,20,23,25,27,,,,1.0,0.7,0.7*39
$GLGSA,A,3,75,77,78,86,87,88,,,,,,,1.0,0.7,0.7*23
$GAGSA,A,3,27,,,,,,,,,,,,1.0,0.7,0.7*27
$GPVTG,,T,,M,0.0,N,0.0,K,A*23
$GPDTM,P90,,0000.000022,S,00000.000001,W,0.988,W84*5A
$GPRMC,000913.00,A,2959.999946,N,11959.999237,E,0.0,,230721,4.3,W,A*0F
$GPGGA,000913.00,2959.999946,N,11959.999237,E,1,12,0.7,-5.9,M,7.0,M,,*7A

$GPGSV,3,1,11,02,33,295,42,04,48,240,42,07,82,075,42,08,50,208,42*71
$GPGSV,3,2,11,13,46,035,42,20,19,123,42,23,24,059,42,25,62,039,42*76
$GPGSV,3,3,11,27,20,219,42,10,02,310,,28,01,180,*41
$GLGSV,2,1,07,78,09,330,40,86,30,026,40,77,59,323,40,75,07,153,41*63
$GLGSV,2,2,07,88,21,246,40,87,59,307,41,71,02,077,*53
$GAGSV,2,1,08,27,27,127,46,09,14,316,,10,65,334,,11,53,120,*6E
$GAGSV,2,2,08,12,03,132,,17,27,039,,23,40,224,,24,81,016,*60
$PQGSV,1,1,0,0*43
$PQGSV,1,1,0,0*43
$GPGSA,A,3,02,04,07,08,13,20,23,25,27,,,,1.0,0.7,0.7*39
$GLGSA,A,3,75,77,78,86,87,88,,,,,,,1.0,0.7,0.7*23
$GAGSA,A,3,27,,,,,,,,,,,,1.0,0.7,0.7*27
$GPVTG,,T,,M,0.0,N,0.0,K,A*23
$GPDTM,P90,,0000.000022,S,00000.000001,W,0.988,W84*5A
$GPRMC,000914.00,A,2959.999951,N,11959.999235,E,0.0,,230721,4.3,W,A*0C
$GPGGA,000914.00,2959.999951,N,11959.999235,E,1,12,0.7,-5.9,M,7.0,M,,*79

$GPGSV,3,1,11,02,33,295,42,04,48,240,42,07,82,075,42,08,50,208,42*71
$GPGSV,3,2,11,13,46,035,42,20,19,123,42,23,24,059,42,25,62,039,42*76
$GPGSV,3,3,11,27,20,219,42,10,02,310,,28,01,180,*41
$GLGSV,2,1,07,78,09,330,40,86,30,026,40,77,59,323,40,75,07,153,41*63
$GLGSV,2,2,07,88,21,246,40,87,59,307,41,71,02,077,*53
$GAGSV,2,1,08,27,27,127,46,09,14,316,,10,65,334,,11,53,120,*6E
$GAGSV,2,2,08,12,03,132,,17,27,039,,23,40,224,,24,81,016,*60
$PQGSV,1,1,0,0*43
$PQGSV,1,1,0,0*43
$GPGSA,A,3,02,04,07,08,13,20,23,25,27,,,,1.0,0.7,0.7*39
$GLGSA,A,3,75,77,78,86,87,88,,,,,,,1.0,0.7,0.7*23
$GAGSA,A,3,27,,,,,,,,,,,,1.0,0.7,0.7*27
$GPVTG,,T,,M,0.0,N,0.0,K,A*23
$GPDTM,P90,,0000.000022,S,00000.000001,W,0.988,W84*5A
$GPRMC,000915.00,A,2959.999953,N,11959.999233,E,0.0,,230721,4.3,W,A*09
$GPGGA,000915.00,2959.999953,N,11959.999233,E,1,12,0.7,-5.9,M,7.0,M,,*7C

$GPGSV,3,1,11,02,33,295,42,04,48,240,42,07,82,075,42,08,50,208,42*71
$GPGSV,3,2,11,13,46,035,42,20,19,123,42,23,24,059,42,25,62,039,42*76
$GPGSV,3,3,11,27,20,219,42,10,02,310,,28,01,180,*41
$GLGSV,2,1,07,78,09,330,41,86,30,026,40,77,59,323,40,75,07,153,40*63
$GLGSV,2,2,07,88,21,246,40,87,59,307,41,71,02,077,*53
$GAGSV,2,1,08,27,27,127,46,09,14,316,,10,65,334,,11,53,120,*6E
$GAGSV,2,2,08,12,03,132,,17,27,039,,23,40,224,,24,81,016,*60
$PQGSV,1,1,0,0*43
$PQGSV,1,1,0,0*43
$GPGSA,A,3,02,04,07,08,13,20,23,25,27,,,,1.0,0.7,0.7*39
$GLGSA,A,3,75,77,78,86,87,88,,,,,,,1.0,0.7,0.7*23
$GAGSA,A,3,27,,,,,,,,,,,,1.0,0.7,0.7*27
$GPVTG,,T,,M,0.0,N,0.0,K,A*23
$GPDTM,P90,,0000.000022,S,00000.000001,W,0.988,W84*5A
$GPRMC,000916.00,A,2959.999952,N,11959.999231,E,0.0,,230721,4.3,W,A*09
$GPGGA,000916.00,2959.999952,N,11959.999231,E,1,12,0.7,-5.9,M,7.0,M,,*7C

$GPGSV,3,1,11,02,33,295,42,04,48,240,42,07,82,075,42,08,50,208,42*71
$GPGSV,3,2,11,13,46,035,42,20,19,123,42,23,24,059,42,25,62,039,42*76
$GPGSV,3,3,11,27,20,219,42,10,02,310,,28,01,180,*41
$GLGSV,2,1,07,78,09,330,40,86,30,026,40,77,59,323,40,75,07,153,41*63
$GLGSV,2,2,07,88,21,246,41,87,59,307,41,71,02,077,*52
$GAGSV,2,1,08,27,27,127,46,09,14,316,,10,65,334,,11,53,120,*6E
$GAGSV,2,2,08,12,03,132,,17,27,039,,23,40,224,,24,81,016,*60
$PQGSV,1,1,0,0*43
$PQGSV,1,1,0,0*43
$GPGSA,A,3,02,04,07,08,13,20,23,25,27,,,,1.0,0.7,0.7*39
$GLGSA,A,3,75,77,78,86,87,88,,,,,,,1.0,0.7,0.7*23
$GAGSA,A,3,27,,,,,,,,,,,,1.0,0.7,0.7*27
$GPVTG,,T,,M,0.0,N,0.0,K,A*23
$GPDTM,P90,,0000.000022,S,00000.000001,W,0.988,W84*5A
$GPRMC,000917.00,A,2959.999952,N,11959.999229,E,0.0,,230721,4.3,W,A*01
$GPGGA,000917.00,2959.999952,N,11959.999229,E,1,12,0.7,-5.9,M,7.0,M,,*74

$GPGSV,3,1,11,02,33,295,42,04,48,240,42,07,82,075,42,08,50,208,42*71
$GPGSV,3,2,11,13,46,035,42,20,19,123,42,23,24,059,42,25,62,039,42*76
$GPGSV,3,3,11,27,20,219,42,10,02,310,,28,01,180,*41
$GLGSV,2,1,07,78,09,330,40,86,30,026,40,77,59,323,40,75,07,153,40*62
$GLGSV,2,2,07,88,21,246,40,87,59,307,41,71,02,077,*53
$GAGSV,2,1,08,27,27,127,46,09,14,316,,10,65,334,,11,53,120,*6E
$GAGSV,2,2,08,12,03,132,,17,27,039,,23,40,224,,24,81,016,*60
$PQGSV,1,1,0,0*43
$PQGSV,1,1,0,0*43
$GPGSA,A,3,02,04,07,08,13,20,23,25,27,,,,1.0,0.7,0.7*39
$GLGSA,A,3,75,77,78,86,87,88,,,,,,,1.0,0.7,0.7*23
$GAGSA,A,3,27,,,,,,,,,,,,1.0,0.7,0.7*27
$GPVTG,,T,,M,0.0,N,0.0,K,A*23
$GPDTM,P90,,0000.000022,S,00000.000001,W,0.988,W84*5A
$GPRMC,000918.00,A,2959.999955,N,11959.999228,E,0.0,,230721,4.3,W,A*08
$GPGGA,000918.00,2959.999955,N,11959.999228,E,1,12,0.7,-5.9,M,7.0,M,,*7D

$GPGSV,3,1,11,02,33,295,42,04,48,240,42,07,82,075,42,08,50,208,42*71
$GPGSV,3,2,11,13,46,035,42,20,19,123,42,23,24,059,42,25,62,039,42*76
$GPGSV,3,3,11,27,20,219,42,10,02,310,,28,01,180,*41
$GLGSV,2,1,07,78,09,330,40,86,30,026,40,77,59,323,40,75,07,153,40*62
$GLGSV,2,2,07,88,21,246,40,87,59,307,41,71,02,077,*53
$GAGSV,2,1,08,27,27,127,46,09,14,316,,10,65,334,,11,53,120,*6E
$GAGSV,2,2,08,12,03,132,,17,27,039,,23,40,224,,24,81,016,*60
$PQGSV,1,1,0,0*43
$PQGSV,1,1,0,0*43
$GPGSA,A,3,02,04,07,08,13,20,23,25,27,,,,1.0,0.7,0.7*39
$GLGSA,A,3,75,77,78,86,87,88,,,,,,,1.0,0.7,0.7*23
$GAGSA,A,3,27,,,,,,,,,,,,1.0,0.7,0.7*27
$GPVTG,,T,,M,0.0,N,0.0,K,A*23
$GPDTM,P90,,0000.000022,S,00000.000001,W,0.988,W84*5A
$GPRMC,000919.00,A,2959.999954,N,11959.999227,E,0.0,,230721,4.3,W,A*07
$GPGGA,000919.00,2959.999954,N,11959.999227,E,1,12,0.7,-5.9,M,7.0,M,,*72

$GPGSV,3,1,11,02,33,295,42,04,48,240,42,07,82,075,42,08,50,208,42*71
$GPGSV,3,2,11,13,46,035,42,20,19,123,42,23,24,059,42,25,62,039,42*76
$GPGSV,3,3,11,27,20,219,42,10,02,310,,28,01,180,*41
$GLGSV,2,1,07,78,09,330,40,86,30,026,40,77,59,323,40,75,07,153,40*62
$GLGSV,2,2,07,88,21,246,40,87,59,307,41,71,02,077,*53
$GAGSV,2,1,08,27,27,127,46,09,14,316,,10,65,334,,11,53,120,*6E
$GAGSV,2,2,08,12,03,132,,17,27,039,,23,40,224,,24,81,016,*60
$PQGSV,1,1,0,0*43
$PQGSV,1,1,0,0*43
$GPGSA,A,3,02,04,07,08,13,20,23,25,27,,,,1.0,0.7,0.7*39
$GLGSA,A,3,75,77,78,86,87,88,,,,,,,1.0,0.7,0.7*23
$GAGSA,A,3,27,,,,,,,,,,,,1.0,0.7,0.7*27
$GPVTG,,T,,M,0.0,N,0.0,K,A*23
$GPDTM,P90,,0000.000022,S,00000.000001,W,0.988,W84*5A
$GPRMC,000920.00,A,2959.999956,N,11959.999227,E,0.0,,230721,4.3,W,A*0F
$GPGGA,000920.00,2959.999956,N,11959.999227,E,1,12,0.7,-5.9,M,7.0,M,,*7A

$GPGSV,3,1,11,02,33,295,42,04,48,240,42,07,82,075,42,08,50,208,42*71
$GPGSV,3,2,11,13,46,035,42,20,19,123,42,23,24,059,42,25,62,039,42*76
$GPGSV,3,3,11,27,20,219,42,10,02,310,,28,01,180,*41
$GLGSV,2,1,07,78,09,330,40,86,30,026,40,77,59,323,40,75,07,153,40*62
$GLGSV,2,2,07,88,21,246,40,87,59,307,41,71,02,077,*53
$GAGSV,2,1,08,27,27,127,46,09,14,316,,10,65,334,,11,53,120,*6E
$GAGSV,2,2,08,12,03,132,,17,27,039,,23,40,224,,24,81,016,*60
$PQGSV,1,1,0,0*43
$PQGSV,1,1,0,0*43
$GPGSA,A,3,02,04,07,08,13,20,23,25,27,,,,1.0,0.7,0.7*39
$GLGSA,A,3,75,77,78,86,87,88,,,,,,,1.0,0.7,0.7*23
$GAGSA,A,3,27,,,,,,,,,,,,1.0,0.7,0.7*27
$GPVTG,,T,,M,0.0,N,0.0,K,A*23
$GPDTM,P90,,0000.000022,S,00000.000001,W,0.988,W84*5A
$GPRMC,000921.00,A,2959.999957,N,11959.999228,E,0.0,,230721,4.3,W,A*00
$GPGGA,000921.00,2959.999957,N,11959.999228,E,1,12,0.7,-5.9,M,7.0,M,,*75

$GPGSV,3,1,11,02,33,295,42,04,48,240,42,07,82,075,42,08,50,208,42*71
$GPGSV,3,2,11,13,46,035,42,20,19,123,42,23,24,059,42,25,62,039,42*76
$GPGSV,3,3,11,27,20,219,42,10,02,310,,28,01,180,*41
$GLGSV,2,1,07,78,09,330,40,86,30,026,40,77,59,323,40,75,07,153,41*63
$GLGSV,2,2,07,88,21,246,40,87,59,307,41,71,02,077,*53
$GAGSV,2,1,08,27,27,127,46,09,14,316,,10,65,334,,11,53,120,*6E
$GAGSV,2,2,08,12,03,132,,17,27,039,,23,40,224,,24,81,016,*60
$PQGSV,1,1,0,0*43
$PQGSV,1,1,0,0*43
$GPGSA,A,3,02,04,07,08,13,20,23,25,27,,,,1.0,0.7,0.7*39
$GLGSA,A,3,75,77,78,86,87,88,,,,,,,1.0,0.7,0.7*23
$GAGSA,A,3,27,,,,,,,,,,,,1.0,0.7,0.7*27
$GPVTG,,T,,M,0.0,N,0.0,K,A*23
$GPDTM,P90,,0000.000022,S,00000.000001,W,0.988,W84*5A
$GPRMC,000922.00,A,2959.999957,N,11959.999228,E,0.0,,230721,4.3,W,A*03
$GPGGA,000922.00,2959.999957,N,11959.999228,E,1,12,0.7,-5.9,M,7.0,M,,*76

$GPGSV,3,1,11,02,33,295,42,04,48,240,42,07,82,075,42,08,50,208,42*71
$GPGSV,3,2,11,13,46,035,42,20,19,123,42,23,24,059,42,25,62,039,42*76
$GPGSV,3,3,11,27,20,219,42,10,02,310,,28,01,180,*41
$GLGSV,2,1,07,78,09,330,40,86,30,026,40,77,59,323,40,75,07,153,41*63
$GLGSV,2,2,07,88,21,246,40,87,59,307,40,71,02,077,*52
$GAGSV,2,1,08,27,27,127,46,09,14,316,,10,65,334,,11,53,120,*6E
$GAGSV,2,2,08,12,03,132,,17,27,039,,23,40,224,,24,81,016,*60
$PQGSV,1,1,0,0*43
$PQGSV,1,1,0,0*43
$GPGSA,A,3,02,04,07,08,13,20,23,25,27,,,,1.0,0.7,0.7*39
$GLGSA,A,3,75,77,78,86,87,88,,,,,,,1.0,0.7,0.7*23
$GAGSA,A,3,27,,,,,,,,,,,,1.0,0.7,0.7*27
$GPVTG,,T,,M,0.0,N,0.0,K,A*23
$GPDTM,P90,,0000.000022,S,00000.000001,W,0.988,W84*5A
$GPRMC,000923.00,A,2959.999962,N,11959.999224,E,0.0,,230721,4.3,W,A*08
$GPGGA,000923.00,2959.999962,N,11959.999224,E,1,12,0.7,-5.9,M,7.0,M,,*7D

$GPGSV,3,1,11,02,33,295,42,04,48,240,42,07,82,075,42,08,50,208,42*71
$GPGSV,3,2,11,13,46,035,42,20,19,123,42,23,24,059,42,25,62,039,42*76
$GPGSV,3,3,11,27,20,219,42,10,02,310,,28,01,180,*41
$GLGSV,2,1,07,78,09,330,40,86,30,026,40,77,59,323,41,75,07,153,40*63
$GLGSV,2,2,07,88,21,246,40,87,59,307,41,71,02,077,*53
$GAGSV,2,1,08,27,27,127,46,09,14,316,,10,65,334,,11,53,120,*6E
$GAGSV,2,2,08,12,03,132,,17,27,039,,23,40,224,,24,81,016,*60
$PQGSV,1,1,0,0*43
$PQGSV,1,1,0,0*43
$GPGSA,A,3,02,04,07,08,13,20,23,25,27,,,,1.0,0.7,0.7*39
$GLGSA,A,3,75,77,78,86,87,88,,,,,,,1.0,0.7,0.7*23
$GAGSA,A,3,27,,,,,,,,,,,,1.0,0.7,0.7*27
$GPVTG,,T,,M,0.0,N,0.0,K,A*23
$GPDTM,P90,,0000.000022,S,00000.000001,W,0.988,W84*5A
$GPRMC,000924.00,A,2959.999961,N,11959.999224,E,0.0,,230721,4.3,W,A*0C
$GPGGA,000924.00,2959.999961,N,11959.999224,E,1,12,0.7,-6.0,M,7.0,M,,*73

$GPGSV,3,1,11,02,33,295,42,04,48,240,42,07,82,075,42,08,50,208,42*71
$GPGSV,3,2,11,13,46,035,42,20,19,123,42,23,24,059,42,25,62,039,42*76
$GPGSV,3,3,11,27,20,219,42,10,02,310,,28,01,180,*41
$GLGSV,2,1,07,78,09,330,41,86,30,026,40,77,59,323,40,75,07,153,40*63
$GLGSV,2,2,07,88,21,246,40,87,59,307,41,71,02,077,*53
$GAGSV,2,1,08,27,27,127,46,09,14,316,,10,65,334,,11,53,120,*6E
$GAGSV,2,2,08,12,03,132,,17,27,039,,23,40,224,,24,81,016,*60
$PQGSV,1,1,0,0*43
$PQGSV,1,1,0,0*43
$GPGSA,A,3,02,04,07,08,13,20,23,25,27,,,,1.0,0.7,0.7*39
$GLGSA,A,3,75,77,78,86,87,88,,,,,,,1.0,0.7,0.7*23
$GAGSA,A,3,27,,,,,,,,,,,,1.0,0.7,0.7*27
$GPVTG,,T,,M,0.0,N,0.0,K,A*23
$GPDTM,P90,,0000.000022,S,00000.000001,W,0.988,W84*5A
$GPRMC,000925.00,A,2959.999957,N,11959.999224,E,0.0,,230721,4.3,W,A*08
$GPGGA,000925.00,2959.999957,N,11959.999224,E,1,12,0.7,-6.0,M,7.0,M,,*77

$GPGSV,3,1,11,02,33,295,42,04,48,240,42,07,82,075,42,08,50,208,42*71
$GPGSV,3,2,11,13,46,035,42,20,19,123,42,23,24,059,42,25,62,039,42*76
$GPGSV,3,3,11,27,20,219,42,10,02,310,,28,01,180,*41
$GLGSV,2,1,07,78,09,330,40,86,30,026,41,77,59,323,40,75,07,153,40*63
$GLGSV,2,2,07,88,21,246,40,87,59,307,41,71,02,077,*53
$GAGSV,2,1,08,27,27,127,46,09,14,316,,10,65,334,,11,53,120,*6E
$GAGSV,2,2,08,12,03,132,,17,27,039,,23,40,224,,24,81,016,*60
$PQGSV,1,1,0,0*43
$PQGSV,1,1,0,0*43
$GPGSA,A,3,02,04,07,08,13,20,23,25,27,,,,1.0,0.7,0.7*39
$GLGSA,A,3,75,77,78,86,87,88,,,,,,,1.0,0.7,0.7*23
$GAGSA,A,3,27,,,,,,,,,,,,1.0,0.7,0.7*27
$GPVTG,,T,,M,0.0,N,0.0,K,A*23
$GPDTM,P90,,0000.000022,S,00000.000001,W,0.988,W84*5A
$GPRMC,000926.00,A,2959.999959,N,11959.999222,E,0.0,,230721,4.3,W,A*03
$GPGGA,000926.00,2959.999959,N,11959.999222,E,1,12,0.7,-6.0,M,7.0,M,,*7C

$GPGSV,3,1,10,02,33,295,42,04,48,240,42,07,82,075,42,08,50,208,42*70
$GPGSV,3,2,10,13,46,035,42,20,19,123,42,23,24,059,42,25,62,039,42*77
$GPGSV,3,3,10,27,20,219,42,28,01,180,*71
$GLGSV,2,1,07,78,09,330,40,86,30,026,40,77,59,323,40,75,07,153,40*62
$GLGSV,2,2,07,88,21,246,40,87,59,307,41,71,02,077,*53
$GAGSV,2,1,08,27,27,127,46,09,14,316,,10,65,334,,11,53,120,*6E
$GAGSV,2,2,08,12,03,132,,17,27,039,,23,40,224,,24,81,016,*60
$PQGSV,1,1,0,0*43
$PQGSV,1,1,0,0*43
$GPGSA,A,3,02,04,07,08,13,20,23,25,27,,,,1.0,0.7,0.7*39
$GLGSA,A,3,75,77,78,86,87,88,,,,,,,1.0,0.7,0.7*23
$GAGSA,A,3,27,,,,,,,,,,,,1.0,0.7,0.7*27
$GPVTG,,T,,M,0.0,N,0.0,K,A*23
$GPDTM,P90,,0000.000022,S,00000.000001,W,0.988,W84*5A
$GPRMC,000927.00,A,2959.999959,N,11959.999222,E,0.0,,230721,4.3,W,A*02
$GPGGA,000927.00,2959.999959,N,11959.999222,E,1,12,0.7,-6.0,M,7.0,M,,*7D

$GPGSV,3,1,11,02,33,295,42,04,48,240,42,07,82,075,42,08,50,208,42*71
$GPGSV,3,2,11,13,46,035,42,20,19,123,42,23,24,059,42,25,62,039,42*76
$GPGSV,3,3,11,27,20,219,42,10,02,310,,28,01,180,*41
$GLGSV,2,1,07,78,09,330,41,86,30,026,40,77,59,323,40,75,07,153,40*63
$GLGSV,2,2,07,88,21,246,40,87,59,307,41,71,02,077,*53
$GAGSV,2,1,08,27,27,127,46,09,14,316,,10,65,334,,11,53,120,*6E
$GAGSV,2,2,08,12,03,132,,17,27,039,,23,40,224,,24,81,016,*60
$PQGSV,1,1,0,0*43
$PQGSV,1,1,0,0*43
$GPGSA,A,3,02,04,07,08,13,20,23,25,27,,,,1.0,0.7,0.7*39
$GLGSA,A,3,75,77,78,86,87,88,,,,,,,1.0,0.7,0.7*23
$GAGSA,A,3,27,,,,,,,,,,,,1.0,0.7,0.7*27
$GPVTG,,T,,M,0.0,N,0.0,K,A*23
$GPDTM,P90,,0000.000022,S,00000.000001,W,0.988,W84*5A
$GPRMC,000928.00,A,2959.999956,N,11959.999224,E,0.0,,230721,4.3,W,A*04
$GPGGA,000928.00,2959.999956,N,11959.999224,E,1,12,0.7,-6.0,M,7.0,M,,*7B

$GPGSV,3,1,11,02,33,295,42,04,48,240,42,07,82,075,42,08,50,208,42*71
$GPGSV,3,2,11,13,46,035,42,20,19,123,42,23,24,059,42,25,62,039,42*76
$GPGSV,3,3,11,27,20,219,42,10,02,310,,28,01,180,*41
$GLGSV,2,1,07,78,09,330,40,86,30,026,40,77,59,323,41,75,07,153,41*62
$GLGSV,2,2,07,88,21,246,40,87,59,307,41,71,02,077,*53
$GAGSV,2,1,08,27,27,127,46,09,14,316,,10,65,334,,11,53,120,*6E
$GAGSV,2,2,08,12,03,132,,17,27,039,,23,40,224,,24,81,016,*60
$PQGSV,1,1,0,0*43
$PQGSV,1,1,0,0*43
$GPGSA,A,3,02,04,07,08,13,20,23,25,27,,,,1.0,0.7,0.7*39
$GLGSA,A,3,75,77,78,86,87,88,,,,,,,1.0,0.7,0.7*23
$GAGSA,A,3,27,,,,,,,,,,,,1.0,0.7,0.7*27
$GPVTG,,T,,M,0.0,N,0.0,K,A*23
$GPDTM,P90,,0000.000022,S,00000.000001,W,0.988,W84*5A
$GPRMC,000929.00,A,2959.999957,N,11959.999224,E,0.0,,230721,4.3,W,A*04
$GPGGA,000929.00,2959.999957,N,11959.999224,E,1,12,0.7,-6.0,M,7.0,M,,*7B

$GPGSV,3,1,11,02,33,295,42,04,48,240,42,07,82,075,42,08,50,208,42*71
$GPGSV,3,2,11,13,46,035,42,20,19,123,42,23,24,059,42,25,62,039,42*76
$GPGSV,3,3,11,27,20,219,42,10,02,310,,28,01,180,*41
$GLGSV,2,1,07,78,09,330,41,86,30,026,40,77,59,323,40,75,07,153,41*62
$GLGSV,2,2,07,88,21,246,40,87,59,307,41,71,02,077,*53
$GAGSV,2,1,08,27,27,127,46,09,14,316,,10,65,334,,11,53,120,*6E
$GAGSV,2,2,08,12,03,132,,17,27,039,,23,40,224,,24,81,016,*60
$PQGSV,1,1,0,0*43
$PQGSV,1,1,0,0*43
$GPGSA,A,3,02,04,07,08,13,20,23,25,27,,,,1.0,0.7,0.7*39
$GLGSA,A,3,75,77,78,86,87,88,,,,,,,1.0,0.7,0.7*23
$GAGSA,A,3,27,,,,,,,,,,,,1.0,0.7,0.7*27
$GPVTG,,T,,M,0.0,N,0.0,K,A*23
$GPDTM,P90,,0000.000022,S,00000.000001,W,0.988,W84*5A
$GPRMC,000930.00,A,2959.999956,N,11959.999222,E,0.0,,230721,4.3,W,A*0B
$GPGGA,000930.00,2959.999956,N,11959.999222,E,1,12,0.7,-6.0,M,7.0,M,,*74

$GPGSV,3,1,11,02,33,295,42,04,48,240,42,07,82,075,42,08,50,208,42*71
$GPGSV,3,2,11,13,46,035,42,20,19,123,42,23,24,059,42,25,62,039,42*76
$GPGSV,3,3,11,27,20,219,42,10,02,310,,28,01,180,*41
$GLGSV,2,1,07,78,09,330,40,86,30,026,40,77,59,323,40,75,07,153,41*63
$GLGSV,2,2,07,88,21,246,40,87,59,307,41,71,02,077,*53
$GAGSV,2,1,08,27,27,127,46,09,14,316,,10,65,334,,11,53,120,*6E
$GAGSV,2,2,08,12,03,132,,17,27,039,,23,40,224,,24,81,016,*60
$PQGSV,1,1,0,0*43
$PQGSV,1,1,0,0*43
$GPGSA,A,3,02,04,07,08,13,20,23,25,27,,,,1.0,0.7,0.7*39
$GLGSA,A,3,75,77,78,86,87,88,,,,,,,1.0,0.7,0.7*23
$GAGSA,A,3,27,,,,,,,,,,,,1.0,0.7,0.7*27
$GPVTG,,T,,M,0.0,N,0.0,K,A*23
$GPDTM,P90,,0000.000022,S,00000.000001,W,0.988,W84*5A
$GPRMC,000931.00,A,2959.999958,N,11959.999223,E,0.0,,230721,4.3,W,A*05
$GPGGA,000931.00,2959.999958,N,11959.999223,E,1,12,0.7,-6.0,M,7.0,M,,*7A

$GPGSV,3,1,11,02,33,295,42,04,48,240,42,07,82,075,42,08,50,208,42*71
$GPGSV,3,2,11,13,46,035,42,20,19,123,42,23,24,059,42,25,62,039,42*76
$GPGSV,3,3,11,27,20,219,42,10,02,310,,28,01,180,*41
$GLGSV,2,1,07,78,09,330,41,86,30,026,40,77,59,323,40,75,07,153,41*62
$GLGSV,2,2,07,88,21,246,40,87,59,307,41,71,02,077,*53
$GAGSV,2,1,08,27,27,127,46,09,14,316,,10,65,334,,11,53,120,*6E
$GAGSV,2,2,08,12,03,132,,17,27,039,,23,40,224,,24,81,016,*60
$PQGSV,1,1,0,0*43
$PQGSV,1,1,0,0*43
$GPGSA,A,3,02,04,07,08,13,20,23,25,27,,,,1.0,0.7,0.7*39
$GLGSA,A,3,75,77,78,86,87,88,,,,,,,1.0,0.7,0.7*23
$GAGSA,A,3,27,,,,,,,,,,,,1.0,0.7,0.7*27
$GPVTG,,T,,M,0.0,N,0.0,K,A*23
$GPDTM,P90,,0000.000022,S,00000.000001,W,0.988,W84*5A
$GPRMC,000932.00,A,2959.999956,N,11959.999224,E,0.0,,230721,4.3,W,A*0F
$GPGGA,000932.00,2959.999956,N,11959.999224,E,1,12,0.7,-6.0,M,7.0,M,,*70

$GPGSV,3,1,11,02,33,295,42,04,48,240,42,07,82,075,42,08,50,208,42*71
$GPGSV,3,2,11,13,46,035,42,20,19,123,42,23,24,059,42,25,62,039,42*76
$GPGSV,3,3,11,27,20,219,42,10,02,310,,28,01,180,*41
$GLGSV,2,1,07,78,09,330,40,86,30,026,40,77,59,323,41,75,07,153,41*62
$GLGSV,2,2,07,88,21,246,40,87,59,307,41,71,02,077,*53
$GAGSV,2,1,08,27,27,127,45,09,14,316,,10,65,334,,11,53,120,*6D
$GAGSV,2,2,08,12,03,132,,17,27,039,,23,40,224,,24,81,016,*60
$PQGSV,1,1,0,0*43
$PQGSV,1,1,0,0*43
$GPGSA,A,3,02,04,07,08,13,20,23,25,27,,,,1.0,0.7,0.7*39
$GLGSA,A,3,75,77,78,86,87,88,,,,,,,1.0,0.7,0.7*23
$GAGSA,A,3,27,,,,,,,,,,,,1.0,0.7,0.7*27
$GPVTG,,T,,M,0.0,N,0.0,K,A*23
$GPDTM,P90,,0000.000022,S,00000.000001,W,0.988,W84*5A
$GPRMC,000933.00,A,2959.999956,N,11959.999222,E,0.0,,230721,4.3,W,A*08
$GPGGA,000933.00,2959.999956,N,11959.999222,E,1,12,0.7,-6.0,M,7.0,M,,*77

$GPGSV,3,1,11,02,33,295,42,04,48,240,42,07,82,075,42,08,50,208,42*71
$GPGSV,3,2,11,13,46,035,42,20,19,123,42,23,24,059,42,25,62,039,42*76
$GPGSV,3,3,11,27,20,219,42,10,02,310,,28,01,180,*41
$GLGSV,2,1,07,78,09,330,40,86,30,026,40,77,59,323,41,75,07,153,40*63
$GLGSV,2,2,07,88,21,246,40,87,59,307,41,71,02,077,*53
$GAGSV,2,1,08,27,27,127,46,09,14,316,,10,65,334,,11,53,120,*6E
$GAGSV,2,2,08,12,03,132,,17,27,039,,23,40,224,,24,81,016,*60
$PQGSV,1,1,0,0*43
$PQGSV,1,1,0,0*43
$GPGSA,A,3,02,04,07,08,13,20,23,25,27,,,,1.0,0.7,0.7*39
$GLGSA,A,3,75,77,78,86,87,88,,,,,,,1.0,0.7,0.7*23
$GAGSA,A,3,27,,,,,,,,,,,,1.0,0.7,0.7*27
$GPVTG,,T,,M,0.0,N,0.0,K,A*23
$GPDTM,P90,,0000.000022,S,00000.000001,W,0.988,W84*5A
$GPRMC,000934.00,A,2959.999955,N,11959.999222,E,0.0,,230721,4.3,W,A*0C
$GPGGA,000934.00,2959.999955,N,11959.999222,E,1,12,0.7,-6.0,M,7.0,M,,*73

$GPGSV,3,1,11,02,33,295,42,04,48,240,42,07,82,075,42,08,50,208,42*71
$GPGSV,3,2,11,13,46,035,42,20,19,123,42,23,24,059,42,25,62,039,42*76
$GPGSV,3,3,11,27,20,219,42,10,02,310,,28,01,180,*41
$GLGSV,2,1,07,78,09,330,41,86,30,026,40,77,59,323,40,75,07,153,40*63
$GLGSV,2,2,07,88,21,246,40,87,59,307,41,71,02,077,*53
$GAGSV,2,1,08,27,27,127,45,09,14,316,,10,65,334,,11,53,120,*6D
$GAGSV,2,2,08,12,03,132,,17,27,039,,23,40,224,,24,81,016,*60
$PQGSV,1,1,0,0*43
$PQGSV,1,1,0,0*43
$GPGSA,A,3,02,04,07,08,13,20,23,25,27,,,,1.0,0.7,0.7*39
$GLGSA,A,3,75,77,78,86,87,88,,,,,,,1.0,0.7,0.7*23
$GAGSA,A,3,27,,,,,,,,,,,,1.0,0.7,0.7*27
$GPVTG,,T,,M,0.0,N,0.0,K,A*23
$GPDTM,P90,,0000.000022,S,00000.000001,W,0.988,W84*5A
$GPRMC,000935.00,A,2959.999954,N,11959.999222,E,0.0,,230721,4.3,W,A*0C
$GPGGA,000935.00,2959.999954,N,11959.999222,E,1,12,0.7,-6.0,M,7.0,M,,*73

$GPGSV,3,1,11,02,33,295,42,04,48,240,42,07,82,075,42,08,50,208,42*71
$GPGSV,3,2,11,13,46,035,42,20,19,123,42,23,24,059,42,25,62,039,42*76
$GPGSV,3,3,11,27,20,219,42,10,02,310,,28,01,180,*41
$GLGSV,2,1,07,78,09,330,40,86,30,026,40,77,59,323,40,75,07,153,40*62
$GLGSV,2,2,07,88,21,246,40,87,59,307,41,71,02,077,*53
$GAGSV,2,1,08,27,27,127,46,09,14,316,,10,65,334,,11,53,120,*6E
$GAGSV,2,2,08,12,03,132,,17,27,039,,23,40,224,,24,81,016,*60
$PQGSV,1,1,0,0*43
$PQGSV,1,1,0,0*43
$GPGSA,A,3,02,04,07,08,13,20,23,25,27,,,,1.0,0.7,0.7*39
$GLGSA,A,3,75,77,78,86,87,88,,,,,,,1.0,0.7,0.7*23
$GAGSA,A,3,27,,,,,,,,,,,,1.0,0.7,0.7*27
$GPVTG,,T,,M,0.0,N,0.0,K,A*23
$GPDTM,P90,,0000.000022,S,00000.000001,W,0.988,W84*5A
$GPRMC,000936.00,A,2959.999956,N,11959.999222,E,0.0,,230721,4.3,W,A*0D
$GPGGA,000936.00,2959.999956,N,11959.999222,E,1,12,0.7,-6.0,M,7.0,M,,*72

$GPGSV,3,1,11,02,33,295,42,04,48,240,42,07,82,075,42,08,50,208,42*71
$GPGSV,3,2,11,13,46,035,42,20,19,123,42,23,24,059,42,25,62,039,42*76
$GPGSV,3,3,11,27,20,219,42,10,02,310,,28,01,180,*41
$GLGSV,2,1,07,78,09,330,40,86,30,026,40,77,59,323,41,75,07,153,40*63
$GLGSV,2,2,07,88,21,246,41,87,59,307,41,71,02,077,*52
$GAGSV,2,1,08,27,27,127,46,09,14,316,,10,65,334,,11,53,120,*6E
$GAGSV,2,2,08,12,03,132,,17,27,039,,23,40,224,,24,81,016,*60
$PQGSV,1,1,0,0*43
$PQGSV,1,1,0,0*43
$GPGSA,A,3,02,04,07,08,13,20,23,25,27,,,,1.0,0.7,0.7*39
$GLGSA,A,3,75,77,78,86,87,88,,,,,,,1.0,0.7,0.7*23
$GAGSA,A,3,27,,,,,,,,,,,,1.0,0.7,0.7*27
$GPVTG,,T,,M,0.0,N,0.0,K,A*23
$GPDTM,P90,,0000.000022,S,00000.000001,W,0.988,W84*5A
$GPRMC,000937.00,A,2959.999954,N,11959.999222,E,0.0,,230721,4.3,W,A*0E
$GPGGA,000937.00,2959.999954,N,11959.999222,E,1,12,0.7,-6.0,M,7.0,M,,*71

$GPGSV,3,1,11,02,33,295,42,04,48,240,42,07,82,075,42,08,50,208,42*71
$GPGSV,3,2,11,13,46,035,42,20,19,123,42,23,24,059,42,25,62,039,42*76
$GPGSV,3,3,11,27,20,219,42,10,02,310,,28,01,180,*41
$GLGSV,2,1,07,78,09,330,40,86,30,026,40,77,59,323,41,75,07,153,41*62
$GLGSV,2,2,07,88,21,246,40,87,59,307,40,71,02,077,*52
$GAGSV,2,1,08,27,27,127,46,09,14,316,,10,65,334,,11,53,120,*6E
$GAGSV,2,2,08,12,03,132,,17,27,039,,23,40,224,,24,81,016,*60
$PQGSV,1,1,0,0*43
$PQGSV,1,1,0,0*43
$GPGSA,A,3,02,04,07,08,13,20,23,25,27,,,,1.0,0.7,0.7*39
$GLGSA,A,3,75,77,78,86,87,88,,,,,,,1.0,0.7,0.7*23
$GAGSA,A,3,27,,,,,,,,,,,,1.0,0.7,0.7*27
$GPVTG,,T,,M,0.0,N,0.0,K,A*23
$GPDTM,P90,,0000.000022,S,00000.000001,W,0.988,W84*5A
$GPRMC,000938.00,A,2959.999956,N,11959.999224,E,0.0,,230721,4.3,W,A*05
$GPGGA,000938.00,2959.999956,N,11959.999224,E,1,12,0.7,-6.0,M,7.0,M,,*7A

$GPGSV,3,1,11,02,33,295,42,04,48,240,42,07,82,075,42,08,50,208,42*71
$GPGSV,3,2,11,13,46,035,42,20,19,123,42,23,24,059,42,25,62,039,42*76
$GPGSV,3,3,11,27,20,219,42,10,02,310,,28,01,180,*41
$GLGSV,2,1,07,78,09,330,40,86,30,026,40,77,59,323,40,75,07,153,40*62
$GLGSV,2,2,07,88,21,246,40,87,59,307,41,71,02,077,*53
$GAGSV,2,1,08,27,27,127,46,09,14,316,,10,65,334,,11,53,120,*6E
$GAGSV,2,2,08,12,03,132,,17,27,039,,23,40,224,,24,81,016,*60
$PQGSV,1,1,0,0*43
$PQGSV,1,1,0,0*43
$GPGSA,A,3,02,04,07,08,13,20,23,25,27,,,,1.0,0.7,0.7*39
$GLGSA,A,3,75,77,78,86,87,88,,,,,,,1.0,0.7,0.7*23
$GAGSA,A,3,27,,,,,,,,,,,,1.0,0.7,0.7*27
$GPVTG,,T,,M,0.0,N,0.0,K,A*23
$GPDTM,P90,,0000.000022,S,00000.000001,W,0.988,W84*5A
$GPRMC,000939.00,A,2959.999954,N,11959.999224,E,0.0,,230721,4.3,W,A*06
$GPGGA,000939.00,2959.999954,N,11959.999224,E,1,12,0.7,-6.0,M,7.0,M,,*79

$GPGSV,3,1,11,02,33,295,42,04,48,240,42,07,82,075,42,08,50,208,42*71
$GPGSV,3,2,11,13,46,035,42,20,19,123,42,23,24,059,42,25,62,039,42*76
$GPGSV,3,3,11,27,20,219,42,10,02,310,,28,01,180,*41
$GLGSV,2,1,07,78,09,330,40,86,30,026,40,77,59,323,41,75,07,153,40*63
$GLGSV,2,2,07,88,21,246,40,87,59,307,40,71,02,077,*52
$GAGSV,2,1,08,27,27,127,46,09,14,316,,10,65,334,,11,53,120,*6E
$GAGSV,2,2,08,12,03,132,,17,27,039,,23,40,224,,24,81,016,*60
$PQGSV,1,1,0,0*43
$PQGSV,1,1,0,0*43
$GPGSA,A,3,02,04,07,08,13,20,23,25,27,,,,1.0,0.7,0.7*39
$GLGSA,A,3,75,77,78,86,87,88,,,,,,,1.0,0.7,0.7*23
$GAGSA,A,3,27,,,,,,,,,,,,1.0,0.7,0.7*27
$GPVTG,,T,,M,0.0,N,0.0,K,A*23
$GPDTM,P90,,0000.000022,S,00000.000001,W,0.988,W84*5A
$GPRMC,000940.00,A,2959.999953,N,11959.999225,E,0.0,,230721,4.3,W,A*0E
$GPGGA,000940.00,2959.999953,N,11959.999225,E,1,12,0.7,-6.0,M,7.0,M,,*71

$GPGSV,3,1,11,02,33,295,42,04,48,240,42,07,82,075,42,08,50,208,42*71
$GPGSV,3,2,11,13,46,035,42,20,19,123,42,23,24,059,42,25,62,039,42*76
$GPGSV,3,3,11,27,20,219,42,10,02,310,,28,01,180,*41
$GLGSV,2,1,07,78,09,330,40,86,30,026,40,77,59,323,40,75,07,153,40*62
$GLGSV,2,2,07,88,21,246,40,87,59,307,40,71,02,077,*52
$GAGSV,2,1,08,27,27,127,46,09,14,316,,10,65,334,,11,53,120,*6E
$GAGSV,2,2,08,12,03,132,,17,27,039,,23,40,224,,24,81,016,*60
$PQGSV,1,1,0,0*43
$PQGSV,1,1,0,0*43
$GPGSA,A,3,02,04,07,08,13,20,23,25,27,,,,1.0,0.7,0.7*39
$GLGSA,A,3,75,77,78,86,87,88,,,,,,,1.0,0.7,0.7*23
$GAGSA,A,3,27,,,,,,,,,,,,1.0,0.7,0.7*27
$GPVTG,,T,,M,0.0,N,0.0,K,A*23
$GPDTM,P90,,0000.000022,S,00000.000001,W,0.988,W84*5A
$GPRMC,000941.00,A,2959.999952,N,11959.999222,E,0.0,,230721,4.3,W,A*09
$GPGGA,000941.00,2959.999952,N,11959.999222,E,1,12,0.7,-6.0,M,7.0,M,,*76

$GPGSV,3,1,11,02,33,295,42,04,48,240,42,07,82,075,42,08,50,208,42*71
$GPGSV,3,2,11,13,46,035,42,20,19,123,42,23,24,059,42,25,62,039,42*76
$GPGSV,3,3,11,27,20,219,42,10,02,310,,28,01,180,*41
$GLGSV,2,1,07,78,09,330,40,86,30,026,40,77,59,323,40,75,07,153,41*63
$GLGSV,2,2,07,88,21,246,40,87,59,307,40,71,02,077,*52
$GAGSV,2,1,08,27,27,127,46,09,14,316,,10,65,334,,11,53,120,*6E
$GAGSV,2,2,08,12,03,132,,17,27,039,,23,40,224,,24,81,016,*60
$PQGSV,1,1,0,0*43
$PQGSV,1,1,0,0*43
$GPGSA,A,3,02,04,07,08,13,20,23,25,27,,,,1.0,0.7,0.7*39
$GLGSA,A,3,75,77,78,86,87,88,,,,,,,1.0,0.7,0.7*23
$GAGSA,A,3,27,,,,,,,,,,,,1.0,0.7,0.7*27
$GPVTG,,T,,M,0.0,N,0.0,K,A*23
$GPDTM,P90,,0000.000022,S,00000.000001,W,0.988,W84*5A
$GPRMC,000942.00,A,2959.999952,N,11959.999219,E,0.0,,230721,4.3,W,A*02
$GPGGA,000942.00,2959.999952,N,11959.999219,E,1,12,0.7,-6.0,M,7.0,M,,*7D

$GPGSV,3,1,11,02,33,295,42,04,48,240,42,07,82,075,42,08,50,208,42*71
$GPGSV,3,2,11,13,46,035,42,20,19,123,42,23,24,059,42,25,62,039,42*76
$GPGSV,3,3,11,27,20,219,42,10,02,310,,28,01,180,*41
$GLGSV,2,1,07,78,09,330,41,86,30,026,40,77,59,323,40,75,07,153,40*63
$GLGSV,2,2,07,88,21,246,40,87,59,307,41,71,02,077,*53
$GAGSV,2,1,08,27,27,127,46,09,14,316,,10,65,334,,11,53,120,*6E
$GAGSV,2,2,08,12,03,132,,17,27,039,,23,40,224,,24,81,016,*60
$PQGSV,1,1,0,0*43
$PQGSV,1,1,0,0*43
$GPGSA,A,3,02,04,07,08,13,20,23,25,27,,,,1.0,0.7,0.7*39
$GLGSA,A,3,75,77,78,86,87,88,,,,,,,1.0,0.7,0.7*23
$GAGSA,A,3,27,,,,,,,,,,,,1.0,0.7,0.7*27
$GPVTG,,T,,M,0.0,N,0.0,K,A*23
$GPDTM,P90,,0000.000022,S,00000.000001,W,0.988,W84*5A
$GPRMC,000943.00,A,2959.999953,N,11959.999219,E,0.0,,230721,4.3,W,A*02
$GPGGA,000943.00,2959.999953,N,11959.999219,E,1,12,0.7,-6.0,M,7.0,M,,*7D

$GPGSV,3,1,11,02,33,295,42,04,48,240,42,07,82,075,42,08,50,208,42*71
$GPGSV,3,2,11,13,46,035,42,20,19,123,42,23,24,059,42,25,62,039,42*76
$GPGSV,3,3,11,27,20,219,42,10,02,310,,28,01,180,*41
$GLGSV,2,1,07,78,09,330,40,86,30,026,40,77,59,323,41,75,07,153,40*63
$GLGSV,2,2,07,88,21,246,40,87,59,307,41,71,02,077,*53
$GAGSV,2,1,08,27,27,127,46,09,14,316,,10,65,334,,11,53,120,*6E
$GAGSV,2,2,08,12,03,132,,17,27,039,,23,40,224,,24,81,016,*60
$PQGSV,1,1,0,0*43
$PQGSV,1,1,0,0*43
$GPGSA,A,3,02,04,07,08,13,20,23,25,27,,,,1.0,0.7,0.7*39
$GLGSA,A,3,75,77,78,86,87,88,,,,,,,1.0,0.7,0.7*23
$GAGSA,A,3,27,,,,,,,,,,,,1.0,0.7,0.7*27
$GPVTG,,T,,M,0.0,N,0.0,K,A*23
$GPDTM,P90,,0000.000022,S,00000.000001,W,0.988,W84*5A
$GPRMC,000944.00,A,2959.999951,N,11959.999219,E,0.0,,230721,4.3,W,A*07
$GPGGA,000944.00,2959.999951,N,11959.999219,E,1,12,0.7,-6.0,M,7.0,M,,*78

$GPGSV,3,1,11,02,33,295,42,04,48,240,42,07,82,075,42,08,50,208,42*71
$GPGSV,3,2,11,13,46,035,42,20,19,123,42,23,24,059,42,25,62,039,42*76
$GPGSV,3,3,11,27,20,219,42,10,02,310,,28,01,180,*41
$GLGSV,2,1,07,78,09,330,40,86,30,026,40,77,59,323,41,75,07,153,40*63
$GLGSV,2,2,07,88,21,246,40,87,59,307,41,71,02,077,*53
$GAGSV,2,1,08,27,27,127,46,09,14,316,,10,65,334,,11,53,120,*6E
$GAGSV,2,2,08,12,03,132,,17,27,039,,23,40,224,,24,81,016,*60
$PQGSV,1,1,0,0*43
$PQGSV,1,1,0,0*43
$GPGSA,A,3,02,04,07,08,13,20,23,25,27,,,,1.0,0.7,0.7*39
$GLGSA,A,3,75,77,78,86,87,88,,,,,,,1.0,0.7,0.7*23
$GAGSA,A,3,27,,,,,,,,,,,,1.0,0.7,0.7*27
$GPVTG,,T,,M,0.0,N,0.0,K,A*23
$GPDTM,P90,,0000.000022,S,00000.000001,W,0.988,W84*5A
$GPRMC,000945.00,A,2959.999951,N,11959.999218,E,0.0,,230721,4.3,W,A*07
$GPGGA,000945.00,2959.999951,N,11959.999218,E,1,12,0.7,-6.0,M,7.0,M,,*78

$GPGSV,3,1,11,02,33,295,42,04,48,240,42,07,82,075,42,08,50,208,42*71
$GPGSV,3,2,11,13,46,035,42,20,19,123,42,23,24,059,42,25,62,039,42*76
$GPGSV,3,3,11,27,20,219,42,10,02,310,,28,01,180,*41
$GLGSV,2,1,07,78,09,330,40,86,30,026,40,77,59,323,41,75,07,153,40*63
$GLGSV,2,2,07,88,21,246,40,87,59,307,40,71,02,077,*52
$GAGSV,2,1,08,27,27,127,46,09,14,316,,10,65,334,,11,53,120,*6E
$GAGSV,2,2,08,12,03,132,,17,27,039,,23,40,224,,24,81,016,*60
$PQGSV,1,1,0,0*43
$PQGSV,1,1,0,0*43
$GPGSA,A,3,02,04,07,08,13,20,23,25,27,,,,1.0,0.7,0.7*39
$GLGSA,A,3,75,77,78,86,87,88,,,,,,,1.0,0.7,0.7*23
$GAGSA,A,3,27,,,,,,,,,,,,1.0,0.7,0.7*27
$GPVTG,,T,,M,0.0,N,0.0,K,A*23
$GPDTM,P90,,0000.000022,S,00000.000001,W,0.988,W84*5A
$GPRMC,000946.00,A,2959.999952,N,11959.999218,E,0.0,,230721,4.3,W,A*07
$GPGGA,000946.00,2959.999952,N,11959.999218,E,1,12,0.7,-6.0,M,7.0,M,,*78

$GPGSV,3,1,11,02,33,295,42,04,48,240,42,07,82,075,42,08,50,208,42*71
$GPGSV,3,2,11,13,46,035,42,20,19,123,42,23,24,059,42,25,62,039,42*76
$GPGSV,3,3,11,27,20,219,42,10,02,310,,28,01,180,*41
$GLGSV,2,1,07,78,09,330,40,86,30,026,40,77,59,323,41,75,07,153,40*63
$GLGSV,2,2,07,88,21,246,40,87,59,307,41,71,02,077,*53
$GAGSV,2,1,08,27,27,127,46,09,14,316,,10,65,334,,11,53,120,*6E
$GAGSV,2,2,08,12,03,132,,17,27,039,,23,40,224,,24,81,016,*60
$PQGSV,1,1,0,0*43
$PQGSV,1,1,0,0*43
$GPGSA,A,3,02,04,07,08,13,20,23,25,27,,,,1.0,0.7,0.7*39
$GLGSA,A,3,75,77,78,86,87,88,,,,,,,1.0,0.7,0.7*23
$GAGSA,A,3,27,,,,,,,,,,,,1.0,0.7,0.7*27
$GPVTG,,T,,M,0.0,N,0.0,K,A*23
$GPDTM,P90,,0000.000022,S,00000.000001,W,0.988,W84*5A
$GPRMC,000947.00,A,2959.999952,N,11959.999216,E,0.0,,230721,4.3,W,A*08
$GPGGA,000947.00,2959.999952,N,11959.999216,E,1,12,0.7,-6.0,M,7.0,M,,*77

$GPGSV,3,1,11,02,33,295,42,04,48,240,42,07,82,075,42,08,50,208,42*71
$GPGSV,3,2,11,13,46,035,42,20,19,123,42,23,24,059,42,25,62,039,42*76
$GPGSV,3,3,11,27,20,219,42,10,02,310,,28,01,180,*41
$GLGSV,2,1,07,78,09,330,40,86,30,026,40,77,59,323,40,75,07,153,40*62
$GLGSV,2,2,07,88,21,246,41,87,59,307,41,71,02,077,*52
$GAGSV,2,1,08,27,27,127,46,09,14,316,,10,65,334,,11,53,120,*6E
$GAGSV,2,2,08,12,03,132,,17,27,039,,23,40,224,,24,81,016,*60
$PQGSV,1,1,0,0*43
$PQGSV,1,1,0,0*43
$GPGSA,A,3,02,04,07,08,13,20,23,25,27,,,,1.0,0.7,0.7*39
$GLGSA,A,3,75,77,78,86,87,88,,,,,,,1.0,0.7,0.7*23
$GAGSA,A,3,27,,,,,,,,,,,,1.0,0.7,0.7*27
$GPVTG,,T,,M,0.0,N,0.0,K,A*23
$GPDTM,P90,,0000.000022,S,00000.000001,W,0.988,W84*5A
$GPRMC,000948.00,A,2959.999952,N,11959.999216,E,0.0,,230721,4.3,W,A*07
$GPGGA,000948.00,2959.999952,N,11959.999216,E,1,12,0.7,-6.0,M,7.0,M,,*78

$GPGSV,3,1,10,02,33,293,42,04,48,240,42,07,82,074,42,08,50,208,42*77
$GPGSV,3,2,10,13,46,035,42,20,19,123,42,23,24,059,42,25,61,039,42*74
$GPGSV,3,3,10,27,20,220,42,28,01,180,*7B
$GLGSV,2,1,07,78,09,330,40,86,30,026,40,77,59,323,41,75,07,153,40*63
$GLGSV,2,2,07,88,21,246,40,87,59,307,41,71,02,077,*53
$GAGSV,2,1,08,27,26,127,46,09,15,317,,10,66,334,,11,52,122,*6F
$GAGSV,2,2,08,12,03,132,,17,27,039,,23,40,224,,24,80,016,*61
$PQGSV,1,1,0,0*43
$PQGSV,1,1,0,0*43
$GPGSA,A,3,02,04,07,08,13,20,23,25,27,,,,1.0,0.7,0.7*39
$GLGSA,A,3,75,77,78,86,87,88,,,,,,,1.0,0.7,0.7*23
$GAGSA,A,3,27,,,,,,,,,,,,1.0,0.7,0.7*27
$GPVTG,,T,,M,0.0,N,0.0,K,A*23
$GPDTM,P90,,0000.000022,S,00000.000001,W,0.988,W84*5A
$GPRMC,000949.00,A,2959.999951,N,11959.999217,E,0.0,,230721,4.3,W,A*04
$GPGGA,000949.00,2959.999951,N,11959.999217,E,1,12,0.7,-6.0,M,7.0,M,,*7B

$GPGSV,3,1,11,02,33,293,42,04,48,240,42,07,82,074,42,08,50,208,42*76
$GPGSV,3,2,11,13,46,035,42,20,19,123,42,23,24,059,42,25,61,039,42*75
$GPGSV,3,3,11,27,20,220,42,10,02,310,,28,01,180,*4B
$GLGSV,2,1,07,78,09,330,40,86,30,026,40,77,59,323,40,75,07,153,41*63
$GLGSV,2,2,07,88,21,246,40,87,59,307,40,71,02,077,*52
$GAGSV,2,1,08,27,26,127,46,09,15,317,,10,66,334,,11,52,122,*6F
$GAGSV,2,2,08,12,03,132,,17,27,039,,23,40,224,,24,80,016,*61
$PQGSV,1,1,0,0*43
$PQGSV,1,1,0,0*43
$GPGSA,A,3,02,04,07,08,13,20,23,25,27,,,,1.0,0.7,0.7*39
$GLGSA,A,3,75,77,78,86,87,88,,,,,,,1.0,0.7,0.7*23
$GAGSA,A,3,27,,,,,,,,,,,,1.0,0.7,0.7*27
$GPVTG,,T,,M,0.0,N,0.0,K,A*23
$GPDTM,P90,,0000.000022,S,00000.000001,W,0.988,W84*5A
$GPRMC,000950.00,A,2959.999951,N,11959.999216,E,0.0,,230721,4.3,W,A*0D
$GPGGA,000950.00,2959.999951,N,11959.999216,E,1,12,0.7,-6.0,M,7.0,M,,*72

$GPGSV,3,1,11,02,33,293,42,04,48,240,42,07,82,074,42,08,50,208,42*76
$GPGSV,3,2,11,13,46,035,42,20,19,123,42,23,24,059,42,25,61,039,42*75
$GPGSV,3,3,11,27,20,220,42,10,02,310,,28,01,180,*4B
$GLGSV,2,1,07,78,09,330,40,86,30,026,40,77,59,323,41,75,07,153,41*62
$GLGSV,2,2,07,88,21,246,40,87,59,307,41,71,02,077,*53
$GAGSV,2,1,08,27,26,127,45,09,15,317,,10,66,334,,11,52,122,*6C
$GAGSV,2,2,08,12,03,132,,17,27,039,,23,40,224,,24,80,016,*61
$PQGSV,1,1,0,0*43
$PQGSV,1,1,0,0*43
$GPGSA,A,3,02,04,07,08,13,20,23,25,27,,,,1.0,0.7,0.7*39
$GLGSA,A,3,75,77,78,86,87,88,,,,,,,1.0,0.7,0.7*23
$GAGSA,A,3,27,,,,,,,,,,,,1.0,0.7,0.7*27
$GPVTG,,T,,M,0.0,N,0.0,K,A*23
$GPDTM,P90,,0000.000022,S,00000.000001,W,0.988,W84*5A
$GPRMC,000951.00,A,2959.999948,N,11959.999216,E,0.0,,230721,4.3,W,A*04
$GPGGA,000951.00,2959.999948,N,11959.999216,E,1,12,0.7,-6.1,M,7.0,M,,*7A

$GPGSV,3,1,11,02,33,293,42,04,48,240,42,07,82,074,42,08,50,208,42*76
$GPGSV,3,2,11,13,46,035,42,20,19,123,42,23,24,059,42,25,61,039,42*75
$GPGSV,3,3,11,27,20,220,42,10,02,310,,28,01,180,*4B
$GLGSV,2,1,07,78,09,330,40,86,30,026,40,77,59,323,40,75,07,153,41*63
$GLGSV,2,2,07,88,21,246,40,87,59,307,40,71,02,077,*52
$GAGSV,2,1,08,27,26,127,45,09,15,317,,10,66,334,,11,52,122,*6C
$GAGSV,2,2,08,12,03,132,,17,27,039,,23,40,224,,24,80,016,*61
$PQGSV,1,1,0,0*43
$PQGSV,1,1,0,0*43
$GPGSA,A,3,02,04,07,08,13,20,23,25,27,,,,1.0,0.7,0.7*39
$GLGSA,A,3,75,77,78,86,87,88,,,,,,,1.0,0.7,0.7*23
$GAGSA,A,3,27,,,,,,,,,,,,1.0,0.7,0.7*27
$GPVTG,,T,,M,0.0,N,0.0,K,A*23
$GPDTM,P90,,0000.000022,S,00000.000001,W,0.988,W84*5A
$GPRMC,000952.00,A,2959.999949,N,11959.999216,E,0.0,,230721,4.3,W,A*06
$GPGGA,000952.00,2959.999949,N,11959.999216,E,1,12,0.7,-6.1,M,7.0,M,,*78

$GPGSV,3,1,10,02,33,293,42,04,48,240,42,07,82,074,42,08,50,208,42*77
$GPGSV,3,2,10,13,46,035,42,20,19,123,42,23,24,059,42,25,61,039,42*74
$GPGSV,3,3,10,27,20,220,42,28,01,180,*7B
$GLGSV,2,1,07,78,09,330,40,86,30,026,40,77,59,323,40,75,07,153,41*63
$GLGSV,2,2,07,88,21,246,40,87,59,307,41,71,02,077,*53
$GAGSV,2,1,08,27,26,127,46,09,15,317,,10,66,334,,11,52,122,*6F
$GAGSV,2,2,08,12,03,132,,17,27,039,,23,40,224,,24,80,016,*61
$PQGSV,1,1,0,0*43
$PQGSV,1,1,0,0*43
$GPGSA,A,3,02,04,07,08,13,20,23,25,27,,,,1.0,0.7,0.7*39
$GLGSA,A,3,75,77,78,86,87,88,,,,,,,1.0,0.7,0.7*23
$GAGSA,A,3,27,,,,,,,,,,,,1.0,0.7,0.7*27
$GPVTG,,T,,M,0.0,N,0.0,K,A*23
$GPDTM,P90,,0000.000022,S,00000.000001,W,0.988,W84*5A
$GPRMC,000953.00,A,2959.999947,N,11959.999216,E,0.0,,230721,4.3,W,A*09
$GPGGA,000953.00,2959.999947,N,11959.999216,E,1,12,0.7,-6.1,M,7.0,M,,*77

$GPGSV,3,1,11,02,33,293,42,04,48,240,42,07,82,074,42,08,50,208,42*76
$GPGSV,3,2,11,13,46,035,42,20,19,123,42,23,24,059,42,25,61,039,42*75
$GPGSV,3,3,11,27,20,220,42,10,02,310,,28,01,180,*4B
$GLGSV,2,1,07,78,09,330,40,86,30,026,40,77,59,323,40,75,07,153,41*63
$GLGSV,2,2,07,88,21,246,40,87,59,307,41,71,02,077,*53
$GAGSV,2,1,08,27,26,127,46,09,15,317,,10,66,334,,11,52,122,*6F
$GAGSV,2,2,08,12,03,132,,17,27,039,,23,40,224,,24,80,016,*61
$PQGSV,1,1,0,0*43
$PQGSV,1,1,0,0*43
$GPGSA,A,3,02,04,07,08,13,20,23,25,27,,,,1.0,0.7,0.7*39
$GLGSA,A,3,75,77,78,86,87,88,,,,,,,1.0,0.7,0.7*23
$GAGSA,A,3,27,,,,,,,,,,,,1.0,0.7,0.7*27
$GPVTG,,T,,M,0.0,N,0.0,K,A*23
$GPDTM,P90,,0000.000022,S,00000.000001,W,0.988,W84*5A
$GPRMC,000954.00,A,2959.999945,N,11959.999214,E,0.0,,230721,4.3,W,A*0E
$GPGGA,000954.00,2959.999945,N,11959.999214,E,1,12,0.7,-6.1,M,7.0,M,,*70

$GPGSV,3,1,11,02,33,293,42,04,48,240,42,07,82,074,42,08,50,208,42*76
$GPGSV,3,2,11,13,46,035,42,20,19,123,42,23,24,059,42,25,61,039,42*75
$GPGSV,3,3,11,27,20,220,42,10,02,310,,28,01,180,*4B
$GLGSV,2,1,07,78,09,330,40,86,30,026,40,77,59,323,40,75,07,153,41*63
$GLGSV,2,2,07,88,21,246,40,87,59,307,40,71,02,077,*52
$GAGSV,2,1,08,27,26,127,46,09,15,317,,10,66,334,,11,52,122,*6F
$GAGSV,2,2,08,12,03,132,,17,27,039,,23,40,224,,24,80,016,*61
$PQGSV,1,1,0,0*43
$PQGSV,1,1,0,0*43
$GPGSA,A,3,02,04,07,08,13,20,23,25,27,,,,1.0,0.7,0.7*39
$GLGSA,A,3,75,77,78,86,87,88,,,,,,,1.0,0.7,0.7*23
$GAGSA,A,3,27,,,,,,,,,,,,1.0,0.7,0.7*27
$GPVTG,,T,,M,0.0,N,0.0,K,A*23
$GPDTM,P90,,0000.000022,S,00000.000001,W,0.988,W84*5A
$GPRMC,000955.00,A,2959.999945,N,11959.999213,E,0.0,,230721,4.3,W,A*08
$GPGGA,000955.00,2959.999945,N,11959.999213,E,1,12,0.7,-6.1,M,7.0,M,,*76

$GPGSV,3,1,11,02,33,293,42,04,48,240,42,07,82,074,42,08,50,208,42*76
$GPGSV,3,2,11,13,46,035,42,20,19,123,42,23,24,059,42,25,61,039,42*75
$GPGSV,3,3,11,27,20,220,42,10,02,310,,28,01,180,*4B
$GLGSV,2,1,07,78,09,330,40,86,30,026,40,77,59,323,40,75,07,153,40*62
$GLGSV,2,2,07,88,21,246,40,87,59,307,40,71,02,077,*52
$GAGSV,2,1,08,27,26,127,46,09,15,317,,10,66,334,,11,52,122,*6F
$GAGSV,2,2,08,12,03,132,,17,27,039,,23,40,224,,24,80,016,*61
$PQGSV,1,1,0,0*43
$PQGSV,1,1,0,0*43
$GPGSA,A,3,02,04,07,08,13,20,23,25,27,,,,1.0,0.7,0.7*39
$GLGSA,A,3,75,77,78,86,87,88,,,,,,,1.0,0.7,0.7*23
$GAGSA,A,3,27,,,,,,,,,,,,1.0,0.7,0.7*27
$GPVTG,,T,,M,0.0,N,0.0,K,A*23
$GPDTM,P90,,0000.000022,S,00000.000001,W,0.988,W84*5A
$GPRMC,000956.00,A,2959.999947,N,11959.999212,E,0.0,,230721,4.3,W,A*08
$GPGGA,000956.00,2959.999947,N,11959.999212,E,1,12,0.7,-6.1,M,7.0,M,,*76

