$GPVTG,82.2,T,82.2,M,74.9,N,138.7,K,A*14
$GPDTM,P90,,0000.000022,S,00000.000001,W,0.988,W84*5A
$GPRMC,000122.70,A,3000.263348,N,12000.316261,E,74.9,82.2,230721,4.3,W,A*28
$GPGGA,000122.70,3000.263348,N,12000.316261,E,1,00,1.4,4.0,M,7.0,M,,*55

$GPVTG,82.2,T,82.2,M,74.9,N,138.7,K,A*14
$GPDTM,P90,,0000.000022,S,00000.000001,W,0.988,W84*5A
$GPRMC,000122.80,A,3000.263631,N,12000.318635,E,74.9,82.2,230721,4.3,W,A*27
$GPGGA,000122.80,3000.263631,N,12000.318635,E,1,00,1.4,4.0,M,7.0,M,,*5A

$GPVTG,82.2,T,82.2,M,74.9,N,138.7,K,A*14
$GPDTM,P90,,0000.000022,S,00000.000001,W,0.988,W84*5A
$GPRMC,000122.90,A,3000.263914,N,12000.321009,E,74.9,82.2,230721,4.3,W,A*2D
$GPGGA,000122.90,3000.263914,N,12000.321009,E,1,00,1.4,4.0,M,7.0,M,,*50

$GPGSV,3,1,12,02,31,298,26,04,50,246,27,07,83,113,27,08,46,206,27*7A
$GPGSV,3,2,12,13,48,030,27,20,21,120,26,23,26,056,26,25,65,042,27*70
$GPGSV,3,3,12,27,17,217,28,10,00,000,,16,00,000,,28,00,000,*7B
$GLGSV,1,1,04,78,04,330,,77,55,327,,75,10,151,,71,00,000,*6C
$GAGSV,2,1,08,09,12,316,,10,63,333,,11,55,116,,12,05,129,*60
$GAGSV,2,2,08,17,29,039,,23,37,222,,24,84,019,,27,29,125,*6A
$PQGSV,1,1,0,0*43
$PQGSV,1,1,0,0*43
$GPGSA,A,3,07,08,13,20,23,25,27,,,,,,1.3,1.0,0.8*35
$GPVTG,86.1,T,86.1,M,75.0,N,138.8,K,A*13
$GPDTM,P90,,0000.000022,S,00000.000001,W,0.988,W84*5A
$GPRMC,000123.00,A,3000.266903,N,12000.314618,E,75.0,86.1,230721,4.3,W,A*29
$GPGGA,000123.00,3000.266903,N,12000.314618,E,1,07,1.0,-4.7,M,7.0,M,,*72

$GPVTG,86.1,T,86.1,M,75.0,N,138.8,K,A*13
$GPDTM,P90,,0000.000022,S,00000.000001,W,0.988,W84*5A
$GPRMC,000123.10,A,3000.267044,N,12000.317011,E,75.0,86.1,230721,4.3,W,A*2F
$GPGGA,000123.10,3000.267044,N,12000.317011,E,1,00,1.0,-4.7,M,7.0,M,,*73

$GPVTG,86.1,T,86.1,M,75.0,N,138.8,K,A*13
$GPDTM,P90,,0000.000022,S,00000.000001,W,0.988,W84*5A
$GPRMC,000123.20,A,3000.267187,N,12000.319403,E,75.0,86.1,230721,4.3,W,A*2B
$GPGGA,000123.20,3000.267187,N,12000.319403,E,1,00,1.0,-4.8,M,7.0,M,,*78

$GPVTG,86.1,T,86.1,M,75.0,N,138.8,K,A*13
$GPDTM,P90,,0000.000022,S,00000.000001,W,0.988,W84*5A
$GPRMC,000123.30,A,3000.267329,N,12000.321796,E,75.0,86.1,230721,4.3,W,A*28
$GPGGA,000123.30,3000.267329,N,12000.321796,E,1,00,1.0,-4.8,M,7.0,M,,*7B

$GPVTG,86.1,T,86.1,M,75.0,N,138.8,K,A*13
$GPDTM,P90,,0000.000022,S,00000.000001,W,0.988,W84*5A
$GPRMC,000123.40,A,3000.267471,N,12000.324188,E,75.0,86.1,230721,4.3,W,A*29
$GPGGA,000123.40,3000.267471,N,12000.324188,E,1,00,1.0,-4.8,M,7.0,M,,*7A

$GPVTG,86.1,T,86.1,M,75.0,N,138.8,K,A*13
$GPDTM,P90,,0000.000022,S,00000.000001,W,0.988,W84*5A
$GPRMC,000123.50,A,3000.267614,N,12000.326581,E,75.0,86.1,230721,4.3,W,A*26
$GPGGA,000123.50,3000.267614,N,12000.326581,E,1,00,1.0,-4.8,M,7.0,M,,*75

$GPVTG,86.1,T,86.1,M,75.0,N,138.8,K,A*13
$GPDTM,P90,,0000.000022,S,00000.000001,W,0.988,W84*5A
$GPRMC,000123.60,A,3000.267756,N,12000.328973,E,75.0,86.1,230721,4.3,W,A*2D
$GPGGA,000123.60,3000.267756,N,12000.328973,E,1,00,1.0,-4.8,M,7.0,M,,*7E

$GPVTG,86.1,T,86.1,M,75.0,N,138.8,K,A*13
$GPDTM,P90,,0000.000022,S,00000.000001,W,0.988,W84*5A
$GPRMC,000123.70,A,3000.267898,N,12000.331365,E,75.0,86.1,230721,4.3,W,A*24
$GPGGA,000123.70,3000.267898,N,12000.331365,E,1,00,1.0,-4.8,M,7.0,M,,*77

$GPVTG,86.1,T,86.1,M,75.0,N,138.8,K,A*13
$GPDTM,P90,,0000.000022,S,00000.000001,W,0.988,W84*5A
$GPRMC,000123.80,A,3000.268040,N,12000.333757,E,75.0,86.1,230721,4.3,W,A*2E
$GPGGA,000123.80,3000.268040,N,12000.333757,E,1,00,1.0,-4.8,M,7.0,M,,*7D

$GPVTG,86.1,T,86.1,M,75.0,N,138.8,K,A*13
$GPDTM,P90,,0000.000022,S,00000.000001,W,0.988,W84*5A
$GPRMC,000123.90,A,3000.268183,N,12000.336149,E,75.0,86.1,230721,4.3,W,A*2D
$GPGGA,000123.90,3000.268183,N,12000.336149,E,1,00,1.0,-4.9,M,7.0,M,,*7F

$GPGSV,3,1,12,02,31,298,26,04,50,246,27,07,83,113,27,08,46,206,26*7B
$GPGSV,3,2,12,13,48,030,27,20,21,120,28,23,26,056,27,25,65,042,27*7F
$GPGSV,3,3,12,27,17,217,26,10,00,000,,16,00,000,,28,00,000,*75
$GLGSV,1,1,04,78,04,330,,77,55,327,,75,10,151,,71,00,000,*6C
$GAGSV,2,1,08,09,12,316,,10,63,333,,11,55,116,,12,05,129,*60
$GAGSV,2,2,08,17,29,039,,23,37,222,,24,84,019,,27,29,125,*6A
$PQGSV,1,1,0,0*43
$PQGSV,1,1,0,0*43
$GPGSA,A,3,02,04,07,08,13,20,23,25,27,,,,1.3,1.0,0.8*33
$GPVTG,93.1,T,93.1,M,76.2,N,141.2,K,A*16
$GPDTM,P90,,0000.000022,S,00000.000001,W,0.988,W84*5A
$GPRMC,000124.00,A,3000.266944,N,12000.334532,E,76.2,93.1,230721,4.3,W,A*21
$GPGGA,000124.00,3000.266944,N,12000.334532,E,1,09,1.0,-14.1,M,7.0,M,,*46

$GPVTG,93.6,T,93.6,M,76.3,N,141.4,K,A*11
$GPDTM,P90,,0000.000022,S,00000.000001,W,0.988,W84*5A
$GPRMC,000124.10,A,3000.266819,N,12000.336969,E,76.3,93.6,230721,4.3,W,A*2F
$GPGGA,000124.10,3000.266819,N,12000.336969,E,1,00,1.0,-14.1,M,7.0,M,,*47

$GPVTG,94.0,T,94.0,M,76.5,N,141.6,K,A*15
$GPDTM,P90,,0000.000022,S,00000.000001,W,0.988,W84*5A
$GPRMC,000124.20,A,3000.266678,N,12000.339408,E,76.5,94.0,230721,4.3,W,A*27
$GPGGA,000124.20,3000.266678,N,12000.339408,E,1,00,1.0,-14.1,M,7.0,M,,*48

$GPVTG,94.4,T,94.4,M,76.6,N,141.9,K,A*19
$GPDTM,P90,,0000.000022,S,00000.000001,W,0.988,W84*5A
$GPRMC,000124.30,A,3000.266522,N,12000.341850,E,76.6,94.4,230721,4.3,W,A*23
$GPGGA,000124.30,3000.266522,N,12000.341850,E,1,00,1.0,-14.1,M,7.0,M,,*4B

$GPVTG,94.8,T,94.8,M,76.7,N,142.1,K,A*13
$GPDTM,P90,,0000.000022,S,00000.000001,W,0.988,W84*5A
$GPRMC,000124.40,A,3000.266350,N,12000.344295,E,76.7,94.8,230721,4.3,W,A*2C
$GPGGA,000124.40,3000.266350,N,12000.344295,E,1,00,1.0,-14.1,M,7.0,M,,*49

$GPVTG,95.3,T,95.3,M,76.9,N,142.4,K,A*18
$GPDTM,P90,,0000.000022,S,00000.000001,W,0.988,W84*5A
$GPRMC,000124.50,A,3000.266162,N,12000.346743,E,76.9,95.3,230721,4.3,W,A*26
$GPGGA,000124.50,3000.266162,N,12000.346743,E,1,00,1.0,-14.1,M,7.0,M,,*47

$GPVTG,95.7,T,95.7,M,77.0,N,142.7,K,A*13
$GPDTM,P90,,0000.000022,S,00000.000001,W,0.988,W84*5A
$GPRMC,000124.60,A,3000.265958,N,12000.349194,E,77.0,95.7,230721,4.3,W,A*28
$GPGGA,000124.60,3000.265958,N,12000.349194,E,1,00,1.0,-14.1,M,7.0,M,,*45

$GPVTG,96.1,T,96.1,M,77.2,N,142.9,K,A*1F
$GPDTM,P90,,0000.000022,S,00000.000001,W,0.988,W84*5A
$GPRMC,000124.70,A,3000.265738,N,12000.351647,E,77.2,96.1,230721,4.3,W,A*26
$GPGGA,000124.70,3000.265738,N,12000.351647,E,1,00,1.0,-14.1,M,7.0,M,,*4C

$GPVTG,96.5,T,96.5,M,77.3,N,143.2,K,A*14
$GPDTM,P90,,0000.000022,S,00000.000001,W,0.988,W84*5A
$GPRMC,000124.80,A,3000.265501,N,12000.354104,E,77.3,96.5,230721,4.3,W,A*21
$GPGGA,000124.80,3000.265501,N,12000.354104,E,1,00,1.0,-14.1,M,7.0,M,,*4E

$GPVTG,96.9,T,96.9,M,77.5,N,143.5,K,A*15
$GPDTM,P90,,0000.000022,S,00000.000001,W,0.988,W84*5A
$GPRMC,000124.90,A,3000.265250,N,12000.356563,E,77.5,96.9,230721,4.3,W,A*2E
$GPGGA,000124.90,3000.265250,N,12000.356563,E,1,00,1.0,-14.1,M,7.0,M,,*4B

$GPGSV,3,1,12,02,31,298,26,04,50,246,26,07,83,113,28,08,46,206,27*74
$GPGSV,3,2,12,13,48,030,27,20,21,120,26,23,26,056,27,25,65,042,27*71
$GPGSV,3,3,12,27,17,217,27,10,00,000,,16,00,000,,28,00,000,*74
$GLGSV,1,1,04,78,04,330,,77,55,327,,75,10,151,,71,00,000,*6C
$GAGSV,2,1,08,09,12,316,,10,63,333,,11,55,116,,12,05,129,*60
$GAGSV,2,2,08,17,29,039,,23,37,222,,24,84,019,,27,29,125,*6A
$PQGSV,1,1,0,0*43
$PQGSV,1,1,0,0*43
$GPGSA,A,3,02,04,07,08,13,20,23,25,27,,,,1.3,1.0,0.8*33
$GPVTG,97.2,T,97.2,M,74.8,N,138.5,K,A*17
$GPDTM,P90,,0000.000022,S,00000.000001,W,0.988,W84*5A
$GPRMC,000125.00,A,3000.264461,N,12000.358366,E,74.8,97.2,230721,4.3,W,A*2A
$GPGGA,000125.00,3000.264461,N,12000.358366,E,1,09,1.0,-16.3,M,7.0,M,,*42

$GPVTG,97.6,T,97.6,M,74.8,N,138.5,K,A*17
$GPDTM,P90,,0000.000022,S,00000.000001,W,0.988,W84*5A
$GPRMC,000125.10,A,3000.264194,N,12000.360740,E,74.8,97.6,230721,4.3,W,A*2B
$GPGGA,000125.10,3000.264194,N,12000.360740,E,1,00,1.0,-16.3,M,7.0,M,,*4E

$GPVTG,98.0,T,98.0,M,74.8,N,138.5,K,A*17
$GPDTM,P90,,0000.000022,S,00000.000001,W,0.988,W84*5A
$GPRMC,000125.20,A,3000.263911,N,12000.363110,E,74.8,98.0,230721,4.3,W,A*23
$GPGGA,000125.20,3000.263911,N,12000.363110,E,1,00,1.0,-16.3,M,7.0,M,,*4F

$GPVTG,98.4,T,98.4,M,74.8,N,138.5,K,A*17
$GPDTM,P90,,0000.000022,S,00000.000001,W,0.988,W84*5A
$GPRMC,000125.30,A,3000.263614,N,12000.365479,E,74.8,98.4,230721,4.3,W,A*20
$GPGGA,000125.30,3000.263614,N,12000.365479,E,1,00,1.0,-16.3,M,7.0,M,,*48

$GPVTG,98.8,T,98.8,M,74.8,N,138.6,K,A*14
$GPDTM,P90,,0000.000022,S,00000.000001,W,0.988,W84*5A
$GPRMC,000125.40,A,3000.263302,N,12000.367846,E,74.8,98.8,230721,4.3,W,A*2B
$GPGGA,000125.40,3000.263302,N,12000.367846,E,1,00,1.0,-16.3,M,7.0,M,,*4F

$GPVTG,99.3,T,99.3,M,74.8,N,138.6,K,A*14
$GPDTM,P90,,0000.000022,S,00000.000001,W,0.988,W84*5A
$GPRMC,000125.50,A,3000.262974,N,12000.370210,E,74.8,99.3,230721,4.3,W,A*25
$GPGGA,000125.50,3000.262974,N,12000.370210,E,1,00,1.0,-16.3,M,7.0,M,,*4B

$GPVTG,99.7,T,99.7,M,74.9,N,138.6,K,A*15
$GPDTM,P90,,0000.000022,S,00000.000001,W,0.988,W84*5A
$GPRMC,000125.60,A,3000.262632,N,12000.372572,E,74.9,99.7,230721,4.3,W,A*2F
$GPGGA,000125.60,3000.262632,N,12000.372572,E,1,00,1.0,-16.3,M,7.0,M,,*44

$GPVTG,100.1,T,100.1,M,74.9,N,138.7,K,A*14
$GPDTM,P90,,0000.000022,S,00000.000001,W,0.988,W84*5A
$GPRMC,000125.70,A,3000.262274,N,12000.374931,E,74.9,100.1,230721,4.3,W,A*12
$GPGGA,000125.70,3000.262274,N,12000.374931,E,1,00,1.0,-16.3,M,7.0,M,,*4E

$GPVTG,100.5,T,100.5,M,74.9,N,138.7,K,A*14
$GPDTM,P90,,0000.000022,S,00000.000001,W,0.988,W84*5A
$GPRMC,000125.80,A,3000.261902,N,12000.377288,E,74.9,100.5,230721,4.3,W,A*1A
$GPGGA,000125.80,3000.261902,N,12000.377288,E,1,00,1.0,-16.3,M,7.0,M,,*42

$GPVTG,100.9,T,100.9,M,74.9,N,138.8,K,A*1B
$GPDTM,P90,,0000.000022,S,00000.000001,W,0.988,W84*5A
$GPRMC,000125.90,A,3000.261514,N,12000.379643,E,74.9,100.9,230721,4.3,W,A*11
$GPGGA,000125.90,3000.261514,N,12000.379643,E,1,00,1.0,-16.3,M,7.0,M,,*45

$GPGSV,3,1,12,02,31,298,26,04,50,246,27,07,83,113,26,08,46,206,27*7B
$GPGSV,3,2,12,13,48,030,27,20,21,120,26,23,26,056,26,25,65,042,27*70
$GPGSV,3,3,12,27,17,217,27,10,00,000,,16,00,000,,28,00,000,*74
$GLGSV,1,1,04,78,04,330,,77,55,327,,75,10,151,,71,00,000,*6C
$GAGSV,2,1,08,09,12,316,,10,63,333,,11,55,116,,12,05,129,*60
$GAGSV,2,2,08,17,29,039,,23,37,222,,24,84,019,,27,29,125,*6A
$PQGSV,1,1,0,0*43
$PQGSV,1,1,0,0*43
$GPGSA,A,3,02,04,07,08,13,20,23,25,27,,,,1.3,1.0,0.8*33
$GPVTG,102.0,T,102.0,M,75.7,N,140.2,K,A*11
$GPDTM,P90,,0000.000022,S,00000.000001,W,0.988,W84*5A
$GPRMC,000126.00,A,3000.260392,N,12000.382464,E,75.7,102.0,230721,4.3,W,A*15
$GPGGA,000126.00,3000.260392,N,12000.382464,E,1,09,1.0,-15.1,M,7.0,M,,*4D

$GPVTG,102.4,T,102.4,M,75.8,N,140.3,K,A*1F
$GPDTM,P90,,0000.000022,S,00000.000001,W,0.988,W84*5A
$GPRMC,000126.10,A,3000.259945,N,12000.384832,E,75.8,102.4,230721,4.3,W,A*1C
$GPGGA,000126.10,3000.259945,N,12000.384832,E,1,00,1.0,-15.2,M,7.0,M,,*45

$GPVTG,102.9,T,102.9,M,75.9,N,140.5,K,A*18
$GPDTM,P90,,0000.000022,S,00000.000001,W,0.988,W84*5A
$GPRMC,000126.20,A,3000.259483,N,12000.387198,E,75.9,102.9,230721,4.3,W,A*1E
$GPGGA,000126.20,3000.259483,N,12000.387198,E,1,00,1.0,-15.2,M,7.0,M,,*4B

$GPVTG,103.3,T,103.3,M,76.0,N,140.7,K,A*10
$GPDTM,P90,,0000.000022,S,00000.000001,W,0.988,W84*5A
$GPRMC,000126.30,A,3000.259003,N,12000.389563,E,76.0,103.3,230721,4.3,W,A*1C
$GPGGA,000126.30,3000.259003,N,12000.389563,E,1,00,1.0,-15.3,M,7.0,M,,*49

$GPVTG,103.8,T,103.8,M,76.1,N,140.9,K,A*1F
$GPDTM,P90,,0000.000022,S,00000.000001,W,0.988,W84*5A
$GPRMC,000126.40,A,3000.258507,N,12000.391927,E,76.1,103.8,230721,4.3,W,A*14
$GPGGA,000126.40,3000.258507,N,12000.391927,E,1,00,1.0,-15.4,M,7.0,M,,*4C

$GPVTG,104.2,T,104.2,M,76.2,N,141.1,K,A*15
$GPDTM,P90,,0000.000022,S,00000.000001,W,0.988,W84*5A
$GPRMC,000126.50,A,3000.257994,N,12000.394290,E,76.2,104.2,230721,4.3,W,A*10
$GPGGA,000126.50,3000.257994,N,12000.394290,E,1,00,1.0,-15.4,M,7.0,M,,*46

$GPVTG,104.7,T,104.7,M,76.3,N,141.3,K,A*16
$GPDTM,P90,,0000.000022,S,00000.000001,W,0.988,W84*5A
$GPRMC,000126.60,A,3000.257465,N,12000.396652,E,76.3,104.7,230721,4.3,W,A*1C
$GPGGA,000126.60,3000.257465,N,12000.396652,E,1,00,1.0,-15.5,M,7.0,M,,*4F

$GPVTG,105.1,T,105.1,M,76.4,N,141.5,K,A*17
$GPDTM,P90,,0000.000022,S,00000.000001,W,0.988,W84*5A
$GPRMC,000126.70,A,3000.256919,N,12000.399012,E,76.4,105.1,230721,4.3,W,A*17
$GPGGA,000126.70,3000.256919,N,12000.399012,E,1,00,1.0,-15.6,M,7.0,M,,*47

$GPVTG,105.6,T,105.6,M,76.5,N,141.7,K,A*14
$GPDTM,P90,,0000.000022,S,00000.000001,W,0.988,W84*5A
$GPRMC,000126.80,A,3000.256355,N,12000.401371,E,76.5,105.6,230721,4.3,W,A*1C
$GPGGA,000126.80,3000.256355,N,12000.401371,E,1,00,1.0,-15.6,M,7.0,M,,*4A

$GPVTG,106.0,T,106.0,M,76.6,N,141.9,K,A*19
$GPDTM,P90,,0000.000022,S,00000.000001,W,0.988,W84*5A
$GPRMC,000126.90,A,3000.255776,N,12000.403729,E,76.6,106.0,230721,4.3,W,A*16
$GPGGA,000126.90,3000.255776,N,12000.403729,E,1,00,1.0,-15.7,M,7.0,M,,*47

$GPGSV,3,1,12,02,31,298,26,04,50,246,27,07,83,113,27,08,46,206,26*7B
$GPGSV,3,2,12,13,48,030,27,20,21,120,27,23,26,056,27,25,65,042,27*70
$GPGSV,3,3,12,27,17,217,27,10,00,000,,16,00,000,,28,00,000,*74
$GLGSV,1,1,04,78,04,330,,77,55,327,,75,10,151,,71,00,000,*6C
$GAGSV,2,1,08,09,12,316,,10,63,333,,11,55,116,,12,05,129,*60
$GAGSV,2,2,08,17,29,039,,23,37,222,,24,84,019,,27,29,125,*6A
$PQGSV,1,1,0,0*43
$PQGSV,1,1,0,0*43
$GPGSA,A,3,02,04,07,08,13,20,23,25,27,,,,1.3,1.0,0.8*33
$GPVTG,107.0,T,107.0,M,75.8,N,140.4,K,A*18
$GPDTM,P90,,0000.000022,S,00000.000001,W,0.988,W84*5A
$GPRMC,000127.00,A,3000.255065,N,12000.406306,E,75.8,107.0,230721,4.3,W,A*1B
$GPGGA,000127.00,3000.255065,N,12000.406306,E,1,09,1.0,-16.2,M,7.0,M,,*49

$GPVTG,107.5,T,107.5,M,75.9,N,140.6,K,A*1B
$GPDTM,P90,,0000.000022,S,00000.000001,W,0.988,W84*5A
$GPRMC,000127.10,A,3000.254438,N,12000.408624,E,75.9,107.5,230721,4.3,W,A*18
$GPGGA,000127.10,3000.254438,N,12000.408624,E,1,00,1.0,-16.2,M,7.0,M,,*47

$GPVTG,108.0,T,108.0,M,76.0,N,140.8,K,A*1F
$GPDTM,P90,,0000.000022,S,00000.000001,W,0.988,W84*5A
$GPRMC,000127.20,A,3000.253793,N,12000.410938,E,76.0,108.0,230721,4.3,W,A*15
$GPGGA,000127.20,3000.253793,N,12000.410938,E,1,00,1.0,-16.2,M,7.0,M,,*4A

$GPVTG,108.5,T,108.5,M,76.1,N,140.9,K,A*1F
$GPDTM,P90,,0000.000022,S,00000.000001,W,0.988,W84*5A
$GPRMC,000127.30,A,3000.253130,N,12000.413249,E,76.1,108.5,230721,4.3,W,A*11
$GPGGA,000127.30,3000.253130,N,12000.413249,E,1,00,1.0,-16.2,M,7.0,M,,*4A

$GPVTG,108.9,T,108.9,M,76.2,N,141.1,K,A*15
$GPDTM,P90,,0000.000022,S,00000.000001,W,0.988,W84*5A
$GPRMC,000127.40,A,3000.252451,N,12000.415557,E,76.2,108.9,230721,4.3,W,A*14
$GPGGA,000127.40,3000.252451,N,12000.415557,E,1,00,1.0,-16.2,M,7.0,M,,*40

$GPVTG,109.4,T,109.4,M,76.3,N,141.3,K,A*16
$GPDTM,P90,,0000.000022,S,00000.000001,W,0.988,W84*5A
$GPRMC,000127.50,A,3000.251753,N,12000.417861,E,76.3,109.4,230721,4.3,W,A*10
$GPGGA,000127.50,3000.251753,N,12000.417861,E,1,00,1.0,-16.2,M,7.0,M,,*49

$GPVTG,109.9,T,109.9,M,76.4,N,141.5,K,A*17
$GPDTM,P90,,0000.000022,S,00000.000001,W,0.988,W84*5A
$GPRMC,000127.60,A,3000.251038,N,12000.420162,E,76.4,109.9,230721,4.3,W,A*1D
$GPGGA,000127.60,3000.251038,N,12000.420162,E,1,00,1.0,-16.2,M,7.0,M,,*4E

$GPVTG,110.4,T,110.4,M,76.5,N,141.7,K,A*14
$GPDTM,P90,,0000.000022,S,00000.000001,W,0.988,W84*5A
$GPRMC,000127.70,A,3000.250305,N,12000.422459,E,76.5,110.4,230721,4.3,W,A*1B
$GPGGA,000127.70,3000.250305,N,12000.422459,E,1,00,1.0,-16.1,M,7.0,M,,*4F

$GPVTG,110.8,T,110.8,M,76.7,N,142.0,K,A*12
$GPDTM,P90,,0000.000022,S,00000.000001,W,0.988,W84*5A
$GPRMC,000127.80,A,3000.249555,N,12000.424753,E,76.7,110.8,230721,4.3,W,A*1E
$GPGGA,000127.80,3000.249555,N,12000.424753,E,1,00,1.0,-16.1,M,7.0,M,,*44

$GPVTG,111.3,T,111.3,M,76.8,N,142.2,K,A*1F
$GPDTM,P90,,0000.000022,S,00000.000001,W,0.988,W84*5A
$GPRMC,000127.90,A,3000.248788,N,12000.427043,E,76.8,111.3,230721,4.3,W,A*1C
$GPGGA,000127.90,3000.248788,N,12000.427043,E,1,00,1.0,-16.1,M,7.0,M,,*43

$GPGSV,3,1,12,02,31,298,27,04,50,246,27,07,83,113,27,08,46,206,26*7A
$GPGSV,3,2,12,13,48,030,27,20,21,120,26,23,26,056,27,25,65,042,27*71
$GPGSV,3,3,12,27,17,217,27,10,00,000,,16,00,000,,28,00,000,*74
$GLGSV,1,1,04,78,04,330,,77,55,327,,75,10,151,,71,00,000,*6C
$GAGSV,2,1,08,09,12,316,,10,63,333,,11,55,116,,12,05,129,*60
$GAGSV,2,2,08,17,29,039,,23,37,222,,24,84,019,,27,29,125,*6A
$PQGSV,1,1,0,0*43
$PQGSV,1,1,0,0*43
$GPGSA,A,3,02,04,07,08,13,20,23,25,27,,,,1.3,1.0,0.8*33
$GPVTG,111.1,T,111.1,M,75.4,N,139.7,K,A*19
$GPDTM,P90,,0000.000022,S,00000.000001,W,0.988,W84*5A
$GPRMC,000128.00,A,3000.247941,N,12000.429221,E,75.4,111.1,230721,4.3,W,A*1B
$GPGGA,000128.00,3000.247941,N,12000.429221,E,1,09,1.0,-14.5,M,7.0,M,,*46

$GPVTG,111.6,T,111.6,M,75.5,N,139.7,K,A*18
$GPDTM,P90,,0000.000022,S,00000.000001,W,0.988,W84*5A
$GPRMC,000128.10,A,3000.247177,N,12000.431470,E,75.5,111.6,230721,4.3,W,A*1A
$GPGGA,000128.10,3000.247177,N,12000.431470,E,1,00,1.0,-14.5,M,7.0,M,,*48

$GPVTG,112.0,T,112.0,M,75.5,N,139.8,K,A*17
$GPDTM,P90,,0000.000022,S,00000.000001,W,0.988,W84*5A
$GPRMC,000128.20,A,3000.246397,N,12000.433712,E,75.5,112.0,230721,4.3,W,A*14
$GPGGA,000128.20,3000.246397,N,12000.433712,E,1,00,1.0,-14.5,M,7.0,M,,*43

$GPVTG,112.4,T,112.4,M,75.5,N,139.9,K,A*16
$GPDTM,P90,,0000.000022,S,00000.000001,W,0.988,W84*5A
$GPRMC,000128.30,A,3000.245601,N,12000.435949,E,75.5,112.4,230721,4.3,W,A*1E
$GPGGA,000128.30,3000.245601,N,12000.435949,E,1,00,1.0,-14.5,M,7.0,M,,*4D

$GPVTG,112.9,T,112.9,M,75.6,N,140.0,K,A*12
$GPDTM,P90,,0000.000022,S,00000.000001,W,0.988,W84*5A
$GPRMC,000128.40,A,3000.244790,N,12000.438179,E,75.6,112.9,230721,4.3,W,A*19
$GPGGA,000128.40,3000.244790,N,12000.438179,E,1,00,1.0,-14.5,M,7.0,M,,*44

$GPVTG,113.3,T,113.3,M,75.7,N,140.1,K,A*12
$GPDTM,P90,,0000.000022,S,00000.000001,W,0.988,W84*5A
$GPRMC,000128.50,A,3000.243964,N,12000.440405,E,75.7,113.3,230721,4.3,W,A*11
$GPGGA,000128.50,3000.243964,N,12000.440405,E,1,00,1.0,-14.5,M,7.0,M,,*46

$GPVTG,113.7,T,113.7,M,75.7,N,140.2,K,A*11
$GPDTM,P90,,0000.000022,S,00000.000001,W,0.988,W84*5A
$GPRMC,000128.60,A,3000.243123,N,12000.442625,E,75.7,113.7,230721,4.3,W,A*1F
$GPGGA,000128.60,3000.243123,N,12000.442625,E,1,00,1.0,-14.5,M,7.0,M,,*4C

$GPVTG,114.2,T,114.2,M,75.8,N,140.3,K,A*1F
$GPDTM,P90,,0000.000022,S,00000.000001,W,0.988,W84*5A
$GPRMC,000128.70,A,3000.242267,N,12000.444839,E,75.8,114.2,230721,4.3,W,A*14
$GPGGA,000128.70,3000.242267,N,12000.444839,E,1,00,1.0,-14.5,M,7.0,M,,*4A

$GPVTG,114.6,T,114.6,M,75.8,N,140.5,K,A*19
$GPDTM,P90,,0000.000022,S,00000.000001,W,0.988,W84*5A
$GPRMC,000128.80,A,3000.241395,N,12000.447049,E,75.8,114.6,230721,4.3,W,A*1C
$GPGGA,000128.80,3000.241395,N,12000.447049,E,1,00,1.0,-14.5,M,7.0,M,,*46

$GPVTG,115.0,T,115.0,M,75.9,N,140.6,K,A*1B
$GPDTM,P90,,0000.000022,S,00000.000001,W,0.988,W84*5A
$GPRMC,000128.90,A,3000.240508,N,12000.449252,E,75.9,115.0,230721,4.3,W,A*1E
$GPGGA,000128.90,3000.240508,N,12000.449252,E,1,00,1.0,-14.5,M,7.0,M,,*42

$GPGSV,3,1,12,02,31,298,26,04,50,246,27,07,83,113,26,08,46,206,26*7A
$GPGSV,3,2,12,13,48,030,27,20,21,120,27,23,26,056,27,25,65,042,26*71
$GPGSV,3,3,12,27,17,217,27,10,00,000,,16,00,000,,28,00,000,*74
$GLGSV,1,1,04,78,04,330,,77,55,327,,75,10,151,,71,00,000,*6C
$GAGSV,2,1,08,09,12,316,,10,63,333,,11,55,116,,12,05,129,*60
$GAGSV,2,2,08,17,29,039,,23,37,222,,24,84,019,,27,29,125,*6A
$PQGSV,1,1,0,0*43
$PQGSV,1,1,0,0*43
$GPGSA,A,3,02,04,07,08,13,20,23,25,27,,,,1.3,1.0,0.8*33
$GPVTG,115.2,T,115.2,M,75.4,N,139.7,K,A*19
$GPDTM,P90,,0000.000022,S,00000.000001,W,0.988,W84*5A
$GPRMC,000129.00,A,3000.240047,N,12000.451743,E,75.4,115.2,230721,4.3,W,A*1B
$GPGGA,000129.00,3000.240047,N,12000.451743,E,1,09,1.0,-15.1,M,7.0,M,,*44

$GPVTG,115.7,T,115.7,M,75.5,N,139.7,K,A*18
$GPDTM,P90,,0000.000022,S,00000.000001,W,0.988,W84*5A
$GPRMC,000129.10,A,3000.239144,N,12000.453922,E,75.5,115.7,230721,4.3,W,A*19
$GPGGA,000129.10,3000.239144,N,12000.453922,E,1,00,1.0,-15.2,M,7.0,M,,*48

$GPVTG,116.1,T,116.1,M,75.5,N,139.8,K,A*17
$GPDTM,P90,,0000.000022,S,00000.000001,W,0.988,W84*5A
$GPRMC,000129.20,A,3000.238228,N,12000.456095,E,75.5,116.1,230721,4.3,W,A*17
$GPGGA,000129.20,3000.238228,N,12000.456095,E,1,00,1.0,-15.2,M,7.0,M,,*43

$GPVTG,116.5,T,116.5,M,75.6,N,139.9,K,A*15
$GPDTM,P90,,0000.000022,S,00000.000001,W,0.988,W84*5A
$GPRMC,000129.30,A,3000.237296,N,12000.458261,E,75.6,116.5,230721,4.3,W,A*1C
$GPGGA,000129.30,3000.237296,N,12000.458261,E,1,00,1.0,-15.2,M,7.0,M,,*4F

$GPVTG,116.9,T,116.9,M,75.6,N,140.0,K,A*12
$GPDTM,P90,,0000.000022,S,00000.000001,W,0.988,W84*5A
$GPRMC,000129.40,A,3000.236350,N,12000.460421,E,75.6,116.9,230721,4.3,W,A*14
$GPGGA,000129.40,3000.236350,N,12000.460421,E,1,00,1.0,-15.2,M,7.0,M,,*4B

$GPVTG,117.3,T,117.3,M,75.7,N,140.1,K,A*12
$GPDTM,P90,,0000.000022,S,00000.000001,W,0.988,W84*5A
$GPRMC,000129.50,A,3000.235390,N,12000.462575,E,75.7,117.3,230721,4.3,W,A*12
$GPGGA,000129.50,3000.235390,N,12000.462575,E,1,00,1.0,-15.3,M,7.0,M,,*46

$GPVTG,117.7,T,117.7,M,75.7,N,140.3,K,A*10
$GPDTM,P90,,0000.000022,S,00000.000001,W,0.988,W84*5A
$GPRMC,000129.60,A,3000.234415,N,12000.464722,E,75.7,117.7,230721,4.3,W,A*18
$GPGGA,000129.60,3000.234415,N,12000.464722,E,1,00,1.0,-15.3,M,7.0,M,,*48

$GPVTG,118.2,T,118.2,M,75.8,N,140.4,K,A*18
$GPDTM,P90,,0000.000022,S,00000.000001,W,0.988,W84*5A
$GPRMC,000129.70,A,3000.233426,N,12000.466864,E,75.8,118.2,230721,4.3,W,A*14
$GPGGA,000129.70,3000.233426,N,12000.466864,E,1,00,1.0,-15.3,M,7.0,M,,*41

$GPVTG,118.6,T,118.6,M,75.9,N,140.5,K,A*18
$GPDTM,P90,,0000.000022,S,00000.000001,W,0.988,W84*5A
$GPRMC,000129.80,A,3000.232422,N,12000.468998,E,75.9,118.6,230721,4.3,W,A*17
$GPGGA,000129.80,3000.232422,N,12000.468998,E,1,00,1.0,-15.3,M,7.0,M,,*47

$GPVTG,119.0,T,119.0,M,76.0,N,140.7,K,A*10
$GPDTM,P90,,0000.000022,S,00000.000001,W,0.988,W84*5A
$GPRMC,000129.90,A,3000.231404,N,12000.471127,E,76.0,119.0,230721,4.3,W,A*18
$GPGGA,000129.90,3000.231404,N,12000.471127,E,1,00,1.0,-15.4,M,7.0,M,,*42

$GPGSV,3,1,12,02,31,298,26,04,50,246,27,07,83,113,27,08,46,206,27*7A
$GPGSV,3,2,12,13,48,030,27,20,21,120,27,23,26,056,27,25,65,042,26*71
$GPGSV,3,3,12,27,17,217,27,10,00,000,,16,00,000,,28,00,000,*74
$GLGSV,1,1,04,78,04,330,,77,55,327,,75,10,151,,71,00,000,*6C
$GAGSV,2,1,08,09,12,316,,10,63,333,,11,55,116,,12,05,129,*60
$GAGSV,2,2,08,17,29,039,,23,37,222,,24,84,019,,27,29,125,*6A
$PQGSV,1,1,0,0*43
$PQGSV,1,1,0,0*43
$GPGSA,A,3,02,04,07,08,13,20,23,25,27,,,,1.3,1.0,0.8*33
$GPVTG,119.8,T,119.8,M,75.8,N,140.4,K,A*18
$GPDTM,P90,,0000.000022,S,00000.000001,W,0.988,W84*5A
$GPRMC,000130.00,A,3000.230070,N,12000.472775,E,75.8,119.8,230721,4.3,W,A*1E
$GPGGA,000130.00,3000.230070,N,12000.472775,E,1,09,1.0,-15.2,M,7.0,M,,*48

$GPVTG,120.3,T,120.3,M,75.9,N,140.6,K,A*1B
$GPDTM,P90,,0000.000022,S,00000.000001,W,0.988,W84*5A
$GPRMC,000130.10,A,3000.229012,N,12000.474876,E,75.9,120.3,230721,4.3,W,A*19
$GPGGA,000130.10,3000.229012,N,12000.474876,E,1,00,1.0,-15.2,M,7.0,M,,*46

$GPVTG,120.7,T,120.7,M,76.0,N,140.7,K,A*10
$GPDTM,P90,,0000.000022,S,00000.000001,W,0.988,W84*5A
$GPRMC,000130.20,A,3000.227938,N,12000.476969,E,76.0,120.7,230721,4.3,W,A*16
$GPGGA,000130.20,3000.227938,N,12000.476969,E,1,00,1.0,-15.2,M,7.0,M,,*47

$GPVTG,121.2,T,121.2,M,76.1,N,140.9,K,A*1F
$GPDTM,P90,,0000.000022,S,00000.000001,W,0.988,W84*5A
$GPRMC,000130.30,A,3000.226849,N,12000.479056,E,76.1,121.2,230721,4.3,W,A*1E
$GPGGA,000130.30,3000.226849,N,12000.479056,E,1,00,1.0,-15.2,M,7.0,M,,*4A

$GPVTG,121.6,T,121.6,M,76.2,N,141.1,K,A*15
$GPDTM,P90,,0000.000022,S,00000.000001,W,0.988,W84*5A
$GPRMC,000130.40,A,3000.225746,N,12000.481134,E,76.2,121.6,230721,4.3,W,A*1F
$GPGGA,000130.40,3000.225746,N,12000.481134,E,1,00,1.0,-15.2,M,7.0,M,,*4C

$GPVTG,122.0,T,122.0,M,76.3,N,141.2,K,A*17
$GPDTM,P90,,0000.000022,S,00000.000001,W,0.988,W84*5A
$GPRMC,000130.50,A,3000.224627,N,12000.483206,E,76.3,122.0,230721,4.3,W,A*1D
$GPGGA,000130.50,3000.224627,N,12000.483206,E,1,00,1.0,-15.3,M,7.0,M,,*4B

$GPVTG,122.5,T,122.5,M,76.4,N,141.4,K,A*16
$GPDTM,P90,,0000.000022,S,00000.000001,W,0.988,W84*5A
$GPRMC,000130.60,A,3000.223493,N,12000.485270,E,76.4,122.5,230721,4.3,W,A*11
$GPGGA,000130.60,3000.223493,N,12000.485270,E,1,00,1.0,-15.3,M,7.0,M,,*45

$GPVTG,122.9,T,122.9,M,76.5,N,141.6,K,A*15
$GPDTM,P90,,0000.000022,S,00000.000001,W,0.988,W84*5A
$GPRMC,000130.70,A,3000.222343,N,12000.487327,E,76.5,122.9,230721,4.3,W,A*17
$GPGGA,000130.70,3000.222343,N,12000.487327,E,1,00,1.0,-15.3,M,7.0,M,,*4E

$GPVTG,123.3,T,123.3,M,76.6,N,141.8,K,A*18
$GPDTM,P90,,0000.000022,S,00000.000001,W,0.988,W84*5A
$GPRMC,000130.80,A,3000.221179,N,12000.489377,E,76.6,123.3,230721,4.3,W,A*13
$GPGGA,000130.80,3000.221179,N,12000.489377,E,1,00,1.0,-15.3,M,7.0,M,,*42

$GPVTG,123.8,T,123.8,M,76.7,N,142.0,K,A*12
$GPDTM,P90,,0000.000022,S,00000.000001,W,0.988,W84*5A
$GPRMC,000130.90,A,3000.220000,N,12000.491419,E,76.7,123.8,230721,4.3,W,A*10
$GPGGA,000130.90,3000.220000,N,12000.491419,E,1,00,1.0,-15.3,M,7.0,M,,*4B

$GPGSV,3,1,12,02,31,298,26,04,50,246,27,07,83,113,26,08,46,206,27*7B
$GPGSV,3,2,12,13,48,030,28,20,21,120,28,23,26,056,27,25,65,042,27*70
$GPGSV,3,3,12,27,17,217,27,10,00,000,,16,00,000,,28,00,000,*74
$GLGSV,1,1,04,78,04,330,,77,55,327,,75,10,151,,71,00,000,*6C
$GAGSV,2,1,08,09,12,316,,10,63,333,,11,55,116,,12,05,129,*60
$GAGSV,2,2,08,17,29,039,,23,37,222,,24,84,019,,27,29,125,*6A
$PQGSV,1,1,0,0*43
$PQGSV,1,1,0,0*43
$GPGSA,A,3,02,04,07,08,13,20,23,25,27,,,,1.3,1.0,0.8*33
$GPVTG,124.7,T,124.7,M,74.9,N,138.8,K,A*1B
$GPDTM,P90,,0000.000022,S,00000.000001,W,0.988,W84*5A
$GPRMC,000131.00,A,3000.219466,N,12000.493712,E,74.9,124.7,230721,4.3,W,A*18
$GPGGA,000131.00,3000.219466,N,12000.493712,E,1,09,1.0,-15.4,M,7.0,M,,*49

$GPVTG,125.2,T,125.2,M,75.0,N,138.8,K,A*13
$GPDTM,P90,,0000.000022,S,00000.000001,W,0.988,W84*5A
$GPRMC,000131.10,A,3000.218270,N,12000.495677,E,75.0,125.2,230721,4.3,W,A*11
$GPGGA,000131.10,3000.218270,N,12000.495677,E,1,00,1.0,-15.3,M,7.0,M,,*42

$GPVTG,125.6,T,125.6,M,75.0,N,138.8,K,A*13
$GPDTM,P90,,0000.000022,S,00000.000001,W,0.988,W84*5A
$GPRMC,000131.20,A,3000.217061,N,12000.497632,E,75.0,125.6,230721,4.3,W,A*18
$GPGGA,000131.20,3000.217061,N,12000.497632,E,1,00,1.0,-15.3,M,7.0,M,,*4F

$GPVTG,126.1,T,126.1,M,75.0,N,138.9,K,A*12
$GPDTM,P90,,0000.000022,S,00000.000001,W,0.988,W84*5A
$GPRMC,000131.30,A,3000.215837,N,12000.499576,E,75.0,126.1,230721,4.3,W,A*19
$GPGGA,000131.30,3000.215837,N,12000.499576,E,1,00,1.0,-15.2,M,7.0,M,,*4B

$GPVTG,126.6,T,126.6,M,75.0,N,138.9,K,A*12
$GPDTM,P90,,0000.000022,S,00000.000001,W,0.988,W84*5A
$GPRMC,000131.40,A,3000.214600,N,12000.501508,E,75.0,126.6,230721,4.3,W,A*1B
$GPGGA,000131.40,3000.214600,N,12000.501508,E,1,00,1.0,-15.1,M,7.0,M,,*4D

$GPVTG,127.0,T,127.0,M,75.1,N,139.0,K,A*1B
$GPDTM,P90,,0000.000022,S,00000.000001,W,0.988,W84*5A
$GPRMC,000131.50,A,3000.213347,N,12000.503430,E,75.1,127.0,230721,4.3,W,A*15
$GPGGA,000131.50,3000.213347,N,12000.503430,E,1,00,1.0,-15.0,M,7.0,M,,*44

$GPVTG,127.5,T,127.5,M,75.1,N,139.1,K,A*1A
$GPDTM,P90,,0000.000022,S,00000.000001,W,0.988,W84*5A
$GPRMC,000131.60,A,3000.212081,N,12000.505342,E,75.1,127.5,230721,4.3,W,A*1F
$GPGGA,000131.60,3000.212081,N,12000.505342,E,1,00,1.0,-14.9,M,7.0,M,,*43

$GPVTG,128.0,T,128.0,M,75.1,N,139.2,K,A*19
$GPDTM,P90,,0000.000022,S,00000.000001,W,0.988,W84*5A
$GPRMC,000131.70,A,3000.210800,N,12000.507242,E,75.1,128.0,230721,4.3,W,A*14
$GPGGA,000131.70,3000.210800,N,12000.507242,E,1,00,1.0,-14.9,M,7.0,M,,*42

$GPVTG,128.4,T,128.4,M,75.2,N,139.3,K,A*1B
$GPDTM,P90,,0000.000022,S,00000.000001,W,0.988,W84*5A
$GPRMC,000131.80,A,3000.209506,N,12000.509131,E,75.2,128.4,230721,4.3,W,A*16
$GPGGA,000131.80,3000.209506,N,12000.509131,E,1,00,1.0,-14.8,M,7.0,M,,*46

$GPVTG,128.9,T,128.9,M,75.2,N,139.4,K,A*1C
$GPDTM,P90,,0000.000022,S,00000.000001,W,0.988,W84*5A
$GPRMC,000131.90,A,3000.208196,N,12000.511009,E,75.2,128.9,230721,4.3,W,A*15
$GPGGA,000131.90,3000.208196,N,12000.511009,E,1,00,1.0,-14.7,M,7.0,M,,*47

$GPGSV,3,1,12,02,31,298,27,04,50,246,27,07,83,113,27,08,46,206,26*7A
$GPGSV,3,2,12,13,48,030,27,20,21,120,26,23,26,056,27,25,65,042,26*70
$GPGSV,3,3,12,27,17,217,26,10,00,000,,16,00,000,,28,00,000,*75
$GLGSV,1,1,04,78,04,330,,77,55,327,,75,10,151,,71,00,000,*6C
$GAGSV,2,1,08,09,12,316,,10,63,333,,11,55,116,,12,05,129,*60
$GAGSV,2,2,08,17,29,039,,23,37,222,,24,84,019,,27,29,125,*6A
$PQGSV,1,1,0,0*43
$PQGSV,1,1,0,0*43
$GPGSA,A,3,02,04,07,08,13,20,23,25,27,,,,1.3,1.0,0.8*33
$GPVTG,128.0,T,128.0,M,75.0,N,138.8,K,A*13
$GPDTM,P90,,0000.000022,S,00000.000001,W,0.988,W84*5A
$GPRMC,000132.00,A,3000.206872,N,12000.513867,E,75.0,128.0,230721,4.3,W,A*1B
$GPGGA,000132.00,3000.206872,N,12000.513867,E,1,09,1.0,-17.2,M,7.0,M,,*4D

$GPVTG,128.4,T,128.4,M,75.0,N,138.9,K,A*12
$GPDTM,P90,,0000.000022,S,00000.000001,W,0.988,W84*5A
$GPRMC,000132.10,A,3000.205581,N,12000.515752,E,75.0,128.4,230721,4.3,W,A*13
$GPGGA,000132.10,3000.205581,N,12000.515752,E,1,00,1.0,-17.2,M,7.0,M,,*48

$GPVTG,128.8,T,128.8,M,75.0,N,139.0,K,A*1A
$GPDTM,P90,,0000.000022,S,00000.000001,W,0.988,W84*5A
$GPRMC,000132.20,A,3000.204278,N,12000.517627,E,75.0,128.8,230721,4.3,W,A*1D
$GPGGA,000132.20,3000.204278,N,12000.517627,E,1,00,1.0,-17.3,M,7.0,M,,*4B

$GPVTG,129.2,T,129.2,M,75.1,N,139.0,K,A*1B
$GPDTM,P90,,0000.000022,S,00000.000001,W,0.988,W84*5A
$GPRMC,000132.30,A,3000.202963,N,12000.519493,E,75.1,129.2,230721,4.3,W,A*12
$GPGGA,000132.30,3000.202963,N,12000.519493,E,1,00,1.0,-17.3,M,7.0,M,,*4E

$GPVTG,129.6,T,129.6,M,75.1,N,139.1,K,A*1A
$GPDTM,P90,,0000.000022,S,00000.000001,W,0.988,W84*5A
$GPRMC,000132.40,A,3000.201637,N,12000.521350,E,75.1,129.6,230721,4.3,W,A*1F
$GPGGA,000132.40,3000.201637,N,12000.521350,E,1,00,1.0,-17.3,M,7.0,M,,*47

$GPVTG,129.9,T,129.9,M,75.1,N,139.2,K,A*19
$GPDTM,P90,,0000.000022,S,00000.000001,W,0.988,W84*5A
$GPRMC,000132.50,A,3000.200299,N,12000.523198,E,75.1,129.9,230721,4.3,W,A*14
$GPGGA,000132.50,3000.200299,N,12000.523198,E,1,00,1.0,-17.4,M,7.0,M,,*44

$GPVTG,130.3,T,130.3,M,75.2,N,139.3,K,A*1B
$GPDTM,P90,,0000.000022,S,00000.000001,W,0.988,W84*5A
$GPRMC,000132.60,A,3000.198950,N,12000.525037,E,75.2,130.3,230721,4.3,W,A*18
$GPGGA,000132.60,3000.198950,N,12000.525037,E,1,00,1.0,-17.4,M,7.0,M,,*49

$GPVTG,130.7,T,130.7,M,75.2,N,139.4,K,A*1C
$GPDTM,P90,,0000.000022,S,00000.000001,W,0.988,W84*5A
$GPRMC,000132.70,A,3000.197589,N,12000.526866,E,75.2,130.7,230721,4.3,W,A*15
$GPGGA,000132.70,3000.197589,N,12000.526866,E,1,00,1.0,-17.5,M,7.0,M,,*41

$GPVTG,131.1,T,131.1,M,75.3,N,139.5,K,A*1C
$GPDTM,P90,,0000.000022,S,00000.000001,W,0.988,W84*5A
$GPRMC,000132.80,A,3000.196216,N,12000.528686,E,75.3,131.1,230721,4.3,W,A*12
$GPGGA,000132.80,3000.196216,N,12000.528686,E,1,00,1.0,-17.5,M,7.0,M,,*40

$GPVTG,131.5,T,131.5,M,75.4,N,139.6,K,A*18
$GPDTM,P90,,0000.000022,S,00000.000001,W,0.988,W84*5A
$GPRMC,000132.90,A,3000.194833,N,12000.530497,E,75.4,131.5,230721,4.3,W,A*14
$GPGGA,000132.90,3000.194833,N,12000.530497,E,1,00,1.0,-17.6,M,7.0,M,,*46

$GPGSV,3,1,12,02,31,298,27,04,50,246,27,07,83,113,27,08,46,206,27*7B
$GPGSV,3,2,12,13,48,030,27,20,21,120,28,23,26,056,27,25,65,042,26*7E
$GPGSV,3,3,12,27,17,217,26,10,00,000,,16,00,000,,28,00,000,*75
$GLGSV,1,1,04,78,04,330,,77,55,327,,75,10,151,,71,00,000,*6C
$GAGSV,2,1,08,09,12,316,,10,63,333,,11,55,116,,12,05,129,*60
$GAGSV,2,2,08,17,29,039,,23,37,222,,24,84,019,,27,29,125,*6A
$PQGSV,1,1,0,0*43
$PQGSV,1,1,0,0*43
$GPGSA,A,3,02,04,07,08,13,20,23,25,27,,,,1.3,1.0,0.8*33
$GPVTG,133.8,T,133.8,M,75.8,N,140.4,K,A*18
$GPDTM,P90,,0000.000022,S,00000.000001,W,0.988,W84*5A
$GPRMC,000133.00,A,3000.192413,N,12000.532291,E,75.8,133.8,230721,4.3,W,A*15
$GPGGA,000133.00,3000.192413,N,12000.532291,E,1,09,1.0,-16.8,M,7.0,M,,*42

$GPVTG,134.3,T,134.3,M,75.9,N,140.7,K,A*1A
$GPDTM,P90,,0000.000022,S,00000.000001,W,0.988,W84*5A
$GPRMC,000133.10,A,3000.190945,N,12000.534037,E,75.9,134.3,230721,4.3,W,A*1D
$GPGGA,000133.10,3000.190945,N,12000.534037,E,1,00,1.0,-16.8,M,7.0,M,,*4E

$GPVTG,134.8,T,134.8,M,76.1,N,140.9,K,A*1F
$GPDTM,P90,,0000.000022,S,00000.000001,W,0.988,W84*5A
$GPRMC,000133.20,A,3000.189461,N,12000.535770,E,76.1,134.8,230721,4.3,W,A*18
$GPGGA,000133.20,3000.189461,N,12000.535770,E,1,00,1.0,-16.8,M,7.0,M,,*4B

$GPVTG,135.3,T,135.3,M,76.2,N,141.1,K,A*15
$GPDTM,P90,,0000.000022,S,00000.000001,W,0.988,W84*5A
$GPRMC,000133.30,A,3000.187962,N,12000.537492,E,76.2,135.3,230721,4.3,W,A*1D
$GPGGA,000133.30,3000.187962,N,12000.537492,E,1,00,1.0,-16.8,M,7.0,M,,*47

$GPVTG,135.7,T,135.7,M,76.3,N,141.3,K,A*16
$GPDTM,P90,,0000.000022,S,00000.000001,W,0.988,W84*5A
$GPRMC,000133.40,A,3000.186448,N,12000.539201,E,76.3,135.7,230721,4.3,W,A*19
$GPGGA,000133.40,3000.186448,N,12000.539201,E,1,00,1.0,-16.8,M,7.0,M,,*46

$GPVTG,136.2,T,136.2,M,76.4,N,141.6,K,A*14
$GPDTM,P90,,0000.000022,S,00000.000001,W,0.988,W84*5A
$GPRMC,000133.50,A,3000.184918,N,12000.540899,E,76.4,136.2,230721,4.3,W,A*16
$GPGGA,000133.50,3000.184918,N,12000.540899,E,1,00,1.0,-16.8,M,7.0,M,,*48

$GPVTG,136.7,T,136.7,M,76.6,N,141.8,K,A*18
$GPDTM,P90,,0000.000022,S,00000.000001,W,0.988,W84*5A
$GPRMC,000133.60,A,3000.183374,N,12000.542585,E,76.6,136.7,230721,4.3,W,A*17
$GPGGA,000133.60,3000.183374,N,12000.542585,E,1,00,1.0,-16.8,M,7.0,M,,*4E

$GPVTG,137.2,T,137.2,M,76.7,N,142.1,K,A*13
$GPDTM,P90,,0000.000022,S,00000.000001,W,0.988,W84*5A
$GPRMC,000133.70,A,3000.181814,N,12000.544259,E,76.7,137.2,230721,4.3,W,A*1C
$GPGGA,000133.70,3000.181814,N,12000.544259,E,1,00,1.0,-16.8,M,7.0,M,,*40

$GPVTG,137.7,T,137.7,M,76.9,N,142.4,K,A*18
$GPDTM,P90,,0000.000022,S,00000.000001,W,0.988,W84*5A
$GPRMC,000133.80,A,3000.180239,N,12000.545920,E,76.9,137.7,230721,4.3,W,A*18
$GPGGA,000133.80,3000.180239,N,12000.545920,E,1,00,1.0,-16.8,M,7.0,M,,*4F

$GPVTG,138.2,T,138.2,M,77.0,N,142.6,K,A*12
$GPDTM,P90,,0000.000022,S,00000.000001,W,0.988,W84*5A
$GPRMC,000133.90,A,3000.178649,N,12000.547570,E,77.0,138.2,230721,4.3,W,A*14
$GPGGA,000133.90,3000.178649,N,12000.547570,E,1,00,1.0,-16.8,M,7.0,M,,*41

$GPGSV,3,1,12,02,31,298,27,04,50,246,27,07,83,113,28,08,46,206,26*75
$GPGSV,3,2,12,13,48,030,26,20,21,120,28,23,26,056,27,25,65,042,27*7E
$GPGSV,3,3,12,27,17,217,27,10,00,000,,16,00,000,,28,00,000,*74
$GLGSV,1,1,04,78,04,330,,77,55,327,,75,10,151,,71,00,000,*6C
$GAGSV,2,1,08,09,12,316,,10,63,333,,11,55,116,,12,05,129,*60
$GAGSV,2,2,08,17,29,039,,23,37,222,,24,84,019,,27,29,125,*6A
$PQGSV,1,1,0,0*43
$PQGSV,1,1,0,0*43
$GPGSA,A,3,02,04,07,08,13,20,23,25,27,,,,1.3,1.0,0.8*33
$GPVTG,138.0,T,138.0,M,76.2,N,141.1,K,A*15
$GPDTM,P90,,0000.000022,S,00000.000001,W,0.988,W84*5A
$GPRMC,000134.00,A,3000.177223,N,12000.548570,E,76.2,138.0,230721,4.3,W,A*13
$GPGGA,000134.00,3000.177223,N,12000.548570,E,1,09,1.0,-18.0,M,7.0,M,,*48

$GPVTG,138.4,T,138.4,M,76.3,N,141.3,K,A*16
$GPDTM,P90,,0000.000022,S,00000.000001,W,0.988,W84*5A
$GPRMC,000134.10,A,3000.175640,N,12000.550195,E,76.3,138.4,230721,4.3,W,A*12
$GPGGA,000134.10,3000.175640,N,12000.550195,E,1,00,1.0,-18.1,M,7.0,M,,*44

$GPVTG,138.9,T,138.9,M,76.4,N,141.4,K,A*16
$GPDTM,P90,,0000.000022,S,00000.000001,W,0.988,W84*5A
$GPRMC,000134.20,A,3000.174046,N,12000.551809,E,76.4,138.9,230721,4.3,W,A*17
$GPGGA,000134.20,3000.174046,N,12000.551809,E,1,00,1.0,-18.2,M,7.0,M,,*48

$GPVTG,139.3,T,139.3,M,76.5,N,141.6,K,A*15
$GPDTM,P90,,0000.000022,S,00000.000001,W,0.988,W84*5A
$GPRMC,000134.30,A,3000.172438,N,12000.553411,E,76.5,139.3,230721,4.3,W,A*10
$GPGGA,000134.30,3000.172438,N,12000.553411,E,1,00,1.0,-18.2,M,7.0,M,,*45

$GPVTG,139.7,T,139.7,M,76.6,N,141.8,K,A*18
$GPDTM,P90,,0000.000022,S,00000.000001,W,0.988,W84*5A
$GPRMC,000134.40,A,3000.170816,N,12000.555000,E,76.6,139.7,230721,4.3,W,A*10
$GPGGA,000134.40,3000.170816,N,12000.555000,E,1,00,1.0,-18.3,M,7.0,M,,*43

$GPVTG,140.2,T,140.2,M,76.7,N,142.0,K,A*12
$GPDTM,P90,,0000.000022,S,00000.000001,W,0.988,W84*5A
$GPRMC,000134.50,A,3000.169183,N,12000.556577,E,76.7,140.2,230721,4.3,W,A*10
$GPGGA,000134.50,3000.169183,N,12000.556577,E,1,00,1.0,-18.4,M,7.0,M,,*4E

$GPVTG,140.6,T,140.6,M,76.8,N,142.3,K,A*1E
$GPDTM,P90,,0000.000022,S,00000.000001,W,0.988,W84*5A
$GPRMC,000134.60,A,3000.167536,N,12000.558143,E,76.8,140.6,230721,4.3,W,A*11
$GPGGA,000134.60,3000.167536,N,12000.558143,E,1,00,1.0,-18.5,M,7.0,M,,*45

$GPVTG,141.1,T,141.1,M,76.9,N,142.5,K,A*19
$GPDTM,P90,,0000.000022,S,00000.000001,W,0.988,W84*5A
$GPRMC,000134.70,A,3000.165877,N,12000.559696,E,76.9,141.1,230721,4.3,W,A*13
$GPGGA,000134.70,3000.165877,N,12000.559696,E,1,00,1.0,-18.6,M,7.0,M,,*43

$GPVTG,141.5,T,141.5,M,77.1,N,142.7,K,A*12
$GPDTM,P90,,0000.000022,S,00000.000001,W,0.988,W84*5A
$GPRMC,000134.80,A,3000.164204,N,12000.561237,E,77.1,141.5,230721,4.3,W,A*1A
$GPGGA,000134.80,3000.164204,N,12000.561237,E,1,00,1.0,-18.7,M,7.0,M,,*46

$GPVTG,141.9,T,141.9,M,77.2,N,143.0,K,A*17
$GPDTM,P90,,0000.000022,S,00000.000001,W,0.988,W84*5A
$GPRMC,000134.90,A,3000.162518,N,12000.562766,E,77.2,141.9,230721,4.3,W,A*1A
$GPGGA,000134.90,3000.162518,N,12000.562766,E,1,00,1.0,-18.8,M,7.0,M,,*46

$GPGSV,3,1,12,02,31,298,28,04,50,246,26,07,83,113,27,08,46,206,27*75
$GPGSV,3,2,12,13,48,030,26,20,21,120,27,23,26,056,26,25,65,042,27*70
$GPGSV,3,3,12,27,17,217,26,10,00,000,,16,00,000,,28,00,000,*75
$GLGSV,1,1,04,78,04,330,,77,55,327,,75,10,151,,71,00,000,*6C
$GAGSV,2,1,08,09,12,316,,10,63,333,,11,55,116,,12,05,129,*60
$GAGSV,2,2,08,17,29,039,,23,37,222,,24,84,019,,27,29,125,*6A
$PQGSV,1,1,0,0*43
$PQGSV,1,1,0,0*43
$GPGSA,A,3,02,04,07,08,13,20,23,25,27,,,,1.3,1.0,0.8*33
$GPVTG,142.8,T,142.8,M,76.6,N,141.9,K,A*19
$GPDTM,P90,,0000.000022,S,00000.000001,W,0.988,W84*5A
$GPRMC,000135.00,A,3000.161262,N,12000.563775,E,76.6,142.8,230721,4.3,W,A*1F
$GPGGA,000135.00,3000.161262,N,12000.563775,E,1,09,1.0,-17.7,M,7.0,M,,*4D

$GPVTG,143.3,T,143.3,M,76.7,N,142.1,K,A*13
$GPDTM,P90,,0000.000022,S,00000.000001,W,0.988,W84*5A
$GPRMC,000135.10,A,3000.159556,N,12000.565249,E,76.7,143.3,230721,4.3,W,A*12
$GPGGA,000135.10,3000.159556,N,12000.565249,E,1,00,1.0,-17.7,M,7.0,M,,*42

$GPVTG,143.8,T,143.8,M,76.8,N,142.3,K,A*1E
$GPDTM,P90,,0000.000022,S,00000.000001,W,0.988,W84*5A
$GPRMC,000135.20,A,3000.157837,N,12000.566708,E,76.8,143.8,230721,4.3,W,A*12
$GPGGA,000135.20,3000.157837,N,12000.566708,E,1,00,1.0,-17.7,M,7.0,M,,*46

$GPVTG,144.2,T,144.2,M,76.9,N,142.5,K,A*19
$GPDTM,P90,,0000.000022,S,00000.000001,W,0.988,W84*5A
$GPRMC,000135.30,A,3000.156105,N,12000.568154,E,76.9,144.2,230721,4.3,W,A*17
$GPGGA,000135.30,3000.156105,N,12000.568154,E,1,00,1.0,-17.7,M,7.0,M,,*4F

$GPVTG,144.7,T,144.7,M,77.0,N,142.7,K,A*13
$GPDTM,P90,,0000.000022,S,00000.000001,W,0.988,W84*5A
$GPRMC,000135.40,A,3000.154360,N,12000.569586,E,77.0,144.7,230721,4.3,W,A*14
$GPGGA,000135.40,3000.154360,N,12000.569586,E,1,00,1.0,-17.7,M,7.0,M,,*41

$GPVTG,145.1,T,145.1,M,77.2,N,142.9,K,A*1F
$GPDTM,P90,,0000.000022,S,00000.000001,W,0.988,W84*5A
$GPRMC,000135.50,A,3000.152603,N,12000.571004,E,77.2,145.1,230721,4.3,W,A*10
$GPGGA,000135.50,3000.152603,N,12000.571004,E,1,00,1.0,-17.7,M,7.0,M,,*40

$GPVTG,145.6,T,145.6,M,77.3,N,143.2,K,A*14
$GPDTM,P90,,0000.000022,S,00000.000001,W,0.988,W84*5A
$GPRMC,000135.60,A,3000.150834,N,12000.572408,E,77.3,145.6,230721,4.3,W,A*16
$GPGGA,000135.60,3000.150834,N,12000.572408,E,1,00,1.0,-17.7,M,7.0,M,,*40

$GPVTG,146.1,T,146.1,M,77.4,N,143.4,K,A*15
$GPDTM,P90,,0000.000022,S,00000.000001,W,0.988,W84*5A
$GPRMC,000135.70,A,3000.149052,N,12000.573799,E,77.4,146.1,230721,4.3,W,A*1E
$GPGGA,000135.70,3000.149052,N,12000.573799,E,1,00,1.0,-17.7,M,7.0,M,,*4B

$GPVTG,146.5,T,146.5,M,77.6,N,143.6,K,A*15
$GPDTM,P90,,0000.000022,S,00000.000001,W,0.988,W84*5A
$GPRMC,000135.80,A,3000.147257,N,12000.575175,E,77.6,146.5,230721,4.3,W,A*1C
$GPGGA,000135.80,3000.147257,N,12000.575175,E,1,00,1.0,-17.7,M,7.0,M,,*4F

$GPVTG,147.0,T,147.0,M,77.7,N,143.9,K,A*1B
$GPDTM,P90,,0000.000022,S,00000.000001,W,0.988,W84*5A
$GPRMC,000135.90,A,3000.145450,N,12000.576537,E,77.7,147.0,230721,4.3,W,A*1A
$GPGGA,000135.90,3000.145450,N,12000.576537,E,1,00,1.0,-17.7,M,7.0,M,,*4C

$GPGSV,3,1,12,02,31,298,26,04,50,246,28,07,83,113,28,08,46,206,26*7B
$GPGSV,3,2,12,13,48,030,27,20,21,120,27,23,26,056,26,25,65,042,28*7E
$GPGSV,3,3,12,27,17,217,27,10,00,000,,16,00,000,,28,00,000,*74
$GLGSV,1,1,04,78,04,330,,77,55,327,,75,10,151,,71,00,000,*6C
$GAGSV,2,1,08,09,12,316,,10,63,333,,11,55,116,,12,05,129,*60
$GAGSV,2,2,08,17,29,039,,23,37,222,,24,84,019,,27,29,125,*6A
$PQGSV,1,1,0,0*43
$PQGSV,1,1,0,0*43
$GPGSA,A,3,02,04,07,08,13,20,23,25,27,,,,1.3,1.0,0.8*33
$GPVTG,148.0,T,148.0,M,75.7,N,140.1,K,A*12
$GPDTM,P90,,0000.000022,S,00000.000001,W,0.988,W84*5A
$GPRMC,000136.00,A,3000.143563,N,12000.576396,E,75.7,148.0,230721,4.3,W,A*17
$GPGGA,000136.00,3000.143563,N,12000.576396,E,1,09,1.0,-18.1,M,7.0,M,,*4C

$GPVTG,148.5,T,148.5,M,75.7,N,140.2,K,A*11
$GPDTM,P90,,0000.000022,S,00000.000001,W,0.988,W84*5A
$GPRMC,000136.10,A,3000.141770,N,12000.577669,E,75.7,148.5,230721,4.3,W,A*15
$GPGGA,000136.10,3000.141770,N,12000.577669,E,1,00,1.0,-18.2,M,7.0,M,,*41

$GPVTG,149.0,T,149.0,M,75.7,N,140.3,K,A*10
$GPDTM,P90,,0000.000022,S,00000.000001,W,0.988,W84*5A
$GPRMC,000136.20,A,3000.139968,N,12000.578924,E,75.7,149.0,230721,4.3,W,A*13
$GPGGA,000136.20,3000.139968,N,12000.578924,E,1,00,1.0,-18.2,M,7.0,M,,*43

$GPVTG,149.5,T,149.5,M,75.8,N,140.3,K,A*1F
$GPDTM,P90,,0000.000022,S,00000.000001,W,0.988,W84*5A
$GPRMC,000136.30,A,3000.138154,N,12000.580162,E,75.8,149.5,230721,4.3,W,A*13
$GPGGA,000136.30,3000.138154,N,12000.580162,E,1,00,1.0,-18.2,M,7.0,M,,*49

$GPVTG,150.0,T,150.0,M,75.8,N,140.4,K,A*18
$GPDTM,P90,,0000.000022,S,00000.000001,W,0.988,W84*5A
$GPRMC,000136.40,A,3000.136331,N,12000.581383,E,75.8,150.0,230721,4.3,W,A*1A
$GPGGA,000136.40,3000.136331,N,12000.581383,E,1,00,1.0,-18.2,M,7.0,M,,*4D

$GPVTG,150.5,T,150.5,M,75.9,N,140.5,K,A*18
$GPDTM,P90,,0000.000022,S,00000.000001,W,0.988,W84*5A
$GPRMC,000136.50,A,3000.134497,N,12000.582586,E,75.9,150.5,230721,4.3,W,A*16
$GPGGA,000136.50,3000.134497,N,12000.582586,E,1,00,1.0,-18.3,M,7.0,M,,*44

$GPVTG,151.0,T,151.0,M,75.9,N,140.6,K,A*1B
$GPDTM,P90,,0000.000022,S,00000.000001,W,0.988,W84*5A
$GPRMC,000136.60,A,3000.132653,N,12000.583771,E,75.9,151.0,230721,4.3,W,A*16
$GPGGA,000136.60,3000.132653,N,12000.583771,E,1,00,1.0,-18.3,M,7.0,M,,*40

$GPVTG,151.5,T,151.5,M,76.0,N,140.7,K,A*10
$GPDTM,P90,,0000.000022,S,00000.000001,W,0.988,W84*5A
$GPRMC,000136.70,A,3000.130798,N,12000.584938,E,76.0,151.5,230721,4.3,W,A*18
$GPGGA,000136.70,3000.130798,N,12000.584938,E,1,00,1.0,-18.3,M,7.0,M,,*41

$GPVTG,152.0,T,152.0,M,76.0,N,140.8,K,A*1F
$GPDTM,P90,,0000.000022,S,00000.000001,W,0.988,W84*5A
$GPRMC,000136.80,A,3000.128933,N,12000.586088,E,76.0,152.0,230721,4.3,W,A*17
$GPGGA,000136.80,3000.128933,N,12000.586088,E,1,00,1.0,-18.3,M,7.0,M,,*48

$GPVTG,152.5,T,152.5,M,76.1,N,141.0,K,A*17
$GPDTM,P90,,0000.000022,S,00000.000001,W,0.988,W84*5A
$GPRMC,000136.90,A,3000.127058,N,12000.587221,E,76.1,152.5,230721,4.3,W,A*19
$GPGGA,000136.90,3000.127058,N,12000.587221,E,1,00,1.0,-18.3,M,7.0,M,,*42

$GPGSV,3,1,12,02,31,298,27,04,50,246,27,07,83,113,27,08,46,206,27*7B
$GPGSV,3,2,12,13,48,030,27,20,21,120,28,23,26,056,27,25,65,042,27*7F
$GPGSV,3,3,12,27,17,217,26,10,00,000,,16,00,000,,28,00,000,*75
$GLGSV,1,1,04,78,04,330,,77,55,327,,75,10,151,,71,00,000,*6C
$GAGSV,2,1,08,09,12,316,,10,63,333,,11,55,116,,12,05,129,*60
$GAGSV,2,2,08,17,29,039,,23,37,222,,24,84,019,,27,29,125,*6A
$PQGSV,1,1,0,0*43
$PQGSV,1,1,0,0*43
$GPGSA,A,3,02,04,07,08,13,20,23,25,27,,,,1.3,1.0,0.8*33
$GPVTG,151.4,T,151.4,M,74.9,N,138.6,K,A*15
$GPDTM,P90,,0000.000022,S,00000.000001,W,0.988,W84*5A
$GPRMC,000137.00,A,3000.125921,N,12000.588444,E,74.9,151.4,230721,4.3,W,A*16
$GPGGA,000137.00,3000.125921,N,12000.588444,E,1,09,1.0,-19.2,M,7.0,M,,*4C

$GPVTG,151.8,T,151.8,M,74.8,N,138.6,K,A*14
$GPDTM,P90,,0000.000022,S,00000.000001,W,0.988,W84*5A
$GPRMC,000137.10,A,3000.124089,N,12000.589585,E,74.8,151.8,230721,4.3,W,A*1D
$GPGGA,000137.10,3000.124089,N,12000.589585,E,1,00,1.0,-19.2,M,7.0,M,,*43

$GPVTG,152.2,T,152.2,M,74.8,N,138.6,K,A*14
$GPDTM,P90,,0000.000022,S,00000.000001,W,0.988,W84*5A
$GPRMC,000137.20,A,3000.122250,N,12000.590711,E,74.8,152.2,230721,4.3,W,A*10
$GPGGA,000137.20,3000.122250,N,12000.590711,E,1,00,1.0,-19.2,M,7.0,M,,*47

$GPVTG,152.6,T,152.6,M,74.8,N,138.6,K,A*14
$GPDTM,P90,,0000.000022,S,00000.000001,W,0.988,W84*5A
$GPRMC,000137.30,A,3000.120404,N,12000.591821,E,74.8,152.6,230721,4.3,W,A*1D
$GPGGA,000137.30,3000.120404,N,12000.591821,E,1,00,1.0,-19.3,M,7.0,M,,*4F

$GPVTG,153.0,T,153.0,M,74.8,N,138.6,K,A*14
$GPDTM,P90,,0000.000022,S,00000.000001,W,0.988,W84*5A
$GPRMC,000137.40,A,3000.118552,N,12000.592918,E,74.8,153.0,230721,4.3,W,A*1C
$GPGGA,000137.40,3000.118552,N,12000.592918,E,1,00,1.0,-19.3,M,7.0,M,,*49

$GPVTG,153.4,T,153.4,M,74.8,N,138.6,K,A*14
$GPDTM,P90,,0000.000022,S,00000.000001,W,0.988,W84*5A
$GPRMC,000137.50,A,3000.116693,N,12000.593998,E,74.8,153.4,230721,4.3,W,A*10
$GPGGA,000137.50,3000.116693,N,12000.593998,E,1,00,1.0,-19.3,M,7.0,M,,*41

$GPVTG,153.8,T,153.8,M,74.8,N,138.6,K,A*14
$GPDTM,P90,,0000.000022,S,00000.000001,W,0.988,W84*5A
$GPRMC,000137.60,A,3000.114827,N,12000.595064,E,74.8,153.8,230721,4.3,W,A*10
$GPGGA,000137.60,3000.114827,N,12000.595064,E,1,00,1.0,-19.4,M,7.0,M,,*4A

$GPVTG,154.2,T,154.2,M,74.8,N,138.6,K,A*14
$GPDTM,P90,,0000.000022,S,00000.000001,W,0.988,W84*5A
$GPRMC,000137.70,A,3000.112955,N,12000.596116,E,74.8,154.2,230721,4.3,W,A*19
$GPGGA,000137.70,3000.112955,N,12000.596116,E,1,00,1.0,-19.4,M,7.0,M,,*4E

$GPVTG,154.6,T,154.6,M,74.8,N,138.6,K,A*14
$GPDTM,P90,,0000.000022,S,00000.000001,W,0.988,W84*5A
$GPRMC,000137.80,A,3000.111077,N,12000.597151,E,74.8,154.6,230721,4.3,W,A*1A
$GPGGA,000137.80,3000.111077,N,12000.597151,E,1,00,1.0,-19.4,M,7.0,M,,*49

$GPVTG,155.0,T,155.0,M,74.9,N,138.6,K,A*15
$GPDTM,P90,,0000.000022,S,00000.000001,W,0.988,W84*5A
$GPRMC,000137.90,A,3000.109192,N,12000.598172,E,74.9,155.0,230721,4.3,W,A*10
$GPGGA,000137.90,3000.109192,N,12000.598172,E,1,00,1.0,-19.4,M,7.0,M,,*45

$GPGSV,3,1,12,02,31,298,27,04,50,246,27,07,83,113,27,08,46,206,27*7B
$GPGSV,3,2,12,13,48,030,26,20,21,120,27,23,26,056,26,25,65,042,27*70
$GPGSV,3,3,12,27,17,217,27,10,00,000,,16,00,000,,28,00,000,*74
$GLGSV,1,1,04,78,04,330,,77,55,327,,75,10,151,,71,00,000,*6C
$GAGSV,2,1,08,09,12,316,,10,63,333,,11,55,116,,12,05,129,*60
$GAGSV,2,2,08,17,29,039,,23,37,222,,24,84,019,,27,29,125,*6A
$PQGSV,1,1,0,0*43
$PQGSV,1,1,0,0*43
$GPGSA,A,3,02,04,07,08,13,20,23,25,27,,,,1.3,1.0,0.8*33
$GPVTG,156.0,T,156.0,M,76.0,N,140.7,K,A*10
$GPDTM,P90,,0000.000022,S,00000.000001,W,0.988,W84*5A
$GPRMC,000138.00,A,3000.106650,N,12000.599324,E,76.0,156.0,230721,4.3,W,A*18
$GPGGA,000138.00,3000.106650,N,12000.599324,E,1,09,1.0,-16.8,M,7.0,M,,*4F

$GPVTG,156.4,T,156.4,M,76.1,N,140.9,K,A*1F
$GPDTM,P90,,0000.000022,S,00000.000001,W,0.988,W84*5A
$GPRMC,000138.10,A,3000.104713,N,12000.600305,E,76.1,156.4,230721,4.3,W,A*18
$GPGGA,000138.10,3000.104713,N,12000.600305,E,1,00,1.0,-16.8,M,7.0,M,,*43

$GPVTG,156.8,T,156.8,M,76.2,N,141.0,K,A*14
$GPDTM,P90,,0000.000022,S,00000.000001,W,0.988,W84*5A
$GPRMC,000138.20,A,3000.102768,N,12000.601271,E,76.2,156.8,230721,4.3,W,A*1D
$GPGGA,000138.20,3000.102768,N,12000.601271,E,1,00,1.0,-16.8,M,7.0,M,,*49

$GPVTG,157.3,T,157.3,M,76.3,N,141.2,K,A*17
$GPDTM,P90,,0000.000022,S,00000.000001,W,0.988,W84*5A
$GPRMC,000138.30,A,3000.100814,N,12000.602221,E,76.3,157.3,230721,4.3,W,A*17
$GPGGA,000138.30,3000.100814,N,12000.602221,E,1,00,1.0,-16.7,M,7.0,M,,*47

$GPVTG,157.7,T,157.7,M,76.4,N,141.4,K,A*16
$GPDTM,P90,,0000.000022,S,00000.000001,W,0.988,W84*5A
$GPRMC,000138.40,A,3000.098851,N,12000.603156,E,76.4,157.7,230721,4.3,W,A*10
$GPGGA,000138.40,3000.098851,N,12000.603156,E,1,00,1.0,-16.7,M,7.0,M,,*43

$GPVTG,158.1,T,158.1,M,76.5,N,141.6,K,A*15
$GPDTM,P90,,0000.000022,S,00000.000001,W,0.988,W84*5A
$GPRMC,000138.50,A,3000.096879,N,12000.604076,E,76.5,158.1,230721,4.3,W,A*19
$GPGGA,000138.50,3000.096879,N,12000.604076,E,1,00,1.0,-16.6,M,7.0,M,,*43

$GPVTG,158.6,T,158.6,M,76.6,N,141.9,K,A*19
$GPDTM,P90,,0000.000022,S,00000.000001,W,0.988,W84*5A
$GPRMC,000138.60,A,3000.094898,N,12000.604979,E,76.6,158.6,230721,4.3,W,A*15
$GPGGA,000138.60,3000.094898,N,12000.604979,E,1,00,1.0,-16.6,M,7.0,M,,*4B

$GPVTG,159.0,T,159.0,M,76.7,N,142.1,K,A*13
$GPDTM,P90,,0000.000022,S,00000.000001,W,0.988,W84*5A
$GPRMC,000138.70,A,3000.092908,N,12000.605867,E,76.7,159.0,230721,4.3,W,A*13
$GPGGA,000138.70,3000.092908,N,12000.605867,E,1,00,1.0,-16.5,M,7.0,M,,*48

$GPVTG,159.4,T,159.4,M,76.8,N,142.3,K,A*1E
$GPDTM,P90,,0000.000022,S,00000.000001,W,0.988,W84*5A
$GPRMC,000138.80,A,3000.090910,N,12000.606740,E,76.8,159.4,230721,4.3,W,A*15
$GPGGA,000138.80,3000.090910,N,12000.606740,E,1,00,1.0,-16.5,M,7.0,M,,*45

$GPVTG,159.8,T,159.8,M,77.0,N,142.6,K,A*12
$GPDTM,P90,,0000.000022,S,00000.000001,W,0.988,W84*5A
$GPRMC,000138.90,A,3000.088903,N,12000.607598,E,77.0,159.8,230721,4.3,W,A*1C
$GPGGA,000138.90,3000.088903,N,12000.607598,E,1,00,1.0,-16.4,M,7.0,M,,*48

$GPGSV,3,1,12,02,31,298,27,04,50,246,27,07,83,113,26,08,46,206,27*7A
$GPGSV,3,2,12,13,48,030,26,20,21,120,26,23,26,056,27,25,65,042,27*70
$GPGSV,3,3,12,27,17,217,27,10,00,000,,16,00,000,,28,00,000,*74
$GLGSV,1,1,04,78,04,330,,77,55,327,,75,10,151,,71,00,000,*6C
$GAGSV,2,1,08,09,12,316,,10,63,333,,11,55,116,,12,05,129,*60
$GAGSV,2,2,08,17,29,039,,23,37,222,,24,84,019,,27,29,125,*6A
$PQGSV,1,1,0,0*43
$PQGSV,1,1,0,0*43
$GPGSA,A,3,02,04,07,08,13,20,23,25,27,,,,1.3,1.0,0.8*33
$GPVTG,160.8,T,160.8,M,75.0,N,139.0,K,A*1A
$GPDTM,P90,,0000.000022,S,00000.000001,W,0.988,W84*5A
$GPRMC,000139.00,A,3000.086998,N,12000.607760,E,75.0,160.8,230721,4.3,W,A*15
$GPGGA,000139.00,3000.086998,N,12000.607760,E,1,09,1.0,-17.3,M,7.0,M,,*46

$GPVTG,161.3,T,161.3,M,75.1,N,139.0,K,A*1B
$GPDTM,P90,,0000.000022,S,00000.000001,W,0.988,W84*5A
$GPRMC,000139.10,A,3000.085021,N,12000.608539,E,75.1,161.3,230721,4.3,W,A*16
$GPGGA,000139.10,3000.085021,N,12000.608539,E,1,00,1.0,-17.4,M,7.0,M,,*40

$GPVTG,161.8,T,161.8,M,75.1,N,139.0,K,A*1B
$GPDTM,P90,,0000.000022,S,00000.000001,W,0.988,W84*5A
$GPRMC,000139.20,A,3000.083039,N,12000.609300,E,75.1,161.8,230721,4.3,W,A*1C
$GPGGA,000139.20,3000.083039,N,12000.609300,E,1,00,1.0,-17.4,M,7.0,M,,*41

$GPVTG,162.2,T,162.2,M,75.1,N,139.1,K,A*1A
$GPDTM,P90,,0000.000022,S,00000.000001,W,0.988,W84*5A
$GPRMC,000139.30,A,3000.081050,N,12000.610042,E,75.1,162.2,230721,4.3,W,A*14
$GPGGA,000139.30,3000.081050,N,12000.610042,E,1,00,1.0,-17.4,M,7.0,M,,*40

$GPVTG,162.7,T,162.7,M,75.1,N,139.2,K,A*19
$GPDTM,P90,,0000.000022,S,00000.000001,W,0.988,W84*5A
$GPRMC,000139.40,A,3000.079055,N,12000.610766,E,75.1,162.7,230721,4.3,W,A*15
$GPGGA,000139.40,3000.079055,N,12000.610766,E,1,00,1.0,-17.4,M,7.0,M,,*44

$GPVTG,163.2,T,163.2,M,75.2,N,139.2,K,A*1A
$GPDTM,P90,,0000.000022,S,00000.000001,W,0.988,W84*5A
$GPRMC,000139.50,A,3000.077055,N,12000.611472,E,75.2,163.2,230721,4.3,W,A*1A
$GPGGA,000139.50,3000.077055,N,12000.611472,E,1,00,1.0,-17.5,M,7.0,M,,*4D

$GPVTG,163.6,T,163.6,M,75.2,N,139.3,K,A*1B
$GPDTM,P90,,0000.000022,S,00000.000001,W,0.988,W84*5A
$GPRMC,000139.60,A,3000.075048,N,12000.612160,E,75.2,163.6,230721,4.3,W,A*16
$GPGGA,000139.60,3000.075048,N,12000.612160,E,1,00,1.0,-17.5,M,7.0,M,,*45

$GPVTG,164.1,T,164.1,M,75.3,N,139.4,K,A*1D
$GPDTM,P90,,0000.000022,S,00000.000001,W,0.988,W84*5A
$GPRMC,000139.70,A,3000.073036,N,12000.612829,E,75.3,164.1,230721,4.3,W,A*1D
$GPGGA,000139.70,3000.073036,N,12000.612829,E,1,00,1.0,-17.5,M,7.0,M,,*4F

$GPVTG,164.6,T,164.6,M,75.3,N,139.5,K,A*1C
$GPDTM,P90,,0000.000022,S,00000.000001,W,0.988,W84*5A
$GPRMC,000139.80,A,3000.071017,N,12000.613479,E,75.3,164.6,230721,4.3,W,A*1C
$GPGGA,000139.80,3000.071017,N,12000.613479,E,1,00,1.0,-17.5,M,7.0,M,,*49

$GPVTG,165.0,T,165.0,M,75.4,N,139.6,K,A*18
$GPDTM,P90,,0000.000022,S,00000.000001,W,0.988,W84*5A
$GPRMC,000139.90,A,3000.068992,N,12000.614112,E,75.4,165.0,230721,4.3,W,A*1E
$GPGGA,000139.90,3000.068992,N,12000.614112,E,1,00,1.0,-17.6,M,7.0,M,,*48

$GPGSV,3,1,12,02,31,298,27,04,50,246,27,07,83,113,27,08,46,206,27*7B
$GPGSV,3,2,12,13,48,030,27,20,21,120,27,23,26,056,27,25,65,042,27*70
$GPGSV,3,3,12,27,17,217,27,10,00,000,,16,00,000,,28,00,000,*74
$GLGSV,1,1,04,78,04,330,,77,55,327,,75,10,151,,71,00,000,*6C
$GAGSV,2,1,08,09,12,316,,10,63,333,,11,55,116,,12,05,129,*60
$GAGSV,2,2,08,17,29,039,,23,37,222,,24,84,019,,27,29,125,*6A
$PQGSV,1,1,0,0*43
$PQGSV,1,1,0,0*43
$GPGSA,A,3,02,04,07,08,13,20,23,25,27,,,,1.3,1.0,0.8*33
$GPVTG,165.0,T,165.0,M,76.1,N,140.9,K,A*1F
$GPDTM,P90,,0000.000022,S,00000.000001,W,0.988,W84*5A
$GPRMC,000140.00,A,3000.066642,N,12000.614776,E,76.1,165.0,230721,4.3,W,A*17
$GPGGA,000140.00,3000.066642,N,12000.614776,E,1,09,1.0,-16.5,M,7.0,M,,*4C

$GPVTG,165.4,T,165.4,M,76.2,N,141.1,K,A*15
$GPDTM,P90,,0000.000022,S,00000.000001,W,0.988,W84*5A
$GPRMC,000140.10,A,3000.064592,N,12000.615397,E,76.2,165.4,230721,4.3,W,A*17
$GPGGA,000140.10,3000.064592,N,12000.615397,E,1,00,1.0,-16.5,M,7.0,M,,*42

$GPVTG,165.9,T,165.9,M,76.3,N,141.3,K,A*16
$GPDTM,P90,,0000.000022,S,00000.000001,W,0.988,W84*5A
$GPRMC,000140.20,A,3000.062536,N,12000.616002,E,76.3,165.9,230721,4.3,W,A*1C
$GPGGA,000140.20,3000.062536,N,12000.616002,E,1,00,1.0,-16.5,M,7.0,M,,*45

$GPVTG,166.3,T,166.3,M,76.4,N,141.5,K,A*17
$GPDTM,P90,,0000.000022,S,00000.000001,W,0.988,W84*5A
$GPRMC,000140.30,A,3000.060473,N,12000.616590,E,76.4,166.3,230721,4.3,W,A*1F
$GPGGA,000140.30,3000.060473,N,12000.616590,E,1,00,1.0,-16.5,M,7.0,M,,*48

$GPVTG,166.7,T,166.7,M,76.5,N,141.7,K,A*14
$GPDTM,P90,,0000.000022,S,00000.000001,W,0.988,W84*5A
$GPRMC,000140.40,A,3000.058403,N,12000.617162,E,76.5,166.7,230721,4.3,W,A*19
$GPGGA,000140.40,3000.058403,N,12000.617162,E,1,00,1.0,-16.5,M,7.0,M,,*4B

$GPVTG,167.1,T,167.1,M,76.6,N,141.9,K,A*19
$GPDTM,P90,,0000.000022,S,00000.000001,W,0.988,W84*5A
$GPRMC,000140.50,A,3000.056327,N,12000.617716,E,76.6,167.1,230721,4.3,W,A*16
$GPGGA,000140.50,3000.056327,N,12000.617716,E,1,00,1.0,-16.5,M,7.0,M,,*40

$GPVTG,167.5,T,167.5,M,76.7,N,142.1,K,A*13
$GPDTM,P90,,0000.000022,S,00000.000001,W,0.988,W84*5A
$GPRMC,000140.60,A,3000.054244,N,12000.618254,E,76.7,167.5,230721,4.3,W,A*1A
$GPGGA,000140.60,3000.054244,N,12000.618254,E,1,00,1.0,-16.5,M,7.0,M,,*49

$GPVTG,168.0,T,168.0,M,76.9,N,142.4,K,A*18
$GPDTM,P90,,0000.000022,S,00000.000001,W,0.988,W84*5A
$GPRMC,000140.70,A,3000.052154,N,12000.618775,E,76.9,168.0,230721,4.3,W,A*1D
$GPGGA,000140.70,3000.052154,N,12000.618775,E,1,00,1.0,-16.5,M,7.0,M,,*4A

$GPVTG,168.4,T,168.4,M,77.0,N,142.6,K,A*12
$GPDTM,P90,,0000.000022,S,00000.000001,W,0.988,W84*5A
$GPRMC,000140.80,A,3000.050057,N,12000.619279,E,77.0,168.4,230721,4.3,W,A*16
$GPGGA,000140.80,3000.050057,N,12000.619279,E,1,00,1.0,-16.5,M,7.0,M,,*4D

$GPVTG,168.8,T,168.8,M,77.1,N,142.8,K,A*1D
$GPDTM,P90,,0000.000022,S,00000.000001,W,0.988,W84*5A
$GPRMC,000140.90,A,3000.047953,N,12000.619766,E,77.1,168.8,230721,4.3,W,A*1A
$GPGGA,000140.90,3000.047953,N,12000.619766,E,1,00,1.0,-16.5,M,7.0,M,,*4C

$GPGSV,3,1,12,02,31,298,28,04,50,246,27,07,83,113,27,08,46,206,26*75
$GPGSV,3,2,12,13,48,030,27,20,21,120,27,23,26,056,27,25,65,042,27*70
$GPGSV,3,3,12,27,17,217,27,10,00,000,,16,00,000,,28,00,000,*74
$GLGSV,1,1,04,78,04,330,,77,55,327,,75,10,151,,71,00,000,*6C
$GAGSV,2,1,08,09,12,316,,10,63,333,,11,55,116,,12,05,129,*60
$GAGSV,2,2,08,17,29,039,,23,37,222,,24,84,019,,27,29,125,*6A
$PQGSV,1,1,0,0*43
$PQGSV,1,1,0,0*43
$GPGSA,A,3,02,04,07,08,13,20,23,25,27,,,,1.3,1.0,0.8*33
$GPVTG,169.4,T,169.4,M,75.4,N,139.7,K,A*19
$GPDTM,P90,,0000.000022,S,00000.000001,W,0.988,W84*5A
$GPRMC,000141.00,A,3000.046221,N,12000.619668,E,75.4,169.4,230721,4.3,W,A*18
$GPGGA,000141.00,3000.046221,N,12000.619668,E,1,09,1.0,-16.7,M,7.0,M,,*4F

$GPVTG,169.8,T,169.8,M,75.5,N,139.8,K,A*17
$GPDTM,P90,,0000.000022,S,00000.000001,W,0.988,W84*5A
$GPRMC,000141.10,A,3000.044155,N,12000.620104,E,75.5,169.8,230721,4.3,W,A*11
$GPGGA,000141.10,3000.044155,N,12000.620104,E,1,00,1.0,-16.7,M,7.0,M,,*42

$GPVTG,170.3,T,170.3,M,75.5,N,139.8,K,A*17
$GPDTM,P90,,0000.000022,S,00000.000001,W,0.988,W84*5A
$GPRMC,000141.20,A,3000.042085,N,12000.620522,E,75.5,170.3,230721,4.3,W,A*1B
$GPGGA,000141.20,3000.042085,N,12000.620522,E,1,00,1.0,-16.8,M,7.0,M,,*44

$GPVTG,170.7,T,170.7,M,75.5,N,139.9,K,A*16
$GPDTM,P90,,0000.000022,S,00000.000001,W,0.988,W84*5A
$GPRMC,000141.30,A,3000.040011,N,12000.620921,E,75.5,170.7,230721,4.3,W,A*1E
$GPGGA,000141.30,3000.040011,N,12000.620921,E,1,00,1.0,-16.8,M,7.0,M,,*45

$GPVTG,171.1,T,171.1,M,75.6,N,140.0,K,A*12
$GPDTM,P90,,0000.000022,S,00000.000001,W,0.988,W84*5A
$GPRMC,000141.40,A,3000.037934,N,12000.621304,E,75.6,171.1,230721,4.3,W,A*1F
$GPGGA,000141.40,3000.037934,N,12000.621304,E,1,00,1.0,-16.8,M,7.0,M,,*40

$GPVTG,171.6,T,171.6,M,75.6,N,140.1,K,A*13
$GPDTM,P90,,0000.000022,S,00000.000001,W,0.988,W84*5A
$GPRMC,000141.50,A,3000.035852,N,12000.621667,E,75.6,171.6,230721,4.3,W,A*1A
$GPGGA,000141.50,3000.035852,N,12000.621667,E,1,00,1.0,-16.9,M,7.0,M,,*43

$GPVTG,172.0,T,172.0,M,75.7,N,140.2,K,A*11
$GPDTM,P90,,0000.000022,S,00000.000001,W,0.988,W84*5A
$GPRMC,000141.60,A,3000.033767,N,12000.622014,E,75.7,172.0,230721,4.3,W,A*13
$GPGGA,000141.60,3000.033767,N,12000.622014,E,1,00,1.0,-16.9,M,7.0,M,,*4E

$GPVTG,172.4,T,172.4,M,75.7,N,140.3,K,A*10
$GPDTM,P90,,0000.000022,S,00000.000001,W,0.988,W84*5A
$GPRMC,000141.70,A,3000.031678,N,12000.622342,E,75.7,172.4,230721,4.3,W,A*1B
$GPGGA,000141.70,3000.031678,N,12000.622342,E,1,00,1.0,-17.0,M,7.0,M,,*4A

$GPVTG,172.9,T,172.9,M,75.8,N,140.4,K,A*18
$GPDTM,P90,,0000.000022,S,00000.000001,W,0.988,W84*5A
$GPRMC,000141.80,A,3000.029586,N,12000.622652,E,75.8,172.9,230721,4.3,W,A*19
$GPGGA,000141.80,3000.029586,N,12000.622652,E,1,00,1.0,-17.0,M,7.0,M,,*4A

$GPVTG,173.3,T,173.3,M,75.9,N,140.5,K,A*18
$GPDTM,P90,,0000.000022,S,00000.000001,W,0.988,W84*5A
$GPRMC,000141.90,A,3000.027490,N,12000.622945,E,75.9,173.3,230721,4.3,W,A*13
$GPGGA,000141.90,3000.027490,N,12000.622945,E,1,00,1.0,-17.1,M,7.0,M,,*4B

$GPGSV,3,1,12,02,31,298,26,04,50,246,27,07,83,113,27,08,46,206,27*7A
$GPGSV,3,2,12,13,48,030,27,20,21,120,27,23,26,056,26,25,65,042,27*71
$GPGSV,3,3,12,27,17,217,27,10,00,000,,16,00,000,,28,00,000,*74
$GLGSV,1,1,04,78,04,330,,77,55,327,,75,10,151,,71,00,000,*6C
$GAGSV,2,1,08,09,12,316,,10,63,333,,11,55,116,,12,05,129,*60
$GAGSV,2,2,08,17,29,039,,23,37,222,,24,84,019,,27,29,125,*6A
$PQGSV,1,1,0,0*43
$PQGSV,1,1,0,0*43
$GPGSA,A,3,02,04,07,08,13,20,23,25,27,,,,1.3,1.0,0.8*33
$GPVTG,173.8,T,173.8,M,76.8,N,142.1,K,A*1C
$GPDTM,P90,,0000.000022,S,00000.000001,W,0.988,W84*5A
$GPRMC,000142.00,A,3000.025813,N,12000.622455,E,76.8,173.8,230721,4.3,W,A*19
$GPGGA,000142.00,3000.025813,N,12000.622455,E,1,09,1.0,-17.3,M,7.0,M,,*43

$GPVTG,174.3,T,174.3,M,76.9,N,142.4,K,A*18
$GPDTM,P90,,0000.000022,S,00000.000001,W,0.988,W84*5A
$GPRMC,000142.10,A,3000.023686,N,12000.622710,E,76.9,174.3,230721,4.3,W,A*13
$GPGGA,000142.10,3000.023686,N,12000.622710,E,1,00,1.0,-17.2,M,7.0,M,,*4C

$GPVTG,174.7,T,174.7,M,77.0,N,142.6,K,A*12
$GPDTM,P90,,0000.000022,S,00000.000001,W,0.988,W84*5A
$GPRMC,000142.20,A,3000.021554,N,12000.622946,E,77.0,174.7,230721,4.3,W,A*1F
$GPGGA,000142.20,3000.021554,N,12000.622946,E,1,00,1.0,-17.2,M,7.0,M,,*4C

$GPVTG,175.1,T,175.1,M,77.1,N,142.9,K,A*1C
$GPDTM,P90,,0000.000022,S,00000.000001,W,0.988,W84*5A
$GPRMC,000142.30,A,3000.019416,N,12000.623165,E,77.1,175.1,230721,4.3,W,A*1C
$GPGGA,000142.30,3000.019416,N,12000.623165,E,1,00,1.0,-17.2,M,7.0,M,,*49

$GPVTG,175.6,T,175.6,M,77.3,N,143.1,K,A*17
$GPDTM,P90,,0000.000022,S,00000.000001,W,0.988,W84*5A
$GPRMC,000142.40,A,3000.017273,N,12000.623366,E,77.3,175.6,230721,4.3,W,A*14
$GPGGA,000142.40,3000.017273,N,12000.623366,E,1,00,1.0,-17.1,M,7.0,M,,*47

$GPVTG,176.0,T,176.0,M,77.4,N,143.4,K,A*15
$GPDTM,P90,,0000.000022,S,00000.000001,W,0.988,W84*5A
$GPRMC,000142.50,A,3000.015126,N,12000.623549,E,77.4,176.0,230721,4.3,W,A*1D
$GPGGA,000142.50,3000.015126,N,12000.623549,E,1,00,1.0,-17.1,M,7.0,M,,*4C

$GPVTG,176.4,T,176.4,M,77.6,N,143.6,K,A*15
$GPDTM,P90,,0000.000022,S,00000.000001,W,0.988,W84*5A
$GPRMC,000142.60,A,3000.012973,N,12000.623713,E,77.6,176.4,230721,4.3,W,A*1A
$GPGGA,000142.60,3000.012973,N,12000.623713,E,1,00,1.0,-17.1,M,7.0,M,,*4D

$GPVTG,176.8,T,176.8,M,77.7,N,143.9,K,A*1B
$GPDTM,P90,,0000.000022,S,00000.000001,W,0.988,W84*5A
$GPRMC,000142.70,A,3000.010815,N,12000.623860,E,77.7,176.8,230721,4.3,W,A*1E
$GPGGA,000142.70,3000.010815,N,12000.623860,E,1,00,1.0,-17.0,M,7.0,M,,*45

$GPVTG,177.2,T,177.2,M,77.9,N,144.2,K,A*19
$GPDTM,P90,,0000.000022,S,00000.000001,W,0.988,W84*5A
$GPRMC,000142.80,A,3000.008652,N,12000.623989,E,77.9,177.2,230721,4.3,W,A*16
$GPGGA,000142.80,3000.008652,N,12000.623989,E,1,00,1.0,-17.0,M,7.0,M,,*48

$GPVTG,177.7,T,177.7,M,78.0,N,144.5,K,A*18
$GPDTM,P90,,0000.000022,S,00000.000001,W,0.988,W84*5A
$GPRMC,000142.90,A,3000.006484,N,12000.624099,E,78.0,177.7,230721,4.3,W,A*1C
$GPGGA,000142.90,3000.006484,N,12000.624099,E,1,00,1.0,-16.9,M,7.0,M,,*49

