$GPGSV,3,1,12,02,31,298,42,04,50,246,42,07,83,113,42,08,46,206,42*7B
$GPGSV,3,2,12,13,48,030,42,20,21,120,42,23,26,056,42,25,65,042,42*70
$GPGSV,3,3,12,27,17,217,42,10,00,000,,16,00,000,,28,00,000,*77
$GLGSV,2,1,07,78,06,330,40,86,33,023,40,77,55,327,40,75,10,151,40*67
$GLGSV,2,2,07,88,19,243,40,87,60,299,40,71,00,000,*52
$GAGSV,2,1,08,09,12,316,,10,63,333,,11,55,116,,12,05,129,*60
$GAGSV,2,2,08,17,29,039,,23,37,222,,24,84,019,,27,29,125,*6A
$PQGSV,1,1,0,0*43
$PQGSV,1,1,0,0*43
$GPGSA,A,3,02,04,07,08,13,20,23,25,27,,,,1.3,1.0,0.8*33
$GPVTG,,T,,M,0.0,N,0.0,K,A*23
$GPDTM,P90,,0000.000022,S,00000.000001,W,0.988,W84*5A
$GPRMC,000118.00,A,2959.999854,N,12000.000304,E,0.0,,230721,4.3,W,A*00
$GPGGA,000118.00,2959.999854,N,12000.000304,E,1,09,1.0,-7.1,M,7.0,M,,*73

$GPGSV,3,1,12,02,31,298,42,04,50,246,42,07,83,113,42,08,46,206,42*7B
$GPGSV,3,2,12,13,48,030,42,20,21,120,42,23,26,056,42,25,65,042,42*70
$GPGSV,3,3,12,27,17,217,42,10,00,000,,16,00,000,,28,00,000,*77
$GLGSV,2,1,07,78,06,330,40,86,33,023,40,77,55,327,40,75,10,151,40*67
$GLGSV,2,2,07,88,19,243,40,87,60,299,40,71,00,000,*52
$GAGSV,2,1,08,09,12,316,,10,63,333,,11,55,116,,12,05,129,*60
$GAGSV,2,2,08,17,29,039,,23,37,222,,24,84,019,,27,29,125,*6A
$PQGSV,1,1,0,0*43
$PQGSV,1,1,0,0*43
$GPGSA,A,3,02,04,07,08,13,20,23,25,27,,,,1.3,1.0,0.8*33
$GPVTG,,T,,M,0.0,N,0.0,K,A*23
$GPDTM,P90,,0000.000022,S,00000.000001,W,0.988,W84*5A
$GPRMC,000119.00,A,2959.999867,N,12000.000278,E,0.0,,230721,4.3,W,A*0B
$GPGGA,000119.00,2959.999867,N,12000.000278,E,1,09,1.0,-7.0,M,7.0,M,,*79

$GPGSV,3,1,12,02,31,298,42,04,50,246,42,07,83,113,42,08,46,206,42*7B
$GPGSV,3,2,12,13,48,030,42,20,21,120,42,23,26,056,42,25,65,042,42*70
$GPGSV,3,3,12,27,17,217,42,10,00,000,,16,00,000,,28,00,000,*77
$GLGSV,2,1,07,78,06,330,40,86,33,023,40,77,55,327,40,75,10,151,40*67
$GLGSV,2,2,07,88,19,243,40,87,60,299,41,71,00,000,*53
$GAGSV,2,1,08,09,12,316,,10,63,333,,11,55,116,,12,05,129,*60
$GAGSV,2,2,08,17,29,039,,23,37,222,,24,84,019,,27,29,125,*6A
$PQGSV,1,1,0,0*43
$PQGSV,1,1,0,0*43
$GPGSA,A,3,02,04,07,08,13,20,23,25,27,,,,1.3,1.0,0.8*33
$GPVTG,,T,,M,0.0,N,0.0,K,A*23
$GPDTM,P90,,0000.000022,S,00000.000001,W,0.988,W84*5A
$GPRMC,000120.00,A,2959.999891,N,12000.000268,E,0.0,,230721,4.3,W,A*09
$GPGGA,000120.00,2959.999891,N,12000.000268,E,1,09,1.0,-7.0,M,7.0,M,,*7B

$GPGSV,3,1,12,02,31,298,42,04,50,246,42,07,83,113,42,08,46,206,42*7B
$GPGSV,3,2,12,13,48,030,42,20,21,120,42,23,26,056,42,25,65,042,42*70
$GPGSV,3,3,12,27,17,217,42,10,00,000,,16,00,000,,28,00,000,*77
$GLGSV,2,1,07,78,06,330,41,86,33,023,40,77,55,327,41,75,10,151,40*67
$GLGSV,2,2,07,88,19,243,41,87,60,299,41,71,00,000,*52
$GAGSV,2,1,08,09,12,316,,10,63,333,,11,55,116,,12,05,129,*60
$GAGSV,2,2,08,17,29,039,,23,37,222,,24,84,019,,27,29,125,*6A
$PQGSV,1,1,0,0*43
$PQGSV,1,1,0,0*43
$GPGSA,A,3,02,04,07,08,13,20,23,25,27,,,,1.3,1.0,0.8*33
$GPVTG,,T,,M,0.0,N,0.0,K,A*23
$GPDTM,P90,,0000.000022,S,00000.000001,W,0.988,W84*5A
$GPRMC,000121.00,A,2959.999918,N,12000.000229,E,0.0,,230721,4.3,W,A*0D
$GPGGA,000121.00,2959.999918,N,12000.000229,E,1,09,1.0,-7.0,M,7.0,M,,*7F

$GPGSV,3,1,11,02,31,298,42,04,50,246,42,07,83,113,42,08,46,206,42*78
$GPGSV,3,2,11,13,48,030,42,20,21,120,42,23,26,056,42,25,65,042,42*73
$GPGSV,3,3,11,27,17,217,42,16,00,000,,28,00,000,*45
$GLGSV,2,1,07,78,06,330,40,86,33,023,40,77,55,327,40,75,10,151,40*67
$GLGSV,2,2,07,88,19,243,40,87,60,299,41,71,00,000,*53
$GAGSV,2,1,08,09,12,316,,10,63,333,,11,55,116,,12,05,129,*60
$GAGSV,2,2,08,17,29,039,,23,37,222,,24,84,019,,27,29,125,*6A
$PQGSV,1,1,0,0*43
$PQGSV,1,1,0,0*43
$GPGSA,A,3,02,04,07,08,13,20,23,25,27,,,,1.3,1.0,0.8*33
$GPVTG,,T,,M,0.0,N,0.0,K,A*23
$GPDTM,P90,,0000.000022,S,00000.000001,W,0.988,W84*5A
$GPRMC,000122.00,A,2959.999895,N,12000.000268,E,0.0,,230721,4.3,W,A*0F
$GPGGA,000122.00,2959.999895,N,12000.000268,E,1,09,1.0,-7.0,M,7.0,M,,*7D

$GPGSV,3,1,12,02,31,298,42,04,50,246,42,07,83,113,42,08,46,206,42*7B
$GPGSV,3,2,12,13,48,030,42,20,21,120,42,23,26,056,42,25,65,042,42*70
$GPGSV,3,3,12,27,17,217,42,10,00,000,,16,00,000,,28,00,000,*77
$GLGSV,2,1,07,78,06,330,40,86,33,023,40,77,55,327,41,75,10,151,40*66
$GLGSV,2,2,07,88,19,243,40,87,60,299,40,71,00,000,*52
$GAGSV,2,1,08,09,12,316,,10,63,333,,11,55,116,,12,05,129,*60
$GAGSV,2,2,08,17,29,039,,23,37,222,,24,84,019,,27,29,125,*6A
$PQGSV,1,1,0,0*43
$PQGSV,1,1,0,0*43
$GPGSA,A,3,02,04,07,08,13,20,23,25,27,,,,1.3,1.0,0.8*33
$GPVTG,,T,,M,0.0,N,0.0,K,A*23
$GPDTM,P90,,0000.000022,S,00000.000001,W,0.988,W84*5A
$GPRMC,000123.00,A,2959.999924,N,12000.000244,E,0.0,,230721,4.3,W,A*0B
$GPGGA,000123.00,2959.999924,N,12000.000244,E,1,09,1.0,-6.9,M,7.0,M,,*71

$GPGSV,3,1,12,02,31,298,42,04,50,246,42,07,83,113,42,08,46,206,42*7B
$GPGSV,3,2,12,13,48,030,42,20,21,120,42,23,26,056,42,25,65,042,42*70
$GPGSV,3,3,12,27,17,217,42,10,00,000,,16,00,000,,28,00,000,*77
$GLGSV,2,1,07,78,06,330,41,86,33,023,40,77,55,327,40,75,10,151,40*66
$GLGSV,2,2,07,88,19,243,40,87,60,299,40,71,00,000,*52
$GAGSV,2,1,08,09,12,316,,10,63,333,,11,55,116,,12,05,129,*60
$GAGSV,2,2,08,17,29,039,,23,37,222,,24,84,019,,27,29,125,*6A
$PQGSV,1,1,0,0*43
$PQGSV,1,1,0,0*43
$GPGSA,A,3,02,04,07,08,13,20,23,25,27,,,,1.3,1.0,0.8*33
$GPVTG,,T,,M,0.0,N,0.0,K,A*23
$GPDTM,P90,,0000.000022,S,00000.000001,W,0.988,W84*5A
$GPRMC,000124.00,A,2959.999931,N,12000.000251,E,0.0,,230721,4.3,W,A*0C
$GPGGA,000124.00,2959.999931,N,12000.000251,E,1,09,1.0,-6.9,M,7.0,M,,*76

$GPGSV,3,1,11,02,31,298,42,04,50,246,42,07,83,113,42,08,46,206,42*78
$GPGSV,3,2,11,13,48,030,42,20,21,120,42,23,26,056,42,25,65,042,42*73
$GPGSV,3,3,11,27,17,217,42,10,00,000,,28,00,000,*43
$GLGSV,2,1,07,78,06,330,40,86,33,023,40,77,55,327,40,75,10,151,40*67
$GLGSV,2,2,07,88,19,243,40,87,60,299,40,71,00,000,*52
$GAGSV,2,1,08,09,12,316,,10,63,333,,11,55,116,,12,05,129,*60
$GAGSV,2,2,08,17,29,039,,23,37,222,,24,84,019,,27,29,125,*6A
$PQGSV,1,1,0,0*43
$PQGSV,1,1,0,0*43
$GPGSA,A,3,02,04,07,08,13,20,23,25,27,,,,1.3,1.0,0.8*33
$GPVTG,,T,,M,0.0,N,0.0,K,A*23
$GPDTM,P90,,0000.000022,S,00000.000001,W,0.988,W84*5A
$GPRMC,000125.00,A,2959.999950,N,12000.000248,E,0.0,,230721,4.3,W,A*02
$GPGGA,000125.00,2959.999950,N,12000.000248,E,1,09,1.0,-7.0,M,7.0,M,,*70

$GPGSV,3,1,12,02,31,298,42,04,50,246,42,07,83,113,42,08,46,206,42*7B
$GPGSV,3,2,12,13,48,030,42,20,21,120,42,23,26,056,42,25,65,042,42*70
$GPGSV,3,3,12,27,17,217,42,10,00,000,,16,00,000,,28,00,000,*77
$GLGSV,2,1,07,78,06,330,41,86,33,023,40,77,55,327,40,75,10,151,40*66
$GLGSV,2,2,07,88,19,243,40,87,60,299,40,71,00,000,*52
$GAGSV,2,1,08,09,12,316,,10,63,333,,11,55,116,,12,05,129,*60
$GAGSV,2,2,08,17,29,039,,23,37,222,,24,84,019,,27,29,125,*6A
$PQGSV,1,1,0,0*43
$PQGSV,1,1,0,0*43
$GPGSA,A,3,02,04,07,08,13,20,23,25,27,,,,1.3,1.0,0.8*33
$GPVTG,,T,,M,0.0,N,0.0,K,A*23
$GPDTM,P90,,0000.000022,S,00000.000001,W,0.988,W84*5A
$GPRMC,000126.00,A,2959.999958,N,12000.000242,E,0.0,,230721,4.3,W,A*03
$GPGGA,000126.00,2959.999958,N,12000.000242,E,1,09,1.0,-6.7,M,7.0,M,,*77

$GPGSV,3,1,12,02,31,298,42,04,50,246,42,07,83,113,42,08,46,206,42*7B
$GPGSV,3,2,12,13,48,030,42,20,21,120,42,23,26,056,42,25,65,042,42*70
$GPGSV,3,3,12,27,17,217,42,10,00,000,,16,00,000,,28,00,000,*77
$GLGSV,2,1,07,78,06,330,40,86,33,023,40,77,55,327,40,75,10,151,41*66
$GLGSV,2,2,07,88,19,243,41,87,60,299,40,71,00,000,*53
$GAGSV,2,1,08,09,12,316,,10,63,333,,11,55,116,,12,05,129,*60
$GAGSV,2,2,08,17,29,039,,23,37,222,,24,84,019,,27,29,125,*6A
$PQGSV,1,1,0,0*43
$PQGSV,1,1,0,0*43
$GPGSA,A,3,02,04,07,08,13,20,23,25,27,,,,1.3,1.0,0.8*33
$GPVTG,,T,,M,0.0,N,0.0,K,A*23
$GPDTM,P90,,0000.000022,S,00000.000001,W,0.988,W84*5A
$GPRMC,000127.00,A,2959.999960,N,12000.000239,E,0.0,,230721,4.3,W,A*05
$GPGGA,000127.00,2959.999960,N,12000.000239,E,1,09,1.0,-6.8,M,7.0,M,,*7E

$GPGSV,3,1,12,02,31,298,42,04,50,246,42,07,83,113,42,08,46,206,42*7B
$GPGSV,3,2,12,13,48,030,42,20,21,120,42,23,26,056,42,25,65,042,42*70
$GPGSV,3,3,12,27,17,217,42,10,00,000,,16,00,000,,28,00,000,*77
$GLGSV,2,1,07,78,06,330,40,86,33,023,40,77,55,327,40,75,10,151,40*67
$GLGSV,2,2,07,88,19,243,40,87,60,299,40,71,00,000,*52
$GAGSV,2,1,08,09,12,316,,10,63,333,,11,55,116,,12,05,129,*60
$GAGSV,2,2,08,17,29,039,,23,37,222,,24,84,019,,27,29,125,*6A
$PQGSV,1,1,0,0*43
$PQGSV,1,1,0,0*43
$GPGSA,A,3,02,04,07,08,13,20,23,25,27,,,,1.3,1.0,0.8*33
$GPVTG,,T,,M,0.0,N,0.0,K,A*23
$GPDTM,P90,,0000.000022,S,00000.000001,W,0.988,W84*5A
$GPRMC,000128.00,A,2959.999962,N,12000.000238,E,0.0,,230721,4.3,W,A*09
$GPGGA,000128.00,2959.999962,N,12000.000238,E,1,09,1.0,-6.9,M,7.0,M,,*73

$GPGSV,3,1,11,02,31,298,42,04,50,246,42,07,83,113,42,08,46,206,42*78
$GPGSV,3,2,11,13,48,030,42,20,21,120,42,23,26,056,42,25,65,042,42*73
$GPGSV,3,3,11,27,17,217,42,16,00,000,,28,00,000,*45
$GLGSV,2,1,07,78,06,330,40,86,33,023,40,77,55,327,40,75,10,151,40*67
$GLGSV,2,2,07,88,19,243,40,87,60,299,41,71,00,000,*53
$GAGSV,2,1,08,09,12,316,,10,63,333,,11,55,116,,12,05,129,*60
$GAGSV,2,2,08,17,29,039,,23,37,222,,24,84,019,,27,29,125,*6A
$PQGSV,1,1,0,0*43
$PQGSV,1,1,0,0*43
$GPGSA,A,3,02,04,07,08,13,20,23,25,27,,,,1.3,1.0,0.8*33
$GPVTG,,T,,M,0.0,N,0.0,K,A*23
$GPDTM,P90,,0000.000022,S,00000.000001,W,0.988,W84*5A
$GPRMC,000129.00,A,2959.999962,N,12000.000236,E,0.0,,230721,4.3,W,A*06
$GPGGA,000129.00,2959.999962,N,12000.000236,E,1,09,1.0,-6.9,M,7.0,M,,*7C

$GPGSV,3,1,11,02,31,298,42,04,50,246,42,07,83,113,42,08,46,206,42*78
$GPGSV,3,2,11,13,48,030,42,20,21,120,42,23,26,056,42,25,65,042,42*73
$GPGSV,3,3,11,27,17,217,42,10,00,000,,28,00,000,*43
$GLGSV,2,1,07,78,06,330,40,86,33,023,40,77,55,327,41,75,10,151,40*66
$GLGSV,2,2,07,88,19,243,40,87,60,299,40,71,00,000,*52
$GAGSV,2,1,08,09,12,316,,10,63,333,,11,55,116,,12,05,129,*60
$GAGSV,2,2,08,17,29,039,,23,37,222,,24,84,019,,27,29,125,*6A
$PQGSV,1,1,0,0*43
$PQGSV,1,1,0,0*43
$GPGSA,A,3,02,04,07,08,13,20,23,25,27,,,,1.3,1.0,0.8*33
$GPVTG,,T,,M,0.0,N,0.0,K,A*23
$GPDTM,P90,,0000.000022,S,00000.000001,W,0.988,W84*5A
$GPRMC,000130.00,A,2959.999962,N,12000.000236,E,0.0,,230721,4.3,W,A*0E
$GPGGA,000130.00,2959.999962,N,12000.000236,E,1,09,1.0,-6.9,M,7.0,M,,*74

$GPGSV,3,1,12,02,31,298,42,04,50,246,42,07,83,113,42,08,46,206,42*7B
$GPGSV,3,2,12,13,48,030,42,20,21,120,42,23,26,056,42,25,65,042,42*70
$GPGSV,3,3,12,27,17,217,42,10,00,000,,16,00,000,,28,00,000,*77
$GLGSV,2,1,07,78,06,330,40,86,33,023,40,77,55,327,40,75,10,151,40*67
$GLGSV,2,2,07,88,19,243,40,87,60,299,40,71,00,000,*52
$GAGSV,2,1,08,09,12,316,,10,63,333,,11,55,116,,12,05,129,*60
$GAGSV,2,2,08,17,29,039,,23,37,222,,24,84,019,,27,29,125,*6A
$PQGSV,1,1,0,0*43
$PQGSV,1,1,0,0*43
$GPGSA,A,3,02,04,07,08,13,20,23,25,27,,,,1.3,1.0,0.8*33
$GPVTG,,T,,M,0.0,N,0.0,K,A*23
$GPDTM,P90,,0000.000022,S,00000.000001,W,0.988,W84*5A
$GPRMC,000131.00,A,2959.999962,N,12000.000236,E,0.0,,230721,4.3,W,A*0F
$GPGGA,000131.00,2959.999962,N,12000.000236,E,1,09,1.0,-7.0,M,7.0,M,,*7D

$GPGSV,3,1,12,02,31,298,42,04,50,246,42,07,83,113,42,08,46,206,42*7B
$GPGSV,3,2,12,13,48,030,42,20,21,120,42,23,26,056,42,25,65,042,42*70
$GPGSV,3,3,12,27,17,217,42,10,00,000,,16,00,000,,28,00,000,*77
$GLGSV,2,1,07,78,06,330,40,86,33,023,40,77,55,327,40,75,10,151,40*67
$GLGSV,2,2,07,88,19,243,40,87,60,299,41,71,00,000,*53
$GAGSV,2,1,08,09,12,316,,10,63,333,,11,55,116,,12,05,129,*60
$GAGSV,2,2,08,17,29,039,,23,37,222,,24,84,019,,27,29,125,*6A
$PQGSV,1,1,0,0*43
$PQGSV,1,1,0,0*43
$GPGSA,A,3,02,04,07,08,13,20,23,25,27,,,,1.3,1.0,0.8*33
$GPVTG,,T,,M,0.0,N,0.0,K,A*23
$GPDTM,P90,,0000.000022,S,00000.000001,W,0.988,W84*5A
$GPRMC,000132.00,A,2959.999962,N,12000.000236,E,0.0,,230721,4.3,W,A*0C
$GPGGA,000132.00,2959.999962,N,12000.000236,E,1,09,1.0,-7.0,M,7.0,M,,*7E

$GPGSV,3,1,12,02,31,298,42,04,50,246,42,07,83,113,42,08,46,206,42*7B
$GPGSV,3,2,12,13,48,030,42,20,21,120,42,23,26,056,42,25,65,042,42*70
$GPGSV,3,3,12,27,17,217,42,10,00,000,,16,00,000,,28,00,000,*77
$GLGSV,2,1,07,78,06,330,41,86,33,023,40,77,55,327,40,75,10,151,41*67
$GLGSV,2,2,07,88,19,243,40,87,60,299,41,71,00,000,*53
$GAGSV,2,1,08,09,12,316,,10,63,333,,11,55,116,,12,05,129,*60
$GAGSV,2,2,08,17,29,039,,23,37,222,,24,84,019,,27,29,125,*6A
$PQGSV,1,1,0,0*43
$PQGSV,1,1,0,0*43
$GPGSA,A,3,02,04,07,08,13,20,23,25,27,,,,1.3,1.0,0.8*33
$GPVTG,,T,,M,0.0,N,0.0,K,A*23
$GPDTM,P90,,0000.000022,S,00000.000001,W,0.988,W84*5A
$GPRMC,000133.00,A,2959.999962,N,12000.000236,E,0.0,,230721,4.3,W,A*0D
$GPGGA,000133.00,2959.999962,N,12000.000236,E,1,09,1.0,-7.0,M,7.0,M,,*7F

$GPGSV,3,1,11,02,31,298,42,04,50,246,42,07,83,113,42,08,46,206,42*78
$GPGSV,3,2,11,13,48,030,42,20,21,120,42,23,26,056,42,25,65,042,42*73
$GPGSV,3,3,11,27,17,217,42,16,00,000,,28,00,000,*45
$GLGSV,2,1,07,78,06,330,40,86,33,023,40,77,55,327,41,75,10,151,41*67
$GLGSV,2,2,07,88,19,243,40,87,60,299,41,71,00,000,*53
$GAGSV,2,1,08,09,12,316,,10,63,333,,11,55,116,,12,05,129,*60
$GAGSV,2,2,08,17,29,039,,23,37,222,,24,84,019,,27,29,125,*6A
$PQGSV,1,1,0,0*43
$PQGSV,1,1,0,0*43
$GPGSA,A,3,02,04,07,08,13,20,23,25,27,,,,1.2,0.9,0.8*3A
$GPVTG,,T,,M,0.0,N,0.0,K,A*23
$GPDTM,P90,,0000.000022,S,00000.000001,W,0.988,W84*5A
$GPRMC,000134.00,A,3000.000012,N,12000.000202,E,0.0,,230721,4.3,W,A*0E
$GPGGA,000134.00,3000.000012,N,12000.000202,E,1,09,0.9,-7.3,M,7.0,M,,*77

$GPGSV,3,1,12,02,31,298,42,04,50,246,42,07,83,113,42,08,46,206,42*7B
$GPGSV,3,2,12,13,48,030,42,20,21,120,42,23,26,056,42,25,65,042,42*70
$GPGSV,3,3,12,27,17,217,42,10,00,000,,16,00,000,,28,00,000,*77
$GLGSV,2,1,07,78,06,330,40,86,33,023,40,77,55,326,40,75,10,151,41*67
$GLGSV,2,2,07,88,19,243,40,87,60,299,40,71,00,000,*52
$GAGSV,2,1,08,09,12,316,,10,63,333,,11,55,116,,12,05,129,*60
$GAGSV,2,2,08,17,29,039,,23,37,222,,24,84,019,,27,29,125,*6A
$PQGSV,1,1,0,0*43
$PQGSV,1,1,0,0*43
$GPGSA,A,3,02,04,07,08,13,20,23,25,27,,,,1.2,0.9,0.8*3A
$GLGSA,A,3,77,78,86,,,,,,,,,,1.2,0.9,0.8*2D
$GPVTG,,T,,M,0.0,N,0.0,K,A*23
$GPDTM,P90,,0000.000022,S,00000.000001,W,0.988,W84*5A
$GPRMC,000135.00,A,2959.999999,N,12000.000220,E,0.0,,230721,4.3,W,A*08
$GPGGA,000135.00,2959.999999,N,12000.000220,E,1,12,0.9,-7.2,M,7.0,M,,*7A

$GPGSV,3,1,12,02,31,298,42,04,50,246,42,07,83,113,42,08,46,206,42*7B
$GPGSV,3,2,12,13,48,030,42,20,21,120,42,23,26,056,42,25,65,042,42*70
$GPGSV,3,3,12,27,17,217,42,10,00,000,,16,00,000,,28,00,000,*77
$GLGSV,2,1,07,78,06,330,40,86,33,023,40,77,55,326,40,75,10,151,41*67
$GLGSV,2,2,07,88,19,243,40,87,60,299,41,71,00,000,*53
$GAGSV,2,1,08,09,12,316,,10,63,333,,11,55,116,,12,05,129,*60
$GAGSV,2,2,08,17,29,039,,23,37,222,,24,84,019,,27,29,125,*6A
$PQGSV,1,1,0,0*43
$PQGSV,1,1,0,0*43
$GPGSA,A,3,02,04,07,08,13,20,23,25,27,,,,1.2,0.9,0.8*3A
$GLGSA,A,3,77,78,86,,,,,,,,,,1.2,0.9,0.8*2D
$GPVTG,,T,,M,0.0,N,0.0,K,A*23
$GPDTM,P90,,0000.000022,S,00000.000001,W,0.988,W84*5A
$GPRMC,000136.00,A,3000.000035,N,12000.000197,E,0.0,,230721,4.3,W,A*06
$GPGGA,000136.00,3000.000035,N,12000.000197,E,1,12,0.9,-7.4,M,7.0,M,,*72

$GPGSV,3,1,12,02,31,298,42,04,50,246,42,07,83,113,42,08,46,206,42*7B
$GPGSV,3,2,12,13,48,030,42,20,21,120,42,23,26,056,42,25,65,042,42*70
$GPGSV,3,3,12,27,17,217,42,10,00,000,,16,00,000,,28,00,000,*77
$GLGSV,2,1,07,78,06,330,40,86,33,023,40,77,55,326,40,75,10,151,41*67
$GLGSV,2,2,07,88,19,243,40,87,60,299,41,71,00,000,*53
$GAGSV,2,1,08,09,12,316,,10,63,333,,11,55,116,,12,05,129,*60
$GAGSV,2,2,08,17,29,039,,23,37,222,,24,84,019,,27,29,125,*6A
$PQGSV,1,1,0,0*43
$PQGSV,1,1,0,0*43
$GPGSA,A,3,02,04,07,08,13,20,23,25,27,,,,1.2,0.9,0.8*3A
$GLGSA,A,3,77,78,86,,,,,,,,,,1.2,0.9,0.8*2D
$GPVTG,,T,,M,0.0,N,0.0,K,A*23
$GPDTM,P90,,0000.000022,S,00000.000001,W,0.988,W84*5A
$GPRMC,000137.00,A,3000.000060,N,12000.000179,E,0.0,,230721,4.3,W,A*07
$GPGGA,000137.00,3000.000060,N,12000.000179,E,1,12,0.9,-7.6,M,7.0,M,,*71

$GPGSV,3,1,12,02,31,298,42,04,50,246,42,07,83,113,42,08,46,206,42*7B
$GPGSV,3,2,12,13,48,030,42,20,21,120,42,23,26,056,42,25,65,042,42*70
$GPGSV,3,3,12,27,17,217,42,10,00,000,,16,00,000,,28,00,000,*77
$GLGSV,2,1,07,78,06,330,40,86,33,023,40,77,55,326,41,75,10,151,41*66
$GLGSV,2,2,07,88,19,243,40,87,60,299,41,71,00,000,*53
$GAGSV,2,1,08,09,12,316,,10,63,333,,11,55,116,,12,05,129,*60
$GAGSV,2,2,08,17,29,039,,23,37,222,,24,84,019,,27,29,125,*6A
$PQGSV,1,1,0,0*43
$PQGSV,1,1,0,0*43
$GPGSA,A,3,02,04,07,08,13,20,23,25,27,,,,1.0,0.7,0.7*39
$GLGSA,A,3,77,78,86,,,,,,,,,,1.0,0.7,0.7*2E
$GPVTG,,T,,M,0.0,N,0.0,K,A*23
$GPDTM,P90,,0000.000022,S,00000.000001,W,0.988,W84*5A
$GPRMC,000138.00,A,3000.000085,N,12000.000137,E,0.0,,230721,4.3,W,A*09
$GPGGA,000138.00,3000.000085,N,12000.000137,E,1,12,0.7,-7.5,M,7.0,M,,*72

$GPGSV,3,1,11,02,31,298,42,04,50,246,42,07,83,113,42,08,46,206,42*78
$GPGSV,3,2,11,13,48,030,42,20,21,120,42,23,26,056,42,25,65,042,42*73
$GPGSV,3,3,11,27,17,217,42,10,00,000,,28,00,000,*43
$GLGSV,2,1,07,78,06,330,40,86,33,023,40,77,55,326,41,75,10,151,40*67
$GLGSV,2,2,07,88,19,243,40,87,60,299,41,71,00,000,*53
$GAGSV,2,1,08,09,12,316,,10,63,333,,11,55,116,,12,05,129,*60
$GAGSV,2,2,08,17,29,039,,23,37,222,,24,84,019,,27,29,125,*6A
$PQGSV,1,1,0,0*43
$PQGSV,1,1,0,0*43
$GPGSA,A,3,02,04,07,08,13,20,23,25,27,,,,1.0,0.7,0.7*39
$GLGSA,A,3,75,77,78,86,87,88,,,,,,,1.0,0.7,0.7*23
$GPVTG,,T,,M,0.0,N,0.0,K,A*23
$GPDTM,P90,,0000.000022,S,00000.000001,W,0.988,W84*5A
$GPRMC,000139.00,A,3000.000094,N,12000.000134,E,0.0,,230721,4.3,W,A*0B
$GPGGA,000139.00,3000.000094,N,12000.000134,E,1,12,0.7,-7.8,M,7.0,M,,*7D

$GPGSV,3,1,12,02,31,298,42,04,50,246,42,07,83,113,42,08,46,206,42*7B
$GPGSV,3,2,12,13,48,030,42,20,21,120,42,23,26,056,42,25,65,042,42*70
$GPGSV,3,3,12,27,17,217,42,10,00,000,,16,00,000,,28,00,000,*77
$GLGSV,2,1,07,78,06,330,41,86,33,023,40,77,55,326,40,75,10,151,41*66
$GLGSV,2,2,07,88,19,243,40,87,60,299,41,71,00,000,*53
$GAGSV,2,1,08,09,12,316,,10,63,333,,11,55,116,,12,05,129,*60
$GAGSV,2,2,08,17,29,039,,23,37,222,,24,84,019,,27,29,125,*6A
$PQGSV,1,1,0,0*43
$PQGSV,1,1,0,0*43
$GPGSA,A,3,02,04,07,08,13,20,23,25,27,,,,1.0,0.7,0.7*39
$GLGSA,A,3,75,77,78,86,87,88,,,,,,,1.0,0.7,0.7*23
$GPVTG,,T,,M,0.0,N,0.0,K,A*23
$GPDTM,P90,,0000.000022,S,00000.000001,W,0.988,W84*5A
$GPRMC,000140.00,A,3000.000113,N,12000.000111,E,0.0,,230721,4.3,W,A*0C
$GPGGA,000140.00,3000.000113,N,12000.000111,E,1,12,0.7,-7.8,M,7.0,M,,*7A

$GPGSV,3,1,12,02,31,298,42,04,50,246,42,07,83,113,42,08,46,206,42*7B
$GPGSV,3,2,12,13,48,030,42,20,21,120,42,23,26,056,42,25,65,042,42*70
$GPGSV,3,3,12,27,17,217,42,10,00,000,,16,00,000,,28,00,000,*77
$GLGSV,2,1,07,78,06,330,40,86,33,023,40,77,55,326,40,75,10,151,40*66
$GLGSV,2,2,07,88,19,243,40,87,60,299,41,71,00,000,*53
$GAGSV,2,1,08,11,55,116,46,09,12,316,,10,63,333,,12,05,129,*62
$GAGSV,2,2,08,17,29,039,,23,37,222,,24,84,019,,27,29,125,*6A
$PQGSV,1,1,0,0*43
$PQGSV,1,1,0,0*43
$GPGSA,A,3,02,04,07,08,13,20,23,25,27,,,,1.0,0.7,0.7*39
$GLGSA,A,3,75,77,78,86,87,88,,,,,,,1.0,0.7,0.7*23
$GPVTG,,T,,M,0.0,N,0.0,K,A*23
$GPDTM,P90,,0000.000022,S,00000.000001,W,0.988,W84*5A
$GPRMC,000141.00,A,3000.000065,N,12000.000115,E,0.0,,230721,4.3,W,A*09
$GPGGA,000141.00,3000.000065,N,12000.000115,E,1,12,0.7,-7.8,M,7.0,M,,*7F

$GPGSV,3,1,12,02,31,298,42,04,50,246,42,07,83,113,42,08,46,206,42*7B
$GPGSV,3,2,12,13,48,030,42,20,21,120,42,23,26,056,42,25,65,042,42*70
$GPGSV,3,3,12,27,17,217,42,10,00,000,,16,00,000,,28,00,000,*77
$GLGSV,2,1,07,78,06,330,40,86,33,023,40,77,55,326,40,75,10,151,40*66
$GLGSV,2,2,07,88,19,243,41,87,60,299,40,71,00,000,*53
$GAGSV,2,1,08,11,55,116,46,09,12,316,,10,63,333,,12,05,129,*62
$GAGSV,2,2,08,17,29,039,,23,37,222,,24,84,019,,27,29,125,*6A
$PQGSV,1,1,0,0*43
$PQGSV,1,1,0,0*43
$GPGSA,A,3,02,04,07,08,13,20,23,25,27,,,,1.0,0.7,0.7*39
$GLGSA,A,3,75,77,78,86,87,88,,,,,,,1.0,0.7,0.7*23
$GAGSA,A,3,11,,,,,,,,,,,,1.0,0.7,0.7*22
$GPVTG,,T,,M,0.0,N,0.0,K,A*23
$GPDTM,P90,,0000.000022,S,00000.000001,W,0.988,W84*5A
$GPRMC,000142.00,A,3000.000076,N,12000.000101,E,0.0,,230721,4.3,W,A*0D
$GPGGA,000142.00,3000.000076,N,12000.000101,E,1,12,0.7,-7.9,M,7.0,M,,*7A

$GPGSV,3,1,12,02,31,298,42,04,50,246,42,07,83,113,42,08,46,206,42*7B
$GPGSV,3,2,12,13,48,030,42,20,21,120,42,23,26,056,42,25,65,042,42*70
$GPGSV,3,3,12,27,17,217,42,10,00,000,,16,00,000,,28,00,000,*77
$GLGSV,2,1,07,78,06,330,40,86,33,023,40,77,55,326,40,75,10,151,40*66
$GLGSV,2,2,07,88,19,243,40,87,60,299,41,71,00,000,*53
$GAGSV,2,1,08,11,55,116,45,09,12,316,,10,63,333,,12,05,129,*61
$GAGSV,2,2,08,17,29,039,,23,37,222,,24,84,019,,27,29,125,*6A
$PQGSV,1,1,0,0*43
$PQGSV,1,1,0,0*43
$GPGSA,A,3,02,04,07,08,13,20,23,25,27,,,,1.0,0.7,0.7*39
$GLGSA,A,3,75,77,78,86,87,88,,,,,,,1.0,0.7,0.7*23
$GAGSA,A,3,11,,,,,,,,,,,,1.0,0.7,0.7*22
$GPVTG,,T,,M,0.0,N,0.0,K,A*23
$GPDTM,P90,,0000.000022,S,00000.000001,W,0.988,W84*5A
$GPRMC,000143.00,A,3000.000029,N,12000.000113,E,0.0,,230721,4.3,W,A*05
$GPGGA,000143.00,3000.000029,N,12000.000113,E,1,12,0.7,-7.7,M,7.0,M,,*7C

$GPGSV,3,1,11,02,31,298,42,04,50,246,42,07,83,113,42,08,46,206,42*78
$GPGSV,3,2,11,13,48,030,42,20,21,120,42,23,26,056,42,25,65,042,42*73
$GPGSV,3,3,11,27,17,217,42,16,00,000,,28,00,000,*45
$GLGSV,2,1,07,78,06,330,40,86,33,023,40,77,55,326,40,75,10,151,41*67
$GLGSV,2,2,07,88,19,243,40,87,60,299,41,71,00,000,*53
$GAGSV,2,1,08,11,55,116,46,09,12,316,,10,63,333,,12,05,129,*62
$GAGSV,2,2,08,17,29,039,,23,37,222,,24,84,019,,27,29,125,*6A
$PQGSV,1,1,0,0*43
$PQGSV,1,1,0,0*43
$GPGSA,A,3,02,04,07,08,13,20,23,25,27,,,,1.0,0.7,0.7*39
$GLGSA,A,3,75,77,78,86,87,88,,,,,,,1.0,0.7,0.7*23
$GAGSA,A,3,11,,,,,,,,,,,,1.0,0.7,0.7*22
$GPVTG,,T,,M,0.0,N,0.0,K,A*23
$GPDTM,P90,,0000.000022,S,00000.000001,W,0.988,W84*5A
$GPRMC,000144.00,A,3000.000023,N,12000.000143,E,0.0,,230721,4.3,W,A*0D
$GPGGA,000144.00,3000.000023,N,12000.000143,E,1,12,0.7,-7.9,M,7.0,M,,*7A

$GPGSV,3,1,12,02,31,298,42,04,50,246,42,07,83,113,42,08,46,206,42*7B
$GPGSV,3,2,12,13,48,030,42,20,21,120,42,23,26,056,42,25,65,042,42*70
$GPGSV,3,3,12,27,17,217,42,10,00,000,,16,00,000,,28,00,000,*77
$GLGSV,2,1,07,78,06,330,41,86,33,023,40,77,55,326,41,75,10,151,41*67
$GLGSV,2,2,07,88,19,243,40,87,60,299,40,71,00,000,*52
$GAGSV,2,1,08,11,55,116,45,09,12,316,,10,63,333,,12,05,129,*61
$GAGSV,2,2,08,17,29,039,,23,37,222,,24,84,019,,27,29,125,*6A
$PQGSV,1,1,0,0*43
$PQGSV,1,1,0,0*43
$GPGSA,A,3,02,04,07,08,13,20,23,25,27,,,,1.0,0.7,0.7*39
$GLGSA,A,3,75,77,78,86,87,88,,,,,,,1.0,0.7,0.7*23
$GAGSA,A,3,11,,,,,,,,,,,,1.0,0.7,0.7*22
$GPVTG,,T,,M,0.0,N,0.0,K,A*23
$GPDTM,P90,,0000.000022,S,00000.000001,W,0.988,W84*5A
$GPRMC,000145.00,A,3000.000009,N,12000.000148,E,0.0,,230721,4.3,W,A*0F
$GPGGA,000145.00,3000.000009,N,12000.000148,E,1,12,0.7,-7.9,M,7.0,M,,*78

$GPGSV,3,1,11,02,31,298,42,04,50,246,42,07,83,113,42,08,46,206,42*78
$GPGSV,3,2,11,13,48,030,42,20,21,120,42,23,26,056,42,25,65,042,42*73
$GPGSV,3,3,11,27,17,217,42,10,00,000,,28,00,000,*43
$GLGSV,2,1,07,78,06,330,41,86,33,023,40,77,55,326,40,75,10,151,40*67
$GLGSV,2,2,07,88,19,243,40,87,60,299,41,71,00,000,*53
$GAGSV,2,1,08,11,55,116,46,09,12,316,,10,63,333,,12,05,129,*62
$GAGSV,2,2,08,17,29,039,,23,37,222,,24,84,019,,27,29,125,*6A
$PQGSV,1,1,0,0*43
$PQGSV,1,1,0,0*43
$GPGSA,A,3,02,04,07,08,13,20,23,25,27,,,,1.0,0.7,0.7*39
$GLGSA,A,3,75,77,78,86,87,88,,,,,,,1.0,0.7,0.7*23
$GAGSA,A,3,11,,,,,,,,,,,,1.0,0.7,0.7*22
$GPVTG,,T,,M,0.0,N,0.0,K,A*23
$GPDTM,P90,,0000.000022,S,00000.000001,W,0.988,W84*5A
$GPRMC,000146.00,A,3000.000001,N,12000.000140,E,0.0,,230721,4.3,W,A*0C
$GPGGA,000146.00,3000.000001,N,12000.000140,E,1,12,0.7,-8.0,M,7.0,M,,*7D

$GPGSV,3,1,12,02,31,298,42,04,50,246,42,07,83,113,42,08,46,206,42*7B
$GPGSV,3,2,12,13,48,030,42,20,21,120,42,23,26,056,42,25,65,042,42*70
$GPGSV,3,3,12,27,17,217,42,10,00,000,,16,00,000,,28,00,000,*77
$GLGSV,2,1,07,78,06,330,40,86,33,023,40,77,55,326,40,75,10,151,41*67
$GLGSV,2,2,07,88,19,243,41,87,60,299,41,71,00,000,*52
$GAGSV,2,1,08,11,55,116,46,09,12,316,,10,63,333,,12,05,129,*62
$GAGSV,2,2,08,17,29,039,,23,37,222,,24,84,019,,27,29,125,*6A
$PQGSV,1,1,0,0*43
$PQGSV,1,1,0,0*43
$GPGSA,A,3,02,04,07,08,13,20,23,25,27,,,,1.0,0.7,0.7*39
$GLGSA,A,3,75,77,78,86,87,88,,,,,,,1.0,0.7,0.7*23
$GAGSA,A,3,11,,,,,,,,,,,,1.0,0.7,0.7*22
$GPVTG,,T,,M,0.0,N,0.0,K,A*23
$GPDTM,P90,,0000.000022,S,00000.000001,W,0.988,W84*5A
$GPRMC,000147.00,A,2959.999990,N,12000.000157,E,0.0,,230721,4.3,W,A*07
$GPGGA,000147.00,2959.999990,N,12000.000157,E,1,12,0.7,-8.0,M,7.0,M,,*76

$GPGSV,3,1,12,02,31,298,42,04,50,246,42,07,83,113,42,08,46,206,42*7B
$GPGSV,3,2,12,13,48,030,42,20,21,120,42,23,26,056,42,25,65,042,42*70
$GPGSV,3,3,12,27,17,217,42,10,00,000,,16,00,000,,28,00,000,*77
$GLGSV,2,1,07,78,06,330,40,86,33,023,40,77,55,326,40,75,10,151,41*67
$GLGSV,2,2,07,88,19,243,40,87,60,299,41,71,00,000,*53
$GAGSV,2,1,08,11,55,116,46,09,12,316,,10,63,333,,12,05,129,*62
$GAGSV,2,2,08,17,29,039,,23,37,222,,24,84,019,,27,29,125,*6A
$PQGSV,1,1,0,0*43
$PQGSV,1,1,0,0*43
$GPGSA,A,3,02,04,07,08,13,20,23,25,27,,,,1.0,0.7,0.7*39
$GLGSA,A,3,75,77,78,86,87,88,,,,,,,1.0,0.7,0.7*23
$GAGSA,A,3,11,,,,,,,,,,,,1.0,0.7,0.7*22
$GPVTG,,T,,M,0.0,N,0.0,K,A*23
$GPDTM,P90,,0000.000022,S,00000.000001,W,0.988,W84*5A
$GPRMC,000148.00,A,2959.999988,N,12000.000152,E,0.0,,230721,4.3,W,A*04
$GPGGA,000148.00,2959.999988,N,12000.000152,E,1,12,0.7,-8.0,M,7.0,M,,*75

$GPGSV,3,1,12,02,31,298,42,04,50,246,42,07,83,113,42,08,46,206,42*7B
$GPGSV,3,2,12,13,48,030,42,20,21,120,42,23,26,056,42,25,65,042,42*70
$GPGSV,3,3,12,27,17,217,42,10,00,000,,16,00,000,,28,00,000,*77
$GLGSV,2,1,07,78,06,330,40,86,33,023,40,77,55,326,41,75,10,151,40*67
$GLGSV,2,2,07,88,19,243,40,87,60,299,40,71,00,000,*52
$GAGSV,2,1,08,11,55,116,46,09,12,316,,10,63,333,,12,05,129,*62
$GAGSV,2,2,08,17,29,039,,23,37,222,,24,84,019,,27,29,125,*6A
$PQGSV,1,1,0,0*43
$PQGSV,1,1,0,0*43
$GPGSA,A,3,02,04,07,08,13,20,23,25,27,,,,1.0,0.7,0.7*39
$GLGSA,A,3,75,77,78,86,87,88,,,,,,,1.0,0.7,0.7*23
$GAGSA,A,3,11,,,,,,,,,,,,1.0,0.7,0.7*22
$GPVTG,,T,,M,0.0,N,0.0,K,A*23
$GPDTM,P90,,0000.000022,S,00000.000001,W,0.988,W84*5A
$GPRMC,000149.00,A,2959.999992,N,12000.000146,E,0.0,,230721,4.3,W,A*0B
$GPGGA,000149.00,2959.999992,N,12000.000146,E,1,12,0.7,-8.1,M,7.0,M,,*7B

$GPGSV,3,1,12,02,31,298,42,04,50,246,42,07,83,113,42,08,46,206,42*7B
$GPGSV,3,2,12,13,48,030,42,20,21,120,42,23,26,056,42,25,65,042,42*70
$GPGSV,3,3,12,27,17,217,42,10,00,000,,16,00,000,,28,00,000,*77
$GLGSV,2,1,07,78,06,330,40,86,33,023,40,77,55,326,40,75,10,151,40*66
$GLGSV,2,2,07,88,19,243,40,87,60,299,41,71,00,000,*53
$GAGSV,2,1,08,11,55,116,46,09,12,316,,10,63,333,,12,05,129,*62
$GAGSV,2,2,08,17,29,039,,23,37,222,,24,84,019,,27,29,125,*6A
$PQGSV,1,1,0,0*43
$PQGSV,1,1,0,0*43
$GPGSA,A,3,02,04,07,08,13,20,23,25,27,,,,1.0,0.7,0.7*39
$GLGSA,A,3,75,77,78,86,87,88,,,,,,,1.0,0.7,0.7*23
$GAGSA,A,3,11,,,,,,,,,,,,1.0,0.7,0.7*22
$GPVTG,,T,,M,0.0,N,0.0,K,A*23
$GPDTM,P90,,0000.000022,S,00000.000001,W,0.988,W84*5A
$GPRMC,000150.00,A,2959.999991,N,12000.000144,E,0.0,,230721,4.3,W,A*02
$GPGGA,000150.00,2959.999991,N,12000.000144,E,1,12,0.7,-8.1,M,7.0,M,,*72

$GPGSV,3,1,11,02,31,298,42,04,50,246,42,07,83,113,42,08,46,206,42*78
$GPGSV,3,2,11,13,48,030,42,20,21,120,42,23,26,056,42,25,65,042,42*73
$GPGSV,3,3,11,27,17,217,42,16,00,000,,28,00,000,*45
$GLGSV,2,1,07,78,06,330,40,86,33,023,40,77,55,326,40,75,10,151,41*67
$GLGSV,2,2,07,88,19,243,40,87,60,299,41,71,00,000,*53
$GAGSV,2,1,08,11,55,116,46,09,12,316,,10,63,333,,12,05,129,*62
$GAGSV,2,2,08,17,29,039,,23,37,222,,24,84,019,,27,29,125,*6A
$PQGSV,1,1,0,0*43
$PQGSV,1,1,0,0*43
$GPGSA,A,3,02,04,07,08,13,20,23,25,27,,,,1.0,0.7,0.7*39
$GLGSA,A,3,75,77,78,86,87,88,,,,,,,1.0,0.7,0.7*23
$GAGSA,A,3,11,,,,,,,,,,,,1.0,0.7,0.7*22
$GPVTG,,T,,M,0.0,N,0.0,K,A*23
$GPDTM,P90,,0000.000022,S,00000.000001,W,0.988,W84*5A
$GPRMC,000151.00,A,2959.999990,N,12000.000145,E,0.0,,230721,4.3,W,A*03
$GPGGA,000151.00,2959.999990,N,12000.000145,E,1,12,0.7,-8.1,M,7.0,M,,*73

$GPGSV,3,1,12,02,31,298,42,04,50,246,42,07,83,113,42,08,46,206,42*7B
$GPGSV,3,2,12,13,48,030,42,20,21,120,42,23,26,056,42,25,65,042,42*70
$GPGSV,3,3,12,27,17,217,42,10,00,000,,16,00,000,,28,00,000,*77
$GLGSV,2,1,07,78,06,330,40,86,33,023,40,77,55,326,41,75,10,151,40*67
$GLGSV,2,2,07,88,19,243,40,87,60,299,41,71,00,000,*53
$GAGSV,2,1,08,11,55,116,46,09,12,316,,10,63,333,,12,05,129,*62
$GAGSV,2,2,08,17,29,039,,23,37,222,,24,84,019,,27,29,125,*6A
$PQGSV,1,1,0,0*43
$PQGSV,1,1,0,0*43
$GPGSA,A,3,02,04,07,08,13,20,23,25,27,,,,1.0,0.7,0.7*39
$GLGSA,A,3,75,77,78,86,87,88,,,,,,,1.0,0.7,0.7*23
$GAGSA,A,3,11,,,,,,,,,,,,1.0,0.7,0.7*22
$GPVTG,,T,,M,0.0,N,0.0,K,A*23
$GPDTM,P90,,0000.000022,S,00000.000001,W,0.988,W84*5A
$GPRMC,000152.00,A,2959.999990,N,12000.000144,E,0.0,,230721,4.3,W,A*01
$GPGGA,000152.00,2959.999990,N,12000.000144,E,1,12,0.7,-8.1,M,7.0,M,,*71

$GPGSV,3,1,11,02,31,298,42,04,50,246,42,07,83,113,42,08,46,206,42*78
$GPGSV,3,2,11,13,48,030,42,20,21,120,42,23,26,056,42,25,65,042,42*73
$GPGSV,3,3,11,27,17,217,42,10,00,000,,28,00,000,*43
$GLGSV,2,1,07,78,06,330,41,86,33,023,40,77,55,326,40,75,10,151,41*66
$GLGSV,2,2,07,88,19,243,40,87,60,299,41,71,00,000,*53
$GAGSV,2,1,08,11,55,116,46,09,12,316,,10,63,333,,12,05,129,*62
$GAGSV,2,2,08,17,29,039,,23,37,222,,24,84,019,,27,29,125,*6A
$PQGSV,1,1,0,0*43
$PQGSV,1,1,0,0*43
$GPGSA,A,3,02,04,07,08,13,20,23,25,27,,,,1.0,0.7,0.7*39
$GLGSA,A,3,75,77,78,86,87,88,,,,,,,1.0,0.7,0.7*23
$GAGSA,A,3,11,,,,,,,,,,,,1.0,0.7,0.7*22
$GPVTG,,T,,M,0.0,N,0.0,K,A*23
$GPDTM,P90,,0000.000022,S,00000.000001,W,0.988,W84*5A
$GPRMC,000153.00,A,2959.999989,N,12000.000144,E,0.0,,230721,4.3,W,A*08
$GPGGA,000153.00,2959.999989,N,12000.000144,E,1,12,0.7,-8.1,M,7.0,M,,*78

$GPGSV,3,1,12,02,31,298,42,04,50,246,42,07,83,113,42,08,46,206,42*7B
$GPGSV,3,2,12,13,48,030,42,20,21,120,42,23,26,056,42,25,65,042,42*70
$GPGSV,3,3,12,27,17,217,42,10,00,000,,16,00,000,,28,00,000,*77
$GLGSV,2,1,07,78,06,330,40,86,33,023,40,77,55,326,40,75,10,151,41*67
$GLGSV,2,2,07,88,19,243,40,87,60,299,41,71,00,000,*53
$GAGSV,2,1,08,11,55,116,46,09,12,316,,10,63,333,,12,05,129,*62
$GAGSV,2,2,08,17,29,039,,23,37,222,,24,84,019,,27,29,125,*6A
$PQGSV,1,1,0,0*43
$PQGSV,1,1,0,0*43
$GPGSA,A,3,02,04,07,08,13,20,23,25,27,,,,1.0,0.7,0.7*39
$GLGSA,A,3,75,77,78,86,87,88,,,,,,,1.0,0.7,0.7*23
$GAGSA,A,3,11,,,,,,,,,,,,1.0,0.7,0.7*22
$GPVTG,,T,,M,0.0,N,0.0,K,A*23
$GPDTM,P90,,0000.000022,S,00000.000001,W,0.988,W84*5A
$GPRMC,000154.00,A,2959.999990,N,12000.000144,E,0.0,,230721,4.3,W,A*07
$GPGGA,000154.00,2959.999990,N,12000.000144,E,1,12,0.7,-8.1,M,7.0,M,,*77

$GPGSV,3,1,11,02,31,298,42,04,50,246,42,07,83,113,42,08,46,206,42*78
$GPGSV,3,2,11,13,48,030,42,20,21,120,42,23,26,056,42,25,65,042,42*73
$GPGSV,3,3,11,27,17,217,42,16,00,000,,28,00,000,*45
$GLGSV,2,1,07,78,06,330,41,86,33,023,40,77,55,326,41,75,10,151,41*67
$GLGSV,2,2,07,88,19,243,40,87,60,299,41,71,00,000,*53
$GAGSV,2,1,08,11,55,116,46,09,12,316,,10,63,333,,12,05,129,*62
$GAGSV,2,2,08,17,29,039,,23,37,222,,24,84,019,,27,29,125,*6A
$PQGSV,1,1,0,0*43
$PQGSV,1,1,0,0*43
$GPGSA,A,3,02,04,07,08,13,20,23,25,27,,,,1.0,0.7,0.7*39
$GLGSA,A,3,75,77,78,86,87,88,,,,,,,1.0,0.7,0.7*23
$GAGSA,A,3,11,,,,,,,,,,,,1.0,0.7,0.7*22
$GPVTG,,T,,M,0.0,N,0.0,K,A*23
$GPDTM,P90,,0000.000022,S,00000.000001,W,0.988,W84*5A
$GPRMC,000155.00,A,2959.999990,N,12000.000143,E,0.0,,230721,4.3,W,A*01
$GPGGA,000155.00,2959.999990,N,12000.000143,E,1,12,0.7,-8.1,M,7.0,M,,*71

$GPGSV,3,1,12,02,31,298,42,04,50,246,42,07,83,113,42,08,46,206,42*7B
$GPGSV,3,2,12,13,48,030,42,20,21,120,42,23,26,056,42,25,65,042,42*70
$GPGSV,3,3,12,27,17,217,42,10,00,000,,16,00,000,,28,00,000,*77
$GLGSV,2,1,07,78,06,330,41,86,33,023,40,77,55,326,41,75,10,151,40*66
$GLGSV,2,2,07,88,19,243,41,87,60,299,41,71,00,000,*52
$GAGSV,2,1,08,11,55,116,46,09,12,316,,10,63,333,,12,05,129,*62
$GAGSV,2,2,08,17,29,039,,23,37,222,,24,84,019,,27,29,125,*6A
$PQGSV,1,1,0,0*43
$PQGSV,1,1,0,0*43
$GPGSA,A,3,02,04,07,08,13,20,23,25,27,,,,1.0,0.7,0.7*39
$GLGSA,A,3,75,77,78,86,87,88,,,,,,,1.0,0.7,0.7*23
$GAGSA,A,3,11,,,,,,,,,,,,1.0,0.7,0.7*22
$GPVTG,,T,,M,0.0,N,0.0,K,A*23
$GPDTM,P90,,0000.000022,S,00000.000001,W,0.988,W84*5A
$GPRMC,000156.00,A,2959.999989,N,12000.000143,E,0.0,,230721,4.3,W,A*0A
$GPGGA,000156.00,2959.999989,N,12000.000143,E,1,12,0.7,-8.1,M,7.0,M,,*7A

$GPGSV,3,1,12,02,31,298,42,04,50,246,42,07,83,113,42,08,46,206,42*7B
$GPGSV,3,2,12,13,48,030,42,20,21,120,42,23,26,056,42,25,65,042,42*70
$GPGSV,3,3,12,27,17,217,42,10,00,000,,16,00,000,,28,00,000,*77
$GLGSV,2,1,07,78,06,330,40,86,33,023,40,77,55,326,40,75,10,151,40*66
$GLGSV,2,2,07,88,19,243,41,87,60,299,41,71,00,000,*52
$GAGSV,2,1,08,11,55,116,45,09,12,316,,10,63,333,,12,05,129,*61
$GAGSV,2,2,08,17,29,039,,23,37,222,,24,84,019,,27,29,125,*6A
$PQGSV,1,1,0,0*43
$PQGSV,1,1,0,0*43
$GPGSA,A,3,02,04,07,08,13,20,23,25,27,,,,1.0,0.7,0.7*39
$GLGSA,A,3,75,77,78,86,87,88,,,,,,,1.0,0.7,0.7*23
$GAGSA,A,3,11,,,,,,,,,,,,1.0,0.7,0.7*22
$GPVTG,,T,,M,0.0,N,0.0,K,A*23
$GPDTM,P90,,0000.000022,S,00000.000001,W,0.988,W84*5A
$GPRMC,000157.00,A,2959.999990,N,12000.000142,E,0.0,,230721,4.3,W,A*02
$GPGGA,000157.00,2959.999990,N,12000.000142,E,1,12,0.7,-8.1,M,7.0,M,,*72

$GPGSV,3,1,12,02,31,298,42,04,50,246,42,07,83,113,42,08,46,206,42*7B
$GPGSV,3,2,12,13,48,030,42,20,21,120,42,23,26,056,42,25,65,042,42*70
$GPGSV,3,3,12,27,17,217,42,10,00,000,,16,00,000,,28,00,000,*77
$GLGSV,2,1,07,78,06,330,40,86,33,023,40,77,55,326,40,75,10,151,40*66
$GLGSV,2,2,07,88,19,243,40,87,60,299,41,71,00,000,*53
$GAGSV,2,1,08,11,55,116,46,09,12,316,,10,63,333,,12,05,129,*62
$GAGSV,2,2,08,17,29,039,,23,37,222,,24,84,019,,27,29,125,*6A
$PQGSV,1,1,0,0*43
$PQGSV,1,1,0,0*43
$GPGSA,A,3,02,04,07,08,13,20,23,25,27,,,,1.0,0.7,0.7*39
$GLGSA,A,3,75,77,78,86,87,88,,,,,,,1.0,0.7,0.7*23
$GAGSA,A,3,11,,,,,,,,,,,,1.0,0.7,0.7*22
$GPVTG,,T,,M,0.0,N,0.0,K,A*23
$GPDTM,P90,,0000.000022,S,00000.000001,W,0.988,W84*5A
$GPRMC,000158.00,A,2959.999989,N,12000.000142,E,0.0,,230721,4.3,W,A*05
$GPGGA,000158.00,2959.999989,N,12000.000142,E,1,12,0.7,-8.1,M,7.0,M,,*75

$GPGSV,3,1,12,02,31,298,42,04,50,246,42,07,83,113,42,08,46,206,42*7B
$GPGSV,3,2,12,13,48,030,42,20,21,120,42,23,26,056,42,25,65,042,42*70
$GPGSV,3,3,12,27,17,217,42,10,00,000,,16,00,000,,28,00,000,*77
$GLGSV,2,1,07,78,06,330,40,86,33,023,40,77,55,326,41,75,10,151,40*67
$GLGSV,2,2,07,88,19,243,41,87,60,299,41,71,00,000,*52
$GAGSV,2,1,08,11,55,116,46,09,12,316,,10,63,333,,12,05,129,*62
$GAGSV,2,2,08,17,29,039,,23,37,222,,24,84,019,,27,29,125,*6A
$PQGSV,1,1,0,0*43
$PQGSV,1,1,0,0*43
$GPGSA,A,3,02,04,07,08,13,20,23,25,27,,,,1.0,0.7,0.7*39
$GLGSA,A,3,75,77,78,86,87,88,,,,,,,1.0,0.7,0.7*23
$GAGSA,A,3,11,,,,,,,,,,,,1.0,0.7,0.7*22
$GPVTG,,T,,M,0.0,N,0.0,K,A*23
$GPDTM,P90,,0000.000022,S,00000.000001,W,0.988,W84*5A
$GPRMC,000159.00,A,2959.999989,N,12000.000142,E,0.0,,230721,4.3,W,A*04
$GPGGA,000159.00,2959.999989,N,12000.000142,E,1,12,0.7,-8.1,M,7.0,M,,*74

$GPGSV,3,1,12,02,31,298,42,04,50,246,42,07,83,113,42,08,46,206,42*7B
$GPGSV,3,2,12,13,48,030,42,20,21,120,42,23,26,056,42,25,65,042,42*70
$GPGSV,3,3,12,27,17,217,42,10,00,000,,16,00,000,,28,00,000,*77
$GLGSV,2,1,07,78,06,330,41,86,33,023,40,77,55,326,41,75,10,151,40*66
$GLGSV,2,2,07,88,19,243,41,87,60,299,41,71,00,000,*52
$GAGSV,2,1,08,11,55,116,46,09,12,316,,10,63,333,,12,05,129,*62
$GAGSV,2,2,08,17,29,039,,23,37,222,,24,84,019,,27,29,125,*6A
$PQGSV,1,1,0,0*43
$PQGSV,1,1,0,0*43
$GPGSA,A,3,02,04,07,08,13,20,23,25,27,,,,1.0,0.7,0.7*39
$GLGSA,A,3,75,77,78,86,87,88,,,,,,,1.0,0.7,0.7*23
$GAGSA,A,3,11,,,,,,,,,,,,1.0,0.7,0.7*22
$GPVTG,,T,,M,0.0,N,0.0,K,A*23
$GPDTM,P90,,0000.000022,S,00000.000001,W,0.988,W84*5A
$GPRMC,000200.00,A,2959.999989,N,12000.000141,E,0.0,,230721,4.3,W,A*08
$GPGGA,000200.00,2959.999989,N,12000.000141,E,1,12,0.7,-8.1,M,7.0,M,,*78

$GPGSV,3,1,12,02,31,298,42,04,50,246,42,07,83,113,42,08,46,206,42*7B
$GPGSV,3,2,12,13,48,030,42,20,21,120,42,23,26,056,42,25,65,042,42*70
$GPGSV,3,3,12,27,17,217,42,10,00,000,,16,00,000,,28,00,000,*77
$GLGSV,2,1,07,78,06,330,40,86,33,023,40,77,55,326,41,75,10,151,40*67
$GLGSV,2,2,07,88,19,243,40,87,60,299,40,71,00,000,*52
$GAGSV,2,1,08,11,55,116,46,09,12,316,,10,63,333,,12,05,129,*62
$GAGSV,2,2,08,17,29,039,,23,37,222,,24,84,019,,27,29,125,*6A
$PQGSV,1,1,0,0*43
$PQGSV,1,1,0,0*43
$GPGSA,A,3,02,04,07,08,13,20,23,25,27,,,,1.0,0.7,0.7*39
$GLGSA,A,3,75,77,78,86,87,88,,,,,,,1.0,0.7,0.7*23
$GAGSA,A,3,11,,,,,,,,,,,,1.0,0.7,0.7*22
$GPVTG,,T,,M,0.0,N,0.0,K,A*23
$GPDTM,P90,,0000.000022,S,00000.000001,W,0.988,W84*5A
$GPRMC,000201.00,A,2959.999989,N,12000.000140,E,0.0,,230721,4.3,W,A*08
$GPGGA,000201.00,2959.999989,N,12000.000140,E,1,12,0.7,-8.1,M,7.0,M,,*78

$GPGSV,3,1,11,02,31,298,42,04,50,246,42,07,83,113,42,08,46,206,42*78
$GPGSV,3,2,11,13,48,030,42,20,21,120,42,23,26,056,42,25,65,042,42*73
$GPGSV,3,3,11,27,17,217,42,10,00,000,,28,00,000,*43
$GLGSV,2,1,07,78,06,330,40,86,33,023,40,77,55,326,40,75,10,151,41*67
$GLGSV,2,2,07,88,19,243,40,87,60,299,40,71,00,000,*52
$GAGSV,2,1,08,11,55,116,46,09,12,316,,10,63,333,,12,05,129,*62
$GAGSV,2,2,08,17,29,039,,23,37,222,,24,84,019,,27,29,125,*6A
$PQGSV,1,1,0,0*43
$PQGSV,1,1,0,0*43
$GPGSA,A,3,02,04,07,08,13,20,23,25,27,,,,1.0,0.7,0.7*39
$GLGSA,A,3,75,77,78,86,87,88,,,,,,,1.0,0.7,0.7*23
$GAGSA,A,3,11,,,,,,,,,,,,1.0,0.7,0.7*22
$GPVTG,,T,,M,0.0,N,0.0,K,A*23
$GPDTM,P90,,0000.000022,S,00000.000001,W,0.988,W84*5A
$GPRMC,000202.00,A,2959.999988,N,12000.000140,E,0.0,,230721,4.3,W,A*0A
$GPGGA,000202.00,2959.999988,N,12000.000140,E,1,12,0.7,-8.1,M,7.0,M,,*7A

$GPGSV,3,1,12,02,31,298,42,04,50,246,42,07,83,113,42,08,46,206,42*7B
$GPGSV,3,2,12,13,48,030,42,20,21,120,42,23,26,056,42,25,65,042,42*70
$GPGSV,3,3,12,27,17,217,42,10,00,000,,16,00,000,,28,00,000,*77
$GLGSV,2,1,07,78,06,330,40,86,33,023,40,77,55,326,40,75,10,151,40*66
$GLGSV,2,2,07,88,19,243,40,87,60,299,41,71,00,000,*53
$GAGSV,2,1,08,11,55,116,46,09,12,316,,10,63,333,,12,05,129,*62
$GAGSV,2,2,08,17,29,039,,23,37,222,,24,84,019,,27,29,125,*6A
$PQGSV,1,1,0,0*43
$PQGSV,1,1,0,0*43
$GPGSA,A,3,02,04,07,08,13,20,23,25,27,,,,1.0,0.7,0.7*39
$GLGSA,A,3,75,77,78,86,87,88,,,,,,,1.0,0.7,0.7*23
$GAGSA,A,3,11,,,,,,,,,,,,1.0,0.7,0.7*22
$GPVTG,,T,,M,0.0,N,0.0,K,A*23
$GPDTM,P90,,0000.000022,S,00000.000001,W,0.988,W84*5A
$GPRMC,000203.00,A,2959.999989,N,12000.000140,E,0.0,,230721,4.3,W,A*0A
$GPGGA,000203.00,2959.999989,N,12000.000140,E,1,12,0.7,-8.1,M,7.0,M,,*7A

$GPGSV,3,1,11,02,31,298,42,04,50,246,42,07,83,113,42,08,46,206,42*78
$GPGSV,3,2,11,13,48,030,42,20,21,120,42,23,26,056,42,25,65,042,42*73
$GPGSV,3,3,11,27,17,217,42,16,00,000,,28,00,000,*45
$GLGSV,2,1,07,78,06,330,41,86,33,023,40,77,55,326,40,75,10,151,40*67
$GLGSV,2,2,07,88,19,243,40,87,60,299,41,71,00,000,*53
$GAGSV,2,1,08,11,55,116,46,09,12,316,,10,63,333,,12,05,129,*62
$GAGSV,2,2,08,17,29,039,,23,37,222,,24,84,019,,27,29,125,*6A
$PQGSV,1,1,0,0*43
$PQGSV,1,1,0,0*43
$GPGSA,A,3,02,04,07,08,13,20,23,25,27,,,,1.0,0.7,0.7*39
$GLGSA,A,3,75,77,78,86,87,88,,,,,,,1.0,0.7,0.7*23
$GAGSA,A,3,11,,,,,,,,,,,,1.0,0.7,0.7*22
$GPVTG,,T,,M,0.0,N,0.0,K,A*23
$GPDTM,P90,,0000.000022,S,00000.000001,W,0.988,W84*5A
$GPRMC,000204.00,A,2959.999989,N,12000.000139,E,0.0,,230721,4.3,W,A*03
$GPGGA,000204.00,2959.999989,N,12000.000139,E,1,12,0.7,-8.1,M,7.0,M,,*73

$GPGSV,3,1,12,02,31,298,42,04,50,246,42,07,83,113,42,08,46,206,42*7B
$GPGSV,3,2,12,13,48,030,42,20,21,120,42,23,26,056,42,25,65,042,42*70
$GPGSV,3,3,12,27,17,217,42,10,00,000,,16,00,000,,28,00,000,*77
$GLGSV,2,1,07,78,06,330,40,86,33,023,40,77,55,326,40,75,10,151,40*66
$GLGSV,2,2,07,88,19,243,40,87,60,299,41,71,00,000,*53
$GAGSV,2,1,08,11,55,116,46,09,12,316,,10,63,333,,12,05,129,*62
$GAGSV,2,2,08,17,29,039,,23,37,222,,24,84,019,,27,29,125,*6A
$PQGSV,1,1,0,0*43
$PQGSV,1,1,0,0*43
$GPGSA,A,3,02,04,07,08,13,20,23,25,27,,,,1.0,0.7,0.7*39
$GLGSA,A,3,75,77,78,86,87,88,,,,,,,1.0,0.7,0.7*23
$GAGSA,A,3,11,,,,,,,,,,,,1.0,0.7,0.7*22
$GPVTG,,T,,M,0.0,N,0.0,K,A*23
$GPDTM,P90,,0000.000022,S,00000.000001,W,0.988,W84*5A
$GPRMC,000205.00,A,2959.999989,N,12000.000139,E,0.0,,230721,4.3,W,A*02
$GPGGA,000205.00,2959.999989,N,12000.000139,E,1,12,0.7,-8.1,M,7.0,M,,*72

$GPGSV,3,1,12,02,31,298,42,04,50,246,42,07,83,113,42,08,46,206,42*7B
$GPGSV,3,2,12,13,48,030,42,20,21,120,42,23,26,056,42,25,65,042,42*70
$GPGSV,3,3,12,27,17,217,42,10,00,000,,16,00,000,,28,00,000,*77
$GLGSV,2,1,07,78,06,330,40,86,33,023,40,77,55,326,40,75,10,151,41*67
$GLGSV,2,2,07,88,19,243,41,87,60,299,41,71,00,000,*52
$GAGSV,2,1,08,11,55,116,46,09,12,316,,10,63,333,,12,05,129,*62
$GAGSV,2,2,08,17,29,039,,23,37,222,,24,84,019,,27,29,125,*6A
$PQGSV,1,1,0,0*43
$PQGSV,1,1,0,0*43
$GPGSA,A,3,02,04,07,08,13,20,23,25,27,,,,1.0,0.7,0.7*39
$GLGSA,A,3,75,77,78,86,87,88,,,,,,,1.0,0.7,0.7*23
$GAGSA,A,3,11,,,,,,,,,,,,1.0,0.7,0.7*22
$GPVTG,,T,,M,0.0,N,0.0,K,A*23
$GPDTM,P90,,0000.000022,S,00000.000001,W,0.988,W84*5A
$GPRMC,000206.00,A,2959.999989,N,12000.000139,E,0.0,,230721,4.3,W,A*01
$GPGGA,000206.00,2959.999989,N,12000.000139,E,1,12,0.7,-8.1,M,7.0,M,,*71

$GPGSV,3,1,12,02,31,298,42,04,50,246,42,07,83,113,42,08,46,206,42*7B
$GPGSV,3,2,12,13,48,030,42,20,21,120,42,23,26,056,42,25,65,042,42*70
$GPGSV,3,3,12,27,17,217,42,10,00,000,,16,00,000,,28,00,000,*77
$GLGSV,2,1,07,78,06,330,40,86,33,023,40,77,55,326,40,75,10,151,40*66
$GLGSV,2,2,07,88,19,243,40,87,60,299,41,71,00,000,*53
$GAGSV,2,1,08,11,55,116,46,09,12,316,,10,63,333,,12,05,129,*62
$GAGSV,2,2,08,17,29,039,,23,37,222,,24,84,019,,27,29,125,*6A
$PQGSV,1,1,0,0*43
$PQGSV,1,1,0,0*43
$GPGSA,A,3,02,04,07,08,13,20,23,25,27,,,,1.0,0.7,0.7*39
$GLGSA,A,3,75,77,78,86,87,88,,,,,,,1.0,0.7,0.7*23
$GAGSA,A,3,11,,,,,,,,,,,,1.0,0.7,0.7*22
$GPVTG,,T,,M,0.0,N,0.0,K,A*23
$GPDTM,P90,,0000.000022,S,00000.000001,W,0.988,W84*5A
$GPRMC,000207.00,A,2959.999989,N,12000.000139,E,0.0,,230721,4.3,W,A*00
$GPGGA,000207.00,2959.999989,N,12000.000139,E,1,12,0.7,-8.1,M,7.0,M,,*70

$GPGSV,3,1,12,02,31,298,42,04,50,246,42,07,83,113,42,08,46,206,42*7B
$GPGSV,3,2,12,13,48,030,42,20,21,120,42,23,26,056,42,25,65,042,42*70
$GPGSV,3,3,12,27,17,217,42,10,00,000,,16,00,000,,28,00,000,*77
$GLGSV,2,1,07,78,06,330,40,86,33,023,40,77,55,326,40,75,10,151,40*66
$GLGSV,2,2,07,88,19,243,40,87,60,299,41,71,00,000,*53
$GAGSV,2,1,08,11,55,116,46,09,12,316,,10,63,333,,12,05,129,*62
$GAGSV,2,2,08,17,29,039,,23,37,222,,24,84,019,,27,29,125,*6A
$PQGSV,1,1,0,0*43
$PQGSV,1,1,0,0*43
$GPGSA,A,3,02,04,07,08,13,20,23,25,27,,,,1.0,0.7,0.7*39
$GLGSA,A,3,75,77,78,86,87,88,,,,,,,1.0,0.7,0.7*23
$GAGSA,A,3,11,,,,,,,,,,,,1.0,0.7,0.7*22
$GPVTG,,T,,M,0.0,N,0.0,K,A*23
$GPDTM,P90,,0000.000022,S,00000.000001,W,0.988,W84*5A
$GPRMC,000208.00,A,2959.999989,N,12000.000138,E,0.0,,230721,4.3,W,A*0E
$GPGGA,000208.00,2959.999989,N,12000.000138,E,1,12,0.7,-8.1,M,7.0,M,,*7E

$GPGSV,3,1,12,02,31,298,42,04,50,246,42,07,83,113,42,08,46,206,42*7B
$GPGSV,3,2,12,13,48,030,42,20,21,120,42,23,26,056,42,25,65,042,42*70
$GPGSV,3,3,12,27,17,217,42,10,00,000,,16,00,000,,28,00,000,*77
$GLGSV,2,1,07,78,06,330,40,86,33,023,40,77,55,326,40,75,10,151,40*66
$GLGSV,2,2,07,88,19,243,41,87,60,299,41,71,00,000,*52
$GAGSV,2,1,08,11,55,116,46,09,12,316,,10,63,333,,12,05,129,*62
$GAGSV,2,2,08,17,29,039,,23,37,222,,24,84,019,,27,29,125,*6A
$PQGSV,1,1,0,0*43
$PQGSV,1,1,0,0*43
$GPGSA,A,3,02,04,07,08,13,20,23,25,27,,,,1.0,0.7,0.7*39
$GLGSA,A,3,75,77,78,86,87,88,,,,,,,1.0,0.7,0.7*23
$GAGSA,A,3,11,,,,,,,,,,,,1.0,0.7,0.7*22
$GPVTG,,T,,M,0.0,N,0.0,K,A*23
$GPDTM,P90,,0000.000022,S,00000.000001,W,0.988,W84*5A
$GPRMC,000209.00,A,2959.999989,N,12000.000138,E,0.0,,230721,4.3,W,A*0F
$GPGGA,000209.00,2959.999989,N,12000.000138,E,1,12,0.7,-8.1,M,7.0,M,,*7F

$GPGSV,3,1,12,02,31,298,42,04,50,246,42,07,83,113,42,08,46,206,42*7B
$GPGSV,3,2,12,13,48,030,42,20,21,120,42,23,26,056,42,25,65,042,42*70
$GPGSV,3,3,12,27,17,217,42,10,00,000,,16,00,000,,28,00,000,*77
$GLGSV,2,1,07,78,06,330,40,86,33,023,40,77,55,326,41,75,10,151,41*66
$GLGSV,2,2,07,88,19,243,40,87,60,299,41,71,00,000,*53
$GAGSV,2,1,08,11,55,116,46,12,05,129,45,09,12,316,,10,63,333,*63
$GAGSV,2,2,08,17,29,039,,23,37,222,,24,84,019,,27,29,125,*6A
$PQGSV,1,1,0,0*43
$PQGSV,1,1,0,0*43
$GPGSA,A,3,02,04,07,08,13,20,23,25,27,,,,1.0,0.7,0.7*39
$GLGSA,A,3,75,77,78,86,87,88,,,,,,,1.0,0.7,0.7*23
$GAGSA,A,3,11,,,,,,,,,,,,1.0,0.7,0.7*22
$GPVTG,,T,,M,0.0,N,0.0,K,A*23
$GPDTM,P90,,0000.000022,S,00000.000001,W,0.988,W84*5A
$GPRMC,000210.00,A,2959.999989,N,12000.000137,E,0.0,,230721,4.3,W,A*08
$GPGGA,000210.00,2959.999989,N,12000.000137,E,1,12,0.7,-8.1,M,7.0,M,,*78

$GPGSV,3,1,11,02,31,298,42,04,50,246,42,07,83,113,42,08,46,206,42*78
$GPGSV,3,2,11,13,48,030,42,20,21,120,42,23,26,056,42,25,65,042,42*73
$GPGSV,3,3,11,27,17,217,42,10,00,000,,28,00,000,*43
$GLGSV,2,1,07,78,06,330,40,86,33,023,40,77,55,326,40,75,10,151,40*66
$GLGSV,2,2,07,88,19,243,40,87,60,299,41,71,00,000,*53
$GAGSV,2,1,08,11,55,116,46,12,05,129,46,09,12,316,,10,63,333,*60
$GAGSV,2,2,08,17,29,039,,23,37,222,,24,84,019,,27,29,125,*6A
$PQGSV,1,1,0,0*43
$PQGSV,1,1,0,0*43
$GPGSA,A,3,02,04,07,08,13,20,23,25,27,,,,1.0,0.7,0.7*39
$GLGSA,A,3,75,77,78,86,87,88,,,,,,,1.0,0.7,0.7*23
$GAGSA,A,3,11,,,,,,,,,,,,1.0,0.7,0.7*22
$GPVTG,,T,,M,0.0,N,0.0,K,A*23
$GPDTM,P90,,0000.000022,S,00000.000001,W,0.988,W84*5A
$GPRMC,000211.00,A,2959.999987,N,12000.000137,E,0.0,,230721,4.3,W,A*07
$GPGGA,000211.00,2959.999987,N,12000.000137,E,1,12,0.7,-8.1,M,7.0,M,,*77

$GPGSV,3,1,12,02,31,298,42,04,50,246,42,07,83,113,42,08,46,206,42*7B
$GPGSV,3,2,12,13,48,030,42,20,21,120,42,23,26,056,42,25,65,042,42*70
$GPGSV,3,3,12,27,17,217,42,10,00,000,,16,00,000,,28,00,000,*77
$GLGSV,2,1,07,78,06,330,40,86,33,023,40,77,55,326,40,75,10,151,40*66
$GLGSV,2,2,07,88,19,243,40,87,60,299,40,71,00,000,*52
$GAGSV,2,1,08,11,55,116,45,12,05,129,45,09,12,316,,10,63,333,*60
$GAGSV,2,2,08,17,29,039,,23,37,222,,24,84,019,,27,29,125,*6A
$PQGSV,1,1,0,0*43
$PQGSV,1,1,0,0*43
$GPGSA,A,3,02,04,07,08,13,20,23,25,27,,,,1.0,0.7,0.7*39
$GLGSA,A,3,75,77,78,86,87,88,,,,,,,1.0,0.7,0.7*23
$GAGSA,A,3,11,,,,,,,,,,,,1.0,0.7,0.7*22
$GPVTG,,T,,M,0.0,N,0.0,K,A*23
$GPDTM,P90,,0000.000022,S,00000.000001,W,0.988,W84*5A
$GPRMC,000212.00,A,2959.999987,N,12000.000137,E,0.0,,230721,4.3,W,A*04
$GPGGA,000212.00,2959.999987,N,12000.000137,E,1,12,0.7,-8.1,M,7.0,M,,*74

$GPGSV,3,1,11,02,31,298,42,04,50,246,42,07,83,113,42,08,46,206,42*78
$GPGSV,3,2,11,13,48,030,42,20,21,120,42,23,26,056,42,25,65,042,42*73
$GPGSV,3,3,11,27,17,217,42,16,00,000,,28,00,000,*45
$GLGSV,2,1,07,78,06,330,40,86,33,023,40,77,55,326,40,75,10,151,40*66
$GLGSV,2,2,07,88,19,243,40,87,60,299,41,71,00,000,*53
$GAGSV,2,1,08,11,55,116,46,12,05,129,45,09,12,316,,10,63,333,*63
$GAGSV,2,2,08,17,29,039,,23,37,222,,24,84,019,,27,29,125,*6A
$PQGSV,1,1,0,0*43
$PQGSV,1,1,0,0*43
$GPGSA,A,3,02,04,07,08,13,20,23,25,27,,,,1.0,0.7,0.7*39
$GLGSA,A,3,75,77,78,86,87,88,,,,,,,1.0,0.7,0.7*23
$GAGSA,A,3,11,,,,,,,,,,,,1.0,0.7,0.7*22
$GPVTG,,T,,M,0.0,N,0.0,K,A*23
$GPDTM,P90,,0000.000022,S,00000.000001,W,0.988,W84*5A
$GPRMC,000213.00,A,2959.999987,N,12000.000137,E,0.0,,230721,4.3,W,A*05
$GPGGA,000213.00,2959.999987,N,12000.000137,E,1,12,0.7,-8.1,M,7.0,M,,*75

$GPGSV,3,1,12,02,31,298,42,04,50,246,42,07,83,113,42,08,46,206,42*7B
$GPGSV,3,2,12,13,48,030,42,20,21,120,42,23,26,056,42,25,65,042,42*70
$GPGSV,3,3,12,27,17,217,42,10,00,000,,16,00,000,,28,00,000,*77
$GLGSV,2,1,07,78,06,330,40,86,33,023,40,77,55,326,41,75,10,151,40*67
$GLGSV,2,2,07,88,19,243,40,87,60,299,40,71,00,000,*52
$GAGSV,2,1,08,11,55,116,45,12,05,129,45,09,12,316,,10,63,333,*60
$GAGSV,2,2,08,17,29,039,,23,37,222,,24,84,019,,27,29,125,*6A
$PQGSV,1,1,0,0*43
$PQGSV,1,1,0,0*43
$GPGSA,A,3,02,04,07,08,13,20,23,25,27,,,,1.0,0.7,0.7*39
$GLGSA,A,3,75,77,78,86,87,88,,,,,,,1.0,0.7,0.7*23
$GAGSA,A,3,11,,,,,,,,,,,,1.0,0.7,0.7*22
$GPVTG,,T,,M,0.0,N,0.0,K,A*23
$GPDTM,P90,,0000.000022,S,00000.000001,W,0.988,W84*5A
$GPRMC,000214.00,A,2959.999987,N,12000.000136,E,0.0,,230721,4.3,W,A*03
$GPGGA,000214.00,2959.999987,N,12000.000136,E,1,12,0.7,-8.1,M,7.0,M,,*73

$GPGSV,3,1,12,02,31,298,42,04,50,246,42,07,83,113,42,08,46,206,42*7B
$GPGSV,3,2,12,13,48,030,42,20,21,120,42,23,26,056,42,25,65,042,42*70
$GPGSV,3,3,12,27,17,217,42,10,00,000,,16,00,000,,28,00,000,*77
$GLGSV,2,1,07,78,06,330,40,86,33,023,40,77,55,326,40,75,10,151,40*66
$GLGSV,2,2,07,88,19,243,40,87,60,299,41,71,00,000,*53
$GAGSV,2,1,08,11,55,116,46,12,05,129,46,09,12,316,,10,63,333,*60
$GAGSV,2,2,08,17,29,039,,23,37,222,,24,84,019,,27,29,125,*6A
$PQGSV,1,1,0,0*43
$PQGSV,1,1,0,0*43
$GPGSA,A,3,02,04,07,08,13,20,23,25,27,,,,1.0,0.7,0.7*39
$GLGSA,A,3,75,77,78,86,87,88,,,,,,,1.0,0.7,0.7*23
$GAGSA,A,3,11,,,,,,,,,,,,1.0,0.7,0.7*22
$GPVTG,,T,,M,0.0,N,0.0,K,A*23
$GPDTM,P90,,0000.000022,S,00000.000001,W,0.988,W84*5A
$GPRMC,000215.00,A,2959.999987,N,12000.000136,E,0.0,,230721,4.3,W,A*02
$GPGGA,000215.00,2959.999987,N,12000.000136,E,1,12,0.7,-8.1,M,7.0,M,,*72

$GPGSV,3,1,12,02,31,298,42,04,50,246,42,07,83,113,42,08,46,206,42*7B
$GPGSV,3,2,12,13,48,030,42,20,21,120,42,23,26,056,42,25,65,042,42*70
$GPGSV,3,3,12,27,17,217,42,10,00,000,,16,00,000,,28,00,000,*77
$GLGSV,2,1,07,78,06,330,40,86,33,023,40,77,55,326,40,75,10,151,40*66
$GLGSV,2,2,07,88,19,243,40,87,60,299,41,71,00,000,*53
$GAGSV,2,1,08,11,55,116,46,12,05,129,46,09,12,316,,10,63,333,*60
$GAGSV,2,2,08,17,29,039,,23,37,222,,24,84,019,,27,29,125,*6A
$PQGSV,1,1,0,0*43
$PQGSV,1,1,0,0*43
$GPGSA,A,3,02,04,07,08,13,20,23,25,27,,,,1.0,0.7,0.7*39
$GLGSA,A,3,75,77,78,86,87,88,,,,,,,1.0,0.7,0.7*23
$GAGSA,A,3,11,,,,,,,,,,,,1.0,0.7,0.7*22
$GPVTG,,T,,M,0.0,N,0.0,K,A*23
$GPDTM,P90,,0000.000022,S,00000.000001,W,0.988,W84*5A
$GPRMC,000216.00,A,2959.999987,N,12000.000135,E,0.0,,230721,4.3,W,A*02
$GPGGA,000216.00,2959.999987,N,12000.000135,E,1,12,0.7,-8.1,M,7.0,M,,*72

$GPGSV,3,1,12,02,31,298,42,04,50,246,42,07,83,113,42,08,46,206,42*7B
$GPGSV,3,2,12,13,48,030,42,20,21,120,42,23,26,056,42,25,65,042,42*70
$GPGSV,3,3,12,27,17,217,42,10,00,000,,16,00,000,,28,00,000,*77
$GLGSV,2,1,07,78,06,330,41,86,33,023,40,77,55,326,40,75,10,151,40*67
$GLGSV,2,2,07,88,19,243,40,87,60,299,40,71,00,000,*52
$GAGSV,2,1,08,11,55,116,45,12,05,129,46,09,12,316,,10,63,333,*63
$GAGSV,2,2,08,17,29,039,,23,37,222,,24,84,019,,27,29,125,*6A
$PQGSV,1,1,0,0*43
$PQGSV,1,1,0,0*43
$GPGSA,A,3,02,04,07,08,13,20,23,25,27,,,,1.0,0.7,0.7*39
$GLGSA,A,3,75,77,78,86,87,88,,,,,,,1.0,0.7,0.7*23
$GAGSA,A,3,11,,,,,,,,,,,,1.0,0.7,0.7*22
$GPVTG,,T,,M,0.0,N,0.0,K,A*23
$GPDTM,P90,,0000.000022,S,00000.000001,W,0.988,W84*5A
$GPRMC,000217.00,A,2959.999987,N,12000.000135,E,0.0,,230721,4.3,W,A*03
$GPGGA,000217.00,2959.999987,N,12000.000135,E,1,12,0.7,-8.1,M,7.0,M,,*73

$GPGSV,3,1,12,02,31,298,42,04,50,246,42,07,83,113,42,08,46,206,42*7B
$GPGSV,3,2,12,13,48,030,42,20,21,120,42,23,26,056,42,25,65,042,42*70
$GPGSV,3,3,12,27,17,217,42,10,00,000,,16,00,000,,28,00,000,*77
$GLGSV,2,1,07,78,06,330,41,86,33,023,40,77,55,326,40,75,10,151,41*66
$GLGSV,2,2,07,88,19,243,41,87,60,299,40,71,00,000,*53
$GAGSV,2,1,08,11,55,116,46,12,05,129,45,09,12,316,,10,63,333,*63
$GAGSV,2,2,08,17,29,039,,23,37,222,,24,84,019,,27,29,125,*6A
$PQGSV,1,1,0,0*43
$PQGSV,1,1,0,0*43
$GPGSA,A,3,02,04,07,08,13,20,23,25,27,,,,1.0,0.7,0.7*39
$GLGSA,A,3,75,77,78,86,87,88,,,,,,,1.0,0.7,0.7*23
$GAGSA,A,3,11,,,,,,,,,,,,1.0,0.7,0.7*22
$GPVTG,,T,,M,0.0,N,0.0,K,A*23
$GPDTM,P90,,0000.000022,S,00000.000001,W,0.988,W84*5A
$GPRMC,000218.00,A,2959.999987,N,12000.000134,E,0.0,,230721,4.3,W,A*0D
$GPGGA,000218.00,2959.999987,N,12000.000134,E,1,12,0.7,-8.1,M,7.0,M,,*7D

$GPGSV,3,1,11,02,31,298,42,04,50,246,42,07,83,113,42,08,46,206,42*78
$GPGSV,3,2,11,13,48,030,42,20,21,120,42,23,26,056,42,25,65,042,42*73
$GPGSV,3,3,11,27,17,217,42,16,00,000,,28,00,000,*45
$GLGSV,2,1,07,78,06,330,41,86,33,023,40,77,55,326,40,75,10,151,40*67
$GLGSV,2,2,07,88,19,243,40,87,60,299,40,71,00,000,*52
$GAGSV,2,1,08,11,55,116,46,12,05,129,45,09,12,316,,10,63,333,*63
$GAGSV,2,2,08,17,29,039,,23,37,222,,24,84,019,,27,29,125,*6A
$PQGSV,1,1,0,0*43
$PQGSV,1,1,0,0*43
$GPGSA,A,3,02,04,07,08,13,20,23,25,27,,,,1.0,0.7,0.7*39
$GLGSA,A,3,75,77,78,86,87,88,,,,,,,1.0,0.7,0.7*23
$GAGSA,A,3,11,,,,,,,,,,,,1.0,0.7,0.7*22
$GPVTG,,T,,M,0.0,N,0.0,K,A*23
$GPDTM,P90,,0000.000022,S,00000.000001,W,0.988,W84*5A
$GPRMC,000219.00,A,2959.999987,N,12000.000134,E,0.0,,230721,4.3,W,A*0C
$GPGGA,000219.00,2959.999987,N,12000.000134,E,1,12,0.7,-8.1,M,7.0,M,,*7C

$GPGSV,3,1,12,02,31,298,42,04,50,246,42,07,83,113,42,08,46,206,42*7B
$GPGSV,3,2,12,13,48,030,42,20,21,120,42,23,26,056,42,25,65,042,42*70
$GPGSV,3,3,12,27,17,217,42,10,00,000,,16,00,000,,28,00,000,*77
$GLGSV,2,1,07,78,06,330,40,86,33,023,40,77,55,326,40,75,10,151,41*67
$GLGSV,2,2,07,88,19,243,40,87,60,299,41,71,00,000,*53
$GAGSV,2,1,08,11,54,118,46,12,05,129,46,09,12,316,,10,63,333,*6F
$GAGSV,2,2,08,17,29,039,,23,38,222,,24,83,019,,27,29,126,*61
$PQGSV,1,1,0,0*43
$PQGSV,1,1,0,0*43
$GPGSA,A,3,02,04,07,08,13,20,23,25,27,,,,1.0,0.7,0.7*39
$GLGSA,A,3,75,77,78,86,87,88,,,,,,,1.0,0.7,0.7*23
$GAGSA,A,3,11,,,,,,,,,,,,1.0,0.7,0.7*22
$GPVTG,,T,,M,0.0,N,0.0,K,A*23
$GPDTM,P90,,0000.000022,S,00000.000001,W,0.988,W84*5A
$GPRMC,000220.00,A,2959.999987,N,12000.000133,E,0.0,,230721,4.3,W,A*01
$GPGGA,000220.00,2959.999987,N,12000.000133,E,1,12,0.7,-8.0,M,7.0,M,,*70

$GPGSV,3,1,11,02,31,298,42,04,50,246,42,07,83,113,42,08,46,206,42*78
$GPGSV,3,2,11,13,48,030,42,20,21,120,42,23,26,056,42,25,65,042,42*73
$GPGSV,3,3,11,27,17,217,42,10,00,000,,28,00,000,*43
$GLGSV,2,1,07,78,06,330,40,86,33,023,40,77,55,326,40,75,10,151,40*66
$GLGSV,2,2,07,88,19,243,40,87,60,299,40,71,00,000,*52
$GAGSV,2,1,08,11,54,118,45,12,05,129,46,09,12,316,,10,63,333,*6C
$GAGSV,2,2,08,17,29,039,,23,38,222,,24,83,019,,27,29,126,*61
$PQGSV,1,1,0,0*43
$PQGSV,1,1,0,0*43
$GPGSA,A,3,02,04,07,08,13,20,23,25,27,,,,1.0,0.7,0.7*39
$GLGSA,A,3,75,77,78,86,87,88,,,,,,,1.0,0.7,0.7*23
$GAGSA,A,3,11,,,,,,,,,,,,1.0,0.7,0.7*22
$GPVTG,,T,,M,0.0,N,0.0,K,A*23
$GPDTM,P90,,0000.000022,S,00000.000001,W,0.988,W84*5A
$GPRMC,000221.00,A,2959.999987,N,12000.000133,E,0.0,,230721,4.3,W,A*00
$GPGGA,000221.00,2959.999987,N,12000.000133,E,1,12,0.7,-8.1,M,7.0,M,,*70

$GPGSV,3,1,12,02,31,298,42,04,50,246,42,07,83,113,42,08,46,206,42*7B
$GPGSV,3,2,12,13,48,030,42,20,21,120,42,23,26,056,42,25,65,042,42*70
$GPGSV,3,3,12,27,17,217,42,10,00,000,,16,00,000,,28,00,000,*77
$GLGSV,2,1,07,78,06,330,40,86,33,023,40,77,55,326,40,75,10,151,40*66
$GLGSV,2,2,07,88,19,243,40,87,60,299,41,71,00,000,*53
$GAGSV,2,1,08,11,54,118,46,12,05,129,46,09,12,316,,10,63,333,*6F
$GAGSV,2,2,08,17,29,039,,23,38,222,,24,83,019,,27,29,126,*61
$PQGSV,1,1,0,0*43
$PQGSV,1,1,0,0*43
$GPGSA,A,3,02,04,07,08,13,20,23,25,27,,,,1.0,0.7,0.7*39
$GLGSA,A,3,75,77,78,86,87,88,,,,,,,1.0,0.7,0.7*23
$GAGSA,A,3,11,,,,,,,,,,,,1.0,0.7,0.7*22
$GPVTG,,T,,M,0.0,N,0.0,K,A*23
$GPDTM,P90,,0000.000022,S,00000.000001,W,0.988,W84*5A
$GPRMC,000222.00,A,2959.999986,N,12000.000133,E,0.0,,230721,4.3,W,A*02
$GPGGA,000222.00,2959.999986,N,12000.000133,E,1,12,0.7,-8.1,M,7.0,M,,*72

$GPGSV,3,1,12,02,31,298,42,04,50,246,42,07,83,113,42,08,46,206,42*7B
$GPGSV,3,2,12,13,48,030,42,20,21,120,42,23,26,056,42,25,65,042,42*70
$GPGSV,3,3,12,27,17,217,42,10,00,000,,16,00,000,,28,00,000,*77
$GLGSV,2,1,07,78,06,330,40,86,33,023,40,77,55,326,40,75,10,151,40*66
$GLGSV,2,2,07,88,19,243,40,87,60,299,41,71,00,000,*53
$GAGSV,2,1,08,11,54,118,45,12,05,129,46,09,12,316,,10,63,333,*6C
$GAGSV,2,2,08,17,29,039,,23,38,222,,24,83,019,,27,29,126,*61
$PQGSV,1,1,0,0*43
$PQGSV,1,1,0,0*43
$GPGSA,A,3,02,04,07,08,13,20,23,25,27,,,,1.0,0.7,0.7*39
$GLGSA,A,3,75,77,78,86,87,88,,,,,,,1.0,0.7,0.7*23
$GAGSA,A,3,11,,,,,,,,,,,,1.0,0.7,0.7*22
$GPVTG,,T,,M,0.0,N,0.0,K,A*23
$GPDTM,P90,,0000.000022,S,00000.000001,W,0.988,W84*5A
$GPRMC,000223.00,A,2959.999986,N,12000.000133,E,0.0,,230721,4.3,W,A*03
$GPGGA,000223.00,2959.999986,N,12000.000133,E,1,12,0.7,-8.1,M,7.0,M,,*73

$GPGSV,3,1,12,02,31,298,42,04,50,246,42,07,83,113,42,08,46,206,42*7B
$GPGSV,3,2,12,13,48,030,42,20,21,120,42,23,26,056,42,25,65,042,42*70
$GPGSV,3,3,12,27,17,217,42,10,00,000,,16,00,000,,28,00,000,*77
$GLGSV,2,1,07,78,06,330,41,86,33,023,40,77,55,326,40,75,10,151,40*67
$GLGSV,2,2,07,88,19,243,40,87,60,299,40,71,00,000,*52
$GAGSV,2,1,08,11,54,118,45,12,05,129,46,09,12,316,,10,63,333,*6C
$GAGSV,2,2,08,17,29,039,,23,38,222,,24,83,019,,27,29,126,*61
$PQGSV,1,1,0,0*43
$PQGSV,1,1,0,0*43
$GPGSA,A,3,02,04,07,08,13,20,23,25,27,,,,1.0,0.7,0.7*39
$GLGSA,A,3,75,77,78,86,87,88,,,,,,,1.0,0.7,0.7*23
$GAGSA,A,3,11,,,,,,,,,,,,1.0,0.7,0.7*22
$GPVTG,,T,,M,0.0,N,0.0,K,A*23
$GPDTM,P90,,0000.000022,S,00000.000001,W,0.988,W84*5A
$GPRMC,000224.00,A,2959.999986,N,12000.000131,E,0.0,,230721,4.3,W,A*06
$GPGGA,000224.00,2959.999986,N,12000.000131,E,1,12,0.7,-8.1,M,7.0,M,,*76

$GPGSV,3,1,12,02,31,298,42,04,50,246,42,07,83,113,42,08,46,206,42*7B
$GPGSV,3,2,12,13,48,030,42,20,21,120,42,23,26,056,42,25,65,042,42*70
$GPGSV,3,3,12,27,17,217,42,10,00,000,,16,00,000,,28,00,000,*77
$GLGSV,2,1,07,78,06,330,40,86,33,023,40,77,55,326,40,75,10,151,40*66
$GLGSV,2,2,07,88,19,243,40,87,60,299,41,71,00,000,*53
$GAGSV,2,1,08,11,54,118,45,12,05,129,46,09,12,316,,10,63,333,*6C
$GAGSV,2,2,08,17,29,039,,23,38,222,,24,83,019,,27,29,126,*61
$PQGSV,1,1,0,0*43
$PQGSV,1,1,0,0*43
$GPGSA,A,3,02,04,07,08,13,20,23,25,27,,,,1.0,0.7,0.7*39
$GLGSA,A,3,75,77,78,86,87,88,,,,,,,1.0,0.7,0.7*23
$GAGSA,A,3,11,,,,,,,,,,,,1.0,0.7,0.7*22
$GPVTG,,T,,M,0.0,N,0.0,K,A*23
$GPDTM,P90,,0000.000022,S,00000.000001,W,0.988,W84*5A
$GPRMC,000225.00,A,2959.999986,N,12000.000132,E,0.0,,230721,4.3,W,A*04
$GPGGA,000225.00,2959.999986,N,12000.000132,E,1,12,0.7,-8.1,M,7.0,M,,*74

$GPGSV,3,1,12,02,31,298,42,04,50,246,42,07,83,113,42,08,46,206,42*7B
$GPGSV,3,2,12,13,48,030,42,20,21,120,42,23,26,056,42,25,65,042,42*70
$GPGSV,3,3,12,27,17,217,42,10,00,000,,16,00,000,,28,00,000,*77
$GLGSV,2,1,07,78,06,330,40,86,33,023,40,77,55,326,40,75,10,151,40*66
$GLGSV,2,2,07,88,19,243,40,87,60,299,41,71,00,000,*53
$GAGSV,2,1,08,11,54,118,46,12,05,129,46,09,12,316,,10,63,333,*6F
$GAGSV,2,2,08,17,29,039,,23,38,222,,24,83,019,,27,29,126,*61
$PQGSV,1,1,0,0*43
$PQGSV,1,1,0,0*43
$GPGSA,A,3,02,04,07,08,13,20,23,25,27,,,,1.0,0.7,0.7*39
$GLGSA,A,3,75,77,78,86,87,88,,,,,,,1.0,0.7,0.7*23
$GAGSA,A,3,11,,,,,,,,,,,,1.0,0.7,0.7*22
$GPVTG,,T,,M,0.0,N,0.0,K,A*23
$GPDTM,P90,,0000.000022,S,00000.000001,W,0.988,W84*5A
$GPRMC,000226.00,A,2959.999985,N,12000.000131,E,0.0,,230721,4.3,W,A*07
$GPGGA,000226.00,2959.999985,N,12000.000131,E,1,12,0.7,-8.1,M,7.0,M,,*77

$GPGSV,3,1,11,02,31,298,42,04,50,246,42,07,83,113,42,08,46,206,42*78
$GPGSV,3,2,11,13,48,030,42,20,21,120,42,23,26,056,42,25,65,042,42*73
$GPGSV,3,3,11,27,17,217,42,16,00,000,,28,00,000,*45
$GLGSV,2,1,07,78,06,330,40,86,33,023,40,77,55,326,41,75,10,151,40*67
$GLGSV,2,2,07,88,19,243,40,87,60,299,41,71,00,000,*53
$GAGSV,2,1,08,11,54,118,46,12,05,129,46,09,12,316,,10,63,333,*6F
$GAGSV,2,2,08,17,29,039,,23,38,222,,24,83,019,,27,29,126,*61
$PQGSV,1,1,0,0*43
$PQGSV,1,1,0,0*43
$GPGSA,A,3,02,04,07,08,13,20,23,25,27,,,,1.0,0.7,0.7*39
$GLGSA,A,3,75,77,78,86,87,88,,,,,,,1.0,0.7,0.7*23
$GAGSA,A,3,11,,,,,,,,,,,,1.0,0.7,0.7*22
$GPVTG,,T,,M,0.0,N,0.0,K,A*23
$GPDTM,P90,,0000.000022,S,00000.000001,W,0.988,W84*5A
$GPRMC,000227.00,A,2959.999984,N,12000.000131,E,0.0,,230721,4.3,W,A*07
$GPGGA,000227.00,2959.999984,N,12000.000131,E,1,12,0.7,-8.1,M,7.0,M,,*77

$GPGSV,3,1,12,02,31,298,42,04,50,246,42,07,83,113,42,08,46,206,42*7B
$GPGSV,3,2,12,13,48,030,42,20,21,120,42,23,26,056,42,25,65,042,42*70
$GPGSV,3,3,12,27,17,217,42,10,00,000,,16,00,000,,28,00,000,*77
$GLGSV,2,1,07,78,06,330,40,86,33,023,40,77,55,326,40,75,10,151,40*66
$GLGSV,2,2,07,88,19,243,40,87,60,299,40,71,00,000,*52
$GAGSV,2,1,08,11,54,118,46,12,05,129,46,09,12,316,,10,63,333,*6F
$GAGSV,2,2,08,17,29,039,,23,38,222,,24,83,019,,27,29,126,*61
$PQGSV,1,1,0,0*43
$PQGSV,1,1,0,0*43
$GPGSA,A,3,02,04,07,08,13,20,23,25,27,,,,1.0,0.7,0.7*39
$GLGSA,A,3,75,77,78,86,87,88,,,,,,,1.0,0.7,0.7*23
$GAGSA,A,3,11,,,,,,,,,,,,1.0,0.7,0.7*22
$GPVTG,,T,,M,0.0,N,0.0,K,A*23
$GPDTM,P90,,0000.000022,S,00000.000001,W,0.988,W84*5A
$GPRMC,000228.00,A,2959.999984,N,12000.000131,E,0.0,,230721,4.3,W,A*08
$GPGGA,000228.00,2959.999984,N,12000.000131,E,1,12,0.7,-8.1,M,7.0,M,,*78

$GPGSV,3,1,12,02,31,298,42,04,50,246,42,07,83,113,42,08,46,206,42*7B
$GPGSV,3,2,12,13,48,030,42,20,21,120,42,23,26,056,42,25,65,042,42*70
$GPGSV,3,3,12,27,17,217,42,10,00,000,,16,00,000,,28,00,000,*77
$GLGSV,2,1,07,78,06,330,40,86,33,023,40,77,55,326,40,75,10,151,41*67
$GLGSV,2,2,07,88,19,243,40,87,60,299,41,71,00,000,*53
$GAGSV,2,1,08,11,54,118,45,12,05,129,46,09,12,316,,10,63,333,*6C
$GAGSV,2,2,08,17,29,039,,23,38,222,,24,83,019,,27,29,126,*61
$PQGSV,1,1,0,0*43
$PQGSV,1,1,0,0*43
$GPGSA,A,3,02,04,07,08,13,20,23,25,27,,,,1.0,0.7,0.7*39
$GLGSA,A,3,75,77,78,86,87,88,,,,,,,1.0,0.7,0.7*23
$GAGSA,A,3,11,,,,,,,,,,,,1.0,0.7,0.7*22
$GPVTG,,T,,M,0.0,N,0.0,K,A*23
$GPDTM,P90,,0000.000022,S,00000.000001,W,0.988,W84*5A
$GPRMC,000229.00,A,2959.999983,N,12000.000131,E,0.0,,230721,4.3,W,A*0E
$GPGGA,000229.00,2959.999983,N,12000.000131,E,1,12,0.7,-8.1,M,7.0,M,,*7E

$GPGSV,3,1,11,02,31,298,42,04,50,246,42,07,83,113,42,08,46,206,42*78
$GPGSV,3,2,11,13,48,030,42,20,21,120,42,23,26,056,42,25,65,042,42*73
$GPGSV,3,3,11,27,17,217,42,16,00,000,,28,00,000,*45
