$GPGSV,3,1,12,02,32,296,32,04,49,243,32,07,83,094,32,08,48,208,32*75
$GPGSV,3,2,12,13,47,032,32,20,20,122,32,23,25,057,32,25,63,040,32*78
$GPGSV,3,3,12,27,19,219,32,10,01,310,,16,00,000,,28,00,000,*73
$GLGSV,2,1,07,78,07,330,30,86,32,025,31,77,56,326,30,75,09,153,30*68
$GLGSV,2,2,07,88,21,244,30,87,60,303,30,71,01,078,*52
$GAGSV,2,1,08,09,13,316,,10,64,333,,11,54,119,,12,04,130,*61
$GAGSV,2,2,08,17,28,039,,23,38,223,,24,82,018,,27,28,126,*60
$PQGSV,1,1,0,0*43
$PQGSV,1,1,0,0*43
$GPGSA,A,3,02,04,07,08,13,20,23,25,27,,,,1.0,0.7,0.7*39
$GLGSA,A,3,75,77,78,86,87,88,,,,,,,1.0,0.7,0.7*23
$GPVTG,,T,,M,0.0,N,0.0,K,A*23
$GPDTM,P90,,0000.000022,S,00000.000001,W,0.988,W84*5A
$GPRMC,000458.00,A,2959.999992,N,11959.999152,E,0.0,,230721,4.3,W,A*04
$GPGGA,000458.00,2959.999992,N,11959.999152,E,1,12,0.7,-2.3,M,7.0,M,,*7C

$GPGSV,3,1,12,02,32,296,32,04,49,243,32,07,83,094,32,08,48,208,33*74
$GPGSV,3,2,12,13,47,032,32,20,20,122,33,23,25,057,33,25,63,040,32*78
$GPGSV,3,3,12,27,19,219,32,10,01,310,,16,00,000,,28,00,000,*73
$GLGSV,2,1,07,78,07,330,31,86,32,025,30,77,56,326,30,75,09,153,30*68
$GLGSV,2,2,07,88,21,244,31,87,60,303,31,71,01,078,*52
$GAGSV,2,1,08,09,13,316,,10,64,333,,11,54,119,,12,04,130,*61
$GAGSV,2,2,08,17,28,039,,23,38,223,,24,82,018,,27,28,126,*60
$PQGSV,1,1,0,0*43
$PQGSV,1,1,0,0*43
$GPGSA,A,3,02,04,07,08,13,20,23,25,27,,,,1.0,0.7,0.7*39
$GLGSA,A,3,75,77,78,86,87,88,,,,,,,1.0,0.7,0.7*23
$GPVTG,,T,,M,0.0,N,0.0,K,A*23
$GPDTM,P90,,0000.000022,S,00000.000001,W,0.988,W84*5A
$GPRMC,000459.00,A,3000.000141,N,11959.999270,E,0.0,,230721,4.3,W,A*0D
$GPGGA,000459.00,3000.000141,N,11959.999270,E,1,12,0.7,-3.3,M,7.0,M,,*74

$GPGSV,3,1,12,02,32,296,32,04,49,243,32,07,83,094,33,08,48,208,32*74
$GPGSV,3,2,12,13,47,032,32,20,20,122,32,23,25,057,32,25,63,040,32*78
$GPGSV,3,3,12,27,19,219,33,10,01,310,,16,00,000,,28,00,000,*72
$GLGSV,2,1,07,78,07,330,31,86,32,025,30,77,56,326,30,75,09,153,31*69
$GLGSV,2,2,07,88,21,244,30,87,60,303,31,71,01,078,*53
$GAGSV,2,1,08,09,13,316,,10,64,333,,11,54,119,,12,04,130,*61
$GAGSV,2,2,08,17,28,039,,23,38,223,,24,82,018,,27,28,126,*60
$PQGSV,1,1,0,0*43
$PQGSV,1,1,0,0*43
$GPGSA,A,3,02,04,07,08,13,20,23,25,27,,,,1.0,0.7,0.7*39
$GLGSA,A,3,75,77,78,86,87,88,,,,,,,1.0,0.7,0.7*23
$GPVTG,,T,,M,0.0,N,0.0,K,A*23
$GPDTM,P90,,0000.000022,S,00000.000001,W,0.988,W84*5A
$GPRMC,000500.00,A,3000.000194,N,11959.999095,E,0.0,,230721,4.3,W,A*01
$GPGGA,000500.00,3000.000194,N,11959.999095,E,1,12,0.7,-4.6,M,7.0,M,,*7A

$GPGSV,3,1,12,02,32,296,32,04,49,243,32,07,83,094,33,08,48,208,32*74
$GPGSV,3,2,12,13,47,032,32,20,20,122,32,23,25,057,32,25,63,040,32*78
$GPGSV,3,3,12,27,19,219,32,10,01,310,,16,00,000,,28,00,000,*73
$GLGSV,2,1,07,78,07,330,31,86,32,025,30,77,56,326,31,75,09,153,31*68
$GLGSV,2,2,07,88,21,244,30,87,60,303,31,71,01,078,*53
$GAGSV,2,1,08,09,13,316,,10,64,333,,11,54,119,,12,04,130,*61
$GAGSV,2,2,08,17,28,039,,23,38,223,,24,82,018,,27,28,126,*60
$PQGSV,1,1,0,0*43
$PQGSV,1,1,0,0*43
$GPGSA,A,3,02,04,07,08,13,20,23,25,27,,,,1.0,0.7,0.7*39
$GLGSA,A,3,75,77,78,86,87,88,,,,,,,1.0,0.7,0.7*23
$GPVTG,,T,,M,0.0,N,0.0,K,A*23
$GPDTM,P90,,0000.000022,S,00000.000001,W,0.988,W84*5A
$GPRMC,000501.00,A,3000.000197,N,11959.999252,E,0.0,,230721,4.3,W,A*0A
$GPGGA,000501.00,3000.000197,N,11959.999252,E,1,12,0.7,-4.9,M,7.0,M,,*7E

$GPGSV,3,1,12,02,32,296,32,04,49,243,32,07,83,094,32,08,48,208,32*75
$GPGSV,3,2,12,13,47,032,32,20,20,122,32,23,25,057,33,25,63,040,32*79
$GPGSV,3,3,12,27,19,219,32,10,01,310,,16,00,000,,28,00,000,*73
$GLGSV,2,1,07,78,07,330,30,86,32,025,31,77,56,326,30,75,09,153,31*69
$GLGSV,2,2,07,88,21,244,30,87,60,303,30,71,01,078,*52
$GAGSV,2,1,08,09,13,316,,10,64,333,,11,54,119,,12,04,130,*61
$GAGSV,2,2,08,17,28,039,,23,38,223,,24,82,018,,27,28,126,*60
$PQGSV,1,1,0,0*43
$PQGSV,1,1,0,0*43
$GPGSA,A,3,02,04,07,08,13,20,23,25,27,,,,1.0,0.7,0.7*39
$GLGSA,A,3,75,77,78,86,87,88,,,,,,,1.0,0.7,0.7*23
$GPVTG,,T,,M,0.0,N,0.0,K,A*23
$GPDTM,P90,,0000.000022,S,00000.000001,W,0.988,W84*5A
$GPRMC,000502.00,A,3000.000175,N,11959.999204,E,0.0,,230721,4.3,W,A*06
$GPGGA,000502.00,3000.000175,N,11959.999204,E,1,12,0.7,-5.7,M,7.0,M,,*7D

$GPGSV,3,1,12,02,32,296,32,04,49,243,33,07,83,094,32,08,48,208,32*74
$GPGSV,3,2,12,13,47,032,32,20,20,122,32,23,25,057,32,25,63,040,32*78
$GPGSV,3,3,12,27,19,219,32,10,01,310,,16,00,000,,28,00,000,*73
$GLGSV,2,1,07,78,07,330,31,86,32,025,30,77,56,326,31,75,09,153,31*68
$GLGSV,2,2,07,88,21,244,30,87,60,303,31,71,01,078,*53
$GAGSV,2,1,08,09,13,316,,10,64,333,,11,54,119,,12,04,130,*61
$GAGSV,2,2,08,17,28,039,,23,38,223,,24,82,018,,27,28,126,*60
$PQGSV,1,1,0,0*43
$PQGSV,1,1,0,0*43
$GPGSA,A,3,02,04,07,08,13,20,23,25,27,,,,1.0,0.7,0.7*39
$GLGSA,A,3,75,77,78,86,87,88,,,,,,,1.0,0.7,0.7*23
$GPVTG,,T,,M,0.0,N,0.0,K,A*23
$GPDTM,P90,,0000.000022,S,00000.000001,W,0.988,W84*5A
$GPRMC,000503.00,A,3000.000124,N,11959.999136,E,0.0,,230721,4.3,W,A*01
$GPGGA,000503.00,3000.000124,N,11959.999136,E,1,12,0.7,-5.6,M,7.0,M,,*7B

$GPGSV,3,1,12,02,32,296,32,04,49,243,33,07,83,094,33,08,48,208,32*75
$GPGSV,3,2,12,13,47,032,33,20,20,122,32,23,25,057,32,25,63,040,33*78
$GPGSV,3,3,12,27,19,219,32,10,01,310,,16,00,000,,28,00,000,*73
$GLGSV,2,1,07,78,07,330,30,86,32,025,30,77,56,326,31,75,09,153,31*69
$GLGSV,2,2,07,88,21,244,30,87,60,303,30,71,01,078,*52
$GAGSV,2,1,08,09,13,316,,10,64,333,,11,54,119,,12,04,130,*61
$GAGSV,2,2,08,17,28,039,,23,38,223,,24,82,018,,27,28,126,*60
$PQGSV,1,1,0,0*43
$PQGSV,1,1,0,0*43
$GPGSA,A,3,02,04,07,08,13,20,23,25,27,,,,1.0,0.7,0.7*39
$GLGSA,A,3,75,77,78,86,87,88,,,,,,,1.0,0.7,0.7*23
$GPVTG,,T,,M,0.0,N,0.0,K,A*23
$GPDTM,P90,,0000.000022,S,00000.000001,W,0.988,W84*5A
$GPRMC,000504.00,A,3000.000078,N,11959.999192,E,0.0,,230721,4.3,W,A*00
$GPGGA,000504.00,3000.000078,N,11959.999192,E,1,12,0.7,-5.5,M,7.0,M,,*79

$GPGSV,3,1,12,02,32,296,32,04,49,243,33,07,83,094,32,08,48,208,32*74
$GPGSV,3,2,12,13,47,032,32,20,20,122,32,23,25,057,32,25,63,040,32*78
$GPGSV,3,3,12,27,19,219,32,10,01,310,,16,00,000,,28,00,000,*73
$GLGSV,2,1,07,78,07,330,30,86,32,025,31,77,56,326,30,75,09,153,31*69
$GLGSV,2,2,07,88,21,244,30,87,60,303,31,71,01,078,*53
$GAGSV,2,1,08,09,13,316,,10,64,333,,11,54,119,,12,04,130,*61
$GAGSV,2,2,08,17,28,039,,23,38,223,,24,82,018,,27,28,126,*60
$PQGSV,1,1,0,0*43
$PQGSV,1,1,0,0*43
$GPGSA,A,3,02,04,07,08,13,20,23,25,27,,,,1.0,0.7,0.7*39
$GLGSA,A,3,75,77,78,86,87,88,,,,,,,1.0,0.7,0.7*23
$GPVTG,,T,,M,0.0,N,0.0,K,A*23
$GPDTM,P90,,0000.000022,S,00000.000001,W,0.988,W84*5A
$GPRMC,000505.00,A,3000.000073,N,11959.999215,E,0.0,,230721,4.3,W,A*06
$GPGGA,000505.00,3000.000073,N,11959.999215,E,1,12,0.7,-5.6,M,7.0,M,,*7C

$GPGSV,3,1,12,02,32,296,32,04,49,243,32,07,83,094,32,08,48,208,32*75
$GPGSV,3,2,12,13,47,032,32,20,20,122,32,23,25,057,33,25,63,040,33*78
$GPGSV,3,3,12,27,19,219,32,10,01,310,,16,00,000,,28,00,000,*73
$GLGSV,2,1,07,78,07,330,30,86,32,025,30,77,56,326,30,75,09,153,31*68
$GLGSV,2,2,07,88,21,244,31,87,60,303,30,71,01,078,*53
$GAGSV,2,1,08,09,13,316,,10,64,333,,11,54,119,,12,04,130,*61
$GAGSV,2,2,08,17,28,039,,23,38,223,,24,82,018,,27,28,126,*60
$PQGSV,1,1,0,0*43
$PQGSV,1,1,0,0*43
$GPGSA,A,3,02,04,07,08,13,20,23,25,27,,,,1.0,0.7,0.7*39
$GLGSA,A,3,75,77,78,86,87,88,,,,,,,1.0,0.7,0.7*23
$GPVTG,,T,,M,0.0,N,0.0,K,A*23
$GPDTM,P90,,0000.000022,S,00000.000001,W,0.988,W84*5A
$GPRMC,000506.00,A,3000.000060,N,11959.999216,E,0.0,,230721,4.3,W,A*04
$GPGGA,000506.00,3000.000060,N,11959.999216,E,1,12,0.7,-5.6,M,7.0,M,,*7E

$GPGSV,3,1,12,02,32,296,33,04,49,243,32,07,83,094,32,08,48,208,32*74
$GPGSV,3,2,12,13,47,032,33,20,20,122,32,23,25,057,33,25,63,040,32*78
$GPGSV,3,3,12,27,19,219,32,10,01,310,,16,00,000,,28,00,000,*73
$GLGSV,2,1,07,78,07,330,31,86,32,025,31,77,56,326,30,75,09,153,31*68
$GLGSV,2,2,07,88,21,244,30,87,60,303,30,71,01,078,*52
$GAGSV,2,1,08,09,13,316,,10,64,333,,11,54,119,,12,04,130,*61
$GAGSV,2,2,08,17,28,039,,23,38,223,,24,82,018,,27,28,126,*60
$PQGSV,1,1,0,0*43
$PQGSV,1,1,0,0*43
$GPGSA,A,3,02,04,07,08,13,20,23,25,27,,,,1.0,0.7,0.7*39
$GLGSA,A,3,75,77,78,86,87,88,,,,,,,1.0,0.7,0.7*23
$GPVTG,,T,,M,0.0,N,0.0,K,A*23
$GPDTM,P90,,0000.000022,S,00000.000001,W,0.988,W84*5A
$GPRMC,000507.00,A,3000.000065,N,11959.999215,E,0.0,,230721,4.3,W,A*03
$GPGGA,000507.00,3000.000065,N,11959.999215,E,1,12,0.7,-5.6,M,7.0,M,,*79

$GPGSV,3,1,12,02,32,296,32,04,49,243,32,07,83,094,33,08,48,208,32*74
$GPGSV,3,2,12,13,47,032,32,20,20,122,32,23,25,057,32,25,63,040,32*78
$GPGSV,3,3,12,27,19,219,32,10,01,310,,16,00,000,,28,00,000,*73
$GLGSV,2,1,07,78,07,330,31,86,32,025,30,77,56,326,31,75,09,153,31*68
$GLGSV,2,2,07,88,21,244,30,87,60,303,31,71,01,078,*53
$GAGSV,2,1,08,09,13,316,,10,64,333,,11,54,119,,12,04,130,*61
$GAGSV,2,2,08,17,28,039,,23,38,223,,24,82,018,,27,28,126,*60
$PQGSV,1,1,0,0*43
$PQGSV,1,1,0,0*43
$GPGSA,A,3,02,04,07,08,13,20,23,25,27,,,,1.0,0.7,0.7*39
$GLGSA,A,3,75,77,78,86,87,88,,,,,,,1.0,0.7,0.7*23
$GPVTG,,T,,M,0.0,N,0.0,K,A*23
$GPDTM,P90,,0000.000022,S,00000.000001,W,0.988,W84*5A
$GPRMC,000508.00,A,3000.000065,N,11959.999216,E,0.0,,230721,4.3,W,A*0F
$GPGGA,000508.00,3000.000065,N,11959.999216,E,1,12,0.7,-5.6,M,7.0,M,,*75

$GPGSV,3,1,12,02,32,296,33,04,49,243,32,07,83,094,32,08,48,208,33*75
$GPGSV,3,2,12,13,47,032,32,20,20,122,32,23,25,057,32,25,63,040,32*78
$GPGSV,3,3,12,27,19,219,32,10,01,310,,16,00,000,,28,00,000,*73
$GLGSV,2,1,07,78,07,330,30,86,32,025,31,77,56,326,31,75,09,153,30*69
$GLGSV,2,2,07,88,21,244,30,87,60,303,31,71,01,078,*53
$GAGSV,2,1,08,09,13,316,,10,64,333,,11,54,119,,12,04,130,*61
$GAGSV,2,2,08,17,28,039,,23,38,223,,24,82,018,,27,28,126,*60
$PQGSV,1,1,0,0*43
$PQGSV,1,1,0,0*43
$GPGSA,A,3,02,04,07,08,13,20,23,25,27,,,,1.0,0.7,0.7*39
$GLGSA,A,3,75,77,78,86,87,88,,,,,,,1.0,0.7,0.7*23
$GPVTG,,T,,M,0.0,N,0.0,K,A*23
$GPDTM,P90,,0000.000022,S,00000.000001,W,0.988,W84*5A
$GPRMC,000509.00,A,3000.000066,N,11959.999215,E,0.0,,230721,4.3,W,A*0E
$GPGGA,000509.00,3000.000066,N,11959.999215,E,1,12,0.7,-5.6,M,7.0,M,,*74

$GPGSV,3,1,12,02,32,296,32,04,49,243,32,07,83,094,32,08,48,208,32*75
$GPGSV,3,2,12,13,47,032,32,20,20,122,33,23,25,057,32,25,63,040,32*79
$GPGSV,3,3,12,27,19,219,32,10,01,310,,16,00,000,,28,00,000,*73
$GLGSV,2,1,07,78,07,330,30,86,32,025,30,77,56,326,31,75,09,153,30*68
$GLGSV,2,2,07,88,21,244,31,87,60,303,31,71,01,078,*52
$GAGSV,2,1,08,09,13,316,,10,64,333,,11,54,119,,12,04,130,*61
$GAGSV,2,2,08,17,28,039,,23,38,223,,24,82,018,,27,28,126,*60
$PQGSV,1,1,0,0*43
$PQGSV,1,1,0,0*43
$GPGSA,A,3,02,04,07,08,13,20,23,25,27,,,,1.0,0.7,0.7*39
$GLGSA,A,3,75,77,78,86,87,88,,,,,,,1.0,0.7,0.7*23
$GPVTG,,T,,M,0.0,N,0.0,K,A*23
$GPDTM,P90,,0000.000022,S,00000.000001,W,0.988,W84*5A
$GPRMC,000510.00,A,3000.000067,N,11959.999215,E,0.0,,230721,4.3,W,A*07
$GPGGA,000510.00,3000.000067,N,11959.999215,E,1,12,0.7,-5.6,M,7.0,M,,*7D

$GPGSV,3,1,12,02,32,296,32,04,49,243,33,07,83,094,32,08,48,208,32*74
$GPGSV,3,2,12,13,47,032,32,20,20,122,32,23,25,057,32,25,63,040,32*78
$GPGSV,3,3,12,27,19,219,32,10,01,310,,16,00,000,,28,00,000,*73
$GLGSV,2,1,07,78,07,330,31,86,32,025,30,77,56,326,30,75,09,153,31*69
$GLGSV,2,2,07,88,21,244,30,87,60,303,31,71,01,078,*53
$GAGSV,2,1,08,09,13,316,,10,64,333,,11,54,119,,12,04,130,*61
$GAGSV,2,2,08,17,28,039,,23,38,223,,24,82,018,,27,28,126,*60
$PQGSV,1,1,0,0*43
$PQGSV,1,1,0,0*43
$GPGSA,A,3,02,04,07,08,13,20,23,25,27,,,,1.0,0.7,0.7*39
$GLGSA,A,3,75,77,78,86,87,88,,,,,,,1.0,0.7,0.7*23
$GPVTG,,T,,M,0.0,N,0.0,K,A*23
$GPDTM,P90,,0000.000022,S,00000.000001,W,0.988,W84*5A
$GPRMC,000511.00,A,3000.000066,N,11959.999217,E,0.0,,230721,4.3,W,A*05
$GPGGA,000511.00,3000.000066,N,11959.999217,E,1,12,0.7,-5.6,M,7.0,M,,*7F

$GPGSV,3,1,12,02,32,296,32,04,49,243,32,07,83,094,32,08,48,208,32*75
$GPGSV,3,2,12,13,47,032,32,20,20,122,32,23,25,057,33,25,63,040,32*79
$GPGSV,3,3,12,27,19,219,32,10,01,310,,16,00,000,,28,00,000,*73
$GLGSV,2,1,07,78,07,330,30,86,32,025,30,77,56,326,31,75,09,153,30*68
$GLGSV,2,2,07,88,21,244,30,87,60,303,30,71,01,078,*52
$GAGSV,2,1,08,09,13,316,,10,64,333,,11,54,119,,12,04,130,*61
$GAGSV,2,2,08,17,28,039,,23,38,223,,24,82,018,,27,28,126,*60
$PQGSV,1,1,0,0*43
$PQGSV,1,1,0,0*43
$GPGSA,A,3,02,04,07,08,13,20,23,25,27,,,,1.0,0.7,0.7*39
$GLGSA,A,3,75,77,78,86,87,88,,,,,,,1.0,0.7,0.7*23
$GPVTG,,T,,M,0.0,N,0.0,K,A*23
$GPDTM,P90,,0000.000022,S,00000.000001,W,0.988,W84*5A
$GPRMC,000512.00,A,3000.000068,N,11959.999218,E,0.0,,230721,4.3,W,A*07
$GPGGA,000512.00,3000.000068,N,11959.999218,E,1,12,0.7,-5.6,M,7.0,M,,*7D

$GPGSV,3,1,12,02,32,296,32,04,49,243,32,07,83,094,32,08,48,208,32*75
$GPGSV,3,2,12,13,47,032,32,20,20,122,32,23,25,057,33,25,63,040,32*79
$GPGSV,3,3,12,27,19,219,32,10,01,310,,16,00,000,,28,00,000,*73
$GLGSV,2,1,07,78,07,330,30,86,32,025,30,77,56,326,31,75,09,153,31*69
$GLGSV,2,2,07,88,21,244,31,87,60,303,31,71,01,078,*52
$GAGSV,2,1,08,09,13,316,,10,64,333,,11,54,119,,12,04,130,*61
$GAGSV,2,2,08,17,28,039,,23,38,223,,24,82,018,,27,28,126,*60
$PQGSV,1,1,0,0*43
$PQGSV,1,1,0,0*43
$GPGSA,A,3,02,04,07,08,13,20,23,25,27,,,,1.0,0.7,0.7*39
$GLGSA,A,3,75,77,78,86,87,88,,,,,,,1.0,0.7,0.7*23
$GPVTG,,T,,M,0.0,N,0.0,K,A*23
$GPDTM,P90,,0000.000022,S,00000.000001,W,0.988,W84*5A
$GPRMC,000513.00,A,3000.000062,N,11959.999218,E,0.0,,230721,4.3,W,A*0C
$GPGGA,000513.00,3000.000062,N,11959.999218,E,1,12,0.7,-5.6,M,7.0,M,,*76

$GPGSV,3,1,12,02,32,296,32,04,49,243,32,07,83,094,32,08,48,208,33*74
$GPGSV,3,2,12,13,47,032,32,20,20,122,32,23,25,057,32,25,63,040,32*78
$GPGSV,3,3,12,27,19,219,32,10,01,310,,16,00,000,,28,00,000,*73
$GLGSV,2,1,07,78,07,330,31,86,32,025,30,77,56,326,31,75,09,153,31*68
$GLGSV,2,2,07,88,21,244,30,87,60,303,31,71,01,078,*53
$GAGSV,2,1,08,09,13,316,,10,64,333,,11,54,119,,12,04,130,*61
$GAGSV,2,2,08,17,28,039,,23,38,223,,24,82,018,,27,28,126,*60
$PQGSV,1,1,0,0*43
$PQGSV,1,1,0,0*43
$GPGSA,A,3,02,04,07,08,13,20,23,25,27,,,,1.0,0.7,0.7*39
$GLGSA,A,3,75,77,78,86,87,88,,,,,,,1.0,0.7,0.7*23
$GPVTG,,T,,M,0.0,N,0.0,K,A*23
$GPDTM,P90,,0000.000022,S,00000.000001,W,0.988,W84*5A
$GPRMC,000514.00,A,3000.000063,N,11959.999218,E,0.0,,230721,4.3,W,A*0A
$GPGGA,000514.00,3000.000063,N,11959.999218,E,1,12,0.7,-5.6,M,7.0,M,,*70

$GPGSV,3,1,12,02,32,296,32,04,49,243,32,07,83,094,33,08,48,208,33*75
$GPGSV,3,2,12,13,47,032,32,20,20,122,33,23,25,057,32,25,63,040,33*78
$GPGSV,3,3,12,27,19,219,32,10,01,310,,16,00,000,,28,00,000,*73
$GLGSV,2,1,07,78,07,330,30,86,32,025,30,77,56,326,30,75,09,153,30*69
$GLGSV,2,2,07,88,21,244,30,87,60,303,30,71,01,078,*52
$GAGSV,2,1,08,09,13,316,,10,64,333,,11,54,119,,12,04,130,*61
$GAGSV,2,2,08,17,28,039,,23,38,223,,24,82,018,,27,28,126,*60
$PQGSV,1,1,0,0*43
$PQGSV,1,1,0,0*43
$GPGSA,A,3,02,04,07,08,13,20,23,25,27,,,,1.0,0.7,0.7*39
$GLGSA,A,3,75,77,78,86,87,88,,,,,,,1.0,0.7,0.7*23
$GPVTG,,T,,M,0.0,N,0.0,K,A*23
$GPDTM,P90,,0000.000022,S,00000.000001,W,0.988,W84*5A
$GPRMC,000515.00,A,3000.000061,N,11959.999218,E,0.0,,230721,4.3,W,A*09
$GPGGA,000515.00,3000.000061,N,11959.999218,E,1,12,0.7,-5.6,M,7.0,M,,*73

$GPGSV,3,1,12,02,32,296,32,04,49,243,32,07,83,094,33,08,48,208,32*74
$GPGSV,3,2,12,13,47,032,32,20,20,122,32,23,25,057,32,25,63,040,32*78
$GPGSV,3,3,12,27,19,219,32,10,01,310,,16,00,000,,28,00,000,*73
$GLGSV,2,1,07,78,07,330,31,86,32,025,30,77,56,326,31,75,09,153,30*69
$GLGSV,2,2,07,88,21,244,31,87,60,303,30,71,01,078,*53
$GAGSV,2,1,08,09,13,316,,10,64,333,,11,54,119,,12,04,130,*61
$GAGSV,2,2,08,17,28,039,,23,38,223,,24,82,018,,27,28,126,*60
$PQGSV,1,1,0,0*43
$PQGSV,1,1,0,0*43
$GPGSA,A,3,02,04,07,08,13,20,23,25,27,,,,1.0,0.7,0.7*39
$GLGSA,A,3,75,77,78,86,87,88,,,,,,,1.0,0.7,0.7*23
$GPVTG,,T,,M,0.0,N,0.0,K,A*23
$GPDTM,P90,,0000.000022,S,00000.000001,W,0.988,W84*5A
$GPRMC,000516.00,A,3000.000061,N,11959.999219,E,0.0,,230721,4.3,W,A*0B
$GPGGA,000516.00,3000.000061,N,11959.999219,E,1,12,0.7,-5.6,M,7.0,M,,*71

$GPGSV,3,1,12,02,32,296,32,04,49,243,32,07,83,094,32,08,48,208,33*74
$GPGSV,3,2,12,13,47,032,32,20,20,122,32,23,25,057,32,25,63,040,33*79
$GPGSV,3,3,12,27,19,219,32,10,01,310,,16,00,000,,28,00,000,*73
$GLGSV,2,1,07,78,07,330,30,86,32,025,30,77,56,326,30,75,09,153,31*68
$GLGSV,2,2,07,88,21,244,30,87,60,303,30,71,01,078,*52
$GAGSV,2,1,08,11,54,119,35,09,13,316,,10,64,333,,12,04,130,*67
$GAGSV,2,2,08,17,28,039,,23,38,223,,24,82,018,,27,28,126,*60
$PQGSV,1,1,0,0*43
$PQGSV,1,1,0,0*43
$GPGSA,A,3,02,04,07,08,13,20,23,25,27,,,,1.0,0.7,0.7*39
$GLGSA,A,3,75,77,78,86,87,88,,,,,,,1.0,0.7,0.7*23
$GPVTG,,T,,M,0.0,N,0.0,K,A*23
$GPDTM,P90,,0000.000022,S,00000.000001,W,0.988,W84*5A
$GPRMC,000517.00,A,3000.000047,N,11959.999238,E,0.0,,230721,4.3,W,A*0D
$GPGGA,000517.00,3000.000047,N,11959.999238,E,1,12,0.7,-5.6,M,7.0,M,,*77

$GPGSV,3,1,12,02,32,296,32,04,49,243,33,07,83,094,32,08,48,208,32*74
$GPGSV,3,2,12,13,47,032,32,20,20,122,32,23,25,057,32,25,63,040,32*78
$GPGSV,3,3,12,27,19,219,32,10,01,310,,16,00,000,,28,00,000,*73
$GLGSV,2,1,07,78,07,330,30,86,32,025,30,77,56,326,31,75,09,153,31*69
$GLGSV,2,2,07,88,21,244,30,87,60,303,30,71,01,078,*52
$GAGSV,2,1,08,11,54,119,36,09,13,316,,10,64,333,,12,04,130,*64
$GAGSV,2,2,08,17,28,039,,23,38,223,,24,82,018,,27,28,126,*60
$PQGSV,1,1,0,0*43
$PQGSV,1,1,0,0*43
$GPGSA,A,3,02,04,07,08,13,20,23,25,27,,,,1.0,0.7,0.7*39
$GLGSA,A,3,75,77,78,86,87,88,,,,,,,1.0,0.7,0.7*23
$GAGSA,A,3,11,,,,,,,,,,,,1.0,0.7,0.7*22
$GPVTG,,T,,M,0.0,N,0.0,K,A*23
$GPDTM,P90,,0000.000022,S,00000.000001,W,0.988,W84*5A
$GPRMC,000518.00,A,3000.000040,N,11959.999243,E,0.0,,230721,4.3,W,A*09
$GPGGA,000518.00,3000.000040,N,11959.999243,E,1,12,0.7,-5.6,M,7.0,M,,*73

$GPGSV,3,1,12,02,32,296,33,04,49,243,32,07,83,094,32,08,48,208,32*74
$GPGSV,3,2,12,13,47,032,32,20,20,122,32,23,25,057,32,25,63,040,32*78
$GPGSV,3,3,12,27,19,219,32,10,01,310,,16,00,000,,28,00,000,*73
$GLGSV,2,1,07,78,07,330,30,86,32,025,30,77,56,326,31,75,09,153,31*69
$GLGSV,2,2,07,88,21,244,30,87,60,303,30,71,01,078,*52
$GAGSV,2,1,08,11,54,119,36,09,13,316,,10,64,333,,12,04,130,*64
$GAGSV,2,2,08,17,28,039,,23,38,223,,24,82,018,,27,28,126,*60
$PQGSV,1,1,0,0*43
$PQGSV,1,1,0,0*43
$GPGSA,A,3,02,04,07,08,13,20,23,25,27,,,,1.0,0.7,0.7*39
$GLGSA,A,3,75,77,78,86,87,88,,,,,,,1.0,0.7,0.7*23
$GAGSA,A,3,11,,,,,,,,,,,,1.0,0.7,0.7*22
$GPVTG,,T,,M,0.0,N,0.0,K,A*23
$GPDTM,P90,,0000.000022,S,00000.000001,W,0.988,W84*5A
$GPRMC,000519.00,A,3000.000042,N,11959.999238,E,0.0,,230721,4.3,W,A*06
$GPGGA,000519.00,3000.000042,N,11959.999238,E,1,12,0.7,-5.6,M,7.0,M,,*7C

$GPGSV,3,1,12,02,32,296,32,04,49,243,33,07,83,094,32,08,48,208,32*74
$GPGSV,3,2,12,13,47,032,32,20,20,122,32,23,25,057,33,25,63,040,33*78
$GPGSV,3,3,12,27,19,219,32,10,01,310,,16,00,000,,28,00,000,*73
$GLGSV,2,1,07,78,07,330,30,86,32,025,30,77,56,326,31,75,09,153,31*69
$GLGSV,2,2,07,88,21,244,30,87,60,303,31,71,01,078,*53
$GAGSV,2,1,08,11,54,119,36,09,13,316,,10,64,333,,12,04,130,*64
$GAGSV,2,2,08,17,28,039,,23,38,223,,24,82,018,,27,28,126,*60
$PQGSV,1,1,0,0*43
$PQGSV,1,1,0,0*43
$GPGSA,A,3,02,04,07,08,13,20,23,25,27,,,,1.0,0.7,0.7*39
$GLGSA,A,3,75,77,78,86,87,88,,,,,,,1.0,0.7,0.7*23
$GAGSA,A,3,11,,,,,,,,,,,,1.0,0.7,0.7*22
$GPVTG,,T,,M,0.0,N,0.0,K,A*23
$GPDTM,P90,,0000.000022,S,00000.000001,W,0.988,W84*5A
$GPRMC,000520.00,A,3000.000042,N,11959.999237,E,0.0,,230721,4.3,W,A*03
$GPGGA,000520.00,3000.000042,N,11959.999237,E,1,12,0.7,-5.6,M,7.0,M,,*79

$GPGSV,3,1,12,02,32,296,32,04,49,243,32,07,83,094,32,08,48,208,32*75
$GPGSV,3,2,12,13,47,032,32,20,20,122,32,23,25,057,32,25,63,040,32*78
$GPGSV,3,3,12,27,19,219,32,10,01,310,,16,00,000,,28,00,000,*73
$GLGSV,2,1,07,78,07,330,30,86,32,025,30,77,56,326,30,75,09,153,30*69
$GLGSV,2,2,07,88,21,244,31,87,60,303,30,71,01,078,*53
$GAGSV,2,1,08,11,54,119,36,09,13,316,,10,64,333,,12,04,130,*64
$GAGSV,2,2,08,17,28,039,,23,38,223,,24,82,018,,27,28,126,*60
$PQGSV,1,1,0,0*43
$PQGSV,1,1,0,0*43
$GPGSA,A,3,02,04,07,08,13,20,23,25,27,,,,1.0,0.7,0.7*39
$GLGSA,A,3,75,77,78,86,87,88,,,,,,,1.0,0.7,0.7*23
$GAGSA,A,3,11,,,,,,,,,,,,1.0,0.7,0.7*22
$GPVTG,,T,,M,0.0,N,0.0,K,A*23
$GPDTM,P90,,0000.000022,S,00000.000001,W,0.988,W84*5A
$GPRMC,000521.00,A,3000.000045,N,11959.999233,E,0.0,,230721,4.3,W,A*01
$GPGGA,000521.00,3000.000045,N,11959.999233,E,1,12,0.7,-5.6,M,7.0,M,,*7B

$GPGSV,3,1,12,02,32,296,32,04,49,243,32,07,83,094,32,08,48,208,32*75
$GPGSV,3,2,12,13,47,032,32,20,20,122,32,23,25,057,33,25,63,040,33*78
$GPGSV,3,3,12,27,19,219,32,10,01,310,,16,00,000,,28,00,000,*73
$GLGSV,2,1,07,78,07,330,30,86,32,025,30,77,56,326,30,75,09,153,30*69
$GLGSV,2,2,07,88,21,244,30,87,60,303,31,71,01,078,*53
$GAGSV,2,1,08,11,54,119,36,09,13,316,,10,64,333,,12,04,130,*64
$GAGSV,2,2,08,17,28,039,,23,38,223,,24,82,018,,27,28,126,*60
$PQGSV,1,1,0,0*43
$PQGSV,1,1,0,0*43
$GPGSA,A,3,02,04,07,08,13,20,23,25,27,,,,1.0,0.7,0.7*39
$GLGSA,A,3,75,77,78,86,87,88,,,,,,,1.0,0.7,0.7*23
$GAGSA,A,3,11,,,,,,,,,,,,1.0,0.7,0.7*22
$GPVTG,,T,,M,0.0,N,0.0,K,A*23
$GPDTM,P90,,0000.000022,S,00000.000001,W,0.988,W84*5A
$GPRMC,000522.00,A,3000.000044,N,11959.999235,E,0.0,,230721,4.3,W,A*05
$GPGGA,000522.00,3000.000044,N,11959.999235,E,1,12,0.7,-5.6,M,7.0,M,,*7F

$GPGSV,3,1,12,02,32,296,32,04,49,243,32,07,83,094,32,08,48,208,32*75
$GPGSV,3,2,12,13,47,032,32,20,20,122,32,23,25,057,32,25,63,040,33*79
$GPGSV,3,3,12,27,19,219,32,10,01,310,,16,00,000,,28,00,000,*73
$GLGSV,2,1,07,78,07,330,31,86,32,025,31,77,56,326,30,75,09,153,30*69
$GLGSV,2,2,07,88,21,244,29,87,60,303,31,71,01,078,*5B
$GAGSV,2,1,08,11,54,119,36,09,13,316,,10,64,333,,12,04,130,*64
$GAGSV,2,2,08,17,28,039,,23,38,223,,24,82,018,,27,28,126,*60
$PQGSV,1,1,0,0*43
$PQGSV,1,1,0,0*43
$GPGSA,A,3,02,04,07,08,13,20,23,25,27,,,,1.0,0.7,0.7*39
$GLGSA,A,3,75,77,78,86,87,88,,,,,,,1.0,0.7,0.7*23
$GAGSA,A,3,11,,,,,,,,,,,,1.0,0.7,0.7*22
$GPVTG,,T,,M,0.0,N,0.0,K,A*23
$GPDTM,P90,,0000.000022,S,00000.000001,W,0.988,W84*5A
$GPRMC,000523.00,A,3000.000041,N,11959.999239,E,0.0,,230721,4.3,W,A*0D
$GPGGA,000523.00,3000.000041,N,11959.999239,E,1,12,0.7,-5.6,M,7.0,M,,*77

$GPGSV,3,1,12,02,32,296,32,04,49,243,32,07,83,094,32,08,48,208,32*75
$GPGSV,3,2,12,13,47,032,32,20,20,122,32,23,25,057,32,25,63,040,32*78
$GPGSV,3,3,12,27,19,219,33,10,01,310,,16,00,000,,28,00,000,*72
$GLGSV,2,1,07,78,07,330,30,86,32,025,30,77,56,326,31,75,09,153,30*68
$GLGSV,2,2,07,88,21,244,30,87,60,303,31,71,01,078,*53
$GAGSV,2,1,08,11,54,119,36,09,13,316,,10,64,333,,12,04,130,*64
$GAGSV,2,2,08,17,28,039,,23,38,223,,24,82,018,,27,28,126,*60
$PQGSV,1,1,0,0*43
$PQGSV,1,1,0,0*43
$GPGSA,A,3,02,04,07,08,13,20,23,25,27,,,,1.0,0.7,0.7*39
$GLGSA,A,3,75,77,78,86,87,88,,,,,,,1.0,0.7,0.7*23
$GAGSA,A,3,11,,,,,,,,,,,,1.0,0.7,0.7*22
$GPVTG,,T,,M,0.0,N,0.0,K,A*23
$GPDTM,P90,,0000.000022,S,00000.000001,W,0.988,W84*5A
$GPRMC,000524.00,A,3000.000039,N,11959.999238,E,0.0,,230721,4.3,W,A*04
$GPGGA,000524.00,3000.000039,N,11959.999238,E,1,12,0.7,-5.6,M,7.0,M,,*7E

$GPGSV,3,1,12,02,32,296,33,04,49,243,32,07,83,094,33,08,48,208,32*75
$GPGSV,3,2,12,13,47,032,32,20,20,122,32,23,25,057,32,25,63,040,32*78
$GPGSV,3,3,12,27,19,219,32,10,01,310,,16,00,000,,28,00,000,*73
$GLGSV,2,1,07,78,07,330,31,86,32,025,30,77,56,326,30,75,09,153,30*68
$GLGSV,2,2,07,88,21,244,30,87,60,303,30,71,01,078,*52
$GAGSV,2,1,08,11,54,119,36,09,13,316,,10,64,333,,12,04,130,*64
$GAGSV,2,2,08,17,28,039,,23,38,223,,24,82,018,,27,28,126,*60
$PQGSV,1,1,0,0*43
$PQGSV,1,1,0,0*43
$GPGSA,A,3,02,04,07,08,13,20,23,25,27,,,,1.0,0.7,0.7*39
$GLGSA,A,3,75,77,78,86,87,88,,,,,,,1.0,0.7,0.7*23
$GAGSA,A,3,11,,,,,,,,,,,,1.0,0.7,0.7*22
$GPVTG,,T,,M,0.0,N,0.0,K,A*23
$GPDTM,P90,,0000.000022,S,00000.000001,W,0.988,W84*5A
$GPRMC,000525.00,A,3000.000038,N,11959.999237,E,0.0,,230721,4.3,W,A*0B
$GPGGA,000525.00,3000.000038,N,11959.999237,E,1,12,0.7,-5.6,M,7.0,M,,*71

$GPGSV,3,1,12,02,32,296,32,04,49,243,32,07,83,094,32,08,48,208,32*75
$GPGSV,3,2,12,13,47,032,32,20,20,122,32,23,25,057,32,25,63,040,32*78
$GPGSV,3,3,12,27,19,219,32,10,01,310,,16,00,000,,28,00,000,*73
$GLGSV,2,1,07,78,07,330,30,86,32,025,30,77,56,326,30,75,09,153,30*69
$GLGSV,2,2,07,88,21,244,30,87,60,303,30,71,01,078,*52
$GAGSV,2,1,08,11,54,119,36,09,13,316,,10,64,333,,12,04,130,*64
$GAGSV,2,2,08,17,28,039,,23,38,223,,24,82,018,,27,28,126,*60
$PQGSV,1,1,0,0*43
$PQGSV,1,1,0,0*43
$GPGSA,A,3,02,04,07,08,13,20,23,25,27,,,,1.0,0.7,0.7*39
$GLGSA,A,3,75,77,78,86,87,88,,,,,,,1.0,0.7,0.7*23
$GAGSA,A,3,11,,,,,,,,,,,,1.0,0.7,0.7*22
$GPVTG,,T,,M,0.0,N,0.0,K,A*23
$GPDTM,P90,,0000.000022,S,00000.000001,W,0.988,W84*5A
$GPRMC,000526.00,A,3000.000039,N,11959.999239,E,0.0,,230721,4.3,W,A*07
$GPGGA,000526.00,3000.000039,N,11959.999239,E,1,12,0.7,-5.6,M,7.0,M,,*7D

$GPGSV,3,1,12,02,32,296,32,04,49,243,32,07,83,094,32,08,48,208,32*75
$GPGSV,3,2,12,13,47,032,32,20,20,122,32,23,25,057,32,25,63,040,32*78
$GPGSV,3,3,12,27,19,219,32,10,01,310,,16,00,000,,28,00,000,*73
$GLGSV,2,1,07,78,07,330,31,86,32,025,30,77,56,326,30,75,09,153,31*69
$GLGSV,2,2,07,88,21,244,30,87,60,303,31,71,01,078,*53
$GAGSV,2,1,08,11,54,119,36,09,13,316,,10,64,333,,12,04,130,*64
$GAGSV,2,2,08,17,28,039,,23,38,223,,24,82,018,,27,28,126,*60
$PQGSV,1,1,0,0*43
$PQGSV,1,1,0,0*43
$GPGSA,A,3,02,04,07,08,13,20,23,25,27,,,,1.0,0.7,0.7*39
$GLGSA,A,3,75,77,78,86,87,88,,,,,,,1.0,0.7,0.7*23
$GAGSA,A,3,11,,,,,,,,,,,,1.0,0.7,0.7*22
$GPVTG,,T,,M,0.0,N,0.0,K,A*23
$GPDTM,P90,,0000.000022,S,00000.000001,W,0.988,W84*5A
$GPRMC,000527.00,A,3000.000037,N,11959.999243,E,0.0,,230721,4.3,W,A*05
$GPGGA,000527.00,3000.000037,N,11959.999243,E,1,12,0.7,-5.6,M,7.0,M,,*7F

$GPGSV,3,1,12,02,32,296,32,04,49,243,33,07,83,094,32,08,48,208,32*74
$GPGSV,3,2,12,13,47,032,32,20,20,122,32,23,25,057,32,25,63,040,32*78
$GPGSV,3,3,12,27,19,219,33,10,01,310,,16,00,000,,28,00,000,*72
$GLGSV,2,1,07,78,07,330,30,86,32,025,30,77,56,326,30,75,09,153,31*68
$GLGSV,2,2,07,88,21,244,30,87,60,303,31,71,01,078,*53
$GAGSV,2,1,08,11,54,119,36,09,13,316,,10,64,333,,12,04,130,*64
$GAGSV,2,2,08,17,28,039,,23,38,223,,24,82,018,,27,28,126,*60
$PQGSV,1,1,0,0*43
$PQGSV,1,1,0,0*43
$GPGSA,A,3,02,04,07,08,13,20,23,25,27,,,,1.0,0.7,0.7*39
$GLGSA,A,3,75,77,78,86,87,88,,,,,,,1.0,0.7,0.7*23
$GAGSA,A,3,11,,,,,,,,,,,,1.0,0.7,0.7*22
$GPVTG,,T,,M,0.0,N,0.0,K,A*23
$GPDTM,P90,,0000.000022,S,00000.000001,W,0.988,W84*5A
$GPRMC,000528.00,A,3000.000037,N,11959.999244,E,0.0,,230721,4.3,W,A*0D
$GPGGA,000528.00,3000.000037,N,11959.999244,E,1,12,0.7,-5.6,M,7.0,M,,*77

$GPGSV,3,1,12,02,32,296,32,04,49,243,33,07,83,094,32,08,48,208,32*74
$GPGSV,3,2,12,13,47,032,33,20,20,122,33,23,25,057,32,25,63,040,32*78
$GPGSV,3,3,12,27,19,219,32,10,01,310,,16,00,000,,28,00,000,*73
$GLGSV,2,1,07,78,07,330,31,86,32,025,30,77,56,326,31,75,09,153,30*69
$GLGSV,2,2,07,88,21,244,31,87,60,303,30,71,01,078,*53
$GAGSV,2,1,08,11,54,119,36,09,13,316,,10,64,333,,12,04,130,*64
$GAGSV,2,2,08,17,28,039,,23,38,223,,24,82,018,,27,28,126,*60
$PQGSV,1,1,0,0*43
$PQGSV,1,1,0,0*43
$GPGSA,A,3,02,04,07,08,13,20,23,25,27,,,,1.0,0.7,0.7*39
$GLGSA,A,3,75,77,78,86,87,88,,,,,,,1.0,0.7,0.7*23
$GAGSA,A,3,11,,,,,,,,,,,,1.0,0.7,0.7*22
$GPVTG,,T,,M,0.0,N,0.0,K,A*23
$GPDTM,P90,,0000.000022,S,00000.000001,W,0.988,W84*5A
$GPRMC,000529.00,A,3000.000039,N,11959.999245,E,0.0,,230721,4.3,W,A*03
$GPGGA,000529.00,3000.000039,N,11959.999245,E,1,12,0.7,-5.6,M,7.0,M,,*79

$GPGSV,3,1,12,02,32,296,33,04,49,243,32,07,83,094,32,08,48,208,32*74
$GPGSV,3,2,12,13,47,032,32,20,20,122,32,23,25,057,32,25,63,040,33*79
$GPGSV,3,3,12,27,19,219,32,10,01,310,,16,00,000,,28,00,000,*73
$GLGSV,2,1,07,78,07,330,30,86,32,025,30,77,56,326,31,75,09,153,31*69
$GLGSV,2,2,07,88,21,244,31,87,60,303,30,71,01,078,*53
$GAGSV,2,1,08,11,54,119,36,09,13,316,,10,64,333,,12,04,130,*64
$GAGSV,2,2,08,17,28,039,,23,38,223,,24,82,018,,27,28,126,*60
$PQGSV,1,1,0,0*43
$PQGSV,1,1,0,0*43
$GPGSA,A,3,02,04,07,08,13,20,23,25,27,,,,1.0,0.7,0.7*39
$GLGSA,A,3,75,77,78,86,87,88,,,,,,,1.0,0.7,0.7*23
$GAGSA,A,3,11,,,,,,,,,,,,1.0,0.7,0.7*22
$GPVTG,,T,,M,0.0,N,0.0,K,A*23
$GPDTM,P90,,0000.000022,S,00000.000001,W,0.988,W84*5A
$GPRMC,000530.00,A,3000.000038,N,11959.999245,E,0.0,,230721,4.3,W,A*0A
$GPGGA,000530.00,3000.000038,N,11959.999245,E,1,12,0.7,-5.6,M,7.0,M,,*70

$GPGSV,3,1,12,02,32,296,32,04,49,243,32,07,83,094,32,08,48,208,32*75
$GPGSV,3,2,12,13,47,032,32,20,20,122,33,23,25,057,32,25,63,040,33*78
$GPGSV,3,3,12,27,19,219,32,10,01,310,,16,00,000,,28,00,000,*73
$GLGSV,2,1,07,78,07,330,31,86,32,025,30,77,56,326,30,75,09,153,31*69
$GLGSV,2,2,07,88,21,244,30,87,60,303,30,71,01,078,*52
$GAGSV,2,1,08,11,54,119,36,09,13,316,,10,64,333,,12,04,130,*64
$GAGSV,2,2,08,17,28,039,,23,38,223,,24,82,018,,27,28,126,*60
$PQGSV,1,1,0,0*43
$PQGSV,1,1,0,0*43
$GPGSA,A,3,02,04,07,08,13,20,23,25,27,,,,1.0,0.7,0.7*39
$GLGSA,A,3,75,77,78,86,87,88,,,,,,,1.0,0.7,0.7*23
$GAGSA,A,3,11,,,,,,,,,,,,1.0,0.7,0.7*22
$GPVTG,,T,,M,0.0,N,0.0,K,A*23
$GPDTM,P90,,0000.000022,S,00000.000001,W,0.988,W84*5A
$GPRMC,000531.00,A,3000.000035,N,11959.999247,E,0.0,,230721,4.3,W,A*04
$GPGGA,000531.00,3000.000035,N,11959.999247,E,1,12,0.7,-5.6,M,7.0,M,,*7E

$GPGSV,3,1,12,02,32,296,32,04,49,243,32,07,83,094,32,08,48,208,32*75
$GPGSV,3,2,12,13,47,032,32,20,20,122,32,23,25,057,32,25,63,040,32*78
$GPGSV,3,3,12,27,19,219,33,10,01,310,,16,00,000,,28,00,000,*72
$GLGSV,2,1,07,78,07,330,30,86,32,025,30,77,56,326,30,75,09,153,30*69
$GLGSV,2,2,07,88,21,244,30,87,60,303,31,71,01,078,*53
$GAGSV,2,1,08,11,54,119,36,09,13,316,,10,64,333,,12,04,130,*64
$GAGSV,2,2,08,17,28,039,,23,38,223,,24,82,018,,27,28,126,*60
$PQGSV,1,1,0,0*43
$PQGSV,1,1,0,0*43
$GPGSA,A,3,02,04,07,08,13,20,23,25,27,,,,1.0,0.7,0.7*39
$GLGSA,A,3,75,77,78,86,87,88,,,,,,,1.0,0.7,0.7*23
$GAGSA,A,3,11,,,,,,,,,,,,1.0,0.7,0.7*22
$GPVTG,,T,,M,0.0,N,0.0,K,A*23
$GPDTM,P90,,0000.000022,S,00000.000001,W,0.988,W84*5A
$GPRMC,000532.00,A,3000.000035,N,11959.999246,E,0.0,,230721,4.3,W,A*06
$GPGGA,000532.00,3000.000035,N,11959.999246,E,1,12,0.7,-5.6,M,7.0,M,,*7C

$GPGSV,3,1,12,02,32,296,32,04,49,243,32,07,83,094,32,08,48,208,32*75
$GPGSV,3,2,12,13,47,032,32,20,20,122,32,23,25,057,32,25,63,040,32*78
$GPGSV,3,3,12,27,19,219,32,10,01,310,,16,00,000,,28,00,000,*73
$GLGSV,2,1,07,78,07,330,30,86,32,025,30,77,56,326,30,75,09,153,30*69
$GLGSV,2,2,07,88,21,244,30,87,60,303,30,71,01,078,*52
$GAGSV,2,1,08,11,54,119,36,09,13,316,,10,64,333,,12,04,130,*64
$GAGSV,2,2,08,17,28,039,,23,38,223,,24,82,018,,27,28,126,*60
$PQGSV,1,1,0,0*43
$PQGSV,1,1,0,0*43
$GPGSA,A,3,02,04,07,08,13,20,23,25,27,,,,1.0,0.7,0.7*39
$GLGSA,A,3,75,77,78,86,87,88,,,,,,,1.0,0.7,0.7*23
$GAGSA,A,3,11,,,,,,,,,,,,1.0,0.7,0.7*22
$GPVTG,,T,,M,0.0,N,0.0,K,A*23
$GPDTM,P90,,0000.000022,S,00000.000001,W,0.988,W84*5A
$GPRMC,000533.00,A,3000.000036,N,11959.999245,E,0.0,,230721,4.3,W,A*07
$GPGGA,000533.00,3000.000036,N,11959.999245,E,1,12,0.7,-5.6,M,7.0,M,,*7D

$GPGSV,3,1,12,02,32,296,32,04,49,243,33,07,83,094,32,08,48,208,32*74
$GPGSV,3,2,12,13,47,032,32,20,20,122,32,23,25,057,32,25,63,040,32*78
$GPGSV,3,3,12,27,19,219,33,10,01,310,,16,00,000,,28,00,000,*72
$GLGSV,2,1,07,78,07,330,30,86,32,025,30,77,56,326,30,75,09,153,30*69
$GLGSV,2,2,07,88,21,244,30,87,60,303,30,71,01,078,*52
$GAGSV,2,1,08,11,54,119,36,09,13,316,,10,64,333,,12,04,130,*64
$GAGSV,2,2,08,17,28,039,,23,38,223,,24,82,018,,27,28,126,*60
$PQGSV,1,1,0,0*43
$PQGSV,1,1,0,0*43
$GPGSA,A,3,02,04,07,08,13,20,23,25,27,,,,1.0,0.7,0.7*39
$GLGSA,A,3,75,77,78,86,87,88,,,,,,,1.0,0.7,0.7*23
$GAGSA,A,3,11,,,,,,,,,,,,1.0,0.7,0.7*22
$GPVTG,,T,,M,0.0,N,0.0,K,A*23
$GPDTM,P90,,0000.000022,S,00000.000001,W,0.988,W84*5A
$GPRMC,000534.00,A,3000.000034,N,11959.999245,E,0.0,,230721,4.3,W,A*02
$GPGGA,000534.00,3000.000034,N,11959.999245,E,1,12,0.7,-5.6,M,7.0,M,,*78

$GPGSV,3,1,12,02,32,296,32,04,49,243,32,07,83,094,33,08,48,208,32*74
$GPGSV,3,2,12,13,47,032,32,20,20,122,32,23,25,057,33,25,63,040,32*79
$GPGSV,3,3,12,27,19,219,32,10,01,310,,16,00,000,,28,00,000,*73
$GLGSV,2,1,07,78,07,330,30,86,32,025,30,77,56,326,30,75,09,153,31*68
$GLGSV,2,2,07,88,21,244,31,87,60,303,30,71,01,078,*53
$GAGSV,2,1,08,11,54,119,36,09,13,316,,10,64,333,,12,04,130,*64
$GAGSV,2,2,08,17,28,039,,23,38,223,,24,82,018,,27,28,126,*60
$PQGSV,1,1,0,0*43
$PQGSV,1,1,0,0*43
$GPGSA,A,3,02,04,07,08,13,20,23,25,27,,,,1.0,0.7,0.7*39
$GLGSA,A,3,75,77,78,86,87,88,,,,,,,1.0,0.7,0.7*23
$GAGSA,A,3,11,,,,,,,,,,,,1.0,0.7,0.7*22
$GPVTG,,T,,M,0.0,N,0.0,K,A*23
$GPDTM,P90,,0000.000022,S,00000.000001,W,0.988,W84*5A
$GPRMC,000535.00,A,3000.000036,N,11959.999242,E,0.0,,230721,4.3,W,A*06
$GPGGA,000535.00,3000.000036,N,11959.999242,E,1,12,0.7,-5.6,M,7.0,M,,*7C

$GPGSV,3,1,12,02,32,296,32,04,49,243,32,07,83,094,32,08,48,208,32*75
$GPGSV,3,2,12,13,47,032,32,20,20,122,32,23,25,057,32,25,63,040,32*78
$GPGSV,3,3,12,27,19,219,32,10,01,310,,16,00,000,,28,00,000,*73
$GLGSV,2,1,07,78,07,330,30,86,32,025,30,77,56,326,30,75,09,153,30*69
$GLGSV,2,2,07,88,21,244,30,87,60,303,30,71,01,078,*52
$GAGSV,2,1,08,11,54,119,36,09,13,316,,10,64,333,,12,04,130,*64
$GAGSV,2,2,08,17,28,039,,23,38,223,,24,82,018,,27,28,126,*60
$PQGSV,1,1,0,0*43
$PQGSV,1,1,0,0*43
$GPGSA,A,3,02,04,07,08,13,20,23,25,27,,,,1.0,0.7,0.7*39
$GLGSA,A,3,75,77,78,86,87,88,,,,,,,1.0,0.7,0.7*23
$GAGSA,A,3,11,,,,,,,,,,,,1.0,0.7,0.7*22
$GPVTG,,T,,M,0.0,N,0.0,K,A*23
$GPDTM,P90,,0000.000022,S,00000.000001,W,0.988,W84*5A
$GPRMC,000536.00,A,3000.000035,N,11959.999243,E,0.0,,230721,4.3,W,A*07
$GPGGA,000536.00,3000.000035,N,11959.999243,E,1,12,0.7,-5.6,M,7.0,M,,*7D

$GPGSV,3,1,12,02,32,296,32,04,49,243,32,07,83,094,32,08,48,208,33*74
$GPGSV,3,2,12,13,47,032,32,20,20,122,32,23,25,057,32,25,63,040,32*78
$GPGSV,3,3,12,27,19,219,32,10,01,310,,16,00,000,,28,00,000,*73
$GLGSV,2,1,07,78,07,330,30,86,32,025,30,77,56,326,30,75,09,153,30*69
$GLGSV,2,2,07,88,21,244,30,87,60,303,31,71,01,078,*53
$GAGSV,2,1,08,11,54,119,36,09,13,316,,10,64,333,,12,04,130,*64
$GAGSV,2,2,08,17,28,039,,23,38,223,,24,82,018,,27,28,126,*60
$PQGSV,1,1,0,0*43
$PQGSV,1,1,0,0*43
$GPGSA,A,3,02,04,07,08,13,20,23,25,27,,,,1.0,0.7,0.7*39
$GLGSA,A,3,75,77,78,86,87,88,,,,,,,1.0,0.7,0.7*23
$GAGSA,A,3,11,,,,,,,,,,,,1.0,0.7,0.7*22
$GPVTG,,T,,M,0.0,N,0.0,K,A*23
$GPDTM,P90,,0000.000022,S,00000.000001,W,0.988,W84*5A
$GPRMC,000537.00,A,3000.000035,N,11959.999243,E,0.0,,230721,4.3,W,A*06
$GPGGA,000537.00,3000.000035,N,11959.999243,E,1,12,0.7,-5.6,M,7.0,M,,*7C

$GPGSV,3,1,12,02,32,296,32,04,49,243,32,07,83,094,32,08,48,208,32*75
$GPGSV,3,2,12,13,47,032,32,20,20,122,32,23,25,057,32,25,63,040,32*78
$GPGSV,3,3,12,27,19,219,32,10,01,310,,16,00,000,,28,00,000,*73
$GLGSV,2,1,07,78,07,330,30,86,32,025,30,77,56,326,30,75,09,153,30*69
$GLGSV,2,2,07,88,21,244,30,87,60,303,30,71,01,078,*52
$GAGSV,2,1,08,11,54,119,36,09,13,316,,10,64,333,,12,04,130,*64
$GAGSV,2,2,08,17,28,039,,23,38,223,,24,82,018,,27,28,126,*60
$PQGSV,1,1,0,0*43
$PQGSV,1,1,0,0*43
$GPGSA,A,3,02,04,07,08,13,20,23,25,27,,,,1.0,0.7,0.7*39
$GLGSA,A,3,75,77,78,86,87,88,,,,,,,1.0,0.7,0.7*23
$GAGSA,A,3,11,,,,,,,,,,,,1.0,0.7,0.7*22
$GPVTG,,T,,M,0.0,N,0.0,K,A*23
$GPDTM,P90,,0000.000022,S,00000.000001,W,0.988,W84*5A
$GPRMC,000538.00,A,3000.000033,N,11959.999243,E,0.0,,230721,4.3,W,A*0F
$GPGGA,000538.00,3000.000033,N,11959.999243,E,1,12,0.7,-5.6,M,7.0,M,,*75

$GPGSV,3,1,12,02,32,296,32,04,49,243,32,07,83,094,32,08,48,208,32*75
$GPGSV,3,2,12,13,47,032,32,20,20,122,32,23,25,057,32,25,63,040,32*78
$GPGSV,3,3,12,27,19,219,32,10,01,310,,16,00,000,,28,00,000,*73
$GLGSV,2,1,07,78,07,330,30,86,32,025,30,77,56,326,31,75,09,153,30*68
$GLGSV,2,2,07,88,21,244,30,87,60,303,30,71,01,078,*52
$GAGSV,2,1,08,11,54,119,36,09,13,316,,10,64,333,,12,04,130,*64
$GAGSV,2,2,08,17,28,039,,23,38,223,,24,82,018,,27,28,126,*60
$PQGSV,1,1,0,0*43
$PQGSV,1,1,0,0*43
$GPGSA,A,3,02,04,07,08,13,20,23,25,27,,,,1.0,0.7,0.7*39
$GLGSA,A,3,75,77,78,86,87,88,,,,,,,1.0,0.7,0.7*23
$GAGSA,A,3,11,,,,,,,,,,,,1.0,0.7,0.7*22
$GPVTG,,T,,M,0.0,N,0.0,K,A*23
$GPDTM,P90,,0000.000022,S,00000.000001,W,0.988,W84*5A
$GPRMC,000539.00,A,3000.000033,N,11959.999242,E,0.0,,230721,4.3,W,A*0F
$GPGGA,000539.00,3000.000033,N,11959.999242,E,1,12,0.7,-5.6,M,7.0,M,,*75

$GPGSV,3,1,12,02,32,296,32,04,49,243,31,07,83,094,32,08,48,208,32*76
$GPGSV,3,2,12,13,47,032,32,20,20,122,32,23,25,057,32,25,63,040,33*79
$GPGSV,3,3,12,27,19,219,32,10,01,310,,16,00,000,,28,00,000,*73
$GLGSV,2,1,07,78,07,330,30,86,32,025,30,77,56,326,30,75,09,153,30*69
$GLGSV,2,2,07,88,21,244,30,87,60,303,30,71,01,078,*52
$GAGSV,2,1,08,11,54,119,36,09,13,316,,10,64,333,,12,04,130,*64
$GAGSV,2,2,08,17,28,039,,23,38,223,,24,82,018,,27,28,126,*60
$PQGSV,1,1,0,0*43
$PQGSV,1,1,0,0*43
$GPGSA,A,3,02,04,07,08,13,20,23,25,27,,,,1.0,0.7,0.7*39
$GLGSA,A,3,75,77,78,86,87,88,,,,,,,1.0,0.7,0.7*23
$GAGSA,A,3,11,,,,,,,,,,,,1.0,0.7,0.7*22
$GPVTG,,T,,M,0.0,N,0.0,K,A*23
$GPDTM,P90,,0000.000022,S,00000.000001,W,0.988,W84*5A
$GPRMC,000540.00,A,3000.000033,N,11959.999243,E,0.0,,230721,4.3,W,A*00
$GPGGA,000540.00,3000.000033,N,11959.999243,E,1,12,0.7,-5.6,M,7.0,M,,*7A

$GPGSV,3,1,12,02,32,296,32,04,49,243,32,07,83,094,33,08,48,208,32*74
$GPGSV,3,2,12,13,47,032,32,20,20,122,32,23,25,057,32,25,63,040,32*78
$GPGSV,3,3,12,27,19,219,32,10,01,310,,16,00,000,,28,00,000,*73
$GLGSV,2,1,07,78,07,330,30,86,32,025,31,77,56,326,30,75,09,153,31*69
$GLGSV,2,2,07,88,21,244,30,87,60,303,30,71,01,078,*52
$GAGSV,2,1,08,11,54,119,36,09,13,316,,10,64,333,,12,04,130,*64
$GAGSV,2,2,08,17,28,039,,23,38,223,,24,82,018,,27,28,126,*60
$PQGSV,1,1,0,0*43
$PQGSV,1,1,0,0*43
$GPGSA,A,3,02,04,07,08,13,20,23,25,27,,,,1.0,0.7,0.7*39
$GLGSA,A,3,75,77,78,86,87,88,,,,,,,1.0,0.7,0.7*23
$GAGSA,A,3,11,,,,,,,,,,,,1.0,0.7,0.7*22
$GPVTG,,T,,M,0.0,N,0.0,K,A*23
$GPDTM,P90,,0000.000022,S,00000.000001,W,0.988,W84*5A
$GPRMC,000541.00,A,3000.000034,N,11959.999242,E,0.0,,230721,4.3,W,A*07
$GPGGA,000541.00,3000.000034,N,11959.999242,E,1,12,0.7,-5.6,M,7.0,M,,*7D

$GPGSV,3,1,12,02,32,296,32,04,49,243,33,07,83,094,32,08,48,208,32*74
$GPGSV,3,2,12,13,47,032,32,20,20,122,32,23,25,057,32,25,63,040,32*78
$GPGSV,3,3,12,27,19,219,32,10,01,310,,16,00,000,,28,00,000,*73
$GLGSV,2,1,07,78,07,330,30,86,32,025,30,77,56,326,31,75,09,153,30*68
$GLGSV,2,2,07,88,21,244,31,87,60,303,30,71,01,078,*53
$GAGSV,2,1,08,11,54,119,36,09,13,316,,10,64,333,,12,04,130,*64
$GAGSV,2,2,08,17,28,039,,23,38,223,,24,82,018,,27,28,126,*60
$PQGSV,1,1,0,0*43
$PQGSV,1,1,0,0*43
$GPGSA,A,3,02,04,07,08,13,20,23,25,27,,,,1.0,0.7,0.7*39
$GLGSA,A,3,75,77,78,86,87,88,,,,,,,1.0,0.7,0.7*23
$GAGSA,A,3,11,,,,,,,,,,,,1.0,0.7,0.7*22
$GPVTG,,T,,M,0.0,N,0.0,K,A*23
$GPDTM,P90,,0000.000022,S,00000.000001,W,0.988,W84*5A
$GPRMC,000542.00,A,3000.000033,N,11959.999243,E,0.0,,230721,4.3,W,A*02
$GPGGA,000542.00,3000.000033,N,11959.999243,E,1,12,0.7,-5.6,M,7.0,M,,*78

$GPGSV,3,1,12,02,32,296,32,04,49,243,33,07,83,094,32,08,48,208,32*74
$GPGSV,3,2,12,13,47,032,32,20,20,122,32,23,25,057,32,25,63,040,32*78
$GPGSV,3,3,12,27,19,219,32,10,01,310,,16,00,000,,28,00,000,*73
$GLGSV,2,1,07,78,07,330,30,86,32,025,30,77,56,326,31,75,09,153,31*69
$GLGSV,2,2,07,88,21,244,30,87,60,303,31,71,01,078,*53
$GAGSV,2,1,08,11,54,119,36,09,13,316,,10,64,333,,12,04,130,*64
$GAGSV,2,2,08,17,28,039,,23,38,223,,24,82,018,,27,28,126,*60
$PQGSV,1,1,0,0*43
$PQGSV,1,1,0,0*43
$GPGSA,A,3,02,04,07,08,13,20,23,25,27,,,,1.0,0.7,0.7*39
$GLGSA,A,3,75,77,78,86,87,88,,,,,,,1.0,0.7,0.7*23
$GAGSA,A,3,11,,,,,,,,,,,,1.0,0.7,0.7*22
$GPVTG,,T,,M,0.0,N,0.0,K,A*23
$GPDTM,P90,,0000.000022,S,00000.000001,W,0.988,W84*5A
$GPRMC,000543.00,A,3000.000031,N,11959.999243,E,0.0,,230721,4.3,W,A*01
$GPGGA,000543.00,3000.000031,N,11959.999243,E,1,12,0.7,-5.6,M,7.0,M,,*7B

$GPGSV,3,1,12,02,32,296,32,04,49,243,32,07,83,094,33,08,48,208,32*74
$GPGSV,3,2,12,13,47,032,32,20,20,122,32,23,25,057,32,25,63,040,32*78
$GPGSV,3,3,12,27,19,219,33,10,01,310,,16,00,000,,28,00,000,*72
$GLGSV,2,1,07,78,07,330,30,86,32,025,30,77,56,326,30,75,09,153,30*69
$GLGSV,2,2,07,88,21,244,30,87,60,303,31,71,01,078,*53
$GAGSV,2,1,08,11,54,119,36,09,13,316,,10,64,333,,12,04,130,*64
$GAGSV,2,2,08,17,28,039,,23,38,223,,24,82,018,,27,28,126,*60
$PQGSV,1,1,0,0*43
$PQGSV,1,1,0,0*43
$GPGSA,A,3,02,04,07,08,13,20,23,25,27,,,,1.0,0.7,0.7*39
$GLGSA,A,3,75,77,78,86,87,88,,,,,,,1.0,0.7,0.7*23
$GAGSA,A,3,11,,,,,,,,,,,,1.0,0.7,0.7*22
$GPVTG,,T,,M,0.0,N,0.0,K,A*23
$GPDTM,P90,,0000.000022,S,00000.000001,W,0.988,W84*5A
$GPRMC,000544.00,A,3000.000029,N,11959.999244,E,0.0,,230721,4.3,W,A*08
$GPGGA,000544.00,3000.000029,N,11959.999244,E,1,12,0.7,-5.6,M,7.0,M,,*72

$GPGSV,3,1,12,02,32,296,32,04,49,243,32,07,83,094,33,08,48,208,33*75
$GPGSV,3,2,12,13,47,032,32,20,20,122,33,23,25,057,32,25,63,040,32*79
$GPGSV,3,3,12,27,19,219,32,10,01,310,,16,00,000,,28,00,000,*73
$GLGSV,2,1,07,78,07,330,30,86,32,025,30,77,56,326,30,75,09,153,30*69
$GLGSV,2,2,07,88,21,244,30,87,60,303,30,71,01,078,*52
$GAGSV,2,1,08,11,54,119,36,09,13,316,,10,64,333,,12,04,130,*64
$GAGSV,2,2,08,17,28,039,,23,38,223,,24,82,018,,27,28,126,*60
$PQGSV,1,1,0,0*43
$PQGSV,1,1,0,0*43
$GPGSA,A,3,02,04,07,08,13,20,23,25,27,,,,1.0,0.7,0.7*39
$GLGSA,A,3,75,77,78,86,87,88,,,,,,,1.0,0.7,0.7*23
$GAGSA,A,3,11,,,,,,,,,,,,1.0,0.7,0.7*22
$GPVTG,,T,,M,0.0,N,0.0,K,A*23
$GPDTM,P90,,0000.000022,S,00000.000001,W,0.988,W84*5A
$GPRMC,000545.00,A,3000.000026,N,11959.999243,E,0.0,,230721,4.3,W,A*01
$GPGGA,000545.00,3000.000026,N,11959.999243,E,1,12,0.7,-5.6,M,7.0,M,,*7B

$GPGSV,3,1,12,02,32,296,32,04,49,243,33,07,83,094,33,08,48,208,32*75
$GPGSV,3,2,12,13,47,032,33,20,20,122,32,23,25,057,32,25,63,040,32*79
$GPGSV,3,3,12,27,19,219,32,10,01,310,,16,00,000,,28,00,000,*73
$GLGSV,2,1,07,78,07,330,31,86,32,025,29,77,56,326,30,75,09,153,31*61
$GLGSV,2,2,07,88,21,244,30,87,60,303,30,71,01,078,*52
$GAGSV,2,1,08,11,54,119,36,09,13,316,,10,64,333,,12,04,130,*64
$GAGSV,2,2,08,17,28,039,,23,38,223,,24,82,018,,27,28,126,*60
$PQGSV,1,1,0,0*43
$PQGSV,1,1,0,0*43
$GPGSA,A,3,02,04,07,08,13,20,23,25,27,,,,1.0,0.7,0.7*39
$GLGSA,A,3,75,77,78,86,87,88,,,,,,,1.0,0.7,0.7*23
$GAGSA,A,3,11,,,,,,,,,,,,1.0,0.7,0.7*22
$GPVTG,,T,,M,0.0,N,0.0,K,A*23
$GPDTM,P90,,0000.000022,S,00000.000001,W,0.988,W84*5A
$GPRMC,000546.00,A,3000.000026,N,11959.999246,E,0.0,,230721,4.3,W,A*07
$GPGGA,000546.00,3000.000026,N,11959.999246,E,1,12,0.7,-5.6,M,7.0,M,,*7D

$GPGSV,3,1,12,02,32,296,32,04,49,243,32,07,83,094,32,08,48,208,32*75
$GPGSV,3,2,12,13,47,032,32,20,20,122,33,23,25,057,32,25,63,040,33*78
$GPGSV,3,3,12,27,19,219,33,10,01,310,,16,00,000,,28,00,000,*72
$GLGSV,2,1,07,78,07,330,31,86,32,025,30,77,56,326,30,75,09,153,31*69
$GLGSV,2,2,07,88,21,244,31,87,60,303,31,71,01,078,*52
$GAGSV,2,1,08,11,54,119,36,09,13,316,,10,64,333,,12,04,130,*64
$GAGSV,2,2,08,17,28,039,,23,38,223,,24,82,018,,27,28,126,*60
$PQGSV,1,1,0,0*43
$PQGSV,1,1,0,0*43
$GPGSA,A,3,02,04,07,08,13,20,23,25,27,,,,1.0,0.7,0.7*39
$GLGSA,A,3,75,77,78,86,87,88,,,,,,,1.0,0.7,0.7*23
$GAGSA,A,3,11,,,,,,,,,,,,1.0,0.7,0.7*22
$GPVTG,,T,,M,0.0,N,0.0,K,A*23
$GPDTM,P90,,0000.000022,S,00000.000001,W,0.988,W84*5A
$GPRMC,000547.00,A,3000.000026,N,11959.999245,E,0.0,,230721,4.3,W,A*05
$GPGGA,000547.00,3000.000026,N,11959.999245,E,1,12,0.7,-5.6,M,7.0,M,,*7F

$GPGSV,3,1,12,02,32,296,32,04,49,243,32,07,83,094,32,08,48,208,32*75
$GPGSV,3,2,12,13,47,032,32,20,20,122,32,23,25,057,32,25,63,040,32*78
$GPGSV,3,3,12,27,19,219,32,10,01,310,,16,00,000,,28,00,000,*73
$GLGSV,2,1,07,78,07,330,30,86,32,025,31,77,56,326,30,75,09,153,31*69
$GLGSV,2,2,07,88,21,244,31,87,60,303,31,71,01,078,*52
$GAGSV,2,1,08,11,54,119,36,09,13,316,,10,64,333,,12,04,130,*64
$GAGSV,2,2,08,17,28,039,,23,38,223,,24,82,018,,27,28,126,*60
$PQGSV,1,1,0,0*43
$PQGSV,1,1,0,0*43
$GPGSA,A,3,02,04,07,08,13,20,23,25,27,,,,1.0,0.7,0.7*39
$GLGSA,A,3,75,77,78,86,87,88,,,,,,,1.0,0.7,0.7*23
$GAGSA,A,3,11,,,,,,,,,,,,1.0,0.7,0.7*22
$GPVTG,,T,,M,0.0,N,0.0,K,A*23
$GPDTM,P90,,0000.000022,S,00000.000001,W,0.988,W84*5A
$GPRMC,000548.00,A,3000.000025,N,11959.999246,E,0.0,,230721,4.3,W,A*0A
$GPGGA,000548.00,3000.000025,N,11959.999246,E,1,12,0.7,-5.6,M,7.0,M,,*70

$GPGSV,3,1,12,02,32,296,33,04,49,243,32,07,83,094,32,08,48,208,32*74
$GPGSV,3,2,12,13,47,032,32,20,20,122,33,23,25,057,32,25,63,040,32*79
$GPGSV,3,3,12,27,19,219,32,10,01,310,,16,00,000,,28,00,000,*73
$GLGSV,2,1,07,78,07,330,30,86,32,025,30,77,56,326,30,75,09,153,30*69
$GLGSV,2,2,07,88,21,244,30,87,60,303,30,71,01,078,*52
$GAGSV,2,1,08,11,54,119,36,09,13,316,,10,64,333,,12,04,130,*64
$GAGSV,2,2,08,17,28,039,,23,38,223,,24,82,018,,27,28,126,*60
$PQGSV,1,1,0,0*43
$PQGSV,1,1,0,0*43
$GPGSA,A,3,02,04,07,08,13,20,23,25,27,,,,1.0,0.7,0.7*39
$GLGSA,A,3,75,77,78,86,87,88,,,,,,,1.0,0.7,0.7*23
$GAGSA,A,3,11,,,,,,,,,,,,1.0,0.7,0.7*22
$GPVTG,,T,,M,0.0,N,0.0,K,A*23
$GPDTM,P90,,0000.000022,S,00000.000001,W,0.988,W84*5A
$GPRMC,000549.00,A,3000.000028,N,11959.999246,E,0.0,,230721,4.3,W,A*06
$GPGGA,000549.00,3000.000028,N,11959.999246,E,1,12,0.7,-5.6,M,7.0,M,,*7C

$GPGSV,3,1,12,02,32,296,32,04,49,243,32,07,83,094,32,08,48,208,32*75
$GPGSV,3,2,12,13,47,032,32,20,20,122,32,23,25,057,32,25,63,040,32*78
$GPGSV,3,3,12,27,19,219,32,10,01,310,,16,00,000,,28,00,000,*73
$GLGSV,2,1,07,78,07,330,31,86,32,025,30,77,56,326,30,75,09,153,31*69
$GLGSV,2,2,07,88,21,244,31,87,60,303,31,71,01,078,*52
$GAGSV,2,1,08,11,54,119,36,09,13,316,,10,64,333,,12,04,130,*64
$GAGSV,2,2,08,17,28,039,,23,38,223,,24,82,018,,27,28,126,*60
$PQGSV,1,1,0,0*43
$PQGSV,1,1,0,0*43
$GPGSA,A,3,02,04,07,08,13,20,23,25,27,,,,1.0,0.7,0.7*39
$GLGSA,A,3,75,77,78,86,87,88,,,,,,,1.0,0.7,0.7*23
$GAGSA,A,3,11,,,,,,,,,,,,1.0,0.7,0.7*22
$GPVTG,,T,,M,0.0,N,0.0,K,A*23
$GPDTM,P90,,0000.000022,S,00000.000001,W,0.988,W84*5A
$GPRMC,000550.00,A,3000.000030,N,11959.999246,E,0.0,,230721,4.3,W,A*07
$GPGGA,000550.00,3000.000030,N,11959.999246,E,1,12,0.7,-5.6,M,7.0,M,,*7D

$GPGSV,3,1,12,02,32,296,32,04,49,243,32,07,83,094,32,08,48,208,33*74
$GPGSV,3,2,12,13,47,032,32,20,20,122,32,23,25,057,32,25,63,040,33*79
$GPGSV,3,3,12,27,19,219,32,10,01,310,,16,00,000,,28,00,000,*73
$GLGSV,2,1,07,78,07,330,30,86,32,025,30,77,56,326,30,75,09,153,31*68
$GLGSV,2,2,07,88,21,244,30,87,60,303,30,71,01,078,*52
$GAGSV,2,1,08,11,54,119,36,09,13,316,,10,64,333,,12,04,130,*64
$GAGSV,2,2,08,17,28,039,,23,38,223,,24,82,018,,27,28,126,*60
$PQGSV,1,1,0,0*43
$PQGSV,1,1,0,0*43
$GPGSA,A,3,02,04,07,08,13,20,23,25,27,,,,1.0,0.7,0.7*39
$GLGSA,A,3,75,77,78,86,87,88,,,,,,,1.0,0.7,0.7*23
$GAGSA,A,3,11,,,,,,,,,,,,1.0,0.7,0.7*22
$GPVTG,,T,,M,0.0,N,0.0,K,A*23
$GPDTM,P90,,0000.000022,S,00000.000001,W,0.988,W84*5A
$GPRMC,000551.00,A,3000.000029,N,11959.999248,E,0.0,,230721,4.3,W,A*00
$GPGGA,000551.00,3000.000029,N,11959.999248,E,1,12,0.7,-5.6,M,7.0,M,,*7A

$GPGSV,3,1,12,02,32,296,32,04,49,243,32,07,83,094,33,08,48,208,32*74
$GPGSV,3,2,12,13,47,032,32,20,20,122,32,23,25,057,32,25,63,040,33*79
$GPGSV,3,3,12,27,19,219,33,10,01,310,,16,00,000,,28,00,000,*72
$GLGSV,2,1,07,78,07,330,30,86,32,025,30,77,56,326,30,75,09,153,30*69
$GLGSV,2,2,07,88,21,244,30,87,60,303,30,71,01,078,*52
$GAGSV,2,1,08,11,54,119,36,09,13,316,,10,64,333,,12,04,130,*64
$GAGSV,2,2,08,17,28,039,,23,38,223,,24,82,018,,27,28,126,*60
$PQGSV,1,1,0,0*43
$PQGSV,1,1,0,0*43
$GPGSA,A,3,02,04,07,08,13,20,23,25,27,,,,1.0,0.7,0.7*39
$GLGSA,A,3,75,77,78,86,87,88,,,,,,,1.0,0.7,0.7*23
$GAGSA,A,3,11,,,,,,,,,,,,1.0,0.7,0.7*22
$GPVTG,,T,,M,0.0,N,0.0,K,A*23
$GPDTM,P90,,0000.000022,S,00000.000001,W,0.988,W84*5A
$GPRMC,000552.00,A,3000.000026,N,11959.999246,E,0.0,,230721,4.3,W,A*02
$GPGGA,000552.00,3000.000026,N,11959.999246,E,1,12,0.7,-5.6,M,7.0,M,,*78

$GPGSV,3,1,12,02,32,296,32,04,49,243,32,07,83,094,32,08,48,208,32*75
$GPGSV,3,2,12,13,47,032,32,20,20,122,32,23,25,057,32,25,63,040,32*78
$GPGSV,3,3,12,27,19,219,32,10,01,310,,16,00,000,,28,00,000,*73
$GLGSV,2,1,07,78,07,330,30,86,32,025,31,77,56,326,31,75,09,153,30*69
$GLGSV,2,2,07,88,21,244,30,87,60,303,31,71,01,078,*53
$GAGSV,2,1,08,11,54,119,36,09,13,316,,10,64,333,,12,04,130,*64
$GAGSV,2,2,08,17,28,039,,23,38,223,,24,82,018,,27,28,126,*60
$PQGSV,1,1,0,0*43
$PQGSV,1,1,0,0*43
$GPGSA,A,3,02,04,07,08,13,20,23,25,27,,,,1.0,0.7,0.7*39
$GLGSA,A,3,75,77,78,86,87,88,,,,,,,1.0,0.7,0.7*23
$GAGSA,A,3,11,,,,,,,,,,,,1.0,0.7,0.7*22
$GPVTG,,T,,M,0.0,N,0.0,K,A*23
$GPDTM,P90,,0000.000022,S,00000.000001,W,0.988,W84*5A
$GPRMC,000553.00,A,3000.000026,N,11959.999249,E,0.0,,230721,4.3,W,A*0C
$GPGGA,000553.00,3000.000026,N,11959.999249,E,1,12,0.7,-5.6,M,7.0,M,,*76

$GPGSV,3,1,12,02,32,296,32,04,49,243,33,07,83,094,32,08,48,208,32*74
$GPGSV,3,2,12,13,47,032,32,20,20,122,32,23,25,057,33,25,63,040,33*78
$GPGSV,3,3,12,27,19,219,33,10,01,310,,16,00,000,,28,00,000,*72
$GLGSV,2,1,07,78,07,330,31,86,32,025,30,77,56,326,30,75,09,153,30*68
$GLGSV,2,2,07,88,21,244,30,87,60,303,31,71,01,078,*53
$GAGSV,2,1,08,11,54,119,36,09,13,316,,10,64,333,,12,04,130,*64
$GAGSV,2,2,08,17,28,039,,23,38,223,,24,82,018,,27,28,126,*60
$PQGSV,1,1,0,0*43
$PQGSV,1,1,0,0*43
$GPGSA,A,3,02,04,07,08,13,20,23,25,27,,,,1.0,0.7,0.7*39
$GLGSA,A,3,75,77,78,86,87,88,,,,,,,1.0,0.7,0.7*23
$GAGSA,A,3,11,,,,,,,,,,,,1.0,0.7,0.7*22
$GPVTG,,T,,M,0.0,N,0.0,K,A*23
$GPDTM,P90,,0000.000022,S,00000.000001,W,0.988,W84*5A
$GPRMC,000554.00,A,3000.000026,N,11959.999251,E,0.0,,230721,4.3,W,A*02
$GPGGA,000554.00,3000.000026,N,11959.999251,E,1,12,0.7,-5.6,M,7.0,M,,*78

$GPGSV,3,1,12,02,32,296,32,04,49,243,33,07,83,094,32,08,48,208,32*74
$GPGSV,3,2,12,13,47,032,32,20,20,122,33,23,25,057,32,25,63,040,32*79
$GPGSV,3,3,12,27,19,219,32,10,01,310,,16,00,000,,28,00,000,*73
$GLGSV,2,1,07,78,07,330,30,86,32,025,30,77,56,326,30,75,09,153,30*69
$GLGSV,2,2,07,88,21,244,31,87,60,303,30,71,01,078,*53
$GAGSV,2,1,08,11,54,119,36,09,13,316,,10,64,333,,12,04,130,*64
$GAGSV,2,2,08,17,28,039,,23,38,223,,24,82,018,,27,28,126,*60
$PQGSV,1,1,0,0*43
$PQGSV,1,1,0,0*43
$GPGSA,A,3,02,04,07,08,13,20,23,25,27,,,,1.0,0.7,0.7*39
$GLGSA,A,3,75,77,78,86,87,88,,,,,,,1.0,0.7,0.7*23
$GAGSA,A,3,11,,,,,,,,,,,,1.0,0.7,0.7*22
$GPVTG,,T,,M,0.0,N,0.0,K,A*23
$GPDTM,P90,,0000.000022,S,00000.000001,W,0.988,W84*5A
$GPRMC,000555.00,A,3000.000026,N,11959.999252,E,0.0,,230721,4.3,W,A*00
$GPGGA,000555.00,3000.000026,N,11959.999252,E,1,12,0.7,-5.6,M,7.0,M,,*7A

$GPGSV,3,1,12,02,32,296,33,04,49,243,32,07,83,094,32,08,48,208,32*74
$GPGSV,3,2,12,13,47,032,32,20,20,122,32,23,25,057,32,25,63,040,32*78
$GPGSV,3,3,12,27,19,219,32,10,01,310,,16,00,000,,28,00,000,*73
$GLGSV,2,1,07,78,07,330,30,86,32,025,30,77,56,326,30,75,09,153,30*69
$GLGSV,2,2,07,88,21,244,31,87,60,303,30,71,01,078,*53
$GAGSV,2,1,08,11,54,119,36,09,13,316,,10,64,333,,12,04,130,*64
$GAGSV,2,2,08,17,28,039,,23,38,223,,24,82,018,,27,28,126,*60
$PQGSV,1,1,0,0*43
$PQGSV,1,1,0,0*43
$GPGSA,A,3,02,04,07,08,13,20,23,25,27,,,,1.0,0.7,0.7*39
$GLGSA,A,3,75,77,78,86,87,88,,,,,,,1.0,0.7,0.7*23
$GAGSA,A,3,11,,,,,,,,,,,,1.0,0.7,0.7*22
$GPVTG,,T,,M,0.0,N,0.0,K,A*23
$GPDTM,P90,,0000.000022,S,00000.000001,W,0.988,W84*5A
$GPRMC,000556.00,A,3000.000025,N,11959.999255,E,0.0,,230721,4.3,W,A*07
$GPGGA,000556.00,3000.000025,N,11959.999255,E,1,12,0.7,-5.6,M,7.0,M,,*7D

$GPGSV,3,1,12,02,32,296,32,04,49,243,32,07,83,094,32,08,48,208,32*75
$GPGSV,3,2,12,13,47,032,32,20,20,122,32,23,25,057,32,25,63,040,32*78
$GPGSV,3,3,12,27,19,219,32,10,01,310,,16,00,000,,28,00,000,*73
$GLGSV,2,1,07,78,07,330,30,86,32,025,31,77,56,326,31,75,09,153,30*69
$GLGSV,2,2,07,88,21,244,30,87,60,303,31,71,01,078,*53
$GAGSV,2,1,08,11,54,119,36,09,13,316,,10,64,333,,12,04,130,*64
$GAGSV,2,2,08,17,28,039,,23,38,223,,24,82,018,,27,28,126,*60
$PQGSV,1,1,0,0*43
$PQGSV,1,1,0,0*43
$GPGSA,A,3,02,04,07,08,13,20,23,25,27,,,,1.0,0.7,0.7*39
$GLGSA,A,3,75,77,78,86,87,88,,,,,,,1.0,0.7,0.7*23
$GAGSA,A,3,11,,,,,,,,,,,,1.0,0.7,0.7*22
$GPVTG,,T,,M,0.0,N,0.0,K,A*23
$GPDTM,P90,,0000.000022,S,00000.000001,W,0.988,W84*5A
$GPRMC,000557.00,A,3000.000025,N,11959.999256,E,0.0,,230721,4.3,W,A*05
$GPGGA,000557.00,3000.000025,N,11959.999256,E,1,12,0.7,-5.6,M,7.0,M,,*7F

$GPGSV,3,1,12,02,32,296,32,04,49,243,33,07,83,094,32,08,48,208,33*75
$GPGSV,3,2,12,13,47,032,33,20,20,122,32,23,25,057,32,25,63,040,32*79
$GPGSV,3,3,12,27,19,219,32,10,01,310,,16,00,000,,28,00,000,*73
$GLGSV,2,1,07,78,07,330,30,86,32,025,31,77,56,326,30,75,09,153,31*69
$GLGSV,2,2,07,88,21,244,30,87,60,303,31,71,01,078,*53
$GAGSV,2,1,08,11,54,119,36,09,13,316,,10,64,333,,12,04,130,*64
$GAGSV,2,2,08,17,28,039,,23,38,223,,24,82,018,,27,28,126,*60
$PQGSV,1,1,0,0*43
$PQGSV,1,1,0,0*43
$GPGSA,A,3,02,04,07,08,13,20,23,25,27,,,,1.0,0.7,0.7*39
$GLGSA,A,3,75,77,78,86,87,88,,,,,,,1.0,0.7,0.7*23
$GAGSA,A,3,11,,,,,,,,,,,,1.0,0.7,0.7*22
$GPVTG,,T,,M,0.0,N,0.0,K,A*23
$GPDTM,P90,,0000.000022,S,00000.000001,W,0.988,W84*5A
$GPRMC,000558.00,A,3000.000025,N,11959.999255,E,0.0,,230721,4.3,W,A*09
$GPGGA,000558.00,3000.000025,N,11959.999255,E,1,12,0.7,-5.6,M,7.0,M,,*73

$GPGSV,3,1,12,02,32,296,33,04,49,243,32,07,83,094,32,08,48,208,32*74
$GPGSV,3,2,12,13,47,032,33,20,20,122,32,23,25,057,32,25,63,040,32*79
$GPGSV,3,3,12,27,19,219,32,10,01,310,,16,00,000,,28,00,000,*73
$GLGSV,2,1,07,78,07,330,30,86,32,025,30,77,56,326,30,75,09,153,31*68
$GLGSV,2,2,07,88,21,244,30,87,60,303,31,71,01,078,*53
$GAGSV,2,1,08,11,54,119,37,09,13,316,,10,64,333,,12,04,130,*65
$GAGSV,2,2,08,17,28,039,,23,38,223,,24,82,018,,27,28,126,*60
$PQGSV,1,1,0,0*43
$PQGSV,1,1,0,0*43
$GPGSA,A,3,02,04,07,08,13,20,23,25,27,,,,1.0,0.7,0.7*39
$GLGSA,A,3,75,77,78,86,87,88,,,,,,,1.0,0.7,0.7*23
$GAGSA,A,3,11,,,,,,,,,,,,1.0,0.7,0.7*22
$GPVTG,,T,,M,0.0,N,0.0,K,A*23
$GPDTM,P90,,0000.000022,S,00000.000001,W,0.988,W84*5A
$GPRMC,000559.00,A,3000.000026,N,11959.999255,E,0.0,,230721,4.3,W,A*0B
$GPGGA,000559.00,3000.000026,N,11959.999255,E,1,12,0.7,-5.6,M,7.0,M,,*71

$GPGSV,3,1,12,02,32,296,32,04,49,243,32,07,83,094,32,08,48,208,32*75
$GPGSV,3,2,12,13,47,032,32,20,20,122,32,23,25,057,33,25,63,040,32*79
$GPGSV,3,3,12,27,19,219,32,10,01,310,,16,00,000,,28,00,000,*73
$GLGSV,2,1,07,78,07,330,31,86,32,025,30,77,56,326,30,75,09,153,31*69
$GLGSV,2,2,07,88,21,244,31,87,60,303,31,71,01,078,*52
$GAGSV,2,1,08,11,54,119,36,09,13,316,,10,64,333,,12,04,130,*64
$GAGSV,2,2,08,17,28,039,,23,38,223,,24,82,018,,27,28,126,*60
$PQGSV,1,1,0,0*43
$PQGSV,1,1,0,0*43
$GPGSA,A,3,02,04,07,08,13,20,23,25,27,,,,1.0,0.7,0.7*39
$GLGSA,A,3,75,77,78,86,87,88,,,,,,,1.0,0.7,0.7*23
$GAGSA,A,3,11,,,,,,,,,,,,1.0,0.7,0.7*22
$GPVTG,,T,,M,0.0,N,0.0,K,A*23
$GPDTM,P90,,0000.000022,S,00000.000001,W,0.988,W84*5A
$GPRMC,000600.00,A,3000.000023,N,11959.999255,E,0.0,,230721,4.3,W,A*01
$GPGGA,000600.00,3000.000023,N,11959.999255,E,1,12,0.7,-5.6,M,7.0,M,,*7B

$GPGSV,3,1,12,02,32,296,32,04,49,243,32,07,83,094,32,08,48,208,33*74
$GPGSV,3,2,12,13,47,032,33,20,20,122,32,23,25,057,33,25,63,040,32*78
$GPGSV,3,3,12,27,19,219,33,10,01,310,,16,00,000,,28,00,000,*72
$GLGSV,2,1,07,78,07,330,30,86,32,025,30,77,56,326,30,75,09,153,30*69
$GLGSV,2,2,07,88,21,244,30,87,60,303,31,71,01,078,*53
$GAGSV,2,1,08,11,54,119,36,09,13,316,,10,64,333,,12,04,130,*64
$GAGSV,2,2,08,17,28,039,,23,38,223,,24,82,018,,27,28,126,*60
$PQGSV,1,1,0,0*43
$PQGSV,1,1,0,0*43
$GPGSA,A,3,02,04,07,08,13,20,23,25,27,,,,1.0,0.7,0.7*39
$GLGSA,A,3,75,77,78,86,87,88,,,,,,,1.0,0.7,0.7*23
$GAGSA,A,3,11,,,,,,,,,,,,1.0,0.7,0.7*22
$GPVTG,,T,,M,0.0,N,0.0,K,A*23
$GPDTM,P90,,0000.000022,S,00000.000001,W,0.988,W84*5A
$GPRMC,000601.00,A,3000.000023,N,11959.999255,E,0.0,,230721,4.3,W,A*00
$GPGGA,000601.00,3000.000023,N,11959.999255,E,1,12,0.7,-5.6,M,7.0,M,,*7A

$GPGSV,3,1,12,02,32,296,32,04,49,243,32,07,83,094,32,08,48,208,32*75
$GPGSV,3,2,12,13,47,032,32,20,20,122,32,23,25,057,32,25,63,040,32*78
$GPGSV,3,3,12,27,19,219,32,10,01,310,,16,00,000,,28,00,000,*73
$GLGSV,2,1,07,78,07,330,31,86,32,025,30,77,56,326,30,75,09,153,30*68
$GLGSV,2,2,07,88,21,244,30,87,60,303,30,71,01,078,*52
$GAGSV,2,1,08,11,54,119,36,09,13,316,,10,64,333,,12,04,130,*64
$GAGSV,2,2,08,17,28,039,,23,38,223,,24,82,018,,27,28,126,*60
$PQGSV,1,1,0,0*43
$PQGSV,1,1,0,0*43
$GPGSA,A,3,02,04,07,08,13,20,23,25,27,,,,1.0,0.7,0.7*39
$GLGSA,A,3,75,77,78,86,87,88,,,,,,,1.0,0.7,0.7*23
$GAGSA,A,3,11,,,,,,,,,,,,1.0,0.7,0.7*22
$GPVTG,,T,,M,0.0,N,0.0,K,A*23
$GPDTM,P90,,0000.000022,S,00000.000001,W,0.988,W84*5A
$GPRMC,000602.00,A,3000.000022,N,11959.999255,E,0.0,,230721,4.3,W,A*02
$GPGGA,000602.00,3000.000022,N,11959.999255,E,1,12,0.7,-5.6,M,7.0,M,,*78

$GPGSV,3,1,12,02,32,296,32,04,49,243,32,07,83,094,32,08,48,208,33*74
$GPGSV,3,2,12,13,47,032,32,20,20,122,32,23,25,057,32,25,63,040,32*78
$GPGSV,3,3,12,27,19,219,33,10,01,310,,16,00,000,,28,00,000,*72
$GLGSV,2,1,07,78,07,330,30,86,32,025,30,77,56,326,30,75,09,153,31*68
$GLGSV,2,2,07,88,21,244,30,87,60,303,31,71,01,078,*53
$GAGSV,2,1,08,11,54,119,36,09,13,316,,10,64,333,,12,04,130,*64
$GAGSV,2,2,08,17,28,039,,23,38,223,,24,82,018,,27,28,126,*60
$PQGSV,1,1,0,0*43
$PQGSV,1,1,0,0*43
$GPGSA,A,3,02,04,07,08,13,20,23,25,27,,,,1.0,0.7,0.7*39
$GLGSA,A,3,75,77,78,86,87,88,,,,,,,1.0,0.7,0.7*23
$GAGSA,A,3,11,,,,,,,,,,,,1.0,0.7,0.7*22
$GPVTG,,T,,M,0.0,N,0.0,K,A*23
$GPDTM,P90,,0000.000022,S,00000.000001,W,0.988,W84*5A
$GPRMC,000603.00,A,3000.000024,N,11959.999254,E,0.0,,230721,4.3,W,A*04
$GPGGA,000603.00,3000.000024,N,11959.999254,E,1,12,0.7,-5.6,M,7.0,M,,*7E

$GPGSV,3,1,12,02,32,296,32,04,49,243,32,07,83,094,32,08,48,208,32*75
$GPGSV,3,2,12,13,47,032,32,20,20,122,32,23,25,057,32,25,63,040,33*79
$GPGSV,3,3,12,27,19,219,32,10,01,310,,16,00,000,,28,00,000,*73
$GLGSV,2,1,07,78,07,330,31,86,32,025,30,77,56,326,30,75,09,153,30*68
$GLGSV,2,2,07,88,21,244,30,87,60,303,31,71,01,078,*53
$GAGSV,2,1,08,11,54,119,36,09,13,316,,10,64,333,,12,04,130,*64
$GAGSV,2,2,08,17,28,039,,23,38,223,,24,82,018,,27,28,126,*60
$PQGSV,1,1,0,0*43
$PQGSV,1,1,0,0*43
$GPGSA,A,3,02,04,07,08,13,20,23,25,27,,,,1.0,0.7,0.7*39
$GLGSA,A,3,75,77,78,86,87,88,,,,,,,1.0,0.7,0.7*23
$GAGSA,A,3,11,,,,,,,,,,,,1.0,0.7,0.7*22
$GPVTG,,T,,M,0.0,N,0.0,K,A*23
$GPDTM,P90,,0000.000022,S,00000.000001,W,0.988,W84*5A
$GPRMC,000604.00,A,3000.000022,N,11959.999255,E,0.0,,230721,4.3,W,A*04
$GPGGA,000604.00,3000.000022,N,11959.999255,E,1,12,0.7,-5.6,M,7.0,M,,*7E

$GPGSV,3,1,12,02,32,296,32,04,49,243,32,07,83,094,32,08,48,208,32*75
$GPGSV,3,2,12,13,47,032,32,20,20,122,32,23,25,057,32,25,63,040,32*78
$GPGSV,3,3,12,27,19,219,32,10,01,310,,16,00,000,,28,00,000,*73
$GLGSV,2,1,07,78,07,330,31,86,32,025,31,77,56,326,30,75,09,153,31*68
$GLGSV,2,2,07,88,21,244,30,87,60,303,31,71,01,078,*53
$GAGSV,2,1,08,11,54,119,36,09,13,316,,10,64,333,,12,04,130,*64
$GAGSV,2,2,08,17,28,039,,23,38,223,,24,82,018,,27,28,126,*60
$PQGSV,1,1,0,0*43
$PQGSV,1,1,0,0*43
$GPGSA,A,3,02,04,07,08,13,20,23,25,27,,,,1.0,0.7,0.7*39
$GLGSA,A,3,75,77,78,86,87,88,,,,,,,1.0,0.7,0.7*23
$GAGSA,A,3,11,,,,,,,,,,,,1.0,0.7,0.7*22
$GPVTG,,T,,M,0.0,N,0.0,K,A*23
$GPDTM,P90,,0000.000022,S,00000.000001,W,0.988,W84*5A
$GPRMC,000605.00,A,3000.000020,N,11959.999256,E,0.0,,230721,4.3,W,A*04
$GPGGA,000605.00,3000.000020,N,11959.999256,E,1,12,0.7,-5.6,M,7.0,M,,*7E

$GPGSV,3,1,12,02,32,296,32,04,49,243,32,07,83,094,33,08,48,208,32*74
$GPGSV,3,2,12,13,47,032,32,20,20,122,32,23,25,057,32,25,63,040,33*79
$GPGSV,3,3,12,27,19,219,32,10,01,310,,16,00,000,,28,00,000,*73
$GLGSV,2,1,07,78,07,330,30,86,32,025,30,77,56,326,31,75,09,153,30*68
$GLGSV,2,2,07,88,21,244,30,87,60,303,31,71,01,078,*53
$GAGSV,2,1,08,11,54,119,36,09,13,316,,10,64,333,,12,04,130,*64
$GAGSV,2,2,08,17,28,039,,23,38,223,,24,82,018,,27,28,126,*60
$PQGSV,1,1,0,0*43
$PQGSV,1,1,0,0*43
$GPGSA,A,3,02,04,07,08,13,20,23,25,27,,,,1.0,0.7,0.7*39
$GLGSA,A,3,75,77,78,86,87,88,,,,,,,1.0,0.7,0.7*23
$GAGSA,A,3,11,,,,,,,,,,,,1.0,0.7,0.7*22
$GPVTG,,T,,M,0.0,N,0.0,K,A*23
$GPDTM,P90,,0000.000022,S,00000.000001,W,0.988,W84*5A
$GPRMC,000606.00,A,3000.000019,N,11959.999255,E,0.0,,230721,4.3,W,A*0E
$GPGGA,000606.00,3000.000019,N,11959.999255,E,1,12,0.7,-5.6,M,7.0,M,,*74

$GPGSV,3,1,12,02,32,296,32,04,49,243,33,07,83,094,32,08,48,208,32*74
$GPGSV,3,2,12,13,47,032,32,20,20,122,32,23,25,057,32,25,63,040,32*78
$GPGSV,3,3,12,27,19,219,32,10,01,310,,16,00,000,,28,00,000,*73
$GLGSV,2,1,07,78,07,330,30,86,32,025,31,77,56,326,31,75,09,153,31*68
$GLGSV,2,2,07,88,21,244,30,87,60,303,31,71,01,078,*53
$GAGSV,2,1,08,11,54,119,36,09,13,316,,10,64,333,,12,04,130,*64
$GAGSV,2,2,08,17,28,039,,23,38,223,,24,82,018,,27,28,126,*60
$PQGSV,1,1,0,0*43
$PQGSV,1,1,0,0*43
$GPGSA,A,3,02,04,07,08,13,20,23,25,27,,,,1.0,0.7,0.7*39
$GLGSA,A,3,75,77,78,86,87,88,,,,,,,1.0,0.7,0.7*23
$GAGSA,A,3,11,,,,,,,,,,,,1.0,0.7,0.7*22
$GPVTG,,T,,M,0.0,N,0.0,K,A*23
$GPDTM,P90,,0000.000022,S,00000.000001,W,0.988,W84*5A
$GPRMC,000607.00,A,3000.000020,N,11959.999250,E,0.0,,230721,4.3,W,A*00
$GPGGA,000607.00,3000.000020,N,11959.999250,E,1,12,0.7,-5.6,M,7.0,M,,*7A

$GPGSV,3,1,12,02,32,296,33,04,49,243,33,07,83,094,32,08,48,208,32*75
$GPGSV,3,2,12,13,47,032,32,20,20,122,32,23,25,057,33,25,63,040,32*79
$GPGSV,3,3,12,27,19,219,32,10,01,310,,16,00,000,,28,00,000,*73
$GLGSV,2,1,07,78,07,330,31,86,32,025,30,77,56,326,31,75,09,153,30*69
$GLGSV,2,2,07,88,21,244,31,87,60,303,31,71,01,078,*52
$GAGSV,2,1,08,11,54,119,36,09,13,316,,10,64,333,,12,04,130,*64
$GAGSV,2,2,08,17,28,039,,23,38,223,,24,82,018,,27,28,126,*60
$PQGSV,1,1,0,0*43
$PQGSV,1,1,0,0*43
$GPGSA,A,3,02,04,07,08,13,20,23,25,27,,,,1.0,0.7,0.7*39
$GLGSA,A,3,75,77,78,86,87,88,,,,,,,1.0,0.7,0.7*23
$GAGSA,A,3,11,,,,,,,,,,,,1.0,0.7,0.7*22
$GPVTG,,T,,M,0.0,N,0.0,K,A*23
