$GPGSV,3,1,12,02,32,296,,04,49,243,,07,83,097,,08,48,206,*78
$GPGSV,3,2,12,10,01,310,,13,47,032,,16,00,000,,20,20,122,*7F
$GPGSV,3,3,12,23,25,057,,25,64,040,,27,18,219,,28,00,000,*73
$GLGSV,2,1,07,78,07,330,41,86,33,025,41,77,56,326,41,75,09,151,41*6A
$GLGSV,2,2,07,88,20,243,41,87,60,302,41,71,01,080,*52
$GAGSV,1,1,0,7*43
$PQGSV,1,1,0,0*43
$PQGSV,1,1,02,12,61,307,,13,33,199,*6E
$GLGSA,A,3,75,77,78,86,87,88,,,,,,,1.4,1.1,0.8*2F
$GPVTG,,T,,M,0.0,N,0.0,K,A*23
$GPDTM,P90,,0000.000022,S,00000.000001,W,0.988,W84*5A
$GPRMC,000440.00,A,2959.999358,N,11959.999438,E,0.0,,230721,4.3,W,A*08
$GPGGA,000440.00,2959.999358,N,11959.999438,E,1,06,1.1,-18.1,M,7.0,M,,*4B

$GPGSV,3,1,12,02,32,296,,04,49,243,,07,83,097,,08,48,206,*78
$GPGSV,3,2,12,10,01,310,,13,47,032,,16,00,000,,20,20,122,*7F
$GPGSV,3,3,12,23,25,057,,25,64,040,,27,18,219,,28,00,000,*73
$GLGSV,2,1,07,78,07,330,41,86,33,025,41,77,56,326,41,75,09,151,41*6A
$GLGSV,2,2,07,88,20,243,41,87,60,302,41,71,01,080,*52
$GAGSV,1,1,0,7*43
$PQGSV,1,1,0,0*43
$PQGSV,1,1,02,12,61,307,,13,33,199,*6E
$GLGSA,A,3,75,77,78,86,87,88,,,,,,,1.4,1.1,0.8*2F
$GPVTG,,T,,M,0.0,N,0.0,K,A*23
$GPDTM,P90,,0000.000022,S,00000.000001,W,0.988,W84*5A
$GPRMC,000441.00,A,2959.999277,N,11959.999427,E,0.0,,230721,4.3,W,A*0B
$GPGGA,000441.00,2959.999277,N,11959.999427,E,1,06,1.1,-18.2,M,7.0,M,,*4B

$GPGSV,3,1,12,02,32,296,,04,49,243,,07,83,097,,08,48,206,*78
$GPGSV,3,2,12,10,01,310,,13,47,032,,16,00,000,,20,20,122,*7F
$GPGSV,3,3,12,23,25,057,,25,64,040,,27,18,219,,28,00,000,*73
$GLGSV,2,1,07,78,07,330,41,86,33,025,41,77,56,326,41,75,09,151,41*6A
$GLGSV,2,2,07,88,20,243,41,87,60,302,41,71,01,080,*52
$GAGSV,1,1,0,7*43
$PQGSV,1,1,0,0*43
$PQGSV,1,1,02,12,61,307,,13,33,199,*6E
$GLGSA,A,3,75,77,78,86,87,88,,,,,,,1.4,1.1,0.8*2F
$GPVTG,,T,,M,0.0,N,0.0,K,A*23
$GPDTM,P90,,0000.000022,S,00000.000001,W,0.988,W84*5A
$GPRMC,000442.00,A,2959.999244,N,11959.999466,E,0.0,,230721,4.3,W,A*0D
$GPGGA,000442.00,2959.999244,N,11959.999466,E,1,06,1.1,-17.9,M,7.0,M,,*49

$GPGSV,3,1,12,02,32,296,,04,49,243,,07,83,097,,08,48,206,*78
$GPGSV,3,2,12,10,01,310,,13,47,032,,16,00,000,,20,20,122,*7F
$GPGSV,3,3,12,23,25,057,,25,64,040,,27,18,219,,28,00,000,*73
$GLGSV,2,1,07,78,07,330,41,86,33,025,41,77,56,326,41,75,09,151,41*6A
$GLGSV,2,2,07,88,20,243,41,87,60,302,41,71,01,080,*52
$GAGSV,1,1,0,7*43
$PQGSV,1,1,0,0*43
$PQGSV,1,1,02,12,61,307,,13,33,199,*6E
$GLGSA,A,3,75,77,78,86,87,88,,,,,,,1.4,1.1,0.8*2F
$GPVTG,,T,,M,0.0,N,0.0,K,A*23
$GPDTM,P90,,0000.000022,S,00000.000001,W,0.988,W84*5A
$GPRMC,000443.00,A,2959.999324,N,11959.999282,E,0.0,,230721,4.3,W,A*07
$GPGGA,000443.00,2959.999324,N,11959.999282,E,1,06,1.1,-18.1,M,7.0,M,,*44

$GPGSV,3,1,12,02,32,296,,04,49,243,,07,83,097,,08,48,206,*78
$GPGSV,3,2,12,10,01,310,,13,47,032,,16,00,000,,20,20,122,*7F
$GPGSV,3,3,12,23,25,057,,25,64,040,,27,18,219,,28,00,000,*73
$GLGSV,2,1,07,78,07,330,41,86,33,025,41,77,56,326,41,75,09,151,41*6A
$GLGSV,2,2,07,88,20,243,41,87,60,302,41,71,01,080,*52
$GAGSV,1,1,0,7*43
$PQGSV,1,1,0,0*43
$PQGSV,1,1,02,12,61,307,,13,33,199,*6E
$GLGSA,A,3,75,77,78,86,87,88,,,,,,,1.4,1.1,0.8*2F
$GPVTG,,T,,M,0.0,N,0.0,K,A*23
$GPDTM,P90,,0000.000022,S,00000.000001,W,0.988,W84*5A
$GPRMC,000444.00,A,2959.999336,N,11959.999170,E,0.0,,230721,4.3,W,A*0D
$GPGGA,000444.00,2959.999336,N,11959.999170,E,1,06,1.1,-18.1,M,7.0,M,,*4E

$GPGSV,3,1,12,02,32,296,,04,49,243,,07,83,097,,08,48,206,*78
$GPGSV,3,2,12,10,01,310,,13,47,032,,16,00,000,,20,20,122,*7F
$GPGSV,3,3,12,23,25,057,,25,64,040,,27,18,219,,28,00,000,*73
$GLGSV,2,1,07,78,07,330,41,86,33,025,41,77,56,326,41,75,09,151,41*6A
$GLGSV,2,2,07,88,20,243,41,87,60,302,41,71,01,080,*52
$GAGSV,1,1,0,7*43
$PQGSV,1,1,0,0*43
$PQGSV,1,1,02,12,61,307,,13,33,199,*6E
$GLGSA,A,3,75,77,78,86,87,88,,,,,,,1.4,1.1,0.8*2F
$GPVTG,,T,,M,0.0,N,0.0,K,A*23
$GPDTM,P90,,0000.000022,S,00000.000001,W,0.988,W84*5A
$GPRMC,000445.00,A,2959.999318,N,11959.999153,E,0.0,,230721,4.3,W,A*01
$GPGGA,000445.00,2959.999318,N,11959.999153,E,1,06,1.1,-17.8,M,7.0,M,,*44

$GPGSV,3,1,12,02,32,296,,04,49,243,,07,83,097,,08,48,206,*78
$GPGSV,3,2,12,10,01,310,,13,47,032,,16,00,000,,20,20,122,*7F
$GPGSV,3,3,12,23,25,057,,25,64,040,,27,18,219,,28,00,000,*73
$GLGSV,2,1,07,78,07,330,41,86,33,025,41,77,56,326,41,75,09,151,41*6A
$GLGSV,2,2,07,88,20,243,41,87,60,302,41,71,01,080,*52
$GAGSV,1,1,0,7*43
$PQGSV,1,1,0,0*43
$PQGSV,1,1,02,12,61,307,,13,33,199,*6E
$GLGSA,A,3,75,77,78,86,87,88,,,,,,,1.4,1.1,0.8*2F
$GPVTG,,T,,M,0.0,N,0.0,K,A*23
$GPDTM,P90,,0000.000022,S,00000.000001,W,0.988,W84*5A
$GPRMC,000446.00,A,2959.999419,N,11959.999161,E,0.0,,230721,4.3,W,A*05
$GPGGA,000446.00,2959.999419,N,11959.999161,E,1,06,1.1,-17.9,M,7.0,M,,*41

$GPGSV,3,1,12,02,32,296,,04,49,243,,07,83,097,,08,48,206,*78
$GPGSV,3,2,12,10,01,310,,13,47,032,,16,00,000,,20,20,122,*7F
$GPGSV,3,3,12,23,25,057,,25,64,040,,27,18,219,,28,00,000,*73
$GLGSV,2,1,07,78,07,330,41,86,33,025,41,77,56,326,41,75,09,151,41*6A
$GLGSV,2,2,07,88,20,243,41,87,60,302,41,71,01,080,*52
$GAGSV,1,1,0,7*43
$PQGSV,1,1,0,0*43
$PQGSV,1,1,02,12,61,307,,13,33,199,*6E
$GLGSA,A,3,75,77,78,86,87,88,,,,,,,1.4,1.1,0.8*2F
$GPVTG,,T,,M,0.0,N,0.0,K,A*23
$GPDTM,P90,,0000.000022,S,00000.000001,W,0.988,W84*5A
$GPRMC,000447.00,A,2959.999365,N,11959.999116,E,0.0,,230721,4.3,W,A*08
$GPGGA,000447.00,2959.999365,N,11959.999116,E,1,06,1.1,-17.9,M,7.0,M,,*4C

$GPGSV,3,1,12,02,32,296,,04,49,243,,07,83,097,,08,48,206,*78
$GPGSV,3,2,12,10,01,310,,13,47,032,,16,00,000,,20,20,122,*7F
$GPGSV,3,3,12,23,25,057,,25,64,040,,27,18,219,,28,00,000,*73
$GLGSV,2,1,07,78,07,330,41,86,33,025,41,77,56,326,41,75,09,151,41*6A
$GLGSV,2,2,07,88,20,243,41,87,60,302,41,71,01,080,*52
$GAGSV,1,1,0,7*43
$PQGSV,1,1,0,0*43
$PQGSV,1,1,02,12,61,307,,13,33,199,*6E
$GLGSA,A,3,75,77,78,86,87,88,,,,,,,1.4,1.1,0.8*2F
$GPVTG,,T,,M,0.0,N,0.0,K,A*23
$GPDTM,P90,,0000.000022,S,00000.000001,W,0.988,W84*5A
$GPRMC,000448.00,A,2959.999317,N,11959.999002,E,0.0,,230721,4.3,W,A*06
$GPGGA,000448.00,2959.999317,N,11959.999002,E,1,06,1.1,-17.8,M,7.0,M,,*43

$GPGSV,3,1,12,02,32,296,,04,49,243,,07,83,097,,08,48,206,*78
$GPGSV,3,2,12,10,01,310,,13,47,032,,16,00,000,,20,20,122,*7F
$GPGSV,3,3,12,23,25,057,,25,64,040,,27,18,219,,28,00,000,*73
$GLGSV,2,1,07,78,07,330,41,86,33,025,41,77,56,326,41,75,09,151,41*6A
$GLGSV,2,2,07,88,20,243,41,87,60,302,41,71,01,080,*52
$GAGSV,1,1,0,7*43
$PQGSV,1,1,0,0*43
$PQGSV,1,1,02,12,61,307,,13,33,199,*6E
$GLGSA,A,3,75,77,78,86,87,88,,,,,,,1.4,1.1,0.8*2F
$GPVTG,,T,,M,0.0,N,0.0,K,A*23
$GPDTM,P90,,0000.000022,S,00000.000001,W,0.988,W84*5A
$GPRMC,000449.00,A,2959.999287,N,11959.998903,E,0.0,,230721,4.3,W,A*06
$GPGGA,000449.00,2959.999287,N,11959.998903,E,1,06,1.1,-17.8,M,7.0,M,,*43

$GPGSV,3,1,12,02,32,296,,04,49,243,,07,83,097,,08,48,206,*78
$GPGSV,3,2,12,10,01,310,,13,47,032,,16,00,000,,20,20,122,*7F
$GPGSV,3,3,12,23,25,057,,25,64,040,,27,18,219,,28,00,000,*73
$GLGSV,2,1,07,78,07,330,41,86,33,025,41,77,56,326,41,75,09,151,41*6A
$GLGSV,2,2,07,88,20,243,41,87,60,302,41,71,01,080,*52
$GAGSV,1,1,0,7*43
$PQGSV,1,1,0,0*43
$PQGSV,1,1,02,12,61,307,,13,33,199,*6E
$GLGSA,A,3,75,77,78,86,87,88,,,,,,,1.4,1.1,0.8*2F
$GPVTG,,T,,M,0.0,N,0.0,K,A*23
$GPDTM,P90,,0000.000022,S,00000.000001,W,0.988,W84*5A
$GPRMC,000450.00,A,2959.999246,N,11959.998954,E,0.0,,230721,4.3,W,A*01
$GPGGA,000450.00,2959.999246,N,11959.998954,E,1,06,1.1,-17.6,M,7.0,M,,*4A

$GPGSV,3,1,12,02,32,296,,04,49,243,,07,83,097,,08,48,206,*78
$GPGSV,3,2,12,10,01,310,,13,47,032,,16,00,000,,20,20,122,*7F
$GPGSV,3,3,12,23,25,057,,25,64,040,,27,18,219,,28,00,000,*73
$GLGSV,2,1,07,78,07,330,41,86,33,025,41,77,56,326,41,75,09,151,41*6A
$GLGSV,2,2,07,88,20,243,41,87,60,302,41,71,01,080,*52
$GAGSV,1,1,0,7*43
$PQGSV,1,1,0,0*43
$PQGSV,1,1,02,12,61,307,,13,33,199,*6E
$GLGSA,A,3,75,77,78,86,87,88,,,,,,,1.4,1.1,0.8*2F
$GPVTG,,T,,M,0.0,N,0.0,K,A*23
$GPDTM,P90,,0000.000022,S,00000.000001,W,0.988,W84*5A
$GPRMC,000451.00,A,2959.999326,N,11959.998952,E,0.0,,230721,4.3,W,A*01
$GPGGA,000451.00,2959.999326,N,11959.998952,E,1,06,1.1,-17.5,M,7.0,M,,*49

$GPGSV,3,1,12,02,32,296,,04,49,243,,07,83,097,,08,48,206,*78
$GPGSV,3,2,12,10,01,310,,13,47,032,,16,00,000,,20,20,122,*7F
$GPGSV,3,3,12,23,25,057,,25,64,040,,27,18,219,,28,00,000,*73
$GLGSV,2,1,07,78,07,330,41,86,33,025,41,77,56,326,41,75,09,151,41*6A
$GLGSV,2,2,07,88,20,243,41,87,60,302,41,71,01,080,*52
$GAGSV,1,1,0,7*43
$PQGSV,1,1,0,0*43
$PQGSV,1,1,02,12,61,307,,13,33,199,*6E
$GLGSA,A,3,75,77,78,86,87,88,,,,,,,1.4,1.1,0.8*2F
$GPVTG,,T,,M,0.0,N,0.0,K,A*23
$GPDTM,P90,,0000.000022,S,00000.000001,W,0.988,W84*5A
$GPRMC,000452.00,A,2959.999229,N,11959.999163,E,0.0,,230721,4.3,W,A*07
$GPGGA,000452.00,2959.999229,N,11959.999163,E,1,06,1.1,-17.2,M,7.0,M,,*48

$GPGSV,3,1,12,02,32,296,,04,49,243,,07,83,097,,08,48,206,*78
$GPGSV,3,2,12,10,01,310,,13,47,032,,16,00,000,,20,20,122,*7F
$GPGSV,3,3,12,23,25,057,,25,64,040,,27,18,219,,28,00,000,*73
$GLGSV,2,1,07,78,07,330,41,86,33,025,41,77,56,326,41,75,09,151,41*6A
$GLGSV,2,2,07,88,20,243,41,87,60,302,41,71,01,080,*52
$GAGSV,1,1,0,7*43
$PQGSV,1,1,0,0*43
$PQGSV,1,1,02,12,61,307,,13,33,199,*6E
$GLGSA,A,3,75,77,78,86,87,88,,,,,,,1.4,1.1,0.8*2F
$GPVTG,,T,,M,0.0,N,0.0,K,A*23
$GPDTM,P90,,0000.000022,S,00000.000001,W,0.988,W84*5A
$GPRMC,000453.00,A,2959.999244,N,11959.999166,E,0.0,,230721,4.3,W,A*08
$GPGGA,000453.00,2959.999244,N,11959.999166,E,1,06,1.1,-17.3,M,7.0,M,,*46

$GPGSV,3,1,12,02,32,296,,04,49,243,,07,83,097,,08,48,206,*78
$GPGSV,3,2,12,10,01,310,,13,47,032,,16,00,000,,20,20,122,*7F
$GPGSV,3,3,12,23,25,057,,25,64,040,,27,18,219,,28,00,000,*73
$GLGSV,2,1,07,78,07,330,41,86,33,025,41,77,56,326,41,75,09,151,41*6A
$GLGSV,2,2,07,88,20,243,41,87,60,302,41,71,01,080,*52
$GAGSV,1,1,0,7*43
$PQGSV,1,1,0,0*43
$PQGSV,1,1,02,12,61,307,,13,33,199,*6E
$GLGSA,A,3,75,77,78,86,87,88,,,,,,,1.4,1.1,0.8*2F
$GPVTG,,T,,M,0.0,N,0.0,K,A*23
$GPDTM,P90,,0000.000022,S,00000.000001,W,0.988,W84*5A
$GPRMC,000454.00,A,2959.999152,N,11959.998961,E,0.0,,230721,4.3,W,A*05
$GPGGA,000454.00,2959.999152,N,11959.998961,E,1,06,1.1,-17.4,M,7.0,M,,*4C

$GPGSV,3,1,12,02,32,296,,04,49,243,,07,83,097,,08,48,206,*78
$GPGSV,3,2,12,10,01,310,,13,47,032,,16,00,000,,20,20,122,*7F
$GPGSV,3,3,12,23,25,057,,25,64,040,,27,18,219,,28,00,000,*73
$GLGSV,2,1,07,78,07,330,41,86,33,025,41,77,56,326,41,75,09,151,41*6A
$GLGSV,2,2,07,88,20,243,41,87,60,302,41,71,01,080,*52
$GAGSV,1,1,0,7*43
$PQGSV,1,1,0,0*43
$PQGSV,1,1,02,12,61,307,,13,33,199,*6E
$GLGSA,A,3,75,77,78,86,87,88,,,,,,,1.4,1.1,0.8*2F
$GPVTG,,T,,M,0.0,N,0.0,K,A*23
$GPDTM,P90,,0000.000022,S,00000.000001,W,0.988,W84*5A
$GPRMC,000455.00,A,2959.999150,N,11959.999060,E,0.0,,230721,4.3,W,A*0F
$GPGGA,000455.00,2959.999150,N,11959.999060,E,1,06,1.1,-17.5,M,7.0,M,,*47

$GPGSV,3,1,12,02,32,296,,04,49,243,,07,83,097,,08,48,206,*78
$GPGSV,3,2,12,10,01,310,,13,47,032,,16,00,000,,20,20,122,*7F
$GPGSV,3,3,12,23,25,057,,25,64,040,,27,18,219,,28,00,000,*73
$GLGSV,2,1,07,78,07,330,41,86,33,025,41,77,56,326,41,75,09,151,41*6A
$GLGSV,2,2,07,88,20,243,41,87,60,302,41,71,01,080,*52
$GAGSV,1,1,0,7*43
$PQGSV,1,1,0,0*43
$PQGSV,1,1,02,12,61,307,,13,33,199,*6E
$GLGSA,A,3,75,77,78,86,87,88,,,,,,,1.4,1.1,0.8*2F
$GPVTG,,T,,M,0.0,N,0.0,K,A*23
$GPDTM,P90,,0000.000022,S,00000.000001,W,0.988,W84*5A
$GPRMC,000456.00,A,2959.999238,N,11959.999029,E,0.0,,230721,4.3,W,A*0C
$GPGGA,000456.00,2959.999238,N,11959.999029,E,1,06,1.1,-17.6,M,7.0,M,,*47

$GPGSV,3,1,12,02,32,296,,04,49,243,,07,83,097,,08,48,206,*78
$GPGSV,3,2,12,10,01,310,,13,47,032,,16,00,000,,20,20,122,*7F
$GPGSV,3,3,12,23,25,057,,25,64,040,,27,18,219,,28,00,000,*73
$GLGSV,2,1,07,78,07,330,41,86,33,025,41,77,56,326,41,75,09,151,41*6A
$GLGSV,2,2,07,88,20,243,41,87,60,302,41,71,01,080,*52
$GAGSV,1,1,0,7*43
$PQGSV,1,1,0,0*43
$PQGSV,1,1,02,12,61,307,,13,33,199,*6E
$GLGSA,A,3,75,77,78,86,87,88,,,,,,,1.4,1.1,0.8*2F
$GPVTG,,T,,M,0.0,N,0.0,K,A*23
$GPDTM,P90,,0000.000022,S,00000.000001,W,0.988,W84*5A
$GPRMC,000457.00,A,2959.999140,N,11959.998970,E,0.0,,230721,4.3,W,A*05
$GPGGA,000457.00,2959.999140,N,11959.998970,E,1,06,1.1,-17.6,M,7.0,M,,*4E

$GPGSV,3,1,12,02,32,296,,04,49,243,,07,83,097,,08,48,206,*78
$GPGSV,3,2,12,10,01,310,,13,47,032,,16,00,000,,20,20,122,*7F
$GPGSV,3,3,12,23,25,057,,25,64,040,,27,18,219,,28,00,000,*73
$GLGSV,2,1,07,78,07,330,41,86,33,025,41,77,56,326,41,75,09,151,41*6A
$GLGSV,2,2,07,88,20,243,41,87,60,302,41,71,01,080,*52
$GAGSV,1,1,0,7*43
$PQGSV,1,1,0,0*43
$PQGSV,1,1,02,12,61,307,,13,33,199,*6E
$GLGSA,A,3,75,77,78,86,87,88,,,,,,,1.4,1.1,0.8*2F
$GPVTG,,T,,M,0.0,N,0.0,K,A*23
$GPDTM,P90,,0000.000022,S,00000.000001,W,0.988,W84*5A
$GPRMC,000458.00,A,2959.999001,N,11959.998950,E,0.0,,230721,4.3,W,A*0C
$GPGGA,000458.00,2959.999001,N,11959.998950,E,1,06,1.1,-17.5,M,7.0,M,,*44

$GPGSV,3,1,12,02,32,296,,04,49,243,,07,83,097,,08,48,206,*78
$GPGSV,3,2,12,10,01,310,,13,47,032,,16,00,000,,20,20,122,*7F
$GPGSV,3,3,12,23,25,057,,25,64,040,,27,18,219,,28,00,000,*73
$GLGSV,2,1,07,78,07,330,41,86,33,025,41,77,56,326,41,75,09,151,41*6A
$GLGSV,2,2,07,88,20,243,41,87,60,302,41,71,01,080,*52
$GAGSV,1,1,0,7*43
$PQGSV,1,1,0,0*43
$PQGSV,1,1,02,12,61,307,,13,33,199,*6E
$GLGSA,A,3,75,77,78,86,87,88,,,,,,,1.4,1.1,0.8*2F
$GPVTG,,T,,M,0.0,N,0.0,K,A*23
$GPDTM,P90,,0000.000022,S,00000.000001,W,0.988,W84*5A
$GPRMC,000459.00,A,2959.998918,N,11959.999050,E,0.0,,230721,4.3,W,A*05
$GPGGA,000459.00,2959.998918,N,11959.999050,E,1,06,1.1,-17.7,M,7.0,M,,*4F

$GPGSV,3,1,12,02,32,296,,04,49,243,,07,83,097,,08,48,206,*78
$GPGSV,3,2,12,10,01,310,,13,47,032,,16,00,000,,20,20,122,*7F
$GPGSV,3,3,12,23,25,057,,25,64,040,,27,18,219,,28,00,000,*73
$GLGSV,2,1,07,78,07,330,41,86,33,025,41,77,56,326,41,75,09,151,41*6A
$GLGSV,2,2,07,88,20,243,41,87,60,302,41,71,01,080,*52
$GAGSV,1,1,0,7*43
$PQGSV,1,1,0,0*43
$PQGSV,1,1,02,12,61,307,,13,33,199,*6E
$GLGSA,A,3,75,77,78,86,87,88,,,,,,,1.4,1.1,0.8*2F
$GPVTG,,T,,M,0.0,N,0.0,K,A*23
$GPDTM,P90,,0000.000022,S,00000.000001,W,0.988,W84*5A
$GPRMC,000500.00,A,2959.998904,N,11959.998997,E,0.0,,230721,4.3,W,A*06
$GPGGA,000500.00,2959.998904,N,11959.998997,E,1,06,1.1,-17.1,M,7.0,M,,*4A

$GPGSV,3,1,12,02,32,296,,04,49,243,,07,83,097,,08,48,206,*78
$GPGSV,3,2,12,10,01,310,,13,47,032,,16,00,000,,20,20,122,*7F
$GPGSV,3,3,12,23,25,057,,25,64,040,,27,18,219,,28,00,000,*73
$GLGSV,2,1,07,78,07,330,41,86,33,025,41,77,56,326,41,75,09,151,41*6A
$GLGSV,2,2,07,88,20,243,41,87,60,302,41,71,01,080,*52
$GAGSV,1,1,0,7*43
$PQGSV,1,1,0,0*43
$PQGSV,1,1,02,12,61,307,,13,33,199,*6E
$GLGSA,A,3,75,77,78,86,87,88,,,,,,,1.4,1.1,0.8*2F
$GPVTG,,T,,M,0.0,N,0.0,K,A*23
$GPDTM,P90,,0000.000022,S,00000.000001,W,0.988,W84*5A
$GPRMC,000501.00,A,2959.998963,N,11959.998898,E,0.0,,230721,4.3,W,A*08
$GPGGA,000501.00,2959.998963,N,11959.998898,E,1,06,1.1,-17.0,M,7.0,M,,*45

$GPGSV,3,1,12,02,32,296,,04,49,243,,07,83,097,,08,48,206,*78
$GPGSV,3,2,12,10,01,310,,13,47,032,,16,00,000,,20,20,122,*7F
$GPGSV,3,3,12,23,25,057,,25,64,040,,27,18,219,,28,00,000,*73
$GLGSV,2,1,07,78,07,330,41,86,33,025,41,77,56,326,41,75,09,151,41*6A
$GLGSV,2,2,07,88,20,243,41,87,60,302,41,71,01,080,*52
$GAGSV,1,1,0,7*43
$PQGSV,1,1,0,0*43
$PQGSV,1,1,02,12,61,307,,13,33,199,*6E
$GLGSA,A,3,75,77,78,86,87,88,,,,,,,1.4,1.1,0.8*2F
$GPVTG,,T,,M,0.0,N,0.0,K,A*23
$GPDTM,P90,,0000.000022,S,00000.000001,W,0.988,W84*5A
$GPRMC,000502.00,A,2959.999007,N,11959.998796,E,0.0,,230721,4.3,W,A*00
$GPGGA,000502.00,2959.999007,N,11959.998796,E,1,06,1.1,-16.9,M,7.0,M,,*45

$GPGSV,3,1,12,02,32,296,,04,49,243,,07,83,097,,08,48,206,*78
$GPGSV,3,2,12,10,01,310,,13,47,032,,16,00,000,,20,20,122,*7F
$GPGSV,3,3,12,23,25,057,,25,64,040,,27,18,219,,28,00,000,*73
$GLGSV,2,1,07,78,07,330,41,86,33,025,41,77,56,326,41,75,09,151,41*6A
$GLGSV,2,2,07,88,20,243,41,87,60,302,41,71,01,080,*52
$GAGSV,1,1,0,7*43
$PQGSV,1,1,0,0*43
$PQGSV,1,1,02,12,61,307,,13,33,199,*6E
$GLGSA,A,3,75,77,78,86,87,88,,,,,,,1.4,1.1,0.8*2F
$GPVTG,,T,,M,0.0,N,0.0,K,A*23
$GPDTM,P90,,0000.000022,S,00000.000001,W,0.988,W84*5A
$GPRMC,000503.00,A,2959.998912,N,11959.998838,E,0.0,,230721,4.3,W,A*06
$GPGGA,000503.00,2959.998912,N,11959.998838,E,1,06,1.1,-16.7,M,7.0,M,,*4D

$GPGSV,3,1,12,02,32,296,,04,49,243,,07,83,097,,08,48,206,*78
$GPGSV,3,2,12,10,01,310,,13,47,032,,16,00,000,,20,20,122,*7F
$GPGSV,3,3,12,23,25,057,,25,64,040,,27,18,219,,28,00,000,*73
$GLGSV,2,1,07,78,07,330,41,86,33,025,41,77,56,326,41,75,09,151,41*6A
$GLGSV,2,2,07,88,20,243,41,87,60,302,41,71,01,080,*52
$GAGSV,1,1,0,7*43
$PQGSV,1,1,0,0*43
$PQGSV,1,1,02,12,61,307,,13,33,199,*6E
$GLGSA,A,3,75,77,78,86,87,88,,,,,,,1.4,1.1,0.8*2F
$GPVTG,,T,,M,0.0,N,0.0,K,A*23
$GPDTM,P90,,0000.000022,S,00000.000001,W,0.988,W84*5A
$GPRMC,000504.00,A,2959.998813,N,11959.998999,E,0.0,,230721,4.3,W,A*0B
$GPGGA,000504.00,2959.998813,N,11959.998999,E,1,06,1.1,-16.5,M,7.0,M,,*42

$GPGSV,3,1,12,02,32,296,,04,49,243,,07,83,097,,08,48,206,*78
$GPGSV,3,2,12,10,01,310,,13,47,032,,16,00,000,,20,20,122,*7F
$GPGSV,3,3,12,23,25,057,,25,64,040,,27,18,219,,28,00,000,*73
$GLGSV,2,1,07,78,07,330,41,86,33,025,41,77,56,326,41,75,09,151,41*6A
$GLGSV,2,2,07,88,20,243,41,87,60,302,41,71,01,080,*52
$GAGSV,1,1,0,7*43
$PQGSV,1,1,0,0*43
$PQGSV,1,1,02,12,61,307,,13,33,199,*6E
$GLGSA,A,3,75,77,78,86,87,88,,,,,,,1.4,1.1,0.8*2F
$GPVTG,,T,,M,0.0,N,0.0,K,A*23
$GPDTM,P90,,0000.000022,S,00000.000001,W,0.988,W84*5A
$GPRMC,000505.00,A,2959.998783,N,11959.999014,E,0.0,,230721,4.3,W,A*01
$GPGGA,000505.00,2959.998783,N,11959.999014,E,1,06,1.1,-16.3,M,7.0,M,,*4E

$GPGSV,3,1,12,02,32,296,,04,49,243,,07,83,097,,08,48,206,*78
$GPGSV,3,2,12,10,01,310,,13,47,032,,16,00,000,,20,20,122,*7F
$GPGSV,3,3,12,23,25,057,,25,64,040,,27,18,219,,28,00,000,*73
$GLGSV,2,1,07,78,07,330,41,86,33,025,41,77,56,326,41,75,09,151,41*6A
$GLGSV,2,2,07,88,20,243,41,87,60,302,41,71,01,080,*52
$GAGSV,1,1,0,7*43
$PQGSV,1,1,0,0*43
$PQGSV,1,1,02,12,61,307,,13,33,199,*6E
$GLGSA,A,3,75,77,78,86,87,88,,,,,,,1.4,1.1,0.8*2F
$GPVTG,,T,,M,0.0,N,0.0,K,A*23
$GPDTM,P90,,0000.000022,S,00000.000001,W,0.988,W84*5A
$GPRMC,000506.00,A,2959.998740,N,11959.999108,E,0.0,,230721,4.3,W,A*01
$GPGGA,000506.00,2959.998740,N,11959.999108,E,1,06,1.1,-16.2,M,7.0,M,,*4F

$GPGSV,3,1,12,02,32,296,,04,49,243,,07,83,097,,08,48,206,*78
$GPGSV,3,2,12,10,01,310,,13,47,032,,16,00,000,,20,20,122,*7F
$GPGSV,3,3,12,23,25,057,,25,64,040,,27,18,219,,28,00,000,*73
$GLGSV,2,1,07,78,07,330,41,86,33,025,41,77,56,326,41,75,09,151,41*6A
$GLGSV,2,2,07,88,20,243,41,87,60,302,41,71,01,080,*52
$GAGSV,1,1,0,7*43
$PQGSV,1,1,0,0*43
$PQGSV,1,1,02,12,61,307,,13,33,199,*6E
$GLGSA,A,3,75,77,78,86,87,88,,,,,,,1.4,1.1,0.8*2F
$GPVTG,,T,,M,0.0,N,0.0,K,A*23
$GPDTM,P90,,0000.000022,S,00000.000001,W,0.988,W84*5A
$GPRMC,000507.00,A,2959.998699,N,11959.999228,E,0.0,,230721,4.3,W,A*04
$GPGGA,000507.00,2959.998699,N,11959.999228,E,1,06,1.1,-15.9,M,7.0,M,,*42

$GPGSV,3,1,12,02,32,296,,04,49,243,,07,83,097,,08,48,206,*78
$GPGSV,3,2,12,10,01,310,,13,47,032,,16,00,000,,20,20,122,*7F
$GPGSV,3,3,12,23,25,057,,25,64,040,,27,18,219,,28,00,000,*73
$GLGSV,2,1,07,78,07,330,41,86,33,025,41,77,56,326,41,75,09,151,41*6A
$GLGSV,2,2,07,88,20,243,41,87,60,302,41,71,01,080,*52
$GAGSV,1,1,0,7*43
$PQGSV,1,1,0,0*43
$PQGSV,1,1,02,12,61,307,,13,33,199,*6E
$GLGSA,A,3,75,77,78,86,87,88,,,,,,,1.4,1.1,0.8*2F
$GPVTG,,T,,M,0.0,N,0.0,K,A*23
$GPDTM,P90,,0000.000022,S,00000.000001,W,0.988,W84*5A
$GPRMC,000508.00,A,2959.998783,N,11959.999257,E,0.0,,230721,4.3,W,A*09
$GPGGA,000508.00,2959.998783,N,11959.999257,E,1,06,1.1,-15.8,M,7.0,M,,*4E

$GPGSV,3,1,12,02,32,296,,04,49,243,,07,83,097,,08,48,206,*78
$GPGSV,3,2,12,10,01,310,,13,47,032,,16,00,000,,20,20,122,*7F
$GPGSV,3,3,12,23,25,057,,25,64,040,,27,18,219,,28,00,000,*73
$GLGSV,2,1,07,78,07,330,41,86,33,025,41,77,56,326,41,75,09,151,41*6A
$GLGSV,2,2,07,88,20,243,41,87,60,302,41,71,01,080,*52
$GAGSV,1,1,0,7*43
$PQGSV,1,1,0,0*43
$PQGSV,1,1,02,12,61,307,,13,33,199,*6E
$GLGSA,A,3,75,77,78,86,87,88,,,,,,,1.4,1.1,0.8*2F
$GPVTG,,T,,M,0.0,N,0.0,K,A*23
$GPDTM,P90,,0000.000022,S,00000.000001,W,0.988,W84*5A
$GPRMC,000509.00,A,2959.998792,N,11959.999452,E,0.0,,230721,4.3,W,A*0B
$GPGGA,000509.00,2959.998792,N,11959.999452,E,1,06,1.1,-16.0,M,7.0,M,,*47

$GPGSV,3,1,12,02,32,296,,04,49,243,,07,83,097,,08,48,206,*78
$GPGSV,3,2,12,10,01,310,,13,47,032,,16,00,000,,20,20,122,*7F
$GPGSV,3,3,12,23,25,057,,25,64,040,,27,18,219,,28,00,000,*73
$GLGSV,2,1,07,78,07,330,41,86,33,025,41,77,56,326,41,75,09,151,41*6A
$GLGSV,2,2,07,88,20,243,41,87,60,302,41,71,01,080,*52
$GAGSV,1,1,0,7*43
$PQGSV,1,1,0,0*43
$PQGSV,1,1,02,12,61,307,,13,33,199,*6E
$GLGSA,A,3,75,77,78,86,87,88,,,,,,,1.4,1.1,0.8*2F
$GPVTG,,T,,M,0.0,N,0.0,K,A*23
$GPDTM,P90,,0000.000022,S,00000.000001,W,0.988,W84*5A
$GPRMC,000510.00,A,2959.998750,N,11959.999532,E,0.0,,230721,4.3,W,A*0A
$GPGGA,000510.00,2959.998750,N,11959.999532,E,1,06,1.1,-16.3,M,7.0,M,,*45

$GPGSV,3,1,12,02,32,296,,04,49,243,,07,83,097,,08,48,206,*78
$GPGSV,3,2,12,10,01,310,,13,47,032,,16,00,000,,20,20,122,*7F
$GPGSV,3,3,12,23,25,057,,25,64,040,,27,18,219,,28,00,000,*73
$GLGSV,2,1,07,78,07,330,41,86,31,025,41,77,57,324,41,75,09,153,41*69
$GLGSV,2,2,07,88,21,244,41,87,60,303,41,71,02,078,*51
$GAGSV,1,1,0,7*43
$PQGSV,1,1,0,0*43
$PQGSV,1,1,02,12,61,307,,13,33,199,*6E
$GLGSA,A,3,75,77,78,86,87,88,,,,,,,1.4,1.1,0.8*2F
$GPVTG,,T,,M,0.0,N,0.0,K,A*23
$GPDTM,P90,,0000.000022,S,00000.000001,W,0.988,W84*5A
$GPRMC,000511.00,A,2959.998738,N,11959.999585,E,0.0,,230721,4.3,W,A*09
$GPGGA,000511.00,2959.998738,N,11959.999585,E,1,06,1.1,-16.4,M,7.0,M,,*41

$GPGSV,3,1,12,02,32,296,,04,49,243,,07,83,097,,08,48,206,*78
$GPGSV,3,2,12,10,01,310,,13,47,032,,16,00,000,,20,20,122,*7F
$GPGSV,3,3,12,23,25,057,,25,64,040,,27,18,219,,28,00,000,*73
$GLGSV,2,1,07,78,07,330,41,86,31,025,41,77,57,324,41,75,09,153,41*69
$GLGSV,2,2,07,88,21,244,41,87,60,303,41,71,02,078,*51
$GAGSV,1,1,0,7*43
$PQGSV,1,1,0,0*43
$PQGSV,1,1,02,12,61,307,,13,33,199,*6E
$GLGSA,A,3,75,77,78,86,87,88,,,,,,,1.4,1.1,0.8*2F
$GPVTG,,T,,M,0.0,N,0.0,K,A*23
$GPDTM,P90,,0000.000022,S,00000.000001,W,0.988,W84*5A
$GPRMC,000512.00,A,2959.998672,N,11959.999572,E,0.0,,230721,4.3,W,A*0D
$GPGGA,000512.00,2959.998672,N,11959.999572,E,1,06,1.1,-16.3,M,7.0,M,,*42

$GPGSV,3,1,12,02,32,296,,04,49,243,,07,83,097,,08,48,206,*78
$GPGSV,3,2,12,10,01,310,,13,47,032,,16,00,000,,20,20,122,*7F
$GPGSV,3,3,12,23,25,057,,25,64,040,,27,18,219,,28,00,000,*73
$GLGSV,2,1,07,78,07,330,41,86,31,025,41,77,57,324,41,75,09,153,41*69
$GLGSV,2,2,07,88,21,244,41,87,60,303,41,71,02,078,*51
$GAGSV,1,1,0,7*43
$PQGSV,1,1,0,0*43
$PQGSV,1,1,02,12,61,307,,13,33,199,*6E
$GLGSA,A,3,75,77,78,86,87,88,,,,,,,1.4,1.1,0.8*2F
$GPVTG,,T,,M,0.0,N,0.0,K,A*23
$GPDTM,P90,,0000.000022,S,00000.000001,W,0.988,W84*5A
$GPRMC,000513.00,A,2959.998609,N,11959.999525,E,0.0,,230721,4.3,W,A*02
$GPGGA,000513.00,2959.998609,N,11959.999525,E,1,06,1.1,-15.9,M,7.0,M,,*44

$GPGSV,3,1,12,02,32,296,,04,49,243,,07,83,097,,08,48,206,*78
$GPGSV,3,2,12,10,01,310,,13,47,032,,16,00,000,,20,20,122,*7F
$GPGSV,3,3,12,23,25,057,,25,64,040,,27,18,219,,28,00,000,*73
$GLGSV,2,1,07,78,07,330,41,86,31,025,41,77,57,324,41,75,09,153,41*69
$GLGSV,2,2,07,88,21,244,41,87,60,303,41,71,02,078,*51
$GAGSV,1,1,0,7*43
$PQGSV,1,1,0,0*43
$PQGSV,1,1,02,12,61,307,,13,33,199,*6E
$GLGSA,A,3,75,77,78,86,87,88,,,,,,,1.4,1.1,0.8*2F
$GPVTG,,T,,M,0.0,N,0.0,K,A*23
$GPDTM,P90,,0000.000022,S,00000.000001,W,0.988,W84*5A
$GPRMC,000514.00,A,2959.998701,N,11959.999550,E,0.0,,230721,4.3,W,A*0E
$GPGGA,000514.00,2959.998701,N,11959.999550,E,1,06,1.1,-15.9,M,7.0,M,,*48

$GPGSV,3,1,12,02,32,296,,04,49,243,,07,83,097,,08,48,206,*78
$GPGSV,3,2,12,10,01,310,,13,47,032,,16,00,000,,20,20,122,*7F
$GPGSV,3,3,12,23,25,057,,25,64,040,,27,18,219,,28,00,000,*73
$GLGSV,2,1,07,78,07,330,41,86,31,025,41,77,57,324,41,75,09,153,41*69
$GLGSV,2,2,07,88,21,244,41,87,60,303,41,71,02,078,*51
$GAGSV,1,1,0,7*43
$PQGSV,1,1,0,0*43
$PQGSV,1,1,02,12,61,307,,13,33,199,*6E
$GLGSA,A,3,75,77,78,86,87,88,,,,,,,1.4,1.1,0.8*2F
$GPVTG,,T,,M,0.0,N,0.0,K,A*23
$GPDTM,P90,,0000.000022,S,00000.000001,W,0.988,W84*5A
$GPRMC,000515.00,A,2959.998690,N,11959.999334,E,0.0,,230721,4.3,W,A*02
$GPGGA,000515.00,2959.998690,N,11959.999334,E,1,06,1.1,-15.8,M,7.0,M,,*45

$GPGSV,3,1,12,02,32,296,,04,49,243,,07,83,097,,08,48,206,*78
$GPGSV,3,2,12,10,01,310,,13,47,032,,16,00,000,,20,20,122,*7F
$GPGSV,3,3,12,23,25,057,,25,64,040,,27,18,219,,28,00,000,*73
$GLGSV,2,1,07,78,07,330,41,86,31,025,41,77,57,324,41,75,09,153,41*69
$GLGSV,2,2,07,88,21,244,41,87,60,303,41,71,02,078,*51
$GAGSV,1,1,0,7*43
$PQGSV,1,1,0,0*43
$PQGSV,1,1,02,12,61,307,,13,33,199,*6E
$GLGSA,A,3,75,77,78,86,87,88,,,,,,,1.4,1.1,0.8*2F
$GPVTG,,T,,M,0.0,N,0.0,K,A*23
$GPDTM,P90,,0000.000022,S,00000.000001,W,0.988,W84*5A
$GPRMC,000516.00,A,2959.998629,N,11959.999282,E,0.0,,230721,4.3,W,A*0F
$GPGGA,000516.00,2959.998629,N,11959.999282,E,1,06,1.1,-15.7,M,7.0,M,,*47

$GPGSV,3,1,12,02,32,296,,04,49,243,,07,83,097,,08,48,206,*78
$GPGSV,3,2,12,10,01,310,,13,47,032,,16,00,000,,20,20,122,*7F
$GPGSV,3,3,12,23,25,057,,25,64,040,,27,18,219,,28,00,000,*73
$GLGSV,2,1,07,78,07,330,41,86,31,025,41,77,57,324,41,75,09,153,41*69
$GLGSV,2,2,07,88,21,244,41,87,60,303,41,71,02,078,*51
$GAGSV,1,1,0,7*43
$PQGSV,1,1,0,0*43
$PQGSV,1,1,02,12,61,307,,13,33,199,*6E
$GLGSA,A,3,75,77,78,86,87,88,,,,,,,1.4,1.1,0.8*2F
$GPVTG,,T,,M,0.0,N,0.0,K,A*23
$GPDTM,P90,,0000.000022,S,00000.000001,W,0.988,W84*5A
$GPRMC,000517.00,A,2959.998631,N,11959.999356,E,0.0,,230721,4.3,W,A*0F
$GPGGA,000517.00,2959.998631,N,11959.999356,E,1,06,1.1,-15.5,M,7.0,M,,*45

$GPGSV,3,1,12,02,32,296,,04,49,243,,07,83,097,,08,48,206,*78
$GPGSV,3,2,12,10,01,310,,13,47,032,,16,00,000,,20,20,122,*7F
$GPGSV,3,3,12,23,25,057,,25,64,040,,27,18,219,,28,00,000,*73
$GLGSV,2,1,07,78,07,330,41,86,31,025,41,77,57,324,41,75,09,153,41*69
$GLGSV,2,2,07,88,21,244,41,87,60,303,41,71,02,078,*51
$GAGSV,1,1,0,7*43
$PQGSV,1,1,0,0*43
$PQGSV,1,1,02,12,61,307,,13,33,199,*6E
$GLGSA,A,3,75,77,78,86,87,88,,,,,,,1.4,1.1,0.8*2F
$GPVTG,,T,,M,0.0,N,0.0,K,A*23
$GPDTM,P90,,0000.000022,S,00000.000001,W,0.988,W84*5A
$GPRMC,000518.00,A,2959.998696,N,11959.999275,E,0.0,,230721,4.3,W,A*0D
$GPGGA,000518.00,2959.998696,N,11959.999275,E,1,06,1.1,-15.7,M,7.0,M,,*45

$GPGSV,3,1,12,02,32,296,,04,49,243,,07,83,097,,08,48,206,*78
$GPGSV,3,2,12,10,01,310,,13,47,032,,16,00,000,,20,20,122,*7F
$GPGSV,3,3,12,23,25,057,,25,64,040,,27,18,219,,28,00,000,*73
$GLGSV,2,1,07,78,07,330,41,86,31,025,41,77,57,324,41,75,09,153,41*69
$GLGSV,2,2,07,88,21,244,41,87,60,303,41,71,02,078,*51
$GAGSV,1,1,0,7*43
$PQGSV,1,1,0,0*43
$PQGSV,1,1,02,12,61,307,,13,33,199,*6E
$GLGSA,A,3,75,77,78,86,87,88,,,,,,,1.4,1.1,0.8*2F
$GPVTG,,T,,M,0.0,N,0.0,K,A*23
$GPDTM,P90,,0000.000022,S,00000.000001,W,0.988,W84*5A
$GPRMC,000519.00,A,2959.998784,N,11959.999333,E,0.0,,230721,4.3,W,A*0D
$GPGGA,000519.00,2959.998784,N,11959.999333,E,1,06,1.1,-15.8,M,7.0,M,,*4A

$GPGSV,3,1,12,02,32,296,,04,49,243,,07,83,097,,08,48,206,*78
$GPGSV,3,2,12,10,01,310,,13,47,032,,16,00,000,,20,20,122,*7F
$GPGSV,3,3,12,23,25,057,,25,64,040,,27,18,219,,28,00,000,*73
$GLGSV,2,1,07,78,07,330,41,86,31,025,41,77,57,324,41,75,09,153,41*69
$GLGSV,2,2,07,88,21,244,41,87,60,303,41,71,02,078,*51
$GAGSV,1,1,0,7*43
$PQGSV,1,1,0,0*43
$PQGSV,1,1,02,12,61,307,,13,33,199,*6E
$GLGSA,A,3,75,77,78,86,87,88,,,,,,,1.4,1.1,0.8*2F
$GPVTG,,T,,M,0.0,N,0.0,K,A*23
$GPDTM,P90,,0000.000022,S,00000.000001,W,0.988,W84*5A
$GPRMC,000520.00,A,2959.998881,N,11959.999156,E,0.0,,230721,4.3,W,A*0C
$GPGGA,000520.00,2959.998881,N,11959.999156,E,1,06,1.1,-16.1,M,7.0,M,,*41

$GPGSV,3,1,12,02,32,296,,04,49,243,,07,83,097,,08,48,206,*78
$GPGSV,3,2,12,10,01,310,,13,47,032,,16,00,000,,20,20,122,*7F
$GPGSV,3,3,12,23,25,057,,25,64,040,,27,18,219,,28,00,000,*73
$GLGSV,2,1,07,78,07,330,41,86,31,025,41,77,57,324,41,75,09,153,41*69
$GLGSV,2,2,07,88,21,244,41,87,60,303,41,71,02,078,*51
$GAGSV,1,1,0,7*43
$PQGSV,1,1,0,0*43
$PQGSV,1,1,02,12,61,309,,13,33,201,*62
$GLGSA,A,3,75,77,78,86,87,88,,,,,,,1.4,1.1,0.8*2F
$GPVTG,,T,,M,0.0,N,0.0,K,A*23
$GPDTM,P90,,0000.000022,S,00000.000001,W,0.988,W84*5A
$GPRMC,000521.00,A,2959.998936,N,11959.999081,E,0.0,,230721,4.3,W,A*0B
$GPGGA,000521.00,2959.998936,N,11959.999081,E,1,06,1.1,-16.1,M,7.0,M,,*46

$GPGSV,3,1,12,02,32,296,,04,49,243,,07,83,097,,08,48,206,*78
$GPGSV,3,2,12,10,01,310,,13,47,032,,16,00,000,,20,20,122,*7F
$GPGSV,3,3,12,23,25,057,,25,64,040,,27,18,219,,28,00,000,*73
$GLGSV,2,1,07,78,07,330,41,86,31,025,41,77,57,324,41,75,09,153,41*69
$GLGSV,2,2,07,88,21,244,41,87,60,303,41,71,02,078,*51
$GAGSV,1,1,0,7*43
$PQGSV,1,1,0,0*43
$PQGSV,1,1,02,12,61,309,,13,33,201,*62
$GLGSA,A,3,75,77,78,86,87,88,,,,,,,1.4,1.1,0.8*2F
$GPVTG,,T,,M,0.0,N,0.0,K,A*23
$GPDTM,P90,,0000.000022,S,00000.000001,W,0.988,W84*5A
$GPRMC,000522.00,A,2959.998976,N,11959.999110,E,0.0,,230721,4.3,W,A*05
$GPGGA,000522.00,2959.998976,N,11959.999110,E,1,06,1.1,-16.1,M,7.0,M,,*48

$GPGSV,3,1,12,02,32,296,,04,49,243,,07,83,097,,08,48,206,*78
$GPGSV,3,2,12,10,01,310,,13,47,032,,16,00,000,,20,20,122,*7F
$GPGSV,3,3,12,23,25,057,,25,64,040,,27,18,219,,28,00,000,*73
$GLGSV,2,1,07,78,07,330,41,86,31,025,41,77,57,324,41,75,09,153,41*69
$GLGSV,2,2,07,88,21,244,41,87,60,303,41,71,02,078,*51
$GAGSV,1,1,0,7*43
$PQGSV,1,1,0,0*43
$PQGSV,1,1,02,12,61,309,,13,33,201,*62
$GLGSA,A,3,75,77,78,86,87,88,,,,,,,1.4,1.1,0.8*2F
$GPVTG,,T,,M,0.0,N,0.0,K,A*23
$GPDTM,P90,,0000.000022,S,00000.000001,W,0.988,W84*5A
$GPRMC,000523.00,A,2959.998791,N,11959.999015,E,0.0,,230721,4.3,W,A*07
$GPGGA,000523.00,2959.998791,N,11959.999015,E,1,06,1.1,-16.1,M,7.0,M,,*4A

$GPGSV,3,1,12,02,32,296,,04,49,243,,07,83,097,,08,48,206,*78
$GPGSV,3,2,12,10,01,310,,13,47,032,,16,00,000,,20,20,122,*7F
$GPGSV,3,3,12,23,25,057,,25,64,040,,27,18,219,,28,00,000,*73
$GLGSV,2,1,07,78,07,330,41,86,31,025,41,77,57,324,41,75,09,153,41*69
$GLGSV,2,2,07,88,21,244,41,87,60,303,41,71,02,078,*51
$GAGSV,1,1,0,7*43
$PQGSV,1,1,0,0*43
$PQGSV,1,1,02,12,61,309,,13,33,201,*62
$GLGSA,A,3,75,77,78,86,87,88,,,,,,,1.4,1.1,0.8*2F
$GPVTG,,T,,M,0.0,N,0.0,K,A*23
$GPDTM,P90,,0000.000022,S,00000.000001,W,0.988,W84*5A
$GPRMC,000524.00,A,2959.998754,N,11959.999040,E,0.0,,230721,4.3,W,A*09
$GPGGA,000524.00,2959.998754,N,11959.999040,E,1,06,1.1,-16.2,M,7.0,M,,*47

$GPGSV,3,1,12,02,32,296,,04,49,243,,07,83,097,,08,48,206,*78
$GPGSV,3,2,12,10,01,310,,13,47,032,,16,00,000,,20,20,122,*7F
$GPGSV,3,3,12,23,25,057,,25,64,040,,27,18,219,,28,00,000,*73
$GLGSV,2,1,07,78,07,330,41,86,31,025,41,77,57,324,41,75,09,153,41*69
$GLGSV,2,2,07,88,21,244,41,87,60,303,41,71,02,078,*51
$GAGSV,1,1,0,7*43
$PQGSV,1,1,0,0*43
$PQGSV,1,1,02,12,61,309,,13,33,201,*62
$GLGSA,A,3,75,77,78,86,87,88,,,,,,,1.4,1.1,0.8*2F
$GPVTG,,T,,M,0.0,N,0.0,K,A*23
$GPDTM,P90,,0000.000022,S,00000.000001,W,0.988,W84*5A
$GPRMC,000525.00,A,2959.998771,N,11959.999155,E,0.0,,230721,4.3,W,A*0A
$GPGGA,000525.00,2959.998771,N,11959.999155,E,1,06,1.1,-15.9,M,7.0,M,,*4C

$GPGSV,3,1,12,02,32,296,,04,49,243,,07,83,097,,08,48,206,*78
$GPGSV,3,2,12,10,01,310,,13,47,032,,16,00,000,,20,20,122,*7F
$GPGSV,3,3,12,23,25,057,,25,64,040,,27,18,219,,28,00,000,*73
$GLGSV,2,1,07,78,07,330,41,86,31,025,41,77,57,324,41,75,09,153,41*69
$GLGSV,2,2,07,88,21,244,41,87,60,303,41,71,02,078,*51
$GAGSV,1,1,0,7*43
$PQGSV,1,1,0,0*43
$PQGSV,1,1,02,12,61,309,,13,33,201,*62
$GLGSA,A,3,75,77,78,86,87,88,,,,,,,1.4,1.1,0.8*2F
$GPVTG,,T,,M,0.0,N,0.0,K,A*23
$GPDTM,P90,,0000.000022,S,00000.000001,W,0.988,W84*5A
$GPRMC,000526.00,A,2959.998780,N,11959.999102,E,0.0,,230721,4.3,W,A*05
$GPGGA,000526.00,2959.998780,N,11959.999102,E,1,06,1.1,-16.5,M,7.0,M,,*4C

$GPGSV,3,1,12,02,32,296,,04,49,243,,07,83,097,,08,48,206,*78
$GPGSV,3,2,12,10,01,310,,13,47,032,,16,00,000,,20,20,122,*7F
$GPGSV,3,3,12,23,25,057,,25,64,040,,27,18,219,,28,00,000,*73
$GLGSV,2,1,07,78,07,330,41,86,31,025,41,77,57,324,41,75,09,153,41*69
$GLGSV,2,2,07,88,21,244,41,87,60,303,41,71,02,078,*51
$GAGSV,1,1,0,7*43
$PQGSV,1,1,0,0*43
$PQGSV,1,1,02,12,61,309,,13,33,201,*62
$GLGSA,A,3,75,77,78,86,87,88,,,,,,,1.4,1.1,0.8*2F
$GPVTG,,T,,M,0.0,N,0.0,K,A*23
$GPDTM,P90,,0000.000022,S,00000.000001,W,0.988,W84*5A
$GPRMC,000527.00,A,2959.998759,N,11959.998972,E,0.0,,230721,4.3,W,A*0E
$GPGGA,000527.00,2959.998759,N,11959.998972,E,1,06,1.1,-16.5,M,7.0,M,,*47

$GPGSV,3,1,12,02,32,296,,04,49,243,,07,83,097,,08,48,206,*78
$GPGSV,3,2,12,10,01,310,,13,47,032,,16,00,000,,20,20,122,*7F
$GPGSV,3,3,12,23,25,057,,25,64,040,,27,18,219,,28,00,000,*73
$GLGSV,2,1,07,78,07,330,41,86,31,025,41,77,57,324,41,75,09,153,41*69
$GLGSV,2,2,07,88,21,244,41,87,60,303,41,71,02,078,*51
$GAGSV,1,1,0,7*43
$PQGSV,1,1,0,0*43
$PQGSV,1,1,02,12,61,309,,13,33,201,*62
$GLGSA,A,3,75,77,78,86,87,88,,,,,,,1.4,1.1,0.8*2F
$GPVTG,,T,,M,0.0,N,0.0,K,A*23
$GPDTM,P90,,0000.000022,S,00000.000001,W,0.988,W84*5A
$GPRMC,000528.00,A,2959.998794,N,11959.998962,E,0.0,,230721,4.3,W,A*01
$GPGGA,000528.00,2959.998794,N,11959.998962,E,1,06,1.1,-16.4,M,7.0,M,,*49

$GPGSV,3,1,12,02,32,296,,04,49,243,,07,83,097,,08,48,206,*78
$GPGSV,3,2,12,10,01,310,,13,47,032,,16,00,000,,20,20,122,*7F
$GPGSV,3,3,12,23,25,057,,25,64,040,,27,18,219,,28,00,000,*73
$GLGSV,2,1,07,78,07,330,41,86,31,025,41,77,57,324,41,75,09,153,41*69
$GLGSV,2,2,07,88,21,244,41,87,60,303,41,71,02,078,*51
$GAGSV,1,1,0,7*43
$PQGSV,1,1,0,0*43
$PQGSV,1,1,02,12,61,309,,13,33,201,*62
$GLGSA,A,3,75,77,78,86,87,88,,,,,,,1.4,1.1,0.8*2F
$GPVTG,,T,,M,0.0,N,0.0,K,A*23
$GPDTM,P90,,0000.000022,S,00000.000001,W,0.988,W84*5A
$GPRMC,000529.00,A,2959.998795,N,11959.998855,E,0.0,,230721,4.3,W,A*04
$GPGGA,000529.00,2959.998795,N,11959.998855,E,1,06,1.1,-16.3,M,7.0,M,,*4B

$GPGSV,3,1,12,02,32,296,,04,49,243,,07,83,097,,08,48,206,*78
$GPGSV,3,2,12,10,01,310,,13,47,032,,16,00,000,,20,20,122,*7F
$GPGSV,3,3,12,23,25,057,,25,64,040,,27,18,219,,28,00,000,*73
$GLGSV,2,1,07,78,07,330,41,86,31,025,41,77,57,324,41,75,09,153,41*69
$GLGSV,2,2,07,88,21,244,41,87,60,303,41,71,02,078,*51
$GAGSV,1,1,0,7*43
$PQGSV,1,1,0,0*43
$PQGSV,1,1,02,12,61,309,,13,33,201,*62
$GLGSA,A,3,75,77,78,86,87,88,,,,,,,1.4,1.1,0.8*2F
$GPVTG,,T,,M,0.0,N,0.0,K,A*23
$GPDTM,P90,,0000.000022,S,00000.000001,W,0.988,W84*5A
$GPRMC,000530.00,A,2959.998835,N,11959.998798,E,0.0,,230721,4.3,W,A*07
$GPGGA,000530.00,2959.998835,N,11959.998798,E,1,06,1.1,-16.2,M,7.0,M,,*49

$GPGSV,3,1,12,02,32,296,,04,49,243,,07,83,097,,08,48,206,*78
$GPGSV,3,2,12,10,01,310,,13,47,032,,16,00,000,,20,20,122,*7F
$GPGSV,3,3,12,23,25,057,,25,64,040,,27,18,219,,28,00,000,*73
$GLGSV,2,1,07,78,07,330,41,86,31,025,41,77,57,324,41,75,09,153,41*69
$GLGSV,2,2,07,88,21,244,41,87,60,303,41,71,02,078,*51
$GAGSV,1,1,0,7*43
$PQGSV,1,1,0,0*43
$PQGSV,1,1,02,12,61,309,,13,33,201,*62
$GLGSA,A,3,75,77,78,86,87,88,,,,,,,1.4,1.1,0.8*2F
$GPVTG,,T,,M,0.0,N,0.0,K,A*23
$GPDTM,P90,,0000.000022,S,00000.000001,W,0.988,W84*5A
$GPRMC,000531.00,A,2959.998802,N,11959.998708,E,0.0,,230721,4.3,W,A*0B
$GPGGA,000531.00,2959.998802,N,11959.998708,E,1,06,1.1,-16.2,M,7.0,M,,*45

$GPGSV,3,1,12,02,32,296,,04,49,243,,07,83,097,,08,48,206,*78
$GPGSV,3,2,12,10,01,310,,13,47,032,,16,00,000,,20,20,122,*7F
$GPGSV,3,3,12,23,25,057,,25,64,040,,27,18,219,,28,00,000,*73
$GLGSV,2,1,07,78,07,330,41,86,31,025,41,77,57,324,41,75,09,153,41*69
$GLGSV,2,2,07,88,21,244,41,87,60,303,41,71,02,078,*51
$GAGSV,1,1,0,7*43
$PQGSV,1,1,0,0*43
$PQGSV,1,1,02,12,61,309,,13,33,201,*62
$GLGSA,A,3,75,77,78,86,87,88,,,,,,,1.4,1.1,0.8*2F
$GPVTG,,T,,M,0.0,N,0.0,K,A*23
$GPDTM,P90,,0000.000022,S,00000.000001,W,0.988,W84*5A
$GPRMC,000532.00,A,2959.998853,N,11959.998673,E,0.0,,230721,4.3,W,A*01
$GPGGA,000532.00,2959.998853,N,11959.998673,E,1,06,1.1,-16.3,M,7.0,M,,*4E

$GPGSV,3,1,12,02,32,296,,04,49,243,,07,83,097,,08,48,206,*78
$GPGSV,3,2,12,10,01,310,,13,47,032,,16,00,000,,20,20,122,*7F
$GPGSV,3,3,12,23,25,057,,25,64,040,,27,18,219,,28,00,000,*73
$GLGSV,2,1,07,78,07,330,41,86,31,025,41,77,57,324,41,75,09,153,41*69
$GLGSV,2,2,07,88,21,244,41,87,60,303,41,71,02,078,*51
$GAGSV,1,1,0,7*43
$PQGSV,1,1,0,0*43
$PQGSV,1,1,02,12,61,309,,13,33,201,*62
$GLGSA,A,3,75,77,78,86,87,88,,,,,,,1.4,1.1,0.8*2F
$GPVTG,,T,,M,0.0,N,0.0,K,A*23
$GPDTM,P90,,0000.000022,S,00000.000001,W,0.988,W84*5A
$GPRMC,000533.00,A,2959.998829,N,11959.998699,E,0.0,,230721,4.3,W,A*09
$GPGGA,000533.00,2959.998829,N,11959.998699,E,1,06,1.1,-16.2,M,7.0,M,,*47

$GPGSV,3,1,12,02,32,296,,04,49,243,,07,83,097,,08,48,206,*78
$GPGSV,3,2,12,10,01,310,,13,47,032,,16,00,000,,20,20,122,*7F
$GPGSV,3,3,12,23,25,057,,25,64,040,,27,18,219,,28,00,000,*73
$GLGSV,2,1,07,78,07,330,41,86,31,025,41,77,57,324,41,75,09,153,41*69
$GLGSV,2,2,07,88,21,244,41,87,60,303,41,71,02,078,*51
$GAGSV,1,1,0,7*43
$PQGSV,1,1,0,0*43
$PQGSV,1,1,02,12,61,309,,13,33,201,*62
$GLGSA,A,3,75,77,78,86,87,88,,,,,,,1.4,1.1,0.8*2F
$GPVTG,,T,,M,0.0,N,0.0,K,A*23
$GPDTM,P90,,0000.000022,S,00000.000001,W,0.988,W84*5A
$GPRMC,000534.00,A,2959.998850,N,11959.998698,E,0.0,,230721,4.3,W,A*01
$GPGGA,000534.00,2959.998850,N,11959.998698,E,1,06,1.1,-16.3,M,7.0,M,,*4E

$GPGSV,3,1,12,02,32,296,,04,49,243,,07,83,097,,08,48,206,*78
$GPGSV,3,2,12,10,01,310,,13,47,032,,16,00,000,,20,20,122,*7F
$GPGSV,3,3,12,23,25,057,,25,64,040,,27,18,219,,28,00,000,*73
$GLGSV,2,1,07,78,07,330,41,86,31,025,41,77,57,324,41,75,09,153,41*69
$GLGSV,2,2,07,88,21,244,41,87,60,303,41,71,02,078,*51
$GAGSV,1,1,0,7*43
$PQGSV,1,1,0,0*43
$PQGSV,1,1,02,12,61,309,,13,33,201,*62
$GLGSA,A,3,75,77,78,86,87,88,,,,,,,1.4,1.1,0.8*2F
$GPVTG,,T,,M,0.0,N,0.0,K,A*23
$GPDTM,P90,,0000.000022,S,00000.000001,W,0.988,W84*5A
$GPRMC,000535.00,A,2959.999018,N,11959.998829,E,0.0,,230721,4.3,W,A*01
$GPGGA,000535.00,2959.999018,N,11959.998829,E,1,06,1.1,-16.5,M,7.0,M,,*48

$GPGSV,3,1,12,02,32,296,,04,49,243,,07,83,097,,08,48,206,*78
$GPGSV,3,2,12,10,01,310,,13,47,032,,16,00,000,,20,20,122,*7F
$GPGSV,3,3,12,23,25,057,,25,64,040,,27,18,219,,28,00,000,*73
$GLGSV,2,1,07,78,07,330,41,86,31,025,41,77,57,324,41,75,09,153,41*69
$GLGSV,2,2,07,88,21,244,41,87,60,303,41,71,02,078,*51
$GAGSV,1,1,0,7*43
$PQGSV,1,1,0,0*43
$PQGSV,1,1,02,12,61,309,,13,33,201,*62
$GLGSA,A,3,75,77,78,86,87,88,,,,,,,1.4,1.1,0.8*2F
$GPVTG,,T,,M,0.0,N,0.0,K,A*23
$GPDTM,P90,,0000.000022,S,00000.000001,W,0.988,W84*5A
$GPRMC,000536.00,A,2959.998958,N,11959.998988,E,0.0,,230721,4.3,W,A*04
$GPGGA,000536.00,2959.998958,N,11959.998988,E,1,06,1.1,-16.6,M,7.0,M,,*4E

$GPGSV,3,1,12,02,32,296,,04,49,243,,07,83,097,,08,48,206,*78
$GPGSV,3,2,12,10,01,310,,13,47,032,,16,00,000,,20,20,122,*7F
$GPGSV,3,3,12,23,25,057,,25,64,040,,27,18,219,,28,00,000,*73
$GLGSV,2,1,07,78,07,330,41,86,31,025,41,77,57,324,41,75,09,153,41*69
$GLGSV,2,2,07,88,21,244,41,87,60,303,41,71,02,078,*51
$GAGSV,1,1,0,7*43
$PQGSV,1,1,0,0*43
$PQGSV,1,1,02,12,61,309,,13,33,201,*62
$GLGSA,A,3,75,77,78,86,87,88,,,,,,,1.4,1.1,0.8*2F
$GPVTG,,T,,M,0.0,N,0.0,K,A*23
$GPDTM,P90,,0000.000022,S,00000.000001,W,0.988,W84*5A
$GPRMC,000537.00,A,2959.998838,N,11959.998966,E,0.0,,230721,4.3,W,A*02
$GPGGA,000537.00,2959.998838,N,11959.998966,E,1,06,1.1,-16.6,M,7.0,M,,*48

$GPGSV,3,1,12,02,32,296,,04,49,243,,07,83,097,,08,48,206,*78
$GPGSV,3,2,12,10,01,310,,13,47,032,,16,00,000,,20,20,122,*7F
$GPGSV,3,3,12,23,25,057,,25,64,040,,27,18,219,,28,00,000,*73
$GLGSV,2,1,07,78,07,330,41,86,31,025,41,77,57,324,41,75,09,153,41*69
$GLGSV,2,2,07,88,21,244,41,87,60,303,41,71,02,078,*51
$GAGSV,1,1,0,7*43
$PQGSV,1,1,0,0*43
$PQGSV,1,1,02,12,61,309,,13,33,201,*62
$GLGSA,A,3,75,77,78,86,87,88,,,,,,,1.4,1.1,0.8*2F
$GPVTG,,T,,M,0.0,N,0.0,K,A*23
$GPDTM,P90,,0000.000022,S,00000.000001,W,0.988,W84*5A
$GPRMC,000538.00,A,2959.998931,N,11959.998927,E,0.0,,230721,4.3,W,A*00
$GPGGA,000538.00,2959.998931,N,11959.998927,E,1,06,1.1,-17.1,M,7.0,M,,*4C

$GPGSV,3,1,12,02,32,296,,04,49,243,,07,83,097,,08,48,206,*78
$GPGSV,3,2,12,10,01,310,,13,47,032,,16,00,000,,20,20,122,*7F
$GPGSV,3,3,12,23,25,057,,25,64,040,,27,18,219,,28,00,000,*73
$GLGSV,2,1,07,78,07,330,41,86,31,025,41,77,57,324,41,75,09,153,41*69
$GLGSV,2,2,07,88,21,244,41,87,60,303,41,71,02,078,*51
$GAGSV,1,1,0,7*43
$PQGSV,1,1,0,0*43
$PQGSV,1,1,02,12,61,309,,13,33,201,*62
$GLGSA,A,3,75,77,78,86,87,88,,,,,,,1.4,1.1,0.8*2F
$GPVTG,,T,,M,0.0,N,0.0,K,A*23
$GPDTM,P90,,0000.000022,S,00000.000001,W,0.988,W84*5A
$GPRMC,000539.00,A,2959.998908,N,11959.999133,E,0.0,,230721,4.3,W,A*07
$GPGGA,000539.00,2959.998908,N,11959.999133,E,1,06,1.1,-16.6,M,7.0,M,,*4D

$GPGSV,3,1,12,02,32,296,,04,49,243,,07,83,097,,08,48,206,*78
$GPGSV,3,2,12,10,01,310,,13,47,032,,16,00,000,,20,20,122,*7F
$GPGSV,3,3,12,23,25,057,,25,64,040,,27,18,219,,28,00,000,*73
$GLGSV,2,1,07,78,07,330,41,86,31,025,41,77,57,324,41,75,09,153,41*69
$GLGSV,2,2,07,88,21,244,41,87,60,303,41,71,02,078,*51
$GAGSV,1,1,0,7*43
$PQGSV,1,1,0,0*43
$PQGSV,1,1,02,12,61,309,,13,33,201,*62
$GLGSA,A,3,75,77,78,86,87,88,,,,,,,1.4,1.1,0.8*2F
$GPVTG,,T,,M,0.0,N,0.0,K,A*23
$GPDTM,P90,,0000.000022,S,00000.000001,W,0.988,W84*5A
$GPRMC,000540.00,A,2959.998942,N,11959.999243,E,0.0,,230721,4.3,W,A*03
$GPGGA,000540.00,2959.998942,N,11959.999243,E,1,06,1.1,-16.5,M,7.0,M,,*4A

$GPGSV,3,1,12,02,32,296,,04,49,243,,07,83,097,,08,48,206,*78
$GPGSV,3,2,12,10,01,310,,13,47,032,,16,00,000,,20,20,122,*7F
$GPGSV,3,3,12,23,25,057,,25,64,040,,27,18,219,,28,00,000,*73
$GLGSV,2,1,07,78,07,330,41,86,31,025,41,77,57,324,41,75,09,153,41*69
$GLGSV,2,2,07,88,21,244,41,87,60,303,41,71,02,078,*51
$GAGSV,1,1,0,7*43
$PQGSV,1,1,0,0*43
$PQGSV,1,1,02,12,61,309,,13,33,201,*62
$GLGSA,A,3,75,77,78,86,87,88,,,,,,,1.4,1.1,0.8*2F
$GPVTG,,T,,M,0.0,N,0.0,K,A*23
$GPDTM,P90,,0000.000022,S,00000.000001,W,0.988,W84*5A
$GPRMC,000541.00,A,2959.999026,N,11959.999311,E,0.0,,230721,4.3,W,A*0E
$GPGGA,000541.00,2959.999026,N,11959.999311,E,1,06,1.1,-16.5,M,7.0,M,,*47

$GPGSV,3,1,12,02,32,296,,04,49,243,,07,83,097,,08,48,206,*78
$GPGSV,3,2,12,10,01,310,,13,47,032,,16,00,000,,20,20,122,*7F
$GPGSV,3,3,12,23,25,057,,25,64,040,,27,18,219,,28,00,000,*73
$GLGSV,2,1,07,78,07,330,41,86,31,025,41,77,57,324,41,75,09,153,41*69
$GLGSV,2,2,07,88,21,244,41,87,60,303,41,71,02,078,*51
$GAGSV,1,1,0,7*43
$PQGSV,1,1,0,0*43
$PQGSV,1,1,02,12,61,309,,13,33,201,*62
$GLGSA,A,3,75,77,78,86,87,88,,,,,,,1.4,1.1,0.8*2F
$GPVTG,,T,,M,0.0,N,0.0,K,A*23
$GPDTM,P90,,0000.000022,S,00000.000001,W,0.988,W84*5A
$GPRMC,000542.00,A,2959.999017,N,11959.999341,E,0.0,,230721,4.3,W,A*0A
$GPGGA,000542.00,2959.999017,N,11959.999341,E,1,06,1.1,-16.6,M,7.0,M,,*40

$GPGSV,3,1,12,02,32,296,,04,49,243,,07,83,097,,08,48,206,*78
$GPGSV,3,2,12,10,01,310,,13,47,032,,16,00,000,,20,20,122,*7F
$GPGSV,3,3,12,23,25,057,,25,64,040,,27,18,219,,28,00,000,*73
$GLGSV,2,1,07,78,07,330,41,86,31,025,41,77,57,324,41,75,09,153,41*69
$GLGSV,2,2,07,88,21,244,41,87,60,303,41,71,02,078,*51
$GAGSV,1,1,0,7*43
$PQGSV,1,1,0,0*43
$PQGSV,1,1,02,12,61,309,,13,33,201,*62
$GLGSA,A,3,75,77,78,86,87,88,,,,,,,1.4,1.1,0.8*2F
$GPVTG,,T,,M,0.0,N,0.0,K,A*23
$GPDTM,P90,,0000.000022,S,00000.000001,W,0.988,W84*5A
$GPRMC,000543.00,A,2959.999134,N,11959.999305,E,0.0,,230721,4.3,W,A*0B
$GPGGA,000543.00,2959.999134,N,11959.999305,E,1,06,1.1,-16.7,M,7.0,M,,*40

$GPGSV,3,1,12,02,32,296,,04,49,243,,07,83,097,,08,48,206,*78
$GPGSV,3,2,12,10,01,310,,13,47,032,,16,00,000,,20,20,122,*7F
$GPGSV,3,3,12,23,25,057,,25,64,040,,27,18,219,,28,00,000,*73
$GLGSV,2,1,07,78,07,330,41,86,31,025,41,77,57,324,41,75,09,153,41*69
$GLGSV,2,2,07,88,21,244,41,87,60,303,41,71,02,078,*51
$GAGSV,1,1,0,7*43
$PQGSV,1,1,0,0*43
$PQGSV,1,1,02,12,61,309,,13,33,201,*62
$GLGSA,A,3,75,77,78,86,87,88,,,,,,,1.4,1.1,0.8*2F
$GPVTG,,T,,M,0.0,N,0.0,K,A*23
$GPDTM,P90,,0000.000022,S,00000.000001,W,0.988,W84*5A
$GPRMC,000544.00,A,2959.999017,N,11959.999233,E,0.0,,230721,4.3,W,A*08
$GPGGA,000544.00,2959.999017,N,11959.999233,E,1,06,1.1,-16.5,M,7.0,M,,*41

$GPGSV,3,1,12,02,32,296,,04,49,243,,07,83,097,,08,48,206,*78
$GPGSV,3,2,12,10,01,310,,13,47,032,,16,00,000,,20,20,122,*7F
$GPGSV,3,3,12,23,25,057,,25,64,040,,27,18,219,,28,00,000,*73
$GLGSV,2,1,07,78,07,330,41,86,31,025,41,77,57,324,41,75,09,153,41*69
$GLGSV,2,2,07,88,21,244,41,87,60,303,41,71,02,078,*51
$GAGSV,1,1,0,7*43
$PQGSV,1,1,0,0*43
$PQGSV,1,1,02,12,61,309,,13,33,201,*62
$GLGSA,A,3,75,77,78,86,87,88,,,,,,,1.4,1.1,0.8*2F
$GPVTG,,T,,M,0.0,N,0.0,K,A*23
$GPDTM,P90,,0000.000022,S,00000.000001,W,0.988,W84*5A
$GPRMC,000545.00,A,2959.999055,N,11959.999322,E,0.0,,230721,4.3,W,A*0E
$GPGGA,000545.00,2959.999055,N,11959.999322,E,1,06,1.1,-16.6,M,7.0,M,,*44

$GPGSV,3,1,12,02,32,296,,04,49,243,,07,83,097,,08,48,206,*78
$GPGSV,3,2,12,10,01,310,,13,47,032,,16,00,000,,20,20,122,*7F
$GPGSV,3,3,12,23,25,057,,25,64,040,,27,18,219,,28,00,000,*73
$GLGSV,2,1,07,78,07,330,41,86,31,025,41,77,57,324,41,75,09,153,41*69
$GLGSV,2,2,07,88,21,244,41,87,60,303,41,71,02,078,*51
$GAGSV,1,1,0,7*43
$PQGSV,1,1,0,0*43
$PQGSV,1,1,02,12,61,309,,13,33,201,*62
$GLGSA,A,3,75,77,78,86,87,88,,,,,,,1.4,1.1,0.8*2F
$GPVTG,,T,,M,0.0,N,0.0,K,A*23
$GPDTM,P90,,0000.000022,S,00000.000001,W,0.988,W84*5A
$GPRMC,000546.00,A,2959.999083,N,11959.999400,E,0.0,,230721,4.3,W,A*01
$GPGGA,000546.00,2959.999083,N,11959.999400,E,1,06,1.1,-16.7,M,7.0,M,,*4A

$GPGSV,3,1,12,02,32,296,,04,49,243,,07,83,097,,08,48,206,*78
$GPGSV,3,2,12,10,01,310,,13,47,032,,16,00,000,,20,20,122,*7F
$GPGSV,3,3,12,23,25,057,,25,64,040,,27,18,219,,28,00,000,*73
$GLGSV,2,1,07,78,07,330,41,86,31,025,41,77,57,324,41,75,09,153,41*69
$GLGSV,2,2,07,88,21,244,41,87,60,303,41,71,02,078,*51
$GAGSV,1,1,0,7*43
$PQGSV,1,1,0,0*43
$PQGSV,1,1,02,12,61,309,,13,33,201,*62
$GLGSA,A,3,75,77,78,86,87,88,,,,,,,1.4,1.1,0.8*2F
$GPVTG,,T,,M,0.0,N,0.0,K,A*23
$GPDTM,P90,,0000.000022,S,00000.000001,W,0.988,W84*5A
$GPRMC,000547.00,A,2959.999024,N,11959.999439,E,0.0,,230721,4.3,W,A*07
$GPGGA,000547.00,2959.999024,N,11959.999439,E,1,06,1.1,-16.5,M,7.0,M,,*4E

$GPGSV,3,1,12,02,32,296,,04,49,243,,07,83,097,,08,48,206,*78
$GPGSV,3,2,12,10,01,310,,13,47,032,,16,00,000,,20,20,122,*7F
$GPGSV,3,3,12,23,25,057,,25,64,040,,27,18,219,,28,00,000,*73
$GLGSV,2,1,07,78,07,330,41,86,31,025,41,77,57,324,41,75,09,153,41*69
$GLGSV,2,2,07,88,21,244,41,87,60,303,41,71,02,078,*51
$GAGSV,1,1,0,7*43
$PQGSV,1,1,0,0*43
$PQGSV,1,1,02,12,61,309,,13,33,201,*62
$GLGSA,A,3,75,77,78,86,87,88,,,,,,,1.4,1.1,0.8*2F
$GPVTG,,T,,M,0.0,N,0.0,K,A*23
$GPDTM,P90,,0000.000022,S,00000.000001,W,0.988,W84*5A
$GPRMC,000548.00,A,2959.998848,N,11959.999516,E,0.0,,230721,4.3,W,A*07
$GPGGA,000548.00,2959.998848,N,11959.999516,E,1,06,1.1,-16.1,M,7.0,M,,*4A

$GPGSV,3,1,12,02,32,296,,04,49,243,,07,83,097,,08,48,206,*78
$GPGSV,3,2,12,10,01,310,,13,47,032,,16,00,000,,20,20,122,*7F
$GPGSV,3,3,12,23,25,057,,25,64,040,,27,18,219,,28,00,000,*73
$GLGSV,2,1,07,78,07,330,41,86,31,025,41,77,57,324,41,75,09,153,41*69
$GLGSV,2,2,07,88,21,244,41,87,60,303,41,71,02,078,*51
$GAGSV,1,1,0,7*43
$PQGSV,1,1,0,0*43
$PQGSV,1,1,02,12,61,309,,13,33,201,*62
$GLGSA,A,3,75,77,78,86,87,88,,,,,,,1.4,1.1,0.8*2F
$GPVTG,,T,,M,0.0,N,0.0,K,A*23
$GPDTM,P90,,0000.000022,S,00000.000001,W,0.988,W84*5A
$GPRMC,000549.00,A,2959.998856,N,11959.999339,E,0.0,,230721,4.3,W,A*02
$GPGGA,000549.00,2959.998856,N,11959.999339,E,1,06,1.1,-16.4,M,7.0,M,,*4A

$GPGSV,3,1,12,02,32,296,,04,49,243,,07,83,097,,08,48,206,*78
$GPGSV,3,2,12,10,01,310,,13,47,032,,16,00,000,,20,20,122,*7F
$GPGSV,3,3,12,23,25,057,,25,64,040,,27,18,219,,28,00,000,*73
$GLGSV,2,1,07,78,07,330,41,86,31,025,41,77,57,324,41,75,09,153,41*69
$GLGSV,2,2,07,88,21,244,41,87,60,303,41,71,02,078,*51
$GAGSV,1,1,0,7*43
$PQGSV,1,1,0,0*43
$PQGSV,1,1,02,12,61,309,,13,33,201,*62
$GLGSA,A,3,75,77,78,86,87,88,,,,,,,1.4,1.1,0.8*2F
$GPVTG,,T,,M,0.0,N,0.0,K,A*23
$GPDTM,P90,,0000.000022,S,00000.000001,W,0.988,W84*5A
$GPRMC,000550.00,A,2959.998957,N,11959.999232,E,0.0,,230721,4.3,W,A*00
$GPGGA,000550.00,2959.998957,N,11959.999232,E,1,06,1.1,-16.3,M,7.0,M,,*4F

$GPGSV,3,1,12,02,32,296,,04,49,243,,07,83,097,,08,48,206,*78
$GPGSV,3,2,12,10,01,310,,13,47,032,,16,00,000,,20,20,122,*7F
$GPGSV,3,3,12,23,25,057,,25,64,040,,27,18,219,,28,00,000,*73
$GLGSV,2,1,07,78,07,330,41,86,31,025,41,77,57,324,41,75,09,153,41*69
$GLGSV,2,2,07,88,21,244,41,87,60,303,41,71,02,078,*51
$GAGSV,1,1,0,7*43
$PQGSV,1,1,0,0*43
$PQGSV,1,1,02,12,61,309,,13,33,201,*62
$GLGSA,A,3,75,77,78,86,87,88,,,,,,,1.4,1.1,0.8*2F
$GPVTG,,T,,M,0.0,N,0.0,K,A*23
$GPDTM,P90,,0000.000022,S,00000.000001,W,0.988,W84*5A
$GPRMC,000551.00,A,2959.999035,N,11959.999138,E,0.0,,230721,4.3,W,A*04
$GPGGA,000551.00,2959.999035,N,11959.999138,E,1,06,1.1,-16.6,M,7.0,M,,*4E

$GPGSV,3,1,12,02,32,296,,04,49,243,,07,83,097,,08,48,206,*78
$GPGSV,3,2,12,10,01,310,,13,47,032,,16,00,000,,20,20,122,*7F
$GPGSV,3,3,12,23,25,057,,25,64,040,,27,18,219,,28,00,000,*73
$GLGSV,2,1,07,78,07,330,41,86,31,025,41,77,57,324,41,75,09,153,41*69
$GLGSV,2,2,07,88,21,244,41,87,60,303,41,71,02,078,*51
$GAGSV,1,1,0,7*43
$PQGSV,1,1,0,0*43
$PQGSV,1,1,02,12,61,309,,13,33,201,*62
$GLGSA,A,3,75,77,78,86,87,88,,,,,,,1.4,1.1,0.8*2F
$GPVTG,,T,,M,0.0,N,0.0,K,A*23
$GPDTM,P90,,0000.000022,S,00000.000001,W,0.988,W84*5A
$GPRMC,000552.00,A,2959.999067,N,11959.999067,E,0.0,,230721,4.3,W,A*0B
$GPGGA,000552.00,2959.999067,N,11959.999067,E,1,06,1.1,-16.4,M,7.0,M,,*43

$GPGSV,3,1,12,02,32,296,,04,49,243,,07,83,097,,08,48,206,*78
$GPGSV,3,2,12,10,01,310,,13,47,032,,16,00,000,,20,20,122,*7F
$GPGSV,3,3,12,23,25,057,,25,64,040,,27,18,219,,28,00,000,*73
$GLGSV,2,1,07,78,07,330,41,86,31,025,41,77,57,324,41,75,09,153,41*69
$GLGSV,2,2,07,88,21,244,41,87,60,303,41,71,02,078,*51
$GAGSV,1,1,0,7*43
$PQGSV,1,1,0,0*43
$PQGSV,1,1,02,12,61,309,,13,33,201,*62
$GLGSA,A,3,75,77,78,86,87,88,,,,,,,1.4,1.1,0.8*2F
$GPVTG,,T,,M,0.0,N,0.0,K,A*23
$GPDTM,P90,,0000.000022,S,00000.000001,W,0.988,W84*5A
$GPRMC,000553.00,A,2959.999176,N,11959.999187,E,0.0,,230721,4.3,W,A*04
$GPGGA,000553.00,2959.999176,N,11959.999187,E,1,06,1.1,-16.3,M,7.0,M,,*4B

$GPGSV,3,1,12,02,32,296,,04,49,243,,07,83,097,,08,48,206,*78
$GPGSV,3,2,12,10,01,310,,13,47,032,,16,00,000,,20,20,122,*7F
$GPGSV,3,3,12,23,25,057,,25,64,040,,27,18,219,,28,00,000,*73
$GLGSV,2,1,07,78,07,330,41,86,31,025,41,77,57,324,41,75,09,153,41*69
$GLGSV,2,2,07,88,21,244,41,87,60,303,41,71,02,078,*51
$GAGSV,1,1,0,7*43
$PQGSV,1,1,0,0*43
$PQGSV,1,1,02,12,61,309,,13,33,201,*62
$GLGSA,A,3,75,77,78,86,87,88,,,,,,,1.4,1.1,0.8*2F
$GPVTG,,T,,M,0.0,N,0.0,K,A*23
$GPDTM,P90,,0000.000022,S,00000.000001,W,0.988,W84*5A
$GPRMC,000554.00,A,2959.999146,N,11959.999378,E,0.0,,230721,4.3,W,A*02
$GPGGA,000554.00,2959.999146,N,11959.999378,E,1,06,1.1,-16.3,M,7.0,M,,*4D

$GPGSV,3,1,12,02,32,296,,04,49,243,,07,83,097,,08,48,206,*78
$GPGSV,3,2,12,10,01,310,,13,47,032,,16,00,000,,20,20,122,*7F
$GPGSV,3,3,12,23,25,057,,25,64,040,,27,18,219,,28,00,000,*73
$GLGSV,2,1,07,78,07,330,41,86,31,025,41,77,57,324,41,75,09,153,41*69
$GLGSV,2,2,07,88,21,244,41,87,60,303,41,71,02,078,*51
$GAGSV,1,1,0,7*43
$PQGSV,1,1,0,0*43
$PQGSV,1,1,02,12,61,309,,13,33,201,*62
$GLGSA,A,3,75,77,78,86,87,88,,,,,,,1.4,1.1,0.8*2F
$GPVTG,,T,,M,0.0,N,0.0,K,A*23
$GPDTM,P90,,0000.000022,S,00000.000001,W,0.988,W84*5A
$GPRMC,000555.00,A,2959.999029,N,11959.999347,E,0.0,,230721,4.3,W,A*07
$GPGGA,000555.00,2959.999029,N,11959.999347,E,1,06,1.1,-16.2,M,7.0,M,,*49

$GPGSV,3,1,12,02,32,296,,04,49,243,,07,83,097,,08,48,206,*78
$GPGSV,3,2,12,10,01,310,,13,47,032,,16,00,000,,20,20,122,*7F
$GPGSV,3,3,12,23,25,057,,25,64,040,,27,18,219,,28,00,000,*73
$GLGSV,2,1,07,78,07,330,41,86,31,025,41,77,57,324,41,75,09,153,41*69
$GLGSV,2,2,07,88,21,244,41,87,60,303,41,71,02,078,*51
$GAGSV,1,1,0,7*43
$PQGSV,1,1,0,0*43
$PQGSV,1,1,02,12,61,309,,13,33,201,*62
$GLGSA,A,3,75,77,78,86,87,88,,,,,,,1.4,1.1,0.8*2F
$GPVTG,,T,,M,0.0,N,0.0,K,A*23
$GPDTM,P90,,0000.000022,S,00000.000001,W,0.988,W84*5A
$GPRMC,000556.00,A,2959.999098,N,11959.999373,E,0.0,,230721,4.3,W,A*09
$GPGGA,000556.00,2959.999098,N,11959.999373,E,1,06,1.1,-16.6,M,7.0,M,,*43

$GPGSV,3,1,12,02,32,296,,04,49,243,,07,83,097,,08,48,206,*78
$GPGSV,3,2,12,10,01,310,,13,47,032,,16,00,000,,20,20,122,*7F
$GPGSV,3,3,12,23,25,057,,25,64,040,,27,18,219,,28,00,000,*73
$GLGSV,2,1,07,78,07,330,41,86,31,025,41,77,57,324,41,75,09,153,41*69
$GLGSV,2,2,07,88,21,244,41,87,60,303,41,71,02,078,*51
$GAGSV,1,1,0,7*43
$PQGSV,1,1,0,0*43
$PQGSV,1,1,02,12,61,309,,13,33,201,*62
$GLGSA,A,3,75,77,78,86,87,88,,,,,,,1.4,1.1,0.8*2F
$GPVTG,,T,,M,0.0,N,0.0,K,A*23
$GPDTM,P90,,0000.000022,S,00000.000001,W,0.988,W84*5A
$GPRMC,000557.00,A,2959.999108,N,11959.999278,E,0.0,,230721,4.3,W,A*0A
$GPGGA,000557.00,2959.999108,N,11959.999278,E,1,06,1.1,-16.4,M,7.0,M,,*42

$GPGSV,3,1,12,02,32,296,,04,49,243,,07,83,097,,08,48,206,*78
$GPGSV,3,2,12,10,01,310,,13,47,032,,16,00,000,,20,20,122,*7F
$GPGSV,3,3,12,23,25,057,,25,64,040,,27,18,219,,28,00,000,*73
$GLGSV,2,1,07,78,07,330,41,86,31,025,41,77,57,324,41,75,09,153,41*69
$GLGSV,2,2,07,88,21,244,41,87,60,303,41,71,02,078,*51
$GAGSV,1,1,0,7*43
$PQGSV,1,1,0,0*43
$PQGSV,1,1,02,12,61,309,,13,33,201,*62
$GLGSA,A,3,75,77,78,86,87,88,,,,,,,1.4,1.1,0.8*2F
$GPVTG,,T,,M,0.0,N,0.0,K,A*23
$GPDTM,P90,,0000.000022,S,00000.000001,W,0.988,W84*5A
$GPRMC,000558.00,A,2959.999017,N,11959.999329,E,0.0,,230721,4.3,W,A*0F
$GPGGA,000558.00,2959.999017,N,11959.999329,E,1,06,1.1,-16.4,M,7.0,M,,*47

$GPGSV,3,1,12,02,32,296,,04,49,243,,07,83,097,,08,48,206,*78
$GPGSV,3,2,12,10,01,310,,13,47,032,,16,00,000,,20,20,122,*7F
$GPGSV,3,3,12,23,25,057,,25,64,040,,27,18,219,,28,00,000,*73
$GLGSV,2,1,07,78,07,330,41,86,31,025,41,77,57,324,41,75,09,153,41*69
$GLGSV,2,2,07,88,21,244,41,87,60,303,41,71,02,078,*51
$GAGSV,1,1,0,7*43
$PQGSV,1,1,0,0*43
$PQGSV,1,1,02,12,61,309,,13,33,201,*62
$GLGSA,A,3,75,77,78,86,87,88,,,,,,,1.4,1.1,0.8*2F
$GPVTG,,T,,M,0.0,N,0.0,K,A*23
$GPDTM,P90,,0000.000022,S,00000.000001,W,0.988,W84*5A
$GPRMC,000559.00,A,2959.999041,N,11959.999183,E,0.0,,230721,4.3,W,A*0F
$GPGGA,000559.00,2959.999041,N,11959.999183,E,1,06,1.1,-16.8,M,7.0,M,,*4B

$GPGSV,3,1,12,02,32,296,,04,49,243,,07,83,097,,08,48,206,*78
$GPGSV,3,2,12,10,01,310,,13,47,032,,16,00,000,,20,20,122,*7F
$GPGSV,3,3,12,23,25,057,,25,64,040,,27,18,219,,28,00,000,*73
$GLGSV,2,1,07,78,07,330,41,86,31,025,41,77,57,324,41,75,09,153,41*69
$GLGSV,2,2,07,88,21,244,41,87,60,303,41,71,02,078,*51
$GAGSV,1,1,0,7*43
$PQGSV,1,1,0,0*43
$PQGSV,1,1,02,12,61,309,,13,33,201,*62
$GLGSA,A,3,75,77,78,86,87,88,,,,,,,1.4,1.1,0.8*2F
$GPVTG,,T,,M,0.0,N,0.0,K,A*23
$GPDTM,P90,,0000.000022,S,00000.000001,W,0.988,W84*5A
$GPRMC,000600.00,A,2959.999052,N,11959.999153,E,0.0,,230721,4.3,W,A*0F
$GPGGA,000600.00,2959.999052,N,11959.999153,E,1,06,1.1,-16.7,M,7.0,M,,*44

$GPGSV,3,1,12,02,32,296,,04,49,243,,07,83,097,,08,48,206,*78
$GPGSV,3,2,12,10,01,310,,13,47,032,,16,00,000,,20,20,122,*7F
$GPGSV,3,3,12,23,25,057,,25,64,040,,27,18,219,,28,00,000,*73
$GLGSV,2,1,07,78,07,330,41,86,31,025,41,77,57,324,41,75,09,153,41*69
$GLGSV,2,2,07,88,21,244,41,87,60,303,41,71,02,078,*51
$GAGSV,1,1,0,7*43
$PQGSV,1,1,0,0*43
$PQGSV,1,1,02,12,61,309,,13,33,201,*62
$GLGSA,A,3,75,77,78,86,87,88,,,,,,,1.4,1.1,0.8*2F
$GPVTG,,T,,M,0.0,N,0.0,K,A*23
$GPDTM,P90,,0000.000022,S,00000.000001,W,0.988,W84*5A
$GPRMC,000601.00,A,2959.999067,N,11959.999104,E,0.0,,230721,4.3,W,A*0A
$GPGGA,000601.00,2959.999067,N,11959.999104,E,1,06,1.1,-16.6,M,7.0,M,,*40

$GPGSV,3,1,12,02,32,296,,04,49,243,,07,83,097,,08,48,206,*78
$GPGSV,3,2,12,10,01,310,,13,47,032,,16,00,000,,20,20,122,*7F
$GPGSV,3,3,12,23,25,057,,25,64,040,,27,18,219,,28,00,000,*73
$GLGSV,2,1,07,78,07,330,41,86,31,025,41,77,57,324,41,75,09,153,41*69
$GLGSV,2,2,07,88,21,244,41,87,60,303,41,71,02,078,*51
$GAGSV,1,1,0,7*43
$PQGSV,1,1,0,0*43
$PQGSV,1,1,02,12,61,309,,13,33,201,*62
$GLGSA,A,3,75,77,78,86,87,88,,,,,,,1.4,1.1,0.8*2F
$GPVTG,,T,,M,0.0,N,0.0,K,A*23
$GPDTM,P90,,0000.000022,S,00000.000001,W,0.988,W84*5A
$GPRMC,000602.00,A,2959.999026,N,11959.999021,E,0.0,,230721,4.3,W,A*0A
$GPGGA,000602.00,2959.999026,N,11959.999021,E,1,06,1.1,-16.4,M,7.0,M,,*42

$GPGSV,3,1,12,02,32,296,,04,49,243,,07,83,097,,08,48,206,*78
$GPGSV,3,2,12,10,01,310,,13,47,032,,16,00,000,,20,20,122,*7F
$GPGSV,3,3,12,23,25,057,,25,64,040,,27,18,219,,28,00,000,*73
$GLGSV,2,1,07,78,07,330,41,86,31,025,41,77,57,324,41,75,09,153,41*69
$GLGSV,2,2,07,88,21,244,41,87,60,303,41,71,02,078,*51
$GAGSV,1,1,0,7*43
$PQGSV,1,1,0,0*43
$PQGSV,1,1,02,12,61,309,,13,33,201,*62
$GLGSA,A,3,75,77,78,86,87,88,,,,,,,1.4,1.1,0.8*2F
$GPVTG,,T,,M,0.0,N,0.0,K,A*23
$GPDTM,P90,,0000.000022,S,00000.000001,W,0.988,W84*5A
$GPRMC,000603.00,A,2959.999112,N,11959.998895,E,0.0,,230721,4.3,W,A*0B
$GPGGA,000603.00,2959.999112,N,11959.998895,E,1,06,1.1,-16.5,M,7.0,M,,*42

$GPGSV,3,1,12,02,32,296,,04,49,243,,07,83,097,,08,48,206,*78
$GPGSV,3,2,12,10,01,310,,13,47,032,,16,00,000,,20,20,122,*7F
$GPGSV,3,3,12,23,25,057,,25,64,040,,27,18,219,,28,00,000,*73
$GLGSV,2,1,07,78,07,330,41,86,31,025,41,77,57,324,41,75,09,153,41*69
$GLGSV,2,2,07,88,21,244,41,87,60,303,41,71,02,078,*51
$GAGSV,1,1,0,7*43
$PQGSV,1,1,0,0*43
$PQGSV,1,1,02,12,61,309,,13,33,201,*62
$GLGSA,A,3,75,77,78,86,87,88,,,,,,,1.4,1.1,0.8*2F
$GPVTG,,T,,M,0.0,N,0.0,K,A*23
$GPDTM,P90,,0000.000022,S,00000.000001,W,0.988,W84*5A
$GPRMC,000604.00,A,2959.999094,N,11959.998800,E,0.0,,230721,4.3,W,A*0F
$GPGGA,000604.00,2959.999094,N,11959.998800,E,1,06,1.1,-16.5,M,7.0,M,,*46

$GPGSV,3,1,12,02,32,296,,04,49,243,,07,83,097,,08,48,206,*78
$GPGSV,3,2,12,10,01,310,,13,47,032,,16,00,000,,20,20,122,*7F
$GPGSV,3,3,12,23,25,057,,25,64,040,,27,18,219,,28,00,000,*73
$GLGSV,2,1,07,78,07,330,41,86,31,025,41,77,57,324,41,75,09,153,41*69
$GLGSV,2,2,07,88,21,244,41,87,60,303,41,71,02,078,*51
$GAGSV,1,1,0,7*43
$PQGSV,1,1,0,0*43
$PQGSV,1,1,02,12,61,309,,13,33,201,*62
$GLGSA,A,3,75,77,78,86,87,88,,,,,,,1.4,1.1,0.8*2F
$GPVTG,,T,,M,0.0,N,0.0,K,A*23
$GPDTM,P90,,0000.000022,S,00000.000001,W,0.988,W84*5A
$GPRMC,000605.00,A,2959.999094,N,11959.998759,E,0.0,,230721,4.3,W,A*0D
$GPGGA,000605.00,2959.999094,N,11959.998759,E,1,06,1.1,-16.7,M,7.0,M,,*46

$GPGSV,3,1,12,02,32,296,,04,49,243,,07,83,097,,08,48,206,*78
$GPGSV,3,2,12,10,01,310,,13,47,032,,16,00,000,,20,20,122,*7F
$GPGSV,3,3,12,23,25,057,,25,64,040,,27,18,219,,28,00,000,*73
$GLGSV,2,1,07,78,07,330,41,86,31,025,41,77,57,324,41,75,09,153,41*69
$GLGSV,2,2,07,88,21,244,41,87,60,303,41,71,02,078,*51
$GAGSV,1,1,0,7*43
$PQGSV,1,1,0,0*43
$PQGSV,1,1,02,12,61,309,,13,33,201,*62
$GLGSA,A,3,75,77,78,86,87,88,,,,,,,1.4,1.1,0.8*2F
$GPVTG,,T,,M,0.0,N,0.0,K,A*23
$GPDTM,P90,,0000.000022,S,00000.000001,W,0.988,W84*5A
$GPRMC,000606.00,A,2959.999120,N,11959.998741,E,0.0,,230721,4.3,W,A*09
$GPGGA,000606.00,2959.999120,N,11959.998741,E,1,06,1.1,-16.7,M,7.0,M,,*42

$GPGSV,3,1,12,02,32,296,,04,49,243,,07,83,097,,08,48,206,*78
$GPGSV,3,2,12,10,01,310,,13,47,032,,16,00,000,,20,20,122,*7F
$GPGSV,3,3,12,23,25,057,,25,64,040,,27,18,219,,28,00,000,*73
$GLGSV,2,1,07,78,07,330,41,86,31,025,41,77,57,324,41,75,09,153,41*69
$GLGSV,2,2,07,88,21,244,41,87,60,303,41,71,02,078,*51
$GAGSV,1,1,0,7*43
$PQGSV,1,1,0,0*43
$PQGSV,1,1,02,12,61,309,,13,33,201,*62
$GLGSA,A,3,75,77,78,86,87,88,,,,,,,1.4,1.1,0.8*2F
$GPVTG,,T,,M,0.0,N,0.0,K,A*23
$GPDTM,P90,,0000.000022,S,00000.000001,W,0.988,W84*5A
$GPRMC,000607.00,A,2959.999129,N,11959.998724,E,0.0,,230721,4.3,W,A*02
$GPGGA,000607.00,2959.999129,N,11959.998724,E,1,06,1.1,-16.7,M,7.0,M,,*49

$GPGSV,3,1,12,02,32,296,,04,49,243,,07,83,097,,08,48,206,*78
$GPGSV,3,2,12,10,01,310,,13,47,032,,16,00,000,,20,20,122,*7F
$GPGSV,3,3,12,23,25,057,,25,64,040,,27,18,219,,28,00,000,*73
$GLGSV,2,1,07,78,07,330,41,86,31,025,41,77,57,324,41,75,09,153,41*69
$GLGSV,2,2,07,88,21,244,41,87,60,303,41,71,02,078,*51
$GAGSV,1,1,0,7*43
$PQGSV,1,1,0,0*43
$PQGSV,1,1,02,12,61,309,,13,33,201,*62
$GLGSA,A,3,75,77,78,86,87,88,,,,,,,1.4,1.1,0.8*2F
$GPVTG,,T,,M,0.0,N,0.0,K,A*23
$GPDTM,P90,,0000.000022,S,00000.000001,W,0.988,W84*5A
$GPRMC,000608.00,A,2959.999075,N,11959.998721,E,0.0,,230721,4.3,W,A*00
$GPGGA,000608.00,2959.999075,N,11959.998721,E,1,06,1.1,-16.9,M,7.0,M,,*45

$GPGSV,3,1,12,02,32,296,,04,49,241,,07,83,088,,08,48,208,*7A
$GPGSV,3,2,12,10,01,310,,13,47,033,,16,00,000,,20,20,122,*7E
$GPGSV,3,3,12,23,25,057,,25,63,040,,27,19,219,,28,00,000,*75
$GLGSV,2,1,07,78,07,330,41,86,31,025,41,77,57,324,41,75,09,153,41*69
$GLGSV,2,2,07,88,21,244,41,87,60,303,41,71,02,078,*51
$GAGSV,1,1,0,7*43
$PQGSV,1,1,0,0*43
$PQGSV,1,1,02,12,61,309,,13,33,201,*62
$GLGSA,A,3,75,77,78,86,87,88,,,,,,,1.4,1.1,0.8*2F
$GPVTG,,T,,M,0.0,N,0.0,K,A*23
$GPDTM,P90,,0000.000022,S,00000.000001,W,0.988,W84*5A
$GPRMC,000609.00,A,2959.999063,N,11959.998752,E,0.0,,230721,4.3,W,A*02
$GPGGA,000609.00,2959.999063,N,11959.998752,E,1,06,1.1,-16.7,M,7.0,M,,*49

$GPGSV,3,1,12,02,32,296,,04,49,241,,07,83,088,,08,48,208,*7A
$GPGSV,3,2,12,10,01,310,,13,47,033,,16,00,000,,20,20,122,*7E
$GPGSV,3,3,12,23,25,057,,25,63,040,,27,19,219,,28,00,000,*75
$GLGSV,2,1,07,78,07,330,41,86,31,025,41,77,57,324,41,75,09,153,41*69
$GLGSV,2,2,07,88,21,244,41,87,60,303,41,71,02,078,*51
$GAGSV,1,1,0,7*43
$PQGSV,1,1,0,0*43
$PQGSV,1,1,02,12,61,309,,13,33,201,*62
$GLGSA,A,3,75,77,78,86,87,88,,,,,,,1.4,1.1,0.8*2F
$GPVTG,,T,,M,0.0,N,0.0,K,A*23
