$GPVTG,288.0,T,288.0,M,75.9,N,140.6,K,A*1B
$GPDTM,P90,,0000.000022,S,00000.000001,W,0.988,W84*5A
$GPRMC,000328.70,A,2959.744579,N,12000.203392,E,75.9,288.0,230721,4.3,W,A*13
$GPGGA,000328.70,2959.744579,N,12000.203392,E,1,00,1.0,-24.6,M,7.0,M,,*48

$GPVTG,288.4,T,288.4,M,76.0,N,140.8,K,A*1F
$GPDTM,P90,,0000.000022,S,00000.000001,W,0.988,W84*5A
$GPRMC,000328.80,A,2959.745241,N,12000.201082,E,76.0,288.4,230721,4.3,W,A*1F
$GPGGA,000328.80,2959.745241,N,12000.201082,E,1,00,1.0,-24.5,M,7.0,M,,*49

$GPVTG,288.8,T,288.8,M,76.1,N,141.0,K,A*17
$GPDTM,P90,,0000.000022,S,00000.000001,W,0.988,W84*5A
$GPRMC,000328.90,A,2959.745916,N,12000.198775,E,76.1,288.8,230721,4.3,W,A*16
$GPGGA,000328.90,2959.745916,N,12000.198775,E,1,00,1.0,-24.4,M,7.0,M,,*4C

$GPGSV,3,1,10,02,32,298,26,04,50,244,27,07,83,102,27,08,47,206,26*79
$GPGSV,3,2,10,13,48,032,27,20,21,120,26,23,25,057,26,25,64,040,27*71
$GPGSV,3,3,10,27,18,219,27,30,46,260,*7E
$GLGSV,1,1,02,77,56,326,,71,02,081,*6E
$GAGSV,1,1,0,7*43
$PQGSV,1,1,0,0*43
$PQGSV,1,1,02,12,61,307,,13,33,199,*6E
$GPGSA,A,3,02,04,07,08,13,20,23,25,27,,,,1.3,1.0,0.8*33
$GPVTG,290.9,T,290.9,M,75.7,N,140.1,K,A*12
$GPDTM,P90,,0000.000022,S,00000.000001,W,0.988,W84*5A
$GPRMC,000329.00,A,2959.748140,N,12000.197112,E,75.7,290.9,230721,4.3,W,A*1D
$GPGGA,000329.00,2959.748140,N,12000.197112,E,1,09,1.0,-23.5,M,7.0,M,,*45

$GPVTG,291.4,T,291.4,M,75.8,N,140.3,K,A*1F
$GPDTM,P90,,0000.000022,S,00000.000001,W,0.988,W84*5A
$GPRMC,000329.10,A,2959.748902,N,12000.194853,E,75.8,291.4,230721,4.3,W,A*1E
$GPGGA,000329.10,2959.748902,N,12000.194853,E,1,00,1.0,-23.5,M,7.0,M,,*4C

$GPVTG,291.9,T,291.9,M,75.9,N,140.5,K,A*18
$GPDTM,P90,,0000.000022,S,00000.000001,W,0.988,W84*5A
$GPRMC,000329.20,A,2959.749681,N,12000.192598,E,75.9,291.9,230721,4.3,W,A*18
$GPGGA,000329.20,2959.749681,N,12000.192598,E,1,00,1.0,-23.5,M,7.0,M,,*46

$GPVTG,292.4,T,292.4,M,76.0,N,140.8,K,A*1F
$GPDTM,P90,,0000.000022,S,00000.000001,W,0.988,W84*5A
$GPRMC,000329.30,A,2959.750477,N,12000.190348,E,76.0,292.4,230721,4.3,W,A*17
$GPGGA,000329.30,2959.750477,N,12000.190348,E,1,00,1.0,-23.5,M,7.0,M,,*4D

$GPVTG,292.9,T,292.9,M,76.1,N,141.0,K,A*17
$GPDTM,P90,,0000.000022,S,00000.000001,W,0.988,W84*5A
$GPRMC,000329.40,A,2959.751292,N,12000.188102,E,76.1,292.9,230721,4.3,W,A*15
$GPGGA,000329.40,2959.751292,N,12000.188102,E,1,00,1.0,-23.5,M,7.0,M,,*43

$GPVTG,293.3,T,293.3,M,76.3,N,141.2,K,A*17
$GPDTM,P90,,0000.000022,S,00000.000001,W,0.988,W84*5A
$GPRMC,000329.50,A,2959.752124,N,12000.185860,E,76.3,293.3,230721,4.3,W,A*10
$GPGGA,000329.50,2959.752124,N,12000.185860,E,1,00,1.0,-23.5,M,7.0,M,,*4F

$GPVTG,293.8,T,293.8,M,76.4,N,141.5,K,A*17
$GPDTM,P90,,0000.000022,S,00000.000001,W,0.988,W84*5A
$GPRMC,000329.60,A,2959.752975,N,12000.183622,E,76.4,293.8,230721,4.3,W,A*1D
$GPGGA,000329.60,2959.752975,N,12000.183622,E,1,00,1.0,-23.5,M,7.0,M,,*4E

$GPVTG,294.3,T,294.3,M,76.5,N,141.7,K,A*14
$GPDTM,P90,,0000.000022,S,00000.000001,W,0.988,W84*5A
$GPRMC,000329.70,A,2959.753842,N,12000.181389,E,76.5,294.3,230721,4.3,W,A*13
$GPGGA,000329.70,2959.753842,N,12000.181389,E,1,00,1.0,-23.5,M,7.0,M,,*4D

$GPVTG,294.8,T,294.8,M,76.7,N,142.0,K,A*12
$GPDTM,P90,,0000.000022,S,00000.000001,W,0.988,W84*5A
$GPRMC,000329.80,A,2959.754728,N,12000.179160,E,76.7,294.8,230721,4.3,W,A*13
$GPGGA,000329.80,2959.754728,N,12000.179160,E,1,00,1.0,-23.5,M,7.0,M,,*44

$GPVTG,295.2,T,295.2,M,76.8,N,142.3,K,A*1E
$GPDTM,P90,,0000.000022,S,00000.000001,W,0.988,W84*5A
$GPRMC,000329.90,A,2959.755631,N,12000.176935,E,76.8,295.2,230721,4.3,W,A*19
$GPGGA,000329.90,2959.755631,N,12000.176935,E,1,00,1.0,-23.5,M,7.0,M,,*4A

$GPGSV,3,1,10,02,32,298,26,04,50,244,26,07,83,102,26,08,47,206,27*78
$GPGSV,3,2,10,13,48,032,26,20,21,120,27,23,25,057,27,25,64,040,26*71
$GPGSV,3,3,10,27,18,219,26,30,46,260,*7F
$GLGSV,1,1,02,77,56,326,,71,02,081,*6E
$GAGSV,1,1,0,7*43
$PQGSV,1,1,0,0*43
$PQGSV,1,1,02,12,61,307,,13,33,199,*6E
$GPGSA,A,3,02,04,07,08,13,20,23,25,27,,,,1.3,1.0,0.8*33
$GPVTG,295.0,T,295.0,M,76.2,N,141.2,K,A*16
$GPDTM,P90,,0000.000022,S,00000.000001,W,0.988,W84*5A
$GPRMC,000330.00,A,2959.757361,N,12000.174218,E,76.2,295.0,230721,4.3,W,A*14
$GPGGA,000330.00,2959.757361,N,12000.174218,E,1,09,1.0,-23.0,M,7.0,M,,*43

$GPVTG,295.4,T,295.4,M,76.3,N,141.4,K,A*11
$GPDTM,P90,,0000.000022,S,00000.000001,W,0.988,W84*5A
$GPRMC,000330.10,A,2959.758265,N,12000.172010,E,76.3,295.4,230721,4.3,W,A*16
$GPGGA,000330.10,2959.758265,N,12000.172010,E,1,00,1.0,-23.0,M,7.0,M,,*4D

$GPVTG,295.8,T,295.8,M,76.5,N,141.6,K,A*15
$GPDTM,P90,,0000.000022,S,00000.000001,W,0.988,W84*5A
$GPRMC,000330.20,A,2959.759185,N,12000.169806,E,76.5,295.8,230721,4.3,W,A*16
$GPGGA,000330.20,2959.759185,N,12000.169806,E,1,00,1.0,-23.1,M,7.0,M,,*46

$GPVTG,296.3,T,296.3,M,76.6,N,141.8,K,A*18
$GPDTM,P90,,0000.000022,S,00000.000001,W,0.988,W84*5A
$GPRMC,000330.30,A,2959.760121,N,12000.167607,E,76.6,296.3,230721,4.3,W,A*19
$GPGGA,000330.30,2959.760121,N,12000.167607,E,1,00,1.0,-23.1,M,7.0,M,,*42

$GPVTG,296.7,T,296.7,M,76.7,N,142.0,K,A*12
$GPDTM,P90,,0000.000022,S,00000.000001,W,0.988,W84*5A
$GPRMC,000330.40,A,2959.761072,N,12000.165412,E,76.7,296.7,230721,4.3,W,A*19
$GPGGA,000330.40,2959.761072,N,12000.165412,E,1,00,1.0,-23.1,M,7.0,M,,*47

$GPVTG,297.1,T,297.1,M,76.8,N,142.3,K,A*1E
$GPDTM,P90,,0000.000022,S,00000.000001,W,0.988,W84*5A
$GPRMC,000330.50,A,2959.762039,N,12000.163223,E,76.8,297.1,230721,4.3,W,A*1E
$GPGGA,000330.50,2959.762039,N,12000.163223,E,1,00,1.0,-23.2,M,7.0,M,,*4B

$GPVTG,297.5,T,297.5,M,76.9,N,142.5,K,A*19
$GPDTM,P90,,0000.000022,S,00000.000001,W,0.988,W84*5A
$GPRMC,000330.60,A,2959.763022,N,12000.161038,E,76.9,297.5,230721,4.3,W,A*19
$GPGGA,000330.60,2959.763022,N,12000.161038,E,1,00,1.0,-23.2,M,7.0,M,,*49

$GPVTG,298.0,T,298.0,M,77.1,N,142.8,K,A*1D
$GPDTM,P90,,0000.000022,S,00000.000001,W,0.988,W84*5A
$GPRMC,000330.70,A,2959.764019,N,12000.158857,E,77.1,298.0,230721,4.3,W,A*1F
$GPGGA,000330.70,2959.764019,N,12000.158857,E,1,00,1.0,-23.3,M,7.0,M,,*4D

$GPVTG,298.4,T,298.4,M,77.2,N,143.0,K,A*17
$GPDTM,P90,,0000.000022,S,00000.000001,W,0.988,W84*5A
$GPRMC,000330.80,A,2959.765033,N,12000.156682,E,77.2,298.4,230721,4.3,W,A*16
$GPGGA,000330.80,2959.765033,N,12000.156682,E,1,00,1.0,-23.3,M,7.0,M,,*43

$GPVTG,298.8,T,298.8,M,77.4,N,143.3,K,A*12
$GPDTM,P90,,0000.000022,S,00000.000001,W,0.988,W84*5A
$GPRMC,000330.90,A,2959.766063,N,12000.154510,E,77.4,298.8,230721,4.3,W,A*11
$GPGGA,000330.90,2959.766063,N,12000.154510,E,1,00,1.0,-23.4,M,7.0,M,,*49

$GPGSV,3,1,10,02,32,298,26,04,50,244,27,07,83,102,26,08,47,206,27*79
$GPGSV,3,2,10,13,48,032,26,20,21,120,26,23,25,057,27,25,64,040,27*71
$GPGSV,3,3,10,27,18,219,26,30,46,260,*7F
$GLGSV,1,1,02,77,56,326,,71,02,081,*6E
$GAGSV,1,1,0,7*43
$PQGSV,1,1,0,0*43
$PQGSV,1,1,02,12,61,307,,13,33,199,*6E
$GPGSA,A,3,02,04,07,08,13,20,23,25,27,,,,1.3,1.0,0.8*33
$GPVTG,299.8,T,299.8,M,76.0,N,140.8,K,A*1F
$GPDTM,P90,,0000.000022,S,00000.000001,W,0.988,W84*5A
$GPRMC,000331.00,A,2959.767916,N,12000.152614,E,76.0,299.8,230721,4.3,W,A*16
$GPGGA,000331.00,2959.767916,N,12000.152614,E,1,09,1.0,-25.5,M,7.0,M,,*44

$GPVTG,300.3,T,300.3,M,76.1,N,140.9,K,A*1F
$GPDTM,P90,,0000.000022,S,00000.000001,W,0.988,W84*5A
$GPRMC,000331.10,A,2959.768977,N,12000.150507,E,76.1,300.3,230721,4.3,W,A*17
$GPGGA,000331.10,2959.768977,N,12000.150507,E,1,00,1.0,-25.6,M,7.0,M,,*44

$GPVTG,300.7,T,300.7,M,76.2,N,141.1,K,A*15
$GPDTM,P90,,0000.000022,S,00000.000001,W,0.988,W84*5A
$GPRMC,000331.20,A,2959.770053,N,12000.148409,E,76.2,300.7,230721,4.3,W,A*13
$GPGGA,000331.20,2959.770053,N,12000.148409,E,1,00,1.0,-25.6,M,7.0,M,,*47

$GPVTG,301.2,T,301.2,M,76.2,N,141.2,K,A*16
$GPDTM,P90,,0000.000022,S,00000.000001,W,0.988,W84*5A
$GPRMC,000331.30,A,2959.771145,N,12000.146318,E,76.2,301.2,230721,4.3,W,A*18
$GPGGA,000331.30,2959.771145,N,12000.146318,E,1,00,1.0,-25.6,M,7.0,M,,*48

$GPVTG,301.7,T,301.7,M,76.3,N,141.4,K,A*11
$GPDTM,P90,,0000.000022,S,00000.000001,W,0.988,W84*5A
$GPRMC,000331.40,A,2959.772252,N,12000.144236,E,76.3,301.7,230721,4.3,W,A*12
$GPGGA,000331.40,2959.772252,N,12000.144236,E,1,00,1.0,-25.7,M,7.0,M,,*47

$GPVTG,302.1,T,302.1,M,76.4,N,141.5,K,A*17
$GPDTM,P90,,0000.000022,S,00000.000001,W,0.988,W84*5A
$GPRMC,000331.50,A,2959.773375,N,12000.142162,E,76.4,302.1,230721,4.3,W,A*10
$GPGGA,000331.50,2959.773375,N,12000.142162,E,1,00,1.0,-25.7,M,7.0,M,,*47

$GPVTG,302.6,T,302.6,M,76.5,N,141.7,K,A*14
$GPDTM,P90,,0000.000022,S,00000.000001,W,0.988,W84*5A
$GPRMC,000331.60,A,2959.774514,N,12000.140095,E,76.5,302.6,230721,4.3,W,A*18
$GPGGA,000331.60,2959.774514,N,12000.140095,E,1,00,1.0,-25.8,M,7.0,M,,*46

$GPVTG,303.0,T,303.0,M,76.6,N,141.9,K,A*19
$GPDTM,P90,,0000.000022,S,00000.000001,W,0.988,W84*5A
$GPRMC,000331.70,A,2959.775668,N,12000.138037,E,76.6,303.0,230721,4.3,W,A*13
$GPGGA,000331.70,2959.775668,N,12000.138037,E,1,00,1.0,-25.8,M,7.0,M,,*49

$GPVTG,303.5,T,303.5,M,76.7,N,142.0,K,A*12
$GPDTM,P90,,0000.000022,S,00000.000001,W,0.988,W84*5A
$GPRMC,000331.80,A,2959.776838,N,12000.135986,E,76.7,303.5,230721,4.3,W,A*1E
$GPGGA,000331.80,2959.776838,N,12000.135986,E,1,00,1.0,-25.9,M,7.0,M,,*41

$GPVTG,303.9,T,303.9,M,76.8,N,142.2,K,A*1F
$GPDTM,P90,,0000.000022,S,00000.000001,W,0.988,W84*5A
$GPRMC,000331.90,A,2959.778025,N,12000.133943,E,76.8,303.9,230721,4.3,W,A*19
$GPGGA,000331.90,2959.778025,N,12000.133943,E,1,00,1.0,-25.9,M,7.0,M,,*45

$GPGSV,3,1,10,02,32,298,27,04,50,244,26,07,83,102,27,08,47,206,26*79
$GPGSV,3,2,10,13,48,032,27,20,21,120,27,23,25,057,26,25,64,040,27*70
$GPGSV,3,3,10,27,18,219,27,30,46,260,*7E
$GLGSV,1,1,02,77,56,326,,71,02,081,*6E
$GAGSV,1,1,0,7*43
$PQGSV,1,1,0,0*43
$PQGSV,1,1,02,12,61,307,,13,33,199,*6E
$GPGSA,A,3,02,04,07,08,13,20,23,25,27,,,,1.3,1.0,0.8*33
$GPVTG,304.8,T,304.8,M,76.1,N,140.8,K,A*1E
$GPDTM,P90,,0000.000022,S,00000.000001,W,0.988,W84*5A
$GPRMC,000332.00,A,2959.779555,N,12000.132587,E,76.1,304.8,230721,4.3,W,A*1A
$GPGGA,000332.00,2959.779555,N,12000.132587,E,1,09,1.0,-23.0,M,7.0,M,,*4F

$GPVTG,305.2,T,305.2,M,76.1,N,141.0,K,A*17
$GPDTM,P90,,0000.000022,S,00000.000001,W,0.988,W84*5A
$GPRMC,000332.10,A,2959.780771,N,12000.130593,E,76.1,305.2,230721,4.3,W,A*15
$GPGGA,000332.10,2959.780771,N,12000.130593,E,1,00,1.0,-23.0,M,7.0,M,,*42

$GPVTG,305.7,T,305.7,M,76.2,N,141.1,K,A*15
$GPDTM,P90,,0000.000022,S,00000.000001,W,0.988,W84*5A
$GPRMC,000332.20,A,2959.782001,N,12000.128609,E,76.2,305.7,230721,4.3,W,A*1B
$GPGGA,000332.20,2959.782001,N,12000.128609,E,1,00,1.0,-23.0,M,7.0,M,,*4A

$GPVTG,306.2,T,306.2,M,76.3,N,141.2,K,A*17
$GPDTM,P90,,0000.000022,S,00000.000001,W,0.988,W84*5A
$GPRMC,000332.30,A,2959.783248,N,12000.126636,E,76.3,306.2,230721,4.3,W,A*11
$GPGGA,000332.30,2959.783248,N,12000.126636,E,1,00,1.0,-23.0,M,7.0,M,,*47

$GPVTG,306.7,T,306.7,M,76.3,N,141.4,K,A*11
$GPDTM,P90,,0000.000022,S,00000.000001,W,0.988,W84*5A
$GPRMC,000332.40,A,2959.784510,N,12000.124672,E,76.3,306.7,230721,4.3,W,A*1C
$GPGGA,000332.40,2959.784510,N,12000.124672,E,1,00,1.0,-23.0,M,7.0,M,,*4F

$GPVTG,307.2,T,307.2,M,76.4,N,141.5,K,A*17
$GPDTM,P90,,0000.000022,S,00000.000001,W,0.988,W84*5A
$GPRMC,000332.50,A,2959.785787,N,12000.122719,E,76.4,307.2,230721,4.3,W,A*19
$GPGGA,000332.50,2959.785787,N,12000.122719,E,1,00,1.0,-23.0,M,7.0,M,,*49

$GPVTG,307.6,T,307.6,M,76.5,N,141.7,K,A*14
$GPDTM,P90,,0000.000022,S,00000.000001,W,0.988,W84*5A
$GPRMC,000332.60,A,2959.787080,N,12000.120775,E,76.5,307.6,230721,4.3,W,A*15
$GPGGA,000332.60,2959.787080,N,12000.120775,E,1,00,1.0,-23.0,M,7.0,M,,*40

$GPVTG,308.1,T,308.1,M,76.6,N,141.9,K,A*19
$GPDTM,P90,,0000.000022,S,00000.000001,W,0.988,W84*5A
$GPRMC,000332.70,A,2959.788389,N,12000.118841,E,76.6,308.1,230721,4.3,W,A*19
$GPGGA,000332.70,2959.788389,N,12000.118841,E,1,00,1.0,-23.0,M,7.0,M,,*47

$GPVTG,308.6,T,308.6,M,76.7,N,142.1,K,A*13
$GPDTM,P90,,0000.000022,S,00000.000001,W,0.988,W84*5A
$GPRMC,000332.80,A,2959.789713,N,12000.116917,E,76.7,308.6,230721,4.3,W,A*1A
$GPGGA,000332.80,2959.789713,N,12000.116917,E,1,00,1.0,-22.9,M,7.0,M,,*4A

$GPVTG,309.0,T,309.0,M,76.8,N,142.3,K,A*1E
$GPDTM,P90,,0000.000022,S,00000.000001,W,0.988,W84*5A
$GPRMC,000332.90,A,2959.791052,N,12000.115004,E,76.8,309.0,230721,4.3,W,A*10
$GPGGA,000332.90,2959.791052,N,12000.115004,E,1,00,1.0,-22.9,M,7.0,M,,*48

$GPGSV,3,1,10,02,32,298,27,04,50,244,26,07,83,102,26,08,47,206,26*78
$GPGSV,3,2,10,13,48,032,26,20,21,120,26,23,25,057,27,25,64,040,27*71
$GPGSV,3,3,10,27,18,219,26,30,46,260,*7F
$GLGSV,1,1,02,77,56,326,,71,02,081,*6E
$GAGSV,1,1,0,7*43
$PQGSV,1,1,0,0*43
$PQGSV,1,1,02,12,61,307,,13,33,199,*6E
$GPGSA,A,3,02,04,07,08,13,20,23,25,27,,,,1.3,1.0,0.8*33
$GPVTG,308.8,T,308.8,M,75.7,N,140.1,K,A*12
$GPDTM,P90,,0000.000022,S,00000.000001,W,0.988,W84*5A
$GPRMC,000333.00,A,2959.792538,N,12000.113075,E,75.7,308.8,230721,4.3,W,A*17
$GPGGA,000333.00,2959.792538,N,12000.113075,E,1,09,1.0,-22.4,M,7.0,M,,*4E

$GPVTG,309.3,T,309.3,M,75.7,N,140.2,K,A*11
$GPDTM,P90,,0000.000022,S,00000.000001,W,0.988,W84*5A
$GPRMC,000333.10,A,2959.793865,N,12000.111194,E,75.7,309.3,230721,4.3,W,A*14
$GPGGA,000333.10,2959.793865,N,12000.111194,E,1,00,1.0,-22.4,M,7.0,M,,*4E

$GPVTG,309.7,T,309.7,M,75.7,N,140.3,K,A*10
$GPDTM,P90,,0000.000022,S,00000.000001,W,0.988,W84*5A
$GPRMC,000333.20,A,2959.795206,N,12000.109324,E,75.7,309.7,230721,4.3,W,A*1A
$GPGGA,000333.20,2959.795206,N,12000.109324,E,1,00,1.0,-22.4,M,7.0,M,,*44

$GPVTG,310.1,T,310.1,M,75.8,N,140.3,K,A*1F
$GPDTM,P90,,0000.000022,S,00000.000001,W,0.988,W84*5A
$GPRMC,000333.30,A,2959.796559,N,12000.107465,E,75.8,310.1,230721,4.3,W,A*18
$GPGGA,000333.30,2959.796559,N,12000.107465,E,1,00,1.0,-22.4,M,7.0,M,,*47

$GPVTG,310.6,T,310.6,M,75.8,N,140.4,K,A*18
$GPDTM,P90,,0000.000022,S,00000.000001,W,0.988,W84*5A
$GPRMC,000333.40,A,2959.797925,N,12000.105617,E,75.8,310.6,230721,4.3,W,A*1B
$GPGGA,000333.40,2959.797925,N,12000.105617,E,1,00,1.0,-22.4,M,7.0,M,,*43

$GPVTG,311.0,T,311.0,M,75.9,N,140.5,K,A*18
$GPDTM,P90,,0000.000022,S,00000.000001,W,0.988,W84*5A
$GPRMC,000333.50,A,2959.799304,N,12000.103779,E,75.9,311.0,230721,4.3,W,A*14
$GPGGA,000333.50,2959.799304,N,12000.103779,E,1,00,1.0,-22.4,M,7.0,M,,*4A

$GPVTG,311.4,T,311.4,M,75.9,N,140.6,K,A*1B
$GPDTM,P90,,0000.000022,S,00000.000001,W,0.988,W84*5A
$GPRMC,000333.60,A,2959.800696,N,12000.101952,E,75.9,311.4,230721,4.3,W,A*17
$GPGGA,000333.60,2959.800696,N,12000.101952,E,1,00,1.0,-22.4,M,7.0,M,,*4D

$GPVTG,311.8,T,311.8,M,76.0,N,140.7,K,A*10
$GPDTM,P90,,0000.000022,S,00000.000001,W,0.988,W84*5A
$GPRMC,000333.70,A,2959.802101,N,12000.100135,E,76.0,311.8,230721,4.3,W,A*13
$GPGGA,000333.70,2959.802101,N,12000.100135,E,1,00,1.0,-22.4,M,7.0,M,,*4F

$GPVTG,312.3,T,312.3,M,76.1,N,140.9,K,A*1F
$GPDTM,P90,,0000.000022,S,00000.000001,W,0.988,W84*5A
$GPRMC,000333.80,A,2959.803520,N,12000.098330,E,76.1,312.3,230721,4.3,W,A*14
$GPGGA,000333.80,2959.803520,N,12000.098330,E,1,00,1.0,-22.4,M,7.0,M,,*41

$GPVTG,312.7,T,312.7,M,76.1,N,141.0,K,A*17
$GPDTM,P90,,0000.000022,S,00000.000001,W,0.988,W84*5A
$GPRMC,000333.90,A,2959.804951,N,12000.096535,E,76.1,312.7,230721,4.3,W,A*11
$GPGGA,000333.90,2959.804951,N,12000.096535,E,1,00,1.0,-22.4,M,7.0,M,,*40

$GPGSV,3,1,10,02,32,298,27,04,50,244,26,07,83,102,26,08,47,206,26*78
$GPGSV,3,2,10,13,48,032,26,20,21,120,26,23,25,057,27,25,64,040,27*71
$GPGSV,3,3,10,27,18,219,26,30,46,260,*7F
$GLGSV,1,1,02,77,56,326,,71,02,081,*6E
$GAGSV,1,1,0,7*43
$PQGSV,1,1,0,0*43
$PQGSV,1,1,02,12,61,307,,13,33,199,*6E
$GPGSA,A,3,02,04,07,08,13,20,23,25,27,,,,1.3,1.0,0.8*33
$GPVTG,312.6,T,312.6,M,73.7,N,136.5,K,A*11
$GPDTM,P90,,0000.000022,S,00000.000001,W,0.988,W84*5A
$GPRMC,000334.00,A,2959.806054,N,12000.095359,E,73.7,312.6,230721,4.3,W,A*1C
$GPGGA,000334.00,2959.806054,N,12000.095359,E,1,09,1.0,-21.8,M,7.0,M,,*49

$GPVTG,313.0,T,313.0,M,73.6,N,136.3,K,A*16
$GPDTM,P90,,0000.000022,S,00000.000001,W,0.988,W84*5A
$GPRMC,000334.10,A,2959.807446,N,12000.093629,E,73.6,313.0,230721,4.3,W,A*19
$GPGGA,000334.10,2959.807446,N,12000.093629,E,1,00,1.0,-21.8,M,7.0,M,,*43

$GPVTG,313.4,T,313.4,M,73.5,N,136.1,K,A*17
$GPDTM,P90,,0000.000022,S,00000.000001,W,0.988,W84*5A
$GPRMC,000334.20,A,2959.808847,N,12000.091913,E,73.5,313.4,230721,4.3,W,A*1B
$GPGGA,000334.20,2959.808847,N,12000.091913,E,1,00,1.0,-21.8,M,7.0,M,,*46

$GPVTG,313.8,T,313.8,M,73.4,N,136.0,K,A*17
$GPDTM,P90,,0000.000022,S,00000.000001,W,0.988,W84*5A
$GPRMC,000334.30,A,2959.810257,N,12000.090209,E,73.4,313.8,230721,4.3,W,A*14
$GPGGA,000334.30,2959.810257,N,12000.090209,E,1,00,1.0,-21.8,M,7.0,M,,*44

$GPVTG,314.2,T,314.2,M,73.4,N,135.9,K,A*1D
$GPDTM,P90,,0000.000022,S,00000.000001,W,0.988,W84*5A
$GPRMC,000334.40,A,2959.811676,N,12000.088520,E,73.4,314.2,230721,4.3,W,A*1D
$GPGGA,000334.40,2959.811676,N,12000.088520,E,1,00,1.0,-21.8,M,7.0,M,,*40

$GPVTG,314.6,T,314.6,M,73.3,N,135.7,K,A*14
$GPDTM,P90,,0000.000022,S,00000.000001,W,0.988,W84*5A
$GPRMC,000334.50,A,2959.813104,N,12000.086843,E,73.3,314.6,230721,4.3,W,A*19
$GPGGA,000334.50,2959.813104,N,12000.086843,E,1,00,1.0,-21.8,M,7.0,M,,*47

$GPVTG,315.0,T,315.0,M,73.2,N,135.6,K,A*14
$GPDTM,P90,,0000.000022,S,00000.000001,W,0.988,W84*5A
$GPRMC,000334.60,A,2959.814542,N,12000.085181,E,73.2,315.0,230721,4.3,W,A*19
$GPGGA,000334.60,2959.814542,N,12000.085181,E,1,00,1.0,-21.8,M,7.0,M,,*41

$GPVTG,315.4,T,315.4,M,73.2,N,135.5,K,A*17
$GPDTM,P90,,0000.000022,S,00000.000001,W,0.988,W84*5A
$GPRMC,000334.70,A,2959.815988,N,12000.083531,E,73.2,315.4,230721,4.3,W,A*1E
$GPGGA,000334.70,2959.815988,N,12000.083531,E,1,00,1.0,-21.8,M,7.0,M,,*42

$GPVTG,315.8,T,315.8,M,73.1,N,135.4,K,A*15
$GPDTM,P90,,0000.000022,S,00000.000001,W,0.988,W84*5A
$GPRMC,000334.80,A,2959.817445,N,12000.081895,E,73.1,315.8,230721,4.3,W,A*11
$GPGGA,000334.80,2959.817445,N,12000.081895,E,1,00,1.0,-21.8,M,7.0,M,,*42

$GPVTG,316.2,T,316.2,M,73.1,N,135.3,K,A*12
$GPDTM,P90,,0000.000022,S,00000.000001,W,0.988,W84*5A
$GPRMC,000334.90,A,2959.818909,N,12000.080272,E,73.1,316.2,230721,4.3,W,A*11
$GPGGA,000334.90,2959.818909,N,12000.080272,E,1,00,1.0,-21.8,M,7.0,M,,*4B

$GPGSV,3,1,10,02,32,298,27,04,50,244,26,07,83,102,27,08,47,206,25*7A
$GPGSV,3,2,10,13,48,032,27,20,21,120,27,23,25,057,27,25,64,040,25*73
$GPGSV,3,3,10,27,18,219,27,30,46,260,*7E
$GLGSV,1,1,02,77,56,326,,71,02,081,*6E
$GAGSV,1,1,0,7*43
$PQGSV,1,1,0,0*43
$PQGSV,1,1,02,12,61,307,,13,33,199,*6E
$GPGSA,A,3,02,04,07,08,13,20,23,25,27,,,,1.3,1.0,0.8*33
$GPVTG,316.9,T,316.9,M,76.1,N,140.9,K,A*1F
$GPDTM,P90,,0000.000022,S,00000.000001,W,0.988,W84*5A
$GPRMC,000335.00,A,2959.821210,N,12000.078387,E,76.1,316.9,230721,4.3,W,A*12
$GPGGA,000335.00,2959.821210,N,12000.078387,E,1,09,1.0,-20.3,M,7.0,M,,*45

$GPVTG,317.3,T,317.3,M,76.2,N,141.1,K,A*15
$GPDTM,P90,,0000.000022,S,00000.000001,W,0.988,W84*5A
$GPRMC,000335.10,A,2959.822764,N,12000.076730,E,76.2,317.3,230721,4.3,W,A*18
$GPGGA,000335.10,2959.822764,N,12000.076730,E,1,00,1.0,-20.2,M,7.0,M,,*4F

$GPVTG,317.7,T,317.7,M,76.3,N,141.4,K,A*11
$GPDTM,P90,,0000.000022,S,00000.000001,W,0.988,W84*5A
$GPRMC,000335.20,A,2959.824330,N,12000.075082,E,76.3,317.7,230721,4.3,W,A*10
$GPGGA,000335.20,2959.824330,N,12000.075082,E,1,00,1.0,-20.2,M,7.0,M,,*42

$GPVTG,318.1,T,318.1,M,76.5,N,141.7,K,A*14
$GPDTM,P90,,0000.000022,S,00000.000001,W,0.988,W84*5A
$GPRMC,000335.30,A,2959.825909,N,12000.073445,E,76.5,318.1,230721,4.3,W,A*16
$GPGGA,000335.30,2959.825909,N,12000.073445,E,1,00,1.0,-20.1,M,7.0,M,,*48

$GPVTG,318.6,T,318.6,M,76.6,N,142.0,K,A*13
$GPDTM,P90,,0000.000022,S,00000.000001,W,0.988,W84*5A
$GPRMC,000335.40,A,2959.827503,N,12000.071817,E,76.6,318.6,230721,4.3,W,A*18
$GPGGA,000335.40,2959.827503,N,12000.071817,E,1,00,1.0,-20.1,M,7.0,M,,*42

$GPVTG,319.0,T,319.0,M,76.8,N,142.2,K,A*1F
$GPDTM,P90,,0000.000022,S,00000.000001,W,0.988,W84*5A
$GPRMC,000335.50,A,2959.829109,N,12000.070199,E,76.8,319.0,230721,4.3,W,A*1E
$GPGGA,000335.50,2959.829109,N,12000.070199,E,1,00,1.0,-20.0,M,7.0,M,,*4C

$GPVTG,319.4,T,319.4,M,77.0,N,142.5,K,A*11
$GPDTM,P90,,0000.000022,S,00000.000001,W,0.988,W84*5A
$GPRMC,000335.60,A,2959.830729,N,12000.068590,E,77.0,319.4,230721,4.3,W,A*18
$GPGGA,000335.60,2959.830729,N,12000.068590,E,1,00,1.0,-20.0,M,7.0,M,,*47

$GPVTG,319.8,T,319.8,M,77.1,N,142.8,K,A*1D
$GPDTM,P90,,0000.000022,S,00000.000001,W,0.988,W84*5A
$GPRMC,000335.70,A,2959.832362,N,12000.066992,E,77.1,319.8,230721,4.3,W,A*1D
$GPGGA,000335.70,2959.832362,N,12000.066992,E,1,00,1.0,-19.9,M,7.0,M,,*4C

$GPVTG,320.2,T,320.2,M,77.3,N,143.2,K,A*14
$GPDTM,P90,,0000.000022,S,00000.000001,W,0.988,W84*5A
$GPRMC,000335.80,A,2959.834008,N,12000.065402,E,77.3,320.2,230721,4.3,W,A*1E
$GPGGA,000335.80,2959.834008,N,12000.065402,E,1,00,1.0,-19.9,M,7.0,M,,*4D

$GPVTG,320.6,T,320.6,M,77.5,N,143.5,K,A*15
$GPDTM,P90,,0000.000022,S,00000.000001,W,0.988,W84*5A
$GPRMC,000335.90,A,2959.835667,N,12000.063823,E,77.5,320.6,230721,4.3,W,A*1A
$GPGGA,000335.90,2959.835667,N,12000.063823,E,1,00,1.0,-19.8,M,7.0,M,,*4A

$GPGSV,3,1,10,02,32,298,27,04,50,244,26,07,83,102,26,08,47,206,26*78
$GPGSV,3,2,10,13,48,032,27,20,21,120,26,23,25,057,26,25,64,040,27*71
$GPGSV,3,3,10,27,18,219,27,30,46,260,*7E
$GLGSV,1,1,02,77,56,326,,71,02,081,*6E
$GAGSV,1,1,0,7*43
$PQGSV,1,1,0,0*43
$PQGSV,1,1,02,12,61,307,,13,33,199,*6E
$GPGSA,A,3,02,04,07,08,13,20,23,25,27,,,,1.3,1.0,0.8*33
$GPVTG,322.6,T,322.6,M,76.1,N,140.9,K,A*1F
$GPDTM,P90,,0000.000022,S,00000.000001,W,0.988,W84*5A
$GPRMC,000336.00,A,2959.837789,N,12000.063176,E,76.1,322.6,230721,4.3,W,A*1D
$GPGGA,000336.00,2959.837789,N,12000.063176,E,1,09,1.0,-20.1,M,7.0,M,,*40

$GPVTG,323.1,T,323.1,M,76.2,N,141.1,K,A*15
$GPDTM,P90,,0000.000022,S,00000.000001,W,0.988,W84*5A
$GPRMC,000336.10,A,2959.839480,N,12000.061707,E,76.2,323.1,230721,4.3,W,A*1F
$GPGGA,000336.10,2959.839480,N,12000.061707,E,1,00,1.0,-20.1,M,7.0,M,,*4E

$GPVTG,323.7,T,323.7,M,76.3,N,141.3,K,A*16
$GPDTM,P90,,0000.000022,S,00000.000001,W,0.988,W84*5A
$GPRMC,000336.20,A,2959.841185,N,12000.060253,E,76.3,323.7,230721,4.3,W,A*11
$GPGGA,000336.20,2959.841185,N,12000.060253,E,1,00,1.0,-20.2,M,7.0,M,,*44

$GPVTG,324.2,T,324.2,M,76.4,N,141.5,K,A*17
$GPDTM,P90,,0000.000022,S,00000.000001,W,0.988,W84*5A
$GPRMC,000336.30,A,2959.842903,N,12000.058813,E,76.4,324.2,230721,4.3,W,A*15
$GPGGA,000336.30,2959.842903,N,12000.058813,E,1,00,1.0,-20.2,M,7.0,M,,*45

$GPVTG,324.7,T,324.7,M,76.5,N,141.8,K,A*1B
$GPDTM,P90,,0000.000022,S,00000.000001,W,0.988,W84*5A
$GPRMC,000336.40,A,2959.844635,N,12000.057389,E,76.5,324.7,230721,4.3,W,A*1D
$GPGGA,000336.40,2959.844635,N,12000.057389,E,1,00,1.0,-20.2,M,7.0,M,,*49

$GPVTG,325.1,T,325.1,M,76.7,N,142.0,K,A*12
$GPDTM,P90,,0000.000022,S,00000.000001,W,0.988,W84*5A
$GPRMC,000336.50,A,2959.846380,N,12000.055980,E,76.7,325.1,230721,4.3,W,A*11
$GPGGA,000336.50,2959.846380,N,12000.055980,E,1,00,1.0,-20.2,M,7.0,M,,*40

$GPVTG,325.6,T,325.6,M,76.8,N,142.3,K,A*1E
$GPDTM,P90,,0000.000022,S,00000.000001,W,0.988,W84*5A
$GPRMC,000336.60,A,2959.848139,N,12000.054586,E,76.8,325.6,230721,4.3,W,A*1F
$GPGGA,000336.60,2959.848139,N,12000.054586,E,1,00,1.0,-20.3,M,7.0,M,,*47

$GPVTG,326.1,T,326.1,M,77.0,N,142.5,K,A*11
$GPDTM,P90,,0000.000022,S,00000.000001,W,0.988,W84*5A
$GPRMC,000336.70,A,2959.849911,N,12000.053207,E,77.0,326.1,230721,4.3,W,A*19
$GPGGA,000336.70,2959.849911,N,12000.053207,E,1,00,1.0,-20.3,M,7.0,M,,*4C

$GPVTG,326.6,T,326.6,M,77.1,N,142.8,K,A*1D
$GPDTM,P90,,0000.000022,S,00000.000001,W,0.988,W84*5A
$GPRMC,000336.80,A,2959.851697,N,12000.051842,E,77.1,326.6,230721,4.3,W,A*11
$GPGGA,000336.80,2959.851697,N,12000.051842,E,1,00,1.0,-20.3,M,7.0,M,,*42

$GPVTG,327.1,T,327.1,M,77.2,N,143.1,K,A*16
$GPDTM,P90,,0000.000022,S,00000.000001,W,0.988,W84*5A
$GPRMC,000336.90,A,2959.853497,N,12000.050494,E,77.2,327.1,230721,4.3,W,A*13
$GPGGA,000336.90,2959.853497,N,12000.050494,E,1,00,1.0,-20.4,M,7.0,M,,*42

$GPGSV,3,1,10,02,32,298,27,04,50,244,27,07,83,102,27,08,47,206,27*79
$GPGSV,3,2,10,13,48,032,26,20,21,120,27,23,25,057,27,25,64,040,27*70
$GPGSV,3,3,10,27,18,219,26,30,46,260,*7F
$GLGSV,1,1,02,77,56,326,,71,02,081,*6E
$GAGSV,1,1,0,7*43
$PQGSV,1,1,0,0*43
$PQGSV,1,1,02,12,61,307,,13,33,199,*6E
$GPGSA,A,3,02,04,07,08,13,20,23,25,27,,,,1.3,1.0,0.8*33
$GPVTG,326.2,T,326.2,M,76.8,N,142.3,K,A*1E
$GPDTM,P90,,0000.000022,S,00000.000001,W,0.988,W84*5A
$GPRMC,000337.00,A,2959.855384,N,12000.048530,E,76.8,326.2,230721,4.3,W,A*17
$GPGGA,000337.00,2959.855384,N,12000.048530,E,1,09,1.0,-20.8,M,7.0,M,,*4A

$GPVTG,326.7,T,326.7,M,76.9,N,142.5,K,A*19
$GPDTM,P90,,0000.000022,S,00000.000001,W,0.988,W84*5A
$GPRMC,000337.10,A,2959.857169,N,12000.047171,E,76.9,326.7,230721,4.3,W,A*1F
$GPGGA,000337.10,2959.857169,N,12000.047171,E,1,00,1.0,-20.9,M,7.0,M,,*4E

$GPVTG,327.1,T,327.1,M,77.1,N,142.7,K,A*12
$GPDTM,P90,,0000.000022,S,00000.000001,W,0.988,W84*5A
$GPRMC,000337.20,A,2959.858964,N,12000.045824,E,77.1,327.1,230721,4.3,W,A*13
$GPGGA,000337.20,2959.858964,N,12000.045824,E,1,00,1.0,-20.9,M,7.0,M,,*4C

$GPVTG,327.5,T,327.5,M,77.2,N,142.9,K,A*1F
$GPDTM,P90,,0000.000022,S,00000.000001,W,0.988,W84*5A
$GPRMC,000337.30,A,2959.860771,N,12000.044490,E,77.2,327.5,230721,4.3,W,A*16
$GPGGA,000337.30,2959.860771,N,12000.044490,E,1,00,1.0,-20.9,M,7.0,M,,*4E

$GPVTG,327.9,T,327.9,M,77.3,N,143.2,K,A*14
$GPDTM,P90,,0000.000022,S,00000.000001,W,0.988,W84*5A
$GPRMC,000337.40,A,2959.862588,N,12000.043168,E,77.3,327.9,230721,4.3,W,A*1F
$GPGGA,000337.40,2959.862588,N,12000.043168,E,1,00,1.0,-20.9,M,7.0,M,,*4A

$GPVTG,328.3,T,328.3,M,77.4,N,143.4,K,A*15
$GPDTM,P90,,0000.000022,S,00000.000001,W,0.988,W84*5A
$GPRMC,000337.50,A,2959.864417,N,12000.041860,E,77.4,328.3,230721,4.3,W,A*1E
$GPGGA,000337.50,2959.864417,N,12000.041860,E,1,00,1.0,-20.9,M,7.0,M,,*49

$GPVTG,328.7,T,328.7,M,77.6,N,143.7,K,A*14
$GPDTM,P90,,0000.000022,S,00000.000001,W,0.988,W84*5A
$GPRMC,000337.60,A,2959.866256,N,12000.040564,E,77.6,328.7,230721,4.3,W,A*12
$GPGGA,000337.60,2959.866256,N,12000.040564,E,1,00,1.0,-20.9,M,7.0,M,,*43

$GPVTG,329.1,T,329.1,M,77.7,N,143.9,K,A*1B
$GPDTM,P90,,0000.000022,S,00000.000001,W,0.988,W84*5A
$GPRMC,000337.70,A,2959.868107,N,12000.039280,E,77.7,329.1,230721,4.3,W,A*1F
$GPGGA,000337.70,2959.868107,N,12000.039280,E,1,00,1.0,-20.9,M,7.0,M,,*48

$GPVTG,329.5,T,329.5,M,77.8,N,144.2,K,A*18
$GPDTM,P90,,0000.000022,S,00000.000001,W,0.988,W84*5A
$GPRMC,000337.80,A,2959.869969,N,12000.038009,E,77.8,329.5,230721,4.3,W,A*18
$GPGGA,000337.80,2959.869969,N,12000.038009,E,1,00,1.0,-20.9,M,7.0,M,,*44

$GPVTG,329.9,T,329.9,M,78.0,N,144.4,K,A*19
$GPDTM,P90,,0000.000022,S,00000.000001,W,0.988,W84*5A
$GPRMC,000337.90,A,2959.871841,N,12000.036751,E,78.0,329.9,230721,4.3,W,A*14
$GPGGA,000337.90,2959.871841,N,12000.036751,E,1,00,1.0,-20.9,M,7.0,M,,*43

$GPGSV,3,1,10,02,32,298,26,04,50,244,26,07,83,102,26,08,47,206,27*78
$GPGSV,3,2,10,13,48,032,26,20,21,120,27,23,25,057,27,25,64,040,26*71
$GPGSV,3,3,10,27,18,219,26,30,46,260,*7F
$GLGSV,1,1,02,77,56,326,,71,02,081,*6E
$GAGSV,1,1,0,7*43
$PQGSV,1,1,0,0*43
$PQGSV,1,1,02,12,61,307,,13,33,199,*6E
$GPGSA,A,3,02,04,07,08,13,20,23,25,27,,,,1.3,1.0,0.8*33
$GPVTG,330.7,T,330.7,M,75.6,N,140.0,K,A*12
$GPDTM,P90,,0000.000022,S,00000.000001,W,0.988,W84*5A
$GPRMC,000338.00,A,2959.873155,N,12000.035920,E,75.6,330.7,230721,4.3,W,A*1A
$GPGGA,000338.00,2959.873155,N,12000.035920,E,1,09,1.0,-19.8,M,7.0,M,,*42

$GPVTG,331.1,T,331.1,M,75.6,N,140.0,K,A*12
$GPDTM,P90,,0000.000022,S,00000.000001,W,0.988,W84*5A
$GPRMC,000338.10,A,2959.874995,N,12000.034745,E,75.6,331.1,230721,4.3,W,A*13
$GPGGA,000338.10,2959.874995,N,12000.034745,E,1,00,1.0,-19.7,M,7.0,M,,*4A

$GPVTG,331.6,T,331.6,M,75.6,N,140.0,K,A*12
$GPDTM,P90,,0000.000022,S,00000.000001,W,0.988,W84*5A
$GPRMC,000338.20,A,2959.876842,N,12000.033586,E,75.6,331.6,230721,4.3,W,A*14
$GPGGA,000338.20,2959.876842,N,12000.033586,E,1,00,1.0,-19.7,M,7.0,M,,*4A

$GPVTG,332.0,T,332.0,M,75.6,N,140.0,K,A*12
$GPDTM,P90,,0000.000022,S,00000.000001,W,0.988,W84*5A
$GPRMC,000338.30,A,2959.878697,N,12000.032444,E,75.6,332.0,230721,4.3,W,A*16
$GPGGA,000338.30,2959.878697,N,12000.032444,E,1,00,1.0,-19.7,M,7.0,M,,*4D

$GPVTG,332.5,T,332.5,M,75.6,N,140.0,K,A*12
$GPDTM,P90,,0000.000022,S,00000.000001,W,0.988,W84*5A
$GPRMC,000338.40,A,2959.880560,N,12000.031317,E,75.6,332.5,230721,4.3,W,A*1A
$GPGGA,000338.40,2959.880560,N,12000.031317,E,1,00,1.0,-19.7,M,7.0,M,,*44

$GPVTG,332.9,T,332.9,M,75.6,N,140.1,K,A*13
$GPDTM,P90,,0000.000022,S,00000.000001,W,0.988,W84*5A
$GPRMC,000338.50,A,2959.882431,N,12000.030206,E,75.6,332.9,230721,4.3,W,A*10
$GPGGA,000338.50,2959.882431,N,12000.030206,E,1,00,1.0,-19.7,M,7.0,M,,*42

$GPVTG,333.3,T,333.3,M,75.7,N,140.1,K,A*12
$GPDTM,P90,,0000.000022,S,00000.000001,W,0.988,W84*5A
$GPRMC,000338.60,A,2959.884309,N,12000.029112,E,75.7,333.3,230721,4.3,W,A*1D
$GPGGA,000338.60,2959.884309,N,12000.029112,E,1,00,1.0,-19.7,M,7.0,M,,*45

$GPVTG,333.8,T,333.8,M,75.7,N,140.2,K,A*11
$GPDTM,P90,,0000.000022,S,00000.000001,W,0.988,W84*5A
$GPRMC,000338.70,A,2959.886196,N,12000.028034,E,75.7,333.8,230721,4.3,W,A*15
$GPGGA,000338.70,2959.886196,N,12000.028034,E,1,00,1.0,-19.6,M,7.0,M,,*47

$GPVTG,334.2,T,334.2,M,75.7,N,140.2,K,A*11
$GPDTM,P90,,0000.000022,S,00000.000001,W,0.988,W84*5A
$GPRMC,000338.80,A,2959.888090,N,12000.026971,E,75.7,334.2,230721,4.3,W,A*18
$GPGGA,000338.80,2959.888090,N,12000.026971,E,1,00,1.0,-19.6,M,7.0,M,,*47

$GPVTG,334.6,T,334.6,M,75.7,N,140.3,K,A*10
$GPDTM,P90,,0000.000022,S,00000.000001,W,0.988,W84*5A
$GPRMC,000338.90,A,2959.889991,N,12000.025925,E,75.7,334.6,230721,4.3,W,A*16
$GPGGA,000338.90,2959.889991,N,12000.025925,E,1,00,1.0,-19.6,M,7.0,M,,*4D

$GPGSV,3,1,10,02,32,298,27,04,50,244,27,07,83,102,27,08,47,206,26*78
$GPGSV,3,2,10,13,48,032,26,20,21,120,26,23,25,057,25,25,64,040,26*72
$GPGSV,3,3,10,27,18,219,27,30,46,260,*7E
$GLGSV,1,1,02,77,56,326,,71,02,081,*6E
$GAGSV,1,1,0,7*43
$PQGSV,1,1,0,0*43
$PQGSV,1,1,02,12,61,307,,13,33,199,*6E
$GPGSA,A,3,02,04,07,08,13,20,23,25,27,,,,1.3,1.0,0.8*33
$GPVTG,335.9,T,335.9,M,75.7,N,140.1,K,A*12
$GPDTM,P90,,0000.000022,S,00000.000001,W,0.988,W84*5A
$GPRMC,000339.00,A,2959.891940,N,12000.025573,E,75.7,335.9,230721,4.3,W,A*1A
$GPGGA,000339.00,2959.891940,N,12000.025573,E,1,09,1.0,-18.9,M,7.0,M,,*48

$GPVTG,336.4,T,336.4,M,75.7,N,140.2,K,A*11
$GPDTM,P90,,0000.000022,S,00000.000001,W,0.988,W84*5A
$GPRMC,000339.10,A,2959.893868,N,12000.024593,E,75.7,336.4,230721,4.3,W,A*13
$GPGGA,000339.10,2959.893868,N,12000.024593,E,1,00,1.0,-18.8,M,7.0,M,,*47

$GPVTG,336.9,T,336.9,M,75.8,N,140.3,K,A*1F
$GPDTM,P90,,0000.000022,S,00000.000001,W,0.988,W84*5A
$GPRMC,000339.20,A,2959.895803,N,12000.023632,E,75.8,336.9,230721,4.3,W,A*16
$GPGGA,000339.20,2959.895803,N,12000.023632,E,1,00,1.0,-18.8,M,7.0,M,,*40

$GPVTG,337.3,T,337.3,M,75.8,N,140.4,K,A*18
$GPDTM,P90,,0000.000022,S,00000.000001,W,0.988,W84*5A
$GPRMC,000339.30,A,2959.897747,N,12000.022688,E,75.8,337.3,230721,4.3,W,A*11
$GPGGA,000339.30,2959.897747,N,12000.022688,E,1,00,1.0,-18.8,M,7.0,M,,*4C

$GPVTG,337.8,T,337.8,M,75.9,N,140.5,K,A*18
$GPDTM,P90,,0000.000022,S,00000.000001,W,0.988,W84*5A
$GPRMC,000339.40,A,2959.899700,N,12000.021763,E,75.9,337.8,230721,4.3,W,A*16
$GPGGA,000339.40,2959.899700,N,12000.021763,E,1,00,1.0,-18.8,M,7.0,M,,*41

$GPVTG,338.3,T,338.3,M,75.9,N,140.7,K,A*1A
$GPDTM,P90,,0000.000022,S,00000.000001,W,0.988,W84*5A
$GPRMC,000339.50,A,2959.901661,N,12000.020857,E,75.9,338.3,230721,4.3,W,A*1C
$GPGGA,000339.50,2959.901661,N,12000.020857,E,1,00,1.0,-18.7,M,7.0,M,,*40

$GPVTG,338.8,T,338.8,M,76.0,N,140.8,K,A*1F
$GPDTM,P90,,0000.000022,S,00000.000001,W,0.988,W84*5A
$GPRMC,000339.60,A,2959.903630,N,12000.019968,E,76.0,338.8,230721,4.3,W,A*1F
$GPGGA,000339.60,2959.903630,N,12000.019968,E,1,00,1.0,-18.7,M,7.0,M,,*42

$GPVTG,339.3,T,339.3,M,76.1,N,140.9,K,A*1F
$GPDTM,P90,,0000.000022,S,00000.000001,W,0.988,W84*5A
$GPRMC,000339.70,A,2959.905608,N,12000.019097,E,76.1,339.3,230721,4.3,W,A*11
$GPGGA,000339.70,2959.905608,N,12000.019097,E,1,00,1.0,-18.7,M,7.0,M,,*47

$GPVTG,339.8,T,339.8,M,76.2,N,141.1,K,A*15
$GPDTM,P90,,0000.000022,S,00000.000001,W,0.988,W84*5A
$GPRMC,000339.80,A,2959.907594,N,12000.018245,E,76.2,339.8,230721,4.3,W,A*1E
$GPGGA,000339.80,2959.907594,N,12000.018245,E,1,00,1.0,-18.6,M,7.0,M,,*41

$GPVTG,340.2,T,340.2,M,76.3,N,141.3,K,A*16
$GPDTM,P90,,0000.000022,S,00000.000001,W,0.988,W84*5A
$GPRMC,000339.90,A,2959.909588,N,12000.017410,E,76.3,340.2,230721,4.3,W,A*10
$GPGGA,000339.90,2959.909588,N,12000.017410,E,1,00,1.0,-18.6,M,7.0,M,,*4A

$GPGSV,3,1,10,02,32,298,26,04,50,244,26,07,83,102,27,08,47,206,25*7B
$GPGSV,3,2,10,13,48,032,26,20,21,120,26,23,25,057,26,25,64,040,27*70
$GPGSV,3,3,10,27,18,219,27,30,46,260,*7E
$GLGSV,1,1,02,77,56,326,,71,02,081,*6E
$GAGSV,1,1,0,7*43
$PQGSV,1,1,0,0*43
$PQGSV,1,1,02,12,61,307,,13,33,199,*6E
$GPGSA,A,3,02,04,07,08,13,20,23,25,27,,,,1.3,1.0,0.8*33
$GPVTG,338.8,T,338.8,M,76.0,N,140.8,K,A*1F
$GPDTM,P90,,0000.000022,S,00000.000001,W,0.988,W84*5A
$GPRMC,000340.00,A,2959.911832,N,12000.016361,E,76.0,338.8,230721,4.3,W,A*14
$GPGGA,000340.00,2959.911832,N,12000.016361,E,1,09,1.0,-18.9,M,7.0,M,,*4E

$GPVTG,339.2,T,339.2,M,76.1,N,140.9,K,A*1F
$GPDTM,P90,,0000.000022,S,00000.000001,W,0.988,W84*5A
$GPRMC,000340.10,A,2959.913809,N,12000.015490,E,76.1,339.2,230721,4.3,W,A*1F
$GPGGA,000340.10,2959.913809,N,12000.015490,E,1,00,1.0,-18.9,M,7.0,M,,*46

$GPVTG,339.6,T,339.6,M,76.1,N,141.0,K,A*17
$GPDTM,P90,,0000.000022,S,00000.000001,W,0.988,W84*5A
$GPRMC,000340.20,A,2959.915792,N,12000.014633,E,76.1,339.6,230721,4.3,W,A*19
$GPGGA,000340.20,2959.915792,N,12000.014633,E,1,00,1.0,-18.9,M,7.0,M,,*44

$GPVTG,339.9,T,339.9,M,76.2,N,141.1,K,A*15
$GPDTM,P90,,0000.000022,S,00000.000001,W,0.988,W84*5A
$GPRMC,000340.30,A,2959.917781,N,12000.013790,E,76.2,339.9,230721,4.3,W,A*1B
$GPGGA,000340.30,2959.917781,N,12000.013790,E,1,00,1.0,-18.9,M,7.0,M,,*4A

$GPVTG,340.3,T,340.3,M,76.3,N,141.2,K,A*17
$GPDTM,P90,,0000.000022,S,00000.000001,W,0.988,W84*5A
$GPRMC,000340.40,A,2959.919777,N,12000.012960,E,76.3,340.3,230721,4.3,W,A*1E
$GPGGA,000340.40,2959.919777,N,12000.012960,E,1,00,1.0,-18.9,M,7.0,M,,*4A

$GPVTG,340.7,T,340.7,M,76.3,N,141.4,K,A*11
$GPDTM,P90,,0000.000022,S,00000.000001,W,0.988,W84*5A
$GPRMC,000340.50,A,2959.921779,N,12000.012144,E,76.3,340.7,230721,4.3,W,A*10
$GPGGA,000340.50,2959.921779,N,12000.012144,E,1,00,1.0,-18.9,M,7.0,M,,*40

$GPVTG,341.0,T,341.0,M,76.4,N,141.5,K,A*17
$GPDTM,P90,,0000.000022,S,00000.000001,W,0.988,W84*5A
$GPRMC,000340.60,A,2959.923788,N,12000.011342,E,76.4,341.0,230721,4.3,W,A*19
$GPGGA,000340.60,2959.923788,N,12000.011342,E,1,00,1.0,-18.9,M,7.0,M,,*48

$GPVTG,341.4,T,341.4,M,76.5,N,141.6,K,A*15
$GPDTM,P90,,0000.000022,S,00000.000001,W,0.988,W84*5A
$GPRMC,000340.70,A,2959.925803,N,12000.010554,E,76.5,341.4,230721,4.3,W,A*17
$GPGGA,000340.70,2959.925803,N,12000.010554,E,1,00,1.0,-18.9,M,7.0,M,,*43

$GPVTG,341.7,T,341.7,M,76.6,N,141.8,K,A*18
$GPDTM,P90,,0000.000022,S,00000.000001,W,0.988,W84*5A
$GPRMC,000340.80,A,2959.927825,N,12000.009780,E,76.6,341.7,230721,4.3,W,A*1D
$GPGGA,000340.80,2959.927825,N,12000.009780,E,1,00,1.0,-18.9,M,7.0,M,,*49

$GPVTG,342.1,T,342.1,M,76.6,N,142.0,K,A*13
$GPDTM,P90,,0000.000022,S,00000.000001,W,0.988,W84*5A
$GPRMC,000340.90,A,2959.929852,N,12000.009019,E,76.6,342.1,230721,4.3,W,A*10
$GPGGA,000340.90,2959.929852,N,12000.009019,E,1,00,1.0,-18.9,M,7.0,M,,*41

$GPGSV,3,1,10,02,32,298,26,04,50,244,26,07,83,102,28,08,47,206,26*77
$GPGSV,3,2,10,13,48,032,27,20,21,120,26,23,25,057,26,25,64,040,26*70
$GPGSV,3,3,10,27,18,219,27,30,46,260,*7E
$GLGSV,1,1,02,77,56,326,,71,02,081,*6E
$GAGSV,1,1,0,7*43
$PQGSV,1,1,0,0*43
$PQGSV,1,1,02,12,61,307,,13,33,199,*6E
$GPGSA,A,3,02,04,07,08,13,20,23,25,27,,,,1.3,1.0,0.8*33
$GPVTG,344.1,T,344.1,M,75.2,N,139.2,K,A*1A
$GPDTM,P90,,0000.000022,S,00000.000001,W,0.988,W84*5A
$GPRMC,000341.00,A,2959.931998,N,12000.008669,E,75.2,344.1,230721,4.3,W,A*17
$GPGGA,000341.00,2959.931998,N,12000.008669,E,1,09,1.0,-19.4,M,7.0,M,,*42

$GPVTG,344.6,T,344.6,M,75.2,N,139.3,K,A*1B
$GPDTM,P90,,0000.000022,S,00000.000001,W,0.988,W84*5A
$GPRMC,000341.10,A,2959.934013,N,12000.008020,E,75.2,344.6,230721,4.3,W,A*15
$GPGGA,000341.10,2959.934013,N,12000.008020,E,1,00,1.0,-19.4,M,7.0,M,,*4E

$GPVTG,345.0,T,345.0,M,75.2,N,139.3,K,A*1B
$GPDTM,P90,,0000.000022,S,00000.000001,W,0.988,W84*5A
$GPRMC,000341.20,A,2959.936034,N,12000.007389,E,75.2,345.0,230721,4.3,W,A*19
$GPGGA,000341.20,2959.936034,N,12000.007389,E,1,00,1.0,-19.5,M,7.0,M,,*44

$GPVTG,345.5,T,345.5,M,75.2,N,139.3,K,A*1B
$GPDTM,P90,,0000.000022,S,00000.000001,W,0.988,W84*5A
$GPRMC,000341.30,A,2959.938060,N,12000.006777,E,75.2,345.5,230721,4.3,W,A*16
$GPGGA,000341.30,2959.938060,N,12000.006777,E,1,00,1.0,-19.5,M,7.0,M,,*4E

$GPVTG,346.0,T,346.0,M,75.3,N,139.4,K,A*1D
$GPDTM,P90,,0000.000022,S,00000.000001,W,0.988,W84*5A
$GPRMC,000341.40,A,2959.940091,N,12000.006184,E,75.3,346.0,230721,4.3,W,A*1D
$GPGGA,000341.40,2959.940091,N,12000.006184,E,1,00,1.0,-19.6,M,7.0,M,,*41

$GPVTG,346.4,T,346.4,M,75.3,N,139.4,K,A*1D
$GPDTM,P90,,0000.000022,S,00000.000001,W,0.988,W84*5A
$GPRMC,000341.50,A,2959.942126,N,12000.005609,E,75.3,346.4,230721,4.3,W,A*16
$GPGGA,000341.50,2959.942126,N,12000.005609,E,1,00,1.0,-19.6,M,7.0,M,,*4E

$GPVTG,346.9,T,346.9,M,75.3,N,139.5,K,A*1C
$GPDTM,P90,,0000.000022,S,00000.000001,W,0.988,W84*5A
$GPRMC,000341.60,A,2959.944166,N,12000.005053,E,75.3,346.9,230721,4.3,W,A*13
$GPGGA,000341.60,2959.944166,N,12000.005053,E,1,00,1.0,-19.7,M,7.0,M,,*47

$GPVTG,347.4,T,347.4,M,75.4,N,139.6,K,A*18
$GPDTM,P90,,0000.000022,S,00000.000001,W,0.988,W84*5A
$GPRMC,000341.70,A,2959.946211,N,12000.004516,E,75.4,347.4,230721,4.3,W,A*1D
$GPGGA,000341.70,2959.946211,N,12000.004516,E,1,00,1.0,-19.8,M,7.0,M,,*4D

$GPVTG,347.8,T,347.8,M,75.4,N,139.7,K,A*19
$GPDTM,P90,,0000.000022,S,00000.000001,W,0.988,W84*5A
$GPRMC,000341.80,A,2959.948261,N,12000.003997,E,75.4,347.8,230721,4.3,W,A*15
$GPGGA,000341.80,2959.948261,N,12000.003997,E,1,00,1.0,-19.8,M,7.0,M,,*49

$GPVTG,348.3,T,348.3,M,75.5,N,139.8,K,A*17
$GPDTM,P90,,0000.000022,S,00000.000001,W,0.988,W84*5A
$GPRMC,000341.90,A,2959.950316,N,12000.003498,E,75.5,348.3,230721,4.3,W,A*1B
$GPGGA,000341.90,2959.950316,N,12000.003498,E,1,00,1.0,-19.9,M,7.0,M,,*43

$GPGSV,3,1,10,02,32,298,27,04,50,244,27,07,83,102,26,08,47,206,26*79
$GPGSV,3,2,10,13,48,032,26,20,21,120,27,23,25,057,27,25,64,040,27*70
$GPGSV,3,3,10,27,18,219,26,30,46,260,*7F
$GLGSV,1,1,02,77,56,326,,71,02,081,*6E
$GAGSV,1,1,0,7*43
$PQGSV,1,1,0,0*43
$PQGSV,1,1,02,12,61,307,,13,33,199,*6E
$GPGSA,A,3,02,04,07,08,13,20,23,25,27,,,,1.3,1.0,0.8*33
$GPVTG,349.0,T,349.0,M,75.7,N,140.1,K,A*12
$GPDTM,P90,,0000.000022,S,00000.000001,W,0.988,W84*5A
$GPRMC,000342.00,A,2959.952457,N,12000.003367,E,75.7,349.0,230721,4.3,W,A*16
$GPGGA,000342.00,2959.952457,N,12000.003367,E,1,09,1.0,-16.5,M,7.0,M,,*44

$GPVTG,349.4,T,349.4,M,75.7,N,140.2,K,A*11
$GPDTM,P90,,0000.000022,S,00000.000001,W,0.988,W84*5A
$GPRMC,000342.10,A,2959.954527,N,12000.002913,E,75.7,349.4,230721,4.3,W,A*1B
$GPGGA,000342.10,2959.954527,N,12000.002913,E,1,00,1.0,-16.5,M,7.0,M,,*44

$GPVTG,349.9,T,349.9,M,75.8,N,140.4,K,A*18
$GPDTM,P90,,0000.000022,S,00000.000001,W,0.988,W84*5A
$GPRMC,000342.20,A,2959.956603,N,12000.002478,E,75.8,349.9,230721,4.3,W,A*1D
$GPGGA,000342.20,2959.956603,N,12000.002478,E,1,00,1.0,-16.5,M,7.0,M,,*40

$GPVTG,350.4,T,350.4,M,75.9,N,140.5,K,A*18
$GPDTM,P90,,0000.000022,S,00000.000001,W,0.988,W84*5A
$GPRMC,000342.30,A,2959.958683,N,12000.002063,E,75.9,350.4,230721,4.3,W,A*10
$GPGGA,000342.30,2959.958683,N,12000.002063,E,1,00,1.0,-16.5,M,7.0,M,,*49

$GPVTG,350.9,T,350.9,M,76.0,N,140.7,K,A*10
$GPDTM,P90,,0000.000022,S,00000.000001,W,0.988,W84*5A
$GPRMC,000342.40,A,2959.960769,N,12000.001667,E,76.0,350.9,230721,4.3,W,A*1F
$GPGGA,000342.40,2959.960769,N,12000.001667,E,1,00,1.0,-16.5,M,7.0,M,,*41

$GPVTG,351.3,T,351.3,M,76.1,N,140.9,K,A*1F
$GPDTM,P90,,0000.000022,S,00000.000001,W,0.988,W84*5A
$GPRMC,000342.50,A,2959.962860,N,12000.001290,E,76.1,351.3,230721,4.3,W,A*1C
$GPGGA,000342.50,2959.962860,N,12000.001290,E,1,00,1.0,-16.4,M,7.0,M,,*49

$GPVTG,351.8,T,351.8,M,76.2,N,141.0,K,A*14
$GPDTM,P90,,0000.000022,S,00000.000001,W,0.988,W84*5A
$GPRMC,000342.60,A,2959.964956,N,12000.000932,E,76.2,351.8,230721,4.3,W,A*17
$GPGGA,000342.60,2959.964956,N,12000.000932,E,1,00,1.0,-16.4,M,7.0,M,,*4A

$GPVTG,352.3,T,352.3,M,76.3,N,141.2,K,A*17
$GPDTM,P90,,0000.000022,S,00000.000001,W,0.988,W84*5A
$GPRMC,000342.70,A,2959.967058,N,12000.000594,E,76.3,352.3,230721,4.3,W,A*1B
$GPGGA,000342.70,2959.967058,N,12000.000594,E,1,00,1.0,-16.4,M,7.0,M,,*4F

$GPVTG,352.7,T,352.7,M,76.4,N,141.4,K,A*16
$GPDTM,P90,,0000.000022,S,00000.000001,W,0.988,W84*5A
$GPRMC,000342.80,A,2959.969164,N,12000.000275,E,76.4,352.7,230721,4.3,W,A*1F
$GPGGA,000342.80,2959.969164,N,12000.000275,E,1,00,1.0,-16.4,M,7.0,M,,*48

$GPVTG,353.2,T,353.2,M,76.5,N,141.6,K,A*15
$GPDTM,P90,,0000.000022,S,00000.000001,W,0.988,W84*5A
$GPRMC,000342.90,A,2959.971276,N,11959.999975,E,76.5,353.2,230721,4.3,W,A*16
$GPGGA,000342.90,2959.971276,N,11959.999975,E,1,00,1.0,-16.3,M,7.0,M,,*43

$GPGSV,3,1,10,02,32,298,26,04,50,244,26,07,83,102,28,08,47,206,27*76
$GPGSV,3,2,10,13,48,032,26,20,21,120,26,23,25,057,27,25,64,040,27*71
$GPGSV,3,3,10,27,18,219,26,30,46,260,*7F
$GLGSV,1,1,02,77,56,326,,71,02,081,*6E
$GAGSV,1,1,0,7*43
$PQGSV,1,1,0,0*43
$PQGSV,1,1,02,12,61,307,,13,33,199,*6E
$GPGSA,A,3,02,04,07,08,13,20,23,25,27,,,,1.3,1.0,0.8*33
$GPVTG,353.7,T,353.7,M,76.0,N,140.7,K,A*10
$GPDTM,P90,,0000.000022,S,00000.000001,W,0.988,W84*5A
$GPRMC,000343.00,A,2959.972774,N,12000.000581,E,76.0,353.7,230721,4.3,W,A*12
$GPGGA,000343.00,2959.972774,N,12000.000581,E,1,09,1.0,-15.9,M,7.0,M,,*47

$GPVTG,354.2,T,354.2,M,76.0,N,140.8,K,A*1F
$GPDTM,P90,,0000.000022,S,00000.000001,W,0.988,W84*5A
$GPRMC,000343.10,A,2959.974879,N,12000.000324,E,76.0,354.2,230721,4.3,W,A*1C
$GPGGA,000343.10,2959.974879,N,12000.000324,E,1,00,1.0,-15.9,M,7.0,M,,*42

$GPVTG,354.6,T,354.6,M,76.1,N,141.0,K,A*17
$GPDTM,P90,,0000.000022,S,00000.000001,W,0.988,W84*5A
$GPRMC,000343.20,A,2959.976987,N,12000.000087,E,76.1,354.6,230721,4.3,W,A*12
$GPGGA,000343.20,2959.976987,N,12000.000087,E,1,00,1.0,-15.9,M,7.0,M,,*49

$GPVTG,355.1,T,355.1,M,76.2,N,141.2,K,A*16
$GPDTM,P90,,0000.000022,S,00000.000001,W,0.988,W84*5A
$GPRMC,000343.30,A,2959.979100,N,11959.999870,E,76.2,355.1,230721,4.3,W,A*11
$GPGGA,000343.30,2959.979100,N,11959.999870,E,1,00,1.0,-15.9,M,7.0,M,,*4F

$GPVTG,355.6,T,355.6,M,76.3,N,141.3,K,A*16
$GPDTM,P90,,0000.000022,S,00000.000001,W,0.988,W84*5A
$GPRMC,000343.40,A,2959.981216,N,11959.999672,E,76.3,355.6,230721,4.3,W,A*1F
$GPGGA,000343.40,2959.981216,N,11959.999672,E,1,00,1.0,-15.9,M,7.0,M,,*47

$GPVTG,356.0,T,356.0,M,76.4,N,141.5,K,A*17
$GPDTM,P90,,0000.000022,S,00000.000001,W,0.988,W84*5A
$GPRMC,000343.50,A,2959.983337,N,11959.999494,E,76.4,356.0,230721,4.3,W,A*16
$GPGGA,000343.50,2959.983337,N,11959.999494,E,1,00,1.0,-15.9,M,7.0,M,,*4C

$GPVTG,356.5,T,356.5,M,76.5,N,141.7,K,A*14
$GPDTM,P90,,0000.000022,S,00000.000001,W,0.988,W84*5A
$GPRMC,000343.60,A,2959.985462,N,11959.999335,E,76.5,356.5,230721,4.3,W,A*1C
$GPGGA,000343.60,2959.985462,N,11959.999335,E,1,00,1.0,-15.9,M,7.0,M,,*42

$GPVTG,357.0,T,357.0,M,76.6,N,141.9,K,A*19
$GPDTM,P90,,0000.000022,S,00000.000001,W,0.988,W84*5A
$GPRMC,000343.70,A,2959.987591,N,11959.999195,E,76.6,357.0,230721,4.3,W,A*1D
$GPGGA,000343.70,2959.987591,N,11959.999195,E,1,00,1.0,-15.9,M,7.0,M,,*44

$GPVTG,357.4,T,357.4,M,76.8,N,142.2,K,A*1F
$GPDTM,P90,,0000.000022,S,00000.000001,W,0.988,W84*5A
$GPRMC,000343.80,A,2959.989724,N,11959.999075,E,76.8,357.4,230721,4.3,W,A*15
$GPGGA,000343.80,2959.989724,N,11959.999075,E,1,00,1.0,-15.9,M,7.0,M,,*46

$GPVTG,357.9,T,357.9,M,76.9,N,142.4,K,A*18
$GPDTM,P90,,0000.000022,S,00000.000001,W,0.988,W84*5A
$GPRMC,000343.90,A,2959.991862,N,11959.998976,E,76.9,357.9,230721,4.3,W,A*17
$GPGGA,000343.90,2959.991862,N,11959.998976,E,1,00,1.0,-15.9,M,7.0,M,,*48

$GPGSV,3,1,10,02,32,298,27,04,50,244,27,07,83,102,26,08,47,206,26*79
$GPGSV,3,2,10,13,48,032,26,20,21,120,26,23,25,057,25,25,64,040,27*73
$GPGSV,3,3,10,27,18,219,27,30,46,260,*7E
$GLGSV,1,1,02,77,56,326,,71,02,081,*6E
$GAGSV,1,1,0,7*43
$PQGSV,1,1,0,0*43
$PQGSV,1,1,02,12,61,307,,13,33,199,*6E
$GPGSA,A,3,02,04,07,08,13,20,23,25,27,,,,1.3,1.0,0.8*33
$GPVTG,358.3,T,358.3,M,76.6,N,141.9,K,A*19
$GPDTM,P90,,0000.000022,S,00000.000001,W,0.988,W84*5A
$GPRMC,000344.00,A,2959.994119,N,11959.999747,E,76.6,358.3,230721,4.3,W,A*1E
$GPGGA,000344.00,2959.994119,N,11959.999747,E,1,09,1.0,-15.5,M,7.0,M,,*4E

$GPVTG,358.8,T,358.8,M,76.7,N,142.1,K,A*13
$GPDTM,P90,,0000.000022,S,00000.000001,W,0.988,W84*5A
$GPRMC,000344.10,A,2959.996254,N,11959.999684,E,76.7,358.8,230721,4.3,W,A*13
$GPGGA,000344.10,2959.996254,N,11959.999684,E,1,00,1.0,-15.5,M,7.0,M,,*40

$GPVTG,359.2,T,359.2,M,76.9,N,142.4,K,A*18
$GPDTM,P90,,0000.000022,S,00000.000001,W,0.988,W84*5A
$GPRMC,000344.20,A,2959.998393,N,11959.999640,E,76.9,359.2,230721,4.3,W,A*19
$GPGGA,000344.20,2959.998393,N,11959.999640,E,1,00,1.0,-15.5,M,7.0,M,,*4F

$GPVTG,359.7,T,359.7,M,77.0,N,142.6,K,A*12
$GPDTM,P90,,0000.000022,S,00000.000001,W,0.988,W84*5A
$GPRMC,000344.30,A,3000.000535,N,11959.999616,E,77.0,359.7,230721,4.3,W,A*10
$GPGGA,000344.30,3000.000535,N,11959.999616,E,1,00,1.0,-15.5,M,7.0,M,,*4B

$GPVTG,0.1,T,0.1,M,77.1,N,142.8,K,A*1D
$GPDTM,P90,,0000.000022,S,00000.000001,W,0.988,W84*5A
$GPRMC,000344.40,A,3000.002680,N,11959.999611,E,77.1,0.1,230721,4.3,W,A*17
$GPGGA,000344.40,3000.002680,N,11959.999611,E,1,00,1.0,-15.6,M,7.0,M,,*47

$GPVTG,0.6,T,0.6,M,77.2,N,143.1,K,A*16
$GPDTM,P90,,0000.000022,S,00000.000001,W,0.988,W84*5A
$GPRMC,000344.50,A,3000.004829,N,11959.999626,E,77.2,0.6,230721,4.3,W,A*1D
$GPGGA,000344.50,3000.004829,N,11959.999626,E,1,00,1.0,-15.6,M,7.0,M,,*49

$GPVTG,1.0,T,1.0,M,77.4,N,143.3,K,A*12
$GPDTM,P90,,0000.000022,S,00000.000001,W,0.988,W84*5A
$GPRMC,000344.60,A,3000.006981,N,11959.999660,E,77.4,1.0,230721,4.3,W,A*1C
$GPGGA,000344.60,3000.006981,N,11959.999660,E,1,00,1.0,-15.6,M,7.0,M,,*49

$GPVTG,1.5,T,1.5,M,77.5,N,143.6,K,A*16
$GPDTM,P90,,0000.000022,S,00000.000001,W,0.988,W84*5A
$GPRMC,000344.70,A,3000.009137,N,11959.999714,E,77.5,1.5,230721,4.3,W,A*11
$GPGGA,000344.70,3000.009137,N,11959.999714,E,1,00,1.0,-15.6,M,7.0,M,,*40

$GPVTG,1.9,T,1.9,M,77.7,N,143.8,K,A*1A
$GPDTM,P90,,0000.000022,S,00000.000001,W,0.988,W84*5A
$GPRMC,000344.80,A,3000.011297,N,11959.999787,E,77.7,1.9,230721,4.3,W,A*1A
$GPGGA,000344.80,3000.011297,N,11959.999787,E,1,00,1.0,-15.7,M,7.0,M,,*44

$GPVTG,2.4,T,2.4,M,77.8,N,144.1,K,A*1B
$GPDTM,P90,,0000.000022,S,00000.000001,W,0.988,W84*5A
$GPRMC,000344.90,A,3000.013460,N,11959.999879,E,77.8,2.4,230721,4.3,W,A*18
$GPGGA,000344.90,3000.013460,N,11959.999879,E,1,00,1.0,-15.7,M,7.0,M,,*47

$GPGSV,3,1,10,02,32,298,26,04,50,244,25,07,83,102,26,08,47,206,27*7B
$GPGSV,3,2,10,13,48,032,25,20,21,120,26,23,25,057,26,25,64,040,27*73
$GPGSV,3,3,10,27,18,219,27,30,46,260,*7E
$GLGSV,1,1,02,77,56,326,,71,02,081,*6E
$GAGSV,1,1,0,7*43
$PQGSV,1,1,0,0*43
$PQGSV,1,1,02,12,61,307,,13,33,199,*6E
$GPGSA,A,3,02,04,07,08,13,20,23,25,27,,,,1.3,1.0,0.8*33
$GPVTG,1.4,T,1.4,M,75.0,N,139.0,K,A*1A
$GPDTM,P90,,0000.000022,S,00000.000001,W,0.988,W84*5A
$GPRMC,000345.00,A,3000.014618,N,11959.999998,E,75.0,1.4,230721,4.3,W,A*1D
$GPGGA,000345.00,3000.014618,N,11959.999998,E,1,09,1.0,-14.1,M,7.0,M,,*45

$GPVTG,1.7,T,1.7,M,75.0,N,138.9,K,A*12
$GPDTM,P90,,0000.000022,S,00000.000001,W,0.988,W84*5A
$GPRMC,000345.10,A,3000.016707,N,12000.000064,E,75.0,1.7,230721,4.3,W,A*17
$GPGGA,000345.10,3000.016707,N,12000.000064,E,1,00,1.0,-14.1,M,7.0,M,,*45

$GPVTG,2.1,T,2.1,M,75.0,N,138.9,K,A*12
$GPDTM,P90,,0000.000022,S,00000.000001,W,0.988,W84*5A
$GPRMC,000345.20,A,3000.018794,N,12000.000145,E,75.0,2.1,230721,4.3,W,A*17
$GPGGA,000345.20,3000.018794,N,12000.000145,E,1,00,1.0,-14.1,M,7.0,M,,*40

$GPVTG,2.5,T,2.5,M,74.9,N,138.8,K,A*1B
$GPDTM,P90,,0000.000022,S,00000.000001,W,0.988,W84*5A
$GPRMC,000345.30,A,3000.020879,N,12000.000241,E,74.9,2.5,230721,4.3,W,A*1A
$GPGGA,000345.30,3000.020879,N,12000.000241,E,1,00,1.0,-14.1,M,7.0,M,,*41

$GPVTG,2.9,T,2.9,M,74.9,N,138.8,K,A*1B
$GPDTM,P90,,0000.000022,S,00000.000001,W,0.988,W84*5A
$GPRMC,000345.40,A,3000.022963,N,12000.000353,E,74.9,2.9,230721,4.3,W,A*1B
$GPGGA,000345.40,3000.022963,N,12000.000353,E,1,00,1.0,-14.1,M,7.0,M,,*4C

$GPVTG,3.2,T,3.2,M,74.9,N,138.7,K,A*14
$GPDTM,P90,,0000.000022,S,00000.000001,W,0.988,W84*5A
$GPRMC,000345.50,A,3000.025046,N,12000.000481,E,74.9,3.2,230721,4.3,W,A*11
$GPGGA,000345.50,3000.025046,N,12000.000481,E,1,00,1.0,-14.1,M,7.0,M,,*4C

$GPVTG,3.6,T,3.6,M,74.9,N,138.7,K,A*14
$GPDTM,P90,,0000.000022,S,00000.000001,W,0.988,W84*5A
$GPRMC,000345.60,A,3000.027128,N,12000.000624,E,74.9,3.6,230721,4.3,W,A*10
$GPGGA,000345.60,3000.027128,N,12000.000624,E,1,00,1.0,-14.0,M,7.0,M,,*48

$GPVTG,4.0,T,4.0,M,74.9,N,138.6,K,A*15
$GPDTM,P90,,0000.000022,S,00000.000001,W,0.988,W84*5A
$GPRMC,000345.70,A,3000.029208,N,12000.000782,E,74.9,4.0,230721,4.3,W,A*12
$GPGGA,000345.70,3000.029208,N,12000.000782,E,1,00,1.0,-14.0,M,7.0,M,,*4B

$GPVTG,4.4,T,4.4,M,74.9,N,138.6,K,A*15
$GPDTM,P90,,0000.000022,S,00000.000001,W,0.988,W84*5A
$GPRMC,000345.80,A,3000.031287,N,12000.000957,E,74.9,4.4,230721,4.3,W,A*11
$GPGGA,000345.80,3000.031287,N,12000.000957,E,1,00,1.0,-14.0,M,7.0,M,,*4C

$GPVTG,4.7,T,4.7,M,74.8,N,138.6,K,A*14
$GPDTM,P90,,0000.000022,S,00000.000001,W,0.988,W84*5A
$GPRMC,000345.90,A,3000.033364,N,12000.001147,E,74.8,4.7,230721,4.3,W,A*14
$GPGGA,000345.90,3000.033364,N,12000.001147,E,1,00,1.0,-14.0,M,7.0,M,,*4B

$GPGSV,3,1,10,02,32,298,27,04,50,244,27,07,83,102,27,08,47,206,26*78
$GPGSV,3,2,10,13,48,032,26,20,21,120,26,23,25,057,26,25,64,040,27*70
$GPGSV,3,3,10,27,18,219,26,30,46,260,*7F
$GLGSV,1,1,02,77,56,326,,71,02,081,*6E
$GAGSV,1,1,0,7*43
$PQGSV,1,1,0,0*43
$PQGSV,1,1,02,12,61,307,,13,33,199,*6E
$GPGSA,A,3,02,04,07,08,13,20,23,25,27,,,,1.3,1.0,0.8*33
$GPVTG,6.6,T,6.6,M,76.1,N,140.9,K,A*1F
$GPDTM,P90,,0000.000022,S,00000.000001,W,0.988,W84*5A
$GPRMC,000346.00,A,3000.035984,N,12000.002389,E,76.1,6.6,230721,4.3,W,A*17
$GPGGA,000346.00,3000.035984,N,12000.002389,E,1,09,1.0,-12.9,M,7.0,M,,*46

$GPVTG,7.0,T,7.0,M,76.1,N,141.0,K,A*17
$GPDTM,P90,,0000.000022,S,00000.000001,W,0.988,W84*5A
$GPRMC,000346.10,A,3000.038089,N,12000.002677,E,76.1,7.0,230721,4.3,W,A*1C
$GPGGA,000346.10,3000.038089,N,12000.002677,E,1,00,1.0,-12.9,M,7.0,M,,*43

$GPVTG,7.5,T,7.5,M,76.2,N,141.2,K,A*16
$GPDTM,P90,,0000.000022,S,00000.000001,W,0.988,W84*5A
$GPRMC,000346.20,A,3000.040193,N,12000.002984,E,76.2,7.5,230721,4.3,W,A*1F
$GPGGA,000346.20,3000.040193,N,12000.002984,E,1,00,1.0,-12.9,M,7.0,M,,*46

$GPVTG,7.9,T,7.9,M,76.3,N,141.4,K,A*11
$GPDTM,P90,,0000.000022,S,00000.000001,W,0.988,W84*5A
$GPRMC,000346.30,A,3000.042298,N,12000.003311,E,76.3,7.9,230721,4.3,W,A*1E
$GPGGA,000346.30,3000.042298,N,12000.003311,E,1,00,1.0,-12.8,M,7.0,M,,*4B

$GPVTG,8.4,T,8.4,M,76.4,N,141.6,K,A*14
$GPDTM,P90,,0000.000022,S,00000.000001,W,0.988,W84*5A
$GPRMC,000346.40,A,3000.044404,N,12000.003657,E,76.4,8.4,230721,4.3,W,A*1E
$GPGGA,000346.40,3000.044404,N,12000.003657,E,1,00,1.0,-12.8,M,7.0,M,,*4E

$GPVTG,8.8,T,8.8,M,76.5,N,141.8,K,A*1B
$GPDTM,P90,,0000.000022,S,00000.000001,W,0.988,W84*5A
$GPRMC,000346.50,A,3000.046510,N,12000.004022,E,76.5,8.8,230721,4.3,W,A*17
$GPGGA,000346.50,3000.046510,N,12000.004022,E,1,00,1.0,-12.8,M,7.0,M,,*4A

$GPVTG,9.3,T,9.3,M,76.7,N,142.0,K,A*12
$GPDTM,P90,,0000.000022,S,00000.000001,W,0.988,W84*5A
$GPRMC,000346.60,A,3000.048617,N,12000.004408,E,76.7,9.3,230721,4.3,W,A*1A
$GPGGA,000346.60,3000.048617,N,12000.004408,E,1,00,1.0,-12.7,M,7.0,M,,*40

$GPVTG,9.7,T,9.7,M,76.8,N,142.2,K,A*1F
$GPDTM,P90,,0000.000022,S,00000.000001,W,0.988,W84*5A
$GPRMC,000346.70,A,3000.050723,N,12000.004812,E,76.8,9.7,230721,4.3,W,A*18
$GPGGA,000346.70,3000.050723,N,12000.004812,E,1,00,1.0,-12.7,M,7.0,M,,*49

$GPVTG,10.2,T,10.2,M,76.9,N,142.4,K,A*18
$GPDTM,P90,,0000.000022,S,00000.000001,W,0.988,W84*5A
$GPRMC,000346.80,A,3000.052831,N,12000.005236,E,76.9,10.2,230721,4.3,W,A*28
$GPGGA,000346.80,3000.052831,N,12000.005236,E,1,00,1.0,-12.6,M,7.0,M,,*44

$GPVTG,10.6,T,10.6,M,77.0,N,142.6,K,A*12
$GPDTM,P90,,0000.000022,S,00000.000001,W,0.988,W84*5A
$GPRMC,000346.90,A,3000.054939,N,12000.005680,E,77.0,10.6,230721,4.3,W,A*23
$GPGGA,000346.90,3000.054939,N,12000.005680,E,1,00,1.0,-12.6,M,7.0,M,,*43

$GPGSV,3,1,10,02,32,298,27,04,50,244,27,07,83,102,26,08,47,206,26*79
$GPGSV,3,2,10,13,48,032,26,20,21,120,26,23,25,057,26,25,64,040,26*71
$GPGSV,3,3,10,27,18,219,26,30,46,260,*7F
$GLGSV,1,1,02,77,56,326,,71,02,081,*6E
$GAGSV,1,1,0,7*43
$PQGSV,1,1,0,0*43
$PQGSV,1,1,02,12,61,307,,13,33,199,*6E
$GPGSA,A,3,02,04,07,08,13,20,23,25,27,,,,1.3,1.0,0.8*33
$GPVTG,10.5,T,10.5,M,76.5,N,141.8,K,A*1B
$GPDTM,P90,,0000.000022,S,00000.000001,W,0.988,W84*5A
$GPRMC,000347.00,A,3000.056589,N,12000.006023,E,76.5,10.5,230721,4.3,W,A*25
$GPGGA,000347.00,3000.056589,N,12000.006023,E,1,09,1.0,-13.0,M,7.0,M,,*4C

$GPVTG,10.9,T,10.9,M,76.6,N,141.9,K,A*19
$GPDTM,P90,,0000.000022,S,00000.000001,W,0.988,W84*5A
$GPRMC,000347.10,A,3000.058684,N,12000.006479,E,76.6,10.9,230721,4.3,W,A*20
$GPGGA,000347.10,3000.058684,N,12000.006479,E,1,00,1.0,-13.0,M,7.0,M,,*4F

$GPVTG,11.3,T,11.3,M,76.7,N,142.1,K,A*13
$GPDTM,P90,,0000.000022,S,00000.000001,W,0.988,W84*5A
$GPRMC,000347.20,A,3000.060779,N,12000.006952,E,76.7,11.3,230721,4.3,W,A*25
$GPGGA,000347.20,3000.060779,N,12000.006952,E,1,00,1.0,-13.0,M,7.0,M,,*40

$GPVTG,11.7,T,11.7,M,76.8,N,142.3,K,A*1E
$GPDTM,P90,,0000.000022,S,00000.000001,W,0.988,W84*5A
$GPRMC,000347.30,A,3000.062874,N,12000.007444,E,76.8,11.7,230721,4.3,W,A*24
$GPGGA,000347.30,3000.062874,N,12000.007444,E,1,00,1.0,-13.1,M,7.0,M,,*4B

$GPVTG,12.2,T,12.2,M,76.9,N,142.5,K,A*19
$GPDTM,P90,,0000.000022,S,00000.000001,W,0.988,W84*5A
$GPRMC,000347.40,A,3000.064969,N,12000.007953,E,76.9,12.2,230721,4.3,W,A*24
$GPGGA,000347.40,3000.064969,N,12000.007953,E,1,00,1.0,-13.1,M,7.0,M,,*4C

$GPVTG,12.6,T,12.6,M,77.0,N,142.7,K,A*13
$GPDTM,P90,,0000.000022,S,00000.000001,W,0.988,W84*5A
$GPRMC,000347.50,A,3000.067062,N,12000.008480,E,77.0,12.6,230721,4.3,W,A*24
$GPGGA,000347.50,3000.067062,N,12000.008480,E,1,00,1.0,-13.1,M,7.0,M,,*40

$GPVTG,13.0,T,13.0,M,77.1,N,142.9,K,A*1C
$GPDTM,P90,,0000.000022,S,00000.000001,W,0.988,W84*5A
$GPRMC,000347.60,A,3000.069156,N,12000.009025,E,77.1,13.0,230721,4.3,W,A*23
$GPGGA,000347.60,3000.069156,N,12000.009025,E,1,00,1.0,-13.1,M,7.0,M,,*41

$GPVTG,13.4,T,13.4,M,77.3,N,143.1,K,A*17
$GPDTM,P90,,0000.000022,S,00000.000001,W,0.988,W84*5A
$GPRMC,000347.70,A,3000.071249,N,12000.009587,E,77.3,13.4,230721,4.3,W,A*2D
$GPGGA,000347.70,3000.071249,N,12000.009587,E,1,00,1.0,-13.2,M,7.0,M,,*4A

$GPVTG,13.8,T,13.8,M,77.4,N,143.3,K,A*12
$GPDTM,P90,,0000.000022,S,00000.000001,W,0.988,W84*5A
$GPRMC,000347.80,A,3000.073342,N,12000.010168,E,77.4,13.8,230721,4.3,W,A*2C
$GPGGA,000347.80,3000.073342,N,12000.010168,E,1,00,1.0,-13.2,M,7.0,M,,*40

$GPVTG,14.2,T,14.2,M,77.5,N,143.5,K,A*15
$GPDTM,P90,,0000.000022,S,00000.000001,W,0.988,W84*5A
$GPRMC,000347.90,A,3000.075434,N,12000.010767,E,77.5,14.2,230721,4.3,W,A*28
$GPGGA,000347.90,3000.075434,N,12000.010767,E,1,00,1.0,-13.3,M,7.0,M,,*49

$GPGSV,3,1,10,02,32,298,26,04,50,244,27,07,83,102,27,08,47,206,27*78
$GPGSV,3,2,10,13,48,032,27,20,21,120,27,23,25,057,26,25,64,040,26*71
$GPGSV,3,3,10,27,18,219,26,30,46,260,*7F
$GLGSV,1,1,02,77,56,326,,71,02,081,*6E
$GAGSV,1,1,0,7*43
$PQGSV,1,1,0,0*43
$PQGSV,1,1,02,12,61,307,,13,33,199,*6E
$GPGSA,A,3,02,04,07,08,13,20,23,25,27,,,,1.3,1.0,0.8*33
$GPVTG,15.3,T,15.3,M,75.8,N,140.3,K,A*1F
$GPDTM,P90,,0000.000022,S,00000.000001,W,0.988,W84*5A
$GPRMC,000348.00,A,3000.077453,N,12000.011605,E,75.8,15.3,230721,4.3,W,A*26
$GPGGA,000348.00,3000.077453,N,12000.011605,E,1,09,1.0,-13.0,M,7.0,M,,*42

$GPVTG,15.8,T,15.8,M,75.8,N,140.4,K,A*18
$GPDTM,P90,,0000.000022,S,00000.000001,W,0.988,W84*5A
$GPRMC,000348.10,A,3000.079486,N,12000.012255,E,75.8,15.8,230721,4.3,W,A*28
$GPGGA,000348.10,3000.079486,N,12000.012255,E,1,00,1.0,-13.0,M,7.0,M,,*4E

$GPVTG,16.2,T,16.2,M,75.8,N,140.4,K,A*18
$GPDTM,P90,,0000.000022,S,00000.000001,W,0.988,W84*5A
$GPRMC,000348.20,A,3000.081515,N,12000.012924,E,75.8,16.2,230721,4.3,W,A*23
$GPGGA,000348.20,3000.081515,N,12000.012924,E,1,00,1.0,-13.0,M,7.0,M,,*4C

$GPVTG,16.7,T,16.7,M,75.9,N,140.5,K,A*18
$GPDTM,P90,,0000.000022,S,00000.000001,W,0.988,W84*5A
$GPRMC,000348.30,A,3000.083540,N,12000.013612,E,75.9,16.7,230721,4.3,W,A*2F
$GPGGA,000348.30,3000.083540,N,12000.013612,E,1,00,1.0,-13.0,M,7.0,M,,*44

$GPVTG,17.1,T,17.1,M,75.9,N,140.6,K,A*1B
$GPDTM,P90,,0000.000022,S,00000.000001,W,0.988,W84*5A
$GPRMC,000348.40,A,3000.085562,N,12000.014318,E,75.9,17.1,230721,4.3,W,A*21
$GPGGA,000348.40,3000.085562,N,12000.014318,E,1,00,1.0,-13.0,M,7.0,M,,*4D

$GPVTG,17.6,T,17.6,M,75.9,N,140.7,K,A*1A
$GPDTM,P90,,0000.000022,S,00000.000001,W,0.988,W84*5A
$GPRMC,000348.50,A,3000.087580,N,12000.015043,E,75.9,17.6,230721,4.3,W,A*25
$GPGGA,000348.50,3000.087580,N,12000.015043,E,1,00,1.0,-13.0,M,7.0,M,,*4E

$GPVTG,18.1,T,18.1,M,76.0,N,140.7,K,A*10
$GPDTM,P90,,0000.000022,S,00000.000001,W,0.988,W84*5A
$GPRMC,000348.60,A,3000.089594,N,12000.015787,E,76.0,18.1,230721,4.3,W,A*20
$GPGGA,000348.60,3000.089594,N,12000.015787,E,1,00,1.0,-13.0,M,7.0,M,,*49

$GPVTG,18.5,T,18.5,M,76.1,N,140.8,K,A*1E
$GPDTM,P90,,0000.000022,S,00000.000001,W,0.988,W84*5A
$GPRMC,000348.70,A,3000.091604,N,12000.016550,E,76.1,18.5,230721,4.3,W,A*2C
$GPGGA,000348.70,3000.091604,N,12000.016550,E,1,00,1.0,-12.9,M,7.0,M,,*48

$GPVTG,19.0,T,19.0,M,76.1,N,141.0,K,A*17
$GPDTM,P90,,0000.000022,S,00000.000001,W,0.988,W84*5A
$GPRMC,000348.80,A,3000.093610,N,12000.017332,E,76.1,19.0,230721,4.3,W,A*23
$GPGGA,000348.80,3000.093610,N,12000.017332,E,1,00,1.0,-12.9,M,7.0,M,,*43

$GPVTG,19.4,T,19.4,M,76.2,N,141.1,K,A*15
$GPDTM,P90,,0000.000022,S,00000.000001,W,0.988,W84*5A
$GPRMC,000348.90,A,3000.095612,N,12000.018132,E,76.2,19.4,230721,4.3,W,A*2C
$GPGGA,000348.90,3000.095612,N,12000.018132,E,1,00,1.0,-12.9,M,7.0,M,,*4B

$GPGSV,3,1,10,02,32,298,26,04,50,244,27,07,83,102,25,08,47,206,27*7A
$GPGSV,3,2,10,13,48,032,26,20,21,120,27,23,25,057,26,25,64,040,26*70
$GPGSV,3,3,10,27,18,219,27,30,46,260,*7E
$GLGSV,1,1,02,77,56,326,,71,02,081,*6E
$GAGSV,1,1,0,7*43
$PQGSV,1,1,0,0*43
$PQGSV,1,1,02,12,61,307,,13,33,199,*6E
$GPGSA,A,3,02,04,07,08,13,20,23,25,27,,,,1.3,1.0,0.8*33
$GPVTG,18.8,T,18.8,M,76.7,N,142.1,K,A*13
$GPDTM,P90,,0000.000022,S,00000.000001,W,0.988,W84*5A
$GPRMC,000349.00,A,3000.097500,N,12000.019243,E,76.7,18.8,230721,4.3,W,A*2A
$GPGGA,000349.00,3000.097500,N,12000.019243,E,1,09,1.0,-12.7,M,7.0,M,,*42

$GPVTG,19.1,T,19.1,M,76.8,N,142.2,K,A*1F
$GPDTM,P90,,0000.000022,S,00000.000001,W,0.988,W84*5A
$GPRMC,000349.10,A,3000.099521,N,12000.020040,E,76.8,19.1,230721,4.3,W,A*2A
$GPGGA,000349.10,3000.099521,N,12000.020040,E,1,00,1.0,-12.7,M,7.0,M,,*4C

$GPVTG,19.5,T,19.5,M,76.9,N,142.4,K,A*18
$GPDTM,P90,,0000.000022,S,00000.000001,W,0.988,W84*5A
$GPRMC,000349.20,A,3000.101541,N,12000.020854,E,76.9,19.5,230721,4.3,W,A*27
$GPGGA,000349.20,3000.101541,N,12000.020854,E,1,00,1.0,-12.7,M,7.0,M,,*44

$GPVTG,19.9,T,19.9,M,77.0,N,142.6,K,A*12
$GPDTM,P90,,0000.000022,S,00000.000001,W,0.988,W84*5A
$GPRMC,000349.30,A,3000.103558,N,12000.021683,E,77.0,19.9,230721,4.3,W,A*2D
$GPGGA,000349.30,3000.103558,N,12000.021683,E,1,00,1.0,-12.7,M,7.0,M,,*4A

$GPVTG,20.3,T,20.3,M,77.1,N,142.8,K,A*1D
$GPDTM,P90,,0000.000022,S,00000.000001,W,0.988,W84*5A
$GPRMC,000349.40,A,3000.105572,N,12000.022529,E,77.1,20.3,230721,4.3,W,A*25
$GPGGA,000349.40,3000.105572,N,12000.022529,E,1,00,1.0,-12.7,M,7.0,M,,*43

$GPVTG,20.7,T,20.7,M,77.2,N,143.0,K,A*17
$GPDTM,P90,,0000.000022,S,00000.000001,W,0.988,W84*5A
$GPRMC,000349.50,A,3000.107584,N,12000.023392,E,77.2,20.7,230721,4.3,W,A*2F
$GPGGA,000349.50,3000.107584,N,12000.023392,E,1,00,1.0,-12.7,M,7.0,M,,*4E

$GPVTG,21.0,T,21.0,M,77.3,N,143.1,K,A*17
$GPDTM,P90,,0000.000022,S,00000.000001,W,0.988,W84*5A
$GPRMC,000349.60,A,3000.109595,N,12000.024271,E,77.3,21.0,230721,4.3,W,A*2E
$GPGGA,000349.60,3000.109595,N,12000.024271,E,1,00,1.0,-12.7,M,7.0,M,,*48

$GPVTG,21.4,T,21.4,M,77.4,N,143.4,K,A*15
$GPDTM,P90,,0000.000022,S,00000.000001,W,0.988,W84*5A
$GPRMC,000349.70,A,3000.111602,N,12000.025167,E,77.4,21.4,230721,4.3,W,A*2D
$GPGGA,000349.70,3000.111602,N,12000.025167,E,1,00,1.0,-12.7,M,7.0,M,,*48

$GPVTG,21.8,T,21.8,M,77.5,N,143.6,K,A*16
$GPDTM,P90,,0000.000022,S,00000.000001,W,0.988,W84*5A
$GPRMC,000349.80,A,3000.113608,N,12000.026079,E,77.5,21.8,230721,4.3,W,A*2A
$GPGGA,000349.80,3000.113608,N,12000.026079,E,1,00,1.0,-12.7,M,7.0,M,,*42

$GPVTG,22.2,T,22.2,M,77.6,N,143.8,K,A*1B
$GPDTM,P90,,0000.000022,S,00000.000001,W,0.988,W84*5A
