$GPGSV,3,1,12,02,32,295,41,04,49,241,41,07,83,082,42,08,49,208,41*71
$GPGSV,3,2,12,13,47,033,41,20,19,122,41,23,24,059,42,25,62,039,42*73
$GPGSV,3,3,12,27,19,219,41,10,01,310,,16,00,000,,28,00,000,*77
$GLGSV,2,1,07,78,08,330,40,86,30,026,40,77,58,324,40,75,08,153,40*6A
$GLGSV,2,2,07,88,21,246,40,87,60,306,40,71,02,078,*56
$GAGSV,2,1,07,09,14,316,,10,65,334,,11,53,120,,12,03,130,*65
$GAGSV,2,2,07,17,28,039,,24,81,016,,27,27,127,*55
$PQGSV,1,1,0,0*43
$PQGSV,1,1,02,12,61,310,,13,34,201,*6D
$GPGSA,A,3,02,04,07,08,13,20,23,25,27,,,,1.0,0.7,0.7*39
$GLGSA,A,3,75,77,78,86,87,88,,,,,,,1.0,0.7,0.7*23
$GPVTG,,T,,M,0.0,N,0.0,K,A*23
$GPDTM,P90,,0000.000022,S,00000.000001,W,0.988,W84*5A
$GPRMC,000735.00,A,2959.999428,N,12000.000220,E,0.0,,230721,4.3,W,A*09
$GPGGA,000735.00,2959.999428,N,12000.000220,E,1,12,0.7,-17.2,M,7.0,M,,*44

$GPGSV,3,1,12,02,32,295,41,04,49,241,41,07,83,082,41,08,49,208,41*72
$GPGSV,3,2,12,13,47,033,41,20,19,122,41,23,24,059,41,25,62,039,41*73
$GPGSV,3,3,12,27,19,219,41,10,01,310,,16,00,000,,28,00,000,*77
$GLGSV,2,1,07,78,08,330,40,86,30,026,40,77,58,324,40,75,08,153,40*6A
$GLGSV,2,2,07,88,21,246,40,87,60,306,40,71,02,078,*56
$GAGSV,2,1,07,09,14,316,,10,65,334,,11,53,120,,12,03,130,*65
$GAGSV,2,2,07,17,28,039,,24,81,016,,27,27,127,*55
$PQGSV,1,1,0,0*43
$PQGSV,1,1,02,12,61,310,,13,34,201,*6D
$GPGSA,A,3,02,04,07,08,13,20,23,25,27,,,,1.0,0.7,0.7*39
$GLGSA,A,3,75,77,78,86,87,88,,,,,,,1.0,0.7,0.7*23
$GPVTG,,T,,M,0.0,N,0.0,K,A*23
$GPDTM,P90,,0000.000022,S,00000.000001,W,0.988,W84*5A
$GPRMC,000736.00,A,2959.999428,N,12000.000220,E,0.0,,230721,4.3,W,A*0A
$GPGGA,000736.00,2959.999428,N,12000.000220,E,1,12,0.7,-17.2,M,7.0,M,,*47

$GPGSV,3,1,12,02,32,295,42,04,49,241,42,07,83,082,42,08,49,208,41*71
$GPGSV,3,2,12,13,47,033,41,20,19,122,41,23,24,059,41,25,62,039,42*70
$GPGSV,3,3,12,27,19,219,41,10,01,310,,16,00,000,,28,00,000,*77
$GLGSV,2,1,07,78,08,330,40,86,30,026,40,77,58,324,40,75,08,153,40*6A
$GLGSV,2,2,07,88,21,246,40,87,60,306,40,71,02,078,*56
$GAGSV,2,1,07,09,14,316,,10,65,334,,11,53,120,,12,03,130,*65
$GAGSV,2,2,07,17,28,039,,24,81,016,,27,27,127,*55
$PQGSV,1,1,0,0*43
$PQGSV,1,1,02,12,61,310,,13,34,201,*6D
$GPGSA,A,3,02,04,07,08,13,20,23,25,27,,,,1.0,0.7,0.7*39
$GLGSA,A,3,75,77,78,86,87,88,,,,,,,1.0,0.7,0.7*23
$GPVTG,,T,,M,0.0,N,0.0,K,A*23
$GPDTM,P90,,0000.000022,S,00000.000001,W,0.988,W84*5A
$GPRMC,000737.00,A,2959.999428,N,12000.000220,E,0.0,,230721,4.3,W,A*0B
$GPGGA,000737.00,2959.999428,N,12000.000220,E,1,12,0.7,-17.2,M,7.0,M,,*46

$GPGSV,3,1,12,02,32,295,41,04,49,241,41,07,83,082,41,08,49,208,41*72
$GPGSV,3,2,12,13,47,033,41,20,19,122,41,23,24,059,41,25,62,039,41*73
$GPGSV,3,3,12,27,19,219,41,10,01,310,,16,00,000,,28,00,000,*77
$GLGSV,2,1,07,78,08,330,40,86,30,026,40,77,58,324,40,75,08,153,40*6A
$GLGSV,2,2,07,88,21,246,40,87,60,306,40,71,02,078,*56
$GAGSV,2,1,07,09,14,316,,10,65,334,,11,53,120,,12,03,130,*65
$GAGSV,2,2,07,17,28,039,,24,81,016,,27,27,127,*55
$PQGSV,1,1,0,0*43
$PQGSV,1,1,02,12,61,310,,13,34,201,*6D
$GPGSA,A,3,02,04,07,08,13,20,23,25,27,,,,1.0,0.7,0.7*39
$GLGSA,A,3,75,77,78,86,87,88,,,,,,,1.0,0.7,0.7*23
$GPVTG,,T,,M,0.0,N,0.0,K,A*23
$GPDTM,P90,,0000.000022,S,00000.000001,W,0.988,W84*5A
$GPRMC,000738.00,A,2959.999428,N,12000.000220,E,0.0,,230721,4.3,W,A*04
$GPGGA,000738.00,2959.999428,N,12000.000220,E,1,12,0.7,-17.2,M,7.0,M,,*49

$GPGSV,3,1,12,02,32,295,41,04,49,241,41,07,83,082,41,08,49,208,41*72
$GPGSV,3,2,12,13,47,033,41,20,19,122,41,23,24,059,41,25,62,039,41*73
$GPGSV,3,3,12,27,19,219,41,10,01,310,,16,00,000,,28,00,000,*77
$GLGSV,2,1,07,78,08,330,40,86,30,026,40,77,58,324,40,75,08,153,40*6A
$GLGSV,2,2,07,88,21,246,40,87,60,306,40,71,02,078,*56
$GAGSV,2,1,07,09,14,316,,10,65,334,,11,53,120,,12,03,130,*65
$GAGSV,2,2,07,17,28,039,,24,81,016,,27,27,127,*55
$PQGSV,1,1,0,0*43
$PQGSV,1,1,02,12,61,310,,13,34,201,*6D
$GPGSA,A,3,02,04,07,08,13,20,23,25,27,,,,1.0,0.7,0.7*39
$GLGSA,A,3,75,77,78,86,87,88,,,,,,,1.0,0.7,0.7*23
$GPVTG,,T,,M,0.0,N,0.0,K,A*23
$GPDTM,P90,,0000.000022,S,00000.000001,W,0.988,W84*5A
$GPRMC,000739.00,A,2959.999428,N,12000.000220,E,0.0,,230721,4.3,W,A*05
$GPGGA,000739.00,2959.999428,N,12000.000220,E,1,12,0.7,-17.2,M,7.0,M,,*48

$GPGSV,3,1,12,02,32,295,41,04,49,241,41,07,83,082,41,08,49,208,41*72
$GPGSV,3,2,12,13,47,033,41,20,19,122,41,23,24,059,41,25,62,039,41*73
$GPGSV,3,3,12,27,19,219,41,10,01,310,,16,00,000,,28,00,000,*77
$GLGSV,2,1,07,78,08,330,40,86,30,026,40,77,58,324,40,75,08,153,40*6A
$GLGSV,2,2,07,88,21,246,40,87,60,306,40,71,02,078,*56
$GAGSV,2,1,07,09,14,316,,10,65,334,,11,53,120,,12,03,130,*65
$GAGSV,2,2,07,17,28,039,,24,81,016,,27,27,127,*55
$PQGSV,1,1,0,0*43
$PQGSV,1,1,02,12,61,310,,13,34,201,*6D
$GPGSA,A,3,02,04,07,08,13,20,23,25,27,,,,1.0,0.7,0.7*39
$GLGSA,A,3,75,77,78,86,87,88,,,,,,,1.0,0.7,0.7*23
$GPVTG,,T,,M,0.0,N,0.0,K,A*23
$GPDTM,P90,,0000.000022,S,00000.000001,W,0.988,W84*5A
$GPRMC,000740.00,A,2959.999428,N,12000.000220,E,0.0,,230721,4.3,W,A*0B
$GPGGA,000740.00,2959.999428,N,12000.000220,E,1,12,0.7,-17.2,M,7.0,M,,*46

$GPGSV,3,1,12,02,32,295,42,04,49,241,41,07,83,082,42,08,49,208,41*72
$GPGSV,3,2,12,13,47,033,41,20,19,122,42,23,24,059,41,25,62,039,41*70
$GPGSV,3,3,12,27,19,219,41,10,01,310,,16,00,000,,28,00,000,*77
$GLGSV,2,1,07,78,08,330,40,86,30,026,40,77,58,324,40,75,08,153,40*6A
$GLGSV,2,2,07,88,21,246,40,87,60,306,40,71,02,078,*56
$GAGSV,2,1,07,09,14,316,,10,65,334,,11,53,120,,12,03,130,*65
$GAGSV,2,2,07,17,28,039,,24,81,016,,27,27,127,*55
$PQGSV,1,1,0,0*43
$PQGSV,1,1,02,12,61,310,,13,34,201,*6D
$GPGSA,A,3,02,04,07,08,13,20,23,25,27,,,,1.0,0.7,0.7*39
$GLGSA,A,3,75,77,78,86,87,88,,,,,,,1.0,0.7,0.7*23
$GPVTG,,T,,M,0.0,N,0.0,K,A*23
$GPDTM,P90,,0000.000022,S,00000.000001,W,0.988,W84*5A
$GPRMC,000741.00,A,2959.999427,N,12000.000220,E,0.0,,230721,4.3,W,A*05
$GPGGA,000741.00,2959.999427,N,12000.000220,E,1,12,0.7,-17.2,M,7.0,M,,*48

$GPGSV,3,1,12,02,32,295,41,04,49,241,41,07,83,082,41,08,49,208,41*72
$GPGSV,3,2,12,13,47,033,42,20,19,122,41,23,24,059,41,25,62,039,41*70
$GPGSV,3,3,12,27,19,219,41,10,01,310,,16,00,000,,28,00,000,*77
$GLGSV,2,1,07,78,08,330,40,86,30,026,40,77,58,324,40,75,08,153,40*6A
$GLGSV,2,2,07,88,21,246,40,87,60,306,40,71,02,078,*56
$GAGSV,2,1,07,09,14,316,,10,65,334,,11,53,120,,12,03,130,*65
$GAGSV,2,2,07,17,28,039,,24,81,016,,27,27,127,*55
$PQGSV,1,1,0,0*43
$PQGSV,1,1,02,12,61,310,,13,34,201,*6D
$GPGSA,A,3,02,04,07,08,13,20,23,25,27,,,,1.0,0.7,0.7*39
$GLGSA,A,3,75,77,78,86,87,88,,,,,,,1.0,0.7,0.7*23
$GPVTG,,T,,M,0.0,N,0.0,K,A*23
$GPDTM,P90,,0000.000022,S,00000.000001,W,0.988,W84*5A
$GPRMC,000742.00,A,2959.999426,N,12000.000219,E,0.0,,230721,4.3,W,A*0D
$GPGGA,000742.00,2959.999426,N,12000.000219,E,1,12,0.7,-17.2,M,7.0,M,,*40

$GPGSV,3,1,11,02,32,295,41,04,49,241,41,07,83,082,42,08,49,208,41*72
$GPGSV,3,2,11,13,47,033,41,20,19,122,41,23,24,059,41,25,62,039,41*70
$GPGSV,3,3,11,27,19,219,41,16,00,000,,28,00,000,*46
$GLGSV,2,1,07,78,08,330,40,86,30,026,40,77,58,324,40,75,08,153,40*6A
$GLGSV,2,2,07,88,21,246,40,87,60,306,40,71,02,078,*56
$GAGSV,2,1,07,09,14,316,,10,65,334,,11,53,120,,12,03,130,*65
$GAGSV,2,2,07,17,28,039,,24,81,016,,27,27,127,*55
$PQGSV,1,1,0,0*43
$PQGSV,1,1,02,12,61,310,,13,34,201,*6D
$GPGSA,A,3,02,04,07,08,13,20,23,25,27,,,,1.0,0.7,0.7*39
$GLGSA,A,3,75,77,78,86,87,88,,,,,,,1.0,0.7,0.7*23
$GPVTG,,T,,M,0.0,N,0.0,K,A*23
$GPDTM,P90,,0000.000022,S,00000.000001,W,0.988,W84*5A
$GPRMC,000743.00,A,2959.999426,N,12000.000219,E,0.0,,230721,4.3,W,A*0C
$GPGGA,000743.00,2959.999426,N,12000.000219,E,1,12,0.7,-17.2,M,7.0,M,,*41

$GPGSV,3,1,12,02,32,295,42,04,49,241,41,07,83,082,41,08,49,208,41*71
$GPGSV,3,2,12,13,47,033,41,20,19,122,41,23,24,059,41,25,62,039,41*73
$GPGSV,3,3,12,27,19,219,41,10,01,310,,16,00,000,,28,00,000,*77
$GLGSV,2,1,07,78,08,330,40,86,30,026,40,77,58,324,40,75,08,153,40*6A
$GLGSV,2,2,07,88,21,246,40,87,60,306,40,71,02,078,*56
$GAGSV,2,1,07,09,14,316,,10,65,334,,11,53,120,,12,03,130,*65
$GAGSV,2,2,07,17,28,039,,24,81,016,,27,27,127,*55
$PQGSV,1,1,0,0*43
$PQGSV,1,1,02,12,61,310,,13,34,201,*6D
$GPGSA,A,3,02,04,07,08,13,20,23,25,27,,,,1.0,0.7,0.7*39
$GLGSA,A,3,75,77,78,86,87,88,,,,,,,1.0,0.7,0.7*23
$GPVTG,,T,,M,0.0,N,0.0,K,A*23
$GPDTM,P90,,0000.000022,S,00000.000001,W,0.988,W84*5A
$GPRMC,000744.00,A,2959.999426,N,12000.000219,E,0.0,,230721,4.3,W,A*0B
$GPGGA,000744.00,2959.999426,N,12000.000219,E,1,12,0.7,-17.2,M,7.0,M,,*46

$GPGSV,3,1,12,02,32,295,42,04,49,241,41,07,83,082,41,08,49,208,41*71
$GPGSV,3,2,12,13,47,033,41,20,19,122,41,23,24,059,41,25,62,039,41*73
$GPGSV,3,3,12,27,19,219,41,10,01,310,,16,00,000,,28,00,000,*77
$GLGSV,2,1,07,78,08,330,40,86,30,026,40,77,58,324,40,75,08,153,40*6A
$GLGSV,2,2,07,88,21,246,40,87,60,306,40,71,02,078,*56
$GAGSV,2,1,07,09,14,316,,10,65,334,,11,53,120,,12,03,130,*65
$GAGSV,2,2,07,17,28,039,,24,81,016,,27,27,127,*55
$PQGSV,1,1,0,0*43
$PQGSV,1,1,02,12,61,310,,13,34,201,*6D
$GPGSA,A,3,02,04,07,08,13,20,23,25,27,,,,1.0,0.7,0.7*39
$GLGSA,A,3,75,77,78,86,87,88,,,,,,,1.0,0.7,0.7*23
$GPVTG,,T,,M,0.0,N,0.0,K,A*23
$GPDTM,P90,,0000.000022,S,00000.000001,W,0.988,W84*5A
$GPRMC,000745.00,A,2959.999426,N,12000.000218,E,0.0,,230721,4.3,W,A*0B
$GPGGA,000745.00,2959.999426,N,12000.000218,E,1,12,0.7,-17.2,M,7.0,M,,*46

$GPGSV,3,1,12,02,32,295,41,04,49,241,41,07,83,082,42,08,49,208,41*71
$GPGSV,3,2,12,13,47,033,41,20,19,122,41,23,24,059,41,25,62,039,41*73
$GPGSV,3,3,12,27,19,219,41,10,01,310,,16,00,000,,28,00,000,*77
$GLGSV,2,1,07,78,08,330,40,86,30,026,40,77,58,324,40,75,08,153,40*6A
$GLGSV,2,2,07,88,21,246,40,87,60,306,40,71,02,078,*56
$GAGSV,2,1,07,09,14,316,,10,65,334,,11,53,120,,12,03,130,*65
$GAGSV,2,2,07,17,28,039,,24,81,016,,27,27,127,*55
$PQGSV,1,1,0,0*43
$PQGSV,1,1,02,12,61,310,,13,34,201,*6D
$GPGSA,A,3,02,04,07,08,13,20,23,25,27,,,,1.0,0.7,0.7*39
$GLGSA,A,3,75,77,78,86,87,88,,,,,,,1.0,0.7,0.7*23
$GPVTG,,T,,M,0.0,N,0.0,K,A*23
$GPDTM,P90,,0000.000022,S,00000.000001,W,0.988,W84*5A
$GPRMC,000746.00,A,2959.999426,N,12000.000218,E,0.0,,230721,4.3,W,A*08
$GPGGA,000746.00,2959.999426,N,12000.000218,E,1,12,0.7,-17.2,M,7.0,M,,*45

$GPGSV,3,1,12,02,32,295,41,04,49,241,42,07,83,082,41,08,49,208,41*71
$GPGSV,3,2,12,13,47,033,41,20,19,122,41,23,24,059,41,25,62,039,41*73
$GPGSV,3,3,12,27,19,219,41,10,01,310,,16,00,000,,28,00,000,*77
$GLGSV,2,1,07,78,08,330,40,86,30,026,40,77,58,324,40,75,08,153,40*6A
$GLGSV,2,2,07,88,21,246,40,87,60,306,40,71,02,078,*56
$GAGSV,2,1,07,09,14,316,45,10,65,334,45,11,53,120,45,17,28,039,45*61
$GAGSV,2,2,07,24,81,016,45,27,27,127,45,12,03,130,*51
$PQGSV,1,1,0,0*43
$PQGSV,1,1,02,12,61,310,,13,34,201,*6D
$GPGSA,A,3,02,04,07,08,13,20,23,25,27,,,,0.9,0.6,0.7*30
$GLGSA,A,3,75,77,78,86,87,88,,,,,,,0.9,0.6,0.7*2A
$GPVTG,,T,,M,0.0,N,0.0,K,A*23
$GPDTM,P90,,0000.000022,S,00000.000001,W,0.988,W84*5A
$GPRMC,000747.00,A,2959.999425,N,12000.000218,E,0.0,,230721,4.3,W,A*0A
$GPGGA,000747.00,2959.999425,N,12000.000218,E,1,12,0.6,-17.2,M,7.0,M,,*46

$GPGSV,3,1,12,02,32,295,41,04,49,241,41,07,83,082,41,08,49,208,41*72
$GPGSV,3,2,12,13,47,033,41,20,19,122,41,23,24,059,41,25,62,039,41*73
$GPGSV,3,3,12,27,19,219,41,10,01,310,,16,00,000,,28,00,000,*77
$GLGSV,2,1,07,78,08,330,40,86,30,026,40,77,58,324,40,75,08,153,40*6A
$GLGSV,2,2,07,88,21,246,40,87,60,306,40,71,02,078,*56
$GAGSV,2,1,07,09,14,316,45,10,65,334,45,11,53,120,45,17,28,039,45*61
$GAGSV,2,2,07,24,81,016,45,27,27,127,45,12,03,130,*51
$PQGSV,1,1,0,0*43
$PQGSV,1,1,02,12,61,310,,13,34,201,*6D
$GPGSA,A,3,02,04,07,08,13,20,23,25,27,,,,0.9,0.6,0.7*30
$GLGSA,A,3,75,77,78,86,87,88,,,,,,,0.9,0.6,0.7*2A
$GAGSA,A,3,09,10,11,17,,,,,,,,,0.9,0.6,0.7*25
$GPVTG,,T,,M,0.0,N,0.0,K,A*23
$GPDTM,P90,,0000.000022,S,00000.000001,W,0.988,W84*5A
$GPRMC,000748.00,A,2959.999425,N,12000.000218,E,0.0,,230721,4.3,W,A*05
$GPGGA,000748.00,2959.999425,N,12000.000218,E,1,12,0.6,-17.2,M,7.0,M,,*49

$GPGSV,3,1,12,02,32,295,41,04,49,241,41,07,83,082,41,08,49,208,41*72
$GPGSV,3,2,12,13,47,033,41,20,19,122,41,23,24,059,41,25,62,039,41*73
$GPGSV,3,3,12,27,19,219,41,10,01,310,,16,00,000,,28,00,000,*77
$GLGSV,2,1,07,78,08,330,40,86,30,026,40,77,58,324,40,75,08,153,40*6A
$GLGSV,2,2,07,88,21,246,40,87,60,306,40,71,02,078,*56
$GAGSV,2,1,07,09,14,316,45,10,65,334,45,11,53,120,45,17,28,039,45*61
$GAGSV,2,2,07,24,81,016,46,27,27,127,45,12,03,130,*52
$PQGSV,1,1,0,0*43
$PQGSV,1,1,02,12,61,310,,13,34,201,*6D
$GPGSA,A,3,02,04,07,08,13,20,23,25,27,,,,0.9,0.6,0.7*30
$GLGSA,A,3,75,77,78,86,87,88,,,,,,,0.9,0.6,0.7*2A
$GAGSA,A,3,09,10,11,17,,,,,,,,,0.9,0.6,0.7*25
$GPVTG,,T,,M,0.0,N,0.0,K,A*23
$GPDTM,P90,,0000.000022,S,00000.000001,W,0.988,W84*5A
$GPRMC,000749.00,A,2959.999425,N,12000.000218,E,0.0,,230721,4.3,W,A*04
$GPGGA,000749.00,2959.999425,N,12000.000218,E,1,12,0.6,-17.2,M,7.0,M,,*48

$GPGSV,3,1,12,02,32,295,41,04,49,241,41,07,83,082,41,08,49,208,42*71
$GPGSV,3,2,12,13,47,033,42,20,19,122,41,23,24,059,42,25,62,039,41*73
$GPGSV,3,3,12,27,19,219,41,10,01,310,,16,00,000,,28,00,000,*77
$GLGSV,2,1,07,78,08,330,40,86,30,026,40,77,58,324,40,75,08,153,40*6A
$GLGSV,2,2,07,88,21,246,40,87,60,306,40,71,02,078,*56
$GAGSV,2,1,07,09,14,316,45,10,65,334,45,11,53,120,45,17,28,039,45*61
$GAGSV,2,2,07,24,81,016,46,27,27,127,45,12,03,130,*52
$PQGSV,1,1,0,0*43
$PQGSV,1,1,02,12,61,310,,13,34,201,*6D
$GPGSA,A,3,02,04,07,08,13,20,23,25,27,,,,0.9,0.6,0.7*30
$GLGSA,A,3,75,77,78,86,87,88,,,,,,,0.9,0.6,0.7*2A
$GAGSA,A,3,09,10,11,17,,,,,,,,,0.9,0.6,0.7*25
$GPVTG,,T,,M,0.0,N,0.0,K,A*23
$GPDTM,P90,,0000.000022,S,00000.000001,W,0.988,W84*5A
$GPRMC,000750.00,A,2959.999425,N,12000.000217,E,0.0,,230721,4.3,W,A*03
$GPGGA,000750.00,2959.999425,N,12000.000217,E,1,12,0.6,-17.2,M,7.0,M,,*4F

$GPGSV,3,1,12,02,32,295,41,04,49,241,42,07,83,082,42,08,49,208,41*72
$GPGSV,3,2,12,13,47,033,41,20,19,122,41,23,24,059,41,25,62,039,41*73
$GPGSV,3,3,12,27,19,219,41,10,01,310,,16,00,000,,28,00,000,*77
$GLGSV,2,1,07,78,08,330,40,86,30,026,40,77,58,324,40,75,08,153,40*6A
$GLGSV,2,2,07,88,21,246,40,87,60,306,40,71,02,078,*56
$GAGSV,2,1,07,09,14,316,45,10,65,334,45,11,53,120,45,17,28,039,45*61
$GAGSV,2,2,07,24,81,016,45,27,27,127,45,12,03,130,*51
$PQGSV,1,1,0,0*43
$PQGSV,1,1,02,12,61,310,,13,34,201,*6D
$GPGSA,A,3,02,04,07,08,13,20,23,25,27,,,,0.9,0.6,0.7*30
$GLGSA,A,3,75,77,78,86,87,88,,,,,,,0.9,0.6,0.7*2A
$GAGSA,A,3,09,10,11,17,,,,,,,,,0.9,0.6,0.7*25
$GPVTG,,T,,M,0.0,N,0.0,K,A*23
$GPDTM,P90,,0000.000022,S,00000.000001,W,0.988,W84*5A
$GPRMC,000751.00,A,2959.999424,N,12000.000217,E,0.0,,230721,4.3,W,A*03
$GPGGA,000751.00,2959.999424,N,12000.000217,E,1,12,0.6,-17.2,M,7.0,M,,*4F

$GPGSV,3,1,11,02,32,295,41,04,49,241,41,07,83,082,42,08,49,208,41*72
$GPGSV,3,2,11,13,47,033,41,20,19,122,41,23,24,059,41,25,62,039,41*70
$GPGSV,3,3,11,27,19,219,41,10,01,310,,28,00,000,*43
$GLGSV,2,1,07,78,08,330,40,86,30,026,40,77,58,324,40,75,08,153,40*6A
$GLGSV,2,2,07,88,21,246,40,87,60,306,40,71,02,078,*56
$GAGSV,2,1,07,09,14,316,45,10,65,334,45,11,53,120,45,17,28,039,45*61
$GAGSV,2,2,07,24,81,016,45,27,27,127,45,12,03,130,*51
$PQGSV,1,1,0,0*43
$PQGSV,1,1,02,12,61,310,,13,34,201,*6D
$GPGSA,A,3,02,04,07,08,13,20,23,25,27,,,,0.9,0.6,0.7*30
$GLGSA,A,3,75,77,78,86,87,88,,,,,,,0.9,0.6,0.7*2A
$GAGSA,A,3,09,10,11,17,,,,,,,,,0.9,0.6,0.7*25
$GPVTG,,T,,M,0.0,N,0.0,K,A*23
$GPDTM,P90,,0000.000022,S,00000.000001,W,0.988,W84*5A
$GPRMC,000752.00,A,2959.999423,N,12000.000217,E,0.0,,230721,4.3,W,A*07
$GPGGA,000752.00,2959.999423,N,12000.000217,E,1,12,0.6,-17.2,M,7.0,M,,*4B

$GPGSV,3,1,12,02,32,295,41,04,49,241,41,07,83,082,41,08,49,208,41*72
$GPGSV,3,2,12,13,47,033,41,20,19,122,41,23,24,059,41,25,62,039,41*73
$GPGSV,3,3,12,27,19,219,41,10,01,310,,16,00,000,,28,00,000,*77
$GLGSV,2,1,07,78,08,330,40,86,30,026,40,77,58,324,40,75,08,153,40*6A
$GLGSV,2,2,07,88,21,246,40,87,60,306,40,71,02,078,*56
$GAGSV,2,1,07,09,14,316,45,10,65,334,45,11,53,120,45,17,28,039,45*61
$GAGSV,2,2,07,24,81,016,45,27,27,127,45,12,03,130,*51
$PQGSV,1,1,0,0*43
$PQGSV,1,1,02,12,61,310,,13,34,201,*6D
$GPGSA,A,3,02,04,07,08,13,20,23,25,27,,,,0.9,0.6,0.7*30
$GLGSA,A,3,75,77,78,86,87,88,,,,,,,0.9,0.6,0.7*2A
$GAGSA,A,3,09,10,11,17,,,,,,,,,0.9,0.6,0.7*25
$GPVTG,,T,,M,0.0,N,0.0,K,A*23
$GPDTM,P90,,0000.000022,S,00000.000001,W,0.988,W84*5A
$GPRMC,000753.00,A,2959.999423,N,12000.000216,E,0.0,,230721,4.3,W,A*07
$GPGGA,000753.00,2959.999423,N,12000.000216,E,1,12,0.6,-17.2,M,7.0,M,,*4B

$GPGSV,3,1,11,02,32,295,41,04,49,241,42,07,83,082,41,08,49,208,42*71
$GPGSV,3,2,11,13,47,033,41,20,19,122,41,23,24,059,41,25,62,039,41*70
$GPGSV,3,3,11,27,19,219,42,16,00,000,,28,00,000,*45
$GLGSV,2,1,07,78,08,330,40,86,30,026,40,77,58,324,40,75,08,153,40*6A
$GLGSV,2,2,07,88,21,246,40,87,60,306,40,71,02,078,*56
$GAGSV,2,1,07,09,14,316,45,10,65,334,45,11,53,120,45,17,28,039,45*61
$GAGSV,2,2,07,24,81,016,45,27,27,127,45,12,03,130,*51
$PQGSV,1,1,0,0*43
$PQGSV,1,1,02,12,61,310,,13,34,201,*6D
$GPGSA,A,3,02,04,07,08,13,20,23,25,27,,,,0.9,0.6,0.7*30
$GLGSA,A,3,75,77,78,86,87,88,,,,,,,0.9,0.6,0.7*2A
$GAGSA,A,3,09,10,11,17,,,,,,,,,0.9,0.6,0.7*25
$GPVTG,,T,,M,0.0,N,0.0,K,A*23
$GPDTM,P90,,0000.000022,S,00000.000001,W,0.988,W84*5A
$GPRMC,000754.00,A,2959.999423,N,12000.000216,E,0.0,,230721,4.3,W,A*00
$GPGGA,000754.00,2959.999423,N,12000.000216,E,1,12,0.6,-17.2,M,7.0,M,,*4C

$GPGSV,3,1,12,02,32,295,42,04,49,241,42,07,83,082,41,08,49,208,41*72
$GPGSV,3,2,12,13,47,033,41,20,19,122,41,23,24,059,41,25,62,039,41*73
$GPGSV,3,3,12,27,19,219,41,10,01,310,,16,00,000,,28,00,000,*77
$GLGSV,2,1,07,78,08,330,40,86,30,026,40,77,58,324,40,75,08,153,40*6A
$GLGSV,2,2,07,88,21,246,40,87,60,306,40,71,02,078,*56
$GAGSV,2,1,07,09,14,316,45,10,65,334,45,11,53,120,45,17,28,039,45*61
$GAGSV,2,2,07,24,81,016,46,27,27,127,45,12,03,130,*52
$PQGSV,1,1,0,0*43
$PQGSV,1,1,02,12,61,310,,13,34,201,*6D
$GPGSA,A,3,02,04,07,08,13,20,23,25,27,,,,0.9,0.6,0.7*30
$GLGSA,A,3,75,77,78,86,87,88,,,,,,,0.9,0.6,0.7*2A
$GAGSA,A,3,09,10,11,17,,,,,,,,,0.9,0.6,0.7*25
$GPVTG,,T,,M,0.0,N,0.0,K,A*23
$GPDTM,P90,,0000.000022,S,00000.000001,W,0.988,W84*5A
$GPRMC,000755.00,A,2959.999423,N,12000.000216,E,0.0,,230721,4.3,W,A*01
$GPGGA,000755.00,2959.999423,N,12000.000216,E,1,12,0.6,-17.2,M,7.0,M,,*4D

$GPGSV,3,1,12,02,32,295,41,04,49,241,42,07,83,082,41,08,49,208,41*71
$GPGSV,3,2,12,13,47,033,41,20,19,122,41,23,24,059,41,25,62,039,41*73
$GPGSV,3,3,12,27,19,219,41,10,01,310,,16,00,000,,28,00,000,*77
$GLGSV,2,1,07,78,08,330,40,86,30,026,40,77,58,324,40,75,08,153,40*6A
$GLGSV,2,2,07,88,21,246,40,87,60,306,40,71,02,078,*56
$GAGSV,2,1,07,09,14,316,45,10,65,334,45,11,53,120,45,17,28,039,45*61
$GAGSV,2,2,07,24,81,016,45,27,27,127,45,12,03,130,*51
$PQGSV,1,1,0,0*43
$PQGSV,1,1,02,12,61,310,,13,34,201,*6D
$GPGSA,A,3,02,04,07,08,13,20,23,25,27,,,,0.9,0.6,0.7*30
$GLGSA,A,3,75,77,78,86,87,88,,,,,,,0.9,0.6,0.7*2A
$GAGSA,A,3,09,10,11,17,,,,,,,,,0.9,0.6,0.7*25
$GPVTG,,T,,M,0.0,N,0.0,K,A*23
$GPDTM,P90,,0000.000022,S,00000.000001,W,0.988,W84*5A
$GPRMC,000756.00,A,2959.999423,N,12000.000216,E,0.0,,230721,4.3,W,A*02
$GPGGA,000756.00,2959.999423,N,12000.000216,E,1,12,0.6,-17.2,M,7.0,M,,*4E

$GPGSV,3,1,12,02,32,295,41,04,49,241,42,07,83,082,41,08,49,208,41*71
$GPGSV,3,2,12,13,47,033,41,20,19,122,41,23,24,059,41,25,62,039,41*73
$GPGSV,3,3,12,27,19,219,41,10,01,310,,16,00,000,,28,00,000,*77
$GLGSV,2,1,07,78,08,330,40,86,30,026,40,77,58,324,40,75,08,153,40*6A
$GLGSV,2,2,07,88,21,246,40,87,60,306,40,71,02,078,*56
$GAGSV,2,1,07,09,14,316,45,10,65,334,45,11,53,120,45,17,28,039,45*61
$GAGSV,2,2,07,24,81,016,45,27,27,127,45,12,03,130,*51
$PQGSV,1,1,0,0*43
$PQGSV,1,1,02,12,61,310,,13,34,201,*6D
$GPGSA,A,3,02,04,07,08,13,20,23,25,27,,,,0.9,0.6,0.7*30
$GLGSA,A,3,75,77,78,86,87,88,,,,,,,0.9,0.6,0.7*2A
$GAGSA,A,3,09,10,11,17,,,,,,,,,0.9,0.6,0.7*25
$GPVTG,,T,,M,0.0,N,0.0,K,A*23
$GPDTM,P90,,0000.000022,S,00000.000001,W,0.988,W84*5A
$GPRMC,000757.00,A,2959.999422,N,12000.000215,E,0.0,,230721,4.3,W,A*01
$GPGGA,000757.00,2959.999422,N,12000.000215,E,1,12,0.6,-17.2,M,7.0,M,,*4D

$GPGSV,3,1,12,02,32,295,41,04,49,241,41,07,83,082,41,08,49,208,41*72
$GPGSV,3,2,12,13,47,033,41,20,19,122,41,23,24,059,41,25,62,039,41*73
$GPGSV,3,3,12,27,19,219,42,10,01,310,,16,00,000,,28,00,000,*74
$GLGSV,2,1,07,78,08,330,40,86,30,026,40,77,58,324,40,75,08,153,40*6A
$GLGSV,2,2,07,88,21,246,40,87,60,306,40,71,02,078,*56
$GAGSV,2,1,07,09,14,316,45,10,65,334,45,11,53,120,45,17,28,039,45*61
$GAGSV,2,2,07,24,81,016,45,27,27,127,45,12,03,130,*51
$PQGSV,1,1,0,0*43
$PQGSV,1,1,02,12,61,310,,13,34,201,*6D
$GPGSA,A,3,02,04,07,08,13,20,23,25,27,,,,0.9,0.6,0.7*30
$GLGSA,A,3,75,77,78,86,87,88,,,,,,,0.9,0.6,0.7*2A
$GAGSA,A,3,09,10,11,17,,,,,,,,,0.9,0.6,0.7*25
$GPVTG,,T,,M,0.0,N,0.0,K,A*23
$GPDTM,P90,,0000.000022,S,00000.000001,W,0.988,W84*5A
$GPRMC,000758.00,A,2959.999422,N,12000.000215,E,0.0,,230721,4.3,W,A*0E
$GPGGA,000758.00,2959.999422,N,12000.000215,E,1,12,0.6,-17.2,M,7.0,M,,*42

$GPGSV,3,1,11,02,32,295,41,04,49,241,41,07,83,082,41,08,49,208,41*71
$GPGSV,3,2,11,13,47,033,41,20,19,122,42,23,24,059,41,25,62,039,42*70
$GPGSV,3,3,11,27,19,219,41,16,00,000,,28,00,000,*46
$GLGSV,2,1,07,78,08,330,40,86,30,026,40,77,58,324,40,75,08,153,40*6A
$GLGSV,2,2,07,88,21,246,40,87,60,306,40,71,02,078,*56
$GAGSV,2,1,07,09,14,316,45,10,65,334,45,11,53,120,45,17,28,039,45*61
$GAGSV,2,2,07,24,81,016,45,27,27,127,45,12,03,130,*51
$PQGSV,1,1,0,0*43
$PQGSV,1,1,02,12,61,310,,13,34,201,*6D
$GPGSA,A,3,02,04,07,08,13,20,23,25,27,,,,0.9,0.6,0.7*30
$GLGSA,A,3,75,77,78,86,87,88,,,,,,,0.9,0.6,0.7*2A
$GAGSA,A,3,09,10,11,17,,,,,,,,,0.9,0.6,0.7*25
$GPVTG,,T,,M,0.0,N,0.0,K,A*23
$GPDTM,P90,,0000.000022,S,00000.000001,W,0.988,W84*5A
$GPRMC,000759.00,A,2959.999422,N,12000.000215,E,0.0,,230721,4.3,W,A*0F
$GPGGA,000759.00,2959.999422,N,12000.000215,E,1,12,0.6,-17.2,M,7.0,M,,*43

$GPGSV,3,1,12,02,32,295,41,04,49,241,42,07,83,082,42,08,49,208,41*72
$GPGSV,3,2,12,13,47,033,41,20,19,122,41,23,24,059,41,25,62,039,41*73
$GPGSV,3,3,12,27,19,219,42,10,01,310,,16,00,000,,28,00,000,*74
$GLGSV,2,1,07,78,08,330,40,86,30,026,40,77,58,324,40,75,08,153,40*6A
$GLGSV,2,2,07,88,21,246,40,87,60,306,40,71,02,078,*56
$GAGSV,2,1,07,09,14,316,45,10,65,334,45,11,53,120,45,17,28,039,45*61
$GAGSV,2,2,07,24,81,016,45,27,27,127,45,12,03,130,*51
$PQGSV,1,1,0,0*43
$PQGSV,1,1,02,12,61,310,,13,34,201,*6D
$GPGSA,A,3,02,04,07,08,13,20,23,25,27,,,,0.9,0.6,0.7*30
$GLGSA,A,3,75,77,78,86,87,88,,,,,,,0.9,0.6,0.7*2A
$GAGSA,A,3,09,10,11,17,,,,,,,,,0.9,0.6,0.7*25
$GPVTG,,T,,M,0.0,N,0.0,K,A*23
$GPDTM,P90,,0000.000022,S,00000.000001,W,0.988,W84*5A
$GPRMC,000800.00,A,2959.999422,N,12000.000215,E,0.0,,230721,4.3,W,A*0C
$GPGGA,000800.00,2959.999422,N,12000.000215,E,1,12,0.6,-17.2,M,7.0,M,,*40

$GPGSV,3,1,12,02,32,295,41,04,49,241,42,07,83,082,42,08,49,208,42*71
$GPGSV,3,2,12,13,47,033,41,20,19,122,41,23,24,059,41,25,62,039,41*73
$GPGSV,3,3,12,27,19,219,41,10,01,310,,16,00,000,,28,00,000,*77
$GLGSV,2,1,07,78,08,330,40,86,30,026,40,77,58,324,40,75,08,153,40*6A
$GLGSV,2,2,07,88,21,246,40,87,60,306,40,71,02,078,*56
$GAGSV,2,1,07,09,14,316,45,10,65,334,45,11,53,120,45,17,28,039,45*61
$GAGSV,2,2,07,24,81,016,45,27,27,127,45,12,03,130,*51
$PQGSV,1,1,0,0*43
$PQGSV,1,1,02,12,61,310,,13,34,201,*6D
$GPGSA,A,3,02,04,07,08,13,20,23,25,27,,,,0.9,0.6,0.7*30
$GLGSA,A,3,75,77,78,86,87,88,,,,,,,0.9,0.6,0.7*2A
$GAGSA,A,3,09,10,11,17,,,,,,,,,0.9,0.6,0.7*25
$GPVTG,,T,,M,0.0,N,0.0,K,A*23
$GPDTM,P90,,0000.000022,S,00000.000001,W,0.988,W84*5A
$GPRMC,000801.00,A,2959.999422,N,12000.000215,E,0.0,,230721,4.3,W,A*0D
$GPGGA,000801.00,2959.999422,N,12000.000215,E,1,12,0.6,-17.2,M,7.0,M,,*41

$GPGSV,3,1,12,02,32,295,42,04,48,241,42,07,83,081,41,08,49,208,41*70
$GPGSV,3,2,12,13,46,033,41,20,19,122,42,23,24,059,42,25,62,039,41*72
$GPGSV,3,3,12,27,20,219,41,10,02,310,,16,00,000,,28,00,000,*7E
$GLGSV,2,1,07,78,08,330,40,86,30,026,40,77,58,324,40,75,08,153,40*6A
$GLGSV,2,2,07,88,21,246,40,87,60,306,40,71,02,078,*56
$GAGSV,2,1,07,09,14,316,45,10,65,334,45,11,53,120,45,17,28,039,46*62
$GAGSV,2,2,07,24,81,016,45,27,27,127,45,12,03,130,*51
$PQGSV,1,1,0,0*43
$PQGSV,1,1,02,12,61,310,,13,34,201,*6D
$GPGSA,A,3,02,04,07,08,13,20,23,25,27,,,,0.9,0.6,0.7*30
$GLGSA,A,3,75,77,78,86,87,88,,,,,,,0.9,0.6,0.7*2A
$GAGSA,A,3,09,10,11,17,,,,,,,,,0.9,0.6,0.7*25
$GPVTG,,T,,M,0.0,N,0.0,K,A*23
$GPDTM,P90,,0000.000022,S,00000.000001,W,0.988,W84*5A
$GPRMC,000802.00,A,2959.999421,N,12000.000214,E,0.0,,230721,4.3,W,A*0C
$GPGGA,000802.00,2959.999421,N,12000.000214,E,1,12,0.6,-17.2,M,7.0,M,,*40

$GPGSV,3,1,12,02,32,295,41,04,48,241,42,07,83,081,42,08,49,208,41*70
$GPGSV,3,2,12,13,46,033,41,20,19,122,41,23,24,059,41,25,62,039,41*72
$GPGSV,3,3,12,27,20,219,41,10,02,310,,16,00,000,,28,00,000,*7E
$GLGSV,2,1,07,78,08,330,40,86,30,026,40,77,58,324,40,75,08,153,40*6A
$GLGSV,2,2,07,88,21,246,40,87,60,306,40,71,02,078,*56
$GAGSV,2,1,07,09,14,316,45,10,65,334,45,11,53,120,45,17,28,039,45*61
$GAGSV,2,2,07,24,81,016,45,27,27,127,45,12,03,130,*51
$PQGSV,1,1,0,0*43
$PQGSV,1,1,02,12,61,310,,13,34,201,*6D
$GPGSA,A,3,02,04,07,08,13,20,23,25,27,,,,0.9,0.6,0.7*30
$GLGSA,A,3,75,77,78,86,87,88,,,,,,,0.9,0.6,0.7*2A
$GAGSA,A,3,09,10,11,17,,,,,,,,,0.9,0.6,0.7*25
$GPVTG,,T,,M,0.0,N,0.0,K,A*23
$GPDTM,P90,,0000.000022,S,00000.000001,W,0.988,W84*5A
$GPRMC,000803.00,A,2959.999421,N,12000.000214,E,0.0,,230721,4.3,W,A*0D
$GPGGA,000803.00,2959.999421,N,12000.000214,E,1,12,0.6,-17.2,M,7.0,M,,*41

$GPGSV,3,1,12,02,32,295,41,04,48,241,41,07,83,081,41,08,49,208,42*73
$GPGSV,3,2,12,13,46,033,41,20,19,122,41,23,24,059,41,25,62,039,41*72
$GPGSV,3,3,12,27,20,219,41,10,02,310,,16,00,000,,28,00,000,*7E
$GLGSV,2,1,07,78,08,330,40,86,30,026,40,77,58,324,40,75,08,153,40*6A
$GLGSV,2,2,07,88,21,246,40,87,60,306,40,71,02,078,*56
$GAGSV,2,1,07,09,14,316,45,10,65,334,45,11,53,120,46,17,28,039,45*62
$GAGSV,2,2,07,24,81,016,45,27,27,127,45,12,03,130,*51
$PQGSV,1,1,0,0*43
$PQGSV,1,1,02,12,61,310,,13,34,201,*6D
$GPGSA,A,3,02,04,07,08,13,20,23,25,27,,,,0.9,0.6,0.7*30
$GLGSA,A,3,75,77,78,86,87,88,,,,,,,0.9,0.6,0.7*2A
$GAGSA,A,3,09,10,11,17,,,,,,,,,0.9,0.6,0.7*25
$GPVTG,,T,,M,0.0,N,0.0,K,A*23
$GPDTM,P90,,0000.000022,S,00000.000001,W,0.988,W84*5A
$GPRMC,000804.00,A,2959.999421,N,12000.000214,E,0.0,,230721,4.3,W,A*0A
$GPGGA,000804.00,2959.999421,N,12000.000214,E,1,12,0.6,-17.2,M,7.0,M,,*46

$GPGSV,3,1,12,02,32,295,41,04,48,241,41,07,83,081,41,08,49,208,41*70
$GPGSV,3,2,12,13,46,033,41,20,19,122,41,23,24,059,41,25,62,039,41*72
$GPGSV,3,3,12,27,20,219,41,10,02,310,,16,00,000,,28,00,000,*7E
$GLGSV,2,1,07,78,08,330,40,86,30,026,40,77,58,324,40,75,08,153,40*6A
$GLGSV,2,2,07,88,21,246,40,87,60,306,40,71,02,078,*56
$GAGSV,2,1,07,09,14,316,45,10,65,334,45,11,53,120,45,17,28,039,45*61
$GAGSV,2,2,07,24,81,016,45,27,27,127,45,12,03,130,*51
$PQGSV,1,1,0,0*43
$PQGSV,1,1,02,12,61,310,,13,34,201,*6D
$GPGSA,A,3,02,04,07,08,13,20,23,25,27,,,,0.9,0.6,0.7*30
$GLGSA,A,3,75,77,78,86,87,88,,,,,,,0.9,0.6,0.7*2A
$GAGSA,A,3,09,10,11,17,,,,,,,,,0.9,0.6,0.7*25
$GPVTG,,T,,M,0.0,N,0.0,K,A*23
$GPDTM,P90,,0000.000022,S,00000.000001,W,0.988,W84*5A
$GPRMC,000805.00,A,2959.999421,N,12000.000213,E,0.0,,230721,4.3,W,A*0C
$GPGGA,000805.00,2959.999421,N,12000.000213,E,1,12,0.6,-17.2,M,7.0,M,,*40

$GPGSV,3,1,12,02,32,295,41,04,48,241,42,07,83,081,41,08,49,208,41*73
$GPGSV,3,2,12,13,46,033,41,20,19,122,41,23,24,059,41,25,62,039,41*72
$GPGSV,3,3,12,27,20,219,41,10,02,310,,16,00,000,,28,00,000,*7E
$GLGSV,2,1,07,78,08,330,40,86,30,026,40,77,58,324,40,75,08,153,40*6A
$GLGSV,2,2,07,88,21,246,40,87,60,306,40,71,02,078,*56
$GAGSV,2,1,07,09,14,316,45,10,65,334,45,11,53,120,45,17,28,039,45*61
$GAGSV,2,2,07,24,81,016,45,27,27,127,45,12,03,130,*51
$PQGSV,1,1,0,0*43
$PQGSV,1,1,02,12,61,310,,13,34,201,*6D
$GPGSA,A,3,02,04,07,08,13,20,23,25,27,,,,0.9,0.6,0.7*30
$GLGSA,A,3,75,77,78,86,87,88,,,,,,,0.9,0.6,0.7*2A
$GAGSA,A,3,09,10,11,17,,,,,,,,,0.9,0.6,0.7*25
$GPVTG,,T,,M,0.0,N,0.0,K,A*23
$GPDTM,P90,,0000.000022,S,00000.000001,W,0.988,W84*5A
$GPRMC,000806.00,A,2959.999421,N,12000.000213,E,0.0,,230721,4.3,W,A*0F
$GPGGA,000806.00,2959.999421,N,12000.000213,E,1,12,0.6,-17.2,M,7.0,M,,*43

$GPGSV,3,1,12,02,32,295,41,04,48,241,41,07,83,081,41,08,49,208,42*73
$GPGSV,3,2,12,13,46,033,41,20,19,122,41,23,24,059,41,25,62,039,41*72
$GPGSV,3,3,12,27,20,219,41,10,02,310,,16,00,000,,28,00,000,*7E
$GLGSV,2,1,07,78,08,330,40,86,30,026,40,77,58,324,40,75,08,153,40*6A
$GLGSV,2,2,07,88,21,246,40,87,60,306,40,71,02,078,*56
$GAGSV,2,1,07,09,14,316,45,10,65,334,45,11,53,120,45,17,28,039,45*61
$GAGSV,2,2,07,24,81,016,45,27,27,127,45,12,03,130,*51
$PQGSV,1,1,0,0*43
$PQGSV,1,1,02,12,61,310,,13,34,201,*6D
$GPGSA,A,3,02,04,07,08,13,20,23,25,27,,,,0.9,0.6,0.7*30
$GLGSA,A,3,75,77,78,86,87,88,,,,,,,0.9,0.6,0.7*2A
$GAGSA,A,3,09,10,11,17,,,,,,,,,0.9,0.6,0.7*25
$GPVTG,,T,,M,0.0,N,0.0,K,A*23
$GPDTM,P90,,0000.000022,S,00000.000001,W,0.988,W84*5A
$GPRMC,000807.00,A,2959.999421,N,12000.000214,E,0.0,,230721,4.3,W,A*09
$GPGGA,000807.00,2959.999421,N,12000.000214,E,1,12,0.6,-17.2,M,7.0,M,,*45

$GPGSV,3,1,12,02,32,295,41,04,48,241,41,07,83,081,41,08,49,208,41*70
$GPGSV,3,2,12,13,46,033,42,20,19,122,41,23,24,059,41,25,62,039,41*71
$GPGSV,3,3,12,27,20,219,41,10,02,310,,16,00,000,,28,00,000,*7E
$GLGSV,2,1,07,78,08,330,40,86,30,026,40,77,58,324,40,75,08,153,40*6A
$GLGSV,2,2,07,88,21,246,40,87,60,306,40,71,02,078,*56
$GAGSV,2,1,07,09,14,316,45,10,65,334,45,11,53,120,45,17,28,039,45*61
$GAGSV,2,2,07,24,81,016,45,27,27,127,45,12,03,130,*51
$PQGSV,1,1,0,0*43
$PQGSV,1,1,02,12,61,310,,13,34,201,*6D
$GPGSA,A,3,02,04,07,08,13,20,23,25,27,,,,0.9,0.6,0.7*30
$GLGSA,A,3,75,77,78,86,87,88,,,,,,,0.9,0.6,0.7*2A
$GAGSA,A,3,09,10,11,17,,,,,,,,,0.9,0.6,0.7*25
$GPVTG,,T,,M,0.0,N,0.0,K,A*23
$GPDTM,P90,,0000.000022,S,00000.000001,W,0.988,W84*5A
$GPRMC,000808.00,A,2959.999421,N,12000.000213,E,0.0,,230721,4.3,W,A*01
$GPGGA,000808.00,2959.999421,N,12000.000213,E,1,12,0.6,-17.2,M,7.0,M,,*4D

$GPGSV,3,1,12,02,32,295,42,04,48,241,41,07,83,081,42,08,49,208,41*70
$GPGSV,3,2,12,13,46,033,42,20,19,122,41,23,24,059,41,25,62,039,41*71
$GPGSV,3,3,12,27,20,219,42,10,02,310,,16,00,000,,28,00,000,*7D
$GLGSV,2,1,07,78,08,330,40,86,30,026,40,77,58,324,40,75,08,153,40*6A
$GLGSV,2,2,07,88,21,246,40,87,60,306,40,71,02,078,*56
$GAGSV,2,1,07,09,14,316,45,10,65,334,45,11,53,120,45,17,28,039,45*61
$GAGSV,2,2,07,24,81,016,45,27,27,127,45,12,03,130,*51
$PQGSV,1,1,0,0*43
$PQGSV,1,1,02,12,61,310,,13,34,201,*6D
$GPGSA,A,3,02,04,07,08,13,20,23,25,27,,,,0.9,0.6,0.7*30
$GLGSA,A,3,75,77,78,86,87,88,,,,,,,0.9,0.6,0.7*2A
$GAGSA,A,3,09,10,11,17,,,,,,,,,0.9,0.6,0.7*25
$GPVTG,,T,,M,0.0,N,0.0,K,A*23
$GPDTM,P90,,0000.000022,S,00000.000001,W,0.988,W84*5A
$GPRMC,000809.00,A,2959.999420,N,12000.000213,E,0.0,,230721,4.3,W,A*01
$GPGGA,000809.00,2959.999420,N,12000.000213,E,1,12,0.6,-17.2,M,7.0,M,,*4D

$GPGSV,3,1,12,02,32,295,41,04,48,241,41,07,83,081,41,08,49,208,41*70
$GPGSV,3,2,12,13,46,033,41,20,19,122,41,23,24,059,41,25,62,039,41*72
$GPGSV,3,3,12,27,20,219,41,10,02,310,,16,00,000,,28,00,000,*7E
$GLGSV,2,1,07,78,08,330,40,86,30,026,40,77,58,324,40,75,08,153,40*6A
$GLGSV,2,2,07,88,21,246,40,87,60,306,40,71,02,078,*56
$GAGSV,2,1,07,09,14,316,45,10,65,334,46,11,53,120,45,17,28,039,45*62
$GAGSV,2,2,07,24,81,016,45,27,27,127,45,12,03,130,*51
$PQGSV,1,1,0,0*43
$PQGSV,1,1,02,12,61,310,,13,34,201,*6D
$GPGSA,A,3,02,04,07,08,13,20,23,25,27,,,,0.9,0.6,0.7*30
$GLGSA,A,3,75,77,78,86,87,88,,,,,,,0.9,0.6,0.7*2A
$GAGSA,A,3,09,10,11,17,,,,,,,,,0.9,0.6,0.7*25
$GPVTG,,T,,M,0.0,N,0.0,K,A*23
$GPDTM,P90,,0000.000022,S,00000.000001,W,0.988,W84*5A
$GPRMC,000810.00,A,2959.999420,N,12000.000213,E,0.0,,230721,4.3,W,A*09
$GPGGA,000810.00,2959.999420,N,12000.000213,E,1,12,0.6,-17.2,M,7.0,M,,*45

$GPGSV,3,1,12,02,32,295,41,04,48,241,41,07,83,081,42,08,49,208,41*73
$GPGSV,3,2,12,13,46,033,41,20,19,122,41,23,24,059,41,25,62,039,41*72
$GPGSV,3,3,12,27,20,219,41,10,02,310,,16,00,000,,28,00,000,*7E
$GLGSV,2,1,07,78,08,330,40,86,30,026,40,77,58,324,40,75,08,153,40*6A
$GLGSV,2,2,07,88,21,246,40,87,60,306,40,71,02,078,*56
$GAGSV,2,1,07,09,14,316,45,10,65,334,45,11,53,120,45,17,28,039,45*61
$GAGSV,2,2,07,24,81,016,45,27,27,127,45,12,03,130,*51
$PQGSV,1,1,0,0*43
$PQGSV,1,1,02,12,61,310,,13,34,201,*6D
$GPGSA,A,3,02,04,07,08,13,20,23,25,27,,,,0.9,0.6,0.7*30
$GLGSA,A,3,75,77,78,86,87,88,,,,,,,0.9,0.6,0.7*2A
$GAGSA,A,3,09,10,11,17,,,,,,,,,0.9,0.6,0.7*25
$GPVTG,,T,,M,0.0,N,0.0,K,A*23
$GPDTM,P90,,0000.000022,S,00000.000001,W,0.988,W84*5A
$GPRMC,000811.00,A,2959.999420,N,12000.000212,E,0.0,,230721,4.3,W,A*09
$GPGGA,000811.00,2959.999420,N,12000.000212,E,1,12,0.6,-17.2,M,7.0,M,,*45

$GPGSV,3,1,11,02,32,295,42,04,48,241,41,07,83,081,41,08,49,208,41*70
$GPGSV,3,2,11,13,46,033,42,20,19,122,41,23,24,059,42,25,62,039,41*71
$GPGSV,3,3,11,27,20,219,41,10,02,310,,28,00,000,*4A
$GLGSV,2,1,07,78,08,330,40,86,30,026,40,77,58,324,40,75,08,153,40*6A
$GLGSV,2,2,07,88,21,246,40,87,60,306,40,71,02,078,*56
$GAGSV,2,1,07,09,14,316,45,10,65,334,45,11,53,120,45,17,28,039,45*61
$GAGSV,2,2,07,24,81,016,45,27,27,127,45,12,03,130,*51
$PQGSV,1,1,0,0*43
$PQGSV,1,1,02,12,61,310,,13,34,201,*6D
$GPGSA,A,3,02,04,07,08,13,20,23,25,27,,,,0.9,0.6,0.7*30
$GLGSA,A,3,75,77,78,86,87,88,,,,,,,0.9,0.6,0.7*2A
$GAGSA,A,3,09,10,11,17,,,,,,,,,0.9,0.6,0.7*25
$GPVTG,,T,,M,0.0,N,0.0,K,A*23
$GPDTM,P90,,0000.000022,S,00000.000001,W,0.988,W84*5A
$GPRMC,000812.00,A,2959.999420,N,12000.000212,E,0.0,,230721,4.3,W,A*0A
$GPGGA,000812.00,2959.999420,N,12000.000212,E,1,12,0.6,-17.2,M,7.0,M,,*46

$GPGSV,3,1,12,02,32,295,41,04,48,241,41,07,83,081,42,08,49,208,41*73
$GPGSV,3,2,12,13,46,033,41,20,19,122,41,23,24,059,41,25,62,039,41*72
$GPGSV,3,3,12,27,20,219,41,10,02,310,,16,00,000,,28,00,000,*7E
$GLGSV,2,1,07,78,08,330,40,86,30,026,40,77,58,324,40,75,08,153,40*6A
$GLGSV,2,2,07,88,21,246,40,87,60,306,40,71,02,078,*56
$GAGSV,2,1,07,09,14,316,45,10,65,334,45,11,53,120,45,17,28,039,45*61
$GAGSV,2,2,07,24,81,016,45,27,27,127,45,12,03,130,*51
$PQGSV,1,1,0,0*43
$PQGSV,1,1,02,12,61,310,,13,34,201,*6D
$GPGSA,A,3,02,04,07,08,13,20,23,25,27,,,,0.9,0.6,0.7*30
$GLGSA,A,3,75,77,78,86,87,88,,,,,,,0.9,0.6,0.7*2A
$GAGSA,A,3,09,10,11,17,,,,,,,,,0.9,0.6,0.7*25
$GPVTG,,T,,M,0.0,N,0.0,K,A*23
$GPDTM,P90,,0000.000022,S,00000.000001,W,0.988,W84*5A
$GPRMC,000813.00,A,2959.999420,N,12000.000212,E,0.0,,230721,4.3,W,A*0B
$GPGGA,000813.00,2959.999420,N,12000.000212,E,1,12,0.6,-17.2,M,7.0,M,,*47

$GPGSV,3,1,12,02,32,295,42,04,48,241,42,07,83,081,42,08,49,208,41*73
$GPGSV,3,2,12,13,46,033,41,20,19,122,41,23,24,059,42,25,62,039,41*71
$GPGSV,3,3,12,27,20,219,42,10,02,310,,16,00,000,,28,00,000,*7D
$GLGSV,2,1,07,78,08,330,40,86,30,026,40,77,58,324,40,75,08,153,40*6A
$GLGSV,2,2,07,88,21,246,40,87,60,306,40,71,02,078,*56
$GAGSV,2,1,07,09,14,316,45,10,65,334,45,11,53,120,45,17,28,039,45*61
$GAGSV,2,2,07,24,81,016,45,27,27,127,45,12,03,130,*51
$PQGSV,1,1,0,0*43
$PQGSV,1,1,02,12,61,310,,13,34,201,*6D
$GPGSA,A,3,02,04,07,08,13,20,23,25,27,,,,0.9,0.6,0.7*30
$GLGSA,A,3,75,77,78,86,87,88,,,,,,,0.9,0.6,0.7*2A
$GAGSA,A,3,09,10,11,17,,,,,,,,,0.9,0.6,0.7*25
$GPVTG,,T,,M,0.0,N,0.0,K,A*23
$GPDTM,P90,,0000.000022,S,00000.000001,W,0.988,W84*5A
$GPRMC,000814.00,A,2959.999420,N,12000.000212,E,0.0,,230721,4.3,W,A*0C
$GPGGA,000814.00,2959.999420,N,12000.000212,E,1,12,0.6,-17.2,M,7.0,M,,*40

$GPGSV,3,1,12,02,32,295,41,04,48,241,41,07,83,081,41,08,49,208,41*70
$GPGSV,3,2,12,13,46,033,41,20,19,122,41,23,24,059,41,25,62,039,41*72
$GPGSV,3,3,12,27,20,219,41,10,02,310,,16,00,000,,28,00,000,*7E
$GLGSV,2,1,07,78,08,330,40,86,30,026,40,77,58,324,40,75,08,153,40*6A
$GLGSV,2,2,07,88,21,246,40,87,60,306,40,71,02,078,*56
$GAGSV,2,1,07,09,14,316,45,10,65,334,45,11,53,120,45,17,28,039,45*61
$GAGSV,2,2,07,24,81,016,45,27,27,127,45,12,03,130,*51
$PQGSV,1,1,0,0*43
$PQGSV,1,1,02,12,61,310,,13,34,201,*6D
$GPGSA,A,3,02,04,07,08,13,20,23,25,27,,,,0.9,0.6,0.7*30
$GLGSA,A,3,75,77,78,86,87,88,,,,,,,0.9,0.6,0.7*2A
$GAGSA,A,3,09,10,11,17,,,,,,,,,0.9,0.6,0.7*25
$GPVTG,,T,,M,0.0,N,0.0,K,A*23
$GPDTM,P90,,0000.000022,S,00000.000001,W,0.988,W84*5A
$GPRMC,000815.00,A,2959.999420,N,12000.000212,E,0.0,,230721,4.3,W,A*0D
$GPGGA,000815.00,2959.999420,N,12000.000212,E,1,12,0.6,-17.2,M,7.0,M,,*41

$GPGSV,3,1,12,02,32,295,41,04,48,241,41,07,83,081,41,08,49,208,41*70
$GPGSV,3,2,12,13,46,033,41,20,19,122,41,23,24,059,41,25,62,039,41*72
$GPGSV,3,3,12,27,20,219,41,10,02,310,,16,00,000,,28,00,000,*7E
$GLGSV,2,1,07,78,08,330,40,86,30,026,40,77,58,324,40,75,08,153,40*6A
$GLGSV,2,2,07,88,21,246,40,87,60,306,40,71,02,078,*56
$GAGSV,2,1,07,09,14,316,45,10,65,334,45,11,53,120,45,17,28,039,45*61
$GAGSV,2,2,07,24,81,016,45,27,27,127,45,12,03,130,*51
$PQGSV,1,1,0,0*43
$PQGSV,1,1,02,12,61,310,,13,34,201,*6D
$GPGSA,A,3,02,04,07,08,13,20,23,25,27,,,,0.9,0.6,0.7*30
$GLGSA,A,3,75,77,78,86,87,88,,,,,,,0.9,0.6,0.7*2A
$GAGSA,A,3,09,10,11,17,,,,,,,,,0.9,0.6,0.7*25
$GPVTG,,T,,M,0.0,N,0.0,K,A*23
$GPDTM,P90,,0000.000022,S,00000.000001,W,0.988,W84*5A
$GPRMC,000816.00,A,2959.999420,N,12000.000211,E,0.0,,230721,4.3,W,A*0D
$GPGGA,000816.00,2959.999420,N,12000.000211,E,1,12,0.6,-17.2,M,7.0,M,,*41

$GPGSV,3,1,11,02,32,295,42,04,48,241,41,07,83,081,42,08,49,208,41*73
$GPGSV,3,2,11,13,46,033,41,20,19,122,41,23,24,059,41,25,62,039,41*71
$GPGSV,3,3,11,27,20,219,42,10,02,310,,28,00,000,*49
$GLGSV,2,1,07,78,08,330,40,86,30,026,40,77,58,324,40,75,08,153,40*6A
$GLGSV,2,2,07,88,21,246,40,87,60,306,40,71,02,078,*56
$GAGSV,2,1,07,09,14,316,45,10,65,334,46,11,53,120,45,17,28,039,45*62
$GAGSV,2,2,07,24,81,016,45,27,27,127,45,12,03,130,*51
$PQGSV,1,1,0,0*43
$PQGSV,1,1,02,12,61,310,,13,34,201,*6D
$GPGSA,A,3,02,04,07,08,13,20,23,25,27,,,,0.9,0.6,0.7*30
$GLGSA,A,3,75,77,78,86,87,88,,,,,,,0.9,0.6,0.7*2A
$GAGSA,A,3,09,10,11,17,,,,,,,,,0.9,0.6,0.7*25
$GPVTG,,T,,M,0.0,N,0.0,K,A*23
$GPDTM,P90,,0000.000022,S,00000.000001,W,0.988,W84*5A
$GPRMC,000817.00,A,2959.999419,N,12000.000211,E,0.0,,230721,4.3,W,A*06
$GPGGA,000817.00,2959.999419,N,12000.000211,E,1,12,0.6,-17.2,M,7.0,M,,*4A

$GPGSV,3,1,12,02,32,295,41,04,48,241,41,07,83,081,41,08,49,208,41*70
$GPGSV,3,2,12,13,46,033,41,20,19,122,41,23,24,059,41,25,62,039,41*72
$GPGSV,3,3,12,27,20,219,41,10,02,310,,16,00,000,,28,00,000,*7E
$GLGSV,2,1,07,78,08,330,40,86,30,026,40,77,58,324,40,75,08,153,40*6A
$GLGSV,2,2,07,88,21,246,40,87,60,306,40,71,02,078,*56
$GAGSV,2,1,07,09,14,316,45,10,65,334,45,11,53,120,45,17,28,039,45*61
$GAGSV,2,2,07,24,81,016,45,27,27,127,45,12,03,130,*51
$PQGSV,1,1,0,0*43
$PQGSV,1,1,02,12,61,310,,13,34,201,*6D
$GPGSA,A,3,02,04,07,08,13,20,23,25,27,,,,0.9,0.6,0.6*31
$GLGSA,A,3,75,77,78,86,87,88,,,,,,,0.9,0.6,0.6*2B
$GAGSA,A,3,09,10,11,17,,,,,,,,,0.9,0.6,0.6*24
$GPVTG,,T,,M,0.0,N,0.0,K,A*23
$GPDTM,P90,,0000.000022,S,00000.000001,W,0.988,W84*5A
$GPRMC,000818.00,A,2959.999420,N,12000.000209,E,0.0,,230721,4.3,W,A*0A
$GPGGA,000818.00,2959.999420,N,12000.000209,E,1,12,0.6,-17.2,M,7.0,M,,*46

$GPGSV,3,1,12,02,32,295,41,04,48,241,41,07,83,081,42,08,49,208,41*73
$GPGSV,3,2,12,13,46,033,41,20,19,122,41,23,24,059,41,25,62,039,41*72
$GPGSV,3,3,12,27,20,219,42,10,02,310,,16,00,000,,28,00,000,*7D
$GLGSV,2,1,07,78,08,330,40,86,30,026,40,77,58,324,40,75,08,153,40*6A
$GLGSV,2,2,07,88,21,246,40,87,60,306,40,71,02,078,*56
$GAGSV,2,1,07,09,14,316,45,10,65,334,45,11,53,120,45,17,28,039,45*61
$GAGSV,2,2,07,24,81,016,45,27,27,127,45,12,03,130,*51
$PQGSV,1,1,0,0*43
$PQGSV,1,1,02,12,61,310,,13,34,201,*6D
$GPGSA,A,3,02,04,07,08,13,20,23,25,27,,,,0.9,0.6,0.6*31
$GLGSA,A,3,75,77,78,86,87,88,,,,,,,0.9,0.6,0.6*2B
$GAGSA,A,3,09,10,11,17,24,27,,,,,,,0.9,0.6,0.6*27
$GPVTG,,T,,M,0.0,N,0.0,K,A*23
$GPDTM,P90,,0000.000022,S,00000.000001,W,0.988,W84*5A
$GPRMC,000819.00,A,2959.999423,N,12000.000205,E,0.0,,230721,4.3,W,A*04
$GPGGA,000819.00,2959.999423,N,12000.000205,E,1,12,0.6,-17.2,M,7.0,M,,*48

$GPGSV,3,1,12,02,32,295,41,04,48,241,41,07,83,081,42,08,49,208,41*73
$GPGSV,3,2,12,13,46,033,41,20,19,122,41,23,24,059,42,25,62,039,41*71
$GPGSV,3,3,12,27,20,219,41,10,02,310,,16,00,000,,28,00,000,*7E
$GLGSV,2,1,07,78,08,330,40,86,30,026,40,77,58,324,40,75,08,153,40*6A
$GLGSV,2,2,07,88,21,246,40,87,60,306,40,71,02,078,*56
$GAGSV,2,1,07,09,14,316,45,10,65,334,45,11,53,120,45,17,28,039,45*61
$GAGSV,2,2,07,24,81,016,45,27,27,127,45,12,03,130,*51
$PQGSV,1,1,0,0*43
$PQGSV,1,1,02,12,61,310,,13,34,201,*6D
$GPGSA,A,3,02,04,07,08,13,20,23,25,27,,,,0.9,0.6,0.6*31
$GLGSA,A,3,75,77,78,86,87,88,,,,,,,0.9,0.6,0.6*2B
$GAGSA,A,3,09,10,11,17,24,27,,,,,,,0.9,0.6,0.6*27
$GPVTG,,T,,M,0.0,N,0.0,K,A*23
$GPDTM,P90,,0000.000022,S,00000.000001,W,0.988,W84*5A
$GPRMC,000820.00,A,2959.999426,N,12000.000200,E,0.0,,230721,4.3,W,A*0E
$GPGGA,000820.00,2959.999426,N,12000.000200,E,1,12,0.6,-17.1,M,7.0,M,,*41

$GPGSV,3,1,12,02,32,295,42,04,48,241,41,07,83,081,41,08,49,208,41*73
$GPGSV,3,2,12,13,46,033,41,20,19,122,41,23,24,059,41,25,62,039,41*72
$GPGSV,3,3,12,27,20,219,41,10,02,310,,16,00,000,,28,00,000,*7E
$GLGSV,2,1,07,78,08,330,40,86,30,026,40,77,58,324,40,75,08,153,40*6A
$GLGSV,2,2,07,88,21,246,40,87,60,306,40,71,02,078,*56
$GAGSV,2,1,07,09,14,316,45,10,65,334,45,11,53,120,45,17,28,039,45*61
$GAGSV,2,2,07,24,81,016,45,27,27,127,45,12,03,130,*51
$PQGSV,1,1,0,0*43
$PQGSV,1,1,02,12,61,310,,13,34,201,*6D
$GPGSA,A,3,02,04,07,08,13,20,23,25,27,,,,0.9,0.6,0.6*31
$GLGSA,A,3,75,77,78,86,87,88,,,,,,,0.9,0.6,0.6*2B
$GAGSA,A,3,09,10,11,17,24,27,,,,,,,0.9,0.6,0.6*27
$GPVTG,,T,,M,0.0,N,0.0,K,A*23
$GPDTM,P90,,0000.000022,S,00000.000001,W,0.988,W84*5A
$GPRMC,000821.00,A,2959.999430,N,12000.000196,E,0.0,,230721,4.3,W,A*04
$GPGGA,000821.00,2959.999430,N,12000.000196,E,1,12,0.6,-17.1,M,7.0,M,,*4B

$GPGSV,3,1,11,02,32,295,41,04,48,241,41,07,83,081,41,08,49,208,41*73
$GPGSV,3,2,11,13,46,033,41,20,19,122,41,23,24,059,41,25,62,039,41*71
$GPGSV,3,3,11,27,20,219,41,16,00,000,,28,00,000,*4C
$GLGSV,2,1,07,78,08,330,40,86,30,026,40,77,58,324,40,75,08,153,40*6A
$GLGSV,2,2,07,88,21,246,40,87,60,306,40,71,02,078,*56
$GAGSV,2,1,07,09,14,316,45,10,65,334,45,11,53,120,45,17,28,039,45*61
$GAGSV,2,2,07,24,81,016,45,27,27,127,45,12,03,130,*51
$PQGSV,1,1,0,0*43
$PQGSV,1,1,02,12,61,310,,13,34,201,*6D
$GPGSA,A,3,02,04,07,08,13,20,23,25,27,,,,0.9,0.6,0.6*31
$GLGSA,A,3,75,77,78,86,87,88,,,,,,,0.9,0.6,0.6*2B
$GAGSA,A,3,09,10,11,17,24,27,,,,,,,0.9,0.6,0.6*27
$GPVTG,,T,,M,0.0,N,0.0,K,A*23
$GPDTM,P90,,0000.000022,S,00000.000001,W,0.988,W84*5A
$GPRMC,000822.00,A,2959.999433,N,12000.000191,E,0.0,,230721,4.3,W,A*03
$GPGGA,000822.00,2959.999433,N,12000.000191,E,1,12,0.6,-17.1,M,7.0,M,,*4C

$GPGSV,3,1,12,02,32,295,42,04,48,241,41,07,83,081,41,08,49,208,41*73
$GPGSV,3,2,12,13,46,033,41,20,19,122,41,23,24,059,41,25,62,039,41*72
$GPGSV,3,3,12,27,20,219,41,10,02,310,,16,00,000,,28,00,000,*7E
$GLGSV,2,1,07,78,08,330,40,86,30,026,40,77,58,324,40,75,08,153,40*6A
$GLGSV,2,2,07,88,21,246,40,87,60,306,40,71,02,078,*56
$GAGSV,2,1,07,09,14,316,45,10,65,334,45,11,53,120,45,17,28,039,45*61
$GAGSV,2,2,07,24,81,016,45,27,27,127,45,12,03,130,*51
$PQGSV,1,1,0,0*43
$PQGSV,1,1,02,12,61,310,,13,34,201,*6D
$GPGSA,A,3,02,04,07,08,13,20,23,25,27,,,,0.9,0.6,0.6*31
$GLGSA,A,3,75,77,78,86,87,88,,,,,,,0.9,0.6,0.6*2B
$GAGSA,A,3,09,10,11,17,24,27,,,,,,,0.9,0.6,0.6*27
$GPVTG,,T,,M,0.0,N,0.0,K,A*23
$GPDTM,P90,,0000.000022,S,00000.000001,W,0.988,W84*5A
$GPRMC,000823.00,A,2959.999436,N,12000.000187,E,0.0,,230721,4.3,W,A*00
$GPGGA,000823.00,2959.999436,N,12000.000187,E,1,12,0.6,-17.1,M,7.0,M,,*4F

$GPGSV,3,1,11,02,32,295,41,04,48,241,41,07,83,081,42,08,49,208,41*70
$GPGSV,3,2,11,13,46,033,41,20,19,122,41,23,24,059,41,25,62,039,41*71
$GPGSV,3,3,11,27,20,219,41,10,02,310,,28,00,000,*4A
$GLGSV,2,1,07,78,08,330,40,86,30,026,40,77,58,324,40,75,08,153,40*6A
$GLGSV,2,2,07,88,21,246,40,87,60,306,40,71,02,078,*56
$GAGSV,2,1,07,09,14,316,45,10,65,334,45,11,53,120,45,17,28,039,45*61
$GAGSV,2,2,07,24,81,016,45,27,27,127,45,12,03,130,*51
$PQGSV,1,1,0,0*43
$PQGSV,1,1,02,12,61,310,,13,34,201,*6D
$GPGSA,A,3,02,04,07,08,13,20,23,25,27,,,,0.9,0.6,0.6*31
$GLGSA,A,3,75,77,78,86,87,88,,,,,,,0.9,0.6,0.6*2B
$GAGSA,A,3,09,10,11,17,24,27,,,,,,,0.9,0.6,0.6*27
$GPVTG,,T,,M,0.0,N,0.0,K,A*23
$GPDTM,P90,,0000.000022,S,00000.000001,W,0.988,W84*5A
$GPRMC,000824.00,A,2959.999439,N,12000.000183,E,0.0,,230721,4.3,W,A*0C
$GPGGA,000824.00,2959.999439,N,12000.000183,E,1,12,0.6,-17.1,M,7.0,M,,*43

$GPGSV,3,1,12,02,32,295,41,04,48,241,41,07,83,081,41,08,49,208,42*73
$GPGSV,3,2,12,13,46,033,41,20,19,122,41,23,24,059,41,25,62,039,41*72
$GPGSV,3,3,12,27,20,219,41,10,02,310,,16,00,000,,28,00,000,*7E
$GLGSV,2,1,07,78,08,330,40,86,30,026,40,77,58,324,40,75,08,153,40*6A
$GLGSV,2,2,07,88,21,246,40,87,60,306,40,71,02,078,*56
$GAGSV,2,1,07,09,14,316,45,10,65,334,45,11,53,120,45,17,28,039,46*62
$GAGSV,2,2,07,24,81,016,45,27,27,127,45,12,03,130,*51
$PQGSV,1,1,0,0*43
$PQGSV,1,1,02,12,61,310,,13,34,201,*6D
$GPGSA,A,3,02,04,07,08,13,20,23,25,27,,,,0.9,0.6,0.6*31
$GLGSA,A,3,75,77,78,86,87,88,,,,,,,0.9,0.6,0.6*2B
$GAGSA,A,3,09,10,11,17,24,27,,,,,,,0.9,0.6,0.6*27
$GPVTG,,T,,M,0.0,N,0.0,K,A*23
$GPDTM,P90,,0000.000022,S,00000.000001,W,0.988,W84*5A
$GPRMC,000825.00,A,2959.999441,N,12000.000181,E,0.0,,230721,4.3,W,A*00
$GPGGA,000825.00,2959.999441,N,12000.000181,E,1,12,0.6,-17.1,M,7.0,M,,*4F

$GPGSV,3,1,12,02,32,295,42,04,48,241,41,07,83,081,42,08,49,208,42*73
$GPGSV,3,2,12,13,46,033,41,20,19,122,41,23,24,059,41,25,62,039,41*72
$GPGSV,3,3,12,27,20,219,41,10,02,310,,16,00,000,,28,00,000,*7E
$GLGSV,2,1,07,78,08,330,40,86,30,026,40,77,58,324,40,75,08,153,40*6A
$GLGSV,2,2,07,88,21,246,40,87,60,306,40,71,02,078,*56
$GAGSV,2,1,07,09,14,316,45,10,65,334,45,11,53,120,45,17,28,039,45*61
$GAGSV,2,2,07,24,81,016,45,27,27,127,45,12,03,130,*51
$PQGSV,1,1,0,0*43
$PQGSV,1,1,02,12,61,310,,13,34,201,*6D
$GPGSA,A,3,02,04,07,08,13,20,23,25,27,,,,0.9,0.6,0.6*31
$GLGSA,A,3,75,77,78,86,87,88,,,,,,,0.9,0.6,0.6*2B
$GAGSA,A,3,09,10,11,17,24,27,,,,,,,0.9,0.6,0.6*27
$GPVTG,,T,,M,0.0,N,0.0,K,A*23
$GPDTM,P90,,0000.000022,S,00000.000001,W,0.988,W84*5A
$GPRMC,000826.00,A,2959.999442,N,12000.000178,E,0.0,,230721,4.3,W,A*06
$GPGGA,000826.00,2959.999442,N,12000.000178,E,1,12,0.6,-17.0,M,7.0,M,,*48

$GPGSV,3,1,12,02,32,295,41,04,48,241,42,07,83,081,42,08,49,208,42*73
$GPGSV,3,2,12,13,46,033,41,20,19,122,41,23,24,059,41,25,62,039,41*72
$GPGSV,3,3,12,27,20,219,42,10,02,310,,16,00,000,,28,00,000,*7D
$GLGSV,2,1,07,78,08,330,40,86,30,026,40,77,58,324,40,75,08,153,40*6A
$GLGSV,2,2,07,88,21,246,40,87,60,306,40,71,02,078,*56
$GAGSV,2,1,07,09,14,316,45,10,65,334,45,11,53,120,45,17,28,039,45*61
$GAGSV,2,2,07,24,81,016,45,27,27,127,45,12,03,130,*51
$PQGSV,1,1,0,0*43
$PQGSV,1,1,02,12,61,310,,13,34,201,*6D
$GPGSA,A,3,02,04,07,08,13,20,23,25,27,,,,0.9,0.6,0.6*31
$GLGSA,A,3,75,77,78,86,87,88,,,,,,,0.9,0.6,0.6*2B
$GAGSA,A,3,09,10,11,17,24,27,,,,,,,0.9,0.6,0.6*27
$GPVTG,,T,,M,0.0,N,0.0,K,A*23
$GPDTM,P90,,0000.000022,S,00000.000001,W,0.988,W84*5A
$GPRMC,000827.00,A,2959.999444,N,12000.000175,E,0.0,,230721,4.3,W,A*0C
$GPGGA,000827.00,2959.999444,N,12000.000175,E,1,12,0.6,-17.0,M,7.0,M,,*42

$GPGSV,3,1,12,02,32,295,41,04,48,241,42,07,83,081,42,08,49,208,41*70
$GPGSV,3,2,12,13,46,033,41,20,19,122,41,23,24,059,41,25,62,039,41*72
$GPGSV,3,3,12,27,20,219,42,10,02,310,,16,00,000,,28,00,000,*7D
$GLGSV,2,1,07,78,08,330,40,86,30,026,40,77,58,324,40,75,08,153,40*6A
$GLGSV,2,2,07,88,21,246,40,87,60,306,40,71,02,078,*56
$GAGSV,2,1,07,09,14,316,45,10,65,334,45,11,53,120,45,17,28,039,45*61
$GAGSV,2,2,07,24,81,016,45,27,27,127,45,12,03,130,*51
$PQGSV,1,1,0,0*43
$PQGSV,1,1,02,12,61,310,,13,34,201,*6D
$GPGSA,A,3,02,04,07,08,13,20,23,25,27,,,,0.9,0.6,0.6*31
$GLGSA,A,3,75,77,78,86,87,88,,,,,,,0.9,0.6,0.6*2B
$GAGSA,A,3,09,10,11,17,24,27,,,,,,,0.9,0.6,0.6*27
$GPVTG,,T,,M,0.0,N,0.0,K,A*23
$GPDTM,P90,,0000.000022,S,00000.000001,W,0.988,W84*5A
$GPRMC,000828.00,A,2959.999444,N,12000.000173,E,0.0,,230721,4.3,W,A*05
$GPGGA,000828.00,2959.999444,N,12000.000173,E,1,12,0.6,-17.0,M,7.0,M,,*4B

$GPGSV,3,1,12,02,32,295,41,04,48,241,42,07,83,081,41,08,49,208,41*73
$GPGSV,3,2,12,13,46,033,41,20,19,122,41,23,24,059,42,25,62,039,41*71
$GPGSV,3,3,12,27,20,219,42,10,02,310,,16,00,000,,28,00,000,*7D
$GLGSV,2,1,07,78,08,330,40,86,30,026,40,77,58,324,40,75,08,153,40*6A
$GLGSV,2,2,07,88,21,246,40,87,60,306,40,71,02,078,*56
$GAGSV,2,1,07,09,14,316,45,10,65,334,45,11,53,120,45,17,28,039,45*61
$GAGSV,2,2,07,24,81,016,45,27,27,127,45,12,03,130,*51
$PQGSV,1,1,0,0*43
$PQGSV,1,1,02,12,61,310,,13,34,201,*6D
$GPGSA,A,3,02,04,07,08,13,20,23,25,27,,,,0.9,0.6,0.6*31
$GLGSA,A,3,75,77,78,86,87,88,,,,,,,0.9,0.6,0.6*2B
$GAGSA,A,3,09,10,11,17,24,27,,,,,,,0.9,0.6,0.6*27
$GPVTG,,T,,M,0.0,N,0.0,K,A*23
$GPDTM,P90,,0000.000022,S,00000.000001,W,0.988,W84*5A
$GPRMC,000829.00,A,2959.999444,N,12000.000172,E,0.0,,230721,4.3,W,A*05
$GPGGA,000829.00,2959.999444,N,12000.000172,E,1,12,0.6,-17.0,M,7.0,M,,*4B

$GPGSV,3,1,12,02,32,295,42,04,48,241,42,07,83,081,41,08,49,208,42*73
$GPGSV,3,2,12,13,46,033,42,20,19,122,41,23,24,059,42,25,62,039,41*72
$GPGSV,3,3,12,27,20,219,41,10,02,310,,16,00,000,,28,00,000,*7E
$GLGSV,2,1,07,78,08,330,40,86,30,026,40,77,58,324,40,75,08,153,40*6A
$GLGSV,2,2,07,88,21,246,40,87,60,306,40,71,02,078,*56
$GAGSV,2,1,07,09,14,316,45,10,65,334,45,11,53,120,45,17,28,039,45*61
$GAGSV,2,2,07,24,81,016,46,27,27,127,45,12,03,130,*52
$PQGSV,1,1,0,0*43
$PQGSV,1,1,02,12,61,310,,13,34,201,*6D
$GPGSA,A,3,02,04,07,08,13,20,23,25,27,,,,0.9,0.6,0.6*31
$GLGSA,A,3,75,77,78,86,87,88,,,,,,,0.9,0.6,0.6*2B
$GAGSA,A,3,09,10,11,17,24,27,,,,,,,0.9,0.6,0.6*27
$GPVTG,,T,,M,0.0,N,0.0,K,A*23
$GPDTM,P90,,0000.000022,S,00000.000001,W,0.988,W84*5A
$GPRMC,000830.00,A,2959.999444,N,12000.000172,E,0.0,,230721,4.3,W,A*0D
$GPGGA,000830.00,2959.999444,N,12000.000172,E,1,12,0.6,-17.0,M,7.0,M,,*43

$GPGSV,3,1,12,02,32,295,41,04,48,241,41,07,83,081,41,08,49,208,41*70
$GPGSV,3,2,12,13,46,033,41,20,19,122,41,23,24,059,42,25,62,039,41*71
$GPGSV,3,3,12,27,20,219,41,10,02,310,,16,00,000,,28,00,000,*7E
$GLGSV,2,1,07,78,08,330,40,86,30,026,40,77,58,324,40,75,08,153,40*6A
$GLGSV,2,2,07,88,21,246,40,87,60,306,40,71,02,078,*56
$GAGSV,2,1,07,09,14,316,45,10,65,334,45,11,53,120,45,17,28,039,45*61
$GAGSV,2,2,07,24,81,016,45,27,27,127,45,12,03,130,*51
$PQGSV,1,1,0,0*43
$PQGSV,1,1,02,12,61,310,,13,34,201,*6D
$GPGSA,A,3,02,04,07,08,13,20,23,25,27,,,,0.9,0.6,0.6*31
$GLGSA,A,3,75,77,78,86,87,88,,,,,,,0.9,0.6,0.6*2B
$GAGSA,A,3,09,10,11,17,24,27,,,,,,,0.9,0.6,0.6*27
$GPVTG,,T,,M,0.0,N,0.0,K,A*23
$GPDTM,P90,,0000.000022,S,00000.000001,W,0.988,W84*5A
$GPRMC,000831.00,A,2959.999444,N,12000.000172,E,0.0,,230721,4.3,W,A*0C
$GPGGA,000831.00,2959.999444,N,12000.000172,E,1,12,0.6,-17.0,M,7.0,M,,*42

$GPGSV,3,1,12,02,32,295,41,04,48,241,41,07,83,081,41,08,49,208,41*70
$GPGSV,3,2,12,13,46,033,41,20,19,122,41,23,24,059,41,25,62,039,41*72
$GPGSV,3,3,12,27,20,219,41,10,02,310,,16,00,000,,28,00,000,*7E
$GLGSV,2,1,07,78,08,330,40,86,30,026,40,77,58,324,40,75,08,153,40*6A
$GLGSV,2,2,07,88,21,246,40,87,60,306,40,71,02,078,*56
$GAGSV,2,1,07,09,14,316,45,10,65,334,45,11,53,120,46,17,28,039,45*62
$GAGSV,2,2,07,24,81,016,45,27,27,127,45,12,03,130,*51
$PQGSV,1,1,0,0*43
$PQGSV,1,1,02,12,61,310,,13,34,201,*6D
$GPGSA,A,3,02,04,07,08,13,20,23,25,27,,,,0.9,0.6,0.6*31
$GLGSA,A,3,75,77,78,86,87,88,,,,,,,0.9,0.6,0.6*2B
$GAGSA,A,3,09,10,11,17,24,27,,,,,,,0.9,0.6,0.6*27
$GPVTG,,T,,M,0.0,N,0.0,K,A*23
$GPDTM,P90,,0000.000022,S,00000.000001,W,0.988,W84*5A
$GPRMC,000832.00,A,2959.999443,N,12000.000172,E,0.0,,230721,4.3,W,A*08
$GPGGA,000832.00,2959.999443,N,12000.000172,E,1,12,0.6,-17.0,M,7.0,M,,*46

$GPGSV,3,1,12,02,32,295,41,04,48,241,41,07,83,081,41,08,49,208,41*70
$GPGSV,3,2,12,13,46,033,41,20,19,122,41,23,24,059,42,25,62,039,41*71
$GPGSV,3,3,12,27,20,219,42,10,02,310,,16,00,000,,28,00,000,*7D
$GLGSV,2,1,07,78,08,330,40,86,30,026,40,77,58,324,40,75,08,153,40*6A
$GLGSV,2,2,07,88,21,246,40,87,60,306,40,71,02,078,*56
$GAGSV,2,1,07,09,14,316,45,10,65,334,45,11,53,120,45,17,28,039,45*61
$GAGSV,2,2,07,24,81,016,45,27,27,127,45,12,03,130,*51
$PQGSV,1,1,0,0*43
$PQGSV,1,1,02,12,61,310,,13,34,201,*6D
$GPGSA,A,3,02,04,07,08,13,20,23,25,27,,,,0.9,0.6,0.6*31
$GLGSA,A,3,75,77,78,86,87,88,,,,,,,0.9,0.6,0.6*2B
$GAGSA,A,3,09,10,11,17,24,27,,,,,,,0.9,0.6,0.6*27
$GPVTG,,T,,M,0.0,N,0.0,K,A*23
$GPDTM,P90,,0000.000022,S,00000.000001,W,0.988,W84*5A
$GPRMC,000833.00,A,2959.999443,N,12000.000172,E,0.0,,230721,4.3,W,A*09
$GPGGA,000833.00,2959.999443,N,12000.000172,E,1,12,0.6,-17.0,M,7.0,M,,*47

$GPGSV,3,1,12,02,32,295,41,04,48,241,41,07,83,081,42,08,49,208,41*73
$GPGSV,3,2,12,13,46,033,41,20,19,122,41,23,24,059,41,25,62,039,42*71
$GPGSV,3,3,12,27,20,219,42,10,02,310,,16,00,000,,28,00,000,*7D
$GLGSV,2,1,07,78,08,330,40,86,30,026,40,77,58,324,40,75,08,153,40*6A
$GLGSV,2,2,07,88,21,246,40,87,60,306,40,71,02,078,*56
$GAGSV,2,1,07,09,14,316,45,10,65,334,45,11,53,120,45,17,28,039,45*61
$GAGSV,2,2,07,24,81,016,45,27,27,127,45,12,03,130,*51
$PQGSV,1,1,0,0*43
$PQGSV,1,1,02,12,61,310,,13,34,201,*6D
$GPGSA,A,3,02,04,07,08,13,20,23,25,27,,,,0.9,0.6,0.6*31
$GLGSA,A,3,75,77,78,86,87,88,,,,,,,0.9,0.6,0.6*2B
$GAGSA,A,3,09,10,11,17,24,27,,,,,,,0.9,0.6,0.6*27
$GPVTG,,T,,M,0.0,N,0.0,K,A*23
$GPDTM,P90,,0000.000022,S,00000.000001,W,0.988,W84*5A
$GPRMC,000834.00,A,2959.999443,N,12000.000170,E,0.0,,230721,4.3,W,A*0C
$GPGGA,000834.00,2959.999443,N,12000.000170,E,1,12,0.6,-17.0,M,7.0,M,,*42

$GPGSV,3,1,12,02,32,295,41,04,48,241,42,07,83,081,42,08,49,208,41*70
$GPGSV,3,2,12,13,46,033,41,20,19,122,41,23,24,059,42,25,62,039,41*71
$GPGSV,3,3,12,27,20,219,41,10,02,310,,16,00,000,,28,00,000,*7E
$GLGSV,2,1,07,78,08,330,40,86,30,026,40,77,58,324,40,75,08,153,40*6A
$GLGSV,2,2,07,88,21,246,40,87,60,306,40,71,02,078,*56
$GAGSV,2,1,07,09,14,316,45,10,65,334,45,11,53,120,45,17,28,039,45*61
$GAGSV,2,2,07,24,81,016,45,27,27,127,45,12,03,130,*51
$PQGSV,1,1,0,0*43
$PQGSV,1,1,02,12,61,310,,13,34,201,*6D
$GPGSA,A,3,02,04,07,08,13,20,23,25,27,,,,0.9,0.6,0.6*31
$GLGSA,A,3,75,77,78,86,87,88,,,,,,,0.9,0.6,0.6*2B
$GAGSA,A,3,09,10,11,17,24,27,,,,,,,0.9,0.6,0.6*27
$GPVTG,,T,,M,0.0,N,0.0,K,A*23
$GPDTM,P90,,0000.000022,S,00000.000001,W,0.988,W84*5A
$GPRMC,000835.00,A,2959.999442,N,12000.000170,E,0.0,,230721,4.3,W,A*0C
$GPGGA,000835.00,2959.999442,N,12000.000170,E,1,12,0.6,-17.0,M,7.0,M,,*42

$GPGSV,3,1,12,02,32,295,42,04,48,241,41,07,83,081,42,08,49,208,41*70
$GPGSV,3,2,12,13,46,033,41,20,19,122,41,23,24,059,41,25,62,039,41*72
$GPGSV,3,3,12,27,20,219,41,10,02,310,,16,00,000,,28,00,000,*7E
$GLGSV,2,1,07,78,08,330,40,86,30,026,40,77,58,324,40,75,08,153,40*6A
$GLGSV,2,2,07,88,21,246,40,87,60,306,40,71,02,078,*56
$GAGSV,2,1,07,09,14,316,45,10,65,334,45,11,53,120,45,17,28,039,45*61
$GAGSV,2,2,07,24,81,016,45,27,27,127,45,12,03,130,*51
$PQGSV,1,1,0,0*43
$PQGSV,1,1,02,12,61,310,,13,34,201,*6D
$GPGSA,A,3,02,04,07,08,13,20,23,25,27,,,,0.9,0.6,0.6*31
$GLGSA,A,3,75,77,78,86,87,88,,,,,,,0.9,0.6,0.6*2B
$GAGSA,A,3,09,10,11,17,24,27,,,,,,,0.9,0.6,0.6*27
$GPVTG,,T,,M,0.0,N,0.0,K,A*23
$GPDTM,P90,,0000.000022,S,00000.000001,W,0.988,W84*5A
$GPRMC,000836.00,A,2959.999441,N,12000.000170,E,0.0,,230721,4.3,W,A*0C
$GPGGA,000836.00,2959.999441,N,12000.000170,E,1,12,0.6,-17.0,M,7.0,M,,*42

$GPGSV,3,1,12,02,32,295,42,04,48,241,42,07,83,081,42,08,49,208,42*70
$GPGSV,3,2,12,13,46,033,41,20,19,122,41,23,24,059,41,25,62,039,41*72
$GPGSV,3,3,12,27,20,219,42,10,02,310,,16,00,000,,28,00,000,*7D
$GLGSV,2,1,07,78,08,330,40,86,30,026,40,77,58,324,40,75,08,153,40*6A
$GLGSV,2,2,07,88,21,246,40,87,60,306,40,71,02,078,*56
$GAGSV,2,1,07,09,14,316,45,10,65,334,45,11,53,120,45,17,28,039,45*61
$GAGSV,2,2,07,24,81,016,45,27,27,127,45,12,03,130,*51
$PQGSV,1,1,0,0*43
$PQGSV,1,1,02,12,61,310,,13,34,201,*6D
$GPGSA,A,3,02,04,07,08,13,20,23,25,27,,,,0.9,0.6,0.6*31
$GLGSA,A,3,75,77,78,86,87,88,,,,,,,0.9,0.6,0.6*2B
$GAGSA,A,3,09,10,11,17,24,27,,,,,,,0.9,0.6,0.6*27
$GPVTG,,T,,M,0.0,N,0.0,K,A*23
$GPDTM,P90,,0000.000022,S,00000.000001,W,0.988,W84*5A
$GPRMC,000837.00,A,2959.999441,N,12000.000170,E,0.0,,230721,4.3,W,A*0D
$GPGGA,000837.00,2959.999441,N,12000.000170,E,1,12,0.6,-17.0,M,7.0,M,,*43

$GPGSV,3,1,12,02,32,295,41,04,48,241,42,07,83,081,42,08,49,208,41*70
$GPGSV,3,2,12,13,46,033,41,20,19,122,41,23,24,059,41,25,62,039,41*72
$GPGSV,3,3,12,27,20,219,41,10,02,310,,16,00,000,,28,00,000,*7E
$GLGSV,2,1,07,78,08,330,40,86,30,026,40,77,58,324,40,75,08,153,40*6A
$GLGSV,2,2,07,88,21,246,40,87,60,306,40,71,02,078,*56
$GAGSV,2,1,07,09,14,316,45,10,65,334,45,11,53,120,45,17,28,039,45*61
$GAGSV,2,2,07,24,81,016,45,27,27,127,45,12,03,130,*51
$PQGSV,1,1,0,0*43
$PQGSV,1,1,02,12,61,310,,13,34,201,*6D
$GPGSA,A,3,02,04,07,08,13,20,23,25,27,,,,0.9,0.6,0.6*31
$GLGSA,A,3,75,77,78,86,87,88,,,,,,,0.9,0.6,0.6*2B
$GAGSA,A,3,09,10,11,17,24,27,,,,,,,0.9,0.6,0.6*27
$GPVTG,,T,,M,0.0,N,0.0,K,A*23
$GPDTM,P90,,0000.000022,S,00000.000001,W,0.988,W84*5A
$GPRMC,000838.00,A,2959.999441,N,12000.000170,E,0.0,,230721,4.3,W,A*02
$GPGGA,000838.00,2959.999441,N,12000.000170,E,1,12,0.6,-17.0,M,7.0,M,,*4C

$GPGSV,3,1,12,02,32,295,41,04,48,241,41,07,83,081,42,08,49,208,42*70
$GPGSV,3,2,12,13,46,033,41,20,19,122,41,23,24,059,41,25,62,039,42*71
$GPGSV,3,3,12,27,20,219,41,10,02,310,,16,00,000,,28,00,000,*7E
$GLGSV,2,1,07,78,08,330,40,86,30,026,40,77,58,324,40,75,08,153,40*6A
$GLGSV,2,2,07,88,21,246,40,87,60,306,40,71,02,078,*56
$GAGSV,2,1,07,09,14,316,45,10,65,334,45,11,53,120,45,17,28,039,45*61
$GAGSV,2,2,07,24,81,016,45,27,27,127,45,12,03,130,*51
$PQGSV,1,1,0,0*43
$PQGSV,1,1,02,12,61,310,,13,34,201,*6D
$GPGSA,A,3,02,04,07,08,13,20,23,25,27,,,,0.9,0.6,0.6*31
$GLGSA,A,3,75,77,78,86,87,88,,,,,,,0.9,0.6,0.6*2B
$GAGSA,A,3,09,10,11,17,24,27,,,,,,,0.9,0.6,0.6*27
$GPVTG,,T,,M,0.0,N,0.0,K,A*23
$GPDTM,P90,,0000.000022,S,00000.000001,W,0.988,W84*5A
$GPRMC,000839.00,A,2959.999442,N,12000.000170,E,0.0,,230721,4.3,W,A*00
$GPGGA,000839.00,2959.999442,N,12000.000170,E,1,12,0.6,-17.0,M,7.0,M,,*4E

$GPGSV,3,1,12,02,32,295,41,04,48,241,42,07,83,081,41,08,49,208,41*73
$GPGSV,3,2,12,13,46,033,41,20,19,122,42,23,24,059,41,25,62,039,41*71
$GPGSV,3,3,12,27,20,219,42,10,02,310,,16,00,000,,28,00,000,*7D
$GLGSV,2,1,07,78,08,330,40,86,30,026,40,77,58,324,40,75,08,153,40*6A
$GLGSV,2,2,07,88,21,246,40,87,60,306,40,71,02,078,*56
$GAGSV,2,1,07,09,14,316,45,10,65,334,45,11,53,120,45,17,28,039,45*61
$GAGSV,2,2,07,24,81,016,45,27,27,127,45,12,03,130,*51
$PQGSV,1,1,0,0*43
$PQGSV,1,1,02,12,61,310,,13,34,201,*6D
$GPGSA,A,3,02,04,07,08,13,20,23,25,27,,,,0.9,0.6,0.6*31
$GLGSA,A,3,75,77,78,86,87,88,,,,,,,0.9,0.6,0.6*2B
$GAGSA,A,3,09,10,11,17,24,27,,,,,,,0.9,0.6,0.6*27
$GPVTG,,T,,M,0.0,N,0.0,K,A*23
$GPDTM,P90,,0000.000022,S,00000.000001,W,0.988,W84*5A
$GPRMC,000840.00,A,2959.999442,N,12000.000169,E,0.0,,230721,4.3,W,A*06
$GPGGA,000840.00,2959.999442,N,12000.000169,E,1,12,0.6,-17.0,M,7.0,M,,*48

$GPGSV,3,1,11,02,32,295,42,04,48,241,41,07,83,081,42,08,49,208,41*73
$GPGSV,3,2,11,13,46,033,41,20,19,122,42,23,24,059,41,25,62,039,41*72
$GPGSV,3,3,11,27,20,219,42,16,00,000,,28,00,000,*4F
$GLGSV,2,1,07,78,08,330,40,86,30,026,40,77,58,324,40,75,08,153,40*6A
$GLGSV,2,2,07,88,21,246,40,87,60,306,40,71,02,078,*56
$GAGSV,2,1,07,09,14,316,45,10,65,334,45,11,53,120,45,17,28,039,45*61
$GAGSV,2,2,07,24,81,016,45,27,27,127,45,12,03,130,*51
$PQGSV,1,1,0,0*43
$PQGSV,1,1,02,12,61,310,,13,34,201,*6D
$GPGSA,A,3,02,04,07,08,13,20,23,25,27,,,,0.9,0.6,0.6*31
$GLGSA,A,3,75,77,78,86,87,88,,,,,,,0.9,0.6,0.6*2B
$GAGSA,A,3,09,10,11,17,24,27,,,,,,,0.9,0.6,0.6*27
$GPVTG,,T,,M,0.0,N,0.0,K,A*23
$GPDTM,P90,,0000.000022,S,00000.000001,W,0.988,W84*5A
$GPRMC,000841.00,A,2959.999442,N,12000.000169,E,0.0,,230721,4.3,W,A*07
$GPGGA,000841.00,2959.999442,N,12000.000169,E,1,12,0.6,-17.0,M,7.0,M,,*49

$GPGSV,3,1,12,02,32,295,41,04,48,241,41,07,83,081,41,08,49,208,42*73
$GPGSV,3,2,12,13,46,033,42,20,19,122,41,23,24,059,42,25,62,039,41*72
$GPGSV,3,3,12,27,20,219,41,10,02,310,,16,00,000,,28,00,000,*7E
$GLGSV,2,1,07,78,08,330,40,86,30,026,40,77,58,324,40,75,08,153,40*6A
$GLGSV,2,2,07,88,21,246,40,87,60,306,40,71,02,078,*56
$GAGSV,2,1,07,09,14,316,45,10,65,334,45,11,53,120,45,17,28,039,45*61
$GAGSV,2,2,07,24,81,016,45,27,27,127,45,12,03,130,*51
$PQGSV,1,1,0,0*43
$PQGSV,1,1,02,12,61,310,,13,34,201,*6D
$GPGSA,A,3,02,04,07,08,13,20,23,25,27,,,,0.9,0.6,0.6*31
$GLGSA,A,3,75,77,78,86,87,88,,,,,,,0.9,0.6,0.6*2B
$GAGSA,A,3,09,10,11,17,24,27,,,,,,,0.9,0.6,0.6*27
$GPVTG,,T,,M,0.0,N,0.0,K,A*23
$GPDTM,P90,,0000.000022,S,00000.000001,W,0.988,W84*5A
$GPRMC,000842.00,A,2959.999442,N,12000.000169,E,0.0,,230721,4.3,W,A*04
$GPGGA,000842.00,2959.999442,N,12000.000169,E,1,12,0.6,-17.0,M,7.0,M,,*4A

$GPGSV,3,1,12,02,32,295,42,04,48,241,41,07,83,081,41,08,49,208,41*73
$GPGSV,3,2,12,13,46,033,41,20,19,122,42,23,24,059,42,25,62,039,41*72
$GPGSV,3,3,12,27,20,219,41,10,02,310,,16,00,000,,28,00,000,*7E
$GLGSV,2,1,07,78,08,330,40,86,30,026,40,77,58,324,40,75,08,153,40*6A
$GLGSV,2,2,07,88,21,246,40,87,60,306,40,71,02,078,*56
$GAGSV,2,1,07,09,14,316,45,10,65,334,45,11,53,120,45,17,28,039,45*61
$GAGSV,2,2,07,24,81,016,45,27,27,127,45,12,03,130,*51
$PQGSV,1,1,0,0*43
