$GPGSV,3,1,11,02,31,298,41,04,50,246,41,07,83,116,42,08,46,206,41*7E
$GPGSV,3,2,11,13,48,030,41,20,21,120,41,23,26,056,41,25,65,042,41*73
$GPGSV,3,3,11,27,17,217,41,10,00,000,,16,00,000,*4D
$GLGSV,2,1,07,78,05,330,40,86,33,023,40,77,54,327,40,75,11,151,40*64
$GLGSV,2,2,07,88,19,241,40,87,60,299,40,71,00,000,*50
$GAGSV,1,1,01,11,00,000,45*58
$PQGSV,1,1,0,0*43
$PQGSV,1,1,02,12,61,305,,13,32,199,*6D
$GPGSA,A,3,02,04,07,08,13,20,23,25,27,,,,1.3,1.0,0.8*33
$GPVTG,,T,,M,0.0,N,0.0,K,A*23
$GPDTM,P90,,0000.000022,S,00000.000001,W,0.988,W84*5A
$GPRMC,000101.00,A,2959.999401,N,12000.000709,E,0.0,,230721,4.3,W,A*0D
$GPGGA,000101.00,2959.999401,N,12000.000709,E,1,09,1.0,-16.6,M,7.0,M,,*49

$GPGSV,3,1,11,02,31,298,42,04,50,246,41,07,83,116,41,08,46,206,41*7E
$GPGSV,3,2,11,13,48,030,41,20,21,120,41,23,26,056,41,25,65,042,41*73
$GPGSV,3,3,11,27,17,217,41,10,00,000,,16,00,000,*4D
$GLGSV,2,1,07,78,05,330,40,86,33,023,40,77,54,327,40,75,11,151,40*64
$GLGSV,2,2,07,88,19,241,40,87,60,299,40,71,00,000,*50
$GAGSV,1,1,02,11,00,000,45,12,00,000,45*69
$PQGSV,1,1,0,0*43
$PQGSV,1,1,02,12,61,305,,13,32,199,*6D
$GPGSA,A,3,02,04,07,08,13,20,23,25,27,,,,1.3,1.0,0.8*33
$GPVTG,,T,,M,0.0,N,0.0,K,A*23
$GPDTM,P90,,0000.000022,S,00000.000001,W,0.988,W84*5A
$GPRMC,000102.00,A,2959.999405,N,12000.000688,E,0.0,,230721,4.3,W,A*02
$GPGGA,000102.00,2959.999405,N,12000.000688,E,1,09,1.0,-16.6,M,7.0,M,,*46

$GPGSV,3,1,11,02,31,298,41,04,50,246,41,07,83,116,41,08,46,206,41*7D
$GPGSV,3,2,11,13,48,030,42,20,21,120,41,23,26,056,41,25,65,042,42*73
$GPGSV,3,3,11,27,17,217,42,10,00,000,,16,00,000,*4E
$GLGSV,2,1,07,78,05,330,40,86,33,023,40,77,54,327,40,75,11,151,40*64
$GLGSV,2,2,07,88,19,241,40,87,60,299,40,71,00,000,*50
$GAGSV,1,1,02,11,00,000,45,12,00,000,45*69
$PQGSV,1,1,0,0*43
$PQGSV,1,1,02,12,61,305,,13,32,199,*6D
$GPGSA,A,3,02,04,07,08,13,20,23,25,27,,,,1.3,1.0,0.8*33
$GPVTG,,T,,M,0.0,N,0.0,K,A*23
$GPDTM,P90,,0000.000022,S,00000.000001,W,0.988,W84*5A
$GPRMC,000103.00,A,2959.999407,N,12000.000687,E,0.0,,230721,4.3,W,A*0E
$GPGGA,000103.00,2959.999407,N,12000.000687,E,1,09,1.0,-16.6,M,7.0,M,,*4A

$GPGSV,3,1,11,02,31,298,41,04,50,246,41,07,83,116,41,08,46,206,42*7E
$GPGSV,3,2,11,13,48,030,41,20,21,120,41,23,26,056,41,25,65,042,42*70
$GPGSV,3,3,11,27,17,217,41,10,00,000,,16,00,000,*4D
$GLGSV,2,1,07,78,05,330,40,86,33,023,40,77,54,327,40,75,11,151,40*64
$GLGSV,2,2,07,88,19,241,40,87,60,299,40,71,00,000,*50
$GAGSV,1,1,02,11,00,000,45,12,00,000,45*69
$PQGSV,1,1,0,0*43
$PQGSV,1,1,02,12,61,305,,13,32,199,*6D
$GPGSA,A,3,02,04,07,08,13,20,23,25,27,,,,1.3,1.0,0.8*33
$GPVTG,,T,,M,0.0,N,0.0,K,A*23
$GPDTM,P90,,0000.000022,S,00000.000001,W,0.988,W84*5A
$GPRMC,000104.00,A,2959.999406,N,12000.000686,E,0.0,,230721,4.3,W,A*09
$GPGGA,000104.00,2959.999406,N,12000.000686,E,1,09,1.0,-16.6,M,7.0,M,,*4D

$GPGSV,3,1,11,02,31,298,41,04,50,246,41,07,83,116,41,08,46,206,41*7D
$GPGSV,3,2,11,13,48,030,41,20,21,120,41,23,26,056,42,25,65,042,41*70
$GPGSV,3,3,11,27,17,217,41,10,00,000,,16,00,000,*4D
$GLGSV,2,1,07,78,05,330,40,86,33,023,40,77,54,327,40,75,11,151,40*64
$GLGSV,2,2,07,88,19,241,40,87,60,299,40,71,00,000,*50
$GAGSV,1,1,02,11,00,000,45,12,00,000,45*69
$PQGSV,1,1,0,0*43
$PQGSV,1,1,02,12,61,305,,13,32,199,*6D
$GPGSA,A,3,02,04,07,08,13,20,23,25,27,,,,1.3,1.0,0.8*33
$GPVTG,,T,,M,0.0,N,0.0,K,A*23
$GPDTM,P90,,0000.000022,S,00000.000001,W,0.988,W84*5A
$GPRMC,000105.00,A,2959.999407,N,12000.000685,E,0.0,,230721,4.3,W,A*0A
$GPGGA,000105.00,2959.999407,N,12000.000685,E,1,09,1.0,-16.6,M,7.0,M,,*4E

$GPGSV,3,1,11,02,31,298,41,04,50,246,41,07,83,116,42,08,46,206,41*7E
$GPGSV,3,2,11,13,48,030,42,20,21,120,41,23,26,056,42,25,65,042,41*73
$GPGSV,3,3,11,27,17,217,41,10,00,000,,16,00,000,*4D
$GLGSV,2,1,07,78,05,330,40,86,33,023,40,77,54,327,40,75,11,151,40*64
$GLGSV,2,2,07,88,19,241,40,87,60,299,40,71,00,000,*50
$GAGSV,1,1,02,11,00,000,45,12,00,000,45*69
$PQGSV,1,1,0,0*43
$PQGSV,1,1,02,12,61,305,,13,32,199,*6D
$GPGSA,A,3,02,04,07,08,13,20,23,25,27,,,,1.3,1.0,0.8*33
$GPVTG,,T,,M,0.0,N,0.0,K,A*23
$GPDTM,P90,,0000.000022,S,00000.000001,W,0.988,W84*5A
$GPRMC,000106.00,A,2959.999407,N,12000.000685,E,0.0,,230721,4.3,W,A*09
$GPGGA,000106.00,2959.999407,N,12000.000685,E,1,09,1.0,-16.6,M,7.0,M,,*4D

$GPGSV,3,1,11,02,31,298,41,04,50,246,41,07,83,116,42,08,46,206,41*7E
$GPGSV,3,2,11,13,48,030,42,20,21,120,41,23,26,056,41,25,65,042,41*70
$GPGSV,3,3,11,27,17,217,41,10,00,000,,16,00,000,*4D
$GLGSV,2,1,07,78,05,330,40,86,33,023,40,77,54,327,40,75,11,151,40*64
$GLGSV,2,2,07,88,19,241,40,87,60,299,40,71,00,000,*50
$GAGSV,1,1,02,11,00,000,45,12,00,000,45*69
$PQGSV,1,1,0,0*43
$PQGSV,1,1,02,12,61,305,,13,32,199,*6D
$GPGSA,A,3,02,04,07,08,13,20,23,25,27,,,,1.3,1.0,0.8*33
$GPVTG,,T,,M,0.0,N,0.0,K,A*23
$GPDTM,P90,,0000.000022,S,00000.000001,W,0.988,W84*5A
$GPRMC,000107.00,A,2959.999407,N,12000.000685,E,0.0,,230721,4.3,W,A*08
$GPGGA,000107.00,2959.999407,N,12000.000685,E,1,09,1.0,-16.6,M,7.0,M,,*4C

$GPGSV,3,1,11,02,31,298,41,04,50,246,41,07,83,116,41,08,46,206,41*7D
$GPGSV,3,2,11,13,48,030,41,20,21,120,41,23,26,056,41,25,65,042,41*73
$GPGSV,3,3,11,27,17,217,42,10,00,000,,16,00,000,*4E
$GLGSV,2,1,07,78,05,330,40,86,33,023,40,77,54,327,40,75,11,151,40*64
$GLGSV,2,2,07,88,19,241,40,87,60,299,40,71,00,000,*50
$GAGSV,1,1,02,11,00,000,45,12,00,000,45*69
$PQGSV,1,1,0,0*43
$PQGSV,1,1,02,12,61,305,,13,32,199,*6D
$GPGSA,A,3,02,04,07,08,13,20,23,25,27,,,,1.0,0.7,0.7*39
$GPVTG,,T,,M,0.0,N,0.0,K,A*23
$GPDTM,P90,,0000.000022,S,00000.000001,W,0.988,W84*5A
$GPRMC,000108.00,A,2959.999393,N,12000.000640,E,0.0,,230721,4.3,W,A*04
$GPGGA,000108.00,2959.999393,N,12000.000640,E,1,09,0.7,-16.7,M,7.0,M,,*47

$GPGSV,3,1,11,02,31,298,41,04,50,246,42,07,83,116,42,08,46,206,41*7D
$GPGSV,3,2,11,13,48,030,42,20,21,120,41,23,26,056,41,25,65,042,41*70
$GPGSV,3,3,11,27,17,217,41,10,00,000,,16,00,000,*4D
$GLGSV,2,1,07,78,06,330,40,86,33,023,40,77,55,327,40,75,10,151,40*67
$GLGSV,2,2,07,88,19,243,40,87,60,299,40,71,00,000,*52
$GAGSV,1,1,02,11,00,000,45,12,00,000,45*69
$PQGSV,1,1,0,0*43
$PQGSV,1,1,02,12,61,305,,13,32,199,*6D
$GPGSA,A,3,02,04,07,08,13,20,23,25,27,,,,1.0,0.7,0.7*39
$GLGSA,A,3,75,77,78,86,87,88,,,,,,,1.0,0.7,0.7*23
$GPVTG,,T,,M,0.0,N,0.0,K,A*23
$GPDTM,P90,,0000.000022,S,00000.000001,W,0.988,W84*5A
$GPRMC,000109.00,A,2959.999403,N,12000.000616,E,0.0,,230721,4.3,W,A*08
$GPGGA,000109.00,2959.999403,N,12000.000616,E,1,12,0.7,-17.0,M,7.0,M,,*47

$GPGSV,3,1,11,02,31,298,42,04,50,246,42,07,83,116,41,08,46,206,41*7D
$GPGSV,3,2,11,13,48,030,41,20,21,120,41,23,26,056,41,25,65,042,41*73
$GPGSV,3,3,11,27,17,217,42,10,00,000,,16,00,000,*4E
$GLGSV,2,1,07,78,06,330,40,86,33,023,40,77,55,327,40,75,10,151,40*67
$GLGSV,2,2,07,88,19,243,40,87,60,299,40,71,00,000,*52
$GAGSV,1,1,02,11,00,000,45,12,00,000,45*69
$PQGSV,1,1,0,0*43
$PQGSV,1,1,02,12,61,305,,13,32,199,*6D
$GPGSA,A,3,02,04,07,08,13,20,23,25,27,,,,1.0,0.7,0.7*39
$GLGSA,A,3,75,77,78,86,87,88,,,,,,,1.0,0.7,0.7*23
$GPVTG,,T,,M,0.0,N,0.0,K,A*23
$GPDTM,P90,,0000.000022,S,00000.000001,W,0.988,W84*5A
$GPRMC,000110.00,A,2959.999498,N,12000.000538,E,0.0,,230721,4.3,W,A*0D
$GPGGA,000110.00,2959.999498,N,12000.000538,E,1,12,0.7,-17.2,M,7.0,M,,*40

$GPGSV,3,1,11,02,31,298,42,04,50,246,42,07,83,116,41,08,46,206,41*7D
$GPGSV,3,2,11,13,48,030,42,20,21,120,41,23,26,056,42,25,65,042,42*70
$GPGSV,3,3,11,27,17,217,41,10,00,000,,16,00,000,*4D
$GLGSV,2,1,07,78,06,330,40,86,33,023,40,77,55,327,40,75,10,151,40*67
$GLGSV,2,2,07,88,19,243,40,87,60,299,40,71,00,000,*52
$GAGSV,1,1,02,11,00,000,45,12,00,000,45*69
$PQGSV,1,1,0,0*43
$PQGSV,1,1,02,12,61,305,,13,32,199,*6D
$GPGSA,A,3,02,04,07,08,13,20,23,25,27,,,,1.0,0.7,0.7*39
$GLGSA,A,3,75,77,78,86,87,88,,,,,,,1.0,0.7,0.7*23
$GPVTG,,T,,M,0.0,N,0.0,K,A*23
$GPDTM,P90,,0000.000022,S,00000.000001,W,0.988,W84*5A
$GPRMC,000111.00,A,2959.999564,N,12000.000458,E,0.0,,230721,4.3,W,A*09
$GPGGA,000111.00,2959.999564,N,12000.000458,E,1,12,0.7,-17.4,M,7.0,M,,*42

$GPGSV,3,1,11,02,31,298,41,04,50,246,42,07,83,116,41,08,46,206,41*7E
$GPGSV,3,2,11,13,48,030,41,20,21,120,41,23,26,056,42,25,65,042,41*70
$GPGSV,3,3,11,27,17,217,42,10,00,000,,16,00,000,*4E
$GLGSV,2,1,07,78,06,330,40,86,33,023,40,77,55,327,40,75,10,151,40*67
$GLGSV,2,2,07,88,19,243,40,87,60,299,40,71,00,000,*52
$GAGSV,1,1,02,11,00,000,45,12,00,000,45*69
$PQGSV,1,1,0,0*43
$PQGSV,1,1,02,12,61,305,,13,32,199,*6D
$GPGSA,A,3,02,04,07,08,13,20,23,25,27,,,,1.0,0.7,0.7*39
$GLGSA,A,3,75,77,78,86,87,88,,,,,,,1.0,0.7,0.7*23
$GPVTG,,T,,M,0.0,N,0.0,K,A*23
$GPDTM,P90,,0000.000022,S,00000.000001,W,0.988,W84*5A
$GPRMC,000112.00,A,2959.999514,N,12000.000469,E,0.0,,230721,4.3,W,A*0F
$GPGGA,000112.00,2959.999514,N,12000.000469,E,1,12,0.7,-17.4,M,7.0,M,,*44

$GPGSV,3,1,11,02,31,298,42,04,50,246,41,07,83,116,41,08,46,206,41*7E
$GPGSV,3,2,11,13,48,030,41,20,21,120,41,23,26,056,41,25,65,042,41*73
$GPGSV,3,3,11,27,17,217,41,10,00,000,,16,00,000,*4D
$GLGSV,2,1,07,78,06,330,40,86,33,023,40,77,55,327,40,75,10,151,40*67
$GLGSV,2,2,07,88,19,243,40,87,60,299,40,71,00,000,*52
$GAGSV,1,1,02,11,00,000,45,12,00,000,45*69
$PQGSV,1,1,0,0*43
$PQGSV,1,1,02,12,61,305,,13,32,199,*6D
$GPGSA,A,3,02,04,07,08,13,20,23,25,27,,,,1.0,0.7,0.7*39
$GLGSA,A,3,75,77,78,86,87,88,,,,,,,1.0,0.7,0.7*23
$GPVTG,,T,,M,0.0,N,0.0,K,A*23
$GPDTM,P90,,0000.000022,S,00000.000001,W,0.988,W84*5A
$GPRMC,000113.00,A,2959.999492,N,12000.000478,E,0.0,,230721,4.3,W,A*01
$GPGGA,000113.00,2959.999492,N,12000.000478,E,1,12,0.7,-17.6,M,7.0,M,,*48

$GPGSV,3,1,11,02,31,298,41,04,50,246,42,07,83,116,41,08,46,206,41*7E
$GPGSV,3,2,11,13,48,030,41,20,21,120,41,23,26,056,41,25,65,042,42*70
$GPGSV,3,3,11,27,17,217,41,10,00,000,,16,00,000,*4D
$GLGSV,2,1,07,78,06,330,40,86,33,023,40,77,55,327,40,75,10,151,40*67
$GLGSV,2,2,07,88,19,243,40,87,60,299,40,71,00,000,*52
$GAGSV,1,1,02,11,00,000,45,12,00,000,45*69
$PQGSV,1,1,0,0*43
$PQGSV,1,1,02,12,61,305,,13,32,199,*6D
$GPGSA,A,3,02,04,07,08,13,20,23,25,27,,,,1.0,0.7,0.7*39
$GLGSA,A,3,75,77,78,86,87,88,,,,,,,1.0,0.7,0.7*23
$GPVTG,,T,,M,0.0,N,0.0,K,A*23
$GPDTM,P90,,0000.000022,S,00000.000001,W,0.988,W84*5A
$GPRMC,000114.00,A,2959.999439,N,12000.000487,E,0.0,,230721,4.3,W,A*07
$GPGGA,000114.00,2959.999439,N,12000.000487,E,1,12,0.7,-17.6,M,7.0,M,,*4E

$GPGSV,3,1,11,02,31,298,42,04,50,246,41,07,83,116,41,08,46,206,41*7E
$GPGSV,3,2,11,13,48,030,41,20,21,120,41,23,26,056,41,25,65,042,42*70
$GPGSV,3,3,11,27,17,217,41,10,00,000,,16,00,000,*4D
$GLGSV,2,1,07,78,06,330,40,86,33,023,40,77,55,327,40,75,10,151,40*67
$GLGSV,2,2,07,88,19,243,40,87,60,299,40,71,00,000,*52
$GAGSV,1,1,02,11,00,000,45,12,00,000,45*69
$PQGSV,1,1,0,0*43
$PQGSV,1,1,02,12,61,305,,13,32,199,*6D
$GPGSA,A,3,02,04,07,08,13,20,23,25,27,,,,1.0,0.7,0.7*39
$GLGSA,A,3,75,77,78,86,87,88,,,,,,,1.0,0.7,0.7*23
$GPVTG,,T,,M,0.0,N,0.0,K,A*23
$GPDTM,P90,,0000.000022,S,00000.000001,W,0.988,W84*5A
$GPRMC,000115.00,A,2959.999465,N,12000.000443,E,0.0,,230721,4.3,W,A*07
$GPGGA,000115.00,2959.999465,N,12000.000443,E,1,12,0.7,-17.8,M,7.0,M,,*40

$GPGSV,3,1,11,02,31,298,41,04,50,246,41,07,83,116,41,08,46,206,41*7D
$GPGSV,3,2,11,13,48,030,41,20,21,120,41,23,26,056,41,25,65,042,42*70
$GPGSV,3,3,11,27,17,217,41,10,00,000,,16,00,000,*4D
$GLGSV,2,1,07,78,06,330,40,86,33,023,40,77,55,327,40,75,10,151,40*67
$GLGSV,2,2,07,88,19,243,40,87,60,299,40,71,00,000,*52
$GAGSV,1,1,02,11,00,000,45,12,00,000,45*69
$PQGSV,1,1,0,0*43
$PQGSV,1,1,02,12,61,305,,13,32,199,*6D
$GPGSA,A,3,02,04,07,08,13,20,23,25,27,,,,1.0,0.7,0.7*39
$GLGSA,A,3,75,77,78,86,87,88,,,,,,,1.0,0.7,0.7*23
$GPVTG,,T,,M,0.0,N,0.0,K,A*23
$GPDTM,P90,,0000.000022,S,00000.000001,W,0.988,W84*5A
$GPRMC,000116.00,A,2959.999484,N,12000.000392,E,0.0,,230721,4.3,W,A*00
$GPGGA,000116.00,2959.999484,N,12000.000392,E,1,12,0.7,-17.7,M,7.0,M,,*48

$GPGSV,3,1,11,02,31,298,42,04,50,246,41,07,83,116,41,08,46,206,41*7E
$GPGSV,3,2,11,13,48,030,41,20,21,120,41,23,26,056,41,25,65,042,41*73
$GPGSV,3,3,11,27,17,217,41,10,00,000,,16,00,000,*4D
$GLGSV,2,1,07,78,06,330,40,86,33,023,40,77,55,327,40,75,10,151,40*67
$GLGSV,2,2,07,88,19,243,40,87,60,299,40,71,00,000,*52
$GAGSV,1,1,02,11,00,000,45,12,00,000,45*69
$PQGSV,1,1,0,0*43
$PQGSV,1,1,02,12,61,305,,13,32,199,*6D
$GPGSA,A,3,02,04,07,08,13,20,23,25,27,,,,1.0,0.7,0.7*39
$GLGSA,A,3,75,77,78,86,87,88,,,,,,,1.0,0.7,0.7*23
$GPVTG,,T,,M,0.0,N,0.0,K,A*23
$GPDTM,P90,,0000.000022,S,00000.000001,W,0.988,W84*5A
$GPRMC,000117.00,A,2959.999448,N,12000.000371,E,0.0,,230721,4.3,W,A*0C
$GPGGA,000117.00,2959.999448,N,12000.000371,E,1,12,0.7,-17.7,M,7.0,M,,*44

$GPGSV,3,1,11,02,31,298,42,04,50,246,42,07,83,116,41,08,46,206,41*7D
$GPGSV,3,2,11,13,48,030,41,20,21,120,42,23,26,056,42,25,65,042,41*73
$GPGSV,3,3,11,27,17,217,42,10,00,000,,16,00,000,*4E
$GLGSV,2,1,07,78,06,330,40,86,33,023,40,77,55,327,40,75,10,151,40*67
$GLGSV,2,2,07,88,19,243,40,87,60,299,40,71,00,000,*52
$GAGSV,1,1,02,11,55,116,45,12,00,000,45*6F
$PQGSV,1,1,0,0*43
$PQGSV,1,1,02,12,61,305,,13,32,199,*6D
$GPGSA,A,3,02,04,07,08,13,20,23,25,27,,,,1.0,0.7,0.7*39
$GLGSA,A,3,75,77,78,86,87,88,,,,,,,1.0,0.7,0.7*23
$GPVTG,,T,,M,0.0,N,0.0,K,A*23
$GPDTM,P90,,0000.000022,S,00000.000001,W,0.988,W84*5A
$GPRMC,000118.00,A,2959.999444,N,12000.000383,E,0.0,,230721,4.3,W,A*02
$GPGGA,000118.00,2959.999444,N,12000.000383,E,1,12,0.7,-17.7,M,7.0,M,,*4A

$GPGSV,3,1,11,02,31,298,42,04,50,246,42,07,83,116,41,08,46,206,41*7D
$GPGSV,3,2,11,13,48,030,41,20,21,120,41,23,26,056,42,25,65,042,41*70
$GPGSV,3,3,11,27,17,217,41,10,00,000,,16,00,000,*4D
$GLGSV,2,1,07,78,06,330,40,86,33,023,40,77,55,327,40,75,10,151,40*67
$GLGSV,2,2,07,88,19,243,40,87,60,299,40,71,00,000,*52
$GAGSV,1,1,02,11,55,116,45,12,00,000,45*6F
$PQGSV,1,1,0,0*43
$PQGSV,1,1,02,12,61,305,,13,32,199,*6D
$GPGSA,A,3,02,04,07,08,13,20,23,25,27,,,,1.0,0.7,0.7*39
$GLGSA,A,3,75,77,78,86,87,88,,,,,,,1.0,0.7,0.7*23
$GAGSA,A,3,11,,,,,,,,,,,,1.0,0.7,0.7*22
$GPVTG,,T,,M,0.0,N,0.0,K,A*23
$GPDTM,P90,,0000.000022,S,00000.000001,W,0.988,W84*5A
$GPRMC,000119.00,A,2959.999449,N,12000.000377,E,0.0,,230721,4.3,W,A*05
$GPGGA,000119.00,2959.999449,N,12000.000377,E,1,12,0.7,-17.7,M,7.0,M,,*4D

$GPGSV,3,1,11,02,31,298,41,04,50,246,41,07,83,116,41,08,46,206,42*7E
$GPGSV,3,2,11,13,48,030,41,20,21,120,41,23,26,056,41,25,65,042,41*73
$GPGSV,3,3,11,27,17,217,42,10,00,000,,16,00,000,*4E
$GLGSV,2,1,07,78,06,330,40,86,33,023,40,77,55,327,40,75,10,151,40*67
$GLGSV,2,2,07,88,19,243,40,87,60,299,40,71,00,000,*52
$GAGSV,1,1,02,11,55,116,45,12,00,000,45*6F
$PQGSV,1,1,0,0*43
$PQGSV,1,1,02,12,61,305,,13,32,199,*6D
$GPGSA,A,3,02,04,07,08,13,20,23,25,27,,,,1.0,0.7,0.7*39
$GLGSA,A,3,75,77,78,86,87,88,,,,,,,1.0,0.7,0.7*23
$GAGSA,A,3,11,,,,,,,,,,,,1.0,0.7,0.7*22
$GPVTG,,T,,M,0.0,N,0.0,K,A*23
$GPDTM,P90,,0000.000022,S,00000.000001,W,0.988,W84*5A
$GPRMC,000120.00,A,2959.999450,N,12000.000376,E,0.0,,230721,4.3,W,A*06
$GPGGA,000120.00,2959.999450,N,12000.000376,E,1,12,0.7,-17.8,M,7.0,M,,*41

$GPGSV,3,1,11,02,31,298,41,04,50,246,42,07,83,116,41,08,46,206,41*7E
$GPGSV,3,2,11,13,48,030,41,20,21,120,41,23,26,056,41,25,65,042,41*73
$GPGSV,3,3,11,27,17,217,42,10,00,000,,16,00,000,*4E
$GLGSV,2,1,07,78,06,330,40,86,33,023,40,77,55,327,40,75,10,151,40*67
$GLGSV,2,2,07,88,19,243,40,87,60,299,40,71,00,000,*52
$GAGSV,1,1,02,11,55,116,45,12,00,000,45*6F
$PQGSV,1,1,0,0*43
$PQGSV,1,1,02,12,61,305,,13,32,199,*6D
$GPGSA,A,3,02,04,07,08,13,20,23,25,27,,,,1.0,0.7,0.7*39
$GLGSA,A,3,75,77,78,86,87,88,,,,,,,1.0,0.7,0.7*23
$GAGSA,A,3,11,,,,,,,,,,,,1.0,0.7,0.7*22
$GPVTG,,T,,M,0.0,N,0.0,K,A*23
$GPDTM,P90,,0000.000022,S,00000.000001,W,0.988,W84*5A
$GPRMC,000121.00,A,2959.999452,N,12000.000373,E,0.0,,230721,4.3,W,A*00
$GPGGA,000121.00,2959.999452,N,12000.000373,E,1,12,0.7,-17.8,M,7.0,M,,*47

$GPGSV,3,1,11,02,31,298,41,04,50,246,41,07,83,116,42,08,46,206,41*7E
$GPGSV,3,2,11,13,48,030,42,20,21,120,41,23,26,056,41,25,65,042,41*70
$GPGSV,3,3,11,27,17,217,42,10,00,000,,16,00,000,*4E
$GLGSV,2,1,07,78,06,330,40,86,33,023,40,77,55,327,40,75,10,151,40*67
$GLGSV,2,2,07,88,19,243,40,87,60,299,40,71,00,000,*52
$GAGSV,1,1,02,11,55,116,45,12,00,000,45*6F
$PQGSV,1,1,0,0*43
$PQGSV,1,1,02,12,61,305,,13,32,199,*6D
$GPGSA,A,3,02,04,07,08,13,20,23,25,27,,,,1.0,0.7,0.7*39
$GLGSA,A,3,75,77,78,86,87,88,,,,,,,1.0,0.7,0.7*23
$GAGSA,A,3,11,,,,,,,,,,,,1.0,0.7,0.7*22
$GPVTG,,T,,M,0.0,N,0.0,K,A*23
$GPDTM,P90,,0000.000022,S,00000.000001,W,0.988,W84*5A
$GPRMC,000122.00,A,2959.999452,N,12000.000373,E,0.0,,230721,4.3,W,A*03
$GPGGA,000122.00,2959.999452,N,12000.000373,E,1,12,0.7,-17.8,M,7.0,M,,*44

$GPGSV,3,1,11,02,31,298,41,04,50,246,41,07,83,116,42,08,46,206,41*7E
$GPGSV,3,2,11,13,48,030,41,20,21,120,41,23,26,056,41,25,65,042,41*73
$GPGSV,3,3,11,27,17,217,41,10,00,000,,16,00,000,*4D
$GLGSV,2,1,07,78,06,330,40,86,33,023,40,77,55,327,40,75,10,151,40*67
$GLGSV,2,2,07,88,19,243,40,87,60,299,40,71,00,000,*52
$GAGSV,1,1,02,11,55,116,45,12,00,000,45*6F
$PQGSV,1,1,0,0*43
$PQGSV,1,1,02,12,61,305,,13,32,199,*6D
$GPGSA,A,3,02,04,07,08,13,20,23,25,27,,,,1.0,0.7,0.7*39
$GLGSA,A,3,75,77,78,86,87,88,,,,,,,1.0,0.7,0.7*23
$GAGSA,A,3,11,,,,,,,,,,,,1.0,0.7,0.7*22
$GPVTG,,T,,M,0.0,N,0.0,K,A*23
$GPDTM,P90,,0000.000022,S,00000.000001,W,0.988,W84*5A
$GPRMC,000123.00,A,2959.999452,N,12000.000372,E,0.0,,230721,4.3,W,A*03
$GPGGA,000123.00,2959.999452,N,12000.000372,E,1,12,0.7,-17.8,M,7.0,M,,*44

$GPGSV,3,1,11,02,31,298,42,04,50,246,41,07,83,116,41,08,46,206,42*7D
$GPGSV,3,2,11,13,48,030,41,20,21,120,41,23,26,056,41,25,65,042,42*70
$GPGSV,3,3,11,27,17,217,42,10,00,000,,16,00,000,*4E
$GLGSV,2,1,07,78,06,330,40,86,33,023,40,77,55,327,40,75,10,151,40*67
$GLGSV,2,2,07,88,19,243,40,87,60,299,40,71,00,000,*52
$GAGSV,1,1,02,11,55,116,45,12,00,000,45*6F
$PQGSV,1,1,0,0*43
$PQGSV,1,1,02,12,61,305,,13,32,199,*6D
$GPGSA,A,3,02,04,07,08,13,20,23,25,27,,,,1.0,0.7,0.7*39
$GLGSA,A,3,75,77,78,86,87,88,,,,,,,1.0,0.7,0.7*23
$GAGSA,A,3,11,,,,,,,,,,,,1.0,0.7,0.7*22
$GPVTG,,T,,M,0.0,N,0.0,K,A*23
$GPDTM,P90,,0000.000022,S,00000.000001,W,0.988,W84*5A
$GPRMC,000124.00,A,2959.999453,N,12000.000371,E,0.0,,230721,4.3,W,A*06
$GPGGA,000124.00,2959.999453,N,12000.000371,E,1,12,0.7,-17.8,M,7.0,M,,*41

$GPGSV,3,1,11,02,31,298,41,04,50,246,41,07,83,116,41,08,46,206,42*7E
$GPGSV,3,2,11,13,48,030,41,20,21,120,41,23,26,056,41,25,65,042,42*70
$GPGSV,3,3,11,27,17,217,42,10,00,000,,16,00,000,*4E
$GLGSV,2,1,07,78,06,330,40,86,33,023,40,77,55,327,40,75,10,151,40*67
$GLGSV,2,2,07,88,19,243,40,87,60,299,40,71,00,000,*52
$GAGSV,1,1,02,11,55,116,45,12,00,000,45*6F
$PQGSV,1,1,0,0*43
$PQGSV,1,1,02,12,61,305,,13,32,199,*6D
$GPGSA,A,3,02,04,07,08,13,20,23,25,27,,,,1.0,0.7,0.7*39
$GLGSA,A,3,75,77,78,86,87,88,,,,,,,1.0,0.7,0.7*23
$GAGSA,A,3,11,,,,,,,,,,,,1.0,0.7,0.7*22
$GPVTG,,T,,M,0.0,N,0.0,K,A*23
$GPDTM,P90,,0000.000022,S,00000.000001,W,0.988,W84*5A
$GPRMC,000125.00,A,2959.999453,N,12000.000371,E,0.0,,230721,4.3,W,A*07
$GPGGA,000125.00,2959.999453,N,12000.000371,E,1,12,0.7,-17.8,M,7.0,M,,*40

$GPGSV,3,1,11,02,31,298,41,04,50,246,41,07,83,116,41,08,46,206,41*7D
$GPGSV,3,2,11,13,48,030,42,20,21,120,41,23,26,056,41,25,65,042,41*70
$GPGSV,3,3,11,27,17,217,41,10,00,000,,16,00,000,*4D
$GLGSV,2,1,07,78,06,330,40,86,33,023,40,77,55,327,40,75,10,151,40*67
$GLGSV,2,2,07,88,19,243,40,87,60,299,40,71,00,000,*52
$GAGSV,1,1,02,11,55,116,45,12,00,000,45*6F
$PQGSV,1,1,0,0*43
$PQGSV,1,1,02,12,61,305,,13,32,199,*6D
$GPGSA,A,3,02,04,07,08,13,20,23,25,27,,,,1.0,0.7,0.7*39
$GLGSA,A,3,75,77,78,86,87,88,,,,,,,1.0,0.7,0.7*23
$GAGSA,A,3,11,,,,,,,,,,,,1.0,0.7,0.7*22
$GPVTG,,T,,M,0.0,N,0.0,K,A*23
$GPDTM,P90,,0000.000022,S,00000.000001,W,0.988,W84*5A
$GPRMC,000126.00,A,2959.999454,N,12000.000369,E,0.0,,230721,4.3,W,A*0A
$GPGGA,000126.00,2959.999454,N,12000.000369,E,1,12,0.7,-17.8,M,7.0,M,,*4D

$GPGSV,3,1,11,02,31,298,42,04,50,246,41,07,83,116,41,08,46,206,42*7D
$GPGSV,3,2,11,13,48,030,42,20,21,120,41,23,26,056,42,25,65,042,41*73
$GPGSV,3,3,11,27,17,217,41,10,00,000,,16,00,000,*4D
$GLGSV,2,1,07,78,06,330,40,86,33,023,40,77,55,327,40,75,10,151,40*67
$GLGSV,2,2,07,88,19,243,40,87,60,299,40,71,00,000,*52
$GAGSV,1,1,02,11,55,116,45,12,00,000,45*6F
$PQGSV,1,1,0,0*43
$PQGSV,1,1,02,12,61,305,,13,32,199,*6D
$GPGSA,A,3,02,04,07,08,13,20,23,25,27,,,,1.0,0.7,0.7*39
$GLGSA,A,3,75,77,78,86,87,88,,,,,,,1.0,0.7,0.7*23
$GAGSA,A,3,11,,,,,,,,,,,,1.0,0.7,0.7*22
$GPVTG,,T,,M,0.0,N,0.0,K,A*23
$GPDTM,P90,,0000.000022,S,00000.000001,W,0.988,W84*5A
$GPRMC,000127.00,A,2959.999454,N,12000.000368,E,0.0,,230721,4.3,W,A*0A
$GPGGA,000127.00,2959.999454,N,12000.000368,E,1,12,0.7,-17.8,M,7.0,M,,*4D

$GPGSV,3,1,11,02,31,298,42,04,50,246,41,07,83,116,42,08,46,206,41*7D
$GPGSV,3,2,11,13,48,030,42,20,21,120,41,23,26,056,41,25,65,042,41*70
$GPGSV,3,3,11,27,17,217,42,10,00,000,,16,00,000,*4E
$GLGSV,2,1,07,78,06,330,40,86,33,023,40,77,55,327,40,75,10,151,40*67
$GLGSV,2,2,07,88,19,243,40,87,60,299,40,71,00,000,*52
$GAGSV,1,1,02,11,55,116,45,12,00,000,45*6F
$PQGSV,1,1,0,0*43
$PQGSV,1,1,02,12,61,305,,13,32,199,*6D
$GPGSA,A,3,02,04,07,08,13,20,23,25,27,,,,1.0,0.7,0.7*39
$GLGSA,A,3,75,77,78,86,87,88,,,,,,,1.0,0.7,0.7*23
$GAGSA,A,3,11,,,,,,,,,,,,1.0,0.7,0.7*22
$GPVTG,,T,,M,0.0,N,0.0,K,A*23
$GPDTM,P90,,0000.000022,S,00000.000001,W,0.988,W84*5A
$GPRMC,000128.00,A,2959.999455,N,12000.000368,E,0.0,,230721,4.3,W,A*04
$GPGGA,000128.00,2959.999455,N,12000.000368,E,1,12,0.7,-17.8,M,7.0,M,,*43

$GPGSV,3,1,11,02,31,298,41,04,50,246,41,07,83,116,41,08,46,206,41*7D
$GPGSV,3,2,11,13,48,030,41,20,21,120,41,23,26,056,41,25,65,042,41*73
$GPGSV,3,3,11,27,17,217,41,10,00,000,,16,00,000,*4D
$GLGSV,2,1,07,78,06,330,40,86,33,023,40,77,55,327,40,75,10,151,40*67
$GLGSV,2,2,07,88,19,243,40,87,60,299,39,71,00,000,*5C
$GAGSV,1,1,02,11,55,116,45,12,00,000,45*6F
$PQGSV,1,1,0,0*43
$PQGSV,1,1,02,12,61,305,,13,32,199,*6D
$GPGSA,A,3,02,04,07,08,13,20,23,25,27,,,,1.0,0.7,0.7*39
$GLGSA,A,3,75,77,78,86,87,88,,,,,,,1.0,0.7,0.7*23
$GAGSA,A,3,11,,,,,,,,,,,,1.0,0.7,0.7*22
$GPVTG,,T,,M,0.0,N,0.0,K,A*23
$GPDTM,P90,,0000.000022,S,00000.000001,W,0.988,W84*5A
$GPRMC,000129.00,A,2959.999454,N,12000.000368,E,0.0,,230721,4.3,W,A*04
$GPGGA,000129.00,2959.999454,N,12000.000368,E,1,12,0.7,-17.8,M,7.0,M,,*43

$GPGSV,3,1,11,02,31,298,41,04,50,246,41,07,83,116,41,08,46,206,41*7D
$GPGSV,3,2,11,13,48,030,41,20,21,120,41,23,26,056,41,25,65,042,41*73
$GPGSV,3,3,11,27,17,217,41,10,00,000,,16,00,000,*4D
$GLGSV,2,1,07,78,06,330,40,86,33,023,39,77,55,327,40,75,10,151,40*69
$GLGSV,2,2,07,88,19,243,40,87,60,299,40,71,00,000,*52
$GAGSV,1,1,02,11,55,116,45,12,00,000,45*6F
$PQGSV,1,1,0,0*43
$PQGSV,1,1,02,12,61,305,,13,32,199,*6D
$GPGSA,A,3,02,04,07,08,13,20,23,25,27,,,,1.0,0.7,0.7*39
$GLGSA,A,3,75,77,78,86,87,88,,,,,,,1.0,0.7,0.7*23
$GAGSA,A,3,11,,,,,,,,,,,,1.0,0.7,0.7*22
$GPVTG,,T,,M,0.0,N,0.0,K,A*23
$GPDTM,P90,,0000.000022,S,00000.000001,W,0.988,W84*5A
$GPRMC,000130.00,A,2959.999455,N,12000.000367,E,0.0,,230721,4.3,W,A*02
$GPGGA,000130.00,2959.999455,N,12000.000367,E,1,12,0.7,-17.8,M,7.0,M,,*45

$GPGSV,3,1,11,02,31,298,41,04,50,246,41,07,83,116,41,08,46,206,41*7D
$GPGSV,3,2,11,13,48,030,41,20,21,120,41,23,26,056,41,25,65,042,41*73
$GPGSV,3,3,11,27,17,217,41,10,00,000,,16,00,000,*4D
$GLGSV,2,1,07,78,06,330,40,86,33,023,40,77,55,327,40,75,10,151,40*67
$GLGSV,2,2,07,88,19,243,40,87,60,299,40,71,00,000,*52
$GAGSV,1,1,02,11,55,116,45,12,00,000,45*6F
$PQGSV,1,1,0,0*43
$PQGSV,1,1,02,12,61,305,,13,32,199,*6D
$GPGSA,A,3,02,04,07,08,13,20,23,25,27,,,,1.0,0.7,0.7*39
$GLGSA,A,3,75,77,78,86,87,88,,,,,,,1.0,0.7,0.7*23
$GAGSA,A,3,11,,,,,,,,,,,,1.0,0.7,0.7*22
$GPVTG,,T,,M,0.0,N,0.0,K,A*23
$GPDTM,P90,,0000.000022,S,00000.000001,W,0.988,W84*5A
$GPRMC,000131.00,A,2959.999455,N,12000.000367,E,0.0,,230721,4.3,W,A*03
$GPGGA,000131.00,2959.999455,N,12000.000367,E,1,12,0.7,-17.8,M,7.0,M,,*44

$GPGSV,3,1,11,02,31,298,41,04,50,246,41,07,83,116,41,08,46,206,41*7D
$GPGSV,3,2,11,13,48,030,41,20,21,120,41,23,26,056,41,25,65,042,41*73
$GPGSV,3,3,11,27,17,217,41,10,00,000,,16,00,000,*4D
$GLGSV,2,1,07,78,06,330,40,86,33,023,40,77,55,327,40,75,10,151,40*67
$GLGSV,2,2,07,88,19,243,40,87,60,299,40,71,00,000,*52
$GAGSV,1,1,02,11,55,116,45,12,00,000,45*6F
$PQGSV,1,1,0,0*43
$PQGSV,1,1,02,12,61,305,,13,32,199,*6D
$GPGSA,A,3,02,04,07,08,13,20,23,25,27,,,,1.0,0.7,0.7*39
$GLGSA,A,3,75,77,78,86,87,88,,,,,,,1.0,0.7,0.7*23
$GAGSA,A,3,11,,,,,,,,,,,,1.0,0.7,0.7*22
$GPVTG,,T,,M,0.0,N,0.0,K,A*23
$GPDTM,P90,,0000.000022,S,00000.000001,W,0.988,W84*5A
$GPRMC,000132.00,A,2959.999455,N,12000.000366,E,0.0,,230721,4.3,W,A*01
$GPGGA,000132.00,2959.999455,N,12000.000366,E,1,12,0.7,-17.8,M,7.0,M,,*46

$GPGSV,3,1,11,02,31,298,41,04,50,246,41,07,83,116,41,08,46,206,41*7D
$GPGSV,3,2,11,13,48,030,41,20,21,120,41,23,26,056,41,25,65,042,41*73
$GPGSV,3,3,11,27,17,217,41,10,00,000,,16,00,000,*4D
$GLGSV,2,1,07,78,06,330,40,86,33,023,40,77,55,327,40,75,10,151,40*67
$GLGSV,2,2,07,88,19,243,40,87,60,299,40,71,00,000,*52
$GAGSV,1,1,02,11,55,116,45,12,00,000,45*6F
$PQGSV,1,1,0,0*43
$PQGSV,1,1,02,12,61,305,,13,32,199,*6D
$GPGSA,A,3,02,04,07,08,13,20,23,25,27,,,,1.0,0.7,0.7*39
$GLGSA,A,3,75,77,78,86,87,88,,,,,,,1.0,0.7,0.7*23
$GAGSA,A,3,11,,,,,,,,,,,,1.0,0.7,0.7*22
$GPVTG,,T,,M,0.0,N,0.0,K,A*23
$GPDTM,P90,,0000.000022,S,00000.000001,W,0.988,W84*5A
$GPRMC,000133.00,A,2959.999454,N,12000.000366,E,0.0,,230721,4.3,W,A*01
$GPGGA,000133.00,2959.999454,N,12000.000366,E,1,12,0.7,-17.8,M,7.0,M,,*46

$GPGSV,3,1,11,02,31,298,41,04,50,246,41,07,83,116,41,08,46,206,41*7D
$GPGSV,3,2,11,13,48,030,41,20,21,120,41,23,26,056,41,25,65,042,41*73
$GPGSV,3,3,11,27,17,217,41,10,00,000,,16,00,000,*4D
$GLGSV,2,1,07,78,06,330,39,86,33,023,40,77,55,327,40,75,10,151,40*69
$GLGSV,2,2,07,88,19,243,40,87,60,299,40,71,00,000,*52
$GAGSV,1,1,02,11,55,116,45,12,00,000,45*6F
$PQGSV,1,1,0,0*43
$PQGSV,1,1,02,12,61,305,,13,32,199,*6D
$GPGSA,A,3,02,04,07,08,13,20,23,25,27,,,,1.0,0.7,0.7*39
$GLGSA,A,3,75,77,78,86,87,88,,,,,,,1.0,0.7,0.7*23
$GAGSA,A,3,11,,,,,,,,,,,,1.0,0.7,0.7*22
$GPVTG,,T,,M,0.0,N,0.0,K,A*23
$GPDTM,P90,,0000.000022,S,00000.000001,W,0.988,W84*5A
$GPRMC,000134.00,A,2959.999454,N,12000.000365,E,0.0,,230721,4.3,W,A*05
$GPGGA,000134.00,2959.999454,N,12000.000365,E,1,12,0.7,-17.8,M,7.0,M,,*42

$GPGSV,3,1,11,02,31,298,41,04,50,246,41,07,83,116,41,08,46,206,41*7D
$GPGSV,3,2,11,13,48,030,41,20,21,120,41,23,26,056,41,25,65,042,41*73
$GPGSV,3,3,11,27,17,217,41,10,00,000,,16,00,000,*4D
$GLGSV,2,1,07,78,06,330,40,86,33,023,40,77,55,327,40,75,10,151,40*67
$GLGSV,2,2,07,88,19,243,40,87,60,299,40,71,00,000,*52
$GAGSV,1,1,02,11,55,116,45,12,00,000,45*6F
$PQGSV,1,1,0,0*43
$PQGSV,1,1,02,12,61,305,,13,32,199,*6D
$GPGSA,A,3,02,04,07,08,13,20,23,25,27,,,,1.0,0.7,0.7*39
$GLGSA,A,3,75,77,78,86,87,88,,,,,,,1.0,0.7,0.7*23
$GAGSA,A,3,11,,,,,,,,,,,,1.0,0.7,0.7*22
$GPVTG,,T,,M,0.0,N,0.0,K,A*23
$GPDTM,P90,,0000.000022,S,00000.000001,W,0.988,W84*5A
$GPRMC,000135.00,A,2959.999454,N,12000.000365,E,0.0,,230721,4.3,W,A*04
$GPGGA,000135.00,2959.999454,N,12000.000365,E,1,12,0.7,-17.8,M,7.0,M,,*43

$GPGSV,3,1,11,02,31,298,41,04,50,246,41,07,83,116,41,08,46,206,41*7D
$GPGSV,3,2,11,13,48,030,41,20,21,120,41,23,26,056,41,25,65,042,41*73
$GPGSV,3,3,11,27,17,217,41,10,00,000,,16,00,000,*4D
$GLGSV,2,1,07,78,06,330,40,86,33,023,40,77,55,327,40,75,10,151,40*67
$GLGSV,2,2,07,88,19,243,40,87,60,299,40,71,00,000,*52
$GAGSV,1,1,02,11,55,116,45,12,00,000,45*6F
$PQGSV,1,1,0,0*43
$PQGSV,1,1,02,12,61,305,,13,32,199,*6D
$GPGSA,A,3,02,04,07,08,13,20,23,25,27,,,,1.0,0.7,0.7*39
$GLGSA,A,3,75,77,78,86,87,88,,,,,,,1.0,0.7,0.7*23
$GAGSA,A,3,11,,,,,,,,,,,,1.0,0.7,0.7*22
$GPVTG,,T,,M,0.0,N,0.0,K,A*23
$GPDTM,P90,,0000.000022,S,00000.000001,W,0.988,W84*5A
$GPRMC,000136.00,A,2959.999455,N,12000.000364,E,0.0,,230721,4.3,W,A*07
$GPGGA,000136.00,2959.999455,N,12000.000364,E,1,12,0.7,-17.8,M,7.0,M,,*40

$GPGSV,3,1,11,02,31,298,41,04,50,246,41,07,83,116,41,08,46,206,41*7D
$GPGSV,3,2,11,13,48,030,41,20,21,120,41,23,26,056,41,25,65,042,41*73
$GPGSV,3,3,11,27,17,217,41,10,00,000,,16,00,000,*4D
$GLGSV,2,1,07,78,06,330,40,86,33,023,39,77,55,327,40,75,10,151,40*69
$GLGSV,2,2,07,88,19,243,40,87,60,299,40,71,00,000,*52
$GAGSV,1,1,02,11,55,116,45,12,00,000,45*6F
$PQGSV,1,1,0,0*43
$PQGSV,1,1,02,12,61,305,,13,32,199,*6D
$GPGSA,A,3,02,04,07,08,13,20,23,25,27,,,,1.0,0.7,0.7*39
$GLGSA,A,3,75,77,78,86,87,88,,,,,,,1.0,0.7,0.7*23
$GAGSA,A,3,11,,,,,,,,,,,,1.0,0.7,0.7*22
$GPVTG,,T,,M,0.0,N,0.0,K,A*23
$GPDTM,P90,,0000.000022,S,00000.000001,W,0.988,W84*5A
$GPRMC,000137.00,A,2959.999455,N,12000.000364,E,0.0,,230721,4.3,W,A*06
$GPGGA,000137.00,2959.999455,N,12000.000364,E,1,12,0.7,-17.8,M,7.0,M,,*41

$GPGSV,3,1,11,02,31,298,41,04,50,246,41,07,83,116,41,08,46,206,41*7D
$GPGSV,3,2,11,13,48,030,41,20,21,120,41,23,26,056,41,25,65,042,41*73
$GPGSV,3,3,11,27,17,217,41,10,00,000,,16,00,000,*4D
$GLGSV,2,1,07,78,06,330,40,86,33,023,40,77,55,327,40,75,10,151,40*67
$GLGSV,2,2,07,88,19,243,40,87,60,299,40,71,00,000,*52
$GAGSV,1,1,02,11,55,116,45,12,05,129,45*60
$PQGSV,1,1,0,0*43
$PQGSV,1,1,02,12,61,305,,13,32,199,*6D
$GPGSA,A,3,02,04,07,08,13,20,23,25,27,,,,1.0,0.7,0.7*39
$GLGSA,A,3,75,77,78,86,87,88,,,,,,,1.0,0.7,0.7*23
$GAGSA,A,3,11,,,,,,,,,,,,1.0,0.7,0.7*22
$GPVTG,,T,,M,0.0,N,0.0,K,A*23
$GPDTM,P90,,0000.000022,S,00000.000001,W,0.988,W84*5A
$GPRMC,000138.00,A,2959.999459,N,12000.000358,E,0.0,,230721,4.3,W,A*0A
$GPGGA,000138.00,2959.999459,N,12000.000358,E,1,12,0.7,-17.8,M,7.0,M,,*4D

$GPGSV,3,1,11,02,31,298,41,04,50,246,41,07,83,116,41,08,46,206,41*7D
$GPGSV,3,2,11,13,48,030,41,20,21,120,41,23,26,056,41,25,65,042,41*73
$GPGSV,3,3,11,27,17,217,41,10,00,000,,16,00,000,*4D
$GLGSV,2,1,07,78,06,330,40,86,33,023,39,77,55,327,40,75,10,151,40*69
$GLGSV,2,2,07,88,19,243,40,87,60,299,40,71,00,000,*52
$GAGSV,1,1,02,11,55,116,45,12,05,129,45*60
$PQGSV,1,1,0,0*43
$PQGSV,1,1,02,12,61,305,,13,32,199,*6D
$GPGSA,A,3,02,04,07,08,13,20,23,25,27,,,,1.0,0.7,0.7*39
$GLGSA,A,3,75,77,78,86,87,88,,,,,,,1.0,0.7,0.7*23
$GAGSA,A,3,11,12,,,,,,,,,,,1.0,0.7,0.7*21
$GPVTG,,T,,M,0.0,N,0.0,K,A*23
$GPDTM,P90,,0000.000022,S,00000.000001,W,0.988,W84*5A
$GPRMC,000139.00,A,2959.999463,N,12000.000353,E,0.0,,230721,4.3,W,A*09
$GPGGA,000139.00,2959.999463,N,12000.000353,E,1,12,0.7,-17.7,M,7.0,M,,*41

$GPGSV,3,1,11,02,31,298,41,04,50,246,41,07,83,116,41,08,46,206,41*7D
$GPGSV,3,2,11,13,48,030,41,20,21,120,41,23,26,056,41,25,65,042,41*73
$GPGSV,3,3,11,27,17,217,41,10,00,000,,16,00,000,*4D
$GLGSV,2,1,07,78,06,330,40,86,33,023,39,77,55,327,40,75,10,151,40*69
$GLGSV,2,2,07,88,19,243,40,87,60,299,40,71,00,000,*52
$GAGSV,1,1,02,11,55,116,45,12,05,129,45*60
$PQGSV,1,1,0,0*43
$PQGSV,1,1,02,12,61,305,,13,32,199,*6D
$GPGSA,A,3,02,04,07,08,13,20,23,25,27,,,,1.0,0.7,0.7*39
$GLGSA,A,3,75,77,78,86,87,88,,,,,,,1.0,0.7,0.7*23
$GAGSA,A,3,11,12,,,,,,,,,,,1.0,0.7,0.7*21
$GPVTG,,T,,M,0.0,N,0.0,K,A*23
$GPDTM,P90,,0000.000022,S,00000.000001,W,0.988,W84*5A
$GPRMC,000140.00,A,2959.999465,N,12000.000349,E,0.0,,230721,4.3,W,A*0A
$GPGGA,000140.00,2959.999465,N,12000.000349,E,1,12,0.7,-17.7,M,7.0,M,,*42

$GPGSV,3,1,11,02,31,298,41,04,50,246,41,07,83,116,41,08,46,206,41*7D
$GPGSV,3,2,11,13,48,030,41,20,21,120,41,23,26,056,41,25,65,042,41*73
$GPGSV,3,3,11,27,17,217,41,10,00,000,,16,00,000,*4D
$GLGSV,2,1,07,78,06,330,40,86,33,023,40,77,55,327,40,75,10,151,40*67
$GLGSV,2,2,07,88,19,243,40,87,60,299,40,71,00,000,*52
$GAGSV,1,1,02,11,55,116,45,12,05,129,45*60
$PQGSV,1,1,0,0*43
$PQGSV,1,1,02,12,61,305,,13,32,199,*6D
$GPGSA,A,3,02,04,07,08,13,20,23,25,27,,,,1.0,0.7,0.7*39
$GLGSA,A,3,75,77,78,86,87,88,,,,,,,1.0,0.7,0.7*23
$GAGSA,A,3,11,12,,,,,,,,,,,1.0,0.7,0.7*21
$GPVTG,,T,,M,0.0,N,0.0,K,A*23
$GPDTM,P90,,0000.000022,S,00000.000001,W,0.988,W84*5A
$GPRMC,000141.00,A,2959.999467,N,12000.000346,E,0.0,,230721,4.3,W,A*06
$GPGGA,000141.00,2959.999467,N,12000.000346,E,1,12,0.7,-17.7,M,7.0,M,,*4E

$GPGSV,3,1,11,02,31,298,41,04,50,246,41,07,83,116,41,08,46,206,41*7D
$GPGSV,3,2,11,13,48,030,41,20,21,120,41,23,26,056,41,25,65,042,41*73
$GPGSV,3,3,11,27,17,217,41,10,00,000,,16,00,000,*4D
$GLGSV,2,1,07,78,06,330,40,86,33,023,39,77,55,327,40,75,10,151,40*69
$GLGSV,2,2,07,88,19,243,39,87,60,299,40,71,00,000,*5C
$GAGSV,1,1,02,11,55,116,45,12,05,129,45*60
$PQGSV,1,1,0,0*43
$PQGSV,1,1,02,12,61,305,,13,32,199,*6D
$GPGSA,A,3,02,04,07,08,13,20,23,25,27,,,,1.0,0.7,0.7*39
$GLGSA,A,3,75,77,78,86,87,88,,,,,,,1.0,0.7,0.7*23
$GAGSA,A,3,11,12,,,,,,,,,,,1.0,0.7,0.7*21
$GPVTG,,T,,M,0.0,N,0.0,K,A*23
$GPDTM,P90,,0000.000022,S,00000.000001,W,0.988,W84*5A
$GPRMC,000142.00,A,2959.999467,N,12000.000346,E,0.0,,230721,4.3,W,A*05
$GPGGA,000142.00,2959.999467,N,12000.000346,E,1,12,0.7,-17.7,M,7.0,M,,*4D

$GPGSV,3,1,11,02,31,298,41,04,50,246,41,07,83,116,41,08,46,206,41*7D
$GPGSV,3,2,11,13,48,030,41,20,21,120,41,23,26,056,41,25,65,042,41*73
$GPGSV,3,3,11,27,17,217,41,10,00,000,,16,00,000,*4D
$GLGSV,2,1,07,78,06,330,40,86,33,023,40,77,55,327,40,75,10,151,40*67
$GLGSV,2,2,07,88,19,243,40,87,60,299,40,71,00,000,*52
$GAGSV,1,1,02,11,55,116,45,12,05,129,45*60
$PQGSV,1,1,0,0*43
$PQGSV,1,1,02,12,61,305,,13,32,199,*6D
$GPGSA,A,3,02,04,07,08,13,20,23,25,27,,,,1.0,0.7,0.7*39
$GLGSA,A,3,75,77,78,86,87,88,,,,,,,1.0,0.7,0.7*23
$GAGSA,A,3,11,12,,,,,,,,,,,1.0,0.7,0.7*21
$GPVTG,,T,,M,0.0,N,0.0,K,A*23
$GPDTM,P90,,0000.000022,S,00000.000001,W,0.988,W84*5A
$GPRMC,000143.00,A,2959.999468,N,12000.000343,E,0.0,,230721,4.3,W,A*0E
$GPGGA,000143.00,2959.999468,N,12000.000343,E,1,12,0.7,-17.7,M,7.0,M,,*46

$GPGSV,3,1,11,02,31,298,41,04,50,246,41,07,83,116,41,08,46,206,42*7E
$GPGSV,3,2,11,13,48,030,41,20,21,120,41,23,26,056,41,25,65,042,41*73
$GPGSV,3,3,11,27,17,217,41,10,00,000,,16,00,000,*4D
$GLGSV,2,1,07,78,06,330,40,86,33,023,40,77,55,327,40,75,10,151,40*67
$GLGSV,2,2,07,88,19,243,40,87,60,299,40,71,00,000,*52
$GAGSV,1,1,02,11,55,116,45,12,05,129,45*60
$PQGSV,1,1,0,0*43
$PQGSV,1,1,02,12,61,305,,13,32,199,*6D
$GPGSA,A,3,02,04,07,08,13,20,23,25,27,,,,1.0,0.7,0.7*39
$GLGSA,A,3,75,77,78,86,87,88,,,,,,,1.0,0.7,0.7*23
$GAGSA,A,3,11,12,,,,,,,,,,,1.0,0.7,0.7*21
$GPVTG,,T,,M,0.0,N,0.0,K,A*23
$GPDTM,P90,,0000.000022,S,00000.000001,W,0.988,W84*5A
$GPRMC,000144.00,A,2959.999470,N,12000.000340,E,0.0,,230721,4.3,W,A*03
$GPGGA,000144.00,2959.999470,N,12000.000340,E,1,12,0.7,-17.7,M,7.0,M,,*4B

$GPGSV,3,1,11,02,31,298,41,04,50,246,41,07,83,116,41,08,46,206,42*7E
$GPGSV,3,2,11,13,48,030,41,20,21,120,41,23,26,056,41,25,65,042,41*73
$GPGSV,3,3,11,27,17,217,42,10,00,000,,16,00,000,*4E
$GLGSV,2,1,07,78,06,330,40,86,33,023,40,77,55,327,40,75,10,151,40*67
$GLGSV,2,2,07,88,19,243,40,87,60,299,40,71,00,000,*52
$GAGSV,1,1,02,11,55,116,45,12,05,129,45*60
$PQGSV,1,1,0,0*43
$PQGSV,1,1,02,12,61,305,,13,32,199,*6D
$GPGSA,A,3,02,04,07,08,13,20,23,25,27,,,,1.0,0.7,0.7*39
$GLGSA,A,3,75,77,78,86,87,88,,,,,,,1.0,0.7,0.7*23
$GAGSA,A,3,11,12,,,,,,,,,,,1.0,0.7,0.7*21
$GPVTG,,T,,M,0.0,N,0.0,K,A*23
$GPDTM,P90,,0000.000022,S,00000.000001,W,0.988,W84*5A
$GPRMC,000145.00,A,2959.999470,N,12000.000338,E,0.0,,230721,4.3,W,A*0D
$GPGGA,000145.00,2959.999470,N,12000.000338,E,1,12,0.7,-17.7,M,7.0,M,,*45

$GPGSV,3,1,11,02,31,298,41,04,50,246,41,07,83,116,41,08,46,206,41*7D
$GPGSV,3,2,11,13,48,030,41,20,21,120,41,23,26,056,41,25,65,042,41*73
$GPGSV,3,3,11,27,17,217,42,10,00,000,,16,00,000,*4E
$GLGSV,2,1,07,78,06,330,40,86,33,023,40,77,55,327,40,75,10,151,40*67
$GLGSV,2,2,07,88,19,243,40,87,60,299,40,71,00,000,*52
$GAGSV,1,1,02,11,55,116,45,12,05,129,45*60
$PQGSV,1,1,0,0*43
$PQGSV,1,1,02,12,61,305,,13,32,199,*6D
$GPGSA,A,3,02,04,07,08,13,20,23,25,27,,,,1.0,0.7,0.7*39
$GLGSA,A,3,75,77,78,86,87,88,,,,,,,1.0,0.7,0.7*23
$GAGSA,A,3,11,12,,,,,,,,,,,1.0,0.7,0.7*21
$GPVTG,,T,,M,0.0,N,0.0,K,A*23
$GPDTM,P90,,0000.000022,S,00000.000001,W,0.988,W84*5A
$GPRMC,000146.00,A,2959.999471,N,12000.000336,E,0.0,,230721,4.3,W,A*01
$GPGGA,000146.00,2959.999471,N,12000.000336,E,1,12,0.7,-17.7,M,7.0,M,,*49

$GPGSV,3,1,11,02,31,298,42,04,50,246,42,07,83,116,42,08,46,206,41*7E
$GPGSV,3,2,11,13,48,030,42,20,21,120,41,23,26,056,41,25,65,042,41*70
$GPGSV,3,3,11,27,17,217,41,10,00,000,,16,00,000,*4D
$GLGSV,2,1,07,78,06,330,40,86,33,023,40,77,55,327,40,75,10,151,40*67
$GLGSV,2,2,07,88,19,243,40,87,60,299,40,71,00,000,*52
$GAGSV,1,1,02,11,55,116,45,12,05,129,45*60
$PQGSV,1,1,0,0*43
$PQGSV,1,1,02,12,61,305,,13,32,199,*6D
$GPGSA,A,3,02,04,07,08,13,20,23,25,27,,,,1.0,0.7,0.7*39
$GLGSA,A,3,75,77,78,86,87,88,,,,,,,1.0,0.7,0.7*23
$GAGSA,A,3,11,12,,,,,,,,,,,1.0,0.7,0.7*21
$GPVTG,,T,,M,0.0,N,0.0,K,A*23
$GPDTM,P90,,0000.000022,S,00000.000001,W,0.988,W84*5A
$GPRMC,000147.00,A,2959.999473,N,12000.000334,E,0.0,,230721,4.3,W,A*00
$GPGGA,000147.00,2959.999473,N,12000.000334,E,1,12,0.7,-17.7,M,7.0,M,,*48

$GPGSV,3,1,11,02,31,298,42,04,50,246,41,07,83,116,42,08,46,206,41*7D
$GPGSV,3,2,11,13,48,030,41,20,21,120,41,23,26,056,42,25,65,042,42*73
$GPGSV,3,3,11,27,17,217,41,10,00,000,,16,00,000,*4D
$GLGSV,2,1,07,78,06,330,40,86,33,023,40,77,55,327,40,75,10,151,40*67
$GLGSV,2,2,07,88,19,243,40,87,60,299,40,71,00,000,*52
$GAGSV,1,1,02,11,55,116,45,12,05,129,45*60
$PQGSV,1,1,0,0*43
$PQGSV,1,1,02,12,61,305,,13,32,199,*6D
$GPGSA,A,3,02,04,07,08,13,20,23,25,27,,,,1.0,0.7,0.7*39
$GLGSA,A,3,75,77,78,86,87,88,,,,,,,1.0,0.7,0.7*23
$GAGSA,A,3,11,12,,,,,,,,,,,1.0,0.7,0.7*21
$GPVTG,,T,,M,0.0,N,0.0,K,A*23
$GPDTM,P90,,0000.000022,S,00000.000001,W,0.988,W84*5A
$GPRMC,000148.00,A,2959.999473,N,12000.000332,E,0.0,,230721,4.3,W,A*09
$GPGGA,000148.00,2959.999473,N,12000.000332,E,1,12,0.7,-17.7,M,7.0,M,,*41

$GPGSV,3,1,11,02,31,298,42,04,50,246,41,07,83,116,42,08,46,206,42*7E
$GPGSV,3,2,11,13,48,030,41,20,21,120,41,23,26,056,41,25,65,042,41*73
$GPGSV,3,3,11,27,17,217,41,10,00,000,,16,00,000,*4D
$GLGSV,2,1,07,78,06,330,40,86,33,023,40,77,55,327,40,75,10,151,40*67
$GLGSV,2,2,07,88,19,243,40,87,60,299,40,71,00,000,*52
$GAGSV,1,1,02,11,55,116,45,12,05,129,45*60
$PQGSV,1,1,0,0*43
$PQGSV,1,1,02,12,61,305,,13,32,199,*6D
$GPGSA,A,3,02,04,07,08,13,20,23,25,27,,,,1.0,0.7,0.7*39
$GLGSA,A,3,75,77,78,86,87,88,,,,,,,1.0,0.7,0.7*23
$GAGSA,A,3,11,12,,,,,,,,,,,1.0,0.7,0.7*21
$GPVTG,,T,,M,0.0,N,0.0,K,A*23
$GPDTM,P90,,0000.000022,S,00000.000001,W,0.988,W84*5A
$GPRMC,000149.00,A,2959.999474,N,12000.000330,E,0.0,,230721,4.3,W,A*0D
$GPGGA,000149.00,2959.999474,N,12000.000330,E,1,12,0.7,-17.7,M,7.0,M,,*45

$GPGSV,3,1,11,02,31,298,41,04,50,246,42,07,83,116,42,08,46,206,41*7D
$GPGSV,3,2,11,13,48,030,41,20,21,120,41,23,26,056,41,25,65,042,41*73
$GPGSV,3,3,11,27,17,217,41,10,00,000,,16,00,000,*4D
$GLGSV,2,1,07,78,06,330,40,86,33,023,40,77,55,327,40,75,10,151,40*67
$GLGSV,2,2,07,88,19,243,40,87,60,299,40,71,00,000,*52
$GAGSV,1,1,02,11,55,116,45,12,05,129,45*60
$PQGSV,1,1,0,0*43
$PQGSV,1,1,02,12,61,305,,13,32,199,*6D
$GPGSA,A,3,02,04,07,08,13,20,23,25,27,,,,1.0,0.7,0.7*39
$GLGSA,A,3,75,77,78,86,87,88,,,,,,,1.0,0.7,0.7*23
$GAGSA,A,3,11,12,,,,,,,,,,,1.0,0.7,0.7*21
$GPVTG,,T,,M,0.0,N,0.0,K,A*23
$GPDTM,P90,,0000.000022,S,00000.000001,W,0.988,W84*5A
$GPRMC,000150.00,A,2959.999475,N,12000.000329,E,0.0,,230721,4.3,W,A*0C
$GPGGA,000150.00,2959.999475,N,12000.000329,E,1,12,0.7,-17.7,M,7.0,M,,*44

$GPGSV,3,1,11,02,31,298,41,04,50,246,42,07,83,116,42,08,46,206,41*7D
$GPGSV,3,2,11,13,48,030,42,20,21,120,41,23,26,056,41,25,65,042,42*73
$GPGSV,3,3,11,27,17,217,41,10,00,000,,16,00,000,*4D
$GLGSV,2,1,07,78,06,330,40,86,33,023,40,77,55,327,40,75,10,151,40*67
$GLGSV,2,2,07,88,19,243,40,87,60,299,40,71,00,000,*52
$GAGSV,1,1,02,11,55,116,45,12,05,129,45*60
$PQGSV,1,1,0,0*43
$PQGSV,1,1,02,12,61,305,,13,32,199,*6D
$GPGSA,A,3,02,04,07,08,13,20,23,25,27,,,,1.0,0.7,0.7*39
$GLGSA,A,3,75,77,78,86,87,88,,,,,,,1.0,0.7,0.7*23
$GAGSA,A,3,11,12,,,,,,,,,,,1.0,0.7,0.7*21
$GPVTG,,T,,M,0.0,N,0.0,K,A*23
$GPDTM,P90,,0000.000022,S,00000.000001,W,0.988,W84*5A
$GPRMC,000151.00,A,2959.999476,N,12000.000328,E,0.0,,230721,4.3,W,A*0F
$GPGGA,000151.00,2959.999476,N,12000.000328,E,1,12,0.7,-17.7,M,7.0,M,,*47

$GPGSV,3,1,11,02,31,298,42,04,50,246,41,07,83,116,42,08,46,206,41*7D
$GPGSV,3,2,11,13,48,030,42,20,21,120,41,23,26,056,42,25,65,042,41*73
$GPGSV,3,3,11,27,17,217,41,10,00,000,,16,00,000,*4D
$GLGSV,2,1,07,78,06,330,40,86,33,023,40,77,55,327,40,75,10,151,40*67
$GLGSV,2,2,07,88,19,243,40,87,60,299,40,71,00,000,*52
$GAGSV,1,1,02,11,55,116,45,12,05,129,45*60
$PQGSV,1,1,0,0*43
$PQGSV,1,1,02,12,61,305,,13,32,199,*6D
$GPGSA,A,3,02,04,07,08,13,20,23,25,27,,,,1.0,0.7,0.7*39
$GLGSA,A,3,75,77,78,86,87,88,,,,,,,1.0,0.7,0.7*23
$GAGSA,A,3,11,12,,,,,,,,,,,1.0,0.7,0.7*21
$GPVTG,,T,,M,0.0,N,0.0,K,A*23
$GPDTM,P90,,0000.000022,S,00000.000001,W,0.988,W84*5A
$GPRMC,000152.00,A,2959.999477,N,12000.000326,E,0.0,,230721,4.3,W,A*03
$GPGGA,000152.00,2959.999477,N,12000.000326,E,1,12,0.7,-17.7,M,7.0,M,,*4B

$GPGSV,3,1,11,02,31,298,41,04,50,246,41,07,83,116,41,08,46,206,41*7D
$GPGSV,3,2,11,13,48,030,41,20,21,120,41,23,26,056,41,25,65,042,41*73
$GPGSV,3,3,11,27,17,217,41,10,00,000,,16,00,000,*4D
$GLGSV,2,1,07,78,06,330,40,86,33,023,40,77,55,327,40,75,10,151,40*67
$GLGSV,2,2,07,88,19,243,40,87,60,299,40,71,00,000,*52
$GAGSV,1,1,02,11,55,116,45,12,05,129,45*60
$PQGSV,1,1,0,0*43
$PQGSV,1,1,02,12,61,305,,13,32,199,*6D
$GPGSA,A,3,02,04,07,08,13,20,23,25,27,,,,1.0,0.7,0.7*39
$GLGSA,A,3,75,77,78,86,87,88,,,,,,,1.0,0.7,0.7*23
$GAGSA,A,3,11,12,,,,,,,,,,,1.0,0.7,0.7*21
$GPVTG,,T,,M,0.0,N,0.0,K,A*23
$GPDTM,P90,,0000.000022,S,00000.000001,W,0.988,W84*5A
$GPRMC,000153.00,A,2959.999477,N,12000.000325,E,0.0,,230721,4.3,W,A*01
$GPGGA,000153.00,2959.999477,N,12000.000325,E,1,12,0.7,-17.7,M,7.0,M,,*49

$GPGSV,3,1,11,02,31,298,41,04,50,246,41,07,83,116,42,08,46,206,41*7E
$GPGSV,3,2,11,13,48,030,41,20,21,120,41,23,26,056,41,25,65,042,41*73
$GPGSV,3,3,11,27,17,217,41,10,00,000,,16,00,000,*4D
$GLGSV,2,1,07,78,06,330,40,86,33,023,40,77,55,327,40,75,10,151,40*67
$GLGSV,2,2,07,88,19,243,40,87,60,299,40,71,00,000,*52
$GAGSV,1,1,02,11,55,116,45,12,05,129,45*60
$PQGSV,1,1,0,0*43
$PQGSV,1,1,02,12,61,305,,13,32,199,*6D
$GPGSA,A,3,02,04,07,08,13,20,23,25,27,,,,1.0,0.7,0.7*39
$GLGSA,A,3,75,77,78,86,87,88,,,,,,,1.0,0.7,0.7*23
$GAGSA,A,3,11,12,,,,,,,,,,,1.0,0.7,0.7*21
$GPVTG,,T,,M,0.0,N,0.0,K,A*23
$GPDTM,P90,,0000.000022,S,00000.000001,W,0.988,W84*5A
$GPRMC,000154.00,A,2959.999477,N,12000.000324,E,0.0,,230721,4.3,W,A*07
$GPGGA,000154.00,2959.999477,N,12000.000324,E,1,12,0.7,-17.7,M,7.0,M,,*4F

$GPGSV,3,1,11,02,31,298,42,04,50,246,41,07,83,116,41,08,46,206,41*7E
$GPGSV,3,2,11,13,48,030,42,20,21,120,42,23,26,056,41,25,65,042,42*70
$GPGSV,3,3,11,27,17,217,41,10,00,000,,16,00,000,*4D
$GLGSV,2,1,07,78,06,330,40,86,33,023,39,77,55,327,40,75,10,151,40*69
$GLGSV,2,2,07,88,19,243,40,87,60,299,40,71,00,000,*52
$GAGSV,1,1,02,11,55,116,45,12,05,129,45*60
$PQGSV,1,1,0,0*43
$PQGSV,1,1,02,12,61,305,,13,32,199,*6D
$GPGSA,A,3,02,04,07,08,13,20,23,25,27,,,,1.0,0.7,0.7*39
$GLGSA,A,3,75,77,78,86,87,88,,,,,,,1.0,0.7,0.7*23
$GAGSA,A,3,11,12,,,,,,,,,,,1.0,0.7,0.7*21
$GPVTG,,T,,M,0.0,N,0.0,K,A*23
$GPDTM,P90,,0000.000022,S,00000.000001,W,0.988,W84*5A
$GPRMC,000155.00,A,2959.999476,N,12000.000324,E,0.0,,230721,4.3,W,A*07
$GPGGA,000155.00,2959.999476,N,12000.000324,E,1,12,0.7,-17.7,M,7.0,M,,*4F

$GPGSV,3,1,11,02,31,298,42,04,50,246,42,07,83,116,42,08,46,206,41*7E
$GPGSV,3,2,11,13,48,030,42,20,21,120,41,23,26,056,41,25,65,042,41*70
$GPGSV,3,3,11,27,17,217,41,10,00,000,,16,00,000,*4D
$GLGSV,2,1,07,78,06,330,40,86,33,023,40,77,55,327,40,75,10,151,40*67
$GLGSV,2,2,07,88,19,243,40,87,60,299,40,71,00,000,*52
$GAGSV,1,1,02,11,55,116,45,12,05,129,45*60
$PQGSV,1,1,0,0*43
$PQGSV,1,1,02,12,61,305,,13,32,199,*6D
$GPGSA,A,3,02,04,07,08,13,20,23,25,27,,,,1.0,0.7,0.7*39
$GLGSA,A,3,75,77,78,86,87,88,,,,,,,1.0,0.7,0.7*23
$GAGSA,A,3,11,12,,,,,,,,,,,1.0,0.7,0.7*21
$GPVTG,,T,,M,0.0,N,0.0,K,A*23
$GPDTM,P90,,0000.000022,S,00000.000001,W,0.988,W84*5A
$GPRMC,000156.00,A,2959.999476,N,12000.000323,E,0.0,,230721,4.3,W,A*03
$GPGGA,000156.00,2959.999476,N,12000.000323,E,1,12,0.7,-17.7,M,7.0,M,,*4B

$GPGSV,3,1,11,02,31,298,42,04,50,246,41,07,83,116,42,08,46,206,41*7D
$GPGSV,3,2,11,13,48,030,41,20,21,120,41,23,26,056,41,25,65,042,42*70
$GPGSV,3,3,11,27,17,217,42,10,00,000,,16,00,000,*4E
$GLGSV,2,1,07,78,06,330,40,86,33,023,40,77,55,327,40,75,10,151,40*67
$GLGSV,2,2,07,88,19,243,40,87,60,299,40,71,00,000,*52
$GAGSV,1,1,02,11,55,116,45,12,05,129,45*60
$PQGSV,1,1,0,0*43
$PQGSV,1,1,02,12,61,305,,13,32,199,*6D
$GPGSA,A,3,02,04,07,08,13,20,23,25,27,,,,1.0,0.7,0.7*39
$GLGSA,A,3,75,77,78,86,87,88,,,,,,,1.0,0.7,0.7*23
$GAGSA,A,3,11,12,,,,,,,,,,,1.0,0.7,0.7*21
$GPVTG,,T,,M,0.0,N,0.0,K,A*23
$GPDTM,P90,,0000.000022,S,00000.000001,W,0.988,W84*5A
$GPRMC,000157.00,A,2959.999476,N,12000.000323,E,0.0,,230721,4.3,W,A*02
$GPGGA,000157.00,2959.999476,N,12000.000323,E,1,12,0.7,-17.7,M,7.0,M,,*4A

$GPGSV,3,1,11,02,31,298,42,04,50,246,42,07,83,116,42,08,46,206,42*7D
$GPGSV,3,2,11,13,48,030,41,20,21,120,41,23,26,056,41,25,65,042,41*73
$GPGSV,3,3,11,27,17,217,42,10,00,000,,16,00,000,*4E
$GLGSV,2,1,07,78,06,330,40,86,33,023,40,77,55,327,40,75,10,151,40*67
$GLGSV,2,2,07,88,19,243,40,87,60,299,40,71,00,000,*52
$GAGSV,1,1,02,11,55,116,45,12,05,129,45*60
$PQGSV,1,1,0,0*43
$PQGSV,1,1,02,12,61,305,,13,32,199,*6D
$GPGSA,A,3,02,04,07,08,13,20,23,25,27,,,,1.0,0.7,0.7*39
$GLGSA,A,3,75,77,78,86,87,88,,,,,,,1.0,0.7,0.7*23
$GAGSA,A,3,11,12,,,,,,,,,,,1.0,0.7,0.7*21
$GPVTG,,T,,M,0.0,N,0.0,K,A*23
$GPDTM,P90,,0000.000022,S,00000.000001,W,0.988,W84*5A
$GPRMC,000158.00,A,2959.999476,N,12000.000322,E,0.0,,230721,4.3,W,A*0C
$GPGGA,000158.00,2959.999476,N,12000.000322,E,1,12,0.7,-17.7,M,7.0,M,,*44

$GPGSV,3,1,09,02,31,298,42,04,50,246,41,07,83,116,42,08,46,206,41*74
$GPGSV,3,2,09,13,48,030,41,20,21,120,42,23,26,056,41,25,65,042,42*7A
$GPGSV,3,3,09,27,17,217,41*42
$GLGSV,2,1,07,78,06,330,40,86,33,023,40,77,55,327,40,75,10,151,40*67
$GLGSV,2,2,07,88,19,243,40,87,60,299,40,71,00,000,*52
$GAGSV,1,1,02,11,54,118,45,12,05,129,45*6F
$PQGSV,1,1,0,0*43
$PQGSV,1,1,02,12,61,305,,13,32,199,*6D
$GPGSA,A,3,02,04,07,08,13,20,23,25,27,,,,1.0,0.7,0.7*39
$GLGSA,A,3,75,77,78,86,87,88,,,,,,,1.0,0.7,0.7*23
$GAGSA,A,3,11,12,,,,,,,,,,,1.0,0.7,0.7*21
$GPVTG,,T,,M,0.0,N,0.0,K,A*23
$GPDTM,P90,,0000.000022,S,00000.000001,W,0.988,W84*5A
$GPRMC,000159.00,A,2959.999476,N,12000.000321,E,0.0,,230721,4.3,W,A*0E
$GPGGA,000159.00,2959.999476,N,12000.000321,E,1,12,0.7,-17.7,M,7.0,M,,*46

$GPGSV,3,1,11,02,31,298,41,04,50,246,41,07,83,116,41,08,46,206,41*7D
$GPGSV,3,2,11,13,48,030,42,20,21,120,42,23,26,056,42,25,65,042,42*73
$GPGSV,3,3,11,27,17,217,41,10,00,000,,16,00,000,*4D
$GLGSV,2,1,07,78,06,330,40,86,33,023,40,77,55,327,40,75,10,151,40*67
$GLGSV,2,2,07,88,19,243,40,87,60,299,40,71,00,000,*52
$GAGSV,1,1,02,11,54,118,45,12,05,129,45*6F
$PQGSV,1,1,0,0*43
$PQGSV,1,1,02,12,61,305,,13,32,199,*6D
$GPGSA,A,3,02,04,07,08,13,20,23,25,27,,,,1.0,0.7,0.7*39
$GLGSA,A,3,75,77,78,86,87,88,,,,,,,1.0,0.7,0.7*23
$GAGSA,A,3,11,12,,,,,,,,,,,1.0,0.7,0.7*21
$GPVTG,,T,,M,0.0,N,0.0,K,A*23
$GPDTM,P90,,0000.000022,S,00000.000001,W,0.988,W84*5A
$GPRMC,000200.00,A,2959.999476,N,12000.000321,E,0.0,,230721,4.3,W,A*01
$GPGGA,000200.00,2959.999476,N,12000.000321,E,1,12,0.7,-17.6,M,7.0,M,,*48

$GPGSV,3,1,11,02,31,298,41,04,50,246,41,07,83,116,42,08,46,206,41*7E
$GPGSV,3,2,11,13,48,030,41,20,21,120,41,23,26,056,41,25,65,042,42*70
$GPGSV,3,3,11,27,17,217,41,10,00,000,,16,00,000,*4D
$GLGSV,2,1,07,78,06,330,40,86,33,023,40,77,55,327,40,75,10,151,40*67
$GLGSV,2,2,07,88,19,243,40,87,60,299,40,71,00,000,*52
$GAGSV,1,1,03,11,54,118,45,12,05,129,45,24,84,019,*5C
$PQGSV,1,1,0,0*43
$PQGSV,1,1,02,12,61,305,,13,32,199,*6D
$GPGSA,A,3,02,04,07,08,13,20,23,25,27,,,,1.0,0.7,0.7*39
$GLGSA,A,3,75,77,78,86,87,88,,,,,,,1.0,0.7,0.7*23
$GAGSA,A,3,11,12,,,,,,,,,,,1.0,0.7,0.7*21
$GPVTG,,T,,M,0.0,N,0.0,K,A*23
$GPDTM,P90,,0000.000022,S,00000.000001,W,0.988,W84*5A
$GPRMC,000201.00,A,2959.999476,N,12000.000320,E,0.0,,230721,4.3,W,A*01
$GPGGA,000201.00,2959.999476,N,12000.000320,E,1,12,0.7,-17.6,M,7.0,M,,*48

$GPGSV,3,1,11,02,31,298,41,04,50,246,41,07,83,116,41,08,46,206,41*7D
$GPGSV,3,2,11,13,48,030,41,20,21,120,41,23,26,056,42,25,65,042,42*73
$GPGSV,3,3,11,27,17,217,41,10,00,000,,16,00,000,*4D
$GLGSV,2,1,07,78,06,330,40,86,33,023,40,77,55,327,40,75,10,151,40*67
$GLGSV,2,2,07,88,19,243,40,87,60,299,40,71,00,000,*52
$GAGSV,1,1,03,11,54,118,45,12,05,129,45,24,84,019,*5C
$PQGSV,1,1,0,0*43
$PQGSV,1,1,02,12,61,305,,13,32,199,*6D
$GPGSA,A,3,02,04,07,08,13,20,23,25,27,,,,1.0,0.7,0.7*39
$GLGSA,A,3,75,77,78,86,87,88,,,,,,,1.0,0.7,0.7*23
$GAGSA,A,3,11,12,,,,,,,,,,,1.0,0.7,0.7*21
$GPVTG,,T,,M,0.0,N,0.0,K,A*23
$GPDTM,P90,,0000.000022,S,00000.000001,W,0.988,W84*5A
$GPRMC,000202.00,A,2959.999476,N,12000.000320,E,0.0,,230721,4.3,W,A*02
$GPGGA,000202.00,2959.999476,N,12000.000320,E,1,12,0.7,-17.6,M,7.0,M,,*4B

$GPGSV,3,1,11,02,31,298,42,04,50,246,41,07,83,116,42,08,46,206,41*7D
$GPGSV,3,2,11,13,48,030,41,20,21,120,41,23,26,056,41,25,65,042,41*73
$GPGSV,3,3,11,27,17,217,41,10,00,000,,16,00,000,*4D
$GLGSV,2,1,07,78,06,330,40,86,33,023,40,77,55,327,40,75,10,151,40*67
$GLGSV,2,2,07,88,19,243,40,87,60,299,40,71,00,000,*52
$GAGSV,1,1,03,11,54,118,45,12,05,129,45,24,84,019,*5C
$PQGSV,1,1,0,0*43
$PQGSV,1,1,02,12,61,305,,13,32,199,*6D
$GPGSA,A,3,02,04,07,08,13,20,23,25,27,,,,1.0,0.7,0.7*39
$GLGSA,A,3,75,77,78,86,87,88,,,,,,,1.0,0.7,0.7*23
$GAGSA,A,3,11,12,,,,,,,,,,,1.0,0.7,0.7*21
$GPVTG,,T,,M,0.0,N,0.0,K,A*23
$GPDTM,P90,,0000.000022,S,00000.000001,W,0.988,W84*5A
$GPRMC,000203.00,A,2959.999476,N,12000.000319,E,0.0,,230721,4.3,W,A*09
$GPGGA,000203.00,2959.999476,N,12000.000319,E,1,12,0.7,-17.6,M,7.0,M,,*40

$GPGSV,3,1,11,02,31,298,41,04,50,246,41,07,83,116,41,08,46,206,41*7D
$GPGSV,3,2,11,13,48,030,41,20,21,120,41,23,26,056,42,25,65,042,42*73
$GPGSV,3,3,11,27,17,217,41,10,00,000,,16,00,000,*4D
$GLGSV,2,1,07,78,06,330,40,86,33,023,40,77,55,327,40,75,10,151,40*67
$GLGSV,2,2,07,88,19,243,40,87,60,299,40,71,00,000,*52
$GAGSV,1,1,03,11,54,118,45,12,05,129,45,24,84,019,*5C
$PQGSV,1,1,0,0*43
$PQGSV,1,1,02,12,61,305,,13,32,199,*6D
$GPGSA,A,3,02,04,07,08,13,20,23,25,27,,,,1.0,0.7,0.7*39
$GLGSA,A,3,75,77,78,86,87,88,,,,,,,1.0,0.7,0.7*23
$GAGSA,A,3,11,12,,,,,,,,,,,1.0,0.7,0.7*21
$GPVTG,,T,,M,0.0,N,0.0,K,A*23
$GPDTM,P90,,0000.000022,S,00000.000001,W,0.988,W84*5A
$GPRMC,000204.00,A,2959.999476,N,12000.000319,E,0.0,,230721,4.3,W,A*0E
$GPGGA,000204.00,2959.999476,N,12000.000319,E,1,12,0.7,-17.6,M,7.0,M,,*47

$GPGSV,3,1,11,02,31,298,42,04,50,246,41,07,83,116,42,08,46,206,42*7E
$GPGSV,3,2,11,13,48,030,41,20,21,120,42,23,26,056,41,25,65,042,41*70
$GPGSV,3,3,11,27,17,217,41,10,00,000,,16,00,000,*4D
$GLGSV,2,1,07,78,06,330,40,86,33,023,40,77,55,327,40,75,10,151,40*67
$GLGSV,2,2,07,88,19,243,40,87,60,299,40,71,00,000,*52
$GAGSV,1,1,03,11,54,118,45,12,05,129,46,24,84,019,*5F
$PQGSV,1,1,0,0*43
$PQGSV,1,1,02,12,61,305,,13,32,199,*6D
$GPGSA,A,3,02,04,07,08,13,20,23,25,27,,,,1.0,0.7,0.7*39
$GLGSA,A,3,75,77,78,86,87,88,,,,,,,1.0,0.7,0.7*23
$GAGSA,A,3,11,12,,,,,,,,,,,1.0,0.7,0.7*21
$GPVTG,,T,,M,0.0,N,0.0,K,A*23
$GPDTM,P90,,0000.000022,S,00000.000001,W,0.988,W84*5A
$GPRMC,000205.00,A,2959.999476,N,12000.000319,E,0.0,,230721,4.3,W,A*0F
$GPGGA,000205.00,2959.999476,N,12000.000319,E,1,12,0.7,-17.6,M,7.0,M,,*46

$GPGSV,3,1,10,02,31,298,42,04,50,246,41,07,83,116,42,08,46,206,42*7F
$GPGSV,3,2,10,13,48,030,41,20,21,120,42,23,26,056,41,25,65,042,42*72
$GPGSV,3,3,10,27,17,217,42,16,00,000,*7E
$GLGSV,2,1,07,78,06,330,40,86,33,023,40,77,55,327,40,75,10,151,40*67
$GLGSV,2,2,07,88,19,243,40,87,60,299,40,71,00,000,*52
$GAGSV,1,1,03,11,54,118,45,12,05,129,45,24,84,019,*5C
$PQGSV,1,1,0,0*43
$PQGSV,1,1,02,12,61,305,,13,32,199,*6D
$GPGSA,A,3,02,04,07,08,13,20,23,25,27,,,,1.0,0.7,0.7*39
$GLGSA,A,3,75,77,78,86,87,88,,,,,,,1.0,0.7,0.7*23
$GAGSA,A,3,11,12,,,,,,,,,,,1.0,0.7,0.7*21
$GPVTG,,T,,M,0.0,N,0.0,K,A*23
$GPDTM,P90,,0000.000022,S,00000.000001,W,0.988,W84*5A
$GPRMC,000206.00,A,2959.999476,N,12000.000318,E,0.0,,230721,4.3,W,A*0D
$GPGGA,000206.00,2959.999476,N,12000.000318,E,1,12,0.7,-17.6,M,7.0,M,,*44

$GPGSV,3,1,10,02,31,298,42,04,50,246,41,07,83,116,41,08,46,206,41*7F
$GPGSV,3,2,10,13,48,030,41,20,21,120,41,23,26,056,42,25,65,042,41*71
$GPGSV,3,3,10,27,17,217,41,10,00,000,*7B
$GLGSV,2,1,07,78,06,330,40,86,33,023,40,77,55,327,40,75,10,151,40*67
$GLGSV,2,2,07,88,19,243,40,87,60,299,40,71,00,000,*52
$GAGSV,1,1,03,11,54,118,45,12,05,129,45,24,84,019,*5C
$PQGSV,1,1,0,0*43
$PQGSV,1,1,02,12,61,305,,13,32,199,*6D
$GPGSA,A,3,02,04,07,08,13,20,23,25,27,,,,1.0,0.7,0.7*39
$GLGSA,A,3,75,77,78,86,87,88,,,,,,,1.0,0.7,0.7*23
$GAGSA,A,3,11,12,,,,,,,,,,,1.0,0.7,0.7*21
$GPVTG,,T,,M,0.0,N,0.0,K,A*23
$GPDTM,P90,,0000.000022,S,00000.000001,W,0.988,W84*5A
$GPRMC,000207.00,A,2959.999475,N,12000.000317,E,0.0,,230721,4.3,W,A*00
$GPGGA,000207.00,2959.999475,N,12000.000317,E,1,12,0.7,-17.6,M,7.0,M,,*49

$GPGSV,3,1,11,02,31,298,42,04,50,246,41,07,83,116,41,08,46,206,41*7E
$GPGSV,3,2,11,13,48,030,41,20,21,120,42,23,26,056,41,25,65,042,42*73
$GPGSV,3,3,11,27,17,217,41,10,00,000,,16,00,000,*4D
$GLGSV,2,1,07,78,06,330,40,86,33,023,40,77,55,327,40,75,10,151,40*67
$GLGSV,2,2,07,88,19,243,40,87,60,299,40,71,00,000,*52
$GAGSV,1,1,03,11,54,118,45,12,05,129,45,24,84,019,*5C
$PQGSV,1,1,0,0*43
$PQGSV,1,1,02,12,61,305,,13,32,199,*6D
$GPGSA,A,3,02,04,07,08,13,20,23,25,27,,,,1.0,0.7,0.7*39
$GLGSA,A,3,75,77,78,86,87,88,,,,,,,1.0,0.7,0.7*23
$GAGSA,A,3,11,12,,,,,,,,,,,1.0,0.7,0.7*21
$GPVTG,,T,,M,0.0,N,0.0,K,A*23
$GPDTM,P90,,0000.000022,S,00000.000001,W,0.988,W84*5A
$GPRMC,000208.00,A,2959.999475,N,12000.000317,E,0.0,,230721,4.3,W,A*0F
$GPGGA,000208.00,2959.999475,N,12000.000317,E,1,12,0.7,-17.6,M,7.0,M,,*46

$GPGSV,3,1,11,02,31,298,42,04,50,246,42,07,83,116,42,08,46,206,42*7D
$GPGSV,3,2,11,13,48,030,41,20,21,120,41,23,26,056,41,25,65,042,42*70
$GPGSV,3,3,11,27,17,217,42,10,00,000,,16,00,000,*4E
$GLGSV,2,1,07,78,06,330,40,86,33,023,40,77,55,327,40,75,10,151,40*67
$GLGSV,2,2,07,88,19,243,40,87,60,299,40,71,00,000,*52
$GAGSV,1,1,03,11,54,118,45,12,05,129,45,24,84,019,*5C
$PQGSV,1,1,0,0*43
$PQGSV,1,1,02,12,61,305,,13,32,199,*6D
$GPGSA,A,3,02,04,07,08,13,20,23,25,27,,,,1.0,0.7,0.7*39
$GLGSA,A,3,75,77,78,86,87,88,,,,,,,1.0,0.7,0.7*23
$GAGSA,A,3,11,12,,,,,,,,,,,1.0,0.7,0.7*21
$GPVTG,,T,,M,0.0,N,0.0,K,A*23
$GPDTM,P90,,0000.000022,S,00000.000001,W,0.988,W84*5A
$GPRMC,000209.00,A,2959.999474,N,12000.000317,E,0.0,,230721,4.3,W,A*0F
$GPGGA,000209.00,2959.999474,N,12000.000317,E,1,12,0.7,-17.6,M,7.0,M,,*46

$GPGSV,3,1,11,02,31,298,41,04,50,246,42,07,83,116,42,08,46,206,41*7D
$GPGSV,3,2,11,13,48,030,41,20,21,120,41,23,26,056,42,25,65,042,41*70
$GPGSV,3,3,11,27,17,217,41,10,00,000,,16,00,000,*4D
$GLGSV,2,1,07,78,06,330,40,86,33,023,40,77,55,327,40,75,10,151,40*67
$GLGSV,2,2,07,88,19,243,40,87,60,299,40,71,00,000,*52
$GAGSV,1,1,03,11,54,118,45,12,05,129,45,24,84,019,*5C
$PQGSV,1,1,0,0*43
$PQGSV,1,1,02,12,61,305,,13,32,199,*6D
$GPGSA,A,3,02,04,07,08,13,20,23,25,27,,,,1.0,0.7,0.7*39
$GLGSA,A,3,75,77,78,86,87,88,,,,,,,1.0,0.7,0.7*23
$GAGSA,A,3,11,12,,,,,,,,,,,1.0,0.7,0.7*21
$GPVTG,,T,,M,0.0,N,0.0,K,A*23
$GPDTM,P90,,0000.000022,S,00000.000001,W,0.988,W84*5A
$GPRMC,000210.00,A,2959.999474,N,12000.000316,E,0.0,,230721,4.3,W,A*06
$GPGGA,000210.00,2959.999474,N,12000.000316,E,1,12,0.7,-17.6,M,7.0,M,,*4F

$GPGSV,3,1,11,02,31,298,42,04,50,246,41,07,83,116,41,08,46,206,41*7E
$GPGSV,3,2,11,13,48,030,41,20,21,120,41,23,26,056,41,25,65,042,42*70
$GPGSV,3,3,11,27,17,217,42,10,00,000,,16,00,000,*4E
$GLGSV,2,1,07,78,06,330,40,86,33,023,40,77,55,327,40,75,10,151,40*67
$GLGSV,2,2,07,88,19,243,40,87,60,299,40,71,00,000,*52
$GAGSV,1,1,03,11,54,118,45,12,05,129,45,24,84,019,*5C
$PQGSV,1,1,0,0*43
$PQGSV,1,1,02,12,61,305,,13,32,199,*6D
$GPGSA,A,3,02,04,07,08,13,20,23,25,27,,,,1.0,0.7,0.7*39
$GLGSA,A,3,75,77,78,86,87,88,,,,,,,1.0,0.7,0.7*23
$GAGSA,A,3,11,12,,,,,,,,,,,1.0,0.7,0.7*21
$GPVTG,,T,,M,0.0,N,0.0,K,A*23
$GPDTM,P90,,0000.000022,S,00000.000001,W,0.988,W84*5A
$GPRMC,000211.00,A,2959.999474,N,12000.000316,E,0.0,,230721,4.3,W,A*07
$GPGGA,000211.00,2959.999474,N,12000.000316,E,1,12,0.7,-17.6,M,7.0,M,,*4E

$GPGSV,3,1,11,02,31,298,41,04,50,246,41,07,83,116,41,08,46,206,41*7D
$GPGSV,3,2,11,13,48,030,42,20,21,120,42,23,26,056,42,25,65,042,41*70
$GPGSV,3,3,11,27,17,217,42,10,00,000,,16,00,000,*4E
$GLGSV,2,1,07,78,06,330,40,86,33,023,40,77,55,327,40,75,10,151,40*67
$GLGSV,2,2,07,88,19,243,40,87,60,299,40,71,00,000,*52
$GAGSV,1,1,03,11,54,118,45,12,05,129,45,24,84,019,*5C
$PQGSV,1,1,0,0*43
$PQGSV,1,1,02,12,61,305,,13,32,199,*6D
$GPGSA,A,3,02,04,07,08,13,20,23,25,27,,,,1.0,0.7,0.7*39
$GLGSA,A,3,75,77,78,86,87,88,,,,,,,1.0,0.7,0.7*23
$GAGSA,A,3,11,12,,,,,,,,,,,1.0,0.7,0.7*21
$GPVTG,,T,,M,0.0,N,0.0,K,A*23
$GPDTM,P90,,0000.000022,S,00000.000001,W,0.988,W84*5A
$GPRMC,000212.00,A,2959.999474,N,12000.000315,E,0.0,,230721,4.3,W,A*07
$GPGGA,000212.00,2959.999474,N,12000.000315,E,1,12,0.7,-17.6,M,7.0,M,,*4E

$GPGSV,3,1,10,02,31,298,42,04,50,246,41,07,83,116,42,08,46,206,42*7F
$GPGSV,3,2,10,13,48,030,41,20,21,120,41,23,26,056,41,25,65,042,41*72
$GPGSV,3,3,10,27,17,217,41,10,00,000,*7B
$GLGSV,2,1,07,78,06,330,40,86,33,023,40,77,55,327,40,75,10,151,40*67
$GLGSV,2,2,07,88,19,243,40,87,60,299,40,71,00,000,*52
$GAGSV,1,1,03,11,54,118,45,12,05,129,45,24,84,019,*5C
$PQGSV,1,1,0,0*43
$PQGSV,1,1,02,12,61,305,,13,32,199,*6D
$GPGSA,A,3,02,04,07,08,13,20,23,25,27,,,,1.0,0.7,0.7*39
$GLGSA,A,3,75,77,78,86,87,88,,,,,,,1.0,0.7,0.7*23
$GAGSA,A,3,11,12,,,,,,,,,,,1.0,0.7,0.7*21
$GPVTG,,T,,M,0.0,N,0.0,K,A*23
$GPDTM,P90,,0000.000022,S,00000.000001,W,0.988,W84*5A
$GPRMC,000213.00,A,2959.999474,N,12000.000314,E,0.0,,230721,4.3,W,A*07
$GPGGA,000213.00,2959.999474,N,12000.000314,E,1,12,0.7,-17.6,M,7.0,M,,*4E

$GPGSV,3,1,11,02,31,298,42,04,50,246,42,07,83,116,42,08,46,206,41*7E
$GPGSV,3,2,11,13,48,030,41,20,21,120,41,23,26,056,41,25,65,042,41*73
$GPGSV,3,3,11,27,17,217,41,10,00,000,,16,00,000,*4D
$GLGSV,2,1,07,78,06,330,40,86,33,023,40,77,55,327,40,75,10,151,40*67
$GLGSV,2,2,07,88,19,243,40,87,60,299,40,71,00,000,*52
$GAGSV,1,1,03,11,54,118,45,12,05,129,45,24,84,019,*5C
$PQGSV,1,1,0,0*43
$PQGSV,1,1,02,12,61,305,,13,32,199,*6D
$GPGSA,A,3,02,04,07,08,13,20,23,25,27,,,,1.0,0.7,0.7*39
$GLGSA,A,3,75,77,78,86,87,88,,,,,,,1.0,0.7,0.7*23
$GAGSA,A,3,11,12,,,,,,,,,,,1.0,0.7,0.7*21
$GPVTG,,T,,M,0.0,N,0.0,K,A*23
$GPDTM,P90,,0000.000022,S,00000.000001,W,0.988,W84*5A
$GPRMC,000214.00,A,2959.999474,N,12000.000313,E,0.0,,230721,4.3,W,A*07
$GPGGA,000214.00,2959.999474,N,12000.000313,E,1,12,0.7,-17.6,M,7.0,M,,*4E

$GPGSV,3,1,11,02,31,298,42,04,50,246,41,07,83,116,41,08,46,206,41*7E
$GPGSV,3,2,11,13,48,030,42,20,21,120,41,23,26,056,41,25,65,042,42*73
$GPGSV,3,3,11,27,17,217,41,10,00,000,,16,00,000,*4D
$GLGSV,2,1,07,78,06,330,40,86,33,023,40,77,55,327,40,75,10,151,40*67
$GLGSV,2,2,07,88,19,243,40,87,60,299,40,71,00,000,*52
$GAGSV,1,1,03,11,54,118,45,12,05,129,45,24,84,019,*5C
$PQGSV,1,1,0,0*43
$PQGSV,1,1,02,12,61,305,,13,32,199,*6D
$GPGSA,A,3,02,04,07,08,13,20,23,25,27,,,,1.0,0.7,0.7*39
$GLGSA,A,3,75,77,78,86,87,88,,,,,,,1.0,0.7,0.7*23
$GAGSA,A,3,11,12,,,,,,,,,,,1.0,0.7,0.7*21
$GPVTG,,T,,M,0.0,N,0.0,K,A*23
$GPDTM,P90,,0000.000022,S,00000.000001,W,0.988,W84*5A
$GPRMC,000215.00,A,2959.999474,N,12000.000313,E,0.0,,230721,4.3,W,A*06
$GPGGA,000215.00,2959.999474,N,12000.000313,E,1,12,0.7,-17.6,M,7.0,M,,*4F

$GPGSV,3,1,11,02,31,298,42,04,50,246,41,07,83,116,42,08,46,206,42*7E
$GPGSV,3,2,11,13,48,030,41,20,21,120,41,23,26,056,41,25,65,042,41*73
$GPGSV,3,3,11,27,17,217,42,10,00,000,,16,00,000,*4E
$GLGSV,2,1,07,78,06,330,40,86,33,023,40,77,55,327,40,75,10,151,40*67
$GLGSV,2,2,07,88,19,243,40,87,60,299,40,71,00,000,*52
$GAGSV,1,1,03,11,54,118,45,12,05,129,45,24,84,019,*5C
$PQGSV,1,1,0,0*43
$PQGSV,1,1,02,12,61,305,,13,32,199,*6D
$GPGSA,A,3,02,04,07,08,13,20,23,25,27,,,,1.0,0.7,0.7*39
$GLGSA,A,3,75,77,78,86,87,88,,,,,,,1.0,0.7,0.7*23
$GAGSA,A,3,11,12,,,,,,,,,,,1.0,0.7,0.7*21
$GPVTG,,T,,M,0.0,N,0.0,K,A*23
$GPDTM,P90,,0000.000022,S,00000.000001,W,0.988,W84*5A
$GPRMC,000216.00,A,2959.999474,N,12000.000313,E,0.0,,230721,4.3,W,A*05
$GPGGA,000216.00,2959.999474,N,12000.000313,E,1,12,0.7,-17.6,M,7.0,M,,*4C

$GPGSV,3,1,11,02,31,298,41,04,50,246,41,07,83,116,41,08,46,206,42*7E
$GPGSV,3,2,11,13,48,030,41,20,21,120,41,23,26,056,41,25,65,042,41*73
$GPGSV,3,3,11,27,17,217,42,10,00,000,,16,00,000,*4E
$GLGSV,2,1,07,78,06,330,40,86,33,023,40,77,55,327,40,75,10,151,40*67
$GLGSV,2,2,07,88,19,243,40,87,60,299,40,71,00,000,*52
$GAGSV,1,1,03,11,54,118,45,12,05,129,45,24,84,019,*5C
$PQGSV,1,1,0,0*43
$PQGSV,1,1,02,12,61,305,,13,32,199,*6D
$GPGSA,A,3,02,04,07,08,13,20,23,25,27,,,,1.0,0.7,0.7*39
$GLGSA,A,3,75,77,78,86,87,88,,,,,,,1.0,0.7,0.7*23
$GAGSA,A,3,11,12,,,,,,,,,,,1.0,0.7,0.7*21
$GPVTG,,T,,M,0.0,N,0.0,K,A*23
$GPDTM,P90,,0000.000022,S,00000.000001,W,0.988,W84*5A
$GPRMC,000217.00,A,2959.999474,N,12000.000311,E,0.0,,230721,4.3,W,A*06
$GPGGA,000217.00,2959.999474,N,12000.000311,E,1,12,0.7,-17.6,M,7.0,M,,*4F

$GPGSV,3,1,11,02,31,298,42,04,50,246,41,07,83,116,42,08,46,206,41*7D
$GPGSV,3,2,11,13,48,030,41,20,21,120,42,23,26,056,42,25,65,042,41*73
