$GPGSV,3,1,11,02,35,277,32,04,38,223,32,07,68,033,31,08,65,222,31*71
$GPGSV,3,2,11,10,14,316,31,13,38,050,31,20,07,132,31,23,15,071,31*72
$GPGSV,3,3,11,25,47,036,32,27,33,229,32,28,12,172,31*4B
$GLGSV,2,1,07,78,23,327,30,86,18,037,30,77,72,286,29,88,30,264,30*68
$GLGSV,2,2,07,87,54,341,30,71,07,061,30,72,07,112,29*57
$GAGSV,2,1,06,09,24,319,,10,78,327,,11,43,136,,17,17,042,*64
$GAGSV,2,2,06,24,68,018,,27,17,136,*68
$PQGSV,1,1,0,0*43
$PQGSV,1,1,02,12,59,341,,13,39,209,*67
$GPGSA,A,3,02,04,07,08,10,13,20,23,25,27,28,,1.0,0.7,0.7*32
$GLGSA,A,3,77,78,86,87,88,,,,,,,,1.0,0.7,0.7*21
$GPVTG,,T,,M,0.0,N,0.0,K,A*23
$GPDTM,P90,,0000.000022,S,00000.000001,W,0.988,W84*5A
$GPRMC,004123.00,A,3000.000470,N,11959.999504,E,0.0,,230721,4.3,W,A*02
$GPGGA,004123.00,3000.000470,N,11959.999504,E,1,12,0.7,-5.0,M,7.0,M,,*7E

$GPGSV,3,1,11,02,35,277,32,04,38,223,32,07,68,033,32,08,65,222,32*71
$GPGSV,3,2,11,10,14,316,31,13,38,050,32,20,07,132,32,23,15,071,32*71
$GPGSV,3,3,11,25,47,036,31,27,33,229,32,28,12,172,30*49
$GLGSV,2,1,07,78,23,327,30,86,18,037,30,77,72,286,30,88,30,264,30*60
$GLGSV,2,2,07,87,54,341,30,71,07,061,30,72,07,112,29*57
$GAGSV,2,1,06,09,24,319,,10,78,327,,11,43,136,,17,17,042,*64
$GAGSV,2,2,06,24,68,018,,27,17,136,*68
$PQGSV,1,1,0,0*43
$PQGSV,1,1,02,12,59,341,,13,39,209,*67
$GPGSA,A,3,02,04,07,08,10,13,20,23,25,27,28,,1.0,0.7,0.7*32
$GLGSA,A,3,77,78,86,87,88,,,,,,,,1.0,0.7,0.7*21
$GPVTG,,T,,M,0.0,N,0.0,K,A*23
$GPDTM,P90,,0000.000022,S,00000.000001,W,0.988,W84*5A
$GPRMC,004124.00,A,3000.000591,N,11959.999372,E,0.0,,230721,4.3,W,A*0C
$GPGGA,004124.00,3000.000591,N,11959.999372,E,1,12,0.7,-4.8,M,7.0,M,,*79

$GPGSV,3,1,11,02,35,277,32,04,38,223,32,07,68,033,32,08,65,222,32*71
$GPGSV,3,2,11,10,14,316,31,13,38,050,31,20,07,132,32,23,15,071,32*72
$GPGSV,3,3,11,25,47,036,32,27,33,229,32,28,12,172,31*4B
$GLGSV,2,1,07,78,23,327,30,86,18,037,30,77,72,286,31,88,30,264,30*61
$GLGSV,2,2,07,87,54,341,30,71,07,061,29,72,07,112,29*5F
$GAGSV,2,1,06,09,24,319,,10,78,327,,11,43,136,,17,17,042,*64
$GAGSV,2,2,06,24,68,018,,27,17,136,*68
$PQGSV,1,1,0,0*43
$PQGSV,1,1,02,12,59,341,,13,39,209,*67
$GPGSA,A,3,02,04,07,08,10,13,20,23,25,27,28,,1.0,0.7,0.7*32
$GLGSA,A,3,77,78,86,87,88,,,,,,,,1.0,0.7,0.7*21
$GPVTG,,T,,M,0.0,N,0.0,K,A*23
$GPDTM,P90,,0000.000022,S,00000.000001,W,0.988,W84*5A
$GPRMC,004125.00,A,3000.000562,N,11959.999359,E,0.0,,230721,4.3,W,A*08
$GPGGA,004125.00,3000.000562,N,11959.999359,E,1,12,0.7,-5.7,M,7.0,M,,*73

$GPGSV,3,1,11,02,35,277,32,04,38,223,32,07,68,033,32,08,65,222,32*71
$GPGSV,3,2,11,10,14,316,31,13,38,050,31,20,07,132,32,23,15,071,31*71
$GPGSV,3,3,11,25,47,036,31,27,33,229,32,28,12,172,31*48
$GLGSV,2,1,07,78,23,327,29,86,18,037,30,77,72,286,30,88,30,264,30*68
$GLGSV,2,2,07,87,54,341,30,71,07,061,30,72,07,112,29*57
$GAGSV,2,1,06,09,24,319,,10,78,327,,11,43,136,,17,17,042,*64
$GAGSV,2,2,06,24,68,018,,27,17,136,*68
$PQGSV,1,1,0,0*43
$PQGSV,1,1,02,12,59,341,,13,39,209,*67
$GPGSA,A,3,02,04,07,08,10,13,20,23,25,27,28,,1.0,0.7,0.7*32
$GLGSA,A,3,77,78,86,87,88,,,,,,,,1.0,0.7,0.7*21
$GPVTG,,T,,M,0.0,N,0.0,K,A*23
$GPDTM,P90,,0000.000022,S,00000.000001,W,0.988,W84*5A
$GPRMC,004126.00,A,3000.000589,N,11959.999378,E,0.0,,230721,4.3,W,A*0D
$GPGGA,004126.00,3000.000589,N,11959.999378,E,1,12,0.7,-5.8,M,7.0,M,,*79

$GPGSV,3,1,11,02,35,277,32,04,38,223,31,07,68,033,31,08,65,222,32*71
$GPGSV,3,2,11,10,14,316,30,13,38,050,32,20,07,132,32,23,15,071,31*73
$GPGSV,3,3,11,25,47,036,32,27,33,229,32,28,12,172,31*4B
$GLGSV,2,1,07,78,23,327,29,86,18,037,30,77,72,286,29,88,30,264,30*60
$GLGSV,2,2,07,87,54,341,30,71,07,061,30,72,07,112,29*57
$GAGSV,2,1,06,09,24,319,,10,78,327,,11,43,136,,17,17,042,*64
$GAGSV,2,2,06,24,68,018,,27,17,136,*68
$PQGSV,1,1,0,0*43
$PQGSV,1,1,02,12,59,341,,13,39,209,*67
$GPGSA,A,3,02,04,07,08,10,13,20,23,25,27,28,,1.0,0.7,0.7*32
$GLGSA,A,3,77,78,86,87,88,,,,,,,,1.0,0.7,0.7*21
$GPVTG,,T,,M,0.0,N,0.0,K,A*23
$GPDTM,P90,,0000.000022,S,00000.000001,W,0.988,W84*5A
$GPRMC,004127.00,A,3000.000563,N,11959.999359,E,0.0,,230721,4.3,W,A*0B
$GPGGA,004127.00,3000.000563,N,11959.999359,E,1,12,0.7,-5.8,M,7.0,M,,*7F

$GPGSV,3,1,11,02,35,277,32,04,38,223,31,07,68,033,31,08,65,222,32*71
$GPGSV,3,2,11,10,14,316,31,13,38,050,31,20,07,132,32,23,15,071,32*72
$GPGSV,3,3,11,25,47,036,32,27,33,229,32,28,12,172,31*4B
$GLGSV,2,1,07,78,23,327,29,86,18,037,30,77,72,286,30,88,30,264,30*68
$GLGSV,2,2,07,87,54,341,30,71,07,061,31,72,07,112,30*5E
$GAGSV,2,1,06,09,24,319,,10,78,327,,11,43,136,,17,17,042,*64
$GAGSV,2,2,06,24,68,018,,27,17,136,*68
$PQGSV,1,1,0,0*43
$PQGSV,1,1,02,12,59,341,,13,39,209,*67
$GPGSA,A,3,02,04,07,08,10,13,20,23,25,27,28,,1.0,0.7,0.7*32
$GLGSA,A,3,77,78,86,87,88,,,,,,,,1.0,0.7,0.7*21
$GPVTG,,T,,M,0.0,N,0.0,K,A*23
$GPDTM,P90,,0000.000022,S,00000.000001,W,0.988,W84*5A
$GPRMC,004128.00,A,3000.000565,N,11959.999351,E,0.0,,230721,4.3,W,A*0A
$GPGGA,004128.00,3000.000565,N,11959.999351,E,1,12,0.7,-5.8,M,7.0,M,,*7E

$GPGSV,3,1,11,02,35,277,32,04,38,223,32,07,68,033,32,08,65,222,31*72
$GPGSV,3,2,11,10,14,316,30,13,38,050,32,20,07,132,32,23,15,071,31*73
$GPGSV,3,3,11,25,47,036,32,27,33,229,31,28,12,172,30*49
$GLGSV,2,1,07,78,23,327,30,86,18,037,30,77,72,286,30,88,30,264,30*60
$GLGSV,2,2,07,87,54,341,30,71,07,061,30,72,07,112,29*57
$GAGSV,2,1,06,09,24,319,,10,78,327,,11,43,136,,17,17,042,*64
$GAGSV,2,2,06,24,68,018,,27,17,136,*68
$PQGSV,1,1,0,0*43
$PQGSV,1,1,02,12,59,341,,13,39,209,*67
$GPGSA,A,3,02,04,07,08,10,13,20,23,25,27,28,,1.0,0.7,0.7*32
$GLGSA,A,3,77,78,86,87,88,,,,,,,,1.0,0.7,0.7*21
$GPVTG,,T,,M,0.0,N,0.0,K,A*23
$GPDTM,P90,,0000.000022,S,00000.000001,W,0.988,W84*5A
$GPRMC,004129.00,A,3000.000566,N,11959.999351,E,0.0,,230721,4.3,W,A*08
$GPGGA,004129.00,3000.000566,N,11959.999351,E,1,12,0.7,-5.9,M,7.0,M,,*7D

$GPGSV,3,1,11,02,35,277,32,04,38,223,32,07,68,033,32,08,65,222,31*72
$GPGSV,3,2,11,10,14,316,30,13,38,050,31,20,07,132,32,23,15,071,32*73
$GPGSV,3,3,11,25,47,036,31,27,33,229,32,28,12,172,31*48
$GLGSV,2,1,07,78,23,327,30,86,18,037,29,77,72,286,30,88,30,264,30*68
$GLGSV,2,2,07,87,54,341,29,71,07,061,30,72,07,112,29*5F
$GAGSV,2,1,06,09,24,319,,10,78,327,,11,43,136,,17,17,042,*64
$GAGSV,2,2,06,24,68,018,,27,17,136,*68
$PQGSV,1,1,0,0*43
$PQGSV,1,1,02,12,59,341,,13,39,209,*67
$GPGSA,A,3,02,04,07,08,10,13,20,23,25,27,28,,1.0,0.7,0.7*32
$GLGSA,A,3,77,78,86,87,88,,,,,,,,1.0,0.7,0.7*21
$GPVTG,,T,,M,0.0,N,0.0,K,A*23
$GPDTM,P90,,0000.000022,S,00000.000001,W,0.988,W84*5A
$GPRMC,004130.00,A,3000.000569,N,11959.999347,E,0.0,,230721,4.3,W,A*08
$GPGGA,004130.00,3000.000569,N,11959.999347,E,1,12,0.7,-5.9,M,7.0,M,,*7D

$GPGSV,3,1,11,02,35,277,32,04,38,223,32,07,68,033,32,08,65,222,32*71
$GPGSV,3,2,11,10,14,316,31,13,38,050,32,20,07,132,32,23,15,071,32*71
$GPGSV,3,3,11,25,47,036,32,27,33,229,32,28,12,172,30*4A
$GLGSV,2,1,07,78,23,327,29,86,18,037,29,77,72,286,30,88,30,264,29*68
$GLGSV,2,2,07,87,54,341,30,71,07,061,30,72,07,112,29*57
$GAGSV,2,1,06,09,24,319,,10,78,327,,11,43,136,,17,17,042,*64
$GAGSV,2,2,06,24,68,018,,27,17,136,*68
$PQGSV,1,1,0,0*43
$PQGSV,1,1,02,12,59,341,,13,39,209,*67
$GPGSA,A,3,02,04,07,08,10,13,20,23,25,27,28,,1.0,0.7,0.7*32
$GLGSA,A,3,77,78,86,87,88,,,,,,,,1.0,0.7,0.7*21
$GPVTG,,T,,M,0.0,N,0.0,K,A*23
$GPDTM,P90,,0000.000022,S,00000.000001,W,0.988,W84*5A
$GPRMC,004131.00,A,3000.000566,N,11959.999349,E,0.0,,230721,4.3,W,A*08
$GPGGA,004131.00,3000.000566,N,11959.999349,E,1,12,0.7,-5.9,M,7.0,M,,*7D

$GPGSV,3,1,11,02,35,277,32,04,38,223,31,07,68,033,31,08,65,222,32*71
$GPGSV,3,2,11,10,14,316,31,13,38,050,32,20,07,132,31,23,15,071,31*71
$GPGSV,3,3,11,25,47,036,32,27,33,229,31,28,12,172,31*48
$GLGSV,2,1,07,78,23,327,29,86,18,037,30,77,72,286,30,88,30,264,30*68
$GLGSV,2,2,07,87,54,341,30,71,07,061,30,72,07,112,29*57
$GAGSV,2,1,06,09,24,319,,10,78,327,,11,43,136,,17,17,042,*64
$GAGSV,2,2,06,24,68,018,,27,17,136,*68
$PQGSV,1,1,0,0*43
$PQGSV,1,1,02,12,59,341,,13,39,209,*67
$GPGSA,A,3,02,04,07,08,10,13,20,23,25,27,28,,1.0,0.7,0.7*32
$GLGSA,A,3,77,78,86,87,88,,,,,,,,1.0,0.7,0.7*21
$GPVTG,,T,,M,0.0,N,0.0,K,A*23
$GPDTM,P90,,0000.000022,S,00000.000001,W,0.988,W84*5A
$GPRMC,004132.00,A,3000.000566,N,11959.999348,E,0.0,,230721,4.3,W,A*0A
$GPGGA,004132.00,3000.000566,N,11959.999348,E,1,12,0.7,-5.9,M,7.0,M,,*7F

$GPGSV,3,1,11,02,35,277,32,04,38,223,32,07,68,033,31,08,65,222,31*71
$GPGSV,3,2,11,10,14,316,31,13,38,050,32,20,07,132,32,23,15,071,32*71
$GPGSV,3,3,11,25,47,036,32,27,33,229,31,28,12,172,31*48
$GLGSV,2,1,07,78,23,327,30,86,18,037,29,77,72,286,30,88,30,264,30*68
$GLGSV,2,2,07,87,54,341,30,71,07,061,30,72,07,112,29*57
$GAGSV,2,1,06,09,24,319,,10,78,327,,11,43,136,,17,17,042,*64
$GAGSV,2,2,06,24,68,018,,27,17,136,*68
$PQGSV,1,1,0,0*43
$PQGSV,1,1,02,12,59,341,,13,39,209,*67
$GPGSA,A,3,02,04,07,08,10,13,20,23,25,27,28,,1.0,0.7,0.7*32
$GLGSA,A,3,77,78,86,87,88,,,,,,,,1.0,0.7,0.7*21
$GPVTG,,T,,M,0.0,N,0.0,K,A*23
$GPDTM,P90,,0000.000022,S,00000.000001,W,0.988,W84*5A
$GPRMC,004133.00,A,3000.000565,N,11959.999347,E,0.0,,230721,4.3,W,A*07
$GPGGA,004133.00,3000.000565,N,11959.999347,E,1,12,0.7,-5.9,M,7.0,M,,*72

$GPGSV,3,1,11,02,35,277,32,04,38,223,32,07,68,033,32,08,65,222,31*72
$GPGSV,3,2,11,10,14,316,31,13,38,050,32,20,07,132,31,23,15,071,31*71
$GPGSV,3,3,11,25,47,036,32,27,33,229,31,28,12,172,30*49
$GLGSV,2,1,07,78,23,327,30,86,18,037,29,77,72,286,30,88,30,264,30*68
$GLGSV,2,2,07,87,54,341,30,71,07,061,30,72,07,112,29*57
$GAGSV,2,1,06,09,24,319,,10,78,327,,11,43,136,,17,17,042,*64
$GAGSV,2,2,06,24,68,018,,27,17,136,*68
$PQGSV,1,1,0,0*43
$PQGSV,1,1,02,12,59,341,,13,39,209,*67
$GPGSA,A,3,02,04,07,08,10,13,20,23,25,27,28,,1.0,0.7,0.7*32
$GLGSA,A,3,77,78,86,87,88,,,,,,,,1.0,0.7,0.7*21
$GPVTG,,T,,M,0.0,N,0.0,K,A*23
$GPDTM,P90,,0000.000022,S,00000.000001,W,0.988,W84*5A
$GPRMC,004134.00,A,3000.000566,N,11959.999345,E,0.0,,230721,4.3,W,A*01
$GPGGA,004134.00,3000.000566,N,11959.999345,E,1,12,0.7,-5.9,M,7.0,M,,*74

$GPGSV,3,1,11,02,35,277,32,04,38,223,31,07,68,033,32,08,65,222,31*71
$GPGSV,3,2,11,10,14,316,31,13,38,050,32,20,07,132,32,23,15,071,32*71
$GPGSV,3,3,11,25,47,036,31,27,33,229,32,28,12,172,31*48
$GLGSV,2,1,07,78,23,327,30,86,18,037,29,77,72,286,30,88,30,264,30*68
$GLGSV,2,2,07,87,54,341,30,71,07,061,30,72,07,112,29*57
$GAGSV,2,1,06,09,24,319,,10,78,327,,11,43,136,,17,17,042,*64
$GAGSV,2,2,06,24,68,018,,27,17,136,*68
$PQGSV,1,1,0,0*43
$PQGSV,1,1,02,12,59,341,,13,39,209,*67
$GPGSA,A,3,02,04,07,08,10,13,20,23,25,27,28,,1.0,0.7,0.7*32
$GLGSA,A,3,77,78,86,87,88,,,,,,,,1.0,0.7,0.7*21
$GPVTG,,T,,M,0.0,N,0.0,K,A*23
$GPDTM,P90,,0000.000022,S,00000.000001,W,0.988,W84*5A
$GPRMC,004135.00,A,3000.000566,N,11959.999345,E,0.0,,230721,4.3,W,A*00
$GPGGA,004135.00,3000.000566,N,11959.999345,E,1,12,0.7,-5.9,M,7.0,M,,*75

$GPGSV,3,1,11,02,35,277,32,04,38,223,31,07,68,033,32,08,65,222,32*72
$GPGSV,3,2,11,10,14,316,31,13,38,050,31,20,07,132,31,23,15,071,32*71
$GPGSV,3,3,11,25,47,036,31,27,33,229,31,28,12,172,31*4B
$GLGSV,2,1,07,78,23,327,30,86,18,037,30,77,72,286,30,88,30,264,30*60
$GLGSV,2,2,07,87,54,341,30,71,07,061,29,72,07,112,29*5F
$GAGSV,2,1,06,09,24,319,,10,78,327,,11,43,136,,17,17,042,*64
$GAGSV,2,2,06,24,68,018,,27,17,136,*68
$PQGSV,1,1,0,0*43
$PQGSV,1,1,02,12,59,341,,13,39,209,*67
$GPGSA,A,3,02,04,07,08,10,13,20,23,25,27,28,,1.0,0.7,0.7*32
$GLGSA,A,3,77,78,86,87,88,,,,,,,,1.0,0.7,0.7*21
$GPVTG,,T,,M,0.0,N,0.0,K,A*23
$GPDTM,P90,,0000.000022,S,00000.000001,W,0.988,W84*5A
$GPRMC,004136.00,A,3000.000567,N,11959.999344,E,0.0,,230721,4.3,W,A*03
$GPGGA,004136.00,3000.000567,N,11959.999344,E,1,12,0.7,-5.9,M,7.0,M,,*76

$GPGSV,3,1,11,02,35,277,32,04,38,223,31,07,68,033,32,08,65,222,32*72
$GPGSV,3,2,11,10,14,316,30,13,38,050,32,20,07,132,31,23,15,071,32*73
$GPGSV,3,3,11,25,47,036,32,27,33,229,31,28,12,172,31*48
$GLGSV,2,1,07,78,23,327,30,86,18,037,30,77,72,286,30,88,30,264,30*60
$GLGSV,2,2,07,87,54,341,29,71,07,061,30,72,07,112,29*5F
$GAGSV,2,1,06,09,24,319,,10,78,327,,11,43,136,,17,17,042,*64
$GAGSV,2,2,06,24,68,018,,27,17,136,*68
$PQGSV,1,1,0,0*43
$PQGSV,1,1,02,12,59,341,,13,39,209,*67
$GPGSA,A,3,02,04,07,08,10,13,20,23,25,27,28,,1.0,0.7,0.7*32
$GLGSA,A,3,77,78,86,87,88,,,,,,,,1.0,0.7,0.7*21
$GPVTG,,T,,M,0.0,N,0.0,K,A*23
$GPDTM,P90,,0000.000022,S,00000.000001,W,0.988,W84*5A
$GPRMC,004137.00,A,3000.000565,N,11959.999342,E,0.0,,230721,4.3,W,A*06
$GPGGA,004137.00,3000.000565,N,11959.999342,E,1,12,0.7,-5.9,M,7.0,M,,*73

$GPGSV,3,1,11,02,35,277,32,04,38,223,31,07,68,033,32,08,65,222,32*72
$GPGSV,3,2,11,10,14,316,31,13,38,050,32,20,07,132,32,23,15,071,32*71
$GPGSV,3,3,11,25,47,036,31,27,33,229,32,28,12,172,31*48
$GLGSV,2,1,07,78,23,327,30,86,18,037,29,77,72,286,30,88,30,264,30*68
$GLGSV,2,2,07,87,54,341,30,71,07,061,30,72,07,112,28*56
$GAGSV,2,1,06,09,24,319,,10,78,327,,11,43,136,,17,17,042,*64
$GAGSV,2,2,06,24,68,018,,27,17,136,*68
$PQGSV,1,1,0,0*43
$PQGSV,1,1,02,12,59,341,,13,39,209,*67
$GPGSA,A,3,02,04,07,08,10,13,20,23,25,27,28,,1.0,0.7,0.7*32
$GLGSA,A,3,77,78,86,87,88,,,,,,,,1.0,0.7,0.7*21
$GPVTG,,T,,M,0.0,N,0.0,K,A*23
$GPDTM,P90,,0000.000022,S,00000.000001,W,0.988,W84*5A
$GPRMC,004138.00,A,3000.000557,N,11959.999328,E,0.0,,230721,4.3,W,A*04
$GPGGA,004138.00,3000.000557,N,11959.999328,E,1,12,0.7,-5.8,M,7.0,M,,*70

$GPGSV,3,1,11,02,35,277,32,04,38,223,31,07,68,033,31,08,65,222,31*72
$GPGSV,3,2,11,10,14,316,31,13,38,050,32,20,07,132,32,23,15,071,31*72
$GPGSV,3,3,11,25,47,036,31,27,33,229,32,28,12,172,31*48
$GLGSV,2,1,07,78,23,327,29,86,18,037,30,77,72,286,30,88,30,264,30*68
$GLGSV,2,2,07,87,54,341,30,71,07,061,30,72,07,112,29*57
$GAGSV,2,1,06,09,24,319,,10,78,327,,11,43,136,,17,17,042,*64
$GAGSV,2,2,06,24,68,018,,27,17,136,*68
$PQGSV,1,1,0,0*43
$PQGSV,1,1,02,12,59,341,,13,39,209,*67

$GPGSA,A,3,02,04,07,08,10,13,20,23,25,27,28,,1.0,0.7,0.7*32
$GLGSA,A,3,71,77,78,86,87,88,,,,,,,1.0,0.7,0.7*27
$GPVTG,,T,,M,0.0,N,0.0,K,A*23
$GPDTM,P90,,0000.000022,S,00000.000001,W,0.988,W84*5A
$GPRMC,004139.00,A,3000.000599,N,11959.999395,E,0.0,,230721,4.3,W,A*01
$GPGGA,004139.00,3000.000599,N,11959.999395,E,1,12,0.7,-6.1,M,7.0,M,,*7F

$GPGSV,3,1,11,02,35,277,31,04,38,223,32,07,68,033,32,08,65,222,32*72
$GPGSV,3,2,11,10,14,316,30,13,38,050,31,20,07,132,31,23,15,071,32*70
$GPGSV,3,3,11,25,47,036,31,27,33,229,32,28,12,172,30*49
$GLGSV,2,1,07,78,23,327,30,86,18,037,29,77,72,286,30,88,30,264,30*68
$GLGSV,2,2,07,87,54,341,30,71,07,061,30,72,07,112,29*57
$GAGSV,2,1,06,09,24,319,,10,78,327,,11,43,136,,17,17,042,*64
$GAGSV,2,2,06,24,68,018,,27,17,136,*68
$PQGSV,1,1,0,0*43
$PQGSV,1,1,02,12,59,341,,13,39,209,*67
$GPGSA,A,3,02,04,07,08,10,13,20,23,25,27,28,,1.0,0.7,0.7*32
$GLGSA,A,3,71,77,78,86,87,88,,,,,,,1.0,0.7,0.7*27
$GPVTG,,T,,M,0.0,N,0.0,K,A*23
$GPDTM,P90,,0000.000022,S,00000.000001,W,0.988,W84*5A
$GPRMC,004140.00,A,3000.000599,N,11959.999399,E,0.0,,230721,4.3,W,A*03
$GPGGA,004140.00,3000.000599,N,11959.999399,E,1,12,0.7,-6.1,M,7.0,M,,*7D

$GPGSV,3,1,11,02,35,277,32,04,38,223,32,07,68,033,32,08,65,222,31*72
$GPGSV,3,2,11,10,14,316,30,13,38,050,32,20,07,132,32,23,15,071,31*73
$GPGSV,3,3,11,25,47,036,31,27,33,229,32,28,12,172,30*49
$GLGSV,2,1,07,78,23,327,30,86,18,037,30,77,72,286,30,88,30,264,30*60
$GLGSV,2,2,07,87,54,341,30,71,07,061,30,72,07,112,28*56
$GAGSV,2,1,06,09,24,319,,10,78,327,,11,43,136,,17,17,042,*64
$GAGSV,2,2,06,24,68,018,,27,17,136,*68
$PQGSV,1,1,0,0*43
$PQGSV,1,1,02,12,59,341,,13,39,209,*67
$GPGSA,A,3,02,04,07,08,10,13,20,23,25,27,28,,1.0,0.7,0.7*32
$GLGSA,A,3,71,77,78,86,87,88,,,,,,,1.0,0.7,0.7*27
$GPVTG,,T,,M,0.0,N,0.0,K,A*23
$GPDTM,P90,,0000.000022,S,00000.000001,W,0.988,W84*5A
$GPRMC,004141.00,A,3000.000587,N,11959.999380,E,0.0,,230721,4.3,W,A*05
$GPGGA,004141.00,3000.000587,N,11959.999380,E,1,12,0.7,-6.0,M,7.0,M,,*7A

$GPGSV,3,1,11,02,35,277,32,04,38,223,32,07,68,033,32,08,65,222,32*71
$GPGSV,3,2,11,10,14,316,31,13,38,050,32,20,07,132,32,23,15,071,31*72
$GPGSV,3,3,11,25,47,036,32,27,33,229,31,28,12,172,30*49
$GLGSV,2,1,07,78,23,327,30,86,18,037,29,77,72,286,30,88,30,264,30*68
$GLGSV,2,2,07,87,54,341,30,71,07,061,30,72,07,112,29*57
$GAGSV,2,1,06,09,24,319,,10,78,327,,11,43,136,,17,17,042,*64
$GAGSV,2,2,06,24,68,018,,27,17,136,*68
$PQGSV,1,1,0,0*43
$PQGSV,1,1,02,12,59,341,,13,39,209,*67
$GPGSA,A,3,02,04,07,08,10,13,20,23,25,27,28,,1.0,0.7,0.7*32
$GLGSA,A,3,71,77,78,86,87,88,,,,,,,1.0,0.7,0.7*27
$GPVTG,,T,,M,0.0,N,0.0,K,A*23
$GPDTM,P90,,0000.000022,S,00000.000001,W,0.988,W84*5A
$GPRMC,004142.00,A,3000.000589,N,11959.999387,E,0.0,,230721,4.3,W,A*0F
$GPGGA,004142.00,3000.000589,N,11959.999387,E,1,12,0.7,-6.1,M,7.0,M,,*71

$GPGSV,3,1,11,02,35,277,32,04,38,223,32,07,68,033,32,08,65,222,32*71
$GPGSV,3,2,11,10,14,316,31,13,38,050,32,20,07,132,32,23,15,071,32*71
$GPGSV,3,3,11,25,47,036,31,27,33,229,32,28,12,172,31*48
$GLGSV,2,1,07,78,23,327,30,86,18,037,30,77,72,286,30,88,30,264,30*60
$GLGSV,2,2,07,87,54,341,30,71,07,061,30,72,07,112,29*57
$GAGSV,2,1,06,09,24,319,,10,78,327,,11,43,136,,17,17,042,*64
$GAGSV,2,2,06,24,68,018,,27,17,136,*68
$PQGSV,1,1,0,0*43
$PQGSV,1,1,02,12,59,341,,13,39,209,*67
$GPGSA,A,3,02,04,07,08,10,13,20,23,25,27,28,,1.0,0.7,0.7*32
$GLGSA,A,3,71,77,78,86,87,88,,,,,,,1.0,0.7,0.7*27
$GPVTG,,T,,M,0.0,N,0.0,K,A*23
$GPDTM,P90,,0000.000022,S,00000.000001,W,0.988,W84*5A
$GPRMC,004143.00,A,3000.000591,N,11959.999390,E,0.0,,230721,4.3,W,A*01
$GPGGA,004143.00,3000.000591,N,11959.999390,E,1,12,0.7,-6.1,M,7.0,M,,*7F

$GPGSV,3,1,11,02,35,277,32,04,38,223,32,07,68,033,32,08,65,222,31*72
$GPGSV,3,2,11,10,14,316,31,13,38,050,31,20,07,132,32,23,15,071,32*72
$GPGSV,3,3,11,25,47,036,32,27,33,229,32,28,12,172,31*4B
$GLGSV,2,1,07,78,23,327,30,86,18,037,30,77,72,286,30,88,30,264,30*60
$GLGSV,2,2,07,87,54,341,30,71,07,061,30,72,07,112,29*57
$GAGSV,2,1,06,09,24,319,,10,78,327,,11,43,136,,17,17,042,*64
$GAGSV,2,2,06,24,68,018,,27,17,136,*68
$PQGSV,1,1,0,0*43
$PQGSV,1,1,02,12,59,341,,13,39,209,*67
$GPGSA,A,3,02,04,07,08,10,13,20,23,25,27,28,,1.0,0.7,0.7*32
$GLGSA,A,3,71,77,78,86,87,88,,,,,,,1.0,0.7,0.7*27
$GPVTG,,T,,M,0.0,N,0.0,K,A*23
$GPDTM,P90,,0000.000022,S,00000.000001,W,0.988,W84*5A
$GPRMC,004144.00,A,3000.000601,N,11959.999403,E,0.0,,230721,4.3,W,A*01
$GPGGA,004144.00,3000.000601,N,11959.999403,E,1,12,0.7,-6.1,M,7.0,M,,*7F

$GPGSV,3,1,11,02,35,277,32,04,38,223,32,07,68,033,32,08,65,222,32*71
$GPGSV,3,2,11,10,14,316,30,13,38,050,32,20,07,132,32,23,15,071,32*70
$GPGSV,3,3,11,25,47,036,32,27,33,229,32,28,12,172,31*4B
$GLGSV,2,1,07,78,23,327,30,86,18,037,30,77,72,286,30,88,30,264,30*60
$GLGSV,2,2,07,87,54,341,30,71,07,061,30,72,07,112,29*57
$GAGSV,2,1,06,09,24,319,,10,78,327,,11,43,136,,17,17,042,*64
$GAGSV,2,2,06,24,68,018,,27,17,136,*68
$PQGSV,1,1,0,0*43
$PQGSV,1,1,02,12,59,341,,13,39,209,*67
$GPGSA,A,3,02,04,07,08,10,13,20,23,25,27,28,,1.0,0.7,0.7*32
$GLGSA,A,3,71,77,78,86,87,88,,,,,,,1.0,0.7,0.7*27
$GPVTG,,T,,M,0.0,N,0.0,K,A*23
$GPDTM,P90,,0000.000022,S,00000.000001,W,0.988,W84*5A
$GPRMC,004145.00,A,3000.000609,N,11959.999419,E,0.0,,230721,4.3,W,A*03
$GPGGA,004145.00,3000.000609,N,11959.999419,E,1,12,0.7,-6.2,M,7.0,M,,*7E

$GPGSV,3,1,11,02,35,277,32,04,38,223,32,07,68,033,32,08,65,222,32*71
$GPGSV,3,2,11,10,14,316,31,13,38,050,32,20,07,132,32,23,15,071,32*71
$GPGSV,3,3,11,25,47,036,32,27,33,229,32,28,12,172,31*4B
$GLGSV,2,1,07,78,23,327,30,86,18,037,30,77,72,286,30,88,30,264,30*60
$GLGSV,2,2,07,87,54,341,30,71,07,061,30,72,07,112,29*57
$GAGSV,2,1,06,09,24,319,,10,78,327,,11,43,136,,17,17,042,*64
$GAGSV,2,2,06,24,68,018,,27,17,136,*68
$PQGSV,1,1,0,0*43
$PQGSV,1,1,02,12,59,341,,13,39,209,*67
$GPGSA,A,3,02,04,07,08,10,13,20,23,25,27,28,,1.0,0.7,0.7*32
$GLGSA,A,3,71,77,78,86,87,88,,,,,,,1.0,0.7,0.7*27
$GPVTG,,T,,M,0.0,N,0.0,K,A*23
$GPDTM,P90,,0000.000022,S,00000.000001,W,0.988,W84*5A
$GPRMC,004146.00,A,3000.000619,N,11959.999431,E,0.0,,230721,4.3,W,A*0B
$GPGGA,004146.00,3000.000619,N,11959.999431,E,1,12,0.7,-6.3,M,7.0,M,,*77

$GPGSV,3,1,11,02,35,277,32,04,38,223,32,07,68,033,33,08,65,222,32*70
$GPGSV,3,2,11,10,14,316,31,13,38,050,32,20,07,132,31,23,15,071,32*72
$GPGSV,3,3,11,25,47,036,32,27,33,229,32,28,12,172,31*4B
$GLGSV,2,1,07,78,23,327,30,86,18,037,30,77,72,286,30,88,30,264,30*60
$GLGSV,2,2,07,87,54,341,31,71,07,061,30,72,07,112,29*56
$GAGSV,2,1,06,09,24,319,,10,78,327,,11,43,136,,17,17,042,*64
$GAGSV,2,2,06,24,68,018,,27,17,136,*68
$PQGSV,1,1,0,0*43
$PQGSV,1,1,02,12,59,341,,13,39,209,*67
$GPGSA,A,3,02,04,07,08,10,13,20,23,25,27,28,,1.0,0.7,0.7*32
$GLGSA,A,3,71,77,78,86,87,88,,,,,,,1.0,0.7,0.7*27
$GPVTG,,T,,M,0.0,N,0.0,K,A*23
$GPDTM,P90,,0000.000022,S,00000.000001,W,0.988,W84*5A
$GPRMC,004147.00,A,3000.000615,N,11959.999427,E,0.0,,230721,4.3,W,A*01
$GPGGA,004147.00,3000.000615,N,11959.999427,E,1,12,0.7,-6.3,M,7.0,M,,*7D

$GPGSV,3,1,11,02,35,277,32,04,38,223,32,07,68,033,32,08,65,222,32*71
$GPGSV,3,2,11,10,14,316,31,13,38,050,32,20,07,132,32,23,15,071,32*71
$GPGSV,3,3,11,25,47,036,32,27,33,229,32,28,12,172,31*4B
$GLGSV,2,1,07,78,23,327,30,86,18,037,30,77,72,286,30,88,30,264,30*60
$GLGSV,2,2,07,87,54,341,30,71,07,061,30,72,07,112,29*57
$GAGSV,2,1,06,09,24,319,,10,78,327,,11,42,136,,17,17,042,*65
$GAGSV,2,2,06,24,68,019,,27,17,137,*68
$PQGSV,1,1,0,0*43
$PQGSV,1,1,02,12,59,341,,13,39,209,*67
$GPGSA,A,3,02,04,07,08,10,13,20,23,25,27,28,,1.0,0.7,0.7*32
$GLGSA,A,3,71,77,78,86,87,88,,,,,,,1.0,0.7,0.7*27
$GPVTG,,T,,M,0.0,N,0.0,K,A*23
$GPDTM,P90,,0000.000022,S,00000.000001,W,0.988,W84*5A
$GPRMC,004148.00,A,3000.000619,N,11959.999434,E,0.0,,230721,4.3,W,A*00
$GPGGA,004148.00,3000.000619,N,11959.999434,E,1,12,0.7,-6.3,M,7.0,M,,*7C

$GPGSV,3,1,11,02,35,277,32,04,38,223,32,07,68,033,32,08,65,222,32*71
$GPGSV,3,2,11,10,14,316,31,13,38,050,31,20,07,132,32,23,15,071,32*72
$GPGSV,3,3,11,25,47,036,32,27,33,229,32,28,12,172,31*4B
$GLGSV,2,1,07,78,23,327,30,86,18,037,30,77,72,286,30,88,30,264,30*60
$GLGSV,2,2,07,87,54,341,30,71,07,061,31,72,07,112,29*56
$GAGSV,2,1,06,09,24,319,,10,78,327,,11,42,136,,17,17,042,*65
$GAGSV,2,2,06,24,68,019,,27,17,137,*68
$PQGSV,1,1,0,0*43
$PQGSV,1,1,02,12,59,341,,13,39,209,*67
$GPGSA,A,3,02,04,07,08,10,13,20,23,25,27,28,,1.0,0.7,0.7*32
$GLGSA,A,3,71,77,78,86,87,88,,,,,,,1.0,0.7,0.7*27
$GPVTG,,T,,M,0.0,N,0.0,K,A*23
$GPDTM,P90,,0000.000022,S,00000.000001,W,0.988,W84*5A
$GPRMC,004149.00,A,3000.000621,N,11959.999431,E,0.0,,230721,4.3,W,A*0F
$GPGGA,004149.00,3000.000621,N,11959.999431,E,1,12,0.7,-6.3,M,7.0,M,,*73

$GPGSV,3,1,11,02,35,277,32,04,38,223,32,07,68,033,32,08,65,222,32*71
$GPGSV,3,2,11,10,14,316,31,13,38,050,32,20,07,132,32,23,15,071,32*71
$GPGSV,3,3,11,25,47,036,32,27,33,229,32,28,12,172,31*4B
$GLGSV,2,1,07,78,23,327,31,86,18,037,29,77,72,286,30,88,30,264,30*69
$GLGSV,2,2,07,87,54,341,30,71,07,061,30,72,07,112,29*57
$GAGSV,2,1,06,09,24,319,,10,78,327,,11,42,136,,17,17,042,*65
$GAGSV,2,2,06,24,68,019,,27,17,137,*68
$PQGSV,1,1,0,0*43
$PQGSV,1,1,02,12,59,341,,13,39,209,*67
$GPGSA,A,3,02,04,07,08,10,13,20,23,25,27,28,,1.0,0.7,0.7*32
$GLGSA,A,3,71,77,78,86,87,88,,,,,,,1.0,0.7,0.7*27
$GPVTG,,T,,M,0.0,N,0.0,K,A*23
$GPDTM,P90,,0000.000022,S,00000.000001,W,0.988,W84*5A
$GPRMC,004150.00,A,3000.000623,N,11959.999433,E,0.0,,230721,4.3,W,A*07
$GPGGA,004150.00,3000.000623,N,11959.999433,E,1,12,0.7,-6.3,M,7.0,M,,*7B

$GPGSV,3,1,11,02,35,277,32,04,38,223,31,07,68,033,32,08,65,222,32*72
$GPGSV,3,2,11,10,14,316,31,13,38,050,32,20,07,132,32,23,15,071,32*71
$GPGSV,3,3,11,25,47,036,32,27,33,229,32,28,12,172,30*4A
$GLGSV,2,1,07,78,23,327,30,86,18,037,30,77,72,286,30,88,30,264,30*60
$GLGSV,2,2,07,87,54,341,30,71,07,061,30,72,07,112,29*57
$GAGSV,2,1,06,09,24,319,,10,78,327,,11,42,136,,17,17,042,*65
$GAGSV,2,2,06,24,68,019,,27,17,137,*68
$PQGSV,1,1,0,0*43
$PQGSV,1,1,02,12,59,341,,13,39,209,*67
$GPGSA,A,3,02,04,07,08,10,13,20,23,25,27,28,,1.0,0.7,0.7*32
$GLGSA,A,3,71,77,78,86,87,88,,,,,,,1.0,0.7,0.7*27
$GPVTG,,T,,M,0.0,N,0.0,K,A*23
$GPDTM,P90,,0000.000022,S,00000.000001,W,0.988,W84*5A
$GPRMC,004151.00,A,3000.000623,N,11959.999435,E,0.0,,230721,4.3,W,A*00
$GPGGA,004151.00,3000.000623,N,11959.999435,E,1,12,0.7,-6.3,M,7.0,M,,*7C

$GPGSV,3,1,11,02,35,277,32,04,38,223,32,07,68,033,32,08,65,222,32*71
$GPGSV,3,2,11,10,14,316,31,13,38,050,32,20,07,132,32,23,15,071,32*71
$GPGSV,3,3,11,25,47,036,32,27,33,229,32,28,12,172,31*4B
$GLGSV,2,1,07,78,23,327,30,86,18,037,31,77,72,286,30,88,30,264,30*61
$GLGSV,2,2,07,87,54,341,30,71,07,061,30,72,07,112,30*5F
$GAGSV,2,1,06,09,24,319,,10,78,327,,11,42,136,,17,17,042,*65
$GAGSV,2,2,06,24,68,019,,27,17,137,*68
$PQGSV,1,1,0,0*43
$PQGSV,1,1,02,12,59,341,,13,39,209,*67
$GPGSA,A,3,02,04,07,08,10,13,20,23,25,27,28,,1.0,0.7,0.7*32
$GLGSA,A,3,71,77,78,86,87,88,,,,,,,1.0,0.7,0.7*27
$GPVTG,,T,,M,0.0,N,0.0,K,A*23
$GPDTM,P90,,0000.000022,S,00000.000001,W,0.988,W84*5A
$GPRMC,004152.00,A,3000.000622,N,11959.999440,E,0.0,,230721,4.3,W,A*00
$GPGGA,004152.00,3000.000622,N,11959.999440,E,1,12,0.7,-6.3,M,7.0,M,,*7C

$GPGSV,3,1,11,02,35,277,32,04,38,223,32,07,68,033,32,08,65,222,32*71
$GPGSV,3,2,11,10,14,316,31,13,38,050,32,20,07,132,32,23,15,071,32*71
$GPGSV,3,3,11,25,47,036,32,27,33,229,32,28,12,172,31*4B
$GLGSV,2,1,07,78,23,327,30,86,18,037,30,77,72,286,30,88,30,264,30*60
$GLGSV,2,2,07,87,54,341,30,71,07,061,30,72,07,112,29*57
$GAGSV,2,1,06,09,24,319,,10,78,327,,11,42,136,,17,17,042,*65
$GAGSV,2,2,06,24,68,019,,27,17,137,*68
$PQGSV,1,1,0,0*43
$PQGSV,1,1,02,12,59,341,,13,39,209,*67
$GPGSA,A,3,02,04,07,08,10,13,20,23,25,27,28,,1.0,0.7,0.7*32
$GLGSA,A,3,71,77,78,86,87,88,,,,,,,1.0,0.7,0.7*27
$GPVTG,,T,,M,0.0,N,0.0,K,A*23
$GPDTM,P90,,0000.000022,S,00000.000001,W,0.988,W84*5A
$GPRMC,004153.00,A,3000.000623,N,11959.999443,E,0.0,,230721,4.3,W,A*03
$GPGGA,004153.00,3000.000623,N,11959.999443,E,1,12,0.7,-6.3,M,7.0,M,,*7F

$GPGSV,3,1,11,02,35,277,32,04,38,223,32,07,68,033,32,08,65,222,32*71
$GPGSV,3,2,11,10,14,316,31,13,38,050,32,20,07,132,32,23,15,071,32*71
$GPGSV,3,3,11,25,47,036,31,27,33,229,32,28,12,172,31*48
$GLGSV,2,1,07,78,23,327,29,86,18,037,30,77,72,286,30,88,30,264,31*69
$GLGSV,2,2,07,87,54,341,30,71,07,061,30,72,07,112,29*57
$GAGSV,2,1,06,09,24,319,,10,78,327,,11,42,136,,17,17,042,*65
$GAGSV,2,2,06,24,68,019,,27,17,137,*68
$PQGSV,1,1,0,0*43
$PQGSV,1,1,02,12,59,341,,13,39,209,*67
$GPGSA,A,3,02,04,07,08,10,13,20,23,25,27,28,,1.0,0.7,0.7*32
$GLGSA,A,3,71,77,78,86,87,88,,,,,,,1.0,0.7,0.7*27
$GPVTG,,T,,M,0.0,N,0.0,K,A*23
$GPDTM,P90,,0000.000022,S,00000.000001,W,0.988,W84*5A
$GPRMC,004154.00,A,3000.000622,N,11959.999446,E,0.0,,230721,4.3,W,A*00
$GPGGA,004154.00,3000.000622,N,11959.999446,E,1,12,0.7,-6.4,M,7.0,M,,*7B

$GPGSV,3,1,11,02,35,277,32,04,38,223,32,07,68,033,32,08,65,222,32*71
$GPGSV,3,2,11,10,14,316,31,13,38,050,32,20,07,132,32,23,15,071,32*71
$GPGSV,3,3,11,25,47,036,32,27,33,229,32,28,12,172,31*4B
$GLGSV,2,1,07,78,23,327,30,86,18,037,30,77,72,286,30,88,30,264,30*60
$GLGSV,2,2,07,87,54,341,30,71,07,061,30,72,07,112,29*57
$GAGSV,2,1,06,09,24,319,,10,78,327,,11,42,136,,17,17,042,*65
$GAGSV,2,2,06,24,68,019,,27,17,137,*68
$PQGSV,1,1,0,0*43
$PQGSV,1,1,02,12,59,341,,13,39,209,*67
$GPGSA,A,3,02,04,07,08,10,13,20,23,25,27,28,,1.0,0.7,0.7*32
$GLGSA,A,3,71,77,78,86,87,88,,,,,,,1.0,0.7,0.7*27
$GPVTG,,T,,M,0.0,N,0.0,K,A*23
$GPDTM,P90,,0000.000022,S,00000.000001,W,0.988,W84*5A
$GPRMC,004155.00,A,3000.000622,N,11959.999450,E,0.0,,230721,4.3,W,A*06
$GPGGA,004155.00,3000.000622,N,11959.999450,E,1,12,0.7,-6.4,M,7.0,M,,*7D

$GPGSV,3,1,11,02,35,277,32,04,38,223,32,07,68,033,32,08,65,222,32*71
$GPGSV,3,2,11,10,14,316,31,13,38,050,32,20,07,132,32,23,15,071,32*71
$GPGSV,3,3,11,25,47,036,32,27,33,229,32,28,12,172,31*4B
$GLGSV,2,1,07,78,23,327,31,86,18,037,30,77,72,286,30,88,30,264,30*61
$GLGSV,2,2,07,87,54,341,30,71,07,061,31,72,07,112,29*56
$GAGSV,2,1,06,09,24,319,,10,78,327,,11,42,136,,17,17,042,*65
$GAGSV,2,2,06,24,68,019,,27,17,137,*68
$PQGSV,1,1,0,0*43
$PQGSV,1,1,02,12,59,341,,13,39,209,*67
$GPGSA,A,3,02,04,07,08,10,13,20,23,25,27,28,,1.0,0.7,0.7*32
$GLGSA,A,3,71,77,78,86,87,88,,,,,,,1.0,0.7,0.7*27
$GPVTG,,T,,M,0.0,N,0.0,K,A*23
$GPDTM,P90,,0000.000022,S,00000.000001,W,0.988,W84*5A
$GPRMC,004156.00,A,3000.000623,N,11959.999450,E,0.0,,230721,4.3,W,A*04
$GPGGA,004156.00,3000.000623,N,11959.999450,E,1,12,0.7,-6.4,M,7.0,M,,*7F

$GPGSV,3,1,11,02,35,277,32,04,38,223,32,07,68,033,32,08,65,222,32*71
$GPGSV,3,2,11,10,14,316,31,13,38,050,32,20,07,132,31,23,15,071,32*72
$GPGSV,3,3,11,25,47,036,32,27,33,229,32,28,12,172,31*4B
$GLGSV,2,1,07,78,23,327,30,86,18,037,30,77,72,286,30,88,30,264,30*60
$GLGSV,2,2,07,87,54,341,31,71,07,061,30,72,07,112,30*5E
$GAGSV,2,1,06,09,24,319,,10,78,327,,11,42,136,,17,17,042,*65
$GAGSV,2,2,06,24,68,019,,27,17,137,*68
$PQGSV,1,1,0,0*43
$PQGSV,1,1,02,12,59,341,,13,39,209,*67
$GPGSA,A,3,02,04,07,08,10,13,20,23,25,27,28,,1.0,0.7,0.7*32
$GLGSA,A,3,71,77,78,86,87,88,,,,,,,1.0,0.7,0.7*27
$GPVTG,,T,,M,0.0,N,0.0,K,A*23
$GPDTM,P90,,0000.000022,S,00000.000001,W,0.988,W84*5A
$GPRMC,004157.00,A,3000.000620,N,11959.999448,E,0.0,,230721,4.3,W,A*0F
$GPGGA,004157.00,3000.000620,N,11959.999448,E,1,12,0.7,-6.4,M,7.0,M,,*74

$GPGSV,3,1,11,02,35,277,32,04,38,223,32,07,68,033,32,08,65,222,32*71
$GPGSV,3,2,11,10,14,316,31,13,38,050,32,20,07,132,32,23,15,071,32*71
$GPGSV,3,3,11,25,47,036,32,27,33,229,32,28,12,172,31*4B
$GLGSV,2,1,07,78,23,327,30,86,18,037,30,77,72,286,29,88,30,264,30*68
$GLGSV,2,2,07,87,54,341,30,71,07,061,30,72,07,112,29*57
$GAGSV,2,1,06,09,24,319,,10,78,327,,11,42,136,,17,17,042,*65
$GAGSV,2,2,06,24,68,019,,27,17,137,*68
$PQGSV,1,1,0,0*43
$PQGSV,1,1,02,12,59,341,,13,39,209,*67
$GPGSA,A,3,02,04,07,08,10,13,20,23,25,27,28,,1.0,0.7,0.7*32
$GLGSA,A,3,71,77,78,86,87,88,,,,,,,1.0,0.7,0.7*27
$GPVTG,,T,,M,0.0,N,0.0,K,A*23
$GPDTM,P90,,0000.000022,S,00000.000001,W,0.988,W84*5A
$GPRMC,004158.00,A,3000.000623,N,11959.999448,E,0.0,,230721,4.3,W,A*03
$GPGGA,004158.00,3000.000623,N,11959.999448,E,1,12,0.7,-6.4,M,7.0,M,,*78

$GPGSV,3,1,11,02,35,277,32,04,38,223,32,07,68,033,31,08,65,222,32*72
$GPGSV,3,2,11,10,14,316,31,13,38,050,32,20,07,132,32,23,15,071,32*71
$GPGSV,3,3,11,25,47,036,32,27,33,229,32,28,12,172,31*4B
$GLGSV,2,1,07,78,23,327,30,86,18,037,30,77,72,286,31,88,30,264,30*61
$GLGSV,2,2,07,87,54,341,30,71,07,061,30,72,07,112,29*57
$GAGSV,2,1,06,09,24,319,,10,78,327,,11,42,136,,17,17,042,*65
$GAGSV,2,2,06,24,68,019,,27,17,137,*68
$PQGSV,1,1,0,0*43
$PQGSV,1,1,02,12,59,341,,13,39,209,*67
$GPGSA,A,3,02,04,07,08,10,13,20,23,25,27,28,,1.0,0.7,0.7*32
$GLGSA,A,3,71,77,78,86,87,88,,,,,,,1.0,0.7,0.7*27
$GPVTG,,T,,M,0.0,N,0.0,K,A*23
$GPDTM,P90,,0000.000022,S,00000.000001,W,0.988,W84*5A
$GPRMC,004159.00,A,3000.000622,N,11959.999447,E,0.0,,230721,4.3,W,A*0C
$GPGGA,004159.00,3000.000622,N,11959.999447,E,1,12,0.7,-6.4,M,7.0,M,,*77

$GPGSV,3,1,11,02,35,277,32,04,38,223,32,07,68,033,32,08,65,222,32*71
$GPGSV,3,2,11,10,14,316,31,13,38,050,32,20,07,132,32,23,15,071,32*71
$GPGSV,3,3,11,25,47,036,32,27,33,229,32,28,12,172,31*4B
$GLGSV,2,1,07,78,23,327,30,86,18,037,30,77,72,286,30,88,30,264,30*60
$GLGSV,2,2,07,87,54,341,30,71,07,061,30,72,07,112,29*57
$GAGSV,2,1,06,09,24,319,,10,78,327,,11,42,136,,17,17,042,*65
$GAGSV,2,2,06,24,68,019,,27,17,137,*68
$PQGSV,1,1,0,0*43
$PQGSV,1,1,02,12,59,341,,13,39,209,*67
$GPGSA,A,3,02,04,07,08,10,13,20,23,25,27,28,,1.0,0.7,0.7*32
$GLGSA,A,3,71,77,78,86,87,88,,,,,,,1.0,0.7,0.7*27
$GPVTG,,T,,M,0.0,N,0.0,K,A*23
$GPDTM,P90,,0000.000022,S,00000.000001,W,0.988,W84*5A
$GPRMC,004200.00,A,3000.000622,N,11959.999446,E,0.0,,230721,4.3,W,A*02
$GPGGA,004200.00,3000.000622,N,11959.999446,E,1,12,0.7,-6.4,M,7.0,M,,*79

$GPGSV,3,1,11,02,35,277,32,04,38,223,31,07,68,033,32,08,65,222,32*72
$GPGSV,3,2,11,10,14,316,31,13,38,050,32,20,07,132,32,23,15,071,32*71
$GPGSV,3,3,11,25,47,036,32,27,33,229,32,28,12,172,31*4B
$GLGSV,2,1,07,78,23,327,30,86,18,037,30,77,72,286,30,88,30,264,30*60
$GLGSV,2,2,07,87,54,341,30,71,07,061,30,72,07,112,29*57
$GAGSV,2,1,06,09,24,319,,10,78,327,,11,42,136,,17,17,042,*65
$GAGSV,2,2,06,24,68,019,,27,17,137,*68
$PQGSV,1,1,0,0*43
$PQGSV,1,1,02,12,59,341,,13,39,209,*67
$GPGSA,A,3,02,04,07,08,10,13,20,23,25,27,28,,1.0,0.7,0.7*32
$GLGSA,A,3,71,77,78,86,87,88,,,,,,,1.0,0.7,0.7*27
$GPVTG,,T,,M,0.0,N,0.0,K,A*23
$GPDTM,P90,,0000.000022,S,00000.000001,W,0.988,W84*5A
$GPRMC,004201.00,A,3000.000622,N,11959.999447,E,0.0,,230721,4.3,W,A*02
$GPGGA,004201.00,3000.000622,N,11959.999447,E,1,12,0.7,-6.4,M,7.0,M,,*79

$GPGSV,3,1,11,02,35,277,32,04,38,223,32,07,68,033,32,08,65,222,32*71
$GPGSV,3,2,11,10,14,316,31,13,38,050,32,20,07,132,32,23,15,071,31*72
$GPGSV,3,3,11,25,47,036,32,27,33,229,32,28,12,172,30*4A
$GLGSV,2,1,07,78,23,327,30,86,18,037,30,77,72,286,30,88,30,264,30*60
$GLGSV,2,2,07,87,54,341,30,71,07,061,30,72,07,112,30*5F
$GAGSV,2,1,06,09,24,319,,10,78,327,,11,42,136,,17,17,042,*65
$GAGSV,2,2,06,24,68,019,,27,17,137,*68
$PQGSV,1,1,0,0*43
$PQGSV,1,1,02,12,59,341,,13,39,209,*67
$GPGSA,A,3,02,04,07,08,10,13,20,23,25,27,28,,1.0,0.7,0.7*32
$GLGSA,A,3,71,77,78,86,87,88,,,,,,,1.0,0.7,0.7*27
$GPVTG,,T,,M,0.0,N,0.0,K,A*23
$GPDTM,P90,,0000.000022,S,00000.000001,W,0.988,W84*5A
$GPRMC,004202.00,A,3000.000623,N,11959.999447,E,0.0,,230721,4.3,W,A*00
$GPGGA,004202.00,3000.000623,N,11959.999447,E,1,12,0.7,-6.4,M,7.0,M,,*7B

$GPGSV,3,1,11,02,35,277,32,04,38,223,32,07,68,033,32,08,65,222,32*71
$GPGSV,3,2,11,10,14,316,31,13,38,050,32,20,07,132,32,23,15,071,32*71
$GPGSV,3,3,11,25,47,036,32,27,33,229,32,28,12,172,31*4B
$GLGSV,2,1,07,78,23,327,30,86,18,037,30,77,72,286,31,88,30,264,30*61
$GLGSV,2,2,07,87,54,341,30,71,07,061,30,72,07,112,29*57
$GAGSV,2,1,06,09,24,319,,10,78,327,,11,42,136,,17,17,042,*65
$GAGSV,2,2,06,24,68,019,,27,17,137,*68
$PQGSV,1,1,0,0*43
$PQGSV,1,1,02,12,59,341,,13,39,209,*67
$GPGSA,A,3,02,04,07,08,10,13,20,23,25,27,28,,1.0,0.7,0.7*32
$GLGSA,A,3,71,77,78,86,87,88,,,,,,,1.0,0.7,0.7*27
$GPVTG,,T,,M,0.0,N,0.0,K,A*23
$GPDTM,P90,,0000.000022,S,00000.000001,W,0.988,W84*5A
$GPRMC,004203.00,A,3000.000621,N,11959.999449,E,0.0,,230721,4.3,W,A*0D
$GPGGA,004203.00,3000.000621,N,11959.999449,E,1,12,0.7,-6.4,M,7.0,M,,*76

$GPGSV,3,1,11,02,35,277,32,04,38,223,32,07,68,033,32,08,65,222,32*71
$GPGSV,3,2,11,10,14,316,31,13,38,050,32,20,07,132,32,23,15,071,32*71
$GPGSV,3,3,11,25,47,036,32,27,33,229,33,28,12,172,31*4A
$GLGSV,2,1,07,78,23,327,30,86,18,037,29,77,72,286,30,88,30,264,30*68
$GLGSV,2,2,07,87,54,341,30,71,07,061,30,72,07,112,29*57
$GAGSV,2,1,06,09,24,319,,10,78,327,,11,42,136,,17,17,042,*65
$GAGSV,2,2,06,24,68,019,,27,17,137,*68
$PQGSV,1,1,0,0*43
$PQGSV,1,1,02,12,59,341,,13,39,209,*67
$GPGSA,A,3,02,04,07,08,10,13,20,23,25,27,28,,0.9,0.6,0.7*3B
$GLGSA,A,3,71,77,78,86,87,88,,,,,,,0.9,0.6,0.7*2E
$GPVTG,,T,,M,0.0,N,0.0,K,A*23
$GPDTM,P90,,0000.000022,S,00000.000001,W,0.988,W84*5A
$GPRMC,004204.00,A,3000.000641,N,11959.999427,E,0.0,,230721,4.3,W,A*04
$GPGGA,004204.00,3000.000641,N,11959.999427,E,1,12,0.6,-6.4,M,7.0,M,,*7E

$GPGSV,3,1,11,02,35,277,32,04,38,223,32,07,68,033,32,08,65,222,32*71
$GPGSV,3,2,11,10,14,316,31,13,38,050,32,20,07,132,31,23,15,071,32*72
$GPGSV,3,3,11,25,47,036,32,27,33,229,32,28,12,172,31*4B
$GLGSV,2,1,07,78,23,327,29,86,18,037,30,77,72,286,30,88,30,264,30*68
$GLGSV,2,2,07,87,54,341,30,71,07,061,29,72,07,112,30*57
$GAGSV,2,1,06,09,24,319,,10,78,327,,11,42,136,,17,17,042,*65
$GAGSV,2,2,06,24,68,019,,27,17,137,*68
$PQGSV,1,1,0,0*43
$PQGSV,1,1,02,12,59,341,,13,39,209,*67
$GPGSA,A,3,02,04,07,08,10,13,20,23,25,27,28,,0.9,0.6,0.7*3B
$GLGSA,A,3,71,72,77,78,86,87,88,,,,,,0.9,0.6,0.7*2B
$GPVTG,,T,,M,0.0,N,0.0,K,A*23
$GPDTM,P90,,0000.000022,S,00000.000001,W,0.988,W84*5A
$GPRMC,004205.00,A,3000.000653,N,11959.999413,E,0.0,,230721,4.3,W,A*01
$GPGGA,004205.00,3000.000653,N,11959.999413,E,1,12,0.6,-6.3,M,7.0,M,,*7C

$GPGSV,3,1,11,02,35,277,32,04,38,223,32,07,68,033,32,08,65,222,32*71
$GPGSV,3,2,11,10,14,316,31,13,38,050,31,20,07,132,31,23,15,071,32*71
$GPGSV,3,3,11,25,47,036,32,27,33,229,32,28,12,172,31*4B
$GLGSV,2,1,07,78,23,327,30,86,18,037,30,77,72,286,30,88,30,264,30*60
$GLGSV,2,2,07,87,54,341,30,71,07,061,30,72,07,112,29*57
$GAGSV,2,1,06,09,24,319,,10,78,327,,11,42,136,,17,17,042,*65
$GAGSV,2,2,06,24,68,019,,27,17,137,*68
$PQGSV,1,1,0,0*43
$PQGSV,1,1,02,12,59,341,,13,39,209,*67
$GPGSA,A,3,02,04,07,08,10,13,20,23,25,27,28,,0.9,0.6,0.7*3B
$GLGSA,A,3,71,72,77,78,86,87,88,,,,,,0.9,0.6,0.7*2B
$GPVTG,,T,,M,0.0,N,0.0,K,A*23
$GPDTM,P90,,0000.000022,S,00000.000001,W,0.988,W84*5A
$GPRMC,004206.00,A,3000.000642,N,11959.999423,E,0.0,,230721,4.3,W,A*01
$GPGGA,004206.00,3000.000642,N,11959.999423,E,1,12,0.6,-6.3,M,7.0,M,,*7C

$GPGSV,3,1,11,02,35,277,32,04,38,223,32,07,68,033,32,08,65,222,32*71
$GPGSV,3,2,11,10,14,316,31,13,38,050,31,20,07,132,32,23,15,071,32*72
$GPGSV,3,3,11,25,47,036,32,27,33,229,31,28,12,172,31*48
$GLGSV,2,1,07,78,23,327,30,86,18,037,30,77,72,286,30,88,30,264,29*68
$GLGSV,2,2,07,87,54,341,30,71,07,061,30,72,07,112,29*57
$GAGSV,2,1,06,09,24,319,,10,78,327,,11,42,136,,17,17,042,*65
$GAGSV,2,2,06,24,68,019,,27,17,137,*68
$PQGSV,1,1,0,0*43
$PQGSV,1,1,02,12,59,341,,13,39,209,*67
$GPGSA,A,3,02,04,07,08,10,13,20,23,25,27,28,,0.9,0.6,0.7*3B
$GLGSA,A,3,71,72,77,78,86,87,88,,,,,,0.9,0.6,0.7*2B
$GPVTG,,T,,M,0.0,N,0.0,K,A*23
$GPDTM,P90,,0000.000022,S,00000.000001,W,0.988,W84*5A
$GPRMC,004207.00,A,3000.000620,N,11959.999449,E,0.0,,230721,4.3,W,A*08
$GPGGA,004207.00,3000.000620,N,11959.999449,E,1,12,0.6,-6.4,M,7.0,M,,*72

$GPGSV,3,1,11,02,35,277,32,04,38,223,32,07,68,033,32,08,65,222,32*71
$GPGSV,3,2,11,10,14,316,31,13,38,050,32,20,07,132,32,23,15,071,32*71
$GPGSV,3,3,11,25,47,036,31,27,33,229,32,28,12,172,31*48
$GLGSV,2,1,07,78,23,327,30,86,18,037,30,77,72,286,30,88,30,264,30*60
$GLGSV,2,2,07,87,54,341,30,71,07,061,30,72,07,112,29*57
$GAGSV,2,1,06,09,24,319,,10,78,327,,11,42,136,,17,17,042,*65
$GAGSV,2,2,06,24,68,019,,27,17,137,*68
$PQGSV,1,1,0,0*43
$PQGSV,1,1,02,12,59,341,,13,39,209,*67
$GPGSA,A,3,02,04,07,08,10,13,20,23,25,27,28,,0.9,0.6,0.7*3B
$GLGSA,A,3,71,72,77,78,86,87,88,,,,,,0.9,0.6,0.7*2B
$GPVTG,,T,,M,0.0,N,0.0,K,A*23
$GPDTM,P90,,0000.000022,S,00000.000001,W,0.988,W84*5A
$GPRMC,004208.00,A,3000.000608,N,11959.999459,E,0.0,,230721,4.3,W,A*0C
$GPGGA,004208.00,3000.000608,N,11959.999459,E,1,12,0.6,-6.4,M,7.0,M,,*76

$GPGSV,3,1,11,02,35,277,32,04,38,223,32,07,68,033,32,08,65,222,32*71
$GPGSV,3,2,11,10,14,316,31,13,38,050,32,20,07,132,32,23,15,071,32*71
$GPGSV,3,3,11,25,47,036,32,27,33,229,32,28,12,172,31*4B
$GLGSV,2,1,07,78,24,327,30,86,18,037,30,77,72,286,30,88,30,264,30*67
$GLGSV,2,2,07,87,54,341,30,71,07,061,30,72,07,112,29*57
$GAGSV,2,1,06,09,24,319,,10,78,327,,11,42,136,,17,17,042,*65
$GAGSV,2,2,06,24,68,019,,27,17,137,*68
$PQGSV,1,1,0,0*43
$PQGSV,1,1,02,12,59,341,,13,39,209,*67
$GPGSA,A,3,02,04,07,08,10,13,20,23,25,27,28,,0.9,0.6,0.7*3B
$GLGSA,A,3,71,72,77,78,86,87,88,,,,,,0.9,0.6,0.7*2B
$GPVTG,,T,,M,0.0,N,0.0,K,A*23
$GPDTM,P90,,0000.000022,S,00000.000001,W,0.988,W84*5A
$GPRMC,004209.00,A,3000.000596,N,11959.999474,E,0.0,,230721,4.3,W,A*06
$GPGGA,004209.00,3000.000596,N,11959.999474,E,1,12,0.6,-6.5,M,7.0,M,,*7D

$GPGSV,3,1,11,02,35,277,32,04,38,223,32,07,68,033,32,08,65,222,32*71
$GPGSV,3,2,11,10,14,316,31,13,38,050,32,20,07,132,32,23,15,071,32*71
$GPGSV,3,3,11,25,47,036,32,27,33,229,32,28,12,172,30*4A
$GLGSV,2,1,07,78,24,327,30,86,18,037,30,77,72,286,30,88,30,264,30*67
$GLGSV,2,2,07,87,54,341,30,71,07,061,30,72,07,112,30*5F
$GAGSV,2,1,06,09,24,319,,10,78,327,,11,42,136,,17,17,042,*65
$GAGSV,2,2,06,24,68,019,,27,17,137,*68
$PQGSV,1,1,0,0*43
$PQGSV,1,1,02,12,59,341,,13,39,209,*67
$GPGSA,A,3,02,04,07,08,10,13,20,23,25,27,28,,0.9,0.6,0.7*3B
$GLGSA,A,3,71,72,77,78,86,87,88,,,,,,0.9,0.6,0.7*2B
$GPVTG,,T,,M,0.0,N,0.0,K,A*23
$GPDTM,P90,,0000.000022,S,00000.000001,W,0.988,W84*5A
$GPRMC,004210.00,A,3000.000590,N,11959.999483,E,0.0,,230721,4.3,W,A*00
$GPGGA,004210.00,3000.000590,N,11959.999483,E,1,12,0.6,-6.5,M,7.0,M,,*7B

$GPGSV,3,1,11,02,35,277,32,04,38,223,32,07,68,033,32,08,65,222,32*71
$GPGSV,3,2,11,10,14,316,32,13,38,050,31,20,07,132,32,23,15,071,32*71
$GPGSV,3,3,11,25,47,036,32,27,33,229,32,28,12,172,31*4B
$GLGSV,2,1,07,78,24,327,30,86,18,037,30,77,72,286,30,88,30,264,30*67
$GLGSV,2,2,07,87,54,341,30,71,07,061,30,72,07,112,29*57
$GAGSV,2,1,06,09,24,319,,10,78,327,,11,42,136,,17,17,042,*65
$GAGSV,2,2,06,24,68,019,,27,17,137,*68
$PQGSV,1,1,0,0*43
$PQGSV,1,1,02,12,59,341,,13,39,209,*67
$GPGSA,A,3,02,04,07,08,10,13,20,23,25,27,28,,0.9,0.6,0.7*3B
$GLGSA,A,3,71,72,77,78,86,87,88,,,,,,0.9,0.6,0.7*2B
$GPVTG,,T,,M,0.0,N,0.0,K,A*23
$GPDTM,P90,,0000.000022,S,00000.000001,W,0.988,W84*5A
$GPRMC,004211.00,A,3000.000593,N,11959.999482,E,0.0,,230721,4.3,W,A*03
$GPGGA,004211.00,3000.000593,N,11959.999482,E,1,12,0.6,-6.5,M,7.0,M,,*78

$GPGSV,3,1,11,02,35,277,32,04,38,223,32,07,68,033,32,08,65,222,32*71
$GPGSV,3,2,11,10,14,316,31,13,38,050,32,20,07,132,32,23,15,071,32*71
$GPGSV,3,3,11,25,47,036,32,27,33,229,32,28,12,172,31*4B
$GLGSV,2,1,07,78,24,327,31,86,18,037,30,77,72,286,30,88,30,264,30*66
$GLGSV,2,2,07,87,54,341,30,71,07,061,31,72,07,112,29*56
$GAGSV,2,1,06,09,24,319,,10,78,327,,11,42,136,,17,17,042,*65
$GAGSV,2,2,06,24,68,019,,27,17,137,*68
$PQGSV,1,1,0,0*43
$PQGSV,1,1,02,12,59,341,,13,39,209,*67
$GPGSA,A,3,02,04,07,08,10,13,20,23,25,27,28,,0.9,0.6,0.7*3B
$GLGSA,A,3,71,72,77,78,86,87,88,,,,,,0.9,0.6,0.7*2B
$GPVTG,,T,,M,0.0,N,0.0,K,A*23
$GPDTM,P90,,0000.000022,S,00000.000001,W,0.988,W84*5A
$GPRMC,004212.00,A,3000.000594,N,11959.999477,E,0.0,,230721,4.3,W,A*0D
$GPGGA,004212.00,3000.000594,N,11959.999477,E,1,12,0.6,-6.5,M,7.0,M,,*76

$GPGSV,3,1,11,02,35,277,32,04,38,223,32,07,68,033,32,08,65,222,32*71
$GPGSV,3,2,11,10,14,316,31,13,38,050,32,20,07,132,31,23,15,071,32*72
$GPGSV,3,3,11,25,47,036,32,27,33,229,32,28,12,172,31*4B
$GLGSV,2,1,07,78,24,327,30,86,18,037,30,77,72,286,30,88,30,264,30*67
$GLGSV,2,2,07,87,54,341,31,71,07,061,30,72,07,112,30*5E
$GAGSV,2,1,06,09,24,319,,10,78,327,,11,42,136,,17,17,042,*65
$GAGSV,2,2,06,24,68,019,,27,17,137,*68
$PQGSV,1,1,0,0*43
$PQGSV,1,1,02,12,59,341,,13,39,209,*67
$GPGSA,A,3,02,04,07,08,10,13,20,23,25,27,28,,0.9,0.6,0.7*3B
$GLGSA,A,3,71,72,77,78,86,87,88,,,,,,0.9,0.6,0.7*2B
$GPVTG,,T,,M,0.0,N,0.0,K,A*23
$GPDTM,P90,,0000.000022,S,00000.000001,W,0.988,W84*5A
$GPRMC,004213.00,A,3000.000589,N,11959.999485,E,0.0,,230721,4.3,W,A*0D
$GPGGA,004213.00,3000.000589,N,11959.999485,E,1,12,0.6,-6.5,M,7.0,M,,*76

$GPGSV,3,1,11,02,35,277,32,04,38,223,32,07,68,033,32,08,65,222,32*71
$GPGSV,3,2,11,10,14,316,31,13,38,050,32,20,07,132,32,23,15,071,32*71
$GPGSV,3,3,11,25,47,036,32,27,33,229,32,28,12,172,31*4B
$GLGSV,2,1,07,78,24,327,30,86,18,037,29,77,72,286,30,88,30,264,31*6E
$GLGSV,2,2,07,87,54,341,31,71,07,061,30,72,07,112,29*56
$GAGSV,2,1,06,09,24,319,,10,78,327,,11,42,136,,17,17,042,*65
$GAGSV,2,2,06,24,68,019,,27,17,137,*68
$PQGSV,1,1,0,0*43
$PQGSV,1,1,02,12,59,341,,13,39,209,*67
$GPGSA,A,3,02,04,07,08,10,13,20,23,25,27,28,,0.9,0.6,0.7*3B
$GLGSA,A,3,71,72,77,78,86,87,88,,,,,,0.9,0.6,0.7*2B
$GPVTG,,T,,M,0.0,N,0.0,K,A*23
$GPDTM,P90,,0000.000022,S,00000.000001,W,0.988,W84*5A
$GPRMC,004214.00,A,3000.000583,N,11959.999489,E,0.0,,230721,4.3,W,A*0C
$GPGGA,004214.00,3000.000583,N,11959.999489,E,1,12,0.6,-6.5,M,7.0,M,,*77

$GPGSV,3,1,11,02,35,277,32,04,38,223,32,07,68,033,31,08,65,222,32*72
$GPGSV,3,2,11,10,14,316,31,13,38,050,32,20,07,132,32,23,15,071,32*71
$GPGSV,3,3,11,25,47,036,32,27,33,229,32,28,12,172,31*4B
$GLGSV,2,1,07,78,24,327,30,86,18,037,30,77,72,286,31,88,30,264,30*66
$GLGSV,2,2,07,87,54,341,30,71,07,061,30,72,07,112,29*57
$GAGSV,2,1,06,09,24,319,,10,78,327,,11,42,136,,17,17,042,*65
$GAGSV,2,2,06,24,68,019,,27,17,137,*68
$PQGSV,1,1,0,0*43
$PQGSV,1,1,02,12,59,341,,13,39,209,*67
$GPGSA,A,3,02,04,07,08,10,13,20,23,25,27,28,,0.9,0.6,0.7*3B
$GLGSA,A,3,71,72,77,78,86,87,88,,,,,,0.9,0.6,0.7*2B
$GPVTG,,T,,M,0.0,N,0.0,K,A*23
$GPDTM,P90,,0000.000022,S,00000.000001,W,0.988,W84*5A
$GPRMC,004215.00,A,3000.000581,N,11959.999491,E,0.0,,230721,4.3,W,A*06
$GPGGA,004215.00,3000.000581,N,11959.999491,E,1,12,0.6,-6.5,M,7.0,M,,*7D

$GPGSV,3,1,11,02,35,277,31,04,38,223,32,07,68,033,32,08,65,222,32*72
$GPGSV,3,2,11,10,14,316,31,13,38,050,32,20,07,132,32,23,15,071,32*71
$GPGSV,3,3,11,25,47,036,32,27,33,229,32,28,12,172,31*4B
$GLGSV,2,1,07,78,24,327,30,86,18,037,30,77,72,286,30,88,30,264,30*67
$GLGSV,2,2,07,87,54,341,30,71,07,061,30,72,07,112,29*57
$GAGSV,2,1,06,09,24,319,,10,78,327,,11,42,136,,17,17,042,*65
$GAGSV,2,2,06,24,68,019,,27,17,137,*68
$PQGSV,1,1,0,0*43
$PQGSV,1,1,02,12,59,341,,13,39,209,*67
$GPGSA,A,3,02,04,07,08,10,13,20,23,25,27,28,,0.9,0.6,0.7*3B
$GLGSA,A,3,71,72,77,78,86,87,88,,,,,,0.9,0.6,0.7*2B
$GPVTG,,T,,M,0.0,N,0.0,K,A*23
$GPDTM,P90,,0000.000022,S,00000.000001,W,0.988,W84*5A
$GPRMC,004216.00,A,3000.000583,N,11959.999488,E,0.0,,230721,4.3,W,A*0F
$GPGGA,004216.00,3000.000583,N,11959.999488,E,1,12,0.6,-6.5,M,7.0,M,,*74

$GPGSV,3,1,11,02,35,277,32,04,38,223,32,07,68,033,32,08,65,222,31*72
$GPGSV,3,2,11,10,14,316,31,13,38,050,32,20,07,132,32,23,15,071,32*71
$GPGSV,3,3,11,25,47,036,31,27,33,229,32,28,12,172,31*48
$GLGSV,2,1,07,78,24,327,31,86,18,037,30,77,72,286,30,88,30,264,30*66
$GLGSV,2,2,07,87,54,341,30,71,07,061,30,72,07,112,30*5F
$GAGSV,2,1,06,09,24,319,,10,78,327,,11,42,136,,17,17,042,*65
$GAGSV,2,2,06,24,68,019,,27,17,137,*68
$PQGSV,1,1,0,0*43
$PQGSV,1,1,02,12,59,341,,13,39,209,*67
$GPGSA,A,3,02,04,07,08,10,13,20,23,25,27,28,,0.9,0.6,0.7*3B
$GLGSA,A,3,71,72,77,78,86,87,88,,,,,,0.9,0.6,0.7*2B
$GPVTG,,T,,M,0.0,N,0.0,K,A*23
$GPDTM,P90,,0000.000022,S,00000.000001,W,0.988,W84*5A
$GPRMC,004217.00,A,3000.000581,N,11959.999489,E,0.0,,230721,4.3,W,A*0D
$GPGGA,004217.00,3000.000581,N,11959.999489,E,1,12,0.6,-6.5,M,7.0,M,,*76

$GPGSV,3,1,11,02,35,277,32,04,38,223,32,07,68,033,32,08,65,222,32*71
$GPGSV,3,2,11,10,14,316,31,13,38,050,32,20,07,132,32,23,15,071,32*71
$GPGSV,3,3,11,25,47,036,32,27,33,229,32,28,12,172,31*4B
$GLGSV,2,1,07,78,24,327,30,86,18,037,29,77,72,286,30,88,30,264,30*6F
$GLGSV,2,2,07,87,54,341,30,71,07,061,30,72,07,112,29*57
$GAGSV,2,1,06,09,24,319,,10,78,327,,11,42,136,,17,17,042,*65
$GAGSV,2,2,06,24,68,019,,27,17,137,*68
$PQGSV,1,1,0,0*43
$PQGSV,1,1,02,12,59,341,,13,39,209,*67
$GPGSA,A,3,02,04,07,08,10,13,20,23,25,27,28,,0.9,0.6,0.7*3B
$GLGSA,A,3,71,72,77,78,86,87,88,,,,,,0.9,0.6,0.7*2B
$GPVTG,,T,,M,0.0,N,0.0,K,A*23
$GPDTM,P90,,0000.000022,S,00000.000001,W,0.988,W84*5A
$GPRMC,004218.00,A,3000.000578,N,11959.999492,E,0.0,,230721,4.3,W,A*0E
$GPGGA,004218.00,3000.000578,N,11959.999492,E,1,12,0.6,-6.5,M,7.0,M,,*75

$GPGSV,3,1,11,02,35,277,32,04,38,223,32,07,68,033,32,08,65,222,32*71
$GPGSV,3,2,11,10,14,316,31,13,38,050,32,20,07,132,31,23,15,071,31*71
$GPGSV,3,3,11,25,47,036,32,27,33,229,32,28,12,172,31*4B
$GLGSV,2,1,07,78,24,327,30,86,18,037,30,77,72,286,30,88,30,264,30*67
$GLGSV,2,2,07,87,54,341,30,71,07,061,30,72,07,112,30*5F
$GAGSV,2,1,06,09,24,319,,10,78,327,,11,42,136,,17,17,042,*65
$GAGSV,2,2,06,24,68,019,,27,17,137,*68
$PQGSV,1,1,0,0*43
$PQGSV,1,1,02,12,59,341,,13,39,209,*67
$GPGSA,A,3,02,04,07,08,10,13,20,23,25,27,28,,0.9,0.6,0.7*3B
$GLGSA,A,3,71,72,77,78,86,87,88,,,,,,0.9,0.6,0.7*2B
$GPVTG,,T,,M,0.0,N,0.0,K,A*23
$GPDTM,P90,,0000.000022,S,00000.000001,W,0.988,W84*5A
$GPRMC,004219.00,A,3000.000575,N,11959.999495,E,0.0,,230721,4.3,W,A*05
$GPGGA,004219.00,3000.000575,N,11959.999495,E,1,12,0.6,-6.5,M,7.0,M,,*7E

$GPGSV,3,1,11,02,35,277,32,04,38,223,32,07,68,033,32,08,65,222,32*71
$GPGSV,3,2,11,10,14,316,31,13,38,050,32,20,07,132,32,23,15,071,32*71
$GPGSV,3,3,11,25,47,036,32,27,33,229,32,28,12,172,31*4B
$GLGSV,2,1,07,78,24,327,31,86,18,037,31,77,72,286,31,88,30,264,30*66
$GLGSV,2,2,07,87,54,341,30,71,07,061,30,72,07,112,29*57
$GAGSV,2,1,06,09,24,319,,10,78,327,,11,42,136,,17,17,042,*65
$GAGSV,2,2,06,24,68,019,,27,17,137,*68
$PQGSV,1,1,0,0*43
$PQGSV,1,1,02,12,59,341,,13,39,209,*67
$GPGSA,A,3,02,04,07,08,10,13,20,23,25,27,28,,0.9,0.6,0.7*3B
$GLGSA,A,3,71,72,77,78,86,87,88,,,,,,0.9,0.6,0.7*2B
$GPVTG,,T,,M,0.0,N,0.0,K,A*23
$GPDTM,P90,,0000.000022,S,00000.000001,W,0.988,W84*5A
$GPRMC,004220.00,A,3000.000575,N,11959.999495,E,0.0,,230721,4.3,W,A*0F
$GPGGA,004220.00,3000.000575,N,11959.999495,E,1,12,0.6,-6.5,M,7.0,M,,*74

$GPGSV,3,1,11,02,35,277,31,04,38,223,32,07,68,033,32,08,65,222,32*72
$GPGSV,3,2,11,10,14,316,30,13,38,050,32,20,07,132,32,23,15,071,32*70
$GPGSV,3,3,11,25,47,036,32,27,33,229,32,28,12,172,31*4B
$GLGSV,2,1,07,78,24,327,30,86,18,037,30,77,72,286,29,88,30,264,30*6F
$GLGSV,2,2,07,87,54,341,30,71,07,061,30,72,07,112,30*5F
$GAGSV,2,1,06,09,24,319,,10,78,327,,11,42,136,,17,17,042,*65
$GAGSV,2,2,06,24,68,019,,27,17,137,*68
$PQGSV,1,1,0,0*43
$PQGSV,1,1,02,12,59,341,,13,39,209,*67
$GPGSA,A,3,02,04,07,08,10,13,20,23,25,27,28,,0.9,0.6,0.7*3B
$GLGSA,A,3,71,72,77,78,86,87,88,,,,,,0.9,0.6,0.7*2B
$GPVTG,,T,,M,0.0,N,0.0,K,A*23
$GPDTM,P90,,0000.000022,S,00000.000001,W,0.988,W84*5A
$GPRMC,004221.00,A,3000.000574,N,11959.999498,E,0.0,,230721,4.3,W,A*02
$GPGGA,004221.00,3000.000574,N,11959.999498,E,1,12,0.6,-6.5,M,7.0,M,,*79

$GPGSV,3,1,11,02,35,277,32,04,38,223,32,07,68,033,32,08,65,222,31*72
$GPGSV,3,2,11,10,14,316,31,13,38,050,32,20,07,132,32,23,15,071,32*71
$GPGSV,3,3,11,25,47,036,32,27,33,229,32,28,12,172,31*4B
$GLGSV,2,1,07,78,24,327,30,86,18,037,30,77,72,286,30,88,30,264,30*67
$GLGSV,2,2,07,87,54,341,30,71,07,061,30,72,07,112,29*57
$GAGSV,2,1,06,09,24,319,,10,78,327,,11,42,136,,17,17,042,*65
$GAGSV,2,2,06,24,68,019,,27,17,137,*68
$PQGSV,1,1,0,0*43
$PQGSV,1,1,02,12,59,341,,13,39,209,*67
$GPGSA,A,3,02,04,07,08,10,13,20,23,25,27,28,,0.9,0.6,0.7*3B
$GLGSA,A,3,71,72,77,78,86,87,88,,,,,,0.9,0.6,0.7*2B
$GPVTG,,T,,M,0.0,N,0.0,K,A*23
$GPDTM,P90,,0000.000022,S,00000.000001,W,0.988,W84*5A
$GPRMC,004222.00,A,3000.000571,N,11959.999500,E,0.0,,230721,4.3,W,A*04
$GPGGA,004222.00,3000.000571,N,11959.999500,E,1,12,0.6,-6.6,M,7.0,M,,*7C

$GPGSV,3,1,11,02,35,277,32,04,38,223,32,07,68,033,32,08,65,222,32*71
$GPGSV,3,2,11,10,14,316,31,13,38,050,32,20,07,132,32,23,15,071,32*71
$GPGSV,3,3,11,25,47,036,32,27,33,229,32,28,12,172,31*4B
$GLGSV,2,1,07,78,24,327,30,86,18,037,30,77,72,286,30,88,30,264,29*6F
$GLGSV,2,2,07,87,54,341,30,71,07,061,30,72,07,112,29*57
$GAGSV,2,1,06,09,24,319,,10,78,327,,11,42,136,,17,17,042,*65
$GAGSV,2,2,06,24,68,019,,27,17,137,*68
$PQGSV,1,1,0,0*43
$PQGSV,1,1,02,12,59,341,,13,39,209,*67
$GPGSA,A,3,02,04,07,08,10,13,20,23,25,27,28,,0.9,0.6,0.7*3B
$GLGSA,A,3,71,72,77,78,86,87,88,,,,,,0.9,0.6,0.7*2B
$GPVTG,,T,,M,0.0,N,0.0,K,A*23
$GPDTM,P90,,0000.000022,S,00000.000001,W,0.988,W84*5A
$GPRMC,004223.00,A,3000.000572,N,11959.999501,E,0.0,,230721,4.3,W,A*07
$GPGGA,004223.00,3000.000572,N,11959.999501,E,1,12,0.6,-6.6,M,7.0,M,,*7F

$GPGSV,3,1,11,02,35,277,32,04,38,223,32,07,68,033,32,08,65,222,32*71
$GPGSV,3,2,11,10,14,316,31,13,38,050,32,20,07,132,32,23,15,071,32*71
$GPGSV,3,3,11,25,47,036,31,27,33,229,32,28,12,172,31*48
$GLGSV,2,1,07,78,24,327,30,86,18,037,29,77,72,286,30,88,30,264,30*6F
$GLGSV,2,2,07,87,54,341,30,71,07,061,31,72,07,112,30*5E
$GAGSV,2,1,06,09,24,319,,10,78,327,,11,42,136,,17,17,042,*65
$GAGSV,2,2,06,24,68,019,,27,17,137,*68
$PQGSV,1,1,0,0*43
$PQGSV,1,1,02,12,59,341,,13,39,209,*67
$GPGSA,A,3,02,04,07,08,10,13,20,23,25,27,28,,0.9,0.6,0.7*3B
$GLGSA,A,3,71,72,77,78,86,87,88,,,,,,0.9,0.6,0.7*2B
$GPVTG,,T,,M,0.0,N,0.0,K,A*23
$GPDTM,P90,,0000.000022,S,00000.000001,W,0.988,W84*5A
$GPRMC,004224.00,A,3000.000569,N,11959.999501,E,0.0,,230721,4.3,W,A*0A
$GPGGA,004224.00,3000.000569,N,11959.999501,E,1,12,0.6,-6.6,M,7.0,M,,*72

$GPGSV,3,1,11,02,35,277,32,04,38,223,32,07,68,033,32,08,65,222,32*71
$GPGSV,3,2,11,10,14,316,31,13,38,050,32,20,07,132,32,23,15,071,32*71
$GPGSV,3,3,11,25,47,036,32,27,33,229,32,28,12,172,30*4A
$GLGSV,2,1,07,78,24,327,30,86,18,037,30,77,72,286,30,88,30,264,30*67
$GLGSV,2,2,07,87,54,341,29,71,07,061,30,72,07,112,29*5F
$GAGSV,2,1,06,09,24,319,,10,78,327,,11,42,136,,17,17,042,*65
$GAGSV,2,2,06,24,68,019,,27,17,137,*68
$PQGSV,1,1,0,0*43
$PQGSV,1,1,02,12,59,341,,13,39,209,*67
$GPGSA,A,3,02,04,07,08,10,13,20,23,25,27,28,,0.9,0.6,0.7*3B
$GLGSA,A,3,71,72,77,78,86,87,88,,,,,,0.9,0.6,0.7*2B
$GPVTG,,T,,M,0.0,N,0.0,K,A*23
$GPDTM,P90,,0000.000022,S,00000.000001,W,0.988,W84*5A
$GPRMC,004225.00,A,3000.000568,N,11959.999503,E,0.0,,230721,4.3,W,A*08
$GPGGA,004225.00,3000.000568,N,11959.999503,E,1,12,0.6,-6.6,M,7.0,M,,*70

$GPGSV,3,1,11,02,35,277,32,04,38,223,32,07,68,033,32,08,65,222,31*72
$GPGSV,3,2,11,10,14,316,30,13,38,050,32,20,07,132,32,23,15,071,32*70
$GPGSV,3,3,11,25,47,036,32,27,33,229,32,28,12,172,31*4B
$GLGSV,2,1,07,78,24,327,31,86,18,037,30,77,72,286,30,88,30,264,30*66
$GLGSV,2,2,07,87,54,341,30,71,07,061,31,72,07,112,29*56
$GAGSV,2,1,06,09,24,319,,10,78,327,,11,42,136,,17,17,042,*65
$GAGSV,2,2,06,24,68,019,,27,17,137,*68
$PQGSV,1,1,0,0*43
$PQGSV,1,1,02,12,59,341,,13,39,209,*67
$GPGSA,A,3,02,04,07,08,10,13,20,23,25,27,28,,0.9,0.6,0.7*3B
$GLGSA,A,3,71,72,77,78,86,87,88,,,,,,0.9,0.6,0.7*2B
$GPVTG,,T,,M,0.0,N,0.0,K,A*23
$GPDTM,P90,,0000.000022,S,00000.000001,W,0.988,W84*5A
$GPRMC,004226.00,A,3000.000566,N,11959.999504,E,0.0,,230721,4.3,W,A*02
$GPGGA,004226.00,3000.000566,N,11959.999504,E,1,12,0.6,-6.6,M,7.0,M,,*7A

$GPGSV,3,1,11,02,35,277,32,04,38,223,32,07,68,033,32,08,65,222,32*71
$GPGSV,3,2,11,10,14,316,31,13,38,050,32,20,07,132,32,23,15,071,32*71
$GPGSV,3,3,11,25,47,036,32,27,33,229,32,28,12,172,31*4B
$GLGSV,2,1,07,78,24,327,30,86,18,037,30,77,72,286,30,88,30,264,30*67
$GLGSV,2,2,07,87,54,341,30,71,07,061,30,72,07,112,30*5F
$GAGSV,2,1,06,09,24,319,,10,78,327,,11,42,136,,17,17,042,*65
$GAGSV,2,2,06,24,68,019,,27,17,137,*68
$PQGSV,1,1,0,0*43
$PQGSV,1,1,02,12,59,341,,13,39,209,*67
$GPGSA,A,3,02,04,07,08,10,13,20,23,25,27,28,,0.9,0.6,0.7*3B
$GLGSA,A,3,71,72,77,78,86,87,88,,,,,,0.9,0.6,0.7*2B
$GPVTG,,T,,M,0.0,N,0.0,K,A*23
$GPDTM,P90,,0000.000022,S,00000.000001,W,0.988,W84*5A
$GPRMC,004227.00,A,3000.000562,N,11959.999506,E,0.0,,230721,4.3,W,A*05
$GPGGA,004227.00,3000.000562,N,11959.999506,E,1,12,0.6,-6.6,M,7.0,M,,*7D

$GPGSV,3,1,11,02,35,277,32,04,38,223,31,07,68,033,32,08,65,222,32*72
$GPGSV,3,2,11,10,14,316,31,13,38,050,32,20,07,132,32,23,15,071,32*71
$GPGSV,3,3,11,25,47,036,32,27,33,229,32,28,12,172,31*4B
$GLGSV,2,1,07,78,24,327,30,86,18,037,30,77,72,286,31,88,30,264,30*66
$GLGSV,2,2,07,87,54,341,30,71,07,061,30,72,07,112,29*57
$GAGSV,2,1,06,09,24,319,,10,78,327,,11,42,136,,17,17,042,*65
$GAGSV,2,2,06,24,68,019,,27,17,137,*68
$PQGSV,1,1,0,0*43
$PQGSV,1,1,02,12,59,341,,13,39,209,*67
$GPGSA,A,3,02,04,07,08,10,13,20,23,25,27,28,,0.9,0.6,0.7*3B
$GLGSA,A,3,71,72,77,78,86,87,88,,,,,,0.9,0.6,0.7*2B
$GPVTG,,T,,M,0.0,N,0.0,K,A*23
$GPDTM,P90,,0000.000022,S,00000.000001,W,0.988,W84*5A
$GPRMC,004228.00,A,3000.000561,N,11959.999506,E,0.0,,230721,4.3,W,A*09
$GPGGA,004228.00,3000.000561,N,11959.999506,E,1,12,0.6,-6.6,M,7.0,M,,*71

$GPGSV,3,1,11,02,35,277,32,04,38,223,32,07,68,033,32,08,65,222,32*71
$GPGSV,3,2,11,10,14,316,31,13,38,050,32,20,07,132,32,23,15,071,32*71
$GPGSV,3,3,11,25,47,036,32,27,33,229,32,28,12,172,31*4B
$GLGSV,2,1,07,78,24,327,30,86,18,037,30,77,72,286,30,88,30,264,30*67
$GLGSV,2,2,07,87,54,341,30,71,07,061,30,72,07,112,29*57
$GAGSV,2,1,06,09,24,319,,10,78,327,,11,42,136,,17,17,042,*65
$GAGSV,2,2,06,24,68,019,,27,17,137,*68
$PQGSV,1,1,0,0*43
$PQGSV,1,1,02,12,59,341,,13,39,209,*67
$GPGSA,A,3,02,04,07,08,10,13,20,23,25,27,28,,0.9,0.6,0.7*3B
$GLGSA,A,3,71,72,77,78,86,87,88,,,,,,0.9,0.6,0.7*2B
$GPVTG,,T,,M,0.0,N,0.0,K,A*23
$GPDTM,P90,,0000.000022,S,00000.000001,W,0.988,W84*5A
$GPRMC,004229.00,A,3000.000559,N,11959.999507,E,0.0,,230721,4.3,W,A*02
$GPGGA,004229.00,3000.000559,N,11959.999507,E,1,12,0.6,-6.6,M,7.0,M,,*7A

$GPGSV,3,1,11,02,35,277,32,04,38,223,32,07,68,033,32,08,65,222,32*71
$GPGSV,3,2,11,10,14,316,31,13,38,050,31,20,07,132,32,23,15,071,32*72
$GPGSV,3,3,11,25,47,036,32,27,33,229,32,28,12,172,31*4B
$GLGSV,2,1,07,78,24,327,30,86,18,037,30,77,72,286,30,88,30,264,30*67
$GLGSV,2,2,07,87,54,341,30,71,07,061,30,72,07,112,29*57
$GAGSV,2,1,06,09,24,319,,10,78,327,,11,42,136,,17,17,042,*65
$GAGSV,2,2,06,24,68,019,,27,17,137,*68
$PQGSV,1,1,0,0*43
$PQGSV,1,1,02,12,59,341,,13,39,209,*67
$GPGSA,A,3,02,04,07,08,10,13,20,23,25,27,28,,0.9,0.6,0.7*3B
$GLGSA,A,3,71,72,77,78,86,87,88,,,,,,0.9,0.6,0.7*2B
$GPVTG,,T,,M,0.0,N,0.0,K,A*23
$GPDTM,P90,,0000.000022,S,00000.000001,W,0.988,W84*5A
$GPRMC,004230.00,A,3000.000557,N,11959.999508,E,0.0,,230721,4.3,W,A*0B
$GPGGA,004230.00,3000.000557,N,11959.999508,E,1,12,0.6,-6.6,M,7.0,M,,*73

$GPGSV,3,1,11,02,35,277,32,04,38,223,32,07,68,033,32,08,65,222,32*71
$GPGSV,3,2,11,10,14,316,30,13,38,050,32,20,07,132,32,23,15,071,32*70
$GPGSV,3,3,11,25,47,036,32,27,33,229,32,28,12,172,31*4B
$GLGSV,2,1,07,78,24,327,30,86,18,037,30,77,72,286,30,88,30,264,30*67
$GLGSV,2,2,07,87,54,341,31,71,07,061,30,72,07,112,29*56
$GAGSV,2,1,06,09,24,319,,10,78,327,,11,42,136,,17,17,042,*65
$GAGSV,2,2,06,24,68,019,,27,17,137,*68
$PQGSV,1,1,0,0*43
$PQGSV,1,1,02,12,59,341,,13,39,209,*67
$GPGSA,A,3,02,04,07,08,10,13,20,23,25,27,28,,0.9,0.6,0.7*3B
$GLGSA,A,3,71,72,77,78,86,87,88,,,,,,0.9,0.6,0.7*2B
$GPVTG,,T,,M,0.0,N,0.0,K,A*23
$GPDTM,P90,,0000.000022,S,00000.000001,W,0.988,W84*5A
$GPRMC,004231.00,A,3000.000557,N,11959.999509,E,0.0,,230721,4.3,W,A*0B
$GPGGA,004231.00,3000.000557,N,11959.999509,E,1,12,0.6,-6.6,M,7.0,M,,*73

$GPGSV,3,1,11,02,35,277,32,04,38,223,32,07,68,033,32,08,65,222,32*71
$GPGSV,3,2,11,10,14,316,31,13,38,050,32,20,07,132,32,23,15,071,32*71
$GPGSV,3,3,11,25,47,036,32,27,33,229,32,28,12,172,31*4B
$GLGSV,2,1,07,78,24,327,31,86,18,037,30,77,72,286,31,88,30,264,30*67
$GLGSV,2,2,07,87,54,341,30,71,07,061,30,72,07,112,30*5F
$GAGSV,2,1,06,09,24,319,,10,78,327,,11,42,136,,17,17,042,*65
$GAGSV,2,2,06,24,68,019,,27,17,137,*68
$PQGSV,1,1,0,0*43
$PQGSV,1,1,02,12,59,341,,13,39,209,*67
$GPGSA,A,3,02,04,07,08,10,13,20,23,25,27,28,,0.9,0.6,0.7*3B
$GLGSA,A,3,71,72,77,78,86,87,88,,,,,,0.9,0.6,0.7*2B
$GPVTG,,T,,M,0.0,N,0.0,K,A*23
$GPDTM,P90,,0000.000022,S,00000.000001,W,0.988,W84*5A
$GPRMC,004232.00,A,3000.000557,N,11959.999507,E,0.0,,230721,4.3,W,A*06
$GPGGA,004232.00,3000.000557,N,11959.999507,E,1,12,0.6,-6.6,M,7.0,M,,*7E

$GPGSV,3,1,11,02,35,277,32,04,38,223,32,07,68,033,32,08,65,222,32*71
$GPGSV,3,2,11,10,14,316,30,13,38,050,32,20,07,132,32,23,15,071,32*70
$GPGSV,3,3,11,25,47,036,32,27,33,229,32,28,12,172,31*4B
$GLGSV,2,1,07,78,24,327,31,86,18,037,30,77,72,286,30,88,30,264,30*66
$GLGSV,2,2,07,87,54,341,31,71,07,061,30,72,07,112,29*56
$GAGSV,2,1,06,09,24,319,,10,78,327,,11,42,136,,17,17,042,*65
$GAGSV,2,2,06,24,68,019,,27,17,137,*68
$PQGSV,1,1,0,0*43
$PQGSV,1,1,02,12,59,341,,13,39,209,*67
$GPGSA,A,3,02,04,07,08,10,13,20,23,25,27,28,,0.9,0.6,0.7*3B
$GLGSA,A,3,71,72,77,78,86,87,88,,,,,,0.9,0.6,0.7*2B
$GPVTG,,T,,M,0.0,N,0.0,K,A*23
$GPDTM,P90,,0000.000022,S,00000.000001,W,0.988,W84*5A
$GPRMC,004233.00,A,3000.000555,N,11959.999506,E,0.0,,230721,4.3,W,A*04
$GPGGA,004233.00,3000.000555,N,11959.999506,E,1,12,0.6,-6.6,M,7.0,M,,*7C

$GPGSV,3,1,11,02,35,277,32,04,38,223,32,07,68,033,32,08,65,222,32*71
$GPGSV,3,2,11,10,14,316,31,13,38,050,32,20,07,132,32,23,15,071,31*72
$GPGSV,3,3,11,25,47,036,32,27,33,229,32,28,12,172,31*4B
$GLGSV,2,1,07,78,24,327,29,86,18,037,30,77,72,286,30,88,30,264,30*6F
$GLGSV,2,2,07,87,54,341,30,71,07,061,30,72,07,112,29*57
$GAGSV,2,1,06,09,24,319,,10,78,327,,11,42,136,,17,17,042,*65
$GAGSV,2,2,06,24,68,019,,27,17,137,*68
$PQGSV,1,1,0,0*43
$PQGSV,1,1,02,12,59,341,,13,39,209,*67
$GPGSA,A,3,02,04,07,08,10,13,20,23,25,27,28,,0.9,0.6,0.7*3B
$GLGSA,A,3,71,72,77,78,86,87,88,,,,,,0.9,0.6,0.7*2B
$GPVTG,,T,,M,0.0,N,0.0,K,A*23
$GPDTM,P90,,0000.000022,S,00000.000001,W,0.988,W84*5A
$GPRMC,004234.00,A,3000.000555,N,11959.999506,E,0.0,,230721,4.3,W,A*03
$GPGGA,004234.00,3000.000555,N,11959.999506,E,1,12,0.6,-6.6,M,7.0,M,,*7B

$GPGSV,3,1,11,02,35,277,32,04,38,223,32,07,68,033,32,08,65,222,31*72
$GPGSV,3,2,11,10,14,316,31,13,38,050,32,20,07,132,32,23,15,071,32*71
$GPGSV,3,3,11,25,47,036,32,27,33,229,31,28,12,172,31*48
$GLGSV,2,1,07,78,24,327,30,86,18,037,30,77,72,286,30,88,30,264,30*67
$GLGSV,2,2,07,87,54,341,30,71,07,061,31,72,07,112,29*56
$GAGSV,2,1,06,09,24,319,,10,78,327,,11,42,136,,17,17,042,*65
$GAGSV,2,2,06,24,68,019,,27,17,137,*68
$PQGSV,1,1,0,0*43
$PQGSV,1,1,02,12,59,341,,13,39,209,*67
$GPGSA,A,3,02,04,07,08,10,13,20,23,25,27,28,,0.9,0.6,0.7*3B
$GLGSA,A,3,71,72,77,78,86,87,88,,,,,,0.9,0.6,0.7*2B
$GPVTG,,T,,M,0.0,N,0.0,K,A*23
$GPDTM,P90,,0000.000022,S,00000.000001,W,0.988,W84*5A
$GPRMC,004235.00,A,3000.000554,N,11959.999506,E,0.0,,230721,4.3,W,A*03
$GPGGA,004235.00,3000.000554,N,11959.999506,E,1,12,0.6,-6.6,M,7.0,M,,*7B

$GPGSV,3,1,11,02,35,277,32,04,38,223,32,07,68,033,32,08,65,222,31*72
$GPGSV,3,2,11,10,14,316,31,13,38,050,32,20,07,132,32,23,15,071,32*71
$GPGSV,3,3,11,25,47,036,32,27,33,229,32,28,12,172,31*4B
$GLGSV,2,1,07,78,24,327,31,86,18,037,30,77,72,286,30,88,30,264,30*66
$GLGSV,2,2,07,87,54,341,30,71,07,061,30,72,07,112,29*57
$GAGSV,2,1,06,09,24,319,,10,78,327,,11,42,136,,17,17,042,*65
$GAGSV,2,2,06,24,68,019,,27,17,137,*68
$PQGSV,1,1,0,0*43
