$GPVTG,,T,,M,0.0,N,0.0,K,A*23
$GPDTM,P90,,0000.000022,S,00000.000001,W,0.988,W84*5A
$GPRMC,001630.40,A,3000.002888,N,11959.999362,E,0.0,,230721,4.3,W,A*09
$GPGGA,001630.40,3000.002888,N,11959.999362,E,1,00,1.2,-25.1,M,7.0,M,,*41

$GPVTG,,T,,M,0.0,N,0.0,K,A*23
$GPDTM,P90,,0000.000022,S,00000.000001,W,0.988,W84*5A
$GPRMC,001630.50,A,3000.002888,N,11959.999362,E,0.0,,230721,4.3,W,A*08
$GPGGA,001630.50,3000.002888,N,11959.999362,E,1,00,1.2,-25.1,M,7.0,M,,*40

$GPVTG,,T,,M,0.0,N,0.0,K,A*23
$GPDTM,P90,,0000.000022,S,00000.000001,W,0.988,W84*5A
$GPRMC,001630.60,A,3000.002888,N,11959.999362,E,0.0,,230721,4.3,W,A*0B
$GPGGA,001630.60,3000.002888,N,11959.999362,E,1,00,1.2,-25.1,M,7.0,M,,*43

$GPVTG,,T,,M,0.0,N,0.0,K,A*23
$GPDTM,P90,,0000.000022,S,00000.000001,W,0.988,W84*5A
$GPRMC,001630.70,A,3000.002888,N,11959.999362,E,0.0,,230721,4.3,W,A*0A
$GPGGA,001630.70,3000.002888,N,11959.999362,E,1,00,1.2,-25.1,M,7.0,M,,*42

$GPVTG,,T,,M,0.0,N,0.0,K,A*23
$GPDTM,P90,,0000.000022,S,00000.000001,W,0.988,W84*5A
$GPRMC,001630.80,A,3000.002888,N,11959.999362,E,0.0,,230721,4.3,W,A*05
$GPGGA,001630.80,3000.002888,N,11959.999362,E,1,00,1.2,-25.1,M,7.0,M,,*4D

$GPVTG,,T,,M,0.0,N,0.0,K,A*23
$GPDTM,P90,,0000.000022,S,00000.000001,W,0.988,W84*5A
$GPRMC,001630.90,A,3000.002888,N,11959.999362,E,0.0,,230721,4.3,W,A*04
$GPGGA,001630.90,3000.002888,N,11959.999362,E,1,00,1.2,-25.1,M,7.0,M,,*4C

$GPGSV,3,1,10,02,34,291,26,04,46,236,26,07,00,000,27,08,20,066,26*78
$GPGSV,3,2,10,13,45,037,26,20,16,125,26,23,22,061,27,25,00,000,26*7D
$GPGSV,3,3,10,27,00,000,25,30,45,251,*7E
$GLGSV,1,1,02,71,04,075,,72,00,000,*62
$GAGSV,1,1,0,7*43
$PQGSV,1,1,0,0*43
$PQGSV,1,1,02,12,61,320,,13,35,202,*6C
$GPGSA,A,3,02,04,13,20,23,,,,,,,,1.6,1.2,1.0*30
$GPVTG,,T,,M,0.0,N,0.0,K,A*23
$GPDTM,P90,,0000.000022,S,00000.000001,W,0.988,W84*5A
$GPRMC,001631.00,A,3000.002897,N,11959.999354,E,0.0,,230721,4.3,W,A*07
$GPGGA,001631.00,3000.002897,N,11959.999354,E,1,05,1.2,-25.2,M,7.0,M,,*49

$GPVTG,,T,,M,0.0,N,0.0,K,A*23
$GPDTM,P90,,0000.000022,S,00000.000001,W,0.988,W84*5A
$GPRMC,001631.10,A,3000.002897,N,11959.999354,E,0.0,,230721,4.3,W,A*06
$GPGGA,001631.10,3000.002897,N,11959.999354,E,1,00,1.2,-25.2,M,7.0,M,,*4D

$GPVTG,,T,,M,0.0,N,0.0,K,A*23
$GPDTM,P90,,0000.000022,S,00000.000001,W,0.988,W84*5A
$GPRMC,001631.20,A,3000.002897,N,11959.999354,E,0.0,,230721,4.3,W,A*05
$GPGGA,001631.20,3000.002897,N,11959.999354,E,1,00,1.2,-25.2,M,7.0,M,,*4E

$GPVTG,,T,,M,0.0,N,0.0,K,A*23
$GPDTM,P90,,0000.000022,S,00000.000001,W,0.988,W84*5A
$GPRMC,001631.30,A,3000.002897,N,11959.999354,E,0.0,,230721,4.3,W,A*04
$GPGGA,001631.30,3000.002897,N,11959.999354,E,1,00,1.2,-25.2,M,7.0,M,,*4F
$GPVTG,,T,,M,0.0,N,0.0,K,A*23
$GPDTM,P90,,0000.000022,S,00000.000001,W,0.988,W84*5A
$GPRMC,001631.40,A,3000.002897,N,11959.999354,E,0.0,,230721,4.3,W,A*03
$GPGGA,001631.40,3000.002897,N,11959.999354,E,1,00,1.2,-25.2,M,7.0,M,,*48

$GPVTG,,T,,M,0.0,N,0.0,K,A*23
$GPDTM,P90,,0000.000022,S,00000.000001,W,0.988,W84*5A
$GPRMC,001631.50,A,3000.002897,N,11959.999354,E,0.0,,230721,4.3,W,A*02
$GPGGA,001631.50,3000.002897,N,11959.999354,E,1,00,1.2,-25.2,M,7.0,M,,*49

$GPVTG,,T,,M,0.0,N,0.0,K,A*23
$GPDTM,P90,,0000.000022,S,00000.000001,W,0.988,W84*5A
$GPRMC,001631.60,A,3000.002897,N,11959.999354,E,0.0,,230721,4.3,W,A*01
$GPGGA,001631.60,3000.002897,N,11959.999354,E,1,00,1.2,-25.2,M,7.0,M,,*4A

$GPVTG,,T,,M,0.0,N,0.0,K,A*23
$GPDTM,P90,,0000.000022,S,00000.000001,W,0.988,W84*5A
$GPRMC,001631.70,A,3000.002897,N,11959.999354,E,0.0,,230721,4.3,W,A*00
$GPGGA,001631.70,3000.002897,N,11959.999354,E,1,00,1.2,-25.2,M,7.0,M,,*4B

$GPVTG,,T,,M,0.0,N,0.0,K,A*23
$GPDTM,P90,,0000.000022,S,00000.000001,W,0.988,W84*5A
$GPRMC,001631.80,A,3000.002897,N,11959.999354,E,0.0,,230721,4.3,W,A*0F
$GPGGA,001631.80,3000.002897,N,11959.999354,E,1,00,1.2,-25.2,M,7.0,M,,*44
$GPVTG,,T,,M,0.0,N,0.0,K,A*23
$GPDTM,P90,,0000.000022,S,00000.000001,W,0.988,W84*5A
$GPRMC,001631.90,A,3000.002897,N,11959.999354,E,0.0,,230721,4.3,W,A*0E
$GPGGA,001631.90,3000.002897,N,11959.999354,E,1,00,1.2,-25.2,M,7.0,M,,*45

$GPGSV,3,1,10,02,34,291,26,04,46,236,26,07,00,000,26,08,20,066,27*78
$GPGSV,3,2,10,13,45,037,27,20,16,125,26,23,22,061,26,25,00,000,26*7D
$GPGSV,3,3,10,27,00,000,26,30,45,251,*7D
$GLGSV,1,1,02,71,04,075,,72,00,000,*62
$GAGSV,1,1,0,7*43
$PQGSV,1,1,0,0*43
$PQGSV,1,1,02,12,61,320,,13,35,202,*6C
$GPGSA,A,3,02,04,13,20,23,,,,,,,,1.6,1.2,1.0*30
$GPVTG,,T,,M,0.0,N,0.0,K,A*23
$GPDTM,P90,,0000.000022,S,00000.000001,W,0.988,W84*5A
$GPRMC,001632.00,A,3000.002905,N,11959.999347,E,0.0,,230721,4.3,W,A*0C
$GPGGA,001632.00,3000.002905,N,11959.999347,E,1,05,1.2,-25.2,M,7.0,M,,*42

$GPVTG,,T,,M,0.0,N,0.0,K,A*23
$GPDTM,P90,,0000.000022,S,00000.000001,W,0.988,W84*5A
$GPRMC,001632.10,A,3000.002905,N,11959.999347,E,0.0,,230721,4.3,W,A*0D
$GPGGA,001632.10,3000.002905,N,11959.999347,E,1,00,1.2,-25.2,M,7.0,M,,*46

$GPVTG,,T,,M,0.0,N,0.0,K,A*23
$GPDTM,P90,,0000.000022,S,00000.000001,W,0.988,W84*5A
$GPRMC,001632.20,A,3000.002905,N,11959.999347,E,0.0,,230721,4.3,W,A*0E
$GPGGA,001632.20,3000.002905,N,11959.999347,E,1,00,1.2,-25.2,M,7.0,M,,*45

$GPVTG,,T,,M,0.0,N,0.0,K,A*23
$GPDTM,P90,,0000.000022,S,00000.000001,W,0.988,W84*5A
$GPRMC,001632.30,A,3000.002905,N,11959.999347,E,0.0,,230721,4.3,W,A*0F
$GPGGA,001632.30,3000.002905,N,11959.999347,E,1,00,1.2,-25.2,M,7.0,M,,*44

$GPVTG,,T,,M,0.0,N,0.0,K,A*23
$GPDTM,P90,,0000.000022,S,00000.000001,W,0.988,W84*5A
$GPRMC,001632.40,A,3000.002905,N,11959.999347,E,0.0,,230721,4.3,W,A*08
$GPGGA,001632.40,3000.002905,N,11959.999347,E,1,00,1.2,-25.2,M,7.0,M,,*43

$GPVTG,,T,,M,0.0,N,0.0,K,A*23
$GPDTM,P90,,0000.000022,S,00000.000001,W,0.988,W84*5A
$GPRMC,001632.50,A,3000.002905,N,11959.999347,E,0.0,,230721,4.3,W,A*09
$GPGGA,001632.50,3000.002905,N,11959.999347,E,1,00,1.2,-25.2,M,7.0,M,,*42

$GPVTG,,T,,M,0.0,N,0.0,K,A*23
$GPDTM,P90,,0000.000022,S,00000.000001,W,0.988,W84*5A
$GPRMC,001632.60,A,3000.002905,N,11959.999347,E,0.0,,230721,4.3,W,A*0A
$GPGGA,001632.60,3000.002905,N,11959.999347,E,1,00,1.2,-25.2,M,7.0,M,,*41

$GPVTG,,T,,M,0.0,N,0.0,K,A*23
$GPDTM,P90,,0000.000022,S,00000.000001,W,0.988,W84*5A
$GPRMC,001632.70,A,3000.002905,N,11959.999347,E,0.0,,230721,4.3,W,A*0B
$GPGGA,001632.70,3000.002905,N,11959.999347,E,1,00,1.2,-25.2,M,7.0,M,,*40

$GPVTG,,T,,M,0.0,N,0.0,K,A*23
$GPDTM,P90,,0000.000022,S,00000.000001,W,0.988,W84*5A
$GPRMC,001632.80,A,3000.002905,N,11959.999347,E,0.0,,230721,4.3,W,A*04
$GPGGA,001632.80,3000.002905,N,11959.999347,E,1,00,1.2,-25.2,M,7.0,M,,*4F

$GPVTG,,T,,M,0.0,N,0.0,K,A*23
$GPDTM,P90,,0000.000022,S,00000.000001,W,0.988,W84*5A
$GPRMC,001632.90,A,3000.002905,N,11959.999347,E,0.0,,230721,4.3,W,A*05
$GPGGA,001632.90,3000.002905,N,11959.999347,E,1,00,1.2,-25.2,M,7.0,M,,*4E

$GPGSV,3,1,10,02,34,291,27,04,46,236,26,07,00,000,26,08,20,066,27*79
$GPGSV,3,2,10,13,45,037,26,20,16,125,25,23,22,061,27,25,00,000,26*7E
$GPGSV,3,3,10,27,00,000,27,30,45,251,*7C
$GLGSV,1,1,02,71,04,075,,72,00,000,*62
$GAGSV,1,1,0,7*43
$PQGSV,1,1,0,0*43
$PQGSV,1,1,02,12,61,320,,13,35,202,*6C
$GPGSA,A,3,02,04,13,20,23,,,,,,,,1.6,1.2,1.0*30
$GPVTG,,T,,M,0.0,N,0.0,K,A*23
$GPDTM,P90,,0000.000022,S,00000.000001,W,0.988,W84*5A
$GPRMC,001633.00,A,3000.002909,N,11959.999338,E,0.0,,230721,4.3,W,A*09
$GPGGA,001633.00,3000.002909,N,11959.999338,E,1,05,1.2,-25.3,M,7.0,M,,*46

$GPVTG,,T,,M,0.0,N,0.0,K,A*23
$GPDTM,P90,,0000.000022,S,00000.000001,W,0.988,W84*5A
$GPRMC,001633.10,A,3000.002909,N,11959.999338,E,0.0,,230721,4.3,W,A*08
$GPGGA,001633.10,3000.002909,N,11959.999338,E,1,00,1.2,-25.3,M,7.0,M,,*42

$GPVTG,,T,,M,0.0,N,0.0,K,A*23
$GPDTM,P90,,0000.000022,S,00000.000001,W,0.988,W84*5A
$GPRMC,001633.20,A,3000.002909,N,11959.999338,E,0.0,,230721,4.3,W,A*0B
$GPGGA,001633.20,3000.002909,N,11959.999338,E,1,00,1.2,-25.3,M,7.0,M,,*41

$GPVTG,,T,,M,0.0,N,0.0,K,A*23
$GPDTM,P90,,0000.000022,S,00000.000001,W,0.988,W84*5A
$GPRMC,001633.30,A,3000.002909,N,11959.999338,E,0.0,,230721,4.3,W,A*0A
$GPGGA,001633.30,3000.002909,N,11959.999338,E,1,00,1.2,-25.3,M,7.0,M,,*40

$GPVTG,,T,,M,0.0,N,0.0,K,A*23
$GPDTM,P90,,0000.000022,S,00000.000001,W,0.988,W84*5A
$GPRMC,001633.40,A,3000.002909,N,11959.999338,E,0.0,,230721,4.3,W,A*0D
$GPGGA,001633.40,3000.002909,N,11959.999338,E,1,00,1.2,-25.3,M,7.0,M,,*47

$GPVTG,,T,,M,0.0,N,0.0,K,A*23
$GPDTM,P90,,0000.000022,S,00000.000001,W,0.988,W84*5A
$GPRMC,001633.50,A,3000.002909,N,11959.999338,E,0.0,,230721,4.3,W,A*0C
$GPGGA,001633.50,3000.002909,N,11959.999338,E,1,00,1.2,-25.3,M,7.0,M,,*46

$GPVTG,,T,,M,0.0,N,0.0,K,A*23
$GPDTM,P90,,0000.000022,S,00000.000001,W,0.988,W84*5A
$GPRMC,001633.60,A,3000.002909,N,11959.999338,E,0.0,,230721,4.3,W,A*0F
$GPGGA,001633.60,3000.002909,N,11959.999338,E,1,00,1.2,-25.3,M,7.0,M,,*45

$GPVTG,,T,,M,0.0,N,0.0,K,A*23
$GPDTM,P90,,0000.000022,S,00000.000001,W,0.988,W84*5A
$GPRMC,001633.70,A,3000.002909,N,11959.999338,E,0.0,,230721,4.3,W,A*0E
$GPGGA,001633.70,3000.002909,N,11959.999338,E,1,00,1.2,-25.3,M,7.0,M,,*44

$GPVTG,,T,,M,0.0,N,0.0,K,A*23
$GPDTM,P90,,0000.000022,S,00000.000001,W,0.988,W84*5A
$GPRMC,001633.80,A,3000.002909,N,11959.999338,E,0.0,,230721,4.3,W,A*01
$GPGGA,001633.80,3000.002909,N,11959.999338,E,1,00,1.2,-25.3,M,7.0,M,,*4B

$GPVTG,,T,,M,0.0,N,0.0,K,A*23
$GPDTM,P90,,0000.000022,S,00000.000001,W,0.988,W84*5A
$GPRMC,001633.90,A,3000.002909,N,11959.999338,E,0.0,,230721,4.3,W,A*00
$GPGGA,001633.90,3000.002909,N,11959.999338,E,1,00,1.2,-25.3,M,7.0,M,,*4A

$GPGSV,3,1,10,02,34,291,27,04,46,236,27,07,00,000,27,08,20,066,26*78
$GPGSV,3,2,10,13,45,037,26,20,16,125,26,23,22,061,26,25,00,000,26*7C
$GPGSV,3,3,10,27,00,000,26,30,45,251,*7D
$GLGSV,1,1,02,71,04,075,,72,00,000,*62
$GAGSV,1,1,0,7*43
$PQGSV,1,1,0,0*43
$PQGSV,1,1,02,12,61,320,,13,35,202,*6C
$GPGSA,A,3,02,04,13,20,23,,,,,,,,1.6,1.2,1.0*30
$GPVTG,,T,,M,0.0,N,0.0,K,A*23
$GPDTM,P90,,0000.000022,S,00000.000001,W,0.988,W84*5A
$GPRMC,001634.00,A,3000.002909,N,11959.999335,E,0.0,,230721,4.3,W,A*03
$GPGGA,001634.00,3000.002909,N,11959.999335,E,1,05,1.2,-25.3,M,7.0,M,,*4C

$GPVTG,,T,,M,0.0,N,0.0,K,A*23
$GPDTM,P90,,0000.000022,S,00000.000001,W,0.988,W84*5A
$GPRMC,001634.10,A,3000.002909,N,11959.999335,E,0.0,,230721,4.3,W,A*02
$GPGGA,001634.10,3000.002909,N,11959.999335,E,1,00,1.2,-25.3,M,7.0,M,,*48

$GPVTG,,T,,M,0.0,N,0.0,K,A*23
$GPDTM,P90,,0000.000022,S,00000.000001,W,0.988,W84*5A
$GPRMC,001634.20,A,3000.002909,N,11959.999335,E,0.0,,230721,4.3,W,A*01
$GPGGA,001634.20,3000.002909,N,11959.999335,E,1,00,1.2,-25.3,M,7.0,M,,*4B
$GPVTG,,T,,M,0.0,N,0.0,K,A*23
$GPDTM,P90,,0000.000022,S,00000.000001,W,0.988,W84*5A
$GPRMC,001634.30,A,3000.002909,N,11959.999335,E,0.0,,230721,4.3,W,A*00
$GPGGA,001634.30,3000.002909,N,11959.999335,E,1,00,1.2,-25.3,M,7.0,M,,*4A

$GPVTG,,T,,M,0.0,N,0.0,K,A*23
$GPDTM,P90,,0000.000022,S,00000.000001,W,0.988,W84*5A
$GPRMC,001634.40,A,3000.002909,N,11959.999335,E,0.0,,230721,4.3,W,A*07
$GPGGA,001634.40,3000.002909,N,11959.999335,E,1,00,1.2,-25.3,M,7.0,M,,*4D

$GPVTG,,T,,M,0.0,N,0.0,K,A*23
$GPDTM,P90,,0000.000022,S,00000.000001,W,0.988,W84*5A
$GPRMC,001634.50,A,3000.002909,N,11959.999335,E,0.0,,230721,4.3,W,A*06
$GPGGA,001634.50,3000.002909,N,11959.999335,E,1,00,1.2,-25.3,M,7.0,M,,*4C

$GPVTG,,T,,M,0.0,N,0.0,K,A*23
$GPDTM,P90,,0000.000022,S,00000.000001,W,0.988,W84*5A
$GPRMC,001634.60,A,3000.002909,N,11959.999335,E,0.0,,230721,4.3,W,A*05
$GPGGA,001634.60,3000.002909,N,11959.999335,E,1,00,1.2,-25.3,M,7.0,M,,*4F

$GPVTG,,T,,M,0.0,N,0.0,K,A*23
$GPDTM,P90,,0000.000022,S,00000.000001,W,0.988,W84*5A
$GPRMC,001634.70,A,3000.002909,N,11959.999335,E,0.0,,230721,4.3,W,A*04
$GPGGA,001634.70,3000.002909,N,11959.999335,E,1,00,1.2,-25.3,M,7.0,M,,*4E

$GPVTG,,T,,M,0.0,N,0.0,K,A*23
$GPDTM,P90,,0000.000022,S,00000.000001,W,0.988,W84*5A
$GPRMC,001634.80,A,3000.002909,N,11959.999335,E,0.0,,230721,4.3,W,A*0B
$GPGGA,001634.80,3000.002909,N,11959.999335,E,1,00,1.2,-25.3,M,7.0,M,,*41

$GPVTG,,T,,M,0.0,N,0.0,K,A*23
$GPDTM,P90,,0000.000022,S,00000.000001,W,0.988,W84*5A
$GPRMC,001634.90,A,3000.002909,N,11959.999335,E,0.0,,230721,4.3,W,A*0A
$GPGGA,001634.90,3000.002909,N,11959.999335,E,1,00,1.2,-25.3,M,7.0,M,,*40

$GPGSV,3,1,10,02,34,291,27,04,46,236,26,07,00,000,26,08,20,066,26*78
$GPGSV,3,2,10,13,45,037,27,20,16,125,27,23,22,061,27,25,00,000,27*7C
$GPGSV,3,3,10,27,00,000,26,30,45,251,*7D
$GLGSV,1,1,02,71,04,075,,72,00,000,*62
$GAGSV,1,1,0,7*43
$PQGSV,1,1,0,0*43
$PQGSV,1,1,02,12,61,320,,13,35,202,*6C
$GPGSA,A,3,02,04,13,20,23,,,,,,,,1.6,1.2,1.0*30
$GPVTG,,T,,M,0.0,N,0.0,K,A*23
$GPDTM,P90,,0000.000022,S,00000.000001,W,0.988,W84*5A
$GPRMC,001635.00,A,3000.002902,N,11959.999340,E,0.0,,230721,4.3,W,A*0B
$GPGGA,001635.00,3000.002902,N,11959.999340,E,1,05,1.2,-25.3,M,7.0,M,,*44

$GPVTG,,T,,M,0.0,N,0.0,K,A*23
$GPDTM,P90,,0000.000022,S,00000.000001,W,0.988,W84*5A
$GPRMC,001635.10,A,3000.002902,N,11959.999340,E,0.0,,230721,4.3,W,A*0A
$GPGGA,001635.10,3000.002902,N,11959.999340,E,1,00,1.2,-25.3,M,7.0,M,,*40

$GPVTG,,T,,M,0.0,N,0.0,K,A*23
$GPDTM,P90,,0000.000022,S,00000.000001,W,0.988,W84*5A
$GPRMC,001635.20,A,3000.002902,N,11959.999340,E,0.0,,230721,4.3,W,A*09
$GPGGA,001635.20,3000.002902,N,11959.999340,E,1,00,1.2,-25.3,M,7.0,M,,*43

$GPVTG,,T,,M,0.0,N,0.0,K,A*23
$GPDTM,P90,,0000.000022,S,00000.000001,W,0.988,W84*5A
$GPRMC,001635.30,A,3000.002902,N,11959.999340,E,0.0,,230721,4.3,W,A*08
$GPGGA,001635.30,3000.002902,N,11959.999340,E,1,00,1.2,-25.3,M,7.0,M,,*42

$GPVTG,,T,,M,0.0,N,0.0,K,A*23
$GPDTM,P90,,0000.000022,S,00000.000001,W,0.988,W84*5A
$GPRMC,001635.40,A,3000.002902,N,11959.999340,E,0.0,,230721,4.3,W,A*0F
$GPGGA,001635.40,3000.002902,N,11959.999340,E,1,00,1.2,-25.3,M,7.0,M,,*45

$GPVTG,,T,,M,0.0,N,0.0,K,A*23
$GPDTM,P90,,0000.000022,S,00000.000001,W,0.988,W84*5A
$GPRMC,001635.50,A,3000.002902,N,11959.999340,E,0.0,,230721,4.3,W,A*0E
$GPGGA,001635.50,3000.002902,N,11959.999340,E,1,00,1.2,-25.3,M,7.0,M,,*44

$GPVTG,,T,,M,0.0,N,0.0,K,A*23
$GPDTM,P90,,0000.000022,S,00000.000001,W,0.988,W84*5A
$GPRMC,001635.60,A,3000.002902,N,11959.999340,E,0.0,,230721,4.3,W,A*0D
$GPGGA,001635.60,3000.002902,N,11959.999340,E,1,00,1.2,-25.3,M,7.0,M,,*47

$GPVTG,,T,,M,0.0,N,0.0,K,A*23
$GPDTM,P90,,0000.000022,S,00000.000001,W,0.988,W84*5A
$GPRMC,001635.70,A,3000.002902,N,11959.999340,E,0.0,,230721,4.3,W,A*0C
$GPGGA,001635.70,3000.002902,N,11959.999340,E,1,00,1.2,-25.3,M,7.0,M,,*46

$GPVTG,,T,,M,0.0,N,0.0,K,A*23
$GPDTM,P90,,0000.000022,S,00000.000001,W,0.988,W84*5A
$GPRMC,001635.80,A,3000.002902,N,11959.999340,E,0.0,,230721,4.3,W,A*03
$GPGGA,001635.80,3000.002902,N,11959.999340,E,1,00,1.2,-25.3,M,7.0,M,,*49

$GPVTG,,T,,M,0.0,N,0.0,K,A*23
$GPDTM,P90,,0000.000022,S,00000.000001,W,0.988,W84*5A
$GPRMC,001635.90,A,3000.002902,N,11959.999340,E,0.0,,230721,4.3,W,A*02
$GPGGA,001635.90,3000.002902,N,11959.999340,E,1,00,1.2,-25.3,M,7.0,M,,*48

$GPGSV,3,1,10,02,34,291,26,04,46,236,26,07,00,000,26,08,20,066,27*78
$GPGSV,3,2,10,13,45,037,27,20,16,125,27,23,22,061,27,25,00,000,27*7C
$GPGSV,3,3,10,27,00,000,28,30,45,251,*73
$GLGSV,1,1,02,71,04,075,,72,00,000,*62
$GAGSV,1,1,0,7*43
$PQGSV,1,1,0,0*43
$PQGSV,1,1,02,12,61,320,,13,35,202,*6C
$GPGSA,A,3,02,04,13,20,23,,,,,,,,1.6,1.2,1.0*30
$GPVTG,,T,,M,0.0,N,0.0,K,A*23
$GPDTM,P90,,0000.000022,S,00000.000001,W,0.988,W84*5A
$GPRMC,001636.00,A,3000.002895,N,11959.999345,E,0.0,,230721,4.3,W,A*02
$GPGGA,001636.00,3000.002895,N,11959.999345,E,1,05,1.2,-25.2,M,7.0,M,,*4C

$GPVTG,,T,,M,0.0,N,0.0,K,A*23
$GPDTM,P90,,0000.000022,S,00000.000001,W,0.988,W84*5A
$GPRMC,001636.10,A,3000.002895,N,11959.999345,E,0.0,,230721,4.3,W,A*03
$GPGGA,001636.10,3000.002895,N,11959.999345,E,1,00,1.2,-25.2,M,7.0,M,,*48

$GPVTG,,T,,M,0.0,N,0.0,K,A*23
$GPDTM,P90,,0000.000022,S,00000.000001,W,0.988,W84*5A
$GPRMC,001636.20,A,3000.002895,N,11959.999345,E,0.0,,230721,4.3,W,A*00
$GPGGA,001636.20,3000.002895,N,11959.999345,E,1,00,1.2,-25.2,M,7.0,M,,*4B

$GPVTG,,T,,M,0.0,N,0.0,K,A*23
$GPDTM,P90,,0000.000022,S,00000.000001,W,0.988,W84*5A
$GPRMC,001636.30,A,3000.002895,N,11959.999345,E,0.0,,230721,4.3,W,A*01
$GPGGA,001636.30,3000.002895,N,11959.999345,E,1,00,1.2,-25.2,M,7.0,M,,*4A

$GPVTG,,T,,M,0.0,N,0.0,K,A*23
$GPDTM,P90,,0000.000022,S,00000.000001,W,0.988,W84*5A
$GPRMC,001636.40,A,3000.002895,N,11959.999345,E,0.0,,230721,4.3,W,A*06
$GPGGA,001636.40,3000.002895,N,11959.999345,E,1,00,1.2,-25.2,M,7.0,M,,*4D

$GPVTG,,T,,M,0.0,N,0.0,K,A*23
$GPDTM,P90,,0000.000022,S,00000.000001,W,0.988,W84*5A
$GPRMC,001636.50,A,3000.002895,N,11959.999345,E,0.0,,230721,4.3,W,A*07
$GPGGA,001636.50,3000.002895,N,11959.999345,E,1,00,1.2,-25.2,M,7.0,M,,*4C

$GPVTG,,T,,M,0.0,N,0.0,K,A*23
$GPDTM,P90,,0000.000022,S,00000.000001,W,0.988,W84*5A
$GPRMC,001636.60,A,3000.002895,N,11959.999345,E,0.0,,230721,4.3,W,A*04
$GPGGA,001636.60,3000.002895,N,11959.999345,E,1,00,1.2,-25.2,M,7.0,M,,*4F

$GPVTG,,T,,M,0.0,N,0.0,K,A*23
$GPDTM,P90,,0000.000022,S,00000.000001,W,0.988,W84*5A
$GPRMC,001636.70,A,3000.002895,N,11959.999345,E,0.0,,230721,4.3,W,A*05
$GPGGA,001636.70,3000.002895,N,11959.999345,E,1,00,1.2,-25.2,M,7.0,M,,*4E

$GPVTG,,T,,M,0.0,N,0.0,K,A*23
$GPDTM,P90,,0000.000022,S,00000.000001,W,0.988,W84*5A
$GPRMC,001636.80,A,3000.002895,N,11959.999345,E,0.0,,230721,4.3,W,A*0A
$GPGGA,001636.80,3000.002895,N,11959.999345,E,1,00,1.2,-25.2,M,7.0,M,,*41

$GPVTG,,T,,M,0.0,N,0.0,K,A*23
$GPDTM,P90,,0000.000022,S,00000.000001,W,0.988,W84*5A
$GPRMC,001636.90,A,3000.002895,N,11959.999345,E,0.0,,230721,4.3,W,A*0B
$GPGGA,001636.90,3000.002895,N,11959.999345,E,1,00,1.2,-25.2,M,7.0,M,,*40

$GPGSV,3,1,10,02,34,291,27,04,46,236,26,07,00,000,26,08,20,066,27*79
$GPGSV,3,2,10,13,45,037,27,20,16,125,26,23,22,061,27,25,00,000,27*7D
$GPGSV,3,3,10,27,00,000,25,30,45,251,*7E
$GLGSV,1,1,02,71,04,075,,72,00,000,*62
$GAGSV,1,1,0,7*43
$PQGSV,1,1,0,0*43
$PQGSV,1,1,02,12,61,320,,13,35,202,*6C
$GPGSA,A,3,02,04,13,20,23,,,,,,,,1.6,1.2,1.0*30
$GPVTG,,T,,M,0.0,N,0.0,K,A*23
$GPDTM,P90,,0000.000022,S,00000.000001,W,0.988,W84*5A
$GPRMC,001637.00,A,3000.002882,N,11959.999365,E,0.0,,230721,4.3,W,A*07
$GPGGA,001637.00,3000.002882,N,11959.999365,E,1,05,1.2,-25.1,M,7.0,M,,*4A

$GPVTG,,T,,M,0.0,N,0.0,K,A*23
$GPDTM,P90,,0000.000022,S,00000.000001,W,0.988,W84*5A
$GPRMC,001637.10,A,3000.002882,N,11959.999365,E,0.0,,230721,4.3,W,A*06
$GPGGA,001637.10,3000.002882,N,11959.999365,E,1,00,1.2,-25.1,M,7.0,M,,*4E

$GPVTG,,T,,M,0.0,N,0.0,K,A*23
$GPDTM,P90,,0000.000022,S,00000.000001,W,0.988,W84*5A
$GPRMC,001637.20,A,3000.002882,N,11959.999365,E,0.0,,230721,4.3,W,A*05
$GPGGA,001637.20,3000.002882,N,11959.999365,E,1,00,1.2,-25.1,M,7.0,M,,*4D

$GPVTG,,T,,M,0.0,N,0.0,K,A*23
$GPDTM,P90,,0000.000022,S,00000.000001,W,0.988,W84*5A
$GPRMC,001637.30,A,3000.002882,N,11959.999365,E,0.0,,230721,4.3,W,A*04
$GPGGA,001637.30,3000.002882,N,11959.999365,E,1,00,1.2,-25.1,M,7.0,M,,*4C

$GPVTG,,T,,M,0.0,N,0.0,K,A*23
$GPDTM,P90,,0000.000022,S,00000.000001,W,0.988,W84*5A
$GPRMC,001637.40,A,3000.002882,N,11959.999365,E,0.0,,230721,4.3,W,A*03
$GPGGA,001637.40,3000.002882,N,11959.999365,E,1,00,1.2,-25.1,M,7.0,M,,*4B

$GPVTG,,T,,M,0.0,N,0.0,K,A*23
$GPDTM,P90,,0000.000022,S,00000.000001,W,0.988,W84*5A
$GPRMC,001637.50,A,3000.002882,N,11959.999365,E,0.0,,230721,4.3,W,A*02
$GPGGA,001637.50,3000.002882,N,11959.999365,E,1,00,1.2,-25.1,M,7.0,M,,*4A

$GPVTG,,T,,M,0.0,N,0.0,K,A*23
$GPDTM,P90,,0000.000022,S,00000.000001,W,0.988,W84*5A
$GPRMC,001637.60,A,3000.002882,N,11959.999365,E,0.0,,230721,4.3,W,A*01
$GPGGA,001637.60,3000.002882,N,11959.999365,E,1,00,1.2,-25.1,M,7.0,M,,*49

$GPVTG,,T,,M,0.0,N,0.0,K,A*23
$GPDTM,P90,,0000.000022,S,00000.000001,W,0.988,W84*5A
$GPRMC,001637.70,A,3000.002882,N,11959.999365,E,0.0,,230721,4.3,W,A*00
$GPGGA,001637.70,3000.002882,N,11959.999365,E,1,00,1.2,-25.1,M,7.0,M,,*48

$GPVTG,,T,,M,0.0,N,0.0,K,A*23
$GPDTM,P90,,0000.000022,S,00000.000001,W,0.988,W84*5A
$GPRMC,001637.80,A,3000.002882,N,11959.999365,E,0.0,,230721,4.3,W,A*0F
$GPGGA,001637.80,3000.002882,N,11959.999365,E,1,00,1.2,-25.1,M,7.0,M,,*47

$GPVTG,,T,,M,0.0,N,0.0,K,A*23
$GPDTM,P90,,0000.000022,S,00000.000001,W,0.988,W84*5A
$GPRMC,001637.90,A,3000.002882,N,11959.999365,E,0.0,,230721,4.3,W,A*0E
$GPGGA,001637.90,3000.002882,N,11959.999365,E,1,00,1.2,-25.1,M,7.0,M,,*46

$GPGSV,3,1,10,02,34,291,26,04,46,236,27,07,00,000,27,08,20,066,27*78
$GPGSV,3,2,10,13,45,037,27,20,16,125,26,23,22,061,26,25,00,000,27*7C
$GPGSV,3,3,10,27,00,000,26,30,45,251,*7D
$GLGSV,1,1,02,71,04,075,,72,00,000,*62
$GAGSV,1,1,0,7*43
$PQGSV,1,1,0,0*43
$PQGSV,1,1,02,12,61,320,,13,35,202,*6C
$GPGSA,A,3,02,04,13,20,23,,,,,,,,1.6,1.2,1.0*30
$GPVTG,,T,,M,0.0,N,0.0,K,A*23
$GPDTM,P90,,0000.000022,S,00000.000001,W,0.988,W84*5A
$GPRMC,001638.00,A,3000.002879,N,11959.999369,E,0.0,,230721,4.3,W,A*00
$GPGGA,001638.00,3000.002879,N,11959.999369,E,1,05,1.2,-25.1,M,7.0,M,,*4D

$GPVTG,,T,,M,0.0,N,0.0,K,A*23
$GPDTM,P90,,0000.000022,S,00000.000001,W,0.988,W84*5A
$GPRMC,001638.10,A,3000.002879,N,11959.999369,E,0.0,,230721,4.3,W,A*01
$GPGGA,001638.10,3000.002879,N,11959.999369,E,1,00,1.2,-25.1,M,7.0,M,,*49

$GPVTG,,T,,M,0.0,N,0.0,K,A*23
$GPDTM,P90,,0000.000022,S,00000.000001,W,0.988,W84*5A
$GPRMC,001638.20,A,3000.002879,N,11959.999369,E,0.0,,230721,4.3,W,A*02
$GPGGA,001638.20,3000.002879,N,11959.999369,E,1,00,1.2,-25.1,M,7.0,M,,*4A

$GPVTG,,T,,M,0.0,N,0.0,K,A*23
$GPDTM,P90,,0000.000022,S,00000.000001,W,0.988,W84*5A
$GPRMC,001638.30,A,3000.002879,N,11959.999369,E,0.0,,230721,4.3,W,A*03
$GPGGA,001638.30,3000.002879,N,11959.999369,E,1,00,1.2,-25.1,M,7.0,M,,*4B

$GPVTG,,T,,M,0.0,N,0.0,K,A*23
$GPDTM,P90,,0000.000022,S,00000.000001,W,0.988,W84*5A
$GPRMC,001638.40,A,3000.002879,N,11959.999369,E,0.0,,230721,4.3,W,A*04
$GPGGA,001638.40,3000.002879,N,11959.999369,E,1,00,1.2,-25.1,M,7.0,M,,*4C

$GPVTG,,T,,M,0.0,N,0.0,K,A*23
$GPDTM,P90,,0000.000022,S,00000.000001,W,0.988,W84*5A
$GPRMC,001638.50,A,3000.002879,N,11959.999369,E,0.0,,230721,4.3,W,A*05
$GPGGA,001638.50,3000.002879,N,11959.999369,E,1,00,1.2,-25.1,M,7.0,M,,*4D

$GPVTG,,T,,M,0.0,N,0.0,K,A*23
$GPDTM,P90,,0000.000022,S,00000.000001,W,0.988,W84*5A
$GPRMC,001638.60,A,3000.002879,N,11959.999369,E,0.0,,230721,4.3,W,A*06
$GPGGA,001638.60,3000.002879,N,11959.999369,E,1,00,1.2,-25.1,M,7.0,M,,*4E

$GPVTG,,T,,M,0.0,N,0.0,K,A*23
$GPDTM,P90,,0000.000022,S,00000.000001,W,0.988,W84*5A
$GPRMC,001638.70,A,3000.002879,N,11959.999369,E,0.0,,230721,4.3,W,A*07
$GPGGA,001638.70,3000.002879,N,11959.999369,E,1,00,1.2,-25.1,M,7.0,M,,*4F

$GPVTG,,T,,M,0.0,N,0.0,K,A*23
$GPDTM,P90,,0000.000022,S,00000.000001,W,0.988,W84*5A
$GPRMC,001638.80,A,3000.002879,N,11959.999369,E,0.0,,230721,4.3,W,A*08
$GPGGA,001638.80,3000.002879,N,11959.999369,E,1,00,1.2,-25.1,M,7.0,M,,*40

$GPVTG,,T,,M,0.0,N,0.0,K,A*23
$GPDTM,P90,,0000.000022,S,00000.000001,W,0.988,W84*5A
$GPRMC,001638.90,A,3000.002879,N,11959.999369,E,0.0,,230721,4.3,W,A*09
$GPGGA,001638.90,3000.002879,N,11959.999369,E,1,00,1.2,-25.1,M,7.0,M,,*41

$GPGSV,3,1,10,02,34,291,26,04,46,236,27,07,00,000,26,08,20,066,27*79
$GPGSV,3,2,10,13,45,037,26,20,16,125,26,23,22,061,26,25,00,000,27*7D
$GPGSV,3,3,10,27,00,000,25,30,45,251,*7E
$GLGSV,1,1,02,71,04,075,,72,00,000,*62
$GAGSV,1,1,0,7*43
$PQGSV,1,1,0,0*43
$PQGSV,1,1,02,12,61,320,,13,35,202,*6C
$GPGSA,A,3,02,04,13,20,23,,,,,,,,1.6,1.2,1.0*30
$GPVTG,,T,,M,0.0,N,0.0,K,A*23
$GPDTM,P90,,0000.000022,S,00000.000001,W,0.988,W84*5A
$GPRMC,001639.00,A,3000.002871,N,11959.999377,E,0.0,,230721,4.3,W,A*06
$GPGGA,001639.00,3000.002871,N,11959.999377,E,1,05,1.2,-25.1,M,7.0,M,,*4B

$GPVTG,,T,,M,0.0,N,0.0,K,A*23
$GPDTM,P90,,0000.000022,S,00000.000001,W,0.988,W84*5A
$GPRMC,001639.10,A,3000.002871,N,11959.999377,E,0.0,,230721,4.3,W,A*07
$GPGGA,001639.10,3000.002871,N,11959.999377,E,1,00,1.2,-25.1,M,7.0,M,,*4F

$GPVTG,,T,,M,0.0,N,0.0,K,A*23
$GPDTM,P90,,0000.000022,S,00000.000001,W,0.988,W84*5A
$GPRMC,001639.20,A,3000.002871,N,11959.999377,E,0.0,,230721,4.3,W,A*04
$GPGGA,001639.20,3000.002871,N,11959.999377,E,1,00,1.2,-25.1,M,7.0,M,,*4C

$GPVTG,,T,,M,0.0,N,0.0,K,A*23
$GPDTM,P90,,0000.000022,S,00000.000001,W,0.988,W84*5A
$GPRMC,001639.30,A,3000.002871,N,11959.999377,E,0.0,,230721,4.3,W,A*05
$GPGGA,001639.30,3000.002871,N,11959.999377,E,1,00,1.2,-25.1,M,7.0,M,,*4D

$GPVTG,,T,,M,0.0,N,0.0,K,A*23
$GPDTM,P90,,0000.000022,S,00000.000001,W,0.988,W84*5A
$GPRMC,001639.40,A,3000.002871,N,11959.999377,E,0.0,,230721,4.3,W,A*02
$GPGGA,001639.40,3000.002871,N,11959.999377,E,1,00,1.2,-25.1,M,7.0,M,,*4A

$GPVTG,,T,,M,0.0,N,0.0,K,A*23
$GPDTM,P90,,0000.000022,S,00000.000001,W,0.988,W84*5A
$GPRMC,001639.50,A,3000.002871,N,11959.999377,E,0.0,,230721,4.3,W,A*03
$GPGGA,001639.50,3000.002871,N,11959.999377,E,1,00,1.2,-25.1,M,7.0,M,,*4B

$GPVTG,,T,,M,0.0,N,0.0,K,A*23
$GPDTM,P90,,0000.000022,S,00000.000001,W,0.988,W84*5A
$GPRMC,001639.60,A,3000.002871,N,11959.999377,E,0.0,,230721,4.3,W,A*00
$GPGGA,001639.60,3000.002871,N,11959.999377,E,1,00,1.2,-25.1,M,7.0,M,,*48

$GPVTG,,T,,M,0.0,N,0.0,K,A*23
$GPDTM,P90,,0000.000022,S,00000.000001,W,0.988,W84*5A
$GPRMC,001639.70,A,3000.002871,N,11959.999377,E,0.0,,230721,4.3,W,A*01
$GPGGA,001639.70,3000.002871,N,11959.999377,E,1,00,1.2,-25.1,M,7.0,M,,*49

$GPVTG,,T,,M,0.0,N,0.0,K,A*23
$GPDTM,P90,,0000.000022,S,00000.000001,W,0.988,W84*5A
$GPRMC,001639.80,A,3000.002871,N,11959.999377,E,0.0,,230721,4.3,W,A*0E
$GPGGA,001639.80,3000.002871,N,11959.999377,E,1,00,1.2,-25.1,M,7.0,M,,*46

$GPVTG,,T,,M,0.0,N,0.0,K,A*23
$GPDTM,P90,,0000.000022,S,00000.000001,W,0.988,W84*5A
$GPRMC,001639.90,A,3000.002871,N,11959.999377,E,0.0,,230721,4.3,W,A*0F
$GPGGA,001639.90,3000.002871,N,11959.999377,E,1,00,1.2,-25.1,M,7.0,M,,*47

$GPGSV,3,1,10,02,34,291,26,04,46,236,27,07,00,000,27,08,20,066,27*78
$GPGSV,3,2,10,13,45,037,27,20,16,125,26,23,22,061,27,25,00,000,26*7C
$GPGSV,3,3,10,27,00,000,27,30,45,251,*7C
$GLGSV,1,1,02,71,04,075,,72,00,000,*62
$GAGSV,1,1,0,7*43
$PQGSV,1,1,0,0*43
$PQGSV,1,1,02,12,61,320,,13,35,202,*6C
$GPGSA,A,3,02,04,13,20,23,,,,,,,,1.6,1.2,1.0*30
$GPVTG,,T,,M,0.0,N,0.0,K,A*23
$GPDTM,P90,,0000.000022,S,00000.000001,W,0.988,W84*5A
$GPRMC,001640.00,A,3000.002860,N,11959.999387,E,0.0,,230721,4.3,W,A*07
$GPGGA,001640.00,3000.002860,N,11959.999387,E,1,05,1.2,-25.0,M,7.0,M,,*4B

$GPVTG,,T,,M,0.0,N,0.0,K,A*23
$GPDTM,P90,,0000.000022,S,00000.000001,W,0.988,W84*5A
$GPRMC,001640.10,A,3000.002860,N,11959.999387,E,0.0,,230721,4.3,W,A*06
$GPGGA,001640.10,3000.002860,N,11959.999387,E,1,00,1.2,-25.0,M,7.0,M,,*4F

$GPVTG,,T,,M,0.0,N,0.0,K,A*23
$GPDTM,P90,,0000.000022,S,00000.000001,W,0.988,W84*5A
$GPRMC,001640.20,A,3000.002860,N,11959.999387,E,0.0,,230721,4.3,W,A*05
$GPGGA,001640.20,3000.002860,N,11959.999387,E,1,00,1.2,-25.0,M,7.0,M,,*4C

$GPVTG,,T,,M,0.0,N,0.0,K,A*23
$GPDTM,P90,,0000.000022,S,00000.000001,W,0.988,W84*5A
$GPRMC,001640.30,A,3000.002860,N,11959.999387,E,0.0,,230721,4.3,W,A*04
$GPGGA,001640.30,3000.002860,N,11959.999387,E,1,00,1.2,-25.0,M,7.0,M,,*4D

$GPVTG,,T,,M,0.0,N,0.0,K,A*23
$GPDTM,P90,,0000.000022,S,00000.000001,W,0.988,W84*5A
$GPRMC,001640.40,A,3000.002860,N,11959.999387,E,0.0,,230721,4.3,W,A*03
$GPGGA,001640.40,3000.002860,N,11959.999387,E,1,00,1.2,-25.0,M,7.0,M,,*4A

$GPVTG,,T,,M,0.0,N,0.0,K,A*23
$GPDTM,P90,,0000.000022,S,00000.000001,W,0.988,W84*5A
$GPRMC,001640.50,A,3000.002860,N,11959.999387,E,0.0,,230721,4.3,W,A*02
$GPGGA,001640.50,3000.002860,N,11959.999387,E,1,00,1.2,-25.0,M,7.0,M,,*4B

$GPVTG,,T,,M,0.0,N,0.0,K,A*23
$GPDTM,P90,,0000.000022,S,00000.000001,W,0.988,W84*5A
$GPRMC,001640.60,A,3000.002860,N,11959.999387,E,0.0,,230721,4.3,W,A*01
$GPGGA,001640.60,3000.002860,N,11959.999387,E,1,00,1.2,-25.0,M,7.0,M,,*48

$GPVTG,,T,,M,0.0,N,0.0,K,A*23
$GPDTM,P90,,0000.000022,S,00000.000001,W,0.988,W84*5A
$GPRMC,001640.70,A,3000.002860,N,11959.999387,E,0.0,,230721,4.3,W,A*00
$GPGGA,001640.70,3000.002860,N,11959.999387,E,1,00,1.2,-25.0,M,7.0,M,,*49

$GPVTG,,T,,M,0.0,N,0.0,K,A*23
$GPDTM,P90,,0000.000022,S,00000.000001,W,0.988,W84*5A
$GPRMC,001640.80,A,3000.002860,N,11959.999387,E,0.0,,230721,4.3,W,A*0F
$GPGGA,001640.80,3000.002860,N,11959.999387,E,1,00,1.2,-25.0,M,7.0,M,,*46

$GPVTG,,T,,M,0.0,N,0.0,K,A*23
$GPDTM,P90,,0000.000022,S,00000.000001,W,0.988,W84*5A
$GPRMC,001640.90,A,3000.002860,N,11959.999387,E,0.0,,230721,4.3,W,A*0E
$GPGGA,001640.90,3000.002860,N,11959.999387,E,1,00,1.2,-25.0,M,7.0,M,,*47

$GPGSV,3,1,10,02,34,291,26,04,46,236,27,07,00,000,26,08,20,066,27*79
$GPGSV,3,2,10,13,45,037,27,20,16,125,26,23,22,061,27,25,00,000,27*7D
$GPGSV,3,3,10,27,00,000,26,30,45,251,*7D
$GLGSV,1,1,02,71,04,075,,72,00,000,*62
$GAGSV,1,1,0,7*43
$PQGSV,1,1,0,0*43
$PQGSV,1,1,02,12,61,320,,13,35,202,*6C
$GPGSA,A,3,02,04,13,20,23,,,,,,,,1.6,1.2,1.0*30
$GPVTG,,T,,M,0.0,N,0.0,K,A*23
$GPDTM,P90,,0000.000022,S,00000.000001,W,0.988,W84*5A
$GPRMC,001641.00,A,3000.002857,N,11959.999390,E,0.0,,230721,4.3,W,A*04
$GPGGA,001641.00,3000.002857,N,11959.999390,E,1,05,1.2,-25.0,M,7.0,M,,*48

$GPVTG,,T,,M,0.0,N,0.0,K,A*23
$GPDTM,P90,,0000.000022,S,00000.000001,W,0.988,W84*5A
$GPRMC,001641.10,A,3000.002857,N,11959.999390,E,0.0,,230721,4.3,W,A*05
$GPGGA,001641.10,3000.002857,N,11959.999390,E,1,00,1.2,-25.0,M,7.0,M,,*4C

$GPVTG,,T,,M,0.0,N,0.0,K,A*23
$GPDTM,P90,,0000.000022,S,00000.000001,W,0.988,W84*5A
$GPRMC,001641.20,A,3000.002857,N,11959.999390,E,0.0,,230721,4.3,W,A*06
$GPGGA,001641.20,3000.002857,N,11959.999390,E,1,00,1.2,-25.0,M,7.0,M,,*4F

$GPVTG,,T,,M,0.0,N,0.0,K,A*23
$GPDTM,P90,,0000.000022,S,00000.000001,W,0.988,W84*5A
$GPRMC,001641.30,A,3000.002857,N,11959.999390,E,0.0,,230721,4.3,W,A*07
$GPGGA,001641.30,3000.002857,N,11959.999390,E,1,00,1.2,-25.0,M,7.0,M,,*4E

$GPVTG,,T,,M,0.0,N,0.0,K,A*23
$GPDTM,P90,,0000.000022,S,00000.000001,W,0.988,W84*5A
$GPRMC,001641.40,A,3000.002857,N,11959.999390,E,0.0,,230721,4.3,W,A*00
$GPGGA,001641.40,3000.002857,N,11959.999390,E,1,00,1.2,-25.0,M,7.0,M,,*49

$GPVTG,,T,,M,0.0,N,0.0,K,A*23
$GPDTM,P90,,0000.000022,S,00000.000001,W,0.988,W84*5A
$GPRMC,001641.50,A,3000.002857,N,11959.999390,E,0.0,,230721,4.3,W,A*01
$GPGGA,001641.50,3000.002857,N,11959.999390,E,1,00,1.2,-25.0,M,7.0,M,,*48

$GPVTG,,T,,M,0.0,N,0.0,K,A*23
$GPDTM,P90,,0000.000022,S,00000.000001,W,0.988,W84*5A
$GPRMC,001641.60,A,3000.002857,N,11959.999390,E,0.0,,230721,4.3,W,A*02
$GPGGA,001641.60,3000.002857,N,11959.999390,E,1,00,1.2,-25.0,M,7.0,M,,*4B

$GPVTG,,T,,M,0.0,N,0.0,K,A*23
$GPDTM,P90,,0000.000022,S,00000.000001,W,0.988,W84*5A
$GPRMC,001641.70,A,3000.002857,N,11959.999390,E,0.0,,230721,4.3,W,A*03
$GPGGA,001641.70,3000.002857,N,11959.999390,E,1,00,1.2,-25.0,M,7.0,M,,*4A

$GPVTG,,T,,M,0.0,N,0.0,K,A*23
$GPDTM,P90,,0000.000022,S,00000.000001,W,0.988,W84*5A
$GPRMC,001641.80,A,3000.002857,N,11959.999390,E,0.0,,230721,4.3,W,A*0C
$GPGGA,001641.80,3000.002857,N,11959.999390,E,1,00,1.2,-25.0,M,7.0,M,,*45

$GPVTG,,T,,M,0.0,N,0.0,K,A*23
$GPDTM,P90,,0000.000022,S,00000.000001,W,0.988,W84*5A
$GPRMC,001641.90,A,3000.002857,N,11959.999390,E,0.0,,230721,4.3,W,A*0D
$GPGGA,001641.90,3000.002857,N,11959.999390,E,1,00,1.2,-25.0,M,7.0,M,,*44

$GPGSV,3,1,10,02,34,291,28,04,46,236,27,07,00,000,27,08,20,066,26*77
$GPGSV,3,2,10,13,45,037,26,20,16,125,26,23,22,061,26,25,00,000,27*7D
$GPGSV,3,3,10,27,00,000,25,30,45,251,*7E
$GLGSV,1,1,02,71,04,075,,72,00,000,*62
$GAGSV,1,1,0,7*43
$PQGSV,1,1,0,0*43
$PQGSV,1,1,02,12,61,320,,13,35,202,*6C
$GPGSA,A,3,02,04,13,20,23,,,,,,,,1.6,1.2,1.0*30
$GPVTG,,T,,M,0.0,N,0.0,K,A*23
$GPDTM,P90,,0000.000022,S,00000.000001,W,0.988,W84*5A
$GPRMC,001642.00,A,3000.002840,N,11959.999411,E,0.0,,230721,4.3,W,A*0F
$GPGGA,001642.00,3000.002840,N,11959.999411,E,1,05,1.2,-24.9,M,7.0,M,,*4B

$GPVTG,,T,,M,0.0,N,0.0,K,A*23
$GPDTM,P90,,0000.000022,S,00000.000001,W,0.988,W84*5A
$GPRMC,001642.10,A,3000.002840,N,11959.999411,E,0.0,,230721,4.3,W,A*0E
$GPGGA,001642.10,3000.002840,N,11959.999411,E,1,00,1.2,-24.9,M,7.0,M,,*4F

$GPVTG,,T,,M,0.0,N,0.0,K,A*23
$GPDTM,P90,,0000.000022,S,00000.000001,W,0.988,W84*5A
$GPRMC,001642.20,A,3000.002840,N,11959.999411,E,0.0,,230721,4.3,W,A*0D
$GPGGA,001642.20,3000.002840,N,11959.999411,E,1,00,1.2,-24.9,M,7.0,M,,*4C

$GPVTG,,T,,M,0.0,N,0.0,K,A*23
$GPDTM,P90,,0000.000022,S,00000.000001,W,0.988,W84*5A
$GPRMC,001642.30,A,3000.002840,N,11959.999411,E,0.0,,230721,4.3,W,A*0C
$GPGGA,001642.30,3000.002840,N,11959.999411,E,1,00,1.2,-24.9,M,7.0,M,,*4D

$GPVTG,,T,,M,0.0,N,0.0,K,A*23
$GPDTM,P90,,0000.000022,S,00000.000001,W,0.988,W84*5A
$GPRMC,001642.40,A,3000.002840,N,11959.999411,E,0.0,,230721,4.3,W,A*0B
$GPGGA,001642.40,3000.002840,N,11959.999411,E,1,00,1.2,-24.9,M,7.0,M,,*4A

$GPVTG,,T,,M,0.0,N,0.0,K,A*23
$GPDTM,P90,,0000.000022,S,00000.000001,W,0.988,W84*5A
$GPRMC,001642.50,A,3000.002840,N,11959.999411,E,0.0,,230721,4.3,W,A*0A
$GPGGA,001642.50,3000.002840,N,11959.999411,E,1,00,1.2,-24.9,M,7.0,M,,*4B

$GPVTG,,T,,M,0.0,N,0.0,K,A*23
$GPDTM,P90,,0000.000022,S,00000.000001,W,0.988,W84*5A
$GPRMC,001642.60,A,3000.002840,N,11959.999411,E,0.0,,230721,4.3,W,A*09
$GPGGA,001642.60,3000.002840,N,11959.999411,E,1,00,1.2,-24.9,M,7.0,M,,*48

$GPVTG,,T,,M,0.0,N,0.0,K,A*23
$GPDTM,P90,,0000.000022,S,00000.000001,W,0.988,W84*5A
$GPRMC,001642.70,A,3000.002840,N,11959.999411,E,0.0,,230721,4.3,W,A*08
$GPGGA,001642.70,3000.002840,N,11959.999411,E,1,00,1.2,-24.9,M,7.0,M,,*49

$GPVTG,,T,,M,0.0,N,0.0,K,A*23
$GPDTM,P90,,0000.000022,S,00000.000001,W,0.988,W84*5A
$GPRMC,001642.80,A,3000.002840,N,11959.999411,E,0.0,,230721,4.3,W,A*07
$GPGGA,001642.80,3000.002840,N,11959.999411,E,1,00,1.2,-24.9,M,7.0,M,,*46

$GPVTG,,T,,M,0.0,N,0.0,K,A*23
$GPDTM,P90,,0000.000022,S,00000.000001,W,0.988,W84*5A
$GPRMC,001642.90,A,3000.002840,N,11959.999411,E,0.0,,230721,4.3,W,A*06
$GPGGA,001642.90,3000.002840,N,11959.999411,E,1,00,1.2,-24.9,M,7.0,M,,*47

$GPGSV,3,1,10,02,34,291,26,04,46,236,26,07,00,000,27,08,20,066,27*79
$GPGSV,3,2,10,13,45,037,26,20,16,125,27,23,22,061,27,25,00,000,26*7C
$GPGSV,3,3,10,27,00,000,26,30,45,251,*7D
$GLGSV,1,1,02,71,04,075,,72,00,000,*62
$GAGSV,1,1,0,7*43
$PQGSV,1,1,0,0*43
$PQGSV,1,1,02,12,61,320,,13,35,202,*6C
$GPGSA,A,3,02,04,13,20,23,,,,,,,,1.6,1.2,1.0*30
$GPVTG,,T,,M,0.0,N,0.0,K,A*23
$GPDTM,P90,,0000.000022,S,00000.000001,W,0.988,W84*5A
$GPRMC,001643.00,A,3000.002833,N,11959.999418,E,0.0,,230721,4.3,W,A*03
$GPGGA,001643.00,3000.002833,N,11959.999418,E,1,05,1.2,-24.9,M,7.0,M,,*47

$GPVTG,,T,,M,0.0,N,0.0,K,A*23
$GPDTM,P90,,0000.000022,S,00000.000001,W,0.988,W84*5A
$GPRMC,001643.10,A,3000.002833,N,11959.999418,E,0.0,,230721,4.3,W,A*02
$GPGGA,001643.10,3000.002833,N,11959.999418,E,1,00,1.2,-24.9,M,7.0,M,,*43

$GPVTG,,T,,M,0.0,N,0.0,K,A*23
$GPDTM,P90,,0000.000022,S,00000.000001,W,0.988,W84*5A
$GPRMC,001643.20,A,3000.002833,N,11959.999418,E,0.0,,230721,4.3,W,A*01
$GPGGA,001643.20,3000.002833,N,11959.999418,E,1,00,1.2,-24.9,M,7.0,M,,*40

$GPVTG,,T,,M,0.0,N,0.0,K,A*23
$GPDTM,P90,,0000.000022,S,00000.000001,W,0.988,W84*5A
$GPRMC,001643.30,A,3000.002833,N,11959.999418,E,0.0,,230721,4.3,W,A*00
$GPGGA,001643.30,3000.002833,N,11959.999418,E,1,00,1.2,-24.9,M,7.0,M,,*41

$GPVTG,,T,,M,0.0,N,0.0,K,A*23
$GPDTM,P90,,0000.000022,S,00000.000001,W,0.988,W84*5A
$GPRMC,001643.40,A,3000.002833,N,11959.999418,E,0.0,,230721,4.3,W,A*07
$GPGGA,001643.40,3000.002833,N,11959.999418,E,1,00,1.2,-24.9,M,7.0,M,,*46

$GPVTG,,T,,M,0.0,N,0.0,K,A*23
$GPDTM,P90,,0000.000022,S,00000.000001,W,0.988,W84*5A
$GPRMC,001643.50,A,3000.002833,N,11959.999418,E,0.0,,230721,4.3,W,A*06
$GPGGA,001643.50,3000.002833,N,11959.999418,E,1,00,1.2,-24.9,M,7.0,M,,*47

$GPVTG,,T,,M,0.0,N,0.0,K,A*23
$GPDTM,P90,,0000.000022,S,00000.000001,W,0.988,W84*5A
$GPRMC,001643.60,A,3000.002833,N,11959.999418,E,0.0,,230721,4.3,W,A*05
$GPGGA,001643.60,3000.002833,N,11959.999418,E,1,00,1.2,-24.9,M,7.0,M,,*44

$GPVTG,,T,,M,0.0,N,0.0,K,A*23
$GPDTM,P90,,0000.000022,S,00000.000001,W,0.988,W84*5A
$GPRMC,001643.70,A,3000.002833,N,11959.999418,E,0.0,,230721,4.3,W,A*04
$GPGGA,001643.70,3000.002833,N,11959.999418,E,1,00,1.2,-24.9,M,7.0,M,,*45

$GPVTG,,T,,M,0.0,N,0.0,K,A*23
$GPDTM,P90,,0000.000022,S,00000.000001,W,0.988,W84*5A
$GPRMC,001643.80,A,3000.002833,N,11959.999418,E,0.0,,230721,4.3,W,A*0B
$GPGGA,001643.80,3000.002833,N,11959.999418,E,1,00,1.2,-24.9,M,7.0,M,,*4A

$GPVTG,,T,,M,0.0,N,0.0,K,A*23
$GPDTM,P90,,0000.000022,S,00000.000001,W,0.988,W84*5A
$GPRMC,001643.90,A,3000.002833,N,11959.999418,E,0.0,,230721,4.3,W,A*0A
$GPGGA,001643.90,3000.002833,N,11959.999418,E,1,00,1.2,-24.9,M,7.0,M,,*4B

$GPGSV,3,1,10,02,34,291,27,04,46,236,27,07,00,000,27,08,20,066,27*79
$GPGSV,3,2,10,13,45,037,26,20,16,125,25,23,22,061,26,25,00,000,27*7E
$GPGSV,3,3,10,27,00,000,26,30,45,251,*7D
$GLGSV,1,1,02,71,04,075,,72,00,000,*62
$GAGSV,1,1,0,7*43
$PQGSV,1,1,0,0*43
$PQGSV,1,1,02,12,61,320,,13,35,202,*6C
$GPGSA,A,3,02,04,13,20,23,,,,,,,,1.6,1.2,1.0*30
$GPVTG,,T,,M,0.0,N,0.0,K,A*23
$GPDTM,P90,,0000.000022,S,00000.000001,W,0.988,W84*5A
$GPRMC,001644.00,A,3000.002830,N,11959.999423,E,0.0,,230721,4.3,W,A*0F
$GPGGA,001644.00,3000.002830,N,11959.999423,E,1,05,1.2,-24.8,M,7.0,M,,*4A

$GPVTG,,T,,M,0.0,N,0.0,K,A*23
$GPDTM,P90,,0000.000022,S,00000.000001,W,0.988,W84*5A
$GPRMC,001644.10,A,3000.002830,N,11959.999423,E,0.0,,230721,4.3,W,A*0E
$GPGGA,001644.10,3000.002830,N,11959.999423,E,1,00,1.2,-24.8,M,7.0,M,,*4E

$GPVTG,,T,,M,0.0,N,0.0,K,A*23
$GPDTM,P90,,0000.000022,S,00000.000001,W,0.988,W84*5A
$GPRMC,001644.20,A,3000.002830,N,11959.999423,E,0.0,,230721,4.3,W,A*0D
$GPGGA,001644.20,3000.002830,N,11959.999423,E,1,00,1.2,-24.8,M,7.0,M,,*4D

$GPVTG,,T,,M,0.0,N,0.0,K,A*23
$GPDTM,P90,,0000.000022,S,00000.000001,W,0.988,W84*5A
$GPRMC,001644.30,A,3000.002830,N,11959.999423,E,0.0,,230721,4.3,W,A*0C
$GPGGA,001644.30,3000.002830,N,11959.999423,E,1,00,1.2,-24.8,M,7.0,M,,*4C

$GPVTG,,T,,M,0.0,N,0.0,K,A*23
$GPDTM,P90,,0000.000022,S,00000.000001,W,0.988,W84*5A
$GPRMC,001644.40,A,3000.002830,N,11959.999423,E,0.0,,230721,4.3,W,A*0B
$GPGGA,001644.40,3000.002830,N,11959.999423,E,1,00,1.2,-24.8,M,7.0,M,,*4B

$GPVTG,,T,,M,0.0,N,0.0,K,A*23
$GPDTM,P90,,0000.000022,S,00000.000001,W,0.988,W84*5A
$GPRMC,001644.50,A,3000.002830,N,11959.999423,E,0.0,,230721,4.3,W,A*0A
$GPGGA,001644.50,3000.002830,N,11959.999423,E,1,00,1.2,-24.8,M,7.0,M,,*4A

$GPVTG,,T,,M,0.0,N,0.0,K,A*23
$GPDTM,P90,,0000.000022,S,00000.000001,W,0.988,W84*5A
$GPRMC,001644.60,A,3000.002830,N,11959.999423,E,0.0,,230721,4.3,W,A*09
$GPGGA,001644.60,3000.002830,N,11959.999423,E,1,00,1.2,-24.8,M,7.0,M,,*49

$GPVTG,,T,,M,0.0,N,0.0,K,A*23
$GPDTM,P90,,0000.000022,S,00000.000001,W,0.988,W84*5A
$GPRMC,001644.70,A,3000.002830,N,11959.999423,E,0.0,,230721,4.3,W,A*08
$GPGGA,001644.70,3000.002830,N,11959.999423,E,1,00,1.2,-24.8,M,7.0,M,,*48

$GPVTG,,T,,M,0.0,N,0.0,K,A*23
$GPDTM,P90,,0000.000022,S,00000.000001,W,0.988,W84*5A
$GPRMC,001644.80,A,3000.002830,N,11959.999423,E,0.0,,230721,4.3,W,A*07
$GPGGA,001644.80,3000.002830,N,11959.999423,E,1,00,1.2,-24.8,M,7.0,M,,*47

$GPVTG,,T,,M,0.0,N,0.0,K,A*23
$GPDTM,P90,,0000.000022,S,00000.000001,W,0.988,W84*5A
$GPRMC,001644.90,A,3000.002830,N,11959.999423,E,0.0,,230721,4.3,W,A*06
$GPGGA,001644.90,3000.002830,N,11959.999423,E,1,00,1.2,-24.8,M,7.0,M,,*46

$GPGSV,3,1,10,02,34,291,26,04,46,236,27,07,00,000,28,08,20,066,26*76
$GPGSV,3,2,10,13,45,037,27,20,16,125,25,23,22,061,25,25,00,000,26*7D
$GPGSV,3,3,10,27,00,000,24,30,45,251,*7F
$GLGSV,1,1,02,71,04,075,,72,00,000,*62
$GAGSV,1,1,0,7*43
$PQGSV,1,1,0,0*43
$PQGSV,1,1,02,12,61,320,,13,35,202,*6C
$GPGSA,A,3,02,04,13,20,23,,,,,,,,1.6,1.2,1.0*30
$GPVTG,,T,,M,0.0,N,0.0,K,A*23
$GPDTM,P90,,0000.000022,S,00000.000001,W,0.988,W84*5A
$GPRMC,001645.00,A,3000.002834,N,11959.999416,E,0.0,,230721,4.3,W,A*0C
$GPGGA,001645.00,3000.002834,N,11959.999416,E,1,05,1.2,-24.9,M,7.0,M,,*48

$GPVTG,,T,,M,0.0,N,0.0,K,A*23
$GPDTM,P90,,0000.000022,S,00000.000001,W,0.988,W84*5A
$GPRMC,001645.10,A,3000.002834,N,11959.999416,E,0.0,,230721,4.3,W,A*0D
$GPGGA,001645.10,3000.002834,N,11959.999416,E,1,00,1.2,-24.9,M,7.0,M,,*4C

$GPVTG,,T,,M,0.0,N,0.0,K,A*23
$GPDTM,P90,,0000.000022,S,00000.000001,W,0.988,W84*5A
$GPRMC,001645.20,A,3000.002834,N,11959.999416,E,0.0,,230721,4.3,W,A*0E
$GPGGA,001645.20,3000.002834,N,11959.999416,E,1,00,1.2,-24.9,M,7.0,M,,*4F

$GPVTG,,T,,M,0.0,N,0.0,K,A*23
$GPDTM,P90,,0000.000022,S,00000.000001,W,0.988,W84*5A
$GPRMC,001645.30,A,3000.002834,N,11959.999416,E,0.0,,230721,4.3,W,A*0F
$GPGGA,001645.30,3000.002834,N,11959.999416,E,1,00,1.2,-24.9,M,7.0,M,,*4E

$GPVTG,,T,,M,0.0,N,0.0,K,A*23
$GPDTM,P90,,0000.000022,S,00000.000001,W,0.988,W84*5A
$GPRMC,001645.40,A,3000.002834,N,11959.999416,E,0.0,,230721,4.3,W,A*08
$GPGGA,001645.40,3000.002834,N,11959.999416,E,1,00,1.2,-24.9,M,7.0,M,,*49

$GPVTG,,T,,M,0.0,N,0.0,K,A*23
$GPDTM,P90,,0000.000022,S,00000.000001,W,0.988,W84*5A
$GPRMC,001645.50,A,3000.002834,N,11959.999416,E,0.0,,230721,4.3,W,A*09
$GPGGA,001645.50,3000.002834,N,11959.999416,E,1,00,1.2,-24.9,M,7.0,M,,*48

$GPVTG,,T,,M,0.0,N,0.0,K,A*23
$GPDTM,P90,,0000.000022,S,00000.000001,W,0.988,W84*5A
$GPRMC,001645.60,A,3000.002834,N,11959.999416,E,0.0,,230721,4.3,W,A*0A
$GPGGA,001645.60,3000.002834,N,11959.999416,E,1,00,1.2,-24.9,M,7.0,M,,*4B

$GPVTG,,T,,M,0.0,N,0.0,K,A*23
$GPDTM,P90,,0000.000022,S,00000.000001,W,0.988,W84*5A
$GPRMC,001645.70,A,3000.002834,N,11959.999416,E,0.0,,230721,4.3,W,A*0B
$GPGGA,001645.70,3000.002834,N,11959.999416,E,1,00,1.2,-24.9,M,7.0,M,,*4A

$GPVTG,,T,,M,0.0,N,0.0,K,A*23
$GPDTM,P90,,0000.000022,S,00000.000001,W,0.988,W84*5A
$GPRMC,001645.80,A,3000.002834,N,11959.999416,E,0.0,,230721,4.3,W,A*04
$GPGGA,001645.80,3000.002834,N,11959.999416,E,1,00,1.2,-24.9,M,7.0,M,,*45

$GPVTG,,T,,M,0.0,N,0.0,K,A*23
$GPDTM,P90,,0000.000022,S,00000.000001,W,0.988,W84*5A
$GPRMC,001645.90,A,3000.002834,N,11959.999416,E,0.0,,230721,4.3,W,A*05
$GPGGA,001645.90,3000.002834,N,11959.999416,E,1,00,1.2,-24.9,M,7.0,M,,*44

$GPGSV,3,1,10,02,34,291,27,04,46,236,26,07,00,000,27,08,20,066,27*78
$GPGSV,3,2,10,13,45,037,26,20,16,125,26,23,22,061,26,25,00,000,27*7D
$GPGSV,3,3,10,27,00,000,26,30,45,251,*7D
$GLGSV,1,1,02,71,04,075,,72,00,000,*62
$GAGSV,1,1,0,7*43
$PQGSV,1,1,0,0*43
$PQGSV,1,1,02,12,61,320,,13,35,202,*6C
$GPGSA,A,3,02,04,13,20,23,,,,,,,,1.6,1.2,1.0*30
$GPVTG,,T,,M,0.0,N,0.0,K,A*23
$GPDTM,P90,,0000.000022,S,00000.000001,W,0.988,W84*5A
$GPRMC,001646.00,A,3000.002837,N,11959.999413,E,0.0,,230721,4.3,W,A*09
$GPGGA,001646.00,3000.002837,N,11959.999413,E,1,05,1.2,-24.9,M,7.0,M,,*4D

$GPVTG,,T,,M,0.0,N,0.0,K,A*23
$GPDTM,P90,,0000.000022,S,00000.000001,W,0.988,W84*5A
$GPRMC,001646.10,A,3000.002837,N,11959.999413,E,0.0,,230721,4.3,W,A*08
$GPGGA,001646.10,3000.002837,N,11959.999413,E,1,00,1.2,-24.9,M,7.0,M,,*49

$GPVTG,,T,,M,0.0,N,0.0,K,A*23
$GPDTM,P90,,0000.000022,S,00000.000001,W,0.988,W84*5A
$GPRMC,001646.20,A,3000.002837,N,11959.999413,E,0.0,,230721,4.3,W,A*0B
$GPGGA,001646.20,3000.002837,N,11959.999413,E,1,00,1.2,-24.9,M,7.0,M,,*4A

$GPVTG,,T,,M,0.0,N,0.0,K,A*23
$GPDTM,P90,,0000.000022,S,00000.000001,W,0.988,W84*5A
$GPRMC,001646.30,A,3000.002837,N,11959.999413,E,0.0,,230721,4.3,W,A*0A
$GPGGA,001646.30,3000.002837,N,11959.999413,E,1,00,1.2,-24.9,M,7.0,M,,*4B

$GPVTG,,T,,M,0.0,N,0.0,K,A*23
$GPDTM,P90,,0000.000022,S,00000.000001,W,0.988,W84*5A
$GPRMC,001646.40,A,3000.002837,N,11959.999413,E,0.0,,230721,4.3,W,A*0D
$GPGGA,001646.40,3000.002837,N,11959.999413,E,1,00,1.2,-24.9,M,7.0,M,,*4C

$GPVTG,,T,,M,0.0,N,0.0,K,A*23
$GPDTM,P90,,0000.000022,S,00000.000001,W,0.988,W84*5A
$GPRMC,001646.50,A,3000.002837,N,11959.999413,E,0.0,,230721,4.3,W,A*0C
$GPGGA,001646.50,3000.002837,N,11959.999413,E,1,00,1.2,-24.9,M,7.0,M,,*4D

$GPVTG,,T,,M,0.0,N,0.0,K,A*23
$GPDTM,P90,,0000.000022,S,00000.000001,W,0.988,W84*5A
$GPRMC,001646.60,A,3000.002837,N,11959.999413,E,0.0,,230721,4.3,W,A*0F
$GPGGA,001646.60,3000.002837,N,11959.999413,E,1,00,1.2,-24.9,M,7.0,M,,*4E

$GPVTG,,T,,M,0.0,N,0.0,K,A*23
$GPDTM,P90,,0000.000022,S,00000.000001,W,0.988,W84*5A
$GPRMC,001646.70,A,3000.002837,N,11959.999413,E,0.0,,230721,4.3,W,A*0E
$GPGGA,001646.70,3000.002837,N,11959.999413,E,1,00,1.2,-24.9,M,7.0,M,,*4F

$GPVTG,,T,,M,0.0,N,0.0,K,A*23
$GPDTM,P90,,0000.000022,S,00000.000001,W,0.988,W84*5A
$GPRMC,001646.80,A,3000.002837,N,11959.999413,E,0.0,,230721,4.3,W,A*01
$GPGGA,001646.80,3000.002837,N,11959.999413,E,1,00,1.2,-24.9,M,7.0,M,,*40

$GPVTG,,T,,M,0.0,N,0.0,K,A*23
$GPDTM,P90,,0000.000022,S,00000.000001,W,0.988,W84*5A
$GPRMC,001646.90,A,3000.002837,N,11959.999413,E,0.0,,230721,4.3,W,A*00
$GPGGA,001646.90,3000.002837,N,11959.999413,E,1,00,1.2,-24.9,M,7.0,M,,*41

$GPGSV,3,1,10,02,34,291,26,04,46,236,27,07,00,000,26,08,20,066,26*78
$GPGSV,3,2,10,13,45,037,26,20,16,125,26,23,22,061,25,25,00,000,26*7F
$GPGSV,3,3,10,27,00,000,26,30,45,251,*7D
$GLGSV,1,1,02,71,04,075,,72,00,000,*62
$GAGSV,1,1,0,7*43
$PQGSV,1,1,0,0*43
$PQGSV,1,1,02,12,61,320,,13,35,202,*6C
$GPGSA,A,3,02,04,13,20,23,,,,,,,,1.6,1.2,1.0*30
$GPVTG,,T,,M,0.0,N,0.0,K,A*23
$GPDTM,P90,,0000.000022,S,00000.000001,W,0.988,W84*5A
$GPRMC,001647.00,A,3000.002833,N,11959.999416,E,0.0,,230721,4.3,W,A*09
$GPGGA,001647.00,3000.002833,N,11959.999416,E,1,05,1.2,-24.9,M,7.0,M,,*4D

$GPVTG,,T,,M,0.0,N,0.0,K,A*23
$GPDTM,P90,,0000.000022,S,00000.000001,W,0.988,W84*5A
$GPRMC,001647.10,A,3000.002833,N,11959.999416,E,0.0,,230721,4.3,W,A*08
$GPGGA,001647.10,3000.002833,N,11959.999416,E,1,00,1.2,-24.9,M,7.0,M,,*49

$GPVTG,,T,,M,0.0,N,0.0,K,A*23
$GPDTM,P90,,0000.000022,S,00000.000001,W,0.988,W84*5A
$GPRMC,001647.20,A,3000.002833,N,11959.999416,E,0.0,,230721,4.3,W,A*0B
$GPGGA,001647.20,3000.002833,N,11959.999416,E,1,00,1.2,-24.9,M,7.0,M,,*4A

$GPVTG,,T,,M,0.0,N,0.0,K,A*23
$GPDTM,P90,,0000.000022,S,00000.000001,W,0.988,W84*5A
$GPRMC,001647.30,A,3000.002833,N,11959.999416,E,0.0,,230721,4.3,W,A*0A
$GPGGA,001647.30,3000.002833,N,11959.999416,E,1,00,1.2,-24.9,M,7.0,M,,*4B

$GPVTG,,T,,M,0.0,N,0.0,K,A*23
$GPDTM,P90,,0000.000022,S,00000.000001,W,0.988,W84*5A
$GPRMC,001647.40,A,3000.002833,N,11959.999416,E,0.0,,230721,4.3,W,A*0D
$GPGGA,001647.40,3000.002833,N,11959.999416,E,1,00,1.2,-24.9,M,7.0,M,,*4C

$GPVTG,,T,,M,0.0,N,0.0,K,A*23
$GPDTM,P90,,0000.000022,S,00000.000001,W,0.988,W84*5A
$GPRMC,001647.50,A,3000.002833,N,11959.999416,E,0.0,,230721,4.3,W,A*0C
$GPGGA,001647.50,3000.002833,N,11959.999416,E,1,00,1.2,-24.9,M,7.0,M,,*4D

$GPVTG,,T,,M,0.0,N,0.0,K,A*23
$GPDTM,P90,,0000.000022,S,00000.000001,W,0.988,W84*5A
$GPRMC,001647.60,A,3000.002833,N,11959.999416,E,0.0,,230721,4.3,W,A*0F
$GPGGA,001647.60,3000.002833,N,11959.999416,E,1,00,1.2,-24.9,M,7.0,M,,*4E

$GPVTG,,T,,M,0.0,N,0.0,K,A*23
$GPDTM,P90,,0000.000022,S,00000.000001,W,0.988,W84*5A
$GPRMC,001647.70,A,3000.002833,N,11959.999416,E,0.0,,230721,4.3,W,A*0E
$GPGGA,001647.70,3000.002833,N,11959.999416,E,1,00,1.2,-24.9,M,7.0,M,,*4F

$GPVTG,,T,,M,0.0,N,0.0,K,A*23
$GPDTM,P90,,0000.000022,S,00000.000001,W,0.988,W84*5A
$GPRMC,001647.80,A,3000.002833,N,11959.999416,E,0.0,,230721,4.3,W,A*01
$GPGGA,001647.80,3000.002833,N,11959.999416,E,1,00,1.2,-24.9,M,7.0,M,,*40

$GPVTG,,T,,M,0.0,N,0.0,K,A*23
$GPDTM,P90,,0000.000022,S,00000.000001,W,0.988,W84*5A
$GPRMC,001647.90,A,3000.002833,N,11959.999416,E,0.0,,230721,4.3,W,A*00
$GPGGA,001647.90,3000.002833,N,11959.999416,E,1,00,1.2,-24.9,M,7.0,M,,*41

$GPGSV,3,1,10,02,34,291,27,04,46,236,26,07,00,000,26,08,20,066,26*78
$GPGSV,3,2,10,13,45,037,27,20,16,125,25,23,22,061,27,25,00,000,27*7E
$GPGSV,3,3,10,27,00,000,26,30,45,251,*7D
$GLGSV,1,1,02,71,04,075,,72,00,000,*62
$GAGSV,1,1,0,7*43
$PQGSV,1,1,0,0*43
$PQGSV,1,1,02,12,61,320,,13,35,202,*6C
$GPGSA,A,3,02,04,13,20,23,,,,,,,,1.6,1.2,1.0*30
$GPVTG,,T,,M,0.0,N,0.0,K,A*23
$GPDTM,P90,,0000.000022,S,00000.000001,W,0.988,W84*5A
$GPRMC,001648.00,A,3000.002815,N,11959.999441,E,0.0,,230721,4.3,W,A*00
$GPGGA,001648.00,3000.002815,N,11959.999441,E,1,05,1.2,-24.7,M,7.0,M,,*4A

$GPVTG,,T,,M,0.0,N,0.0,K,A*23
$GPDTM,P90,,0000.000022,S,00000.000001,W,0.988,W84*5A
$GPRMC,001648.10,A,3000.002815,N,11959.999441,E,0.0,,230721,4.3,W,A*01
$GPGGA,001648.10,3000.002815,N,11959.999441,E,1,00,1.2,-24.7,M,7.0,M,,*4E

$GPVTG,,T,,M,0.0,N,0.0,K,A*23
$GPDTM,P90,,0000.000022,S,00000.000001,W,0.988,W84*5A
$GPRMC,001648.20,A,3000.002815,N,11959.999441,E,0.0,,230721,4.3,W,A*02
$GPGGA,001648.20,3000.002815,N,11959.999441,E,1,00,1.2,-24.7,M,7.0,M,,*4D

$GPVTG,,T,,M,0.0,N,0.0,K,A*23
$GPDTM,P90,,0000.000022,S,00000.000001,W,0.988,W84*5A
$GPRMC,001648.30,A,3000.002815,N,11959.999441,E,0.0,,230721,4.3,W,A*03
$GPGGA,001648.30,3000.002815,N,11959.999441,E,1,00,1.2,-24.7,M,7.0,M,,*4C

$GPVTG,,T,,M,0.0,N,0.0,K,A*23
$GPDTM,P90,,0000.000022,S,00000.000001,W,0.988,W84*5A
$GPRMC,001648.40,A,3000.002815,N,11959.999441,E,0.0,,230721,4.3,W,A*04
$GPGGA,001648.40,3000.002815,N,11959.999441,E,1,00,1.2,-24.7,M,7.0,M,,*4B

$GPVTG,,T,,M,0.0,N,0.0,K,A*23
$GPDTM,P90,,0000.000022,S,00000.000001,W,0.988,W84*5A
$GPRMC,001648.50,A,3000.002815,N,11959.999441,E,0.0,,230721,4.3,W,A*05
$GPGGA,001648.50,3000.002815,N,11959.999441,E,1,00,1.2,-24.7,M,7.0,M,,*4A

$GPVTG,,T,,M,0.0,N,0.0,K,A*23
$GPDTM,P90,,0000.000022,S,00000.000001,W,0.988,W84*5A
$GPRMC,001648.60,A,3000.002815,N,11959.999441,E,0.0,,230721,4.3,W,A*06
$GPGGA,001648.60,3000.002815,N,11959.999441,E,1,00,1.2,-24.7,M,7.0,M,,*49

$GPVTG,,T,,M,0.0,N,0.0,K,A*23
$GPDTM,P90,,0000.000022,S,00000.000001,W,0.988,W84*5A
$GPRMC,001648.70,A,3000.002815,N,11959.999441,E,0.0,,230721,4.3,W,A*07
$GPGGA,001648.70,3000.002815,N,11959.999441,E,1,00,1.2,-24.7,M,7.0,M,,*48

$GPVTG,,T,,M,0.0,N,0.0,K,A*23
$GPDTM,P90,,0000.000022,S,00000.000001,W,0.988,W84*5A
$GPRMC,001648.80,A,3000.002815,N,11959.999441,E,0.0,,230721,4.3,W,A*08
$GPGGA,001648.80,3000.002815,N,11959.999441,E,1,00,1.2,-24.7,M,7.0,M,,*47

$GPVTG,,T,,M,0.0,N,0.0,K,A*23
$GPDTM,P90,,0000.000022,S,00000.000001,W,0.988,W84*5A
$GPRMC,001648.90,A,3000.002815,N,11959.999441,E,0.0,,230721,4.3,W,A*09
$GPGGA,001648.90,3000.002815,N,11959.999441,E,1,00,1.2,-24.7,M,7.0,M,,*46

$GPGSV,3,1,10,02,34,291,27,04,46,236,26,07,00,000,25,08,20,066,27*7A
$GPGSV,3,2,10,13,45,037,26,20,16,125,27,23,22,061,27,25,00,000,27*7D
$GPGSV,3,3,10,27,00,000,26,30,45,251,*7D
$GLGSV,1,1,02,71,04,075,,72,00,000,*62
$GAGSV,1,1,0,7*43
$PQGSV,1,1,0,0*43
$PQGSV,1,1,02,12,61,320,,13,35,202,*6C
$GPGSA,A,3,02,04,13,20,23,,,,,,,,1.6,1.2,1.0*30
$GPVTG,,T,,M,0.0,N,0.0,K,A*23
$GPDTM,P90,,0000.000022,S,00000.000001,W,0.988,W84*5A
$GPRMC,001649.00,A,3000.002814,N,11959.999442,E,0.0,,230721,4.3,W,A*03
$GPGGA,001649.00,3000.002814,N,11959.999442,E,1,05,1.2,-24.7,M,7.0,M,,*49

$GPVTG,,T,,M,0.0,N,0.0,K,A*23
$GPDTM,P90,,0000.000022,S,00000.000001,W,0.988,W84*5A
$GPRMC,001649.10,A,3000.002814,N,11959.999442,E,0.0,,230721,4.3,W,A*02
$GPGGA,001649.10,3000.002814,N,11959.999442,E,1,00,1.2,-24.7,M,7.0,M,,*4D

$GPVTG,,T,,M,0.0,N,0.0,K,A*23
$GPDTM,P90,,0000.000022,S,00000.000001,W,0.988,W84*5A
$GPRMC,001649.20,A,3000.002814,N,11959.999442,E,0.0,,230721,4.3,W,A*01
$GPGGA,001649.20,3000.002814,N,11959.999442,E,1,00,1.2,-24.7,M,7.0,M,,*4E

$GPVTG,,T,,M,0.0,N,0.0,K,A*23
$GPDTM,P90,,0000.000022,S,00000.000001,W,0.988,W84*5A
$GPRMC,001649.30,A,3000.002814,N,11959.999442,E,0.0,,230721,4.3,W,A*00
$GPGGA,001649.30,3000.002814,N,11959.999442,E,1,00,1.2,-24.7,M,7.0,M,,*4F

$GPVTG,,T,,M,0.0,N,0.0,K,A*23
$GPDTM,P90,,0000.000022,S,00000.000001,W,0.988,W84*5A
$GPRMC,001649.40,A,3000.002814,N,11959.999442,E,0.0,,230721,4.3,W,A*07
$GPGGA,001649.40,3000.002814,N,11959.999442,E,1,00,1.2,-24.7,M,7.0,M,,*48

$GPVTG,,T,,M,0.0,N,0.0,K,A*23
$GPDTM,P90,,0000.000022,S,00000.000001,W,0.988,W84*5A
$GPRMC,001649.50,A,3000.002814,N,11959.999442,E,0.0,,230721,4.3,W,A*06
$GPGGA,001649.50,3000.002814,N,11959.999442,E,1,00,1.2,-24.7,M,7.0,M,,*49

$GPVTG,,T,,M,0.0,N,0.0,K,A*23
$GPDTM,P90,,0000.000022,S,00000.000001,W,0.988,W84*5A
$GPRMC,001649.60,A,3000.002814,N,11959.999442,E,0.0,,230721,4.3,W,A*05
$GPGGA,001649.60,3000.002814,N,11959.999442,E,1,00,1.2,-24.7,M,7.0,M,,*4A

$GPVTG,,T,,M,0.0,N,0.0,K,A*23
$GPDTM,P90,,0000.000022,S,00000.000001,W,0.988,W84*5A
$GPRMC,001649.70,A,3000.002814,N,11959.999442,E,0.0,,230721,4.3,W,A*04
$GPGGA,001649.70,3000.002814,N,11959.999442,E,1,00,1.2,-24.7,M,7.0,M,,*4B

$GPVTG,,T,,M,0.0,N,0.0,K,A*23
$GPDTM,P90,,0000.000022,S,00000.000001,W,0.988,W84*5A
$GPRMC,001649.80,A,3000.002814,N,11959.999442,E,0.0,,230721,4.3,W,A*0B
$GPGGA,001649.80,3000.002814,N,11959.999442,E,1,00,1.2,-24.7,M,7.0,M,,*44

$GPVTG,,T,,M,0.0,N,0.0,K,A*23
$GPDTM,P90,,0000.000022,S,00000.000001,W,0.988,W84*5A
$GPRMC,001649.90,A,3000.002814,N,11959.999442,E,0.0,,230721,4.3,W,A*0A
$GPGGA,001649.90,3000.002814,N,11959.999442,E,1,00,1.2,-24.7,M,7.0,M,,*45

$GPGSV,3,1,10,02,34,291,26,04,46,236,27,07,00,000,27,08,20,066,27*78
$GPGSV,3,2,10,13,45,037,26,20,16,125,26,23,22,061,25,25,00,000,26*7F
$GPGSV,3,3,10,27,00,000,26,30,45,251,*7D
$GLGSV,1,1,02,71,04,075,,72,00,000,*62
$GAGSV,1,1,0,7*43
$PQGSV,1,1,0,0*43
$PQGSV,1,1,02,12,61,320,,13,35,202,*6C
$GPGSA,A,3,02,04,13,20,23,,,,,,,,1.6,1.2,1.0*30
$GPVTG,,T,,M,0.0,N,0.0,K,A*23
$GPDTM,P90,,0000.000022,S,00000.000001,W,0.988,W84*5A
$GPRMC,001650.00,A,3000.002806,N,11959.999451,E,0.0,,230721,4.3,W,A*0A
$GPGGA,001650.00,3000.002806,N,11959.999451,E,1,05,1.2,-24.7,M,7.0,M,,*40

$GPVTG,,T,,M,0.0,N,0.0,K,A*23
$GPDTM,P90,,0000.000022,S,00000.000001,W,0.988,W84*5A
$GPRMC,001650.10,A,3000.002806,N,11959.999451,E,0.0,,230721,4.3,W,A*0B
$GPGGA,001650.10,3000.002806,N,11959.999451,E,1,00,1.2,-24.7,M,7.0,M,,*44

$GPVTG,,T,,M,0.0,N,0.0,K,A*23
$GPDTM,P90,,0000.000022,S,00000.000001,W,0.988,W84*5A
$GPRMC,001650.20,A,3000.002806,N,11959.999451,E,0.0,,230721,4.3,W,A*08
$GPGGA,001650.20,3000.002806,N,11959.999451,E,1,00,1.2,-24.7,M,7.0,M,,*47

$GPVTG,,T,,M,0.0,N,0.0,K,A*23
$GPDTM,P90,,0000.000022,S,00000.000001,W,0.988,W84*5A
$GPRMC,001650.30,A,3000.002806,N,11959.999451,E,0.0,,230721,4.3,W,A*09
$GPGGA,001650.30,3000.002806,N,11959.999451,E,1,00,1.2,-24.7,M,7.0,M,,*46

$GPVTG,,T,,M,0.0,N,0.0,K,A*23
$GPDTM,P90,,0000.000022,S,00000.000001,W,0.988,W84*5A
$GPRMC,001650.40,A,3000.002806,N,11959.999451,E,0.0,,230721,4.3,W,A*0E
$GPGGA,001650.40,3000.002806,N,11959.999451,E,1,00,1.2,-24.7,M,7.0,M,,*41

$GPVTG,,T,,M,0.0,N,0.0,K,A*23
$GPDTM,P90,,0000.000022,S,00000.000001,W,0.988,W84*5A
$GPRMC,001650.50,A,3000.002806,N,11959.999451,E,0.0,,230721,4.3,W,A*0F
$GPGGA,001650.50,3000.002806,N,11959.999451,E,1,00,1.2,-24.7,M,7.0,M,,*40

$GPVTG,,T,,M,0.0,N,0.0,K,A*23
$GPDTM,P90,,0000.000022,S,00000.000001,W,0.988,W84*5A
$GPRMC,001650.60,A,3000.002806,N,11959.999451,E,0.0,,230721,4.3,W,A*0C
$GPGGA,001650.60,3000.002806,N,11959.999451,E,1,00,1.2,-24.7,M,7.0,M,,*43

$GPVTG,,T,,M,0.0,N,0.0,K,A*23
$GPDTM,P90,,0000.000022,S,00000.000001,W,0.988,W84*5A
$GPRMC,001650.70,A,3000.002806,N,11959.999451,E,0.0,,230721,4.3,W,A*0D
$GPGGA,001650.70,3000.002806,N,11959.999451,E,1,00,1.2,-24.7,M,7.0,M,,*42

$GPVTG,,T,,M,0.0,N,0.0,K,A*23
$GPDTM,P90,,0000.000022,S,00000.000001,W,0.988,W84*5A
$GPRMC,001650.80,A,3000.002806,N,11959.999451,E,0.0,,230721,4.3,W,A*02
$GPGGA,001650.80,3000.002806,N,11959.999451,E,1,00,1.2,-24.7,M,7.0,M,,*4D

$GPVTG,,T,,M,0.0,N,0.0,K,A*23
$GPDTM,P90,,0000.000022,S,00000.000001,W,0.988,W84*5A
$GPRMC,001650.90,A,3000.002806,N,11959.999451,E,0.0,,230721,4.3,W,A*03
$GPGGA,001650.90,3000.002806,N,11959.999451,E,1,00,1.2,-24.7,M,7.0,M,,*4C

$GPGSV,3,1,10,02,34,291,27,04,46,236,27,07,00,000,27,08,20,066,26*78
$GPGSV,3,2,10,13,45,037,26,20,16,125,26,23,22,061,25,25,00,000,26*7F
$GPGSV,3,3,10,27,00,000,26,30,45,251,*7D
$GLGSV,1,1,02,71,04,075,,72,00,000,*62
$GAGSV,1,1,0,7*43
$PQGSV,1,1,0,0*43
$PQGSV,1,1,02,12,61,320,,13,35,202,*6C
$GPGSA,A,3,02,04,13,20,23,,,,,,,,1.6,1.2,1.0*30
$GPVTG,,T,,M,0.0,N,0.0,K,A*23
$GPDTM,P90,,0000.000022,S,00000.000001,W,0.988,W84*5A
$GPRMC,001651.00,A,3000.002790,N,11959.999469,E,0.0,,230721,4.3,W,A*00
$GPGGA,001651.00,3000.002790,N,11959.999469,E,1,05,1.2,-24.6,M,7.0,M,,*4B

$GPVTG,,T,,M,0.0,N,0.0,K,A*23
$GPDTM,P90,,0000.000022,S,00000.000001,W,0.988,W84*5A
$GPRMC,001651.10,A,3000.002790,N,11959.999469,E,0.0,,230721,4.3,W,A*01
$GPGGA,001651.10,3000.002790,N,11959.999469,E,1,00,1.2,-24.6,M,7.0,M,,*4F

$GPVTG,,T,,M,0.0,N,0.0,K,A*23
$GPDTM,P90,,0000.000022,S,00000.000001,W,0.988,W84*5A
$GPRMC,001651.20,A,3000.002790,N,11959.999469,E,0.0,,230721,4.3,W,A*02
$GPGGA,001651.20,3000.002790,N,11959.999469,E,1,00,1.2,-24.6,M,7.0,M,,*4C

$GPVTG,,T,,M,0.0,N,0.0,K,A*23
$GPDTM,P90,,0000.000022,S,00000.000001,W,0.988,W84*5A
$GPRMC,001651.30,A,3000.002790,N,11959.999469,E,0.0,,230721,4.3,W,A*03
$GPGGA,001651.30,3000.002790,N,11959.999469,E,1,00,1.2,-24.6,M,7.0,M,,*4D

$GPVTG,,T,,M,0.0,N,0.0,K,A*23
$GPDTM,P90,,0000.000022,S,00000.000001,W,0.988,W84*5A
$GPRMC,001651.40,A,3000.002790,N,11959.999469,E,0.0,,230721,4.3,W,A*04
$GPGGA,001651.40,3000.002790,N,11959.999469,E,1,00,1.2,-24.6,M,7.0,M,,*4A

$GPVTG,,T,,M,0.0,N,0.0,K,A*23
$GPDTM,P90,,0000.000022,S,00000.000001,W,0.988,W84*5A
$GPRMC,001651.50,A,3000.002790,N,11959.999469,E,0.0,,230721,4.3,W,A*05
$GPGGA,001651.50,3000.002790,N,11959.999469,E,1,00,1.2,-24.6,M,7.0,M,,*4B

$GPVTG,,T,,M,0.0,N,0.0,K,A*23
$GPDTM,P90,,0000.000022,S,00000.000001,W,0.988,W84*5A
$GPRMC,001651.60,A,3000.002790,N,11959.999469,E,0.0,,230721,4.3,W,A*06
$GPGGA,001651.60,3000.002790,N,11959.999469,E,1,00,1.2,-24.6,M,7.0,M,,*48

$GPVTG,,T,,M,0.0,N,0.0,K,A*23
$GPDTM,P90,,0000.000022,S,00000.000001,W,0.988,W84*5A
$GPRMC,001651.70,A,3000.002790,N,11959.999469,E,0.0,,230721,4.3,W,A*07
$GPGGA,001651.70,3000.002790,N,11959.999469,E,1,00,1.2,-24.6,M,7.0,M,,*49

$GPVTG,,T,,M,0.0,N,0.0,K,A*23
$GPDTM,P90,,0000.000022,S,00000.000001,W,0.988,W84*5A
$GPRMC,001651.80,A,3000.002790,N,11959.999469,E,0.0,,230721,4.3,W,A*08
$GPGGA,001651.80,3000.002790,N,11959.999469,E,1,00,1.2,-24.6,M,7.0,M,,*46

$GPVTG,,T,,M,0.0,N,0.0,K,A*23
$GPDTM,P90,,0000.000022,S,00000.000001,W,0.988,W84*5A
$GPRMC,001651.90,A,3000.002790,N,11959.999469,E,0.0,,230721,4.3,W,A*09
$GPGGA,001651.90,3000.002790,N,11959.999469,E,1,00,1.2,-24.6,M,7.0,M,,*47

$GPGSV,3,1,10,02,34,291,26,04,46,236,27,07,00,000,26,08,20,066,26*78
$GPGSV,3,2,10,13,45,037,26,20,16,125,27,23,22,061,26,25,00,000,27*7C
$GPGSV,3,3,10,27,00,000,26,30,45,251,*7D
$GLGSV,1,1,02,71,04,075,,72,00,000,*62
$GAGSV,1,1,0,7*43
$PQGSV,1,1,0,0*43
$PQGSV,1,1,02,12,61,320,,13,35,202,*6C
$GPGSA,A,3,02,04,13,20,23,,,,,,,,1.6,1.2,1.0*30
$GPVTG,,T,,M,0.0,N,0.0,K,A*23
$GPDTM,P90,,0000.000022,S,00000.000001,W,0.988,W84*5A
$GPRMC,001652.00,A,3000.002790,N,11959.999471,E,0.0,,230721,4.3,W,A*0A
$GPGGA,001652.00,3000.002790,N,11959.999471,E,1,05,1.2,-24.6,M,7.0,M,,*41

$GPVTG,,T,,M,0.0,N,0.0,K,A*23
$GPDTM,P90,,0000.000022,S,00000.000001,W,0.988,W84*5A
$GPRMC,001652.10,A,3000.002790,N,11959.999471,E,0.0,,230721,4.3,W,A*0B
$GPGGA,001652.10,3000.002790,N,11959.999471,E,1,00,1.2,-24.6,M,7.0,M,,*45

$GPVTG,,T,,M,0.0,N,0.0,K,A*23
$GPDTM,P90,,0000.000022,S,00000.000001,W,0.988,W84*5A
$GPRMC,001652.20,A,3000.002790,N,11959.999471,E,0.0,,230721,4.3,W,A*08
$GPGGA,001652.20,3000.002790,N,11959.999471,E,1,00,1.2,-24.6,M,7.0,M,,*46

$GPVTG,,T,,M,0.0,N,0.0,K,A*23
$GPDTM,P90,,0000.000022,S,00000.000001,W,0.988,W84*5A
$GPRMC,001652.30,A,3000.002790,N,11959.999471,E,0.0,,230721,4.3,W,A*09
$GPGGA,001652.30,3000.002790,N,11959.999471,E,1,00,1.2,-24.6,M,7.0,M,,*47

$GPVTG,,T,,M,0.0,N,0.0,K,A*23
$GPDTM,P90,,0000.000022,S,00000.000001,W,0.988,W84*5A
$GPRMC,001652.40,A,3000.002790,N,11959.999471,E,0.0,,230721,4.3,W,A*0E
$GPGGA,001652.40,3000.002790,N,11959.999471,E,1,00,1.2,-24.6,M,7.0,M,,*40

$GPVTG,,T,,M,0.0,N,0.0,K,A*23
$GPDTM,P90,,0000.000022,S,00000.000001,W,0.988,W84*5A
$GPRMC,001652.50,A,3000.002790,N,11959.999471,E,0.0,,230721,4.3,W,A*0F
$GPGGA,001652.50,3000.002790,N,11959.999471,E,1,00,1.2,-24.6,M,7.0,M,,*41

$GPVTG,,T,,M,0.0,N,0.0,K,A*23
$GPDTM,P90,,0000.000022,S,00000.000001,W,0.988,W84*5A
$GPRMC,001652.60,A,3000.002790,N,11959.999471,E,0.0,,230721,4.3,W,A*0C
$GPGGA,001652.60,3000.002790,N,11959.999471,E,1,00,1.2,-24.6,M,7.0,M,,*42

$GPVTG,,T,,M,0.0,N,0.0,K,A*23
$GPDTM,P90,,0000.000022,S,00000.000001,W,0.988,W84*5A
$GPRMC,001652.70,A,3000.002790,N,11959.999471,E,0.0,,230721,4.3,W,A*0D
$GPGGA,001652.70,3000.002790,N,11959.999471,E,1,00,1.2,-24.6,M,7.0,M,,*43

$GPVTG,,T,,M,0.0,N,0.0,K,A*23
$GPDTM,P90,,0000.000022,S,00000.000001,W,0.988,W84*5A
$GPRMC,001652.80,A,3000.002790,N,11959.999471,E,0.0,,230721,4.3,W,A*02
$GPGGA,001652.80,3000.002790,N,11959.999471,E,1,00,1.2,-24.6,M,7.0,M,,*4C

$GPVTG,,T,,M,0.0,N,0.0,K,A*23
$GPDTM,P90,,0000.000022,S,00000.000001,W,0.988,W84*5A
$GPRMC,001652.90,A,3000.002790,N,11959.999471,E,0.0,,230721,4.3,W,A*03
$GPGGA,001652.90,3000.002790,N,11959.999471,E,1,00,1.2,-24.6,M,7.0,M,,*4D

$GPGSV,3,1,10,02,34,291,27,04,46,236,27,07,00,000,27,08,20,066,27*79
$GPGSV,3,2,10,13,45,037,27,20,16,125,26,23,22,061,27,25,00,000,26*7C
$GPGSV,3,3,10,27,00,000,27,30,45,251,*7C
$GLGSV,1,1,02,71,04,075,,72,00,000,*62
$GAGSV,1,1,0,7*43
$PQGSV,1,1,0,0*43
$PQGSV,1,1,02,12,61,320,,13,35,202,*6C
$GPGSA,A,3,02,04,13,20,23,,,,,,,,1.6,1.2,1.0*30
$GPVTG,,T,,M,0.0,N,0.0,K,A*23
$GPDTM,P90,,0000.000022,S,00000.000001,W,0.988,W84*5A
$GPRMC,001653.00,A,3000.002783,N,11959.999479,E,0.0,,230721,4.3,W,A*01
