$GPGSV,3,1,11,02,34,274,32,04,36,220,32,07,66,032,32,08,67,224,32*75
$GPGSV,3,2,11,10,15,316,32,13,37,053,32,20,06,133,32,23,14,073,32*7C
$GPGSV,3,3,11,25,45,036,32,27,35,230,32,28,14,171,30*43
$GLGSV,2,1,07,78,26,327,30,86,16,039,30,77,73,278,30,88,31,267,30*67
$GLGSV,2,2,07,87,52,344,30,71,08,060,30,72,08,109,29*5F
$GAGSV,2,1,08,09,26,319,,10,80,324,,11,41,137,,17,16,042,*6E
$GAGSV,2,2,08,22,02,229,,23,50,240,,24,66,019,,27,16,137,*60
$PQGSV,1,1,0,0*43
$PQGSV,1,1,0,0*43
$GPGSA,A,3,02,04,07,08,10,13,20,23,25,27,28,,1.1,0.8,0.8*33
$GPVTG,,T,,M,0.0,N,0.0,K,A*23
$GPDTM,P90,,0000.000022,S,00000.000001,W,0.988,W84*5A
$GPRMC,004606.00,A,3000.000317,N,11959.999877,E,0.0,,230721,4.3,W,A*0D
$GPGGA,004606.00,3000.000317,N,11959.999877,E,1,11,0.8,-10.3,M,7.0,M,,*4A

$GPGSV,3,1,11,02,34,274,32,04,36,220,32,07,66,032,32,08,67,224,32*75
$GPGSV,3,2,11,10,15,316,30,13,37,053,32,20,06,133,31,23,14,073,32*7D
$GPGSV,3,3,11,25,45,036,32,27,35,230,31,28,14,171,31*41
$GLGSV,2,1,07,78,26,327,30,86,16,039,30,77,73,278,30,88,31,267,30*67
$GLGSV,2,2,07,87,52,344,30,71,08,060,30,72,08,109,29*5F
$GAGSV,2,1,08,09,26,319,,10,80,324,,11,41,137,,17,16,042,*6E
$GAGSV,2,2,08,22,02,229,,23,50,240,,24,66,019,,27,16,137,*60
$PQGSV,1,1,0,0*43
$PQGSV,1,1,0,0*43
$GPGSA,A,3,02,04,07,08,10,13,20,23,25,27,28,,1.1,0.8,0.8*33
$GPVTG,,T,,M,0.0,N,0.0,K,A*23
$GPDTM,P90,,0000.000022,S,00000.000001,W,0.988,W84*5A
$GPRMC,004607.00,A,3000.000316,N,11959.999876,E,0.0,,230721,4.3,W,A*0C
$GPGGA,004607.00,3000.000316,N,11959.999876,E,1,11,0.8,-10.3,M,7.0,M,,*4B

$GPGSV,3,1,11,02,34,274,32,04,36,220,31,07,66,032,32,08,67,224,32*76
$GPGSV,3,2,11,10,15,316,30,13,37,053,32,20,06,133,32,23,14,073,32*7E
$GPGSV,3,3,11,25,45,036,32,27,35,230,32,28,14,171,31*42
$GLGSV,2,1,07,78,26,327,30,86,16,039,30,77,73,278,30,88,31,267,30*67
$GLGSV,2,2,07,87,52,344,31,71,08,060,30,72,08,109,29*5E
$GAGSV,2,1,08,09,26,319,,10,80,324,,11,41,137,,17,16,042,*6E
$GAGSV,2,2,08,22,02,229,,23,50,240,,24,66,019,,27,16,137,*60
$PQGSV,1,1,0,0*43
$PQGSV,1,1,0,0*43
$GPGSA,A,3,02,04,07,08,10,13,20,23,25,27,28,,1.0,0.7,0.7*32
$GPVTG,,T,,M,0.0,N,0.0,K,A*23
$GPDTM,P90,,0000.000022,S,00000.000001,W,0.988,W84*5A
$GPRMC,004608.00,A,3000.000268,N,11959.999898,E,0.0,,230721,4.3,W,A*0B
$GPGGA,004608.00,3000.000268,N,11959.999898,E,1,11,0.7,-9.9,M,7.0,M,,*71

$GPGSV,3,1,11,02,34,274,32,04,36,220,32,07,66,032,32,08,67,224,32*75
$GPGSV,3,2,11,10,15,316,31,13,37,053,32,20,06,133,32,23,14,073,32*7F
$GPGSV,3,3,11,25,45,036,32,27,35,230,32,28,14,171,31*42
$GLGSV,2,1,07,78,26,327,30,86,16,039,30,77,73,277,30,88,31,267,30*68
$GLGSV,2,2,07,87,52,345,29,71,08,059,30,72,08,109,29*5C
$GAGSV,2,1,08,09,26,319,,10,80,324,,11,41,137,,17,16,042,*6E
$GAGSV,2,2,08,22,02,229,,23,50,240,,24,66,019,,27,16,137,*60
$PQGSV,1,1,0,0*43
$PQGSV,1,1,0,0*43
$GPGSA,A,3,02,04,07,08,10,13,20,23,25,27,28,,1.0,0.7,0.7*32
$GLGSA,A,3,71,77,78,87,88,,,,,,,,1.0,0.7,0.7*29
$GPVTG,,T,,M,0.0,N,0.0,K,A*23
$GPDTM,P90,,0000.000022,S,00000.000001,W,0.988,W84*5A
$GPRMC,004609.00,A,3000.000195,N,11959.999971,E,0.0,,230721,4.3,W,A*0D
$GPGGA,004609.00,3000.000195,N,11959.999971,E,1,12,0.7,-9.4,M,7.0,M,,*79

$GPGSV,3,1,11,02,34,274,32,04,36,220,32,07,66,032,32,08,67,224,32*75
$GPGSV,3,2,11,10,15,316,31,13,37,053,32,20,06,133,32,23,14,073,32*7F
$GPGSV,3,3,11,25,45,036,32,27,35,230,32,28,14,171,31*42
$GLGSV,2,1,07,78,26,327,30,86,16,039,30,77,73,277,31,88,31,267,30*69
$GLGSV,2,2,07,87,52,345,30,71,08,059,31,72,08,109,30*5D
$GAGSV,2,1,08,09,26,319,,10,80,324,,11,41,137,,17,16,042,*6E
$GAGSV,2,2,08,22,02,229,,23,50,240,,24,66,019,,27,16,137,*60
$PQGSV,1,1,0,0*43
$PQGSV,1,1,0,0*43
$GPGSA,A,3,02,04,07,08,10,13,20,23,25,27,28,,1.0,0.7,0.7*32
$GLGSA,A,3,71,77,78,87,88,,,,,,,,1.0,0.7,0.7*29
$GPVTG,,T,,M,0.0,N,0.0,K,A*23
$GPDTM,P90,,0000.000022,S,00000.000001,W,0.988,W84*5A
$GPRMC,004610.00,A,3000.000148,N,11959.999929,E,0.0,,230721,4.3,W,A*08
$GPGGA,004610.00,3000.000148,N,11959.999929,E,1,12,0.7,-9.2,M,7.0,M,,*7A

$GPGSV,3,1,11,02,34,274,32,04,36,220,32,07,66,032,32,08,67,224,32*75
$GPGSV,3,2,11,10,15,316,31,13,37,053,32,20,06,133,32,23,14,073,32*7F
$GPGSV,3,3,11,25,45,036,31,27,35,230,32,28,14,171,31*41
$GLGSV,2,1,07,78,26,327,30,86,16,039,30,77,73,277,30,88,31,267,30*68
$GLGSV,2,2,07,87,52,345,30,71,08,059,30,72,08,109,29*54
$GAGSV,2,1,08,09,26,319,,10,80,324,,11,41,137,,17,16,042,*6E
$GAGSV,2,2,08,22,02,229,,23,50,240,,24,66,019,,27,16,137,*60
$PQGSV,1,1,0,0*43
$PQGSV,1,1,0,0*43
$GPGSA,A,3,02,04,07,08,10,13,20,23,25,27,28,,1.0,0.7,0.7*32
$GLGSA,A,3,71,77,78,87,88,,,,,,,,1.0,0.7,0.7*29
$GPVTG,,T,,M,0.0,N,0.0,K,A*23
$GPDTM,P90,,0000.000022,S,00000.000001,W,0.988,W84*5A
$GPRMC,004611.00,A,3000.000145,N,11959.999991,E,0.0,,230721,4.3,W,A*07
$GPGGA,004611.00,3000.000145,N,11959.999991,E,1,12,0.7,-9.3,M,7.0,M,,*74

$GPGSV,3,1,11,02,34,274,32,04,36,220,32,07,66,032,31,08,67,224,32*76
$GPGSV,3,2,11,10,15,316,30,13,37,053,32,20,06,133,32,23,14,073,31*7D
$GPGSV,3,3,11,25,45,036,32,27,35,230,32,28,14,171,30*43
$GLGSV,2,1,07,78,26,327,30,86,16,039,30,77,73,277,30,88,31,267,30*68
$GLGSV,2,2,07,87,52,345,30,71,08,059,30,72,08,109,29*54
$GAGSV,2,1,08,09,26,319,,10,80,324,,11,41,137,,17,16,042,*6E
$GAGSV,2,2,08,22,02,229,,23,50,240,,24,66,019,,27,16,137,*60
$PQGSV,1,1,0,0*43
$PQGSV,1,1,0,0*43
$GPGSA,A,3,02,04,07,08,10,13,20,23,25,27,28,,1.0,0.7,0.7*32
$GLGSA,A,3,71,77,78,87,88,,,,,,,,1.0,0.7,0.7*29
$GPVTG,,T,,M,0.0,N,0.0,K,A*23
$GPDTM,P90,,0000.000022,S,00000.000001,W,0.988,W84*5A
$GPRMC,004612.00,A,3000.000073,N,11959.999959,E,0.0,,230721,4.3,W,A*04
$GPGGA,004612.00,3000.000073,N,11959.999959,E,1,12,0.7,-9.1,M,7.0,M,,*75

$GPGSV,3,1,11,02,34,274,32,04,36,220,32,07,66,032,32,08,67,224,32*75
$GPGSV,3,2,11,10,15,316,31,13,37,053,32,20,06,133,32,23,14,073,32*7F
$GPGSV,3,3,11,25,45,036,32,27,35,230,32,28,14,171,31*42
$GLGSV,2,1,07,78,26,327,30,86,16,039,30,77,73,277,29,88,31,267,30*60
$GLGSV,2,2,07,87,52,345,30,71,08,059,30,72,08,109,29*54
$GAGSV,2,1,08,09,26,319,,10,80,324,,11,41,137,,17,16,042,*6E
$GAGSV,2,2,08,22,02,229,,23,50,240,,24,66,019,,27,16,137,*60
$PQGSV,1,1,0,0*43
$PQGSV,1,1,0,0*43
$GPGSA,A,3,02,04,07,08,10,13,20,23,25,27,28,,1.0,0.7,0.7*32
$GLGSA,A,3,71,77,78,87,88,,,,,,,,1.0,0.7,0.7*29
$GPVTG,,T,,M,0.0,N,0.0,K,A*23
$GPDTM,P90,,0000.000022,S,00000.000001,W,0.988,W84*5A
$GPRMC,004613.00,A,3000.000124,N,11959.999929,E,0.0,,230721,4.3,W,A*01
$GPGGA,004613.00,3000.000124,N,11959.999929,E,1,12,0.7,-9.3,M,7.0,M,,*72

$GPGSV,3,1,11,02,34,274,32,04,36,220,32,07,66,032,32,08,67,224,32*75
$GPGSV,3,2,11,10,15,316,31,13,37,053,32,20,06,133,32,23,14,073,32*7F
$GPGSV,3,3,11,25,45,036,32,27,35,230,32,28,14,171,31*42
$GLGSV,2,1,07,78,26,327,30,86,16,039,29,77,73,277,30,88,31,267,31*61
$GLGSV,2,2,07,87,52,345,31,71,08,059,30,72,08,109,29*55
$GAGSV,2,1,08,09,26,319,,10,80,324,,11,41,137,,17,16,042,*6E
$GAGSV,2,2,08,22,02,229,,23,50,240,,24,66,019,,27,16,137,*60
$PQGSV,1,1,0,0*43
$PQGSV,1,1,0,0*43
$GPGSA,A,3,02,04,07,08,10,13,20,23,25,27,28,,1.0,0.7,0.7*32
$GLGSA,A,3,71,77,78,87,88,,,,,,,,1.0,0.7,0.7*29
$GPVTG,,T,,M,0.0,N,0.0,K,A*23
$GPDTM,P90,,0000.000022,S,00000.000001,W,0.988,W84*5A
$GPRMC,004614.00,A,3000.000042,N,11959.999901,E,0.0,,230721,4.3,W,A*0D
$GPGGA,004614.00,3000.000042,N,11959.999901,E,1,12,0.7,-9.1,M,7.0,M,,*7C

$GPGSV,3,1,11,02,34,274,32,04,36,220,32,07,66,032,32,08,67,224,32*75
$GPGSV,3,2,11,10,15,316,31,13,37,053,32,20,06,133,32,23,14,073,32*7F
$GPGSV,3,3,11,25,45,036,32,27,35,230,32,28,14,171,31*42
$GLGSV,2,1,07,78,26,327,30,86,16,039,30,77,73,277,29,88,31,267,30*60
$GLGSV,2,2,07,87,52,345,30,71,08,059,30,72,08,109,29*54
$GAGSV,2,1,08,09,26,319,,10,80,324,,11,41,137,,17,16,042,*6E
$GAGSV,2,2,08,22,02,229,,23,50,240,,24,66,019,,27,16,137,*60
$PQGSV,1,1,0,0*43
$PQGSV,1,1,0,0*43
$GPGSA,A,3,02,04,07,08,10,13,20,23,25,27,28,,1.0,0.7,0.7*32
$GLGSA,A,3,71,77,78,87,88,,,,,,,,1.0,0.7,0.7*29
$GPVTG,,T,,M,0.0,N,0.0,K,A*23
$GPDTM,P90,,0000.000022,S,00000.000001,W,0.988,W84*5A
$GPRMC,004615.00,A,3000.000020,N,11959.999861,E,0.0,,230721,4.3,W,A*0F
$GPGGA,004615.00,3000.000020,N,11959.999861,E,1,12,0.7,-8.5,M,7.0,M,,*7B

$GPGSV,3,1,11,02,34,274,32,04,36,220,32,07,66,032,32,08,67,224,32*75
$GPGSV,3,2,11,10,15,316,31,13,37,053,32,20,06,133,32,23,14,073,32*7F
$GPGSV,3,3,11,25,45,036,32,27,35,230,31,28,14,171,31*41
$GLGSV,2,1,07,78,26,327,30,86,16,039,30,77,73,277,30,88,31,267,30*68
$GLGSV,2,2,07,87,52,345,30,71,08,059,30,72,08,109,29*54
$GAGSV,2,1,08,09,26,319,,10,80,324,,11,41,137,,17,16,042,*6E
$GAGSV,2,2,08,22,02,229,,23,50,240,,24,66,019,,27,16,137,*60
$PQGSV,1,1,0,0*43
$PQGSV,1,1,0,0*43
$GPGSA,A,3,02,04,07,08,10,13,20,23,25,27,28,,1.0,0.7,0.7*32
$GLGSA,A,3,71,77,78,87,88,,,,,,,,1.0,0.7,0.7*29
$GPVTG,,T,,M,0.0,N,0.0,K,A*23
$GPDTM,P90,,0000.000022,S,00000.000001,W,0.988,W84*5A
$GPRMC,004616.00,A,3000.000041,N,11959.999869,E,0.0,,230721,4.3,W,A*03
$GPGGA,004616.00,3000.000041,N,11959.999869,E,1,12,0.7,-8.7,M,7.0,M,,*75

$GPGSV,3,1,11,02,34,274,32,04,36,220,32,07,66,032,32,08,67,224,32*75
$GPGSV,3,2,11,10,15,316,30,13,37,053,32,20,06,133,32,23,14,073,32*7E
$GPGSV,3,3,11,25,45,036,32,27,35,230,32,28,14,171,31*42
$GLGSV,2,1,07,78,26,327,30,86,16,039,30,77,73,277,30,88,31,267,30*68
$GLGSV,2,2,07,87,52,345,30,71,08,059,30,72,08,109,29*54
$GAGSV,2,1,08,09,26,319,,10,80,324,,11,41,137,,17,16,042,*6E
$GAGSV,2,2,08,22,02,229,,23,50,240,,24,66,019,,27,16,137,*60
$PQGSV,1,1,0,0*43
$PQGSV,1,1,0,0*43
$GPGSA,A,3,02,04,07,08,10,13,20,23,25,27,28,,1.0,0.7,0.7*32
$GLGSA,A,3,71,77,78,87,88,,,,,,,,1.0,0.7,0.7*29
$GPVTG,,T,,M,0.0,N,0.0,K,A*23
$GPDTM,P90,,0000.000022,S,00000.000001,W,0.988,W84*5A
$GPRMC,004617.00,A,3000.000122,N,11959.999910,E,0.0,,230721,4.3,W,A*09
$GPGGA,004617.00,3000.000122,N,11959.999910,E,1,12,0.7,-9.0,M,7.0,M,,*79

$GPGSV,3,1,11,02,34,274,32,04,36,220,32,07,66,032,32,08,67,224,32*75
$GPGSV,3,2,11,10,15,316,31,13,37,053,31,20,06,133,32,23,14,073,32*7C
$GPGSV,3,3,11,25,45,036,32,27,35,230,32,28,14,171,31*42
$GLGSV,2,1,07,78,26,327,30,86,16,039,30,77,73,277,30,88,31,267,30*68
$GLGSV,2,2,07,87,52,345,30,71,08,059,30,72,08,109,29*54
$GAGSV,2,1,08,09,26,319,,10,80,324,,11,41,137,,17,16,042,*6E
$GAGSV,2,2,08,22,02,229,,23,50,240,,24,66,019,,27,16,137,*60
$PQGSV,1,1,0,0*43
$PQGSV,1,1,0,0*43
$GPGSA,A,3,02,04,07,08,10,13,20,23,25,27,28,,1.0,0.7,0.7*32
$GLGSA,A,3,71,77,78,87,88,,,,,,,,1.0,0.7,0.7*29
$GPVTG,,T,,M,0.0,N,0.0,K,A*23
$GPDTM,P90,,0000.000022,S,00000.000001,W,0.988,W84*5A
$GPRMC,004618.00,A,3000.000076,N,11959.999908,E,0.0,,230721,4.3,W,A*0F
$GPGGA,004618.00,3000.000076,N,11959.999908,E,1,12,0.7,-8.8,M,7.0,M,,*76

$GPGSV,3,1,11,02,34,274,32,04,36,220,32,07,66,032,32,08,67,224,32*75
$GPGSV,3,2,11,10,15,316,31,13,37,053,32,20,06,133,32,23,14,073,31*7C
$GPGSV,3,3,11,25,45,036,32,27,35,230,31,28,14,171,31*41
$GLGSV,2,1,07,78,26,327,30,86,16,039,30,77,73,277,30,88,31,267,30*68
$GLGSV,2,2,07,87,52,345,30,71,08,059,30,72,08,109,29*54
$GAGSV,2,1,08,09,26,319,,10,80,324,,11,41,137,,17,16,042,*6E
$GAGSV,2,2,08,22,02,229,,23,50,240,,24,66,019,,27,16,137,*60
$PQGSV,1,1,0,0*43
$PQGSV,1,1,0,0*43
$GPGSA,A,3,02,04,07,08,10,13,20,23,25,27,28,,1.0,0.7,0.7*32
$GLGSA,A,3,71,77,78,87,88,,,,,,,,1.0,0.7,0.7*29
$GPVTG,,T,,M,0.0,N,0.0,K,A*23
$GPDTM,P90,,0000.000022,S,00000.000001,W,0.988,W84*5A
$GPRMC,004619.00,A,3000.000079,N,11959.999900,E,0.0,,230721,4.3,W,A*09
$GPGGA,004619.00,3000.000079,N,11959.999900,E,1,12,0.7,-8.7,M,7.0,M,,*7F

$GPGSV,3,1,11,02,34,274,32,04,36,220,31,07,66,032,32,08,67,224,32*76
$GPGSV,3,2,11,10,15,316,31,13,37,053,32,20,06,133,32,23,14,073,32*7F
$GPGSV,3,3,11,25,45,036,32,27,35,230,32,28,14,171,31*42
$GLGSV,2,1,07,78,26,327,30,86,16,039,30,77,73,277,30,88,31,267,30*68
$GLGSV,2,2,07,87,52,345,30,71,08,059,30,72,08,109,29*54
$GAGSV,2,1,08,09,26,319,,10,80,324,,11,41,137,,17,16,042,*6E
$GAGSV,2,2,08,22,02,229,,23,50,240,,24,66,019,,27,16,137,*60
$PQGSV,1,1,0,0*43
$PQGSV,1,1,0,0*43
$GPGSA,A,3,02,04,07,08,10,13,20,23,25,27,28,,1.0,0.7,0.7*32
$GLGSA,A,3,71,77,78,87,88,,,,,,,,1.0,0.7,0.7*29
$GPVTG,,T,,M,0.0,N,0.0,K,A*23
$GPDTM,P90,,0000.000022,S,00000.000001,W,0.988,W84*5A
$GPRMC,004620.00,A,3000.000083,N,11959.999896,E,0.0,,230721,4.3,W,A*08
$GPGGA,004620.00,3000.000083,N,11959.999896,E,1,12,0.7,-8.7,M,7.0,M,,*7E

$GPGSV,3,1,11,02,34,274,32,04,36,220,32,07,66,032,32,08,67,224,32*75
$GPGSV,3,2,11,10,15,316,31,13,37,053,32,20,06,133,32,23,14,073,31*7C
$GPGSV,3,3,11,25,45,036,32,27,35,230,32,28,14,171,31*42
$GLGSV,2,1,07,78,26,327,30,86,16,039,30,77,73,277,30,88,31,267,30*68
$GLGSV,2,2,07,87,52,345,30,71,08,059,31,72,08,109,30*5D
$GAGSV,2,1,08,09,26,319,,10,80,324,,11,41,137,,17,16,042,*6E
$GAGSV,2,2,08,22,02,229,,23,50,240,,24,66,019,,27,16,137,*60
$PQGSV,1,1,0,0*43
$PQGSV,1,1,0,0*43
$GPGSA,A,3,02,04,07,08,10,13,20,23,25,27,28,,1.0,0.7,0.7*32
$GLGSA,A,3,71,77,78,87,88,,,,,,,,1.0,0.7,0.7*29
$GPVTG,,T,,M,0.0,N,0.0,K,A*23
$GPDTM,P90,,0000.000022,S,00000.000001,W,0.988,W84*5A
$GPRMC,004621.00,A,3000.000083,N,11959.999893,E,0.0,,230721,4.3,W,A*0C
$GPGGA,004621.00,3000.000083,N,11959.999893,E,1,12,0.7,-8.7,M,7.0,M,,*7A

$GPGSV,3,1,11,02,34,274,32,04,36,220,32,07,66,032,32,08,67,224,31*76
$GPGSV,3,2,11,10,15,316,31,13,37,053,32,20,06,133,32,23,14,073,32*7F
$GPGSV,3,3,11,25,45,036,31,27,35,230,32,28,14,171,31*41
$GLGSV,2,1,07,78,26,327,30,86,16,039,30,77,73,277,30,88,31,267,30*68
$GLGSV,2,2,07,87,52,345,30,71,08,059,30,72,08,109,29*54
$GAGSV,2,1,08,09,26,319,,10,80,324,,11,41,137,,17,16,042,*6E
$GAGSV,2,2,08,22,02,229,,23,50,240,,24,66,019,,27,16,137,*60
$PQGSV,1,1,0,0*43
$PQGSV,1,1,0,0*43
$GPGSA,A,3,02,04,07,08,10,13,20,23,25,27,28,,1.0,0.7,0.7*32
$GLGSA,A,3,71,77,78,87,88,,,,,,,,1.0,0.7,0.7*29
$GPVTG,,T,,M,0.0,N,0.0,K,A*23
$GPDTM,P90,,0000.000022,S,00000.000001,W,0.988,W84*5A
$GPRMC,004622.00,A,3000.000084,N,11959.999894,E,0.0,,230721,4.3,W,A*0F
$GPGGA,004622.00,3000.000084,N,11959.999894,E,1,12,0.7,-8.7,M,7.0,M,,*79

$GPGSV,3,1,11,02,34,274,32,04,36,220,32,07,66,032,32,08,67,224,32*75
$GPGSV,3,2,11,10,15,316,31,13,37,053,32,20,06,133,32,23,14,073,32*7F
$GPGSV,3,3,11,25,45,036,32,27,35,230,32,28,14,171,31*42
$GLGSV,2,1,07,78,26,327,29,86,16,039,30,77,73,277,30,88,31,267,30*60
$GLGSV,2,2,07,87,52,345,30,71,08,059,30,72,08,109,29*54
$GAGSV,2,1,08,09,26,319,,10,80,324,,11,41,137,,17,16,042,*6E
$GAGSV,2,2,08,22,02,229,,23,50,240,,24,66,019,,27,16,137,*60
$PQGSV,1,1,0,0*43
$PQGSV,1,1,0,0*43
$GPGSA,A,3,02,04,07,08,10,13,20,23,25,27,28,,1.0,0.7,0.7*32
$GLGSA,A,3,71,77,78,87,88,,,,,,,,1.0,0.7,0.7*29
$GPVTG,,T,,M,0.0,N,0.0,K,A*23
$GPDTM,P90,,0000.000022,S,00000.000001,W,0.988,W84*5A
$GPRMC,004623.00,A,3000.000085,N,11959.999893,E,0.0,,230721,4.3,W,A*08
$GPGGA,004623.00,3000.000085,N,11959.999893,E,1,12,0.7,-8.7,M,7.0,M,,*7E

$GPGSV,3,1,11,02,34,274,32,04,36,220,32,07,66,032,32,08,67,224,32*75
$GPGSV,3,2,11,10,15,316,31,13,37,053,32,20,06,133,32,23,14,073,31*7C
$GPGSV,3,3,11,25,45,036,32,27,35,230,32,28,14,171,31*42
$GLGSV,2,1,07,78,26,327,30,86,16,039,30,77,73,277,30,88,31,267,30*68
$GLGSV,2,2,07,87,52,345,30,71,08,059,30,72,08,109,29*54
$GAGSV,2,1,08,09,26,319,,10,80,324,,11,41,137,,17,16,042,*6E
$GAGSV,2,2,08,22,02,229,,23,50,240,,24,66,019,,27,16,137,*60
$PQGSV,1,1,0,0*43
$PQGSV,1,1,0,0*43
$GPGSA,A,3,02,04,07,08,10,13,20,23,25,27,28,,1.0,0.7,0.7*32
$GLGSA,A,3,71,77,78,87,88,,,,,,,,1.0,0.7,0.7*29
$GPVTG,,T,,M,0.0,N,0.0,K,A*23
$GPDTM,P90,,0000.000022,S,00000.000001,W,0.988,W84*5A
$GPRMC,004624.00,A,3000.000086,N,11959.999893,E,0.0,,230721,4.3,W,A*0C
$GPGGA,004624.00,3000.000086,N,11959.999893,E,1,12,0.7,-8.7,M,7.0,M,,*7A

$GPGSV,3,1,11,02,34,274,32,04,36,220,31,07,66,032,32,08,67,224,32*76
$GPGSV,3,2,11,10,15,316,31,13,37,053,32,20,06,133,32,23,14,073,32*7F
$GPGSV,3,3,11,25,45,036,32,27,35,230,32,28,14,171,31*42
$GLGSV,2,1,07,78,26,327,30,86,16,039,30,77,73,277,30,88,31,267,30*68
$GLGSV,2,2,07,87,52,345,30,71,08,059,30,72,08,109,29*54
$GAGSV,2,1,08,09,26,319,,10,80,324,,11,41,137,,17,16,042,*6E
$GAGSV,2,2,08,22,02,229,,23,50,240,,24,66,019,,27,16,137,*60
$PQGSV,1,1,0,0*43
$PQGSV,1,1,0,0*43
$GPGSA,A,3,02,04,07,08,10,13,20,23,25,27,28,,1.0,0.7,0.7*32
$GLGSA,A,3,71,77,78,87,88,,,,,,,,1.0,0.7,0.7*29
$GPVTG,,T,,M,0.0,N,0.0,K,A*23
$GPDTM,P90,,0000.000022,S,00000.000001,W,0.988,W84*5A
$GPRMC,004625.00,A,3000.000086,N,11959.999891,E,0.0,,230721,4.3,W,A*0F
$GPGGA,004625.00,3000.000086,N,11959.999891,E,1,12,0.7,-8.7,M,7.0,M,,*79

$GPGSV,3,1,11,02,34,274,32,04,36,220,32,07,66,032,32,08,67,224,32*75
$GPGSV,3,2,11,10,15,316,30,13,37,053,32,20,06,133,32,23,14,073,32*7E
$GPGSV,3,3,11,25,45,036,32,27,35,230,32,28,14,171,31*42
$GLGSV,2,1,07,78,26,327,30,86,16,039,30,77,73,277,30,88,31,267,29*60
$GLGSV,2,2,07,87,52,345,30,71,08,059,30,72,08,109,29*54
$GAGSV,2,1,08,09,26,319,,10,80,324,,11,41,137,,17,16,042,*6E
$GAGSV,2,2,08,22,02,229,,23,50,240,,24,66,019,,27,16,137,*60
$PQGSV,1,1,0,0*43
$PQGSV,1,1,0,0*43
$GPGSA,A,3,02,04,07,08,10,13,20,23,25,27,28,,1.0,0.7,0.7*32
$GLGSA,A,3,71,77,78,87,88,,,,,,,,1.0,0.7,0.7*29
$GPVTG,,T,,M,0.0,N,0.0,K,A*23
$GPDTM,P90,,0000.000022,S,00000.000001,W,0.988,W84*5A
$GPRMC,004626.00,A,3000.000090,N,11959.999889,E,0.0,,230721,4.3,W,A*02
$GPGGA,004626.00,3000.000090,N,11959.999889,E,1,12,0.7,-8.7,M,7.0,M,,*74

$GPGSV,3,1,11,02,34,274,32,04,36,220,32,07,66,032,32,08,67,224,32*75
$GPGSV,3,2,11,10,15,316,31,13,37,053,32,20,06,133,32,23,14,073,32*7F
$GPGSV,3,3,11,25,45,036,32,27,35,230,32,28,14,171,30*43
$GLGSV,2,1,07,78,26,327,30,86,16,039,30,77,73,277,30,88,31,267,30*68
$GLGSV,2,2,07,87,52,345,31,71,08,059,30,72,08,109,30*5D
$GAGSV,2,1,08,09,26,319,,10,80,324,,11,41,137,,17,16,042,*6E
$GAGSV,2,2,08,22,02,229,,23,50,240,,24,66,019,,27,16,137,*60
$PQGSV,1,1,0,0*43
$PQGSV,1,1,0,0*43
$GPGSA,A,3,02,04,07,08,10,13,20,23,25,27,28,,1.0,0.7,0.7*32
$GLGSA,A,3,71,77,78,87,88,,,,,,,,1.0,0.7,0.7*29
$GPVTG,,T,,M,0.0,N,0.0,K,A*23
$GPDTM,P90,,0000.000022,S,00000.000001,W,0.988,W84*5A
$GPRMC,004627.00,A,3000.000090,N,11959.999890,E,0.0,,230721,4.3,W,A*0B
$GPGGA,004627.00,3000.000090,N,11959.999890,E,1,12,0.7,-8.7,M,7.0,M,,*7D

$GPGSV,3,1,11,02,34,274,32,04,36,220,32,07,66,032,32,08,67,224,32*75
$GPGSV,3,2,11,10,15,316,31,13,37,053,32,20,06,133,32,23,14,073,32*7F
$GPGSV,3,3,11,25,45,036,32,27,35,230,32,28,14,171,31*42
$GLGSV,2,1,07,78,26,327,30,86,16,039,30,77,73,277,30,88,31,267,30*68
$GLGSV,2,2,07,87,52,345,29,71,08,059,30,72,08,109,29*5C
$GAGSV,2,1,08,09,26,319,,10,80,324,,11,41,137,,17,16,042,*6E
$GAGSV,2,2,08,22,02,229,,23,50,240,,24,66,019,,27,16,137,*60
$PQGSV,1,1,0,0*43
$PQGSV,1,1,0,0*43
$GPGSA,A,3,02,04,07,08,10,13,20,23,25,27,28,,1.0,0.7,0.7*32
$GLGSA,A,3,71,77,78,87,88,,,,,,,,1.0,0.7,0.7*29
$GPVTG,,T,,M,0.0,N,0.0,K,A*23
$GPDTM,P90,,0000.000022,S,00000.000001,W,0.988,W84*5A
$GPRMC,004628.00,A,3000.000091,N,11959.999890,E,0.0,,230721,4.3,W,A*05
$GPGGA,004628.00,3000.000091,N,11959.999890,E,1,12,0.7,-8.7,M,7.0,M,,*73

$GPGSV,3,1,11,02,34,274,32,04,36,220,32,07,66,032,32,08,67,224,32*75
$GPGSV,3,2,11,10,15,316,31,13,37,053,32,20,06,133,32,23,14,073,32*7F
$GPGSV,3,3,11,25,45,036,31,27,35,230,32,28,14,171,31*41
$GLGSV,2,1,07,78,26,327,30,86,16,039,30,77,73,277,30,88,31,267,30*68
$GLGSV,2,2,07,87,52,345,30,71,08,059,30,72,08,109,29*54
$GAGSV,2,1,08,09,26,319,,10,80,324,,11,41,137,,17,16,042,*6E
$GAGSV,2,2,08,22,02,229,,23,50,240,,24,66,019,,27,16,137,*60
$PQGSV,1,1,0,0*43
$PQGSV,1,1,0,0*43
$GPGSA,A,3,02,04,07,08,10,13,20,23,25,27,28,,1.0,0.7,0.7*32
$GLGSA,A,3,71,77,78,87,88,,,,,,,,1.0,0.7,0.7*29
$GPVTG,,T,,M,0.0,N,0.0,K,A*23
$GPDTM,P90,,0000.000022,S,00000.000001,W,0.988,W84*5A
$GPRMC,004629.00,A,3000.000090,N,11959.999890,E,0.0,,230721,4.3,W,A*05
$GPGGA,004629.00,3000.000090,N,11959.999890,E,1,12,0.7,-8.7,M,7.0,M,,*73

$GPGSV,3,1,11,02,34,274,32,04,36,220,32,07,66,032,32,08,67,224,31*76
$GPGSV,3,2,11,10,15,316,31,13,37,053,31,20,06,133,32,23,14,073,31*7F
$GPGSV,3,3,11,25,45,036,32,27,35,230,32,28,14,171,31*42
$GLGSV,2,1,07,78,26,327,29,86,16,039,30,77,73,277,30,88,31,267,30*60
$GLGSV,2,2,07,87,52,345,30,71,08,059,30,72,08,109,29*54
$GAGSV,2,1,08,09,26,319,,10,80,324,,11,41,137,,17,16,042,*6E
$GAGSV,2,2,08,22,02,229,,23,50,240,,24,66,019,,27,16,137,*60
$PQGSV,1,1,0,0*43
$PQGSV,1,1,0,0*43
$GPGSA,A,3,02,04,07,08,10,13,20,23,25,27,28,,1.0,0.7,0.7*32
$GLGSA,A,3,71,77,78,87,88,,,,,,,,1.0,0.7,0.7*29
$GPVTG,,T,,M,0.0,N,0.0,K,A*23
$GPDTM,P90,,0000.000022,S,00000.000001,W,0.988,W84*5A
$GPRMC,004630.00,A,3000.000092,N,11959.999889,E,0.0,,230721,4.3,W,A*07
$GPGGA,004630.00,3000.000092,N,11959.999889,E,1,12,0.7,-8.7,M,7.0,M,,*71

$GPGSV,3,1,11,02,34,274,32,04,36,220,32,07,66,032,31,08,67,224,32*76
$GPGSV,3,2,11,10,15,316,31,13,37,053,32,20,06,133,32,23,14,073,32*7F
$GPGSV,3,3,11,25,45,036,32,27,35,230,32,28,14,171,31*42
$GLGSV,2,1,07,78,26,327,30,86,16,039,30,77,73,277,30,88,31,267,30*68
$GLGSV,2,2,07,87,52,345,30,71,08,059,30,72,08,109,29*54
$GAGSV,2,1,08,09,26,319,,10,80,324,,11,41,137,,17,16,042,*6E
$GAGSV,2,2,08,22,02,229,,23,50,240,,24,66,019,,27,16,137,*60
$PQGSV,1,1,0,0*43
$PQGSV,1,1,0,0*43
$GPGSA,A,3,02,04,07,08,10,13,20,23,25,27,28,,1.0,0.7,0.7*32
$GLGSA,A,3,71,77,78,87,88,,,,,,,,1.0,0.7,0.7*29
$GPVTG,,T,,M,0.0,N,0.0,K,A*23
$GPDTM,P90,,0000.000022,S,00000.000001,W,0.988,W84*5A
$GPRMC,004631.00,A,3000.000091,N,11959.999889,E,0.0,,230721,4.3,W,A*05
$GPGGA,004631.00,3000.000091,N,11959.999889,E,1,12,0.7,-8.7,M,7.0,M,,*73

$GPGSV,3,1,11,02,34,274,32,04,36,220,32,07,66,032,32,08,67,224,32*75
$GPGSV,3,2,11,10,15,316,31,13,37,053,32,20,06,133,32,23,14,073,32*7F
$GPGSV,3,3,11,25,45,036,32,27,35,230,32,28,14,171,31*42
$GLGSV,2,1,07,78,26,327,30,86,16,039,30,77,73,277,29,88,31,267,30*60
$GLGSV,2,2,07,87,52,345,30,71,08,059,30,72,08,109,29*54
$GAGSV,2,1,08,09,26,319,,10,80,324,,11,41,137,,17,16,042,*6E
$GAGSV,2,2,08,22,02,229,,23,50,240,,24,66,019,,27,16,137,*60
$PQGSV,1,1,0,0*43
$PQGSV,1,1,0,0*43
$GPGSA,A,3,02,04,07,08,10,13,20,23,25,27,28,,0.9,0.6,0.7*3B
$GLGSA,A,3,71,77,78,87,88,,,,,,,,0.9,0.6,0.7*20
$GPVTG,,T,,M,0.0,N,0.0,K,A*23
$GPDTM,P90,,0000.000022,S,00000.000001,W,0.988,W84*5A
$GPRMC,004632.00,A,3000.000042,N,11959.999920,E,0.0,,230721,4.3,W,A*0A
$GPGGA,004632.00,3000.000042,N,11959.999920,E,1,12,0.6,-8.7,M,7.0,M,,*7D

$GPGSV,3,1,11,02,34,274,32,04,36,220,32,07,66,032,32,08,67,224,32*75
$GPGSV,3,2,11,10,15,316,31,13,37,053,32,20,06,133,31,23,14,073,32*7C
$GPGSV,3,3,11,25,45,036,32,27,35,230,32,28,14,171,31*42
$GLGSV,2,1,07,78,26,327,30,86,16,039,30,77,73,277,30,88,31,267,30*68
$GLGSV,2,2,07,87,52,345,31,71,08,059,30,72,08,109,30*5D
$GAGSV,2,1,08,09,26,319,,10,80,324,,11,41,137,,17,16,042,*6E
$GAGSV,2,2,08,22,02,229,,23,50,240,,24,66,019,,27,16,137,*60
$PQGSV,1,1,0,0*43
$PQGSV,1,1,0,0*43
$GPGSA,A,3,02,04,07,08,10,13,20,23,25,27,28,,0.9,0.6,0.7*3B
$GLGSA,A,3,71,72,77,78,86,87,88,,,,,,0.9,0.6,0.7*2B
$GPVTG,,T,,M,0.0,N,0.0,K,A*23
$GPDTM,P90,,0000.000022,S,00000.000001,W,0.988,W84*5A
$GPRMC,004633.00,A,3000.000055,N,11959.999890,E,0.0,,230721,4.3,W,A*07
$GPGGA,004633.00,3000.000055,N,11959.999890,E,1,12,0.6,-8.7,M,7.0,M,,*70

$GPGSV,3,1,11,02,34,274,32,04,36,220,32,07,66,032,32,08,67,224,32*75
$GPGSV,3,2,11,10,15,316,31,13,37,053,32,20,06,133,32,23,14,073,32*7F
$GPGSV,3,3,11,25,45,036,32,27,35,230,32,28,14,171,31*42
$GLGSV,2,1,07,78,26,327,30,86,16,039,30,77,73,277,30,88,31,267,30*68
$GLGSV,2,2,07,87,52,345,30,71,08,059,30,72,08,109,29*54
$GAGSV,2,1,08,09,26,319,,10,80,324,,11,41,137,,17,16,042,*6E
$GAGSV,2,2,08,22,02,229,,23,50,240,,24,66,019,,27,16,137,*60
$PQGSV,1,1,0,0*43
$PQGSV,1,1,0,0*43
$GPGSA,A,3,02,04,07,08,10,13,20,23,25,27,28,,0.9,0.6,0.7*3B
$GLGSA,A,3,71,72,77,78,86,87,88,,,,,,0.9,0.6,0.7*2B
$GPVTG,,T,,M,0.0,N,0.0,K,A*23
$GPDTM,P90,,0000.000022,S,00000.000001,W,0.988,W84*5A
$GPRMC,004634.00,A,2959.999995,N,11959.999945,E,0.0,,230721,4.3,W,A*01
$GPGGA,004634.00,2959.999995,N,11959.999945,E,1,12,0.6,-8.7,M,7.0,M,,*76

$GPGSV,3,1,11,02,34,274,32,04,36,220,32,07,66,032,32,08,67,224,31*76
$GPGSV,3,2,11,10,15,316,30,13,37,053,32,20,06,133,32,23,14,073,32*7E
$GPGSV,3,3,11,25,45,036,31,27,35,230,32,28,14,171,31*41
$GLGSV,2,1,07,78,26,327,30,86,16,039,30,77,73,277,30,88,31,267,30*68
$GLGSV,2,2,07,87,52,345,30,71,08,059,30,72,08,109,29*54
$GAGSV,2,1,08,09,26,319,,10,80,324,,11,41,137,,17,16,042,*6E
$GAGSV,2,2,08,22,02,229,,23,50,240,,24,66,019,,27,16,137,*60
$PQGSV,1,1,0,0*43
$PQGSV,1,1,0,0*43
$GPGSA,A,3,02,04,07,08,10,13,20,23,25,27,28,,0.9,0.6,0.7*3B
$GLGSA,A,3,71,72,77,78,86,87,88,,,,,,0.9,0.6,0.7*2B
$GPVTG,,T,,M,0.0,N,0.0,K,A*23
$GPDTM,P90,,0000.000022,S,00000.000001,W,0.988,W84*5A
$GPRMC,004635.00,A,2959.999910,N,11959.999993,E,0.0,,230721,4.3,W,A*06
$GPGGA,004635.00,2959.999910,N,11959.999993,E,1,12,0.6,-8.7,M,7.0,M,,*71

$GPGSV,3,1,11,02,34,274,32,04,36,220,32,07,66,032,32,08,67,224,32*75
$GPGSV,3,2,11,10,15,316,31,13,37,053,32,20,06,133,32,23,14,073,32*7F
$GPGSV,3,3,11,25,45,036,32,27,35,230,32,28,14,171,31*42
$GLGSV,2,1,07,78,26,327,29,86,16,039,30,77,73,277,30,88,31,267,30*60
$GLGSV,2,2,07,87,52,345,30,71,08,059,31,72,08,109,30*5D
$GAGSV,2,1,08,09,26,319,,10,80,324,,11,41,137,,17,16,042,*6E
$GAGSV,2,2,08,22,02,229,,23,50,240,,24,66,019,,27,16,137,*60
$PQGSV,1,1,0,0*43
$PQGSV,1,1,0,0*43
$GPGSA,A,3,02,04,07,08,10,13,20,23,25,27,28,,0.9,0.6,0.7*3B
$GLGSA,A,3,71,72,77,78,86,87,88,,,,,,0.9,0.6,0.7*2B
$GPVTG,,T,,M,0.0,N,0.0,K,A*23
$GPDTM,P90,,0000.000022,S,00000.000001,W,0.988,W84*5A
$GPRMC,004636.00,A,2959.999896,N,11959.999986,E,0.0,,230721,4.3,W,A*0E
$GPGGA,004636.00,2959.999896,N,11959.999986,E,1,12,0.6,-8.7,M,7.0,M,,*79

$GPGSV,3,1,11,02,34,274,32,04,36,220,32,07,66,032,32,08,67,224,32*75
$GPGSV,3,2,11,10,15,316,31,13,37,053,32,20,06,133,32,23,14,073,32*7F
$GPGSV,3,3,11,25,45,036,32,27,35,230,32,28,14,171,31*42
$GLGSV,2,1,07,78,26,327,31,86,16,039,29,77,73,277,30,88,31,267,30*61
$GLGSV,2,2,07,87,52,345,30,71,08,059,30,72,08,109,29*54
$GAGSV,2,1,08,09,26,319,,10,80,324,,11,41,137,,17,16,042,*6E
$GAGSV,2,2,08,22,02,229,,23,50,240,,24,66,019,,27,16,137,*60
$PQGSV,1,1,0,0*43
$PQGSV,1,1,0,0*43
$GPGSA,A,3,02,04,07,08,10,13,20,23,25,27,28,,0.9,0.6,0.7*3B
$GLGSA,A,3,71,72,77,78,86,87,88,,,,,,0.9,0.6,0.7*2B
$GPVTG,,T,,M,0.0,N,0.0,K,A*23
$GPDTM,P90,,0000.000022,S,00000.000001,W,0.988,W84*5A
$GPRMC,004637.00,A,2959.999935,N,11959.999965,E,0.0,,230721,4.3,W,A*0A
$GPGGA,004637.00,2959.999935,N,11959.999965,E,1,12,0.6,-8.7,M,7.0,M,,*7D

$GPGSV,3,1,11,02,34,274,31,04,36,220,32,07,66,032,32,08,67,224,32*76
$GPGSV,3,2,11,10,15,316,31,13,37,053,32,20,06,133,32,23,14,073,32*7F
$GPGSV,3,3,11,25,45,036,32,27,35,230,32,28,14,171,31*42
$GLGSV,2,1,07,78,26,327,30,86,16,039,30,77,73,277,29,88,31,267,30*60
$GLGSV,2,2,07,87,52,345,30,71,08,059,30,72,08,109,29*54
$GAGSV,2,1,08,09,26,319,,10,80,324,,11,41,137,,17,16,042,*6E
$GAGSV,2,2,08,22,02,229,,23,50,240,,24,66,019,,27,16,137,*60
$PQGSV,1,1,0,0*43
$PQGSV,1,1,0,0*43
$GPGSA,A,3,02,04,07,08,10,13,20,23,25,27,28,,0.9,0.6,0.7*3B
$GLGSA,A,3,71,72,77,78,86,87,88,,,,,,0.9,0.6,0.7*2B
$GPVTG,,T,,M,0.0,N,0.0,K,A*23
$GPDTM,P90,,0000.000022,S,00000.000001,W,0.988,W84*5A
$GPRMC,004638.00,A,2959.999960,N,11959.999948,E,0.0,,230721,4.3,W,A*0A
$GPGGA,004638.00,2959.999960,N,11959.999948,E,1,12,0.6,-8.7,M,7.0,M,,*7D

$GPGSV,3,1,11,02,34,274,32,04,36,220,32,07,66,032,32,08,67,224,32*75
$GPGSV,3,2,11,10,15,316,31,13,37,053,32,20,06,133,32,23,14,073,32*7F
$GPGSV,3,3,11,25,45,036,31,27,35,230,32,28,14,171,31*41
$GLGSV,2,1,07,78,26,327,29,86,16,039,30,77,73,277,30,88,31,267,31*61
$GLGSV,2,2,07,87,52,345,30,71,08,059,30,72,08,109,29*54
$GAGSV,2,1,08,09,26,319,,10,80,324,,11,41,137,,17,16,042,*6E
$GAGSV,2,2,08,22,02,229,,23,50,240,,24,66,019,,27,16,137,*60
$PQGSV,1,1,0,0*43
$PQGSV,1,1,0,0*43
$GPGSA,A,3,02,04,07,08,10,13,20,23,25,27,28,,0.9,0.6,0.7*3B
$GLGSA,A,3,71,72,77,78,86,87,88,,,,,,0.9,0.6,0.7*2B
$GPVTG,,T,,M,0.0,N,0.0,K,A*23
$GPDTM,P90,,0000.000022,S,00000.000001,W,0.988,W84*5A
$GPRMC,004639.00,A,2959.999952,N,11959.999943,E,0.0,,230721,4.3,W,A*01
$GPGGA,004639.00,2959.999952,N,11959.999943,E,1,12,0.6,-8.6,M,7.0,M,,*77

$GPGSV,3,1,11,02,34,274,31,04,36,220,32,07,66,032,32,08,67,224,32*76
$GPGSV,3,2,11,10,15,316,30,13,37,053,32,20,06,133,32,23,14,073,32*7E
$GPGSV,3,3,11,25,45,036,32,27,35,230,32,28,14,171,31*42
$GLGSV,2,1,07,78,26,327,30,86,16,039,30,77,73,277,30,88,31,267,29*60
$GLGSV,2,2,07,87,52,345,30,71,08,059,30,72,08,109,29*54
$GAGSV,2,1,08,09,26,319,,10,80,324,,11,41,137,,17,16,042,*6E
$GAGSV,2,2,08,22,02,229,,23,50,240,,24,66,019,,27,16,137,*60
$PQGSV,1,1,0,0*43
$PQGSV,1,1,0,0*43
$GPGSA,A,3,02,04,07,08,10,13,20,23,25,27,28,,0.9,0.6,0.7*3B
$GLGSA,A,3,71,72,77,78,86,87,88,,,,,,0.9,0.6,0.7*2B
$GPVTG,,T,,M,0.0,N,0.0,K,A*23
$GPDTM,P90,,0000.000022,S,00000.000001,W,0.988,W84*5A
$GPRMC,004640.00,A,3000.000040,N,11959.999908,E,0.0,,230721,4.3,W,A*07
$GPGGA,004640.00,3000.000040,N,11959.999908,E,1,12,0.6,-8.7,M,7.0,M,,*70

$GPGSV,3,1,11,02,34,274,32,04,36,220,32,07,66,032,32,08,67,224,32*75
$GPGSV,3,2,11,10,15,316,31,13,37,053,32,20,06,133,32,23,14,073,32*7F
$GPGSV,3,3,11,25,45,036,32,27,35,230,32,28,14,171,31*42
$GLGSV,2,1,07,78,26,327,30,86,16,039,30,77,73,277,30,88,31,267,30*68
$GLGSV,2,2,07,87,52,345,30,71,08,059,30,72,08,109,29*54
$GAGSV,2,1,08,09,26,319,,10,80,324,,11,41,137,,17,16,042,*6E
$GAGSV,2,2,08,22,02,229,,23,50,240,,24,66,019,,27,16,137,*60
$PQGSV,1,1,0,0*43
$PQGSV,1,1,0,0*43
$GPGSA,A,3,02,04,07,08,10,13,20,23,25,27,28,,0.9,0.6,0.7*3B
$GLGSA,A,3,71,72,77,78,86,87,88,,,,,,0.9,0.6,0.7*2B
$GPVTG,,T,,M,0.0,N,0.0,K,A*23
$GPDTM,P90,,0000.000022,S,00000.000001,W,0.988,W84*5A
$GPRMC,004641.00,A,2959.999988,N,11959.999935,E,0.0,,230721,4.3,W,A*08
$GPGGA,004641.00,2959.999988,N,11959.999935,E,1,12,0.6,-8.7,M,7.0,M,,*7F

$GPGSV,3,1,11,02,34,274,31,04,36,220,32,07,66,032,32,08,67,224,32*76
$GPGSV,3,2,11,10,15,316,31,13,37,053,32,20,06,133,32,23,14,073,32*7F
$GPGSV,3,3,11,25,45,036,32,27,35,230,32,28,14,171,31*42
$GLGSV,2,1,07,78,26,327,29,86,16,039,30,77,73,277,29,88,31,267,30*68
$GLGSV,2,2,07,87,52,345,30,71,08,059,30,72,08,109,29*54
$GAGSV,2,1,08,09,26,319,,10,80,324,,11,41,137,,17,16,042,*6E
$GAGSV,2,2,08,22,02,229,,23,50,240,,24,66,019,,27,16,137,*60
$PQGSV,1,1,0,0*43
$PQGSV,1,1,0,0*43
$GPGSA,A,3,02,04,07,08,10,13,20,23,25,27,28,,0.9,0.6,0.7*3B
$GLGSA,A,3,71,72,77,78,86,87,88,,,,,,0.9,0.6,0.7*2B
$GPVTG,,T,,M,0.0,N,0.0,K,A*23
$GPDTM,P90,,0000.000022,S,00000.000001,W,0.988,W84*5A
$GPRMC,004642.00,A,2959.999992,N,11959.999934,E,0.0,,230721,4.3,W,A*01
$GPGGA,004642.00,2959.999992,N,11959.999934,E,1,12,0.6,-8.7,M,7.0,M,,*76

$GPGSV,3,1,11,02,34,274,32,04,36,220,32,07,66,032,32,08,67,224,32*75
$GPGSV,3,2,11,10,15,316,31,13,37,053,32,20,06,133,32,23,14,073,32*7F
$GPGSV,3,3,11,25,45,036,32,27,35,230,32,28,14,171,31*42
$GLGSV,2,1,07,78,26,327,30,86,16,039,30,77,73,277,30,88,31,267,30*68
$GLGSV,2,2,07,87,52,345,30,71,08,059,30,72,08,109,29*54
$GAGSV,2,1,08,09,26,319,,10,80,324,,11,41,137,,17,16,042,*6E
$GAGSV,2,2,08,22,02,229,,23,50,240,,24,66,019,,27,16,137,*60
$PQGSV,1,1,0,0*43
$PQGSV,1,1,0,0*43
$GPGSA,A,3,02,04,07,08,10,13,20,23,25,27,28,,0.9,0.6,0.7*3B
$GLGSA,A,3,71,72,77,78,86,87,88,,,,,,0.9,0.6,0.7*2B
$GPVTG,,T,,M,0.0,N,0.0,K,A*23
$GPDTM,P90,,0000.000022,S,00000.000001,W,0.988,W84*5A
$GPRMC,004643.00,A,2959.999987,N,11959.999931,E,0.0,,230721,4.3,W,A*01
$GPGGA,004643.00,2959.999987,N,11959.999931,E,1,12,0.6,-8.7,M,7.0,M,,*76

$GPGSV,3,1,11,02,34,274,32,04,36,220,32,07,66,032,32,08,67,224,32*75
$GPGSV,3,2,11,10,15,316,30,13,37,053,32,20,06,133,32,23,14,073,31*7D
$GPGSV,3,3,11,25,45,036,32,27,35,230,32,28,14,171,31*42
$GLGSV,2,1,07,78,26,327,30,86,16,039,30,77,73,277,30,88,31,267,31*69
$GLGSV,2,2,07,87,52,345,30,71,08,059,30,72,08,109,30*5C
$GAGSV,2,1,08,09,26,319,,10,80,324,,11,41,137,,17,16,042,*6E
$GAGSV,2,2,08,22,02,229,,23,50,240,,24,66,019,,27,16,137,*60
$PQGSV,1,1,0,0*43
$PQGSV,1,1,0,0*43
$GPGSA,A,3,02,04,07,08,10,13,20,23,25,27,28,,0.9,0.6,0.7*3B
$GLGSA,A,3,71,72,77,78,86,87,88,,,,,,0.9,0.6,0.7*2B
$GPVTG,,T,,M,0.0,N,0.0,K,A*23
$GPDTM,P90,,0000.000022,S,00000.000001,W,0.988,W84*5A
$GPRMC,004644.00,A,2959.999986,N,11959.999930,E,0.0,,230721,4.3,W,A*06
$GPGGA,004644.00,2959.999986,N,11959.999930,E,1,12,0.6,-8.7,M,7.0,M,,*71

$GPGSV,3,1,11,02,34,274,32,04,36,220,31,07,66,032,32,08,67,224,32*76
$GPGSV,3,2,11,10,15,316,31,13,37,053,32,20,06,133,32,23,14,073,32*7F
$GPGSV,3,3,11,25,45,036,32,27,35,230,32,28,14,171,31*42
$GLGSV,2,1,07,78,26,327,31,86,16,039,30,77,73,277,30,88,31,267,30*69
$GLGSV,2,2,07,87,52,345,30,71,08,059,31,72,08,109,29*55
$GAGSV,2,1,08,09,26,319,,10,80,324,,11,41,137,,17,16,042,*6E
$GAGSV,2,2,08,22,02,229,,23,50,240,,24,66,019,,27,16,137,*60
$PQGSV,1,1,0,0*43
$PQGSV,1,1,0,0*43
$GPGSA,A,3,02,04,07,08,10,13,20,23,25,27,28,,0.9,0.6,0.7*3B
$GLGSA,A,3,71,72,77,78,86,87,88,,,,,,0.9,0.6,0.7*2B
$GPVTG,,T,,M,0.0,N,0.0,K,A*23
$GPDTM,P90,,0000.000022,S,00000.000001,W,0.988,W84*5A
$GPRMC,004645.00,A,2959.999987,N,11959.999929,E,0.0,,230721,4.3,W,A*0E
$GPGGA,004645.00,2959.999987,N,11959.999929,E,1,12,0.6,-8.7,M,7.0,M,,*79

$GPGSV,3,1,11,02,34,274,32,04,36,220,32,07,66,032,31,08,67,224,32*76
$GPGSV,3,2,11,10,15,316,31,13,37,053,31,20,06,133,32,23,14,073,32*7C
$GPGSV,3,3,11,25,45,036,32,27,35,230,32,28,14,171,31*42
$GLGSV,2,1,07,78,26,327,30,86,16,039,30,77,73,277,30,88,31,267,29*60
$GLGSV,2,2,07,87,52,345,30,71,08,059,30,72,08,109,29*54
$GAGSV,2,1,08,09,26,319,,10,80,324,,11,41,137,,17,16,042,*6E
$GAGSV,2,2,08,22,02,229,,23,50,240,,24,66,019,,27,16,137,*60
$PQGSV,1,1,0,0*43
$PQGSV,1,1,0,0*43
$GPGSA,A,3,02,04,07,08,10,13,20,23,25,27,28,,0.9,0.6,0.7*3B
$GLGSA,A,3,71,72,77,78,86,87,88,,,,,,0.9,0.6,0.7*2B
$GPVTG,,T,,M,0.0,N,0.0,K,A*23
$GPDTM,P90,,0000.000022,S,00000.000001,W,0.988,W84*5A
$GPRMC,004646.00,A,2959.999987,N,11959.999926,E,0.0,,230721,4.3,W,A*02
$GPGGA,004646.00,2959.999987,N,11959.999926,E,1,12,0.6,-8.7,M,7.0,M,,*75

$GPGSV,3,1,11,02,34,274,32,04,36,220,32,07,66,032,32,08,67,224,32*75
$GPGSV,3,2,11,10,15,316,31,13,37,053,32,20,06,133,32,23,14,073,32*7F
$GPGSV,3,3,11,25,45,036,32,27,35,230,32,28,14,171,31*42
$GLGSV,2,1,07,78,26,327,30,86,16,039,30,77,73,277,30,88,31,267,30*68
$GLGSV,2,2,07,87,52,345,30,71,08,059,30,72,08,109,29*54
$GAGSV,2,1,08,09,26,319,,10,80,324,,11,41,137,,17,16,042,*6E
$GAGSV,2,2,08,22,02,229,,23,50,240,,24,66,019,,27,16,137,*60
$PQGSV,1,1,0,0*43
$PQGSV,1,1,0,0*43
$GPGSA,A,3,02,04,07,08,10,13,20,23,25,27,28,,0.9,0.6,0.7*3B
$GLGSA,A,3,71,72,77,78,86,87,88,,,,,,0.9,0.6,0.7*2B
$GPVTG,,T,,M,0.0,N,0.0,K,A*23
$GPDTM,P90,,0000.000022,S,00000.000001,W,0.988,W84*5A
$GPRMC,004647.00,A,2959.999988,N,11959.999926,E,0.0,,230721,4.3,W,A*0C
$GPGGA,004647.00,2959.999988,N,11959.999926,E,1,12,0.6,-8.7,M,7.0,M,,*7B

$GPGSV,3,1,11,02,34,274,32,04,36,220,32,07,66,032,32,08,67,224,32*75
$GPGSV,3,2,11,10,15,316,31,13,37,053,32,20,06,133,32,23,14,073,32*7F
$GPGSV,3,3,11,25,45,036,32,27,35,230,32,28,14,171,31*42
$GLGSV,2,1,07,78,26,327,30,86,16,039,30,77,73,277,30,88,31,267,30*68
$GLGSV,2,2,07,87,52,345,30,71,08,059,30,72,08,109,29*54
$GAGSV,2,1,08,09,26,319,,10,80,324,,11,41,137,,17,16,042,*6E
$GAGSV,2,2,08,22,02,229,,23,50,240,,24,66,019,,27,16,137,*60
$PQGSV,1,1,0,0*43
$PQGSV,1,1,0,0*43
$GPGSA,A,3,02,04,07,08,10,13,20,23,25,27,28,,0.9,0.6,0.7*3B
$GLGSA,A,3,71,72,77,78,86,87,88,,,,,,0.9,0.6,0.7*2B
$GPVTG,,T,,M,0.0,N,0.0,K,A*23
$GPDTM,P90,,0000.000022,S,00000.000001,W,0.988,W84*5A
$GPRMC,004648.00,A,2959.999988,N,11959.999926,E,0.0,,230721,4.3,W,A*03
$GPGGA,004648.00,2959.999988,N,11959.999926,E,1,12,0.6,-8.7,M,7.0,M,,*74

$GPGSV,3,1,11,02,34,274,32,04,36,220,32,07,66,032,32,08,67,224,32*75
$GPGSV,3,2,11,10,15,316,31,13,37,053,32,20,06,133,32,23,14,073,32*7F
$GPGSV,3,3,11,25,45,036,32,27,35,230,32,28,14,171,31*42
$GLGSV,2,1,07,78,26,327,31,86,16,039,30,77,73,277,29,88,31,267,30*61
$GLGSV,2,2,07,87,52,345,30,71,08,059,30,72,08,109,29*54
$GAGSV,2,1,08,09,26,319,,10,80,324,,11,41,137,,17,16,042,*6E
$GAGSV,2,2,08,22,02,229,,23,50,240,,24,66,019,,27,16,137,*60
$PQGSV,1,1,0,0*43
$PQGSV,1,1,0,0*43
$GPGSA,A,3,02,04,07,08,10,13,20,23,25,27,28,,0.9,0.6,0.7*3B
$GLGSA,A,3,71,72,77,78,86,87,88,,,,,,0.9,0.6,0.7*2B
$GPVTG,,T,,M,0.0,N,0.0,K,A*23
$GPDTM,P90,,0000.000022,S,00000.000001,W,0.988,W84*5A
$GPRMC,004649.00,A,2959.999989,N,11959.999925,E,0.0,,230721,4.3,W,A*00
$GPGGA,004649.00,2959.999989,N,11959.999925,E,1,12,0.6,-8.7,M,7.0,M,,*77

$GPGSV,3,1,11,02,34,274,32,04,36,220,32,07,66,032,32,08,67,224,32*75
$GPGSV,3,2,11,10,15,316,31,13,37,053,32,20,06,133,32,23,14,073,32*7F
$GPGSV,3,3,11,25,45,036,32,27,35,230,32,28,14,171,31*42
$GLGSV,2,1,07,78,26,327,30,86,16,039,30,77,73,277,30,88,31,267,30*68
$GLGSV,2,2,07,87,52,345,30,71,08,059,30,72,08,109,30*5C
$GAGSV,2,1,08,09,26,319,,10,80,324,,11,41,137,,17,16,042,*6E
$GAGSV,2,2,08,22,02,229,,23,50,240,,24,66,019,,27,16,137,*60
$PQGSV,1,1,0,0*43
$PQGSV,1,1,0,0*43
$GPGSA,A,3,02,04,07,08,10,13,20,23,25,27,28,,0.9,0.6,0.7*3B
$GLGSA,A,3,71,72,77,78,86,87,88,,,,,,0.9,0.6,0.7*2B
$GPVTG,,T,,M,0.0,N,0.0,K,A*23
$GPDTM,P90,,0000.000022,S,00000.000001,W,0.988,W84*5A
$GPRMC,004650.00,A,2959.999987,N,11959.999925,E,0.0,,230721,4.3,W,A*06
$GPGGA,004650.00,2959.999987,N,11959.999925,E,1,12,0.6,-8.7,M,7.0,M,,*71

$GPGSV,3,1,11,02,34,274,32,04,36,220,32,07,66,032,32,08,67,224,31*76
$GPGSV,3,2,11,10,15,316,31,13,37,053,32,20,06,133,32,23,14,073,32*7F
$GPGSV,3,3,11,25,45,036,32,27,35,230,32,28,14,171,31*42
$GLGSV,2,1,07,78,26,327,30,86,16,039,30,77,73,277,30,88,31,267,31*69
$GLGSV,2,2,07,87,52,345,30,71,08,059,30,72,08,109,29*54
$GAGSV,2,1,08,09,26,319,,10,80,324,,11,41,137,,17,16,042,*6E
$GAGSV,2,2,08,22,02,229,,23,50,240,,24,66,019,,27,16,137,*60
$PQGSV,1,1,0,0*43
$PQGSV,1,1,0,0*43
$GPGSA,A,3,02,04,07,08,10,13,20,23,25,27,28,,0.9,0.6,0.7*3B
$GLGSA,A,3,71,72,77,78,86,87,88,,,,,,0.9,0.6,0.7*2B
$GPVTG,,T,,M,0.0,N,0.0,K,A*23
$GPDTM,P90,,0000.000022,S,00000.000001,W,0.988,W84*5A
$GPRMC,004651.00,A,2959.999987,N,11959.999925,E,0.0,,230721,4.3,W,A*07
$GPGGA,004651.00,2959.999987,N,11959.999925,E,1,12,0.6,-8.7,M,7.0,M,,*70

$GPGSV,3,1,11,02,34,274,32,04,36,220,32,07,66,032,32,08,67,224,32*75
$GPGSV,3,2,11,10,15,316,30,13,37,053,32,20,06,133,32,23,14,073,32*7E
$GPGSV,3,3,11,25,45,036,32,27,35,230,32,28,14,171,30*43
$GLGSV,2,1,07,78,26,327,30,86,16,039,30,77,73,277,30,88,31,267,30*68
$GLGSV,2,2,07,87,52,345,30,71,08,059,30,72,08,109,29*54
$GAGSV,2,1,08,09,26,319,,10,80,324,,11,41,137,,17,16,042,*6E
$GAGSV,2,2,08,22,02,229,,23,50,240,,24,66,019,,27,16,137,*60
$PQGSV,1,1,0,0*43
$PQGSV,1,1,0,0*43
$GPGSA,A,3,02,04,07,08,10,13,20,23,25,27,28,,0.9,0.6,0.7*3B
$GLGSA,A,3,71,72,77,78,86,87,88,,,,,,0.9,0.6,0.7*2B
$GPVTG,,T,,M,0.0,N,0.0,K,A*23
$GPDTM,P90,,0000.000022,S,00000.000001,W,0.988,W84*5A
$GPRMC,004652.00,A,2959.999988,N,11959.999926,E,0.0,,230721,4.3,W,A*08
$GPGGA,004652.00,2959.999988,N,11959.999926,E,1,12,0.6,-8.7,M,7.0,M,,*7F

$GPGSV,3,1,11,02,34,274,32,04,36,220,32,07,66,032,32,08,67,224,32*75
$GPGSV,3,2,11,10,15,316,31,13,37,053,31,20,06,133,32,23,14,073,31*7F
$GPGSV,3,3,11,25,45,036,32,27,35,230,31,28,14,171,31*41
$GLGSV,2,1,07,78,26,327,30,86,16,039,30,77,73,277,30,88,31,267,30*68
$GLGSV,2,2,07,87,52,345,30,71,08,059,30,72,08,109,29*54
$GAGSV,2,1,08,09,26,319,,10,80,324,,11,41,137,,17,16,042,*6E
$GAGSV,2,2,08,22,02,229,,23,50,240,,24,66,019,,27,16,137,*60
$PQGSV,1,1,0,0*43
$PQGSV,1,1,0,0*43
$GPGSA,A,3,02,04,07,08,10,13,20,23,25,27,28,,0.9,0.6,0.7*3B
$GLGSA,A,3,71,72,77,78,86,87,88,,,,,,0.9,0.6,0.7*2B
$GPVTG,,T,,M,0.0,N,0.0,K,A*23
$GPDTM,P90,,0000.000022,S,00000.000001,W,0.988,W84*5A
$GPRMC,004653.00,A,2959.999986,N,11959.999924,E,0.0,,230721,4.3,W,A*05
$GPGGA,004653.00,2959.999986,N,11959.999924,E,1,12,0.6,-8.7,M,7.0,M,,*72

$GPGSV,3,1,11,02,34,274,32,04,36,220,32,07,66,032,32,08,67,224,32*75
$GPGSV,3,2,11,10,15,316,31,13,37,053,32,20,06,133,32,23,14,073,31*7C
$GPGSV,3,3,11,25,45,036,32,27,35,230,32,28,14,171,31*42
$GLGSV,2,1,07,78,26,327,30,86,16,039,30,77,73,277,30,88,31,267,30*68
$GLGSV,2,2,07,87,52,345,30,71,08,059,30,72,08,109,29*54
$GAGSV,2,1,08,09,26,319,,10,80,324,,11,41,137,,17,16,042,*6E
$GAGSV,2,2,08,22,02,229,,23,50,240,,24,66,019,,27,16,137,*60
$PQGSV,1,1,0,0*43
$PQGSV,1,1,0,0*43
$GPGSA,A,3,02,04,07,08,10,13,20,23,25,27,28,,0.9,0.6,0.7*3B
$GLGSA,A,3,71,72,77,78,86,87,88,,,,,,0.9,0.6,0.7*2B
$GPVTG,,T,,M,0.0,N,0.0,K,A*23
$GPDTM,P90,,0000.000022,S,00000.000001,W,0.988,W84*5A
$GPRMC,004654.00,A,2959.999986,N,11959.999924,E,0.0,,230721,4.3,W,A*02
$GPGGA,004654.00,2959.999986,N,11959.999924,E,1,12,0.6,-8.6,M,7.0,M,,*74

$GPGSV,3,1,11,02,34,274,32,04,36,220,32,07,66,032,32,08,67,224,32*75
$GPGSV,3,2,11,10,15,316,31,13,37,053,32,20,06,133,32,23,14,073,32*7F
$GPGSV,3,3,11,25,45,036,32,27,35,230,32,28,14,171,31*42
$GLGSV,2,1,07,78,26,327,30,86,16,039,30,77,73,277,30,88,31,267,30*68
$GLGSV,2,2,07,87,52,345,30,71,08,059,30,72,08,109,29*54
$GAGSV,2,1,08,09,26,319,,10,80,324,,11,41,137,,17,16,042,*6E
$GAGSV,2,2,08,22,02,229,,23,50,240,,24,66,019,,27,16,137,*60
$PQGSV,1,1,0,0*43
$PQGSV,1,1,0,0*43
$GPGSA,A,3,02,04,07,08,10,13,20,23,25,27,28,,0.9,0.6,0.7*3B
$GLGSA,A,3,71,72,77,78,86,87,88,,,,,,0.9,0.6,0.7*2B
$GPVTG,,T,,M,0.0,N,0.0,K,A*23
$GPDTM,P90,,0000.000022,S,00000.000001,W,0.988,W84*5A
$GPRMC,004655.00,A,2959.999988,N,11959.999923,E,0.0,,230721,4.3,W,A*0A
$GPGGA,004655.00,2959.999988,N,11959.999923,E,1,12,0.6,-8.6,M,7.0,M,,*7C

$GPGSV,3,1,11,02,34,274,32,04,36,220,32,07,66,032,32,08,67,224,32*75
$GPGSV,3,2,11,10,15,316,30,13,37,053,32,20,06,133,32,23,14,073,32*7E
$GPGSV,3,3,11,25,45,036,31,27,35,230,32,28,14,171,31*41
$GLGSV,2,1,07,78,26,327,30,86,16,039,30,77,73,277,30,88,31,267,30*68
$GLGSV,2,2,07,87,52,345,30,71,08,059,30,72,08,109,30*5C
$GAGSV,2,1,08,09,26,319,,10,80,324,,11,41,137,,17,16,042,*6E
$GAGSV,2,2,08,22,02,229,,23,50,240,,24,66,019,,27,16,137,*60
$PQGSV,1,1,0,0*43
$PQGSV,1,1,0,0*43
$GPGSA,A,3,02,04,07,08,10,13,20,23,25,27,28,,0.9,0.6,0.7*3B
$GLGSA,A,3,71,72,77,78,86,87,88,,,,,,0.9,0.6,0.7*2B
$GPVTG,,T,,M,0.0,N,0.0,K,A*23
$GPDTM,P90,,0000.000022,S,00000.000001,W,0.988,W84*5A
$GPRMC,004656.00,A,2959.999989,N,11959.999923,E,0.0,,230721,4.3,W,A*08
$GPGGA,004656.00,2959.999989,N,11959.999923,E,1,12,0.6,-8.6,M,7.0,M,,*7E

$GPGSV,3,1,11,02,34,274,32,04,36,220,32,07,66,032,32,08,67,224,32*75
$GPGSV,3,2,11,10,15,316,31,13,37,053,32,20,06,133,32,23,14,073,32*7F
$GPGSV,3,3,11,25,45,036,32,27,35,230,32,28,14,171,31*42
$GLGSV,2,1,07,78,26,327,29,86,16,039,30,77,73,277,30,88,31,267,31*61
$GLGSV,2,2,07,87,52,345,30,71,08,059,29,72,08,109,29*5C
$GAGSV,2,1,08,09,26,319,,10,80,324,,11,41,137,,17,16,042,*6E
$GAGSV,2,2,08,22,02,229,,23,50,240,,24,66,019,,27,16,137,*60
$PQGSV,1,1,0,0*43
$PQGSV,1,1,0,0*43
$GPGSA,A,3,02,04,07,08,10,13,20,23,25,27,28,,0.9,0.6,0.7*3B
$GLGSA,A,3,71,72,77,78,86,87,88,,,,,,0.9,0.6,0.7*2B
$GPVTG,,T,,M,0.0,N,0.0,K,A*23
$GPDTM,P90,,0000.000022,S,00000.000001,W,0.988,W84*5A
$GPRMC,004657.00,A,2959.999987,N,11959.999921,E,0.0,,230721,4.3,W,A*05
$GPGGA,004657.00,2959.999987,N,11959.999921,E,1,12,0.6,-8.6,M,7.0,M,,*73

$GPGSV,3,1,11,02,34,274,31,04,36,220,32,07,66,032,32,08,67,224,32*76
$GPGSV,3,2,11,10,15,316,31,13,37,053,32,20,06,133,32,23,14,073,32*7F
$GPGSV,3,3,11,25,45,036,32,27,35,230,32,28,14,171,32*41
$GLGSV,2,1,07,78,26,327,30,86,16,039,30,77,73,277,30,88,31,267,30*68
$GLGSV,2,2,07,87,52,345,30,71,08,059,30,72,08,109,29*54
$GAGSV,2,1,08,09,26,319,,10,80,324,,11,41,137,,17,16,042,*6E
$GAGSV,2,2,08,22,02,229,,23,50,240,,24,66,019,,27,16,137,*60
$PQGSV,1,1,0,0*43
$PQGSV,1,1,0,0*43
$GPGSA,A,3,02,04,07,08,10,13,20,23,25,27,28,,0.9,0.6,0.7*3B
$GLGSA,A,3,71,72,77,78,86,87,88,,,,,,0.9,0.6,0.7*2B
$GPVTG,,T,,M,0.0,N,0.0,K,A*23
$GPDTM,P90,,0000.000022,S,00000.000001,W,0.988,W84*5A
$GPRMC,004658.00,A,2959.999987,N,11959.999921,E,0.0,,230721,4.3,W,A*0A
$GPGGA,004658.00,2959.999987,N,11959.999921,E,1,12,0.6,-8.6,M,7.0,M,,*7C

$GPGSV,3,1,11,02,34,274,32,04,36,220,32,07,66,032,32,08,67,224,32*75
$GPGSV,3,2,11,10,15,316,31,13,37,053,32,20,06,133,32,23,14,073,32*7F
$GPGSV,3,3,11,25,45,036,32,27,35,230,32,28,14,171,31*42
$GLGSV,2,1,07,78,26,327,30,86,16,039,30,77,73,277,30,88,31,267,30*68
$GLGSV,2,2,07,87,52,345,30,71,08,059,30,72,08,109,29*54
$GAGSV,2,1,08,09,26,319,,10,80,324,,11,41,137,,17,16,042,*6E
$GAGSV,2,2,08,22,02,229,,23,50,240,,24,66,019,,27,16,137,*60
$PQGSV,1,1,0,0*43
$PQGSV,1,1,0,0*43
$GPGSA,A,3,02,04,07,08,10,13,20,23,25,27,28,,0.9,0.6,0.7*3B
$GLGSA,A,3,71,72,77,78,86,87,88,,,,,,0.9,0.6,0.7*2B
$GPVTG,,T,,M,0.0,N,0.0,K,A*23
$GPDTM,P90,,0000.000022,S,00000.000001,W,0.988,W84*5A
$GPRMC,004659.00,A,2959.999986,N,11959.999923,E,0.0,,230721,4.3,W,A*08
$GPGGA,004659.00,2959.999986,N,11959.999923,E,1,12,0.6,-8.6,M,7.0,M,,*7E

$GPGSV,3,1,11,02,34,274,32,04,36,220,32,07,66,032,31,08,67,224,32*76
$GPGSV,3,2,11,10,15,316,31,13,37,053,32,20,06,133,32,23,14,073,32*7F
$GPGSV,3,3,11,25,45,036,31,27,35,230,32,28,14,171,31*41
$GLGSV,2,1,07,78,26,327,30,86,16,039,30,77,73,277,30,88,31,267,30*68
$GLGSV,2,2,07,87,52,345,30,71,08,059,30,72,08,109,29*54
$GAGSV,2,1,08,09,26,319,,10,80,324,,11,41,137,,17,16,042,*6E
$GAGSV,2,2,08,22,02,229,,23,50,240,,24,66,019,,27,16,137,*60
$PQGSV,1,1,0,0*43
$PQGSV,1,1,0,0*43
$GPGSA,A,3,02,04,07,08,10,13,20,23,25,27,28,,0.9,0.6,0.7*3B
$GLGSA,A,3,71,72,77,78,86,87,88,,,,,,0.9,0.6,0.7*2B
$GPVTG,,T,,M,0.0,N,0.0,K,A*23
$GPDTM,P90,,0000.000022,S,00000.000001,W,0.988,W84*5A
$GPRMC,004700.00,A,2959.999984,N,11959.999923,E,0.0,,230721,4.3,W,A*07
$GPGGA,004700.00,2959.999984,N,11959.999923,E,1,12,0.6,-8.6,M,7.0,M,,*71

$GPGSV,3,1,11,02,34,274,32,04,36,220,32,07,66,032,32,08,67,224,32*75
$GPGSV,3,2,11,10,15,316,31,13,37,053,32,20,06,133,32,23,14,073,31*7C
$GPGSV,3,3,11,25,45,036,32,27,35,230,32,28,14,171,31*42
$GLGSV,2,1,07,78,26,327,30,86,16,039,30,77,73,277,30,88,31,267,30*68
$GLGSV,2,2,07,87,52,345,31,71,08,059,30,72,08,109,29*55
$GAGSV,2,1,08,09,26,319,,10,80,324,,11,41,137,,17,16,042,*6E
$GAGSV,2,2,08,22,02,229,,23,50,240,,24,66,019,,27,16,137,*60
$PQGSV,1,1,0,0*43
$PQGSV,1,1,0,0*43
$GPGSA,A,3,02,04,07,08,10,13,20,23,25,27,28,,0.9,0.6,0.7*3B
$GLGSA,A,3,71,72,77,78,86,87,88,,,,,,0.9,0.6,0.7*2B
$GPVTG,,T,,M,0.0,N,0.0,K,A*23
$GPDTM,P90,,0000.000022,S,00000.000001,W,0.988,W84*5A
$GPRMC,004701.00,A,2959.999984,N,11959.999921,E,0.0,,230721,4.3,W,A*04
$GPGGA,004701.00,2959.999984,N,11959.999921,E,1,12,0.6,-8.6,M,7.0,M,,*72

$GPGSV,3,1,11,02,34,274,32,04,36,220,32,07,66,032,32,08,67,224,32*75
$GPGSV,3,2,11,10,15,316,32,13,37,053,32,20,06,133,31,23,14,073,32*7F
$GPGSV,3,3,11,25,45,036,31,27,35,230,32,28,14,171,31*41
$GLGSV,2,1,07,78,26,327,30,86,16,039,30,77,73,277,30,88,31,267,30*68
$GLGSV,2,2,07,87,52,345,30,71,08,059,30,72,08,109,30*5C
$GAGSV,2,1,08,09,26,319,,10,80,324,,11,41,137,,17,16,042,*6E
$GAGSV,2,2,08,22,02,229,,23,50,240,,24,66,019,,27,16,137,*60
$PQGSV,1,1,0,0*43
$PQGSV,1,1,0,0*43
$GPGSA,A,3,02,04,07,08,10,13,20,23,25,27,28,,0.9,0.6,0.7*3B
$GLGSA,A,3,71,72,77,78,86,87,88,,,,,,0.9,0.6,0.7*2B
$GPVTG,,T,,M,0.0,N,0.0,K,A*23
$GPDTM,P90,,0000.000022,S,00000.000001,W,0.988,W84*5A
$GPRMC,004702.00,A,2959.999984,N,11959.999921,E,0.0,,230721,4.3,W,A*07
$GPGGA,004702.00,2959.999984,N,11959.999921,E,1,12,0.6,-8.6,M,7.0,M,,*71

$GPGSV,3,1,11,02,34,274,32,04,36,220,32,07,66,032,32,08,67,224,32*75
$GPGSV,3,2,11,10,15,316,30,13,37,053,32,20,06,133,32,23,14,073,32*7E
$GPGSV,3,3,11,25,45,036,32,27,35,230,32,28,14,171,31*42
$GLGSV,2,1,07,78,26,327,30,86,16,039,30,77,73,277,30,88,31,267,29*60
$GLGSV,2,2,07,87,52,345,30,71,08,059,30,72,08,109,30*5C
$GAGSV,2,1,08,09,26,319,,10,80,324,,11,41,137,,17,16,042,*6E
$GAGSV,2,2,08,22,02,229,,23,50,240,,24,66,019,,27,16,137,*60
$PQGSV,1,1,0,0*43
$PQGSV,1,1,0,0*43
$GPGSA,A,3,02,04,07,08,10,13,20,23,25,27,28,,0.9,0.6,0.7*3B
$GLGSA,A,3,71,72,77,78,86,87,88,,,,,,0.9,0.6,0.7*2B
$GPVTG,,T,,M,0.0,N,0.0,K,A*23
$GPDTM,P90,,0000.000022,S,00000.000001,W,0.988,W84*5A
$GPRMC,004703.00,A,2959.999985,N,11959.999920,E,0.0,,230721,4.3,W,A*06
$GPGGA,004703.00,2959.999985,N,11959.999920,E,1,12,0.6,-8.6,M,7.0,M,,*70

$GPGSV,3,1,11,02,34,274,32,04,36,220,32,07,66,032,32,08,67,224,31*76
$GPGSV,3,2,11,10,15,316,31,13,37,053,32,20,06,133,31,23,14,073,32*7C
$GPGSV,3,3,11,25,45,036,32,27,35,230,32,28,14,171,31*42
$GLGSV,2,1,07,78,26,327,30,86,16,039,30,77,73,277,30,88,31,267,30*68
$GLGSV,2,2,07,87,52,345,30,71,08,059,30,72,08,109,29*54
$GAGSV,2,1,08,09,26,319,,10,80,324,,11,41,137,,17,16,042,*6E
$GAGSV,2,2,08,22,02,229,,23,50,240,,24,66,019,,27,16,137,*60
$PQGSV,1,1,0,0*43
$PQGSV,1,1,0,0*43
$GPGSA,A,3,02,04,07,08,10,13,20,23,25,27,28,,0.9,0.6,0.7*3B
$GLGSA,A,3,71,72,77,78,86,87,88,,,,,,0.9,0.6,0.7*2B
$GPVTG,,T,,M,0.0,N,0.0,K,A*23
$GPDTM,P90,,0000.000022,S,00000.000001,W,0.988,W84*5A
$GPRMC,004704.00,A,2959.999984,N,11959.999920,E,0.0,,230721,4.3,W,A*00
$GPGGA,004704.00,2959.999984,N,11959.999920,E,1,12,0.6,-8.6,M,7.0,M,,*76

$GPGSV,3,1,11,02,34,274,31,04,36,220,32,07,66,032,32,08,67,224,32*76
$GPGSV,3,2,11,10,15,316,31,13,37,053,32,20,06,133,32,23,14,073,32*7F
$GPGSV,3,3,11,25,45,036,32,27,35,230,32,28,14,171,31*42
$GLGSV,2,1,07,78,26,327,30,86,16,039,30,77,73,277,30,88,31,267,30*68
$GLGSV,2,2,07,87,52,345,30,71,08,059,30,72,08,109,29*54
$GAGSV,2,1,08,09,26,319,,10,80,324,,11,41,137,,17,16,042,*6E
$GAGSV,2,2,08,22,02,229,,23,50,240,,24,66,019,,27,16,137,*60
$PQGSV,1,1,0,0*43
$PQGSV,1,1,0,0*43
$GPGSA,A,3,02,04,07,08,10,13,20,23,25,27,28,,0.9,0.6,0.7*3B
$GLGSA,A,3,71,72,77,78,86,87,88,,,,,,0.9,0.6,0.7*2B
$GPVTG,,T,,M,0.0,N,0.0,K,A*23
$GPDTM,P90,,0000.000022,S,00000.000001,W,0.988,W84*5A
$GPRMC,004705.00,A,2959.999984,N,11959.999920,E,0.0,,230721,4.3,W,A*01
$GPGGA,004705.00,2959.999984,N,11959.999920,E,1,12,0.6,-8.6,M,7.0,M,,*77

$GPGSV,3,1,11,02,34,274,32,04,36,220,32,07,66,032,32,08,67,224,32*75
$GPGSV,3,2,11,10,15,316,31,13,37,053,32,20,06,133,32,23,14,073,32*7F
$GPGSV,3,3,11,25,45,036,32,27,35,230,32,28,14,171,31*42
$GLGSV,2,1,07,78,26,327,30,86,16,039,30,77,73,277,30,88,31,267,30*68
$GLGSV,2,2,07,87,52,345,30,71,08,059,30,72,08,109,29*54
$GAGSV,2,1,08,09,26,319,,10,80,324,,11,41,137,,17,16,042,*6E
$GAGSV,2,2,08,22,02,229,,23,50,240,,24,66,019,,27,16,137,*60
$PQGSV,1,1,0,0*43
$PQGSV,1,1,0,0*43
$GPGSA,A,3,02,04,07,08,10,13,20,23,25,27,28,,0.9,0.6,0.7*3B
$GLGSA,A,3,71,72,77,78,86,87,88,,,,,,0.9,0.6,0.7*2B
$GPVTG,,T,,M,0.0,N,0.0,K,A*23
$GPDTM,P90,,0000.000022,S,00000.000001,W,0.988,W84*5A
$GPRMC,004706.00,A,2959.999986,N,11959.999919,E,0.0,,230721,4.3,W,A*0A
$GPGGA,004706.00,2959.999986,N,11959.999919,E,1,12,0.6,-8.6,M,7.0,M,,*7C

$GPGSV,3,1,11,02,34,274,32,04,36,220,31,07,66,032,32,08,67,224,32*76
$GPGSV,3,2,11,10,15,316,31,13,37,053,32,20,06,133,32,23,14,073,32*7F
$GPGSV,3,3,11,25,45,036,32,27,35,230,32,28,14,171,31*42
$GLGSV,2,1,07,78,26,327,31,86,16,039,30,77,73,277,30,88,31,267,30*69
$GLGSV,2,2,07,87,52,345,30,71,08,059,30,72,08,109,29*54
$GAGSV,2,1,08,09,26,319,,10,80,324,,11,41,137,,17,16,042,*6E
$GAGSV,2,2,08,22,02,229,,23,50,240,,24,66,019,,27,16,137,*60
$PQGSV,1,1,0,0*43
$PQGSV,1,1,0,0*43
$GPGSA,A,3,02,04,07,08,10,13,20,23,25,27,28,,0.9,0.6,0.7*3B
$GLGSA,A,3,71,72,77,78,86,87,88,,,,,,0.9,0.6,0.7*2B
$GPVTG,,T,,M,0.0,N,0.0,K,A*23
$GPDTM,P90,,0000.000022,S,00000.000001,W,0.988,W84*5A
$GPRMC,004707.00,A,2959.999987,N,11959.999917,E,0.0,,230721,4.3,W,A*04
$GPGGA,004707.00,2959.999987,N,11959.999917,E,1,12,0.6,-8.6,M,7.0,M,,*72

$GPGSV,3,1,11,02,34,274,32,04,36,220,32,07,66,032,32,08,67,224,32*75
$GPGSV,3,2,11,10,15,316,31,13,37,053,32,20,06,133,32,23,14,073,32*7F
$GPGSV,3,3,11,25,45,036,31,27,35,230,31,28,14,171,31*42
$GLGSV,2,1,07,78,26,327,30,86,16,039,30,77,73,277,30,88,31,267,30*68
$GLGSV,2,2,07,87,52,345,30,71,08,059,30,72,08,109,29*54
$GAGSV,2,1,08,09,26,319,,10,80,324,,11,41,137,,17,16,042,*6E
$GAGSV,2,2,08,22,02,229,,23,50,240,,24,66,019,,27,16,137,*60
$PQGSV,1,1,0,0*43
$PQGSV,1,1,0,0*43
$GPGSA,A,3,02,04,07,08,10,13,20,23,25,27,28,,0.9,0.6,0.7*3B
$GLGSA,A,3,71,72,77,78,86,87,88,,,,,,0.9,0.6,0.7*2B
$GPVTG,,T,,M,0.0,N,0.0,K,A*23
$GPDTM,P90,,0000.000022,S,00000.000001,W,0.988,W84*5A
$GPRMC,004708.00,A,2959.999989,N,11959.999915,E,0.0,,230721,4.3,W,A*07
$GPGGA,004708.00,2959.999989,N,11959.999915,E,1,12,0.6,-8.6,M,7.0,M,,*71

$GPGSV,3,1,11,02,34,274,32,04,36,220,32,07,66,032,32,08,67,224,32*75
$GPGSV,3,2,11,10,15,316,31,13,37,053,32,20,06,133,32,23,14,073,32*7F
$GPGSV,3,3,11,25,45,036,31,27,35,230,32,28,14,171,30*40
$GLGSV,2,1,07,78,26,327,30,86,16,039,30,77,73,277,30,88,31,267,30*68
$GLGSV,2,2,07,87,52,345,30,71,08,059,30,72,08,109,29*54
$GAGSV,2,1,08,09,26,319,,10,80,324,,11,41,137,,17,16,042,*6E
$GAGSV,2,2,08,22,02,229,,23,50,240,,24,66,019,,27,16,137,*60
$PQGSV,1,1,0,0*43
$PQGSV,1,1,0,0*43
$GPGSA,A,3,02,04,07,08,10,13,20,23,25,27,28,,0.9,0.6,0.7*3B
$GLGSA,A,3,71,72,77,78,86,87,88,,,,,,0.9,0.6,0.7*2B
$GPVTG,,T,,M,0.0,N,0.0,K,A*23
$GPDTM,P90,,0000.000022,S,00000.000001,W,0.988,W84*5A
$GPRMC,004709.00,A,2959.999990,N,11959.999915,E,0.0,,230721,4.3,W,A*0E
$GPGGA,004709.00,2959.999990,N,11959.999915,E,1,12,0.6,-8.6,M,7.0,M,,*78

$GPGSV,3,1,11,02,34,274,32,04,36,220,31,07,66,032,32,08,67,224,32*76
$GPGSV,3,2,11,10,15,316,31,13,37,053,32,20,06,133,32,23,14,073,32*7F
$GPGSV,3,3,11,25,45,036,31,27,35,230,31,28,14,171,31*42
$GLGSV,2,1,07,78,26,327,29,86,16,039,30,77,73,277,30,88,31,267,30*60
$GLGSV,2,2,07,87,52,345,30,71,08,059,29,72,08,109,29*5C
$GAGSV,2,1,08,09,26,319,,10,80,324,,11,41,137,,17,16,042,*6E
$GAGSV,2,2,08,22,02,229,,23,50,240,,24,66,019,,27,16,137,*60
$PQGSV,1,1,0,0*43
$PQGSV,1,1,0,0*43
$GPGSA,A,3,02,04,07,08,10,13,20,23,25,27,28,,0.9,0.6,0.7*3B
$GLGSA,A,3,71,72,77,78,86,87,88,,,,,,0.9,0.6,0.7*2B
$GPVTG,,T,,M,0.0,N,0.0,K,A*23
$GPDTM,P90,,0000.000022,S,00000.000001,W,0.988,W84*5A
$GPRMC,004710.00,A,2959.999989,N,11959.999915,E,0.0,,230721,4.3,W,A*0E
$GPGGA,004710.00,2959.999989,N,11959.999915,E,1,12,0.6,-8.6,M,7.0,M,,*78

$GPGSV,3,1,11,02,34,274,31,04,36,220,32,07,66,032,32,08,67,224,32*76
$GPGSV,3,2,11,10,15,316,31,13,37,053,32,20,06,133,32,23,14,073,32*7F
$GPGSV,3,3,11,25,45,036,32,27,35,230,32,28,14,171,31*42
$GLGSV,2,1,07,78,26,327,30,86,16,039,30,77,73,277,29,88,31,267,30*60
$GLGSV,2,2,07,87,52,345,30,71,08,059,30,72,08,109,29*54
$GAGSV,2,1,08,09,26,319,,10,80,324,,11,41,137,,17,16,042,*6E
$GAGSV,2,2,08,22,02,229,,23,50,240,,24,66,019,,27,16,137,*60
$PQGSV,1,1,0,0*43
$PQGSV,1,1,0,0*43
$GPGSA,A,3,02,04,07,08,10,13,20,23,25,27,28,,0.9,0.6,0.7*3B
$GLGSA,A,3,71,72,77,78,86,87,88,,,,,,0.9,0.6,0.7*2B
$GPVTG,,T,,M,0.0,N,0.0,K,A*23
$GPDTM,P90,,0000.000022,S,00000.000001,W,0.988,W84*5A
$GPRMC,004711.00,A,2959.999987,N,11959.999915,E,0.0,,230721,4.3,W,A*01
$GPGGA,004711.00,2959.999987,N,11959.999915,E,1,12,0.6,-8.6,M,7.0,M,,*77

$GPGSV,3,1,11,02,34,274,32,04,36,220,31,07,66,032,32,08,67,224,32*76
$GPGSV,3,2,11,10,15,316,30,13,37,053,32,20,06,133,32,23,14,073,31*7D
$GPGSV,3,3,11,25,45,036,32,27,35,230,32,28,14,171,31*42
$GLGSV,2,1,07,78,26,327,29,86,16,039,30,77,73,277,30,88,31,267,30*60
$GLGSV,2,2,07,87,52,345,30,71,08,059,30,72,08,109,29*54
$GAGSV,2,1,08,09,26,319,,10,80,324,,11,41,137,,17,16,042,*6E
$GAGSV,2,2,08,22,02,229,,23,50,240,,24,66,019,,27,16,137,*60
$PQGSV,1,1,0,0*43
$PQGSV,1,1,0,0*43
$GPGSA,A,3,02,04,07,08,10,13,20,23,25,27,28,,0.9,0.6,0.7*3B
$GLGSA,A,3,71,72,77,78,86,87,88,,,,,,0.9,0.6,0.7*2B
$GPVTG,,T,,M,0.0,N,0.0,K,A*23
$GPDTM,P90,,0000.000022,S,00000.000001,W,0.988,W84*5A
$GPRMC,004712.00,A,2959.999987,N,11959.999914,E,0.0,,230721,4.3,W,A*03
$GPGGA,004712.00,2959.999987,N,11959.999914,E,1,12,0.6,-8.6,M,7.0,M,,*75

$GPGSV,3,1,11,02,34,274,32,04,36,220,32,07,66,032,32,08,67,224,32*75
$GPGSV,3,2,11,10,15,316,31,13,37,053,32,20,06,133,32,23,14,073,32*7F
$GPGSV,3,3,11,25,45,036,32,27,35,230,32,28,14,171,31*42
$GLGSV,2,1,07,78,26,327,30,86,16,039,30,77,73,277,30,88,31,267,30*68
$GLGSV,2,2,07,87,52,345,30,71,08,059,31,72,08,109,29*55
$GAGSV,2,1,08,09,26,319,,10,80,324,,11,41,137,,17,16,042,*6E
$GAGSV,2,2,08,22,02,229,,23,50,240,,24,66,019,,27,16,137,*60
$PQGSV,1,1,0,0*43
$PQGSV,1,1,0,0*43
$GPGSA,A,3,02,04,07,08,10,13,20,23,25,27,28,,0.9,0.6,0.7*3B
$GLGSA,A,3,71,72,77,78,86,87,88,,,,,,0.9,0.6,0.7*2B
$GPVTG,,T,,M,0.0,N,0.0,K,A*23
$GPDTM,P90,,0000.000022,S,00000.000001,W,0.988,W84*5A
$GPRMC,004713.00,A,2959.999987,N,11959.999915,E,0.0,,230721,4.3,W,A*03
$GPGGA,004713.00,2959.999987,N,11959.999915,E,1,12,0.6,-8.6,M,7.0,M,,*75

$GPGSV,3,1,11,02,34,274,32,04,36,220,32,07,66,032,32,08,67,224,32*75
$GPGSV,3,2,11,10,15,316,31,13,37,053,32,20,06,133,32,23,14,073,32*7F
$GPGSV,3,3,11,25,45,036,32,27,35,230,31,28,14,171,31*41
$GLGSV,2,1,07,78,26,327,30,86,16,039,30,77,73,277,30,88,31,267,30*68
$GLGSV,2,2,07,87,52,345,30,71,08,059,30,72,08,109,29*54
$GAGSV,2,1,08,09,26,319,,10,80,324,,11,41,137,,17,16,042,*6E
$GAGSV,2,2,08,22,02,229,,23,50,240,,24,66,019,,27,16,137,*60
$PQGSV,1,1,0,0*43
$PQGSV,1,1,0,0*43
$GPGSA,A,3,02,04,07,08,10,13,20,23,25,27,28,,0.9,0.6,0.7*3B
$GLGSA,A,3,71,72,77,78,86,87,88,,,,,,0.9,0.6,0.7*2B
$GPVTG,,T,,M,0.0,N,0.0,K,A*23
$GPDTM,P90,,0000.000022,S,00000.000001,W,0.988,W84*5A
$GPRMC,004714.00,A,2959.999987,N,11959.999915,E,0.0,,230721,4.3,W,A*04
$GPGGA,004714.00,2959.999987,N,11959.999915,E,1,12,0.6,-8.6,M,7.0,M,,*72

$GPGSV,3,1,11,02,34,274,32,04,36,220,32,07,66,032,32,08,67,224,32*75
$GPGSV,3,2,11,10,15,316,31,13,37,053,32,20,06,133,32,23,14,073,32*7F
$GPGSV,3,3,11,25,45,036,32,27,35,230,32,28,14,171,31*42
$GLGSV,2,1,07,78,26,327,30,86,16,039,30,77,73,277,30,88,31,267,31*69
$GLGSV,2,2,07,87,52,345,30,71,08,059,30,72,08,109,29*54
$GAGSV,2,1,08,09,26,319,,10,80,324,,11,41,137,,17,16,042,*6E
$GAGSV,2,2,08,22,02,229,,23,50,240,,24,66,019,,27,16,137,*60
$PQGSV,1,1,0,0*43
$PQGSV,1,1,0,0*43
$GPGSA,A,3,02,04,07,08,10,13,20,23,25,27,28,,0.9,0.6,0.7*3B
$GLGSA,A,3,71,72,77,78,86,87,88,,,,,,0.9,0.6,0.7*2B
$GPVTG,,T,,M,0.0,N,0.0,K,A*23
$GPDTM,P90,,0000.000022,S,00000.000001,W,0.988,W84*5A
$GPRMC,004715.00,A,2959.999987,N,11959.999917,E,0.0,,230721,4.3,W,A*07
$GPGGA,004715.00,2959.999987,N,11959.999917,E,1,12,0.6,-8.6,M,7.0,M,,*71

$GPGSV,3,1,11,02,34,274,31,04,36,220,31,07,66,032,32,08,67,224,32*75
$GPGSV,3,2,11,10,15,316,31,13,37,053,32,20,06,133,32,23,14,073,31*7C
$GPGSV,3,3,11,25,45,036,31,27,35,230,31,28,14,171,30*43
$GLGSV,2,1,07,78,26,327,29,86,16,039,30,77,73,277,30,88,31,267,30*60
$GLGSV,2,2,07,87,52,345,30,71,08,059,30,72,08,109,30*5C
$GAGSV,2,1,08,09,26,319,,10,80,324,,11,41,137,,17,16,042,*6E
$GAGSV,2,2,08,22,02,229,,23,50,240,,24,66,019,,27,16,137,*60
$PQGSV,1,1,0,0*43
$PQGSV,1,1,0,0*43
$GPGSA,A,3,02,04,07,08,10,13,20,23,25,27,28,,1.0,0.6,0.7*33
$GLGSA,A,3,71,72,77,78,86,87,88,,,,,,1.0,0.6,0.7*23
$GPVTG,,T,,M,0.0,N,0.0,K,A*23
$GPDTM,P90,,0000.000022,S,00000.000001,W,0.988,W84*5A
$GPRMC,004716.00,A,2959.999987,N,11959.999916,E,0.0,,230721,4.3,W,A*05
$GPGGA,004716.00,2959.999987,N,11959.999916,E,1,12,0.6,-8.6,M,7.0,M,,*73

$GPGSV,3,1,11,02,34,274,32,04,36,220,32,07,66,032,32,08,67,224,32*75
$GPGSV,3,2,11,10,15,316,31,13,37,053,32,20,06,133,31,23,14,073,32*7C
$GPGSV,3,3,11,25,45,036,32,27,35,230,32,28,14,171,31*42
$GLGSV,2,1,07,78,26,327,30,86,16,039,30,77,73,277,30,88,31,267,30*68
$GLGSV,2,2,07,87,52,345,30,71,08,059,30,72,08,109,30*5C
$GAGSV,2,1,08,09,26,319,,10,80,324,,11,41,137,,17,16,042,*6E
$GAGSV,2,2,08,22,02,229,,23,50,240,,24,66,019,,27,16,137,*60
$PQGSV,1,1,0,0*43
$PQGSV,1,1,0,0*43
$GPGSA,A,3,02,04,07,08,10,13,20,23,25,27,28,,1.0,0.6,0.7*33
$GLGSA,A,3,71,72,77,78,86,87,88,,,,,,1.0,0.6,0.7*23
$GPVTG,,T,,M,0.0,N,0.0,K,A*23
$GPDTM,P90,,0000.000022,S,00000.000001,W,0.988,W84*5A
$GPRMC,004717.00,A,2959.999989,N,11959.999914,E,0.0,,230721,4.3,W,A*08
$GPGGA,004717.00,2959.999989,N,11959.999914,E,1,12,0.6,-8.6,M,7.0,M,,*7E

$GPGSV,3,1,11,02,34,274,32,04,36,220,32,07,66,032,32,08,67,224,32*75
$GPGSV,3,2,11,10,15,316,31,13,37,053,31,20,06,133,32,23,14,073,32*7C
$GPGSV,3,3,11,25,45,036,32,27,35,230,32,28,14,171,31*42
$GLGSV,2,1,07,78,26,327,30,86,16,039,30,77,73,277,30,88,31,267,30*68
$GLGSV,2,2,07,87,52,345,31,71,08,059,30,72,08,109,29*55
$GAGSV,2,1,08,09,26,319,,10,80,324,,11,41,137,,17,16,042,*6E
$GAGSV,2,2,08,22,02,229,,23,50,240,,24,66,019,,27,16,137,*60
$PQGSV,1,1,0,0*43
$PQGSV,1,1,0,0*43
$GPGSA,A,3,02,04,07,08,10,13,20,23,25,27,28,,1.0,0.6,0.7*33
$GLGSA,A,3,71,72,77,78,86,87,88,,,,,,1.0,0.6,0.7*23
$GPVTG,,T,,M,0.0,N,0.0,K,A*23
$GPDTM,P90,,0000.000022,S,00000.000001,W,0.988,W84*5A
$GPRMC,004718.00,A,2959.999989,N,11959.999914,E,0.0,,230721,4.3,W,A*07
$GPGGA,004718.00,2959.999989,N,11959.999914,E,1,12,0.6,-8.6,M,7.0,M,,*71

$GPGSV,3,1,11,02,34,274,32,04,36,220,32,07,66,032,32,08,67,224,32*75
$GPGSV,3,2,11,10,15,316,31,13,37,053,32,20,06,133,32,23,14,073,32*7F
$GPGSV,3,3,11,25,45,036,32,27,35,230,32,28,14,171,31*42
$GLGSV,2,1,07,78,26,327,29,86,16,039,30,77,73,277,30,88,31,267,31*61
$GLGSV,2,2,07,87,52,345,30,71,08,059,30,72,08,109,29*54
$GAGSV,2,1,08,09,26,319,,10,80,324,,11,41,137,,17,16,042,*6E
$GAGSV,2,2,08,22,02,229,,23,50,240,,24,66,019,,27,16,137,*60
$PQGSV,1,1,0,0*43
$PQGSV,1,1,0,0*43
