$GPGSV,3,1,12,02,28,250,,04,20,206,,07,46,033,,08,78,305,*71
$GPGSV,3,2,12,10,32,317,,13,26,071,,23,04,088,,24,00,000,*7D
$GPGSV,3,3,12,25,27,042,,26,09,286,,27,50,251,,28,31,163,*75
$GLGSV,2,1,07,78,43,310,41,77,59,216,41,88,39,295,41,87,41,014,41*69
$GLGSV,2,2,07,81,04,260,41,71,08,039,41,72,21,091,37*55
$GAGSV,3,1,10,06,00,000,,07,00,000,,09,39,314,,10,77,192,*64
$GAGSV,3,2,10,11,27,149,,17,04,049,,22,12,240,,23,59,270,*63
$GAGSV,3,3,10,24,51,026,,27,03,146,*6A
$PQGSV,1,1,0,0*43
$PQGSV,1,1,0,0*43
$GLGSA,A,3,71,72,77,78,81,87,88,,,,,,1.4,1.1,0.8*29
$GPVTG,,T,,M,0.0,N,0.0,K,A*23
$GPDTM,P90,,0000.000022,S,00000.000001,W,0.988,W84*5A
$GPRMC,012848.00,A,3000.000340,N,11959.998498,E,0.0,,230721,4.3,W,A*00
$GPGGA,012848.00,3000.000340,N,11959.998498,E,1,07,1.1,-10.6,M,7.0,M,,*4D

$GPGSV,3,1,12,02,28,250,,04,20,206,,07,46,033,,08,78,305,*71
$GPGSV,3,2,12,10,32,317,,13,26,071,,23,04,088,,24,00,000,*7D
$GPGSV,3,3,12,25,27,042,,26,09,286,,27,50,251,,28,31,163,*75
$GLGSV,2,1,07,78,43,310,41,77,59,216,41,88,39,295,41,87,41,014,41*69
$GLGSV,2,2,07,81,04,260,41,71,08,039,41,72,21,091,37*55
$GAGSV,3,1,10,06,00,000,,07,00,000,,09,39,314,,10,77,192,*64
$GAGSV,3,2,10,11,27,149,,17,04,049,,22,12,240,,23,59,270,*63
$GAGSV,3,3,10,24,51,026,,27,03,146,*6A
$PQGSV,1,1,0,0*43
$PQGSV,1,1,0,0*43
$GLGSA,A,3,71,72,77,78,81,87,88,,,,,,1.4,1.1,0.8*29
$GPVTG,,T,,M,0.0,N,0.0,K,A*23
$GPDTM,P90,,0000.000022,S,00000.000001,W,0.988,W84*5A
$GPRMC,012849.00,A,3000.000345,N,11959.998517,E,0.0,,230721,4.3,W,A*02
$GPGGA,012849.00,3000.000345,N,11959.998517,E,1,07,1.1,-10.5,M,7.0,M,,*4C

$GPGSV,3,1,12,02,28,250,,04,20,206,,07,46,033,,08,78,305,*71
$GPGSV,3,2,12,10,32,317,,13,26,071,,23,04,088,,24,00,000,*7D
$GPGSV,3,3,12,25,27,042,,26,09,286,,27,50,251,,28,31,163,*75
$GLGSV,2,1,07,78,43,310,41,77,59,216,41,88,39,295,41,87,41,014,41*69
$GLGSV,2,2,07,81,04,260,41,71,08,039,41,72,21,091,37*55
$GAGSV,3,1,10,06,00,000,,07,00,000,,09,39,314,,10,77,192,*64
$GAGSV,3,2,10,11,27,149,,17,04,049,,22,12,240,,23,59,270,*63
$GAGSV,3,3,10,24,51,026,,27,03,146,*6A
$PQGSV,1,1,0,0*43
$PQGSV,1,1,0,0*43
$GLGSA,A,3,71,72,77,78,81,87,88,,,,,,1.4,1.1,0.8*29
$GPVTG,,T,,M,0.0,N,0.0,K,A*23
$GPDTM,P90,,0000.000022,S,00000.000001,W,0.988,W84*5A
$GPRMC,012850.00,A,3000.000348,N,11959.998518,E,0.0,,230721,4.3,W,A*08
$GPGGA,012850.00,3000.000348,N,11959.998518,E,1,07,1.1,-10.5,M,7.0,M,,*46

$GPGSV,3,1,12,02,28,250,,04,20,206,,07,46,033,,08,78,305,*71
$GPGSV,3,2,12,10,32,317,,13,26,071,,23,04,088,,24,00,000,*7D
$GPGSV,3,3,12,25,27,042,,26,09,286,,27,50,251,,28,31,163,*75
$GLGSV,2,1,07,78,43,310,40,77,59,216,41,88,39,295,41,87,41,014,41*68
$GLGSV,2,2,07,81,04,260,41,71,08,039,41,72,21,091,37*55
$GAGSV,3,1,10,06,00,000,,07,00,000,,09,39,314,,10,77,192,*64
$GAGSV,3,2,10,11,27,149,,17,04,049,,22,12,240,,23,59,270,*63
$GAGSV,3,3,10,24,51,026,,27,03,146,*6A
$PQGSV,1,1,0,0*43
$PQGSV,1,1,0,0*43
$GLGSA,A,3,71,72,77,78,81,87,88,,,,,,1.4,1.1,0.8*29
$GPVTG,,T,,M,0.0,N,0.0,K,A*23
$GPDTM,P90,,0000.000022,S,00000.000001,W,0.988,W84*5A
$GPRMC,012851.00,A,3000.000345,N,11959.998519,E,0.0,,230721,4.3,W,A*05
$GPGGA,012851.00,3000.000345,N,11959.998519,E,1,07,1.1,-10.5,M,7.0,M,,*4B

$GPGSV,3,1,12,02,28,250,,04,20,206,,07,46,033,,08,78,305,*71
$GPGSV,3,2,12,10,32,317,,13,26,071,,23,04,088,,24,00,000,*7D
$GPGSV,3,3,12,25,27,042,,26,09,286,,27,50,251,,28,31,163,*75
$GLGSV,2,1,07,78,43,310,41,77,59,216,41,88,39,295,41,87,41,014,41*69
$GLGSV,2,2,07,81,04,260,41,71,08,039,41,72,21,091,37*55
$GAGSV,3,1,10,06,00,000,,07,00,000,,09,39,314,,10,77,192,*64
$GAGSV,3,2,10,11,27,149,,17,04,049,,22,12,240,,23,59,270,*63
$GAGSV,3,3,10,24,51,026,,27,03,146,*6A
$PQGSV,1,1,0,0*43
$PQGSV,1,1,0,0*43
$GLGSA,A,3,71,72,77,78,81,87,88,,,,,,1.4,1.1,0.8*29
$GPVTG,,T,,M,0.0,N,0.0,K,A*23
$GPDTM,P90,,0000.000022,S,00000.000001,W,0.988,W84*5A
$GPRMC,012852.00,A,3000.000346,N,11959.998519,E,0.0,,230721,4.3,W,A*05
$GPGGA,012852.00,3000.000346,N,11959.998519,E,1,07,1.1,-10.5,M,7.0,M,,*4B

$GPGSV,3,1,12,02,28,250,,04,20,206,,07,46,033,,08,78,305,*71
$GPGSV,3,2,12,10,32,317,,13,26,071,,23,04,088,,24,00,000,*7D
$GPGSV,3,3,12,25,27,042,,26,09,286,,27,50,251,,28,31,163,*75
$GLGSV,2,1,07,78,43,310,41,77,59,216,41,88,39,295,41,87,41,014,41*69
$GLGSV,2,2,07,81,04,260,41,71,08,039,41,72,21,091,37*55
$GAGSV,3,1,10,06,00,000,,07,00,000,,09,39,314,,10,77,192,*64
$GAGSV,3,2,10,11,27,149,,17,04,049,,22,12,240,,23,59,270,*63
$GAGSV,3,3,10,24,51,026,,27,03,146,*6A
$PQGSV,1,1,0,0*43
$PQGSV,1,1,0,0*43
$GLGSA,A,3,71,72,77,78,81,87,88,,,,,,1.4,1.1,0.8*29
$GPVTG,,T,,M,0.0,N,0.0,K,A*23
$GPDTM,P90,,0000.000022,S,00000.000001,W,0.988,W84*5A
$GPRMC,012853.00,A,3000.000346,N,11959.998520,E,0.0,,230721,4.3,W,A*0E
$GPGGA,012853.00,3000.000346,N,11959.998520,E,1,07,1.1,-10.5,M,7.0,M,,*40

$GPGSV,3,1,12,02,28,250,,04,20,206,,07,46,033,,08,78,305,*71
$GPGSV,3,2,12,10,32,317,,13,26,071,,23,04,088,,24,00,000,*7D
$GPGSV,3,3,12,25,27,042,,26,09,286,,27,50,251,,28,31,163,*75
$GLGSV,2,1,07,78,43,310,40,77,59,216,41,88,39,295,41,87,41,014,41*68
$GLGSV,2,2,07,81,04,260,41,71,08,039,41,72,21,091,37*55
$GAGSV,3,1,10,06,00,000,,07,00,000,,09,39,314,,10,77,192,*64
$GAGSV,3,2,10,11,27,149,,17,04,049,,22,12,240,,23,59,270,*63
$GAGSV,3,3,10,24,51,026,,27,03,146,*6A
$PQGSV,1,1,0,0*43
$PQGSV,1,1,0,0*43
$GLGSA,A,3,71,72,77,78,81,87,88,,,,,,1.4,1.1,0.8*29
$GPVTG,,T,,M,0.0,N,0.0,K,A*23
$GPDTM,P90,,0000.000022,S,00000.000001,W,0.988,W84*5A
$GPRMC,012854.00,A,3000.000345,N,11959.998521,E,0.0,,230721,4.3,W,A*0B
$GPGGA,012854.00,3000.000345,N,11959.998521,E,1,07,1.1,-10.5,M,7.0,M,,*45

$GPGSV,3,1,12,02,28,250,,04,20,206,,07,46,033,,08,78,305,*71
$GPGSV,3,2,12,10,32,317,,13,26,071,,23,04,088,,24,00,000,*7D
$GPGSV,3,3,12,25,27,042,,26,09,286,,27,50,251,,28,31,163,*75
$GLGSV,2,1,07,78,43,310,41,77,59,216,41,88,39,295,41,87,41,014,41*69
$GLGSV,2,2,07,81,04,260,41,71,08,039,41,72,21,091,37*55
$GAGSV,3,1,10,06,00,000,,07,00,000,,09,39,314,,10,77,192,*64
$GAGSV,3,2,10,11,27,149,,17,04,049,,22,12,240,,23,59,270,*63
$GAGSV,3,3,10,24,51,026,,27,03,146,*6A
$PQGSV,1,1,0,0*43
$PQGSV,1,1,0,0*43
$GLGSA,A,3,71,72,77,78,81,87,88,,,,,,1.4,1.1,0.8*29
$GPVTG,,T,,M,0.0,N,0.0,K,A*23
$GPDTM,P90,,0000.000022,S,00000.000001,W,0.988,W84*5A
$GPRMC,012855.00,A,3000.000343,N,11959.998521,E,0.0,,230721,4.3,W,A*0C
$GPGGA,012855.00,3000.000343,N,11959.998521,E,1,07,1.1,-10.5,M,7.0,M,,*42

$GPGSV,3,1,12,02,28,250,,04,20,206,,07,46,033,,08,78,305,*71
$GPGSV,3,2,12,10,32,317,,13,26,071,,23,04,088,,24,00,000,*7D
$GPGSV,3,3,12,25,27,042,,26,09,286,,27,50,251,,28,31,163,*75
$GLGSV,2,1,07,78,43,310,41,77,59,216,41,88,39,295,41,87,41,014,41*69
$GLGSV,2,2,07,81,04,260,41,71,08,039,41,72,21,091,37*55
$GAGSV,3,1,10,06,00,000,,07,00,000,,09,39,314,,10,77,192,*64
$GAGSV,3,2,10,11,27,149,,17,04,049,,22,12,240,,23,59,270,*63
$GAGSV,3,3,10,24,51,026,,27,03,146,*6A
$PQGSV,1,1,0,0*43
$PQGSV,1,1,0,0*43
$GLGSA,A,3,71,72,77,78,81,87,88,,,,,,1.4,1.1,0.8*29
$GPVTG,,T,,M,0.0,N,0.0,K,A*23
$GPDTM,P90,,0000.000022,S,00000.000001,W,0.988,W84*5A
$GPRMC,012856.00,A,3000.000341,N,11959.998522,E,0.0,,230721,4.3,W,A*0E
$GPGGA,012856.00,3000.000341,N,11959.998522,E,1,07,1.1,-10.5,M,7.0,M,,*40

$GPGSV,3,1,12,02,28,250,,04,20,206,,07,46,033,,08,78,305,*71
$GPGSV,3,2,12,10,32,317,,13,26,071,,23,04,088,,24,00,000,*7D
$GPGSV,3,3,12,25,27,042,,26,09,286,,27,50,251,,28,31,163,*75
$GLGSV,2,1,07,78,44,310,41,77,59,216,41,88,39,295,41,87,41,014,41*6E
$GLGSV,2,2,07,81,04,260,41,71,08,039,41,72,21,091,37*55
$GAGSV,3,1,10,06,00,000,,07,00,000,,09,39,314,,10,77,192,*64
$GAGSV,3,2,10,11,27,149,,17,04,049,,22,12,240,,23,59,270,*63
$GAGSV,3,3,10,24,51,026,,27,03,146,*6A
$PQGSV,1,1,0,0*43
$PQGSV,1,1,0,0*43
$GLGSA,A,3,71,72,77,78,81,87,88,,,,,,1.4,1.1,0.8*29
$GPVTG,,T,,M,0.0,N,0.0,K,A*23
$GPDTM,P90,,0000.000022,S,00000.000001,W,0.988,W84*5A
$GPRMC,012857.00,A,3000.000342,N,11959.998522,E,0.0,,230721,4.3,W,A*0C
$GPGGA,012857.00,3000.000342,N,11959.998522,E,1,07,1.1,-10.5,M,7.0,M,,*42

$GPGSV,3,1,12,02,28,250,,04,20,206,,07,46,033,,08,78,305,*71
$GPGSV,3,2,12,10,32,317,,13,26,071,,23,04,088,,24,00,000,*7D
$GPGSV,3,3,12,25,27,042,,26,09,286,,27,50,251,,28,31,163,*75
$GLGSV,2,1,07,78,44,310,41,77,59,216,41,88,39,295,41,87,41,014,41*6E
$GLGSV,2,2,07,81,04,260,41,71,08,039,41,72,21,091,37*55
$GAGSV,3,1,10,06,00,000,,07,00,000,,09,39,314,,10,77,192,*64
$GAGSV,3,2,10,11,27,149,,17,04,049,,22,12,240,,23,59,270,*63
$GAGSV,3,3,10,24,51,026,,27,03,146,*6A
$PQGSV,1,1,0,0*43
$PQGSV,1,1,0,0*43
$GLGSA,A,3,71,72,77,78,81,87,88,,,,,,1.4,1.1,0.8*29
$GPVTG,,T,,M,0.0,N,0.0,K,A*23
$GPDTM,P90,,0000.000022,S,00000.000001,W,0.988,W84*5A
$GPRMC,012858.00,A,3000.000338,N,11959.998525,E,0.0,,230721,4.3,W,A*09
$GPGGA,012858.00,3000.000338,N,11959.998525,E,1,07,1.1,-10.5,M,7.0,M,,*47

$GPGSV,3,1,12,02,28,250,,04,20,206,,07,46,033,,08,78,305,*71
$GPGSV,3,2,12,10,32,317,,13,26,071,,23,04,088,,24,00,000,*7D
$GPGSV,3,3,12,25,27,042,,26,09,286,,27,50,251,,28,31,163,*75
$GLGSV,2,1,07,78,44,310,41,77,59,216,41,88,39,295,41,87,41,014,41*6E
$GLGSV,2,2,07,81,04,260,41,71,08,039,41,72,21,091,37*55
$GAGSV,3,1,10,06,00,000,,07,00,000,,09,39,314,,10,77,192,*64
$GAGSV,3,2,10,11,27,149,,17,04,049,,22,12,240,,23,59,270,*63
$GAGSV,3,3,10,24,51,026,,27,03,146,*6A
$PQGSV,1,1,0,0*43
$PQGSV,1,1,0,0*43
$GLGSA,A,3,71,72,77,78,81,87,88,,,,,,1.4,1.1,0.8*29
$GPVTG,,T,,M,0.0,N,0.0,K,A*23
$GPDTM,P90,,0000.000022,S,00000.000001,W,0.988,W84*5A
$GPRMC,012859.00,A,3000.000338,N,11959.998525,E,0.0,,230721,4.3,W,A*08
$GPGGA,012859.00,3000.000338,N,11959.998525,E,1,07,1.1,-10.5,M,7.0,M,,*46

$GPGSV,3,1,12,02,28,250,,04,20,206,,07,46,033,,08,78,305,*71
$GPGSV,3,2,12,10,32,317,,13,26,071,,23,04,088,,24,00,000,*7D
$GPGSV,3,3,12,25,27,042,,26,09,286,,27,50,251,,28,31,163,*75
$GLGSV,2,1,07,78,44,310,41,77,59,216,41,88,39,295,41,87,41,014,41*6E
$GLGSV,2,2,07,81,04,260,41,71,08,039,41,72,21,091,37*55
$GAGSV,3,1,10,06,00,000,,07,00,000,,09,39,314,,10,77,192,*64
$GAGSV,3,2,10,11,27,149,,17,04,049,,22,12,240,,23,59,270,*63
$GAGSV,3,3,10,24,51,026,,27,03,146,*6A
$PQGSV,1,1,0,0*43
$PQGSV,1,1,0,0*43
$GLGSA,A,3,71,72,77,78,81,87,88,,,,,,1.4,1.1,0.8*29
$GPVTG,,T,,M,0.0,N,0.0,K,A*23
$GPDTM,P90,,0000.000022,S,00000.000001,W,0.988,W84*5A
$GPRMC,012900.00,A,3000.000340,N,11959.998525,E,0.0,,230721,4.3,W,A*0A
$GPGGA,012900.00,3000.000340,N,11959.998525,E,1,07,1.1,-10.5,M,7.0,M,,*44

$GPGSV,3,1,12,02,28,250,,04,20,206,,07,46,033,,08,78,305,*71
$GPGSV,3,2,12,10,32,317,,13,26,071,,23,04,088,,24,00,000,*7D
$GPGSV,3,3,12,25,27,042,,26,09,286,,27,50,251,,28,31,163,*75
$GLGSV,2,1,07,78,44,310,41,77,59,216,41,88,39,295,41,87,41,014,41*6E
$GLGSV,2,2,07,81,04,260,41,71,08,039,41,72,21,091,37*55
$GAGSV,3,1,10,06,00,000,,07,00,000,,09,39,314,,10,77,192,*64
$GAGSV,3,2,10,11,27,149,,17,04,049,,22,12,240,,23,59,270,*63
$GAGSV,3,3,10,24,51,026,,27,03,146,*6A
$PQGSV,1,1,0,0*43
$PQGSV,1,1,0,0*43
$GLGSA,A,3,71,72,77,78,81,87,88,,,,,,1.4,1.1,0.8*29
$GPVTG,,T,,M,0.0,N,0.0,K,A*23
$GPDTM,P90,,0000.000022,S,00000.000001,W,0.988,W84*5A
$GPRMC,012901.00,A,3000.000337,N,11959.998527,E,0.0,,230721,4.3,W,A*09
$GPGGA,012901.00,3000.000337,N,11959.998527,E,1,07,1.1,-10.5,M,7.0,M,,*47

$GPGSV,3,1,12,02,28,250,,04,20,206,,07,46,033,,08,78,305,*71
$GPGSV,3,2,12,10,32,317,,13,26,071,,23,04,088,,24,00,000,*7D
$GPGSV,3,3,12,25,27,042,,26,09,286,,27,50,251,,28,31,163,*75
$GLGSV,2,1,07,78,44,310,41,77,59,216,41,88,39,295,41,87,41,014,41*6E
$GLGSV,2,2,07,81,04,260,41,71,08,039,41,72,21,091,37*55
$GAGSV,3,1,10,06,00,000,,07,00,000,,09,39,314,,10,77,192,*64
$GAGSV,3,2,10,11,27,149,,17,04,049,,22,12,240,,23,59,270,*63
$GAGSV,3,3,10,24,51,026,,27,03,146,*6A
$PQGSV,1,1,0,0*43
$PQGSV,1,1,0,0*43
$GLGSA,A,3,71,72,77,78,81,87,88,,,,,,1.4,1.1,0.8*29
$GPVTG,,T,,M,0.0,N,0.0,K,A*23
$GPDTM,P90,,0000.000022,S,00000.000001,W,0.988,W84*5A
$GPRMC,012902.00,A,3000.000337,N,11959.998526,E,0.0,,230721,4.3,W,A*0B
$GPGGA,012902.00,3000.000337,N,11959.998526,E,1,07,1.1,-10.5,M,7.0,M,,*45

$GPGSV,3,1,12,02,28,250,,04,20,206,,07,46,033,,08,78,305,*71
$GPGSV,3,2,12,10,32,317,,13,26,071,,23,04,088,,24,00,000,*7D
$GPGSV,3,3,12,25,27,042,,26,09,286,,27,50,251,,28,31,163,*75
$GLGSV,2,1,07,78,44,310,40,77,59,216,41,88,39,295,41,87,41,014,41*6F
$GLGSV,2,2,07,81,04,260,41,71,08,039,41,72,21,091,37*55
$GAGSV,3,1,10,06,00,000,,07,00,000,,09,39,314,,10,77,192,*64
$GAGSV,3,2,10,11,27,149,,17,04,049,,22,12,240,,23,59,270,*63
$GAGSV,3,3,10,24,51,026,,27,03,146,*6A
$PQGSV,1,1,0,0*43
$PQGSV,1,1,0,0*43
$GLGSA,A,3,71,72,77,78,81,87,88,,,,,,1.4,1.1,0.8*29
$GPVTG,,T,,M,0.0,N,0.0,K,A*23
$GPDTM,P90,,0000.000022,S,00000.000001,W,0.988,W84*5A
$GPRMC,012903.00,A,3000.000338,N,11959.998525,E,0.0,,230721,4.3,W,A*06
$GPGGA,012903.00,3000.000338,N,11959.998525,E,1,07,1.1,-10.5,M,7.0,M,,*48

$GPGSV,3,1,12,02,28,250,,04,20,206,,07,46,033,,08,78,305,*71
$GPGSV,3,2,12,10,32,317,,13,26,071,,23,04,088,,24,00,000,*7D
$GPGSV,3,3,12,25,27,042,,26,09,286,,27,50,251,,28,31,163,*75
$GLGSV,2,1,07,78,44,310,41,77,59,216,41,88,39,295,41,87,41,014,41*6E
$GLGSV,2,2,07,81,04,260,41,71,08,039,41,72,21,091,37*55
$GAGSV,3,1,10,06,00,000,,07,00,000,,09,39,314,,10,77,192,*64
$GAGSV,3,2,10,11,27,149,,17,04,049,,22,12,240,,23,59,270,*63
$GAGSV,3,3,10,24,51,026,,27,03,146,*6A
$PQGSV,1,1,0,0*43
$PQGSV,1,1,0,0*43
$GLGSA,A,3,71,72,77,78,81,87,88,,,,,,1.4,1.1,0.8*29
$GPVTG,,T,,M,0.0,N,0.0,K,A*23
$GPDTM,P90,,0000.000022,S,00000.000001,W,0.988,W84*5A
$GPRMC,012904.00,A,3000.000337,N,11959.998525,E,0.0,,230721,4.3,W,A*0E
$GPGGA,012904.00,3000.000337,N,11959.998525,E,1,07,1.1,-10.5,M,7.0,M,,*40

$GPGSV,3,1,12,02,28,250,,04,20,206,,07,46,033,,08,78,305,*71
$GPGSV,3,2,12,10,32,317,,13,26,071,,23,04,088,,24,00,000,*7D
$GPGSV,3,3,12,25,27,042,,26,09,286,,27,50,251,,28,31,163,*75
$GLGSV,2,1,07,78,44,310,41,77,59,216,41,88,39,295,41,87,41,014,41*6E
$GLGSV,2,2,07,81,04,260,41,71,08,039,41,72,21,091,36*54
$GAGSV,3,1,10,06,00,000,,07,00,000,,09,39,314,,10,77,192,*64
$GAGSV,3,2,10,11,27,149,,17,04,049,,22,12,240,,23,59,270,*63
$GAGSV,3,3,10,24,51,026,,27,03,146,*6A
$PQGSV,1,1,0,0*43
$PQGSV,1,1,0,0*43
$GLGSA,A,3,71,72,77,78,81,87,88,,,,,,1.4,1.1,0.8*29
$GPVTG,,T,,M,0.0,N,0.0,K,A*23
$GPDTM,P90,,0000.000022,S,00000.000001,W,0.988,W84*5A
$GPRMC,012905.00,A,3000.000337,N,11959.998525,E,0.0,,230721,4.3,W,A*0F
$GPGGA,012905.00,3000.000337,N,11959.998525,E,1,07,1.1,-10.5,M,7.0,M,,*41

$GPGSV,3,1,12,02,28,250,,04,20,206,,07,46,033,,08,78,305,*71
$GPGSV,3,2,12,10,32,317,,13,26,071,,23,04,088,,24,00,000,*7D
$GPGSV,3,3,12,25,27,042,,26,09,286,,27,50,251,,28,31,163,*75
$GLGSV,2,1,07,78,44,310,40,77,59,216,41,88,39,295,41,87,41,014,41*6F
$GLGSV,2,2,07,81,04,260,41,71,08,039,41,72,21,091,37*55
$GAGSV,3,1,10,06,00,000,,07,00,000,,09,39,314,,10,77,192,*64
$GAGSV,3,2,10,11,27,149,,17,04,049,,22,12,240,,23,59,270,*63
$GAGSV,3,3,10,24,51,026,,27,03,146,*6A
$PQGSV,1,1,0,0*43
$PQGSV,1,1,0,0*43
$GLGSA,A,3,71,72,77,78,81,87,88,,,,,,1.4,1.1,0.8*29
$GPVTG,,T,,M,0.0,N,0.0,K,A*23
$GPDTM,P90,,0000.000022,S,00000.000001,W,0.988,W84*5A
$GPRMC,012906.00,A,3000.000334,N,11959.998526,E,0.0,,230721,4.3,W,A*0C
$GPGGA,012906.00,3000.000334,N,11959.998526,E,1,07,1.1,-10.5,M,7.0,M,,*42

$GPGSV,3,1,12,02,28,250,,04,20,206,,07,46,033,,08,78,305,*71
$GPGSV,3,2,12,10,32,317,,13,26,071,,23,04,088,,24,00,000,*7D
$GPGSV,3,3,12,25,27,042,,26,09,286,,27,50,251,,28,31,163,*75
$GLGSV,2,1,07,78,44,310,41,77,59,216,41,88,39,295,41,87,41,014,41*6E
$GLGSV,2,2,07,81,04,260,41,71,08,039,41,72,21,091,37*55
$GAGSV,3,1,10,06,00,000,,07,00,000,,09,39,314,,10,77,192,*64
$GAGSV,3,2,10,11,27,149,,17,04,049,,22,12,240,,23,59,270,*63
$GAGSV,3,3,10,24,51,026,,27,03,146,*6A
$PQGSV,1,1,0,0*43
$PQGSV,1,1,0,0*43
$GLGSA,A,3,71,72,77,78,81,87,88,,,,,,1.4,1.1,0.8*29
$GPVTG,,T,,M,0.0,N,0.0,K,A*23
$GPDTM,P90,,0000.000022,S,00000.000001,W,0.988,W84*5A
$GPRMC,012907.00,A,3000.000332,N,11959.998527,E,0.0,,230721,4.3,W,A*0A
$GPGGA,012907.00,3000.000332,N,11959.998527,E,1,07,1.1,-10.6,M,7.0,M,,*47

$GPGSV,3,1,12,02,28,250,,04,20,206,,07,46,033,,08,78,305,*71
$GPGSV,3,2,12,10,32,317,,13,26,071,,23,04,088,,24,00,000,*7D
$GPGSV,3,3,12,25,27,042,,26,09,286,,27,50,251,,28,31,163,*75
$GLGSV,2,1,07,78,44,310,40,77,59,216,41,88,39,295,41,87,41,014,41*6F
$GLGSV,2,2,07,81,04,260,41,71,08,039,41,72,21,091,37*55
$GAGSV,3,1,10,06,00,000,,07,00,000,,09,39,314,,10,77,192,*64
$GAGSV,3,2,10,11,27,149,,17,04,049,,22,12,240,,23,59,270,*63
$GAGSV,3,3,10,24,51,026,,27,03,146,*6A
$PQGSV,1,1,0,0*43
$PQGSV,1,1,0,0*43
$GLGSA,A,3,71,72,77,78,81,87,88,,,,,,1.4,1.1,0.8*29
$GPVTG,,T,,M,0.0,N,0.0,K,A*23
$GPDTM,P90,,0000.000022,S,00000.000001,W,0.988,W84*5A
$GPRMC,012908.00,A,3000.000331,N,11959.998526,E,0.0,,230721,4.3,W,A*07
$GPGGA,012908.00,3000.000331,N,11959.998526,E,1,07,1.1,-10.6,M,7.0,M,,*4A

$GPGSV,3,1,12,02,28,250,,04,20,206,,07,46,033,,08,78,305,*71
$GPGSV,3,2,12,10,32,317,,13,26,071,,23,04,088,,24,00,000,*7D
$GPGSV,3,3,12,25,27,042,,26,09,286,,27,50,251,,28,31,163,*75
$GLGSV,2,1,07,78,44,310,41,77,59,216,41,88,39,295,41,87,41,014,41*6E
$GLGSV,2,2,07,81,04,260,41,71,08,039,41,72,21,091,37*55
$GAGSV,3,1,10,06,00,000,,07,00,000,,09,39,314,,10,77,192,*64
$GAGSV,3,2,10,11,27,149,,17,04,049,,22,12,240,,23,59,270,*63
$GAGSV,3,3,10,24,51,026,,27,03,146,*6A
$PQGSV,1,1,0,0*43
$PQGSV,1,1,0,0*43
$GLGSA,A,3,71,72,77,78,81,87,88,,,,,,1.4,1.1,0.8*29
$GPVTG,,T,,M,0.0,N,0.0,K,A*23
$GPDTM,P90,,0000.000022,S,00000.000001,W,0.988,W84*5A
$GPRMC,012909.00,A,3000.000331,N,11959.998528,E,0.0,,230721,4.3,W,A*08
$GPGGA,012909.00,3000.000331,N,11959.998528,E,1,07,1.1,-10.6,M,7.0,M,,*45

$GPGSV,3,1,12,02,28,250,,04,20,206,,07,46,033,,08,78,305,*71
$GPGSV,3,2,12,10,32,317,,13,26,071,,23,04,088,,24,00,000,*7D
$GPGSV,3,3,12,25,27,042,,26,09,286,,27,50,251,,28,31,163,*75
$GLGSV,2,1,07,78,44,310,41,77,59,216,41,88,39,295,41,87,41,014,41*6E
$GLGSV,2,2,07,81,04,260,41,71,08,039,41,72,21,091,37*55
$GAGSV,3,1,10,06,00,000,,07,00,000,,09,39,314,,10,77,192,*64
$GAGSV,3,2,10,11,27,149,,17,04,049,,22,12,240,,23,59,270,*63
$GAGSV,3,3,10,24,51,026,,27,03,146,*6A
$PQGSV,1,1,0,0*43
$PQGSV,1,1,0,0*43
$GLGSA,A,3,71,72,77,78,81,87,88,,,,,,1.4,1.1,0.8*29
$GPVTG,,T,,M,0.0,N,0.0,K,A*23
$GPDTM,P90,,0000.000022,S,00000.000001,W,0.988,W84*5A
$GPRMC,012910.00,A,3000.000331,N,11959.998526,E,0.0,,230721,4.3,W,A*0E
$GPGGA,012910.00,3000.000331,N,11959.998526,E,1,07,1.1,-10.6,M,7.0,M,,*43

$GPGSV,3,1,12,02,28,250,,04,20,206,,07,46,033,,08,78,305,*71
$GPGSV,3,2,12,10,32,317,,13,26,071,,23,04,088,,24,00,000,*7D
$GPGSV,3,3,12,25,27,042,,26,09,286,,27,50,251,,28,31,163,*75
$GLGSV,2,1,07,78,44,310,41,77,59,216,41,88,39,295,41,87,41,014,41*6E
$GLGSV,2,2,07,81,04,260,41,71,08,039,41,72,21,091,37*55
$GAGSV,3,1,10,06,00,000,,07,00,000,,09,39,314,,10,77,192,*64
$GAGSV,3,2,10,11,27,149,,17,04,049,,22,12,240,,23,59,270,*63
$GAGSV,3,3,10,24,51,026,,27,03,146,*6A
$PQGSV,1,1,0,0*43
$PQGSV,1,1,0,0*43
$GLGSA,A,3,71,72,77,78,81,87,88,,,,,,1.4,1.1,0.8*29
$GPVTG,,T,,M,0.0,N,0.0,K,A*23
$GPDTM,P90,,0000.000022,S,00000.000001,W,0.988,W84*5A
$GPRMC,012911.00,A,3000.000332,N,11959.998525,E,0.0,,230721,4.3,W,A*0F
$GPGGA,012911.00,3000.000332,N,11959.998525,E,1,07,1.1,-10.6,M,7.0,M,,*42

$GPGSV,3,1,12,02,28,250,,04,20,206,,07,46,033,,08,78,305,*71
$GPGSV,3,2,12,10,32,317,,13,26,071,,23,04,088,,24,00,000,*7D
$GPGSV,3,3,12,25,27,042,,26,09,286,,27,50,251,,28,31,163,*75
$GLGSV,2,1,07,78,44,310,41,77,59,216,41,88,39,295,41,87,41,014,41*6E
$GLGSV,2,2,07,81,04,260,41,71,08,039,41,72,21,091,37*55
$GAGSV,3,1,10,06,00,000,,07,00,000,,09,39,314,,10,77,192,*64
$GAGSV,3,2,10,11,27,149,,17,04,049,,22,12,240,,23,59,270,*63
$GAGSV,3,3,10,24,51,026,,27,03,146,*6A
$PQGSV,1,1,0,0*43
$PQGSV,1,1,0,0*43
$GLGSA,A,3,71,72,77,78,81,87,88,,,,,,1.4,1.1,0.8*29
$GPVTG,,T,,M,0.0,N,0.0,K,A*23
$GPDTM,P90,,0000.000022,S,00000.000001,W,0.988,W84*5A
$GPRMC,012912.00,A,3000.000331,N,11959.998526,E,0.0,,230721,4.3,W,A*0C
$GPGGA,012912.00,3000.000331,N,11959.998526,E,1,07,1.1,-10.6,M,7.0,M,,*41

$GPGSV,3,1,12,02,28,250,,04,20,206,,07,46,033,,08,78,305,*71
$GPGSV,3,2,12,10,32,317,,13,26,071,,23,04,088,,24,00,000,*7D
$GPGSV,3,3,12,25,27,042,,26,09,286,,27,50,251,,28,31,163,*75
$GLGSV,2,1,07,78,44,310,40,77,59,216,41,88,39,295,41,87,41,014,41*6F
$GLGSV,2,2,07,81,04,260,41,71,08,039,41,72,21,091,37*55
$GAGSV,3,1,10,06,00,000,,07,00,000,,09,39,314,,10,77,192,*64
$GAGSV,3,2,10,11,27,149,,17,04,049,,22,12,240,,23,59,270,*63
$GAGSV,3,3,10,24,51,026,,27,03,146,*6A
$PQGSV,1,1,0,0*43
$PQGSV,1,1,0,0*43
$GLGSA,A,3,71,72,77,78,81,87,88,,,,,,1.4,1.1,0.8*29
$GPVTG,,T,,M,0.0,N,0.0,K,A*23
$GPDTM,P90,,0000.000022,S,00000.000001,W,0.988,W84*5A
$GPRMC,012913.00,A,3000.000328,N,11959.998528,E,0.0,,230721,4.3,W,A*0B
$GPGGA,012913.00,3000.000328,N,11959.998528,E,1,07,1.1,-10.6,M,7.0,M,,*46

$GPGSV,3,1,12,02,28,250,,04,20,206,,07,46,033,,08,78,305,*71
$GPGSV,3,2,12,10,32,317,,13,26,071,,23,04,088,,24,00,000,*7D
$GPGSV,3,3,12,25,27,042,,26,09,286,,27,50,251,,28,31,163,*75
$GLGSV,2,1,07,78,44,310,40,77,59,216,41,88,39,295,41,87,41,014,41*6F
$GLGSV,2,2,07,81,04,260,41,71,08,039,41,72,21,091,37*55
$GAGSV,3,1,10,06,00,000,,07,00,000,,09,39,314,,10,77,192,*64
$GAGSV,3,2,10,11,27,149,,17,04,049,,22,12,240,,23,59,270,*63
$GAGSV,3,3,10,24,51,026,,27,03,146,*6A
$PQGSV,1,1,0,0*43
$PQGSV,1,1,0,0*43
$GLGSA,A,3,71,72,77,78,81,87,88,,,,,,1.4,1.1,0.8*29
$GPVTG,,T,,M,0.0,N,0.0,K,A*23
$GPDTM,P90,,0000.000022,S,00000.000001,W,0.988,W84*5A
$GPRMC,012914.00,A,3000.000328,N,11959.998529,E,0.0,,230721,4.3,W,A*0D
$GPGGA,012914.00,3000.000328,N,11959.998529,E,1,07,1.1,-10.6,M,7.0,M,,*40

$GPGSV,3,1,12,02,28,250,,04,20,206,,07,46,033,,08,78,305,*71
$GPGSV,3,2,12,10,32,317,,13,26,071,,23,04,088,,24,00,000,*7D
$GPGSV,3,3,12,25,27,042,,26,09,286,,27,50,251,,28,31,163,*75
$GLGSV,2,1,07,78,44,310,40,77,59,216,41,88,39,295,41,87,41,014,41*6F
$GLGSV,2,2,07,81,04,260,41,71,08,039,41,72,21,091,37*55
$GAGSV,3,1,10,06,00,000,,07,00,000,,09,39,314,,10,77,192,*64
$GAGSV,3,2,10,11,27,149,,17,04,049,,22,12,240,,23,59,270,*63
$GAGSV,3,3,10,24,51,026,,27,03,146,*6A
$PQGSV,1,1,0,0*43
$PQGSV,1,1,0,0*43
$GLGSA,A,3,71,72,77,78,81,87,88,,,,,,1.4,1.1,0.8*29
$GPVTG,,T,,M,0.0,N,0.0,K,A*23
$GPDTM,P90,,0000.000022,S,00000.000001,W,0.988,W84*5A
$GPRMC,012915.00,A,3000.000328,N,11959.998529,E,0.0,,230721,4.3,W,A*0C
$GPGGA,012915.00,3000.000328,N,11959.998529,E,1,07,1.1,-10.6,M,7.0,M,,*41

$GPGSV,3,1,12,02,28,250,,04,20,206,,07,46,033,,08,78,305,*71
$GPGSV,3,2,12,10,32,317,,13,26,071,,23,04,088,,24,00,000,*7D
$GPGSV,3,3,12,25,27,042,,26,09,286,,27,50,251,,28,31,163,*75
$GLGSV,2,1,07,78,44,310,40,77,59,216,41,88,39,295,41,87,41,014,41*6F
$GLGSV,2,2,07,81,04,260,41,71,08,039,41,72,21,091,37*55
$GAGSV,3,1,10,06,00,000,,07,00,000,,09,39,314,,10,77,192,*64
$GAGSV,3,2,10,11,27,149,,17,04,049,,22,12,240,,23,59,270,*63
$GAGSV,3,3,10,24,51,026,,27,03,146,*6A
$PQGSV,1,1,0,0*43
$PQGSV,1,1,0,0*43
$GLGSA,A,3,71,72,77,78,81,87,88,,,,,,1.4,1.1,0.8*29
$GPVTG,,T,,M,0.0,N,0.0,K,A*23
$GPDTM,P90,,0000.000022,S,00000.000001,W,0.988,W84*5A
$GPRMC,012916.00,A,3000.000325,N,11959.998530,E,0.0,,230721,4.3,W,A*0A
$GPGGA,012916.00,3000.000325,N,11959.998530,E,1,07,1.1,-10.6,M,7.0,M,,*47

$GPGSV,3,1,12,02,28,250,,04,20,206,,07,46,033,,08,78,305,*71
$GPGSV,3,2,12,10,32,317,,13,26,071,,23,04,088,,24,00,000,*7D
$GPGSV,3,3,12,25,27,042,,26,09,286,,27,50,251,,28,31,163,*75
$GLGSV,2,1,07,78,44,310,41,77,59,216,41,88,39,295,41,87,41,014,41*6E
$GLGSV,2,2,07,81,04,260,41,71,08,039,41,72,21,091,37*55
$GAGSV,3,1,10,06,00,000,,07,00,000,,09,39,314,,10,77,192,*64
$GAGSV,3,2,10,11,27,149,,17,04,049,,22,12,240,,23,59,270,*63
$GAGSV,3,3,10,24,51,026,,27,03,146,*6A
$PQGSV,1,1,0,0*43
$PQGSV,1,1,0,0*43
$GLGSA,A,3,71,72,77,78,81,87,88,,,,,,1.4,1.1,0.8*29
$GPVTG,,T,,M,0.0,N,0.0,K,A*23
$GPDTM,P90,,0000.000022,S,00000.000001,W,0.988,W84*5A
$GPRMC,012917.00,A,3000.000322,N,11959.998532,E,0.0,,230721,4.3,W,A*0E
$GPGGA,012917.00,3000.000322,N,11959.998532,E,1,07,1.1,-10.6,M,7.0,M,,*43

$GPGSV,3,1,12,02,28,250,,04,20,206,,07,46,033,,08,78,305,*71
$GPGSV,3,2,12,10,32,317,,13,26,071,,23,04,088,,24,00,000,*7D
$GPGSV,3,3,12,25,27,042,,26,09,286,,27,50,251,,28,31,163,*75
$GLGSV,2,1,07,78,44,310,41,77,59,216,41,88,39,295,41,87,41,014,41*6E
$GLGSV,2,2,07,81,04,260,41,71,08,039,41,72,21,091,37*55
$GAGSV,3,1,10,06,00,000,,07,00,000,,09,39,314,,10,77,192,*64
$GAGSV,3,2,10,11,27,149,,17,04,049,,22,12,240,,23,59,270,*63
$GAGSV,3,3,10,24,51,026,,27,03,146,*6A
$PQGSV,1,1,0,0*43
$PQGSV,1,1,0,0*43
$GLGSA,A,3,71,72,77,78,81,87,88,,,,,,1.4,1.1,0.8*29
$GPVTG,,T,,M,0.0,N,0.0,K,A*23
$GPDTM,P90,,0000.000022,S,00000.000001,W,0.988,W84*5A
$GPRMC,012918.00,A,3000.000320,N,11959.998533,E,0.0,,230721,4.3,W,A*02
$GPGGA,012918.00,3000.000320,N,11959.998533,E,1,07,1.1,-10.6,M,7.0,M,,*4F

$GPGSV,3,1,12,02,28,250,,04,20,206,,07,46,033,,08,78,305,*71
$GPGSV,3,2,12,10,32,317,,13,26,071,,23,04,088,,24,00,000,*7D
$GPGSV,3,3,12,25,27,042,,26,09,286,,27,50,251,,28,31,163,*75
$GLGSV,2,1,07,78,44,310,41,77,59,216,41,88,39,295,41,87,41,014,41*6E
$GLGSV,2,2,07,81,04,260,41,71,08,039,41,72,21,091,37*55
$GAGSV,3,1,10,06,00,000,,07,00,000,,09,39,314,,10,77,192,*64
$GAGSV,3,2,10,11,27,149,,17,04,049,,22,12,240,,23,59,270,*63
$GAGSV,3,3,10,24,51,026,,27,03,146,*6A
$PQGSV,1,1,0,0*43
$PQGSV,1,1,0,0*43
$GLGSA,A,3,71,72,77,78,81,87,88,,,,,,1.4,1.1,0.8*29
$GPVTG,,T,,M,0.0,N,0.0,K,A*23
$GPDTM,P90,,0000.000022,S,00000.000001,W,0.988,W84*5A
$GPRMC,012919.00,A,3000.000320,N,11959.998532,E,0.0,,230721,4.3,W,A*02
$GPGGA,012919.00,3000.000320,N,11959.998532,E,1,07,1.1,-10.6,M,7.0,M,,*4F

$GPGSV,3,1,12,02,28,250,,04,20,206,,07,46,033,,08,78,305,*71
$GPGSV,3,2,12,10,32,317,,13,26,071,,23,04,088,,24,00,000,*7D
$GPGSV,3,3,12,25,27,042,,26,09,286,,27,50,251,,28,31,163,*75
$GLGSV,2,1,07,78,44,310,41,77,59,216,41,88,39,295,41,87,41,014,41*6E
$GLGSV,2,2,07,81,04,260,41,71,08,039,41,72,21,091,37*55
$GAGSV,3,1,10,06,00,000,,07,00,000,,09,39,314,,10,77,192,*64
$GAGSV,3,2,10,11,27,149,,17,04,049,,22,12,240,,23,59,270,*63
$GAGSV,3,3,10,24,51,026,,27,03,146,*6A
$PQGSV,1,1,0,0*43
$PQGSV,1,1,0,0*43
$GLGSA,A,3,71,72,77,78,81,87,88,,,,,,1.4,1.1,0.8*29
$GPVTG,,T,,M,0.0,N,0.0,K,A*23
$GPDTM,P90,,0000.000022,S,00000.000001,W,0.988,W84*5A
$GPRMC,012920.00,A,3000.000319,N,11959.998532,E,0.0,,230721,4.3,W,A*02
$GPGGA,012920.00,3000.000319,N,11959.998532,E,1,07,1.1,-10.6,M,7.0,M,,*4F

$GPGSV,3,1,12,02,28,250,,04,20,206,,07,46,033,,08,78,305,*71
$GPGSV,3,2,12,10,32,317,,13,26,071,,23,04,088,,24,00,000,*7D
$GPGSV,3,3,12,25,27,042,,26,09,286,,27,50,251,,28,31,163,*75
$GLGSV,2,1,07,78,44,310,41,77,59,216,41,88,39,295,41,87,41,014,41*6E
$GLGSV,2,2,07,81,04,260,41,71,08,039,41,72,21,091,37*55
$GAGSV,3,1,10,06,00,000,,07,00,000,,09,39,314,,10,77,192,*64
$GAGSV,3,2,10,11,27,149,,17,04,049,,22,12,240,,23,59,270,*63
$GAGSV,3,3,10,24,51,026,,27,03,146,*6A
$PQGSV,1,1,0,0*43
$PQGSV,1,1,0,0*43
$GLGSA,A,3,71,72,77,78,81,87,88,,,,,,1.4,1.1,0.8*29
$GPVTG,,T,,M,0.0,N,0.0,K,A*23
$GPDTM,P90,,0000.000022,S,00000.000001,W,0.988,W84*5A
$GPRMC,012921.00,A,3000.000316,N,11959.998534,E,0.0,,230721,4.3,W,A*0A
$GPGGA,012921.00,3000.000316,N,11959.998534,E,1,07,1.1,-10.6,M,7.0,M,,*47

$GPGSV,3,1,12,02,28,250,,04,20,206,,07,46,033,,08,78,305,*71
$GPGSV,3,2,12,10,32,317,,13,26,071,,23,04,088,,24,00,000,*7D
$GPGSV,3,3,12,25,27,042,,26,09,286,,27,50,251,,28,31,163,*75
$GLGSV,2,1,07,78,44,310,41,77,59,216,41,88,39,295,41,87,41,014,41*6E
$GLGSV,2,2,07,81,04,260,41,71,08,039,41,72,21,091,37*55
$GAGSV,3,1,10,06,00,000,,07,00,000,,09,39,314,,10,77,192,*64
$GAGSV,3,2,10,11,27,149,,17,04,049,,22,12,240,,23,59,270,*63
$GAGSV,3,3,10,24,51,026,,27,03,146,*6A
$PQGSV,1,1,0,0*43
$PQGSV,1,1,0,0*43
$GLGSA,A,3,71,72,77,78,81,87,88,,,,,,1.4,1.1,0.8*29
$GPVTG,,T,,M,0.0,N,0.0,K,A*23
$GPDTM,P90,,0000.000022,S,00000.000001,W,0.988,W84*5A
$GPRMC,012922.00,A,3000.000314,N,11959.998532,E,0.0,,230721,4.3,W,A*0D
$GPGGA,012922.00,3000.000314,N,11959.998532,E,1,07,1.1,-10.6,M,7.0,M,,*40

$GPGSV,3,1,12,02,28,250,,04,20,206,,07,46,033,,08,78,305,*71
$GPGSV,3,2,12,10,32,317,,13,26,071,,23,04,088,,24,00,000,*7D
$GPGSV,3,3,12,25,27,042,,26,09,286,,27,50,251,,28,31,163,*75
$GLGSV,2,1,07,78,44,310,41,77,59,216,41,88,39,295,41,87,41,014,41*6E
$GLGSV,2,2,07,81,04,260,41,71,08,039,41,72,21,091,37*55
$GAGSV,3,1,10,06,00,000,,07,00,000,,09,39,314,,10,77,192,*64
$GAGSV,3,2,10,11,27,149,,17,04,049,,22,12,240,,23,59,270,*63
$GAGSV,3,3,10,24,51,026,,27,03,146,*6A
$PQGSV,1,1,0,0*43
$PQGSV,1,1,0,0*43
$GLGSA,A,3,71,72,77,78,81,87,88,,,,,,1.4,1.1,0.8*29
$GPVTG,,T,,M,0.0,N,0.0,K,A*23
$GPDTM,P90,,0000.000022,S,00000.000001,W,0.988,W84*5A
$GPRMC,012923.00,A,3000.000313,N,11959.998532,E,0.0,,230721,4.3,W,A*0B
$GPGGA,012923.00,3000.000313,N,11959.998532,E,1,07,1.1,-10.6,M,7.0,M,,*46

$GPGSV,3,1,12,02,28,250,,04,20,206,,07,46,033,,08,78,305,*71
$GPGSV,3,2,12,10,32,317,,13,26,071,,23,04,088,,24,00,000,*7D
$GPGSV,3,3,12,25,27,042,,26,09,286,,27,50,251,,28,31,163,*75
$GLGSV,2,1,07,78,44,310,41,77,59,216,41,88,39,295,41,87,41,014,41*6E
$GLGSV,2,2,07,81,04,260,41,71,08,039,41,72,21,091,37*55
$GAGSV,3,1,10,06,00,000,,07,00,000,,09,39,314,,10,77,192,*64
$GAGSV,3,2,10,11,27,149,,17,04,049,,22,12,240,,23,59,270,*63
$GAGSV,3,3,10,24,51,026,,27,03,146,*6A
$PQGSV,1,1,0,0*43
$PQGSV,1,1,0,0*43
$GLGSA,A,3,71,72,77,78,81,87,88,,,,,,1.4,1.1,0.8*29
$GPVTG,,T,,M,0.0,N,0.0,K,A*23
$GPDTM,P90,,0000.000022,S,00000.000001,W,0.988,W84*5A
$GPRMC,012924.00,A,3000.000311,N,11959.998532,E,0.0,,230721,4.3,W,A*0E
$GPGGA,012924.00,3000.000311,N,11959.998532,E,1,07,1.1,-10.6,M,7.0,M,,*43

$GPGSV,3,1,12,02,28,250,,04,20,206,,07,46,033,,08,78,305,*71
$GPGSV,3,2,12,10,32,317,,13,26,071,,23,04,088,,24,00,000,*7D
$GPGSV,3,3,12,25,27,042,,26,09,286,,27,50,251,,28,31,163,*75
$GLGSV,2,1,07,78,44,310,41,77,59,216,41,88,39,295,41,87,41,014,41*6E
$GLGSV,2,2,07,81,04,260,41,71,08,039,41,72,21,091,37*55
$GAGSV,3,1,10,06,00,000,,07,00,000,,09,39,314,,10,77,192,*64
$GAGSV,3,2,10,11,27,149,,17,04,049,,22,12,240,,23,59,270,*63
$GAGSV,3,3,10,24,51,026,,27,03,146,*6A
$PQGSV,1,1,0,0*43
$PQGSV,1,1,0,0*43
$GLGSA,A,3,71,72,77,78,81,87,88,,,,,,1.4,1.1,0.8*29
$GPVTG,,T,,M,0.0,N,0.0,K,A*23
$GPDTM,P90,,0000.000022,S,00000.000001,W,0.988,W84*5A
$GPRMC,012925.00,A,3000.000311,N,11959.998531,E,0.0,,230721,4.3,W,A*0C
$GPGGA,012925.00,3000.000311,N,11959.998531,E,1,07,1.1,-10.6,M,7.0,M,,*41

$GPGSV,3,1,12,02,28,250,,04,20,206,,07,46,033,,08,78,305,*71
$GPGSV,3,2,12,10,32,317,,13,26,071,,23,04,088,,24,00,000,*7D
$GPGSV,3,3,12,25,27,042,,26,09,286,,27,50,251,,28,31,163,*75
$GLGSV,2,1,07,78,44,310,41,77,59,216,41,88,39,295,41,87,41,014,41*6E
$GLGSV,2,2,07,81,04,260,41,71,08,039,41,72,21,091,37*55
$GAGSV,3,1,10,06,00,000,,07,00,000,,09,39,314,,10,77,192,*64
$GAGSV,3,2,10,11,27,149,,17,04,049,,22,12,240,,23,59,270,*63
$GAGSV,3,3,10,24,51,026,,27,03,146,*6A
$PQGSV,1,1,0,0*43
$PQGSV,1,1,0,0*43
$GLGSA,A,3,71,72,77,78,81,87,88,,,,,,1.4,1.1,0.8*29
$GPVTG,,T,,M,0.0,N,0.0,K,A*23
$GPDTM,P90,,0000.000022,S,00000.000001,W,0.988,W84*5A
$GPRMC,012926.00,A,3000.000311,N,11959.998530,E,0.0,,230721,4.3,W,A*0E
$GPGGA,012926.00,3000.000311,N,11959.998530,E,1,07,1.1,-10.6,M,7.0,M,,*43

$GPGSV,3,1,12,02,28,250,,04,20,206,,07,46,033,,08,78,305,*71
$GPGSV,3,2,12,10,32,317,,13,26,071,,23,04,088,,24,00,000,*7D
$GPGSV,3,3,12,25,27,042,,26,09,286,,27,50,251,,28,31,163,*75
$GLGSV,2,1,07,78,44,310,41,77,59,216,41,88,39,295,41,87,41,014,41*6E
$GLGSV,2,2,07,81,04,260,41,71,08,039,41,72,21,091,37*55
$GAGSV,3,1,10,06,00,000,,07,00,000,,09,39,314,,10,77,192,*64
$GAGSV,3,2,10,11,27,149,,17,04,049,,22,12,240,,23,59,270,*63
$GAGSV,3,3,10,24,51,026,,27,03,146,*6A
$PQGSV,1,1,0,0*43
$PQGSV,1,1,0,0*43
$GLGSA,A,3,71,72,77,78,81,87,88,,,,,,1.4,1.1,0.8*29
$GPVTG,,T,,M,0.0,N,0.0,K,A*23
$GPDTM,P90,,0000.000022,S,00000.000001,W,0.988,W84*5A
$GPRMC,012927.00,A,3000.000313,N,11959.998531,E,0.0,,230721,4.3,W,A*0C
$GPGGA,012927.00,3000.000313,N,11959.998531,E,1,07,1.1,-10.6,M,7.0,M,,*41

$GPGSV,3,1,12,02,28,250,,04,20,206,,07,46,033,,08,78,305,*71
$GPGSV,3,2,12,10,32,317,,13,26,071,,23,04,088,,24,00,000,*7D
$GPGSV,3,3,12,25,27,042,,26,09,286,,27,50,251,,28,31,163,*75
$GLGSV,2,1,07,78,44,310,41,77,59,216,41,88,39,295,41,87,41,014,41*6E
$GLGSV,2,2,07,81,04,260,41,71,08,039,41,72,21,091,37*55
$GAGSV,3,1,10,06,00,000,,07,00,000,,09,39,314,,10,77,192,*64
$GAGSV,3,2,10,11,27,149,,17,04,049,,22,12,240,,23,59,270,*63
$GAGSV,3,3,10,24,51,026,,27,03,146,*6A
$PQGSV,1,1,0,0*43
$PQGSV,1,1,0,0*43
$GLGSA,A,3,71,72,77,78,81,87,88,,,,,,1.4,1.1,0.8*29
$GPVTG,,T,,M,0.0,N,0.0,K,A*23
$GPDTM,P90,,0000.000022,S,00000.000001,W,0.988,W84*5A
$GPRMC,012928.00,A,3000.000314,N,11959.998531,E,0.0,,230721,4.3,W,A*04
$GPGGA,012928.00,3000.000314,N,11959.998531,E,1,07,1.1,-10.6,M,7.0,M,,*49

$GPGSV,3,1,12,02,28,250,,04,20,206,,07,46,033,,08,78,305,*71
$GPGSV,3,2,12,10,32,317,,13,26,071,,23,04,088,,24,00,000,*7D
$GPGSV,3,3,12,25,27,042,,26,09,286,,27,50,251,,28,31,163,*75
$GLGSV,2,1,07,78,44,310,41,77,59,216,41,88,39,295,41,87,41,014,41*6E
$GLGSV,2,2,07,81,04,260,41,71,08,039,41,72,21,091,37*55
$GAGSV,3,1,10,06,00,000,,07,00,000,,09,39,314,,10,77,192,*64
$GAGSV,3,2,10,11,27,149,,17,04,049,,22,12,240,,23,59,270,*63
$GAGSV,3,3,10,24,51,026,,27,03,146,*6A
$PQGSV,1,1,0,0*43
$PQGSV,1,1,0,0*43
$GLGSA,A,3,71,72,77,78,81,87,88,,,,,,1.4,1.1,0.8*29
$GPVTG,,T,,M,0.0,N,0.0,K,A*23
$GPDTM,P90,,0000.000022,S,00000.000001,W,0.988,W84*5A
$GPRMC,012929.00,A,3000.000313,N,11959.998532,E,0.0,,230721,4.3,W,A*01
$GPGGA,012929.00,3000.000313,N,11959.998532,E,1,07,1.1,-10.6,M,7.0,M,,*4C

$GPGSV,3,1,12,02,28,250,,04,20,206,,07,46,033,,08,78,305,*71
$GPGSV,3,2,12,10,32,317,,13,26,071,,23,04,088,,24,00,000,*7D
$GPGSV,3,3,12,25,27,042,,26,09,286,,27,50,251,,28,31,163,*75
$GLGSV,2,1,07,78,44,310,41,77,59,216,41,88,39,295,41,87,41,014,41*6E
$GLGSV,2,2,07,81,04,260,41,71,08,039,41,72,21,091,37*55
$GAGSV,3,1,10,06,00,000,,07,00,000,,09,39,314,,10,77,192,*64
$GAGSV,3,2,10,11,27,149,,17,04,049,,22,12,240,,23,59,270,*63
$GAGSV,3,3,10,24,51,026,,27,03,146,*6A
$PQGSV,1,1,0,0*43
$PQGSV,1,1,0,0*43
$GLGSA,A,3,71,72,77,78,81,87,88,,,,,,1.4,1.1,0.8*29
$GPVTG,,T,,M,0.0,N,0.0,K,A*23
$GPDTM,P90,,0000.000022,S,00000.000001,W,0.988,W84*5A
$GPRMC,012930.00,A,3000.000310,N,11959.998533,E,0.0,,230721,4.3,W,A*0B
$GPGGA,012930.00,3000.000310,N,11959.998533,E,1,07,1.1,-10.6,M,7.0,M,,*46

$GPGSV,3,1,12,02,28,250,,04,20,206,,07,46,033,,08,78,305,*71
$GPGSV,3,2,12,10,32,317,,13,26,071,,23,04,088,,24,00,000,*7D
$GPGSV,3,3,12,25,27,042,,26,09,286,,27,50,251,,28,31,163,*75
$GLGSV,2,1,07,78,44,310,41,77,59,216,41,88,39,295,41,87,41,014,41*6E
$GLGSV,2,2,07,81,04,260,41,71,08,039,41,72,21,091,37*55
$GAGSV,3,1,10,06,00,000,,07,00,000,,09,39,314,,10,77,192,*64
$GAGSV,3,2,10,11,27,149,,17,04,049,,22,12,240,,23,59,270,*63
$GAGSV,3,3,10,24,51,026,,27,03,146,*6A
$PQGSV,1,1,0,0*43
$PQGSV,1,1,0,0*43
$GLGSA,A,3,71,72,77,78,81,87,88,,,,,,1.4,1.1,0.8*29
$GPVTG,,T,,M,0.0,N,0.0,K,A*23
$GPDTM,P90,,0000.000022,S,00000.000001,W,0.988,W84*5A
$GPRMC,012931.00,A,3000.000310,N,11959.998533,E,0.0,,230721,4.3,W,A*0A
$GPGGA,012931.00,3000.000310,N,11959.998533,E,1,07,1.1,-10.6,M,7.0,M,,*47

$GPGSV,3,1,12,02,28,250,,04,20,206,,07,46,033,,08,78,305,*71
$GPGSV,3,2,12,10,32,317,,13,26,071,,23,04,088,,24,00,000,*7D
$GPGSV,3,3,12,25,27,042,,26,09,286,,27,50,251,,28,31,163,*75
$GLGSV,2,1,07,78,44,310,41,77,59,216,41,88,39,295,41,87,41,014,41*6E
$GLGSV,2,2,07,81,04,260,41,71,08,039,41,72,21,091,37*55
$GAGSV,3,1,10,06,00,000,,07,00,000,,09,39,314,,10,77,192,*64
$GAGSV,3,2,10,11,27,149,,17,04,049,,22,12,240,,23,59,270,*63
$GAGSV,3,3,10,24,51,026,,27,03,146,*6A
$PQGSV,1,1,0,0*43
$PQGSV,1,1,0,0*43
$GLGSA,A,3,71,72,77,78,81,87,88,,,,,,1.4,1.1,0.8*29
$GPVTG,,T,,M,0.0,N,0.0,K,A*23
$GPDTM,P90,,0000.000022,S,00000.000001,W,0.988,W84*5A
$GPRMC,012932.00,A,3000.000309,N,11959.998533,E,0.0,,230721,4.3,W,A*01
$GPGGA,012932.00,3000.000309,N,11959.998533,E,1,07,1.1,-10.6,M,7.0,M,,*4C

$GPGSV,3,1,12,02,28,250,,04,20,206,,07,46,033,,08,78,305,*71
$GPGSV,3,2,12,10,32,317,,13,26,071,,23,04,088,,24,00,000,*7D
$GPGSV,3,3,12,25,27,042,,26,09,286,,27,50,251,,28,31,163,*75
$GLGSV,2,1,07,78,44,310,41,77,59,216,41,88,39,295,41,87,41,014,41*6E
$GLGSV,2,2,07,81,04,260,41,71,08,039,41,72,21,091,37*55
$GAGSV,3,1,10,06,00,000,,07,00,000,,09,39,314,,10,77,192,*64
$GAGSV,3,2,10,11,27,149,,17,04,049,,22,12,240,,23,59,270,*63
$GAGSV,3,3,10,24,51,026,,27,03,146,*6A
$PQGSV,1,1,0,0*43
$PQGSV,1,1,0,0*43
$GLGSA,A,3,71,72,77,78,81,87,88,,,,,,1.4,1.1,0.8*29
$GPVTG,,T,,M,0.0,N,0.0,K,A*23
$GPDTM,P90,,0000.000022,S,00000.000001,W,0.988,W84*5A
$GPRMC,012933.00,A,3000.000307,N,11959.998534,E,0.0,,230721,4.3,W,A*09
$GPGGA,012933.00,3000.000307,N,11959.998534,E,1,07,1.1,-10.6,M,7.0,M,,*44

$GPGSV,3,1,12,02,28,250,,04,20,206,,07,46,033,,08,78,305,*71
$GPGSV,3,2,12,10,32,317,,13,26,071,,23,04,088,,24,00,000,*7D
$GPGSV,3,3,12,25,27,042,,26,09,286,,27,50,251,,28,31,163,*75
$GLGSV,2,1,07,78,44,310,41,77,59,216,41,88,39,295,41,87,41,014,41*6E
$GLGSV,2,2,07,81,04,260,41,71,08,039,41,72,21,091,37*55
$GAGSV,3,1,10,06,00,000,,07,00,000,,09,39,314,,10,77,192,*64
$GAGSV,3,2,10,11,27,149,,17,04,049,,22,12,240,,23,59,270,*63
$GAGSV,3,3,10,24,51,026,,27,03,146,*6A
$PQGSV,1,1,0,0*43
$PQGSV,1,1,0,0*43
$GLGSA,A,3,71,72,77,78,81,87,88,,,,,,1.4,1.1,0.8*29
$GPVTG,,T,,M,0.0,N,0.0,K,A*23
$GPDTM,P90,,0000.000022,S,00000.000001,W,0.988,W84*5A
$GPRMC,012934.00,A,3000.000304,N,11959.998537,E,0.0,,230721,4.3,W,A*0E
$GPGGA,012934.00,3000.000304,N,11959.998537,E,1,07,1.1,-10.6,M,7.0,M,,*43

$GPGSV,3,1,12,02,28,250,,04,20,206,,07,46,033,,08,78,305,*71
$GPGSV,3,2,12,10,32,317,,13,26,071,,23,04,088,,24,00,000,*7D
$GPGSV,3,3,12,25,27,042,,26,09,286,,27,50,251,,28,31,163,*75
$GLGSV,2,1,07,78,44,310,40,77,59,216,41,88,39,295,41,87,41,014,41*6F
$GLGSV,2,2,07,81,04,260,41,71,08,039,41,72,21,091,37*55
$GAGSV,3,1,10,06,00,000,,07,00,000,,09,39,314,,10,77,192,*64
$GAGSV,3,2,10,11,27,149,,17,04,049,,22,12,240,,23,59,270,*63
$GAGSV,3,3,10,24,51,026,,27,03,146,*6A
$PQGSV,1,1,0,0*43
$PQGSV,1,1,0,0*43
$GLGSA,A,3,71,72,77,78,81,87,88,,,,,,1.4,1.1,0.8*29
$GPVTG,,T,,M,0.0,N,0.0,K,A*23
$GPDTM,P90,,0000.000022,S,00000.000001,W,0.988,W84*5A
$GPRMC,012935.00,A,3000.000302,N,11959.998538,E,0.0,,230721,4.3,W,A*06
$GPGGA,012935.00,3000.000302,N,11959.998538,E,1,07,1.1,-10.6,M,7.0,M,,*4B

$GPGSV,3,1,12,02,28,250,,04,20,206,,07,46,033,,08,78,305,*71
$GPGSV,3,2,12,10,32,317,,13,26,071,,23,04,088,,24,00,000,*7D
$GPGSV,3,3,12,25,27,042,,26,09,286,,27,50,251,,28,31,163,*75
$GLGSV,2,1,07,78,44,310,41,77,59,216,41,88,39,295,41,87,41,014,41*6E
$GLGSV,2,2,07,81,04,260,41,71,08,039,41,72,21,091,37*55
$GAGSV,3,1,10,06,00,000,,07,00,000,,09,39,314,,10,77,192,*64
$GAGSV,3,2,10,11,27,149,,17,04,049,,22,12,240,,23,59,270,*63
$GAGSV,3,3,10,24,51,026,,27,03,146,*6A
$PQGSV,1,1,0,0*43
$PQGSV,1,1,0,0*43
$GLGSA,A,3,71,72,77,78,81,87,88,,,,,,1.4,1.1,0.8*29
$GPVTG,,T,,M,0.0,N,0.0,K,A*23
$GPDTM,P90,,0000.000022,S,00000.000001,W,0.988,W84*5A
$GPRMC,012936.00,A,3000.000298,N,11959.998541,E,0.0,,230721,4.3,W,A*09
$GPGGA,012936.00,3000.000298,N,11959.998541,E,1,07,1.1,-10.6,M,7.0,M,,*44

$GPGSV,3,1,12,02,28,250,,04,20,206,,07,46,033,,08,78,305,*71
$GPGSV,3,2,12,10,32,317,,13,26,071,,23,04,088,,24,00,000,*7D
$GPGSV,3,3,12,25,27,042,,26,09,286,,27,50,251,,28,31,163,*75
$GLGSV,2,1,07,78,44,310,41,77,59,216,41,88,39,295,41,87,41,014,41*6E
$GLGSV,2,2,07,81,04,260,41,71,08,039,41,72,21,091,37*55
$GAGSV,3,1,10,06,00,000,,07,00,000,,09,39,314,,10,77,192,*64
$GAGSV,3,2,10,11,27,149,,17,04,049,,22,12,240,,23,59,270,*63
$GAGSV,3,3,10,24,51,026,,27,03,146,*6A
$PQGSV,1,1,0,0*43
$PQGSV,1,1,0,0*43
$GLGSA,A,3,71,72,77,78,81,87,88,,,,,,1.4,1.1,0.8*29
$GPVTG,,T,,M,0.0,N,0.0,K,A*23
$GPDTM,P90,,0000.000022,S,00000.000001,W,0.988,W84*5A
$GPRMC,012937.00,A,3000.000298,N,11959.998541,E,0.0,,230721,4.3,W,A*08
$GPGGA,012937.00,3000.000298,N,11959.998541,E,1,07,1.1,-10.6,M,7.0,M,,*45

$GPGSV,3,1,12,02,28,250,,04,20,206,,07,46,033,,08,78,305,*71
$GPGSV,3,2,12,10,32,317,,13,26,071,,23,04,088,,24,00,000,*7D
$GPGSV,3,3,12,25,27,042,,26,09,286,,27,50,251,,28,31,163,*75
$GLGSV,2,1,07,78,44,310,41,77,59,216,41,88,39,295,41,87,41,014,41*6E
$GLGSV,2,2,07,81,04,260,41,71,08,039,41,72,21,091,37*55
$GAGSV,3,1,10,06,00,000,,07,00,000,,09,39,314,,10,77,192,*64
$GAGSV,3,2,10,11,27,149,,17,04,049,,22,12,240,,23,59,270,*63
$GAGSV,3,3,10,24,51,026,,27,03,146,*6A
$PQGSV,1,1,0,0*43
$PQGSV,1,1,0,0*43
$GLGSA,A,3,71,72,77,78,81,87,88,,,,,,1.4,1.1,0.8*29
$GPVTG,,T,,M,0.0,N,0.0,K,A*23
$GPDTM,P90,,0000.000022,S,00000.000001,W,0.988,W84*5A
$GPRMC,012938.00,A,3000.000298,N,11959.998541,E,0.0,,230721,4.3,W,A*07
$GPGGA,012938.00,3000.000298,N,11959.998541,E,1,07,1.1,-10.6,M,7.0,M,,*4A

$GPGSV,3,1,12,02,28,250,,04,20,206,,07,46,033,,08,78,305,*71
$GPGSV,3,2,12,10,32,317,,13,26,071,,23,04,088,,24,00,000,*7D
$GPGSV,3,3,12,25,27,042,,26,09,286,,27,50,251,,28,31,163,*75
$GLGSV,2,1,07,78,44,310,41,77,59,216,41,88,39,295,41,87,41,014,41*6E
$GLGSV,2,2,07,81,04,260,41,71,08,039,41,72,21,091,37*55
$GAGSV,3,1,10,06,00,000,,07,00,000,,09,39,314,,10,77,192,*64
$GAGSV,3,2,10,11,27,149,,17,04,049,,22,12,240,,23,59,270,*63
$GAGSV,3,3,10,24,51,026,,27,03,146,*6A
$PQGSV,1,1,0,0*43
$PQGSV,1,1,0,0*43
$GLGSA,A,3,71,72,77,78,81,87,88,,,,,,1.4,1.1,0.8*29
$GPVTG,,T,,M,0.0,N,0.0,K,A*23
$GPDTM,P90,,0000.000022,S,00000.000001,W,0.988,W84*5A
$GPRMC,012939.00,A,3000.000297,N,11959.998540,E,0.0,,230721,4.3,W,A*08
$GPGGA,012939.00,3000.000297,N,11959.998540,E,1,07,1.1,-10.6,M,7.0,M,,*45

$GPGSV,3,1,12,02,28,250,,04,20,206,,07,46,033,,08,78,305,*71
$GPGSV,3,2,12,10,32,317,,13,26,071,,23,04,088,,24,00,000,*7D
$GPGSV,3,3,12,25,27,042,,26,09,286,,27,50,251,,28,31,163,*75
$GLGSV,2,1,07,78,44,310,40,77,59,216,41,88,39,295,41,87,41,014,41*6F
$GLGSV,2,2,07,81,04,260,41,71,08,039,41,72,21,091,37*55
$GAGSV,3,1,10,06,00,000,,07,00,000,,09,39,314,,10,77,192,*64
$GAGSV,3,2,10,11,27,149,,17,04,049,,22,12,240,,23,59,270,*63
$GAGSV,3,3,10,24,51,026,,27,03,146,*6A
$PQGSV,1,1,0,0*43
$PQGSV,1,1,0,0*43
$GLGSA,A,3,71,72,77,78,81,87,88,,,,,,1.4,1.1,0.8*29
$GPVTG,,T,,M,0.0,N,0.0,K,A*23
$GPDTM,P90,,0000.000022,S,00000.000001,W,0.988,W84*5A
$GPRMC,012940.00,A,3000.000295,N,11959.998541,E,0.0,,230721,4.3,W,A*05
$GPGGA,012940.00,3000.000295,N,11959.998541,E,1,07,1.1,-10.6,M,7.0,M,,*48

$GPGSV,3,1,12,02,28,250,,04,20,206,,07,46,033,,08,78,305,*71
$GPGSV,3,2,12,10,32,317,,13,26,071,,23,04,088,,24,00,000,*7D
$GPGSV,3,3,12,25,27,042,,26,09,286,,27,50,251,,28,31,163,*75
$GLGSV,2,1,07,78,44,310,41,77,59,216,41,88,39,295,41,87,41,014,41*6E
$GLGSV,2,2,07,81,04,260,41,71,08,039,41,72,21,091,37*55
$GAGSV,3,1,10,06,00,000,,07,00,000,,09,39,314,,10,77,192,*64
$GAGSV,3,2,10,11,27,149,,17,04,049,,22,12,240,,23,59,270,*63
$GAGSV,3,3,10,24,51,026,,27,03,146,*6A
$PQGSV,1,1,0,0*43
$PQGSV,1,1,0,0*43
$GLGSA,A,3,71,72,77,78,81,87,88,,,,,,1.4,1.1,0.8*29
$GPVTG,,T,,M,0.0,N,0.0,K,A*23
$GPDTM,P90,,0000.000022,S,00000.000001,W,0.988,W84*5A
$GPRMC,012941.00,A,3000.000293,N,11959.998542,E,0.0,,230721,4.3,W,A*01
$GPGGA,012941.00,3000.000293,N,11959.998542,E,1,07,1.1,-10.6,M,7.0,M,,*4C

$GPGSV,3,1,12,02,28,250,,04,20,206,,07,46,033,,08,78,305,*71
$GPGSV,3,2,12,10,32,317,,13,26,071,,23,04,088,,24,00,000,*7D
$GPGSV,3,3,12,25,27,042,,26,09,286,,27,50,251,,28,31,163,*75
$GLGSV,2,1,07,78,44,310,41,77,59,216,41,88,39,295,41,87,41,014,41*6E
$GLGSV,2,2,07,81,04,260,41,71,08,039,41,72,21,091,37*55
$GAGSV,3,1,10,06,00,000,,07,00,000,,09,39,314,,10,77,192,*64
$GAGSV,3,2,10,11,27,149,,17,04,049,,22,12,240,,23,59,270,*63
$GAGSV,3,3,10,24,51,026,,27,03,146,*6A
$PQGSV,1,1,0,0*43
$PQGSV,1,1,0,0*43
$GLGSA,A,3,71,72,77,78,81,87,88,,,,,,1.4,1.1,0.8*29
$GPVTG,,T,,M,0.0,N,0.0,K,A*23
$GPDTM,P90,,0000.000022,S,00000.000001,W,0.988,W84*5A
$GPRMC,012942.00,A,3000.000296,N,11959.998540,E,0.0,,230721,4.3,W,A*05
$GPGGA,012942.00,3000.000296,N,11959.998540,E,1,07,1.1,-10.6,M,7.0,M,,*48

$GPGSV,3,1,12,02,28,250,,04,20,206,,07,46,033,,08,78,305,*71
$GPGSV,3,2,12,10,32,317,,13,26,071,,23,04,088,,24,00,000,*7D
$GPGSV,3,3,12,25,27,042,,26,09,286,,27,50,251,,28,31,163,*75
$GLGSV,2,1,07,78,44,310,41,77,59,216,41,88,39,295,41,87,41,014,41*6E
$GLGSV,2,2,07,81,04,260,41,71,08,039,41,72,21,091,37*55
$GAGSV,3,1,10,06,00,000,,07,00,000,,09,39,314,,10,77,192,*64
$GAGSV,3,2,10,11,27,149,,17,04,049,,22,12,240,,23,59,270,*63
$GAGSV,3,3,10,24,51,026,,27,03,146,*6A
$PQGSV,1,1,0,0*43
$PQGSV,1,1,0,0*43
$GLGSA,A,3,71,72,77,78,81,87,88,,,,,,1.4,1.1,0.8*29
$GPVTG,,T,,M,0.0,N,0.0,K,A*23
$GPDTM,P90,,0000.000022,S,00000.000001,W,0.988,W84*5A
$GPRMC,012943.00,A,3000.000297,N,11959.998540,E,0.0,,230721,4.3,W,A*05
$GPGGA,012943.00,3000.000297,N,11959.998540,E,1,07,1.1,-10.6,M,7.0,M,,*48

$GPGSV,3,1,12,02,28,250,,04,20,206,,07,46,033,,08,78,305,*71
$GPGSV,3,2,12,10,32,317,,13,26,071,,23,04,088,,24,00,000,*7D
$GPGSV,3,3,12,25,27,042,,26,09,286,,27,50,251,,28,31,163,*75
$GLGSV,2,1,07,78,44,310,41,77,59,216,41,88,39,295,41,87,41,014,41*6E
$GLGSV,2,2,07,81,04,260,41,71,08,039,41,72,21,091,37*55
$GAGSV,3,1,10,06,00,000,,07,00,000,,09,39,314,,10,77,192,*64
$GAGSV,3,2,10,11,27,149,,17,04,049,,22,12,240,,23,59,270,*63
$GAGSV,3,3,10,24,51,026,,27,03,146,*6A
$PQGSV,1,1,0,0*43
$PQGSV,1,1,0,0*43
$GLGSA,A,3,71,72,77,78,81,87,88,,,,,,1.4,1.1,0.8*29
$GPVTG,,T,,M,0.0,N,0.0,K,A*23
$GPDTM,P90,,0000.000022,S,00000.000001,W,0.988,W84*5A
$GPRMC,012944.00,A,3000.000297,N,11959.998540,E,0.0,,230721,4.3,W,A*02
$GPGGA,012944.00,3000.000297,N,11959.998540,E,1,07,1.1,-10.6,M,7.0,M,,*4F

$GPGSV,3,1,12,02,28,250,,04,20,206,,07,46,033,,08,78,305,*71
$GPGSV,3,2,12,10,32,317,,13,26,071,,23,04,088,,24,00,000,*7D
$GPGSV,3,3,12,25,27,042,,26,09,286,,27,50,251,,28,31,163,*75
$GLGSV,2,1,07,78,44,310,41,77,59,216,41,88,39,295,41,87,41,014,41*6E
$GLGSV,2,2,07,81,04,260,41,71,08,039,41,72,21,091,37*55
$GAGSV,3,1,10,06,00,000,,07,00,000,,09,39,314,,10,77,192,*64
$GAGSV,3,2,10,11,27,149,,17,04,049,,22,12,240,,23,59,270,*63
$GAGSV,3,3,10,24,51,026,,27,03,146,*6A
$PQGSV,1,1,0,0*43
$PQGSV,1,1,0,0*43
$GLGSA,A,3,71,72,77,78,81,87,88,,,,,,1.4,1.1,0.8*29
$GPVTG,,T,,M,0.0,N,0.0,K,A*23
$GPDTM,P90,,0000.000022,S,00000.000001,W,0.988,W84*5A
$GPRMC,012945.00,A,3000.000297,N,11959.998540,E,0.0,,230721,4.3,W,A*03
$GPGGA,012945.00,3000.000297,N,11959.998540,E,1,07,1.1,-10.6,M,7.0,M,,*4E

$GPGSV,3,1,12,02,28,250,,04,20,206,,07,46,033,,08,78,305,*71
$GPGSV,3,2,12,10,32,317,,13,26,071,,23,04,088,,24,00,000,*7D
$GPGSV,3,3,12,25,27,042,,26,09,286,,27,50,251,,28,31,163,*75
$GLGSV,2,1,07,78,44,310,41,77,59,216,41,88,39,295,41,87,41,014,41*6E
$GLGSV,2,2,07,81,04,260,41,71,08,039,41,72,21,091,37*55
$GAGSV,3,1,10,06,00,000,,07,00,000,,09,39,314,,10,77,192,*64
$GAGSV,3,2,10,11,27,149,,17,04,049,,22,12,240,,23,59,270,*63
$GAGSV,3,3,10,24,51,026,,27,03,146,*6A
$PQGSV,1,1,0,0*43
$PQGSV,1,1,0,0*43
$GLGSA,A,3,71,72,77,78,81,87,88,,,,,,1.4,1.1,0.8*29
$GPVTG,,T,,M,0.0,N,0.0,K,A*23
$GPDTM,P90,,0000.000022,S,00000.000001,W,0.988,W84*5A
$GPRMC,012946.00,A,3000.000296,N,11959.998541,E,0.0,,230721,4.3,W,A*00
$GPGGA,012946.00,3000.000296,N,11959.998541,E,1,07,1.1,-10.6,M,7.0,M,,*4D

$GPGSV,3,1,12,02,28,250,,04,20,206,,07,46,033,,08,78,305,*71
$GPGSV,3,2,12,10,32,317,,13,26,071,,23,04,088,,24,00,000,*7D
$GPGSV,3,3,12,25,27,042,,26,09,286,,27,50,251,,28,31,163,*75
$GLGSV,2,1,07,78,44,310,41,77,59,216,41,88,39,295,41,87,41,014,41*6E
$GLGSV,2,2,07,81,04,260,41,71,08,039,41,72,21,091,37*55
$GAGSV,3,1,10,06,00,000,,07,00,000,,09,39,314,,10,77,192,*64
$GAGSV,3,2,10,11,27,149,,17,04,049,,22,12,240,,23,59,270,*63
$GAGSV,3,3,10,24,51,026,,27,03,146,*6A
$PQGSV,1,1,0,0*43
$PQGSV,1,1,0,0*43
$GLGSA,A,3,71,72,77,78,81,87,88,,,,,,1.4,1.1,0.8*29
$GPVTG,,T,,M,0.0,N,0.0,K,A*23
$GPDTM,P90,,0000.000022,S,00000.000001,W,0.988,W84*5A
$GPRMC,012947.00,A,3000.000293,N,11959.998541,E,0.0,,230721,4.3,W,A*04
$GPGGA,012947.00,3000.000293,N,11959.998541,E,1,07,1.1,-10.6,M,7.0,M,,*49

$GPGSV,3,1,12,02,28,250,,04,20,206,,07,46,033,,08,78,305,*71
$GPGSV,3,2,12,10,32,317,,13,26,071,,23,04,088,,24,00,000,*7D
$GPGSV,3,3,12,25,27,042,,26,09,286,,27,50,251,,28,31,163,*75
$GLGSV,2,1,07,78,44,310,41,77,59,216,41,88,39,295,41,87,41,014,41*6E
$GLGSV,2,2,07,81,04,260,41,71,08,039,41,72,21,091,37*55
$GAGSV,3,1,10,06,00,000,,07,00,000,,09,39,314,,10,77,192,*64
$GAGSV,3,2,10,11,27,149,,17,04,049,,22,12,240,,23,59,270,*63
$GAGSV,3,3,10,24,51,026,,27,03,146,*6A
$PQGSV,1,1,0,0*43
$PQGSV,1,1,0,0*43
$GLGSA,A,3,71,72,77,78,81,87,88,,,,,,1.4,1.1,0.8*29
$GPVTG,,T,,M,0.0,N,0.0,K,A*23
$GPDTM,P90,,0000.000022,S,00000.000001,W,0.988,W84*5A
$GPRMC,012948.00,A,3000.000292,N,11959.998543,E,0.0,,230721,4.3,W,A*08
$GPGGA,012948.00,3000.000292,N,11959.998543,E,1,07,1.1,-10.6,M,7.0,M,,*45

$GPGSV,3,1,12,02,28,250,,04,20,206,,07,46,033,,08,78,305,*71
$GPGSV,3,2,12,10,32,317,,13,26,071,,23,04,088,,24,00,000,*7D
$GPGSV,3,3,12,25,27,042,,26,09,286,,27,50,251,,28,31,163,*75
$GLGSV,2,1,08,78,44,310,41,77,59,216,41,88,39,295,41,87,41,014,41*61
$GLGSV,2,2,08,81,04,260,41,71,08,039,41,72,21,091,37,86,03,056,*64
$GAGSV,3,1,10,06,00,000,,07,00,000,,09,39,314,,10,77,192,*64
$GAGSV,3,2,10,11,27,149,,17,04,049,,22,12,240,,23,59,270,*63
$GAGSV,3,3,10,24,51,026,,27,03,146,*6A
$PQGSV,1,1,0,0*43
$PQGSV,1,1,0,0*43
$GLGSA,A,3,71,72,77,78,81,87,88,,,,,,1.4,1.1,0.8*29
$GPVTG,,T,,M,0.0,N,0.0,K,A*23
$GPDTM,P90,,0000.000022,S,00000.000001,W,0.988,W84*5A
$GPRMC,012949.00,A,3000.000289,N,11959.998543,E,0.0,,230721,4.3,W,A*03
$GPGGA,012949.00,3000.000289,N,11959.998543,E,1,07,1.1,-10.6,M,7.0,M,,*4E

$GPGSV,3,1,12,02,28,250,,04,20,206,,07,46,033,,08,78,305,*71
$GPGSV,3,2,12,10,32,317,,13,26,071,,23,04,088,,24,00,000,*7D
$GPGSV,3,3,12,25,27,042,,26,09,286,,27,50,251,,28,31,163,*75
$GLGSV,2,1,08,78,44,310,41,77,59,216,41,88,39,295,41,87,41,014,41*61
$GLGSV,2,2,08,81,04,260,41,71,08,039,41,72,21,091,37,86,03,056,*64
$GAGSV,3,1,10,06,00,000,,07,00,000,,09,39,314,,10,77,192,*64
$GAGSV,3,2,10,11,27,149,,17,04,049,,22,12,240,,23,59,270,*63
$GAGSV,3,3,10,24,51,026,,27,03,146,*6A
$PQGSV,1,1,0,0*43
$PQGSV,1,1,0,0*43
$GLGSA,A,3,71,72,77,78,81,87,88,,,,,,1.4,1.1,0.8*29
$GPVTG,,T,,M,0.0,N,0.0,K,A*23
$GPDTM,P90,,0000.000022,S,00000.000001,W,0.988,W84*5A
$GPRMC,012950.00,A,3000.000286,N,11959.998543,E,0.0,,230721,4.3,W,A*04
$GPGGA,012950.00,3000.000286,N,11959.998543,E,1,07,1.1,-10.6,M,7.0,M,,*49

$GPGSV,3,1,12,02,28,250,,04,20,206,,07,46,033,,08,78,305,*71
$GPGSV,3,2,12,10,32,317,,13,26,071,,23,04,088,,24,00,000,*7D
$GPGSV,3,3,12,25,27,042,,26,09,286,,27,50,251,,28,31,163,*75
$GLGSV,2,1,08,78,44,310,41,77,59,216,41,88,39,295,41,87,41,014,41*61
$GLGSV,2,2,08,81,04,260,41,71,08,039,41,72,21,091,37,86,03,056,*64
$GAGSV,3,1,10,06,00,000,,07,00,000,,09,39,314,,10,77,192,*64
$GAGSV,3,2,10,11,27,149,,17,04,049,,22,12,240,,23,59,270,*63
$GAGSV,3,3,10,24,51,026,,27,03,146,*6A
$PQGSV,1,1,0,0*43
$PQGSV,1,1,0,0*43
$GLGSA,A,3,71,72,77,78,81,87,88,,,,,,1.4,1.1,0.8*29
$GPVTG,,T,,M,0.0,N,0.0,K,A*23
$GPDTM,P90,,0000.000022,S,00000.000001,W,0.988,W84*5A
$GPRMC,012951.00,A,3000.000285,N,11959.998545,E,0.0,,230721,4.3,W,A*00
$GPGGA,012951.00,3000.000285,N,11959.998545,E,1,07,1.1,-10.6,M,7.0,M,,*4D

$GPGSV,3,1,12,02,28,250,,04,20,206,,07,46,033,,08,78,305,*71
$GPGSV,3,2,12,10,32,317,,13,26,071,,23,04,088,,24,00,000,*7D
$GPGSV,3,3,12,25,27,042,,26,09,286,,27,50,251,,28,31,163,*75
$GLGSV,2,1,08,78,44,310,40,77,59,216,41,88,39,295,41,87,41,014,41*60
$GLGSV,2,2,08,81,04,260,41,71,08,039,41,72,21,091,37,86,03,056,*64
$GAGSV,3,1,10,06,00,000,,07,00,000,,09,39,314,,10,77,192,*64
$GAGSV,3,2,10,11,27,149,,17,04,049,,22,12,240,,23,59,270,*63
$GAGSV,3,3,10,24,51,026,,27,03,146,*6A
$PQGSV,1,1,0,0*43
$PQGSV,1,1,0,0*43
$GLGSA,A,3,71,72,77,78,81,87,88,,,,,,1.4,1.1,0.8*29
$GPVTG,,T,,M,0.0,N,0.0,K,A*23
$GPDTM,P90,,0000.000022,S,00000.000001,W,0.988,W84*5A
$GPRMC,012952.00,A,3000.000284,N,11959.998545,E,0.0,,230721,4.3,W,A*02
$GPGGA,012952.00,3000.000284,N,11959.998545,E,1,07,1.1,-10.6,M,7.0,M,,*4F

$GPGSV,3,1,12,02,28,250,,04,20,206,,07,46,033,,08,78,305,*71
$GPGSV,3,2,12,10,32,317,,13,26,071,,23,04,088,,24,00,000,*7D
$GPGSV,3,3,12,25,27,042,,26,09,286,,27,50,251,,28,31,163,*75
$GLGSV,2,1,08,78,44,310,41,77,59,216,41,88,39,295,41,87,41,015,41*60
$GLGSV,2,2,08,81,04,260,41,71,08,039,41,72,21,091,37,86,03,056,*64
$GAGSV,3,1,10,06,00,000,,07,00,000,,09,39,314,,10,77,192,*64
$GAGSV,3,2,10,11,27,149,,17,04,049,,22,12,240,,23,59,270,*63
$GAGSV,3,3,10,24,51,026,,27,03,146,*6A
$PQGSV,1,1,0,0*43
$PQGSV,1,1,0,0*43
$GLGSA,A,3,71,72,77,78,81,87,88,,,,,,1.4,1.1,0.8*29
$GPVTG,,T,,M,0.0,N,0.0,K,A*23
$GPDTM,P90,,0000.000022,S,00000.000001,W,0.988,W84*5A
$GPRMC,012953.00,A,3000.000284,N,11959.998546,E,0.0,,230721,4.3,W,A*00
$GPGGA,012953.00,3000.000284,N,11959.998546,E,1,07,1.1,-10.6,M,7.0,M,,*4D

$GPGSV,3,1,12,02,28,250,,04,20,206,,07,46,033,,08,78,305,*71
$GPGSV,3,2,12,10,32,317,,13,26,071,,23,04,088,,24,00,000,*7D
$GPGSV,3,3,12,25,27,042,,26,09,286,,27,50,251,,28,31,163,*75
$GLGSV,2,1,08,78,44,310,41,77,59,216,41,88,39,295,41,87,41,015,41*60
$GLGSV,2,2,08,81,04,260,41,71,08,039,41,72,21,091,37,86,03,056,*64
$GAGSV,3,1,10,06,00,000,,07,00,000,,09,39,314,,10,77,192,*64
$GAGSV,3,2,10,11,27,149,,17,04,049,,22,12,240,,23,59,270,*63
$GAGSV,3,3,10,24,51,026,,27,03,146,*6A
$PQGSV,1,1,0,0*43
$PQGSV,1,1,0,0*43
$GLGSA,A,3,71,72,77,78,81,87,88,,,,,,1.4,1.1,0.8*29
$GPVTG,,T,,M,0.0,N,0.0,K,A*23
$GPDTM,P90,,0000.000022,S,00000.000001,W,0.988,W84*5A
$GPRMC,012954.00,A,3000.000287,N,11959.998544,E,0.0,,230721,4.3,W,A*06
$GPGGA,012954.00,3000.000287,N,11959.998544,E,1,07,1.1,-10.6,M,7.0,M,,*4B

$GPGSV,3,1,12,02,28,250,,04,20,206,,07,46,033,,08,78,305,*71
$GPGSV,3,2,12,10,32,317,,13,26,071,,23,04,088,,24,00,000,*7D
$GPGSV,3,3,12,25,27,042,,26,09,286,,27,50,251,,28,31,163,*75
$GLGSV,2,1,08,78,44,310,41,77,59,216,41,88,39,295,41,87,41,015,41*60
$GLGSV,2,2,08,81,04,260,41,71,08,039,41,72,21,091,37,86,03,056,*64
$GAGSV,3,1,10,06,00,000,,07,00,000,,09,39,314,,10,77,192,*64
$GAGSV,3,2,10,11,27,149,,17,04,049,,22,12,240,,23,59,270,*63
$GAGSV,3,3,10,24,51,026,,27,03,146,*6A
$PQGSV,1,1,0,0*43
$PQGSV,1,1,0,0*43
$GLGSA,A,3,71,72,77,78,81,87,88,,,,,,1.4,1.1,0.8*29
$GPVTG,,T,,M,0.0,N,0.0,K,A*23
$GPDTM,P90,,0000.000022,S,00000.000001,W,0.988,W84*5A
$GPRMC,012955.00,A,3000.000284,N,11959.998546,E,0.0,,230721,4.3,W,A*06
$GPGGA,012955.00,3000.000284,N,11959.998546,E,1,07,1.1,-10.6,M,7.0,M,,*4B

$GPGSV,3,1,12,02,28,250,,04,20,206,,07,46,033,,08,78,305,*71
$GPGSV,3,2,12,10,32,317,,13,26,071,,23,04,088,,24,00,000,*7D
$GPGSV,3,3,12,25,27,042,,26,09,286,,27,50,251,,28,31,163,*75
$GLGSV,2,1,08,78,44,310,40,77,59,216,41,88,39,295,41,87,41,015,41*61
$GLGSV,2,2,08,81,04,260,41,71,08,039,41,72,21,091,37,86,03,056,*64
$GAGSV,3,1,10,06,00,000,,07,00,000,,09,39,314,,10,77,192,*64
$GAGSV,3,2,10,11,27,149,,17,04,049,,22,12,240,,23,59,270,*63
$GAGSV,3,3,10,24,51,026,,27,03,146,*6A
$PQGSV,1,1,0,0*43
$PQGSV,1,1,0,0*43
$GLGSA,A,3,71,72,77,78,81,87,88,,,,,,1.4,1.1,0.8*29
$GPVTG,,T,,M,0.0,N,0.0,K,A*23
$GPDTM,P90,,0000.000022,S,00000.000001,W,0.988,W84*5A
$GPRMC,012956.00,A,3000.000283,N,11959.998546,E,0.0,,230721,4.3,W,A*02
$GPGGA,012956.00,3000.000283,N,11959.998546,E,1,07,1.1,-10.6,M,7.0,M,,*4F

$GPGSV,3,1,12,02,28,250,,04,20,206,,07,46,033,,08,78,305,*71
$GPGSV,3,2,12,10,32,317,,13,26,071,,23,04,088,,24,00,000,*7D
$GPGSV,3,3,12,25,27,042,,26,09,286,,27,50,251,,28,31,163,*75
$GLGSV,2,1,08,78,44,310,41,77,59,216,41,88,39,295,41,87,41,015,41*60
$GLGSV,2,2,08,81,04,260,41,71,08,039,41,72,21,091,37,86,03,056,*64
$GAGSV,3,1,10,06,00,000,,07,00,000,,09,39,314,,10,77,192,*64
$GAGSV,3,2,10,11,27,149,,17,04,049,,22,12,240,,23,59,270,*63
$GAGSV,3,3,10,24,51,026,,27,03,146,*6A
$PQGSV,1,1,0,0*43
$PQGSV,1,1,0,0*43
$GLGSA,A,3,71,72,77,78,81,87,88,,,,,,1.4,1.1,0.8*29
$GPVTG,,T,,M,0.0,N,0.0,K,A*23
$GPDTM,P90,,0000.000022,S,00000.000001,W,0.988,W84*5A
$GPRMC,012957.00,A,3000.000280,N,11959.998549,E,0.0,,230721,4.3,W,A*0F
$GPGGA,012957.00,3000.000280,N,11959.998549,E,1,07,1.1,-10.7,M,7.0,M,,*43

$GPGSV,3,1,12,02,28,250,,04,20,206,,07,46,033,,08,78,305,*71
$GPGSV,3,2,12,10,32,317,,13,26,071,,23,04,088,,24,00,000,*7D
$GPGSV,3,3,12,25,27,042,,26,09,286,,27,50,251,,28,31,163,*75
$GLGSV,2,1,08,78,44,310,41,77,59,216,41,88,39,295,41,87,41,015,41*60
$GLGSV,2,2,08,81,04,260,41,71,08,039,41,72,21,091,37,86,03,056,*64
$GAGSV,3,1,10,06,00,000,,07,00,000,,09,39,314,,10,77,192,*64
$GAGSV,3,2,10,11,27,149,,17,04,049,,22,12,240,,23,59,270,*63
$GAGSV,3,3,10,24,51,026,,27,03,146,*6A
$PQGSV,1,1,0,0*43
$PQGSV,1,1,0,0*43
$GLGSA,A,3,71,72,77,78,81,87,88,,,,,,1.4,1.1,0.8*29
$GPVTG,,T,,M,0.0,N,0.0,K,A*23
$GPDTM,P90,,0000.000022,S,00000.000001,W,0.988,W84*5A
$GPRMC,012958.00,A,3000.000281,N,11959.998549,E,0.0,,230721,4.3,W,A*01
$GPGGA,012958.00,3000.000281,N,11959.998549,E,1,07,1.1,-10.7,M,7.0,M,,*4D

$GPGSV,3,1,12,02,28,250,,04,20,206,,07,46,033,,08,78,305,*71
$GPGSV,3,2,12,10,32,317,,13,26,071,,23,04,088,,24,00,000,*7D
$GPGSV,3,3,12,25,27,042,,26,09,286,,27,50,251,,28,31,163,*75
$GLGSV,2,1,08,78,44,310,41,77,59,216,41,88,39,295,41,87,41,015,41*60
$GLGSV,2,2,08,81,04,260,41,71,08,039,41,72,21,091,37,86,03,056,*64
$GAGSV,3,1,10,06,00,000,,07,00,000,,09,39,314,,10,77,192,*64
$GAGSV,3,2,10,11,27,149,,17,04,049,,22,12,240,,23,59,270,*63
$GAGSV,3,3,10,24,51,026,,27,03,146,*6A
$PQGSV,1,1,0,0*43
$PQGSV,1,1,0,0*43
$GLGSA,A,3,71,72,77,78,81,87,88,,,,,,1.4,1.1,0.8*29
$GPVTG,,T,,M,0.0,N,0.0,K,A*23
$GPDTM,P90,,0000.000022,S,00000.000001,W,0.988,W84*5A
$GPRMC,012959.00,A,3000.000280,N,11959.998550,E,0.0,,230721,4.3,W,A*09
$GPGGA,012959.00,3000.000280,N,11959.998550,E,1,07,1.1,-10.7,M,7.0,M,,*45

$GPGSV,3,1,12,02,28,250,,04,20,206,,07,46,033,,08,78,305,*71
$GPGSV,3,2,12,10,32,317,,13,26,071,,23,04,088,,24,00,000,*7D
$GPGSV,3,3,12,25,27,042,,26,09,286,,27,50,251,,28,31,163,*75
$GLGSV,2,1,08,78,44,310,41,77,59,216,41,88,39,295,41,87,41,015,41*60
$GLGSV,2,2,08,81,04,260,41,71,08,039,41,72,21,091,37,86,03,056,*64
$GAGSV,3,1,10,06,00,000,,07,00,000,,09,39,314,,10,77,192,*64
$GAGSV,3,2,10,11,27,149,,17,04,049,,22,12,240,,23,59,270,*63
$GAGSV,3,3,10,24,51,026,,27,03,146,*6A
$PQGSV,1,1,0,0*43
$PQGSV,1,1,0,0*43
$GLGSA,A,3,71,72,77,78,81,87,88,,,,,,1.4,1.1,0.8*29
$GPVTG,,T,,M,0.0,N,0.0,K,A*23
$GPDTM,P90,,0000.000022,S,00000.000001,W,0.988,W84*5A
$GPRMC,013000.00,A,3000.000280,N,11959.998552,E,0.0,,230721,4.3,W,A*0F
$GPGGA,013000.00,3000.000280,N,11959.998552,E,1,07,1.1,-10.7,M,7.0,M,,*43

$GPGSV,3,1,12,02,28,250,,04,20,206,,07,46,033,,08,78,305,*71
$GPGSV,3,2,12,10,32,317,,13,26,071,,23,04,088,,24,00,000,*7D
$GPGSV,3,3,12,25,27,042,,26,09,286,,27,50,251,,28,31,163,*75
$GLGSV,2,1,08,78,44,310,41,77,59,216,41,88,39,295,41,87,41,015,41*60
$GLGSV,2,2,08,81,04,260,41,71,08,039,41,72,21,091,37,86,03,056,*64
$GAGSV,3,1,10,06,00,000,,07,00,000,,09,39,314,,10,77,192,*64
$GAGSV,3,2,10,11,27,149,,17,04,049,,22,12,240,,23,59,270,*63
$GAGSV,3,3,10,24,51,026,,27,03,146,*6A
$PQGSV,1,1,0,0*43
$PQGSV,1,1,0,0*43
$GLGSA,A,3,71,72,77,78,81,87,88,,,,,,1.4,1.1,0.8*29
$GPVTG,,T,,M,0.0,N,0.0,K,A*23
$GPDTM,P90,,0000.000022,S,00000.000001,W,0.988,W84*5A
$GPRMC,013001.00,A,3000.000280,N,11959.998552,E,0.0,,230721,4.3,W,A*0E
$GPGGA,013001.00,3000.000280,N,11959.998552,E,1,07,1.1,-10.7,M,7.0,M,,*42

$GPGSV,3,1,12,02,28,250,,04,20,206,,07,46,033,,08,78,305,*71
$GPGSV,3,2,12,10,32,317,,13,26,071,,23,04,088,,24,00,000,*7D
$GPGSV,3,3,12,25,27,042,,26,09,286,,27,50,251,,28,31,163,*75
$GLGSV,2,1,08,78,44,310,41,77,59,216,41,88,39,295,41,87,41,015,41*60
$GLGSV,2,2,08,81,04,260,41,71,08,039,41,72,21,091,37,86,03,056,*64
$GAGSV,3,1,10,06,00,000,,07,00,000,,09,39,314,,10,77,192,*64
$GAGSV,3,2,10,11,27,149,,17,04,049,,22,12,240,,23,59,270,*63
$GAGSV,3,3,10,24,51,026,,27,03,146,*6A
$PQGSV,1,1,0,0*43
$PQGSV,1,1,0,0*43
$GLGSA,A,3,71,72,77,78,81,87,88,,,,,,1.4,1.1,0.8*29
$GPVTG,,T,,M,0.0,N,0.0,K,A*23
$GPDTM,P90,,0000.000022,S,00000.000001,W,0.988,W84*5A
$GPRMC,013002.00,A,3000.000280,N,11959.998552,E,0.0,,230721,4.3,W,A*0D
$GPGGA,013002.00,3000.000280,N,11959.998552,E,1,07,1.1,-10.7,M,7.0,M,,*41

$GPGSV,3,1,12,02,28,250,,04,20,206,,07,46,033,,08,78,305,*71
$GPGSV,3,2,12,10,32,317,,13,26,071,,23,04,088,,24,00,000,*7D
$GPGSV,3,3,12,25,27,042,,26,09,286,,27,50,251,,28,31,163,*75
$GLGSV,2,1,08,78,44,310,41,77,59,216,41,88,39,295,41,87,41,015,41*60
$GLGSV,2,2,08,81,04,260,41,71,08,039,41,72,21,091,37,86,03,056,*64
$GAGSV,3,1,10,06,00,000,,07,00,000,,09,39,314,,10,77,192,*64
$GAGSV,3,2,10,11,27,149,,17,04,049,,22,12,240,,23,59,270,*63
$GAGSV,3,3,10,24,51,026,,27,03,146,*6A
$PQGSV,1,1,0,0*43
$PQGSV,1,1,0,0*43
$GLGSA,A,3,71,72,77,78,81,87,88,,,,,,1.4,1.1,0.8*29
$GPVTG,,T,,M,0.0,N,0.0,K,A*23
$GPDTM,P90,,0000.000022,S,00000.000001,W,0.988,W84*5A
$GPRMC,013003.00,A,3000.000281,N,11959.998552,E,0.0,,230721,4.3,W,A*0D
$GPGGA,013003.00,3000.000281,N,11959.998552,E,1,07,1.1,-10.7,M,7.0,M,,*41

