$GPVTG,104.1,T,104.1,M,76.9,N,142.4,K,A*18
$GPDTM,P90,,0000.000022,S,00000.000001,W,0.988,W84*5A
$GPRMC,000649.40,A,3000.261287,N,12000.391159,E,76.9,104.1,230721,4.3,W,A*18
$GPGGA,000649.40,3000.261287,N,12000.391159,E,1,00,1.0,-8.7,M,7.0,M,,*79

$GPVTG,104.5,T,104.5,M,77.0,N,142.7,K,A*13
$GPDTM,P90,,0000.000022,S,00000.000001,W,0.988,W84*5A
$GPRMC,000649.50,A,3000.260758,N,12000.393545,E,77.0,104.5,230721,4.3,W,A*18
$GPGGA,000649.50,3000.260758,N,12000.393545,E,1,00,1.0,-8.7,M,7.0,M,,*75

$GPVTG,105.0,T,105.0,M,77.2,N,142.9,K,A*1F
$GPDTM,P90,,0000.000022,S,00000.000001,W,0.988,W84*5A
$GPRMC,000649.60,A,3000.260210,N,12000.395930,E,77.2,105.0,230721,4.3,W,A*1C
$GPGGA,000649.60,3000.260210,N,12000.395930,E,1,00,1.0,-8.7,M,7.0,M,,*77

$GPVTG,105.5,T,105.5,M,77.3,N,143.2,K,A*14
$GPDTM,P90,,0000.000022,S,00000.000001,W,0.988,W84*5A
$GPRMC,000649.70,A,3000.259646,N,12000.398315,E,77.3,105.5,230721,4.3,W,A*14
$GPGGA,000649.70,3000.259646,N,12000.398315,E,1,00,1.0,-8.7,M,7.0,M,,*7B

$GPVTG,105.9,T,105.9,M,77.5,N,143.4,K,A*14
$GPDTM,P90,,0000.000022,S,00000.000001,W,0.988,W84*5A
$GPRMC,000649.80,A,3000.259063,N,12000.400698,E,77.5,105.9,230721,4.3,W,A*16
$GPGGA,000649.80,3000.259063,N,12000.400698,E,1,00,1.0,-8.7,M,7.0,M,,*73

$GPVTG,106.4,T,106.4,M,77.6,N,143.7,K,A*14
$GPDTM,P90,,0000.000022,S,00000.000001,W,0.988,W84*5A
$GPRMC,000649.90,A,3000.258463,N,12000.403081,E,77.6,106.4,230721,4.3,W,A*12
$GPGGA,000649.90,3000.258463,N,12000.403081,E,1,00,1.0,-8.7,M,7.0,M,,*7A

$GPGSV,3,1,12,02,32,295,27,04,49,241,27,07,83,084,26,08,49,208,27*75
$GPGSV,3,2,12,13,47,033,26,20,19,122,27,23,24,059,27,25,63,039,26*72
$GPGSV,3,3,12,27,19,219,26,10,01,310,,16,00,000,,28,00,000,*76
$GLGSV,1,1,01,71,02,080,*58
$GAGSV,2,1,08,09,14,316,,10,65,333,,11,53,119,,12,04,130,*60
$GAGSV,2,2,08,17,28,039,,23,39,223,,24,82,016,,27,27,127,*61
$PQGSV,1,1,0,0*43
$PQGSV,1,1,0,0*43
$GPGSA,A,3,02,04,07,08,13,20,23,25,27,,,,1.3,1.0,0.8*33
$GPVTG,106.6,T,106.6,M,75.6,N,140.0,K,A*12
$GPDTM,P90,,0000.000022,S,00000.000001,W,0.988,W84*5A
$GPRMC,000650.00,A,3000.258279,N,12000.404353,E,75.6,106.6,230721,4.3,W,A*15
$GPGGA,000650.00,3000.258279,N,12000.404353,E,1,09,1.0,-10.5,M,7.0,M,,*4F

$GPVTG,107.1,T,107.1,M,75.6,N,140.1,K,A*13
$GPDTM,P90,,0000.000022,S,00000.000001,W,0.988,W84*5A
$GPRMC,000650.10,A,3000.257668,N,12000.406668,E,75.6,107.1,230721,4.3,W,A*16
$GPGGA,000650.10,3000.257668,N,12000.406668,E,1,00,1.0,-10.5,M,7.0,M,,*43

$GPVTG,107.6,T,107.6,M,75.7,N,140.1,K,A*12
$GPDTM,P90,,0000.000022,S,00000.000001,W,0.988,W84*5A
$GPRMC,000650.20,A,3000.257040,N,12000.408978,E,75.7,107.6,230721,4.3,W,A*1F
$GPGGA,000650.20,3000.257040,N,12000.408978,E,1,00,1.0,-10.5,M,7.0,M,,*4C

$GPVTG,108.0,T,108.0,M,75.7,N,140.2,K,A*11
$GPDTM,P90,,0000.000022,S,00000.000001,W,0.988,W84*5A
$GPRMC,000650.30,A,3000.256396,N,12000.411284,E,75.7,108.0,230721,4.3,W,A*1E
$GPGGA,000650.30,3000.256396,N,12000.411284,E,1,00,1.0,-10.6,M,7.0,M,,*47

$GPVTG,108.5,T,108.5,M,75.7,N,140.3,K,A*10
$GPDTM,P90,,0000.000022,S,00000.000001,W,0.988,W84*5A
$GPRMC,000650.40,A,3000.255736,N,12000.413584,E,75.7,108.5,230721,4.3,W,A*14
$GPGGA,000650.40,3000.255736,N,12000.413584,E,1,00,1.0,-10.7,M,7.0,M,,*49

$GPVTG,108.9,T,108.9,M,75.8,N,140.4,K,A*18
$GPDTM,P90,,0000.000022,S,00000.000001,W,0.988,W84*5A
$GPRMC,000650.50,A,3000.255060,N,12000.415880,E,75.8,108.9,230721,4.3,W,A*1D
$GPGGA,000650.50,3000.255060,N,12000.415880,E,1,00,1.0,-10.7,M,7.0,M,,*43

$GPVTG,109.4,T,109.4,M,75.8,N,140.4,K,A*18
$GPDTM,P90,,0000.000022,S,00000.000001,W,0.988,W84*5A
$GPRMC,000650.60,A,3000.254368,N,12000.418171,E,75.8,109.4,230721,4.3,W,A*12
$GPGGA,000650.60,3000.254368,N,12000.418171,E,1,00,1.0,-10.8,M,7.0,M,,*4F

$GPVTG,109.8,T,109.8,M,75.9,N,140.5,K,A*18
$GPDTM,P90,,0000.000022,S,00000.000001,W,0.988,W84*5A
$GPRMC,000650.70,A,3000.253659,N,12000.420458,E,75.9,109.8,230721,4.3,W,A*1B
$GPGGA,000650.70,3000.253659,N,12000.420458,E,1,00,1.0,-10.8,M,7.0,M,,*4B

$GPVTG,110.3,T,110.3,M,75.9,N,140.7,K,A*1A
$GPDTM,P90,,0000.000022,S,00000.000001,W,0.988,W84*5A
$GPRMC,000650.80,A,3000.252934,N,12000.422739,E,75.9,110.3,230721,4.3,W,A*14
$GPGGA,000650.80,3000.252934,N,12000.422739,E,1,00,1.0,-10.9,M,7.0,M,,*46
$GPVTG,110.7,T,110.7,M,76.0,N,140.8,K,A*1F
$GPDTM,P90,,0000.000022,S,00000.000001,W,0.988,W84*5A
$GPRMC,000650.90,A,3000.252193,N,12000.425016,E,76.0,110.7,230721,4.3,W,A*13
$GPGGA,000650.90,3000.252193,N,12000.425016,E,1,00,1.0,-11.0,M,7.0,M,,*47

$GPGSV,3,1,12,02,32,295,27,04,49,241,26,07,83,084,27,08,49,208,26*74
$GPGSV,3,2,12,13,47,033,27,20,19,122,27,23,24,059,26,25,63,039,26*72
$GPGSV,3,3,12,27,19,219,26,10,01,310,,16,00,000,,28,00,000,*76
$GLGSV,1,1,01,71,02,080,*58
$GAGSV,2,1,08,09,14,316,,10,65,333,,11,53,119,,12,04,130,*60
$GAGSV,2,2,08,17,28,039,,23,39,223,,24,82,016,,27,27,127,*61
$PQGSV,1,1,0,0*43
$PQGSV,1,1,0,0*43
$GPGSA,A,3,02,04,07,08,13,20,23,25,27,,,,1.3,1.0,0.8*33
$GPVTG,110.9,T,110.9,M,76.6,N,142.0,K,A*13
$GPDTM,P90,,0000.000022,S,00000.000001,W,0.988,W84*5A
$GPRMC,000651.00,A,3000.250568,N,12000.427624,E,76.6,110.9,230721,4.3,W,A*14
$GPGGA,000651.00,3000.250568,N,12000.427624,E,1,09,1.0,-8.5,M,7.0,M,,*7C

$GPVTG,111.4,T,111.4,M,76.8,N,142.2,K,A*1F
$GPDTM,P90,,0000.000022,S,00000.000001,W,0.988,W84*5A
$GPRMC,000651.10,A,3000.249797,N,12000.429913,E,76.8,111.4,230721,4.3,W,A*18
$GPGGA,000651.10,3000.249797,N,12000.429913,E,1,00,1.0,-8.6,M,7.0,M,,*78

$GPVTG,111.8,T,111.8,M,76.9,N,142.4,K,A*18
$GPDTM,P90,,0000.000022,S,00000.000001,W,0.988,W84*5A
$GPRMC,000651.20,A,3000.249010,N,12000.432198,E,76.9,111.8,230721,4.3,W,A*1F
$GPGGA,000651.20,3000.249010,N,12000.432198,E,1,00,1.0,-8.6,M,7.0,M,,*72

$GPVTG,112.2,T,112.2,M,77.0,N,142.6,K,A*12
$GPDTM,P90,,0000.000022,S,00000.000001,W,0.988,W84*5A
$GPRMC,000651.30,A,3000.248207,N,12000.434479,E,77.0,112.2,230721,4.3,W,A*16
$GPGGA,000651.30,3000.248207,N,12000.434479,E,1,00,1.0,-8.7,M,7.0,M,,*7B

$GPVTG,112.7,T,112.7,M,77.1,N,142.8,K,A*1D
$GPDTM,P90,,0000.000022,S,00000.000001,W,0.988,W84*5A
$GPRMC,000651.40,A,3000.247388,N,12000.436757,E,77.1,112.7,230721,4.3,W,A*11
$GPGGA,000651.40,3000.247388,N,12000.436757,E,1,00,1.0,-8.7,M,7.0,M,,*78

$GPVTG,113.1,T,113.1,M,77.2,N,143.0,K,A*17
$GPDTM,P90,,0000.000022,S,00000.000001,W,0.988,W84*5A
$GPRMC,000651.50,A,3000.246553,N,12000.439032,E,77.2,113.1,230721,4.3,W,A*1E
$GPGGA,000651.50,3000.246553,N,12000.439032,E,1,00,1.0,-8.8,M,7.0,M,,*7C

$GPVTG,113.5,T,113.5,M,77.4,N,143.3,K,A*12
$GPDTM,P90,,0000.000022,S,00000.000001,W,0.988,W84*5A
$GPRMC,000651.60,A,3000.245701,N,12000.441303,E,77.4,113.5,230721,4.3,W,A*17
$GPGGA,000651.60,3000.245701,N,12000.441303,E,1,00,1.0,-8.9,M,7.0,M,,*76

$GPVTG,113.9,T,113.9,M,77.5,N,143.5,K,A*15
$GPDTM,P90,,0000.000022,S,00000.000001,W,0.988,W84*5A
$GPRMC,000651.70,A,3000.244833,N,12000.443570,E,77.5,113.9,230721,4.3,W,A*14
$GPGGA,000651.70,3000.244833,N,12000.443570,E,1,00,1.0,-8.9,M,7.0,M,,*78

$GPVTG,114.4,T,114.4,M,77.6,N,143.8,K,A*1B
$GPDTM,P90,,0000.000022,S,00000.000001,W,0.988,W84*5A
$GPRMC,000651.80,A,3000.243949,N,12000.445834,E,77.6,114.4,230721,4.3,W,A*12
$GPGGA,000651.80,3000.243949,N,12000.445834,E,1,00,1.0,-9.0,M,7.0,M,,*7F

$GPVTG,114.8,T,114.8,M,77.8,N,144.0,K,A*1A
$GPDTM,P90,,0000.000022,S,00000.000001,W,0.988,W84*5A
$GPRMC,000651.90,A,3000.243049,N,12000.448095,E,77.8,114.8,230721,4.3,W,A*16
$GPGGA,000651.90,3000.243049,N,12000.448095,E,1,00,1.0,-9.1,M,7.0,M,,*78

$GPGSV,3,1,12,02,32,295,27,04,49,241,27,07,83,084,25,08,49,208,26*77
$GPGSV,3,2,12,13,47,033,26,20,19,122,26,23,24,059,27,25,63,039,26*73
$GPGSV,3,3,12,27,19,219,26,10,01,310,,16,00,000,,28,00,000,*76
$GLGSV,1,1,01,71,02,080,*58
$GAGSV,2,1,08,09,14,316,,10,65,333,,11,53,119,,12,04,130,*60
$GAGSV,2,2,08,17,28,039,,23,39,223,,24,82,016,,27,27,127,*61
$PQGSV,1,1,0,0*43
$PQGSV,1,1,0,0*43
$GPGSA,A,3,02,04,07,08,13,20,23,25,27,,,,1.3,1.0,0.8*33
$GPVTG,115.2,T,115.2,M,75.6,N,139.9,K,A*15
$GPDTM,P90,,0000.000022,S,00000.000001,W,0.988,W84*5A
$GPRMC,000652.00,A,3000.242114,N,12000.450014,E,75.6,115.2,230721,4.3,W,A*13
$GPGGA,000652.00,3000.242114,N,12000.450014,E,1,09,1.0,-8.0,M,7.0,M,,*73

$GPVTG,115.6,T,115.6,M,75.6,N,139.9,K,A*15
$GPDTM,P90,,0000.000022,S,00000.000001,W,0.988,W84*5A
$GPRMC,000652.10,A,3000.241212,N,12000.452198,E,75.6,115.6,230721,4.3,W,A*17
$GPGGA,000652.10,3000.241212,N,12000.452198,E,1,00,1.0,-8.0,M,7.0,M,,*7A

$GPVTG,116.0,T,116.0,M,75.6,N,140.0,K,A*12
$GPDTM,P90,,0000.000022,S,00000.000001,W,0.988,W84*5A
$GPRMC,000652.20,A,3000.240296,N,12000.454374,E,75.6,116.0,230721,4.3,W,A*1A
$GPGGA,000652.20,3000.240296,N,12000.454374,E,1,00,1.0,-8.0,M,7.0,M,,*72

$GPVTG,116.5,T,116.5,M,75.6,N,140.0,K,A*12
$GPDTM,P90,,0000.000022,S,00000.000001,W,0.988,W84*5A
$GPRMC,000652.30,A,3000.239365,N,12000.456542,E,75.6,116.5,230721,4.3,W,A*1C
$GPGGA,000652.30,3000.239365,N,12000.456542,E,1,00,1.0,-8.0,M,7.0,M,,*71

$GPVTG,116.9,T,116.9,M,75.6,N,140.0,K,A*12
$GPDTM,P90,,0000.000022,S,00000.000001,W,0.988,W84*5A
$GPRMC,000652.40,A,3000.238420,N,12000.458703,E,75.6,116.9,230721,4.3,W,A*19
$GPGGA,000652.40,3000.238420,N,12000.458703,E,1,00,1.0,-8.0,M,7.0,M,,*78

$GPVTG,117.3,T,117.3,M,75.6,N,140.1,K,A*13
$GPDTM,P90,,0000.000022,S,00000.000001,W,0.988,W84*5A
$GPRMC,000652.50,A,3000.237460,N,12000.460856,E,75.6,117.3,230721,4.3,W,A*1C
$GPGGA,000652.50,3000.237460,N,12000.460856,E,1,00,1.0,-8.0,M,7.0,M,,*76

$GPVTG,117.8,T,117.8,M,75.7,N,140.1,K,A*12
$GPDTM,P90,,0000.000022,S,00000.000001,W,0.988,W84*5A
$GPRMC,000652.60,A,3000.236486,N,12000.463002,E,75.7,117.8,230721,4.3,W,A*16
$GPGGA,000652.60,3000.236486,N,12000.463002,E,1,00,1.0,-8.0,M,7.0,M,,*76

$GPVTG,118.2,T,118.2,M,75.7,N,140.2,K,A*11
$GPDTM,P90,,0000.000022,S,00000.000001,W,0.988,W84*5A
$GPRMC,000652.70,A,3000.235499,N,12000.465140,E,75.7,118.2,230721,4.3,W,A*1E
$GPGGA,000652.70,3000.235499,N,12000.465140,E,1,00,1.0,-8.0,M,7.0,M,,*7B

$GPVTG,118.6,T,118.6,M,75.7,N,140.2,K,A*11
$GPDTM,P90,,0000.000022,S,00000.000001,W,0.988,W84*5A
$GPRMC,000652.80,A,3000.234496,N,12000.467270,E,75.7,118.6,230721,4.3,W,A*19
$GPGGA,000652.80,3000.234496,N,12000.467270,E,1,00,1.0,-8.0,M,7.0,M,,*78

$GPVTG,119.0,T,119.0,M,75.8,N,140.3,K,A*1F
$GPDTM,P90,,0000.000022,S,00000.000001,W,0.988,W84*5A
$GPRMC,000652.90,A,3000.233479,N,12000.469393,E,75.8,119.0,230721,4.3,W,A*14
$GPGGA,000652.90,3000.233479,N,12000.469393,E,1,00,1.0,-8.0,M,7.0,M,,*7D

$GPGSV,3,1,12,02,32,295,26,04,49,241,26,07,83,084,26,08,49,208,27*75
$GPGSV,3,2,12,13,47,033,25,20,19,122,26,23,24,059,26,25,63,039,26*71
$GPGSV,3,3,12,27,19,219,26,10,01,310,,16,00,000,,28,00,000,*76
$GLGSV,1,1,01,71,02,080,*58
$GAGSV,2,1,08,09,14,316,,10,65,333,,11,53,119,,12,04,130,*60
$GAGSV,2,2,08,17,28,039,,23,39,223,,24,82,016,,27,27,127,*61
$PQGSV,1,1,0,0*43
$PQGSV,1,1,0,0*43
$GPGSA,A,3,02,04,07,08,13,20,23,25,27,,,,1.3,1.0,0.8*33
$GPVTG,118.9,T,118.9,M,76.6,N,141.8,K,A*18
$GPDTM,P90,,0000.000022,S,00000.000001,W,0.988,W84*5A
$GPRMC,000653.00,A,3000.232208,N,12000.472114,E,76.6,118.9,230721,4.3,W,A*1F
$GPGGA,000653.00,3000.232208,N,12000.472114,E,1,09,1.0,-7.6,M,7.0,M,,*73
$GPVTG,119.3,T,119.3,M,76.7,N,142.0,K,A*12
$GPDTM,P90,,0000.000022,S,00000.000001,W,0.988,W84*5A
$GPRMC,000653.10,A,3000.231170,N,12000.474256,E,76.7,119.3,230721,4.3,W,A*18
$GPGGA,000653.10,3000.231170,N,12000.474256,E,1,00,1.0,-7.6,M,7.0,M,,*77

$GPVTG,119.7,T,119.7,M,76.8,N,142.2,K,A*1F
$GPDTM,P90,,0000.000022,S,00000.000001,W,0.988,W84*5A
$GPRMC,000653.20,A,3000.230117,N,12000.476392,E,76.8,119.7,230721,4.3,W,A*1B
$GPGGA,000653.20,3000.230117,N,12000.476392,E,1,00,1.0,-7.6,M,7.0,M,,*7F

$GPVTG,120.1,T,120.1,M,76.9,N,142.4,K,A*18
$GPDTM,P90,,0000.000022,S,00000.000001,W,0.988,W84*5A
$GPRMC,000653.30,A,3000.229051,N,12000.478522,E,76.9,120.1,230721,4.3,W,A*1F
$GPGGA,000653.30,3000.229051,N,12000.478522,E,1,00,1.0,-7.6,M,7.0,M,,*76

$GPVTG,120.5,T,120.5,M,77.0,N,142.5,K,A*11
$GPDTM,P90,,0000.000022,S,00000.000001,W,0.988,W84*5A
$GPRMC,000653.40,A,3000.227970,N,12000.480646,E,77.0,120.5,230721,4.3,W,A*16
$GPGGA,000653.40,3000.227970,N,12000.480646,E,1,00,1.0,-7.6,M,7.0,M,,*73

$GPVTG,120.9,T,120.9,M,77.1,N,142.7,K,A*12
$GPDTM,P90,,0000.000022,S,00000.000001,W,0.988,W84*5A
$GPRMC,000653.50,A,3000.226876,N,12000.482765,E,77.1,120.9,230721,4.3,W,A*1E
$GPGGA,000653.50,3000.226876,N,12000.482765,E,1,00,1.0,-7.7,M,7.0,M,,*77

$GPVTG,121.3,T,121.3,M,77.2,N,142.9,K,A*1F
$GPDTM,P90,,0000.000022,S,00000.000001,W,0.988,W84*5A
$GPRMC,000653.60,A,3000.225767,N,12000.484879,E,77.2,121.3,230721,4.3,W,A*1D
$GPGGA,000653.60,3000.225767,N,12000.484879,E,1,00,1.0,-7.7,M,7.0,M,,*7C

$GPVTG,121.6,T,121.6,M,77.3,N,143.1,K,A*17
$GPDTM,P90,,0000.000022,S,00000.000001,W,0.988,W84*5A
$GPRMC,000653.70,A,3000.224645,N,12000.486986,E,77.3,121.6,230721,4.3,W,A*1B
$GPGGA,000653.70,3000.224645,N,12000.486986,E,1,00,1.0,-7.7,M,7.0,M,,*7E

$GPVTG,122.0,T,122.0,M,77.4,N,143.4,K,A*15
$GPDTM,P90,,0000.000022,S,00000.000001,W,0.988,W84*5A
$GPRMC,000653.80,A,3000.223508,N,12000.489089,E,77.4,122.0,230721,4.3,W,A*12
$GPGGA,000653.80,3000.223508,N,12000.489089,E,1,00,1.0,-7.7,M,7.0,M,,*75

$GPVTG,122.4,T,122.4,M,77.5,N,143.6,K,A*16
$GPDTM,P90,,0000.000022,S,00000.000001,W,0.988,W84*5A
$GPRMC,000653.90,A,3000.222358,N,12000.491185,E,77.5,122.4,230721,4.3,W,A*10
$GPGGA,000653.90,3000.222358,N,12000.491185,E,1,00,1.0,-7.7,M,7.0,M,,*72

$GPGSV,3,1,12,02,32,295,26,04,49,241,26,07,83,084,27,08,49,208,27*74
$GPGSV,3,2,12,13,47,033,27,20,19,122,26,23,24,059,27,25,63,039,27*73
$GPGSV,3,3,12,27,19,219,27,10,01,310,,16,00,000,,28,00,000,*77
$GLGSV,1,1,01,71,02,080,*58
$GAGSV,2,1,08,09,14,316,,10,65,333,,11,53,119,,12,04,130,*60
$GAGSV,2,2,08,17,28,039,,23,39,223,,24,82,016,,27,27,127,*61
$PQGSV,1,1,0,0*43
$PQGSV,1,1,0,0*43
$GPGSA,A,3,02,04,07,08,13,20,23,25,27,,,,1.3,1.0,0.8*33
$GPVTG,124.3,T,124.3,M,74.8,N,138.5,K,A*17
$GPDTM,P90,,0000.000022,S,00000.000001,W,0.988,W84*5A
$GPRMC,000654.00,A,3000.221513,N,12000.491865,E,74.8,124.3,230721,4.3,W,A*1C
$GPGGA,000654.00,3000.221513,N,12000.491865,E,1,09,1.0,-7.7,M,7.0,M,,*78

$GPVTG,124.7,T,124.7,M,74.7,N,138.4,K,A*19
$GPDTM,P90,,0000.000022,S,00000.000001,W,0.988,W84*5A
$GPRMC,000654.10,A,3000.220334,N,12000.493836,E,74.7,124.7,230721,4.3,W,A*10
$GPGGA,000654.10,3000.220334,N,12000.493836,E,1,00,1.0,-7.7,M,7.0,M,,*76

$GPVTG,125.2,T,125.2,M,74.7,N,138.4,K,A*19
$GPDTM,P90,,0000.000022,S,00000.000001,W,0.988,W84*5A
$GPRMC,000654.20,A,3000.219141,N,12000.495795,E,74.7,125.2,230721,4.3,W,A*1D
$GPGGA,000654.20,3000.219141,N,12000.495795,E,1,00,1.0,-7.6,M,7.0,M,,*7E

$GPVTG,125.7,T,125.7,M,74.7,N,138.3,K,A*1E
$GPDTM,P90,,0000.000022,S,00000.000001,W,0.988,W84*5A
$GPRMC,000654.30,A,3000.217934,N,12000.497741,E,74.7,125.7,230721,4.3,W,A*16
$GPGGA,000654.30,3000.217934,N,12000.497741,E,1,00,1.0,-7.6,M,7.0,M,,*70

$GPVTG,126.2,T,126.2,M,74.7,N,138.3,K,A*1E
$GPDTM,P90,,0000.000022,S,00000.000001,W,0.988,W84*5A
$GPRMC,000654.40,A,3000.216713,N,12000.499675,E,74.7,126.2,230721,4.3,W,A*15
$GPGGA,000654.40,3000.216713,N,12000.499675,E,1,00,1.0,-7.5,M,7.0,M,,*76

$GPVTG,126.7,T,126.7,M,74.7,N,138.3,K,A*1E
$GPDTM,P90,,0000.000022,S,00000.000001,W,0.988,W84*5A
$GPRMC,000654.50,A,3000.215478,N,12000.501596,E,74.7,126.7,230721,4.3,W,A*12
$GPGGA,000654.50,3000.215478,N,12000.501596,E,1,00,1.0,-7.5,M,7.0,M,,*74

$GPVTG,127.2,T,127.2,M,74.6,N,138.2,K,A*1E
$GPDTM,P90,,0000.000022,S,00000.000001,W,0.988,W84*5A
$GPRMC,000654.60,A,3000.214229,N,12000.503505,E,74.6,127.2,230721,4.3,W,A*1F
$GPGGA,000654.60,3000.214229,N,12000.503505,E,1,00,1.0,-7.4,M,7.0,M,,*7D

$GPVTG,127.7,T,127.7,M,74.6,N,138.2,K,A*1E
$GPDTM,P90,,0000.000022,S,00000.000001,W,0.988,W84*5A
$GPRMC,000654.70,A,3000.212966,N,12000.505401,E,74.6,127.7,230721,4.3,W,A*1E
$GPGGA,000654.70,3000.212966,N,12000.505401,E,1,00,1.0,-7.4,M,7.0,M,,*79

$GPVTG,128.2,T,128.2,M,74.6,N,138.2,K,A*1E
$GPDTM,P90,,0000.000022,S,00000.000001,W,0.988,W84*5A
$GPRMC,000654.80,A,3000.211690,N,12000.507285,E,74.6,128.2,230721,4.3,W,A*16
$GPGGA,000654.80,3000.211690,N,12000.507285,E,1,00,1.0,-7.3,M,7.0,M,,*7C

$GPVTG,128.6,T,128.6,M,74.6,N,138.2,K,A*1E
$GPDTM,P90,,0000.000022,S,00000.000001,W,0.988,W84*5A
$GPRMC,000654.90,A,3000.210398,N,12000.509157,E,74.6,128.6,230721,4.3,W,A*1D
$GPGGA,000654.90,3000.210398,N,12000.509157,E,1,00,1.0,-7.3,M,7.0,M,,*73

$GPGSV,3,1,12,02,32,295,27,04,49,241,25,07,83,084,26,08,49,208,26*76
$GPGSV,3,2,12,13,47,033,27,20,19,122,27,23,24,059,26,25,63,039,27*73
$GPGSV,3,3,12,27,19,219,25,10,01,310,,16,00,000,,28,00,000,*75
$GLGSV,1,1,01,71,02,080,*58
$GAGSV,2,1,08,09,14,316,,10,65,333,,11,53,119,,12,04,130,*60
$GAGSV,2,2,08,17,28,039,,23,39,223,,24,82,016,,27,27,127,*61
$PQGSV,1,1,0,0*43
$PQGSV,1,1,0,0*43
$GPGSA,A,3,02,04,07,08,13,20,23,25,27,,,,1.3,1.0,0.8*33
$GPVTG,128.2,T,128.2,M,75.2,N,139.2,K,A*1A
$GPDTM,P90,,0000.000022,S,00000.000001,W,0.988,W84*5A
$GPRMC,000655.00,A,3000.209028,N,12000.511162,E,75.2,128.2,230721,4.3,W,A*1B
$GPGGA,000655.00,3000.209028,N,12000.511162,E,1,09,1.0,-6.6,M,7.0,M,,*79

$GPVTG,128.6,T,128.6,M,75.2,N,139.3,K,A*1B
$GPDTM,P90,,0000.000022,S,00000.000001,W,0.988,W84*5A
$GPRMC,000655.10,A,3000.207728,N,12000.513049,E,75.2,128.6,230721,4.3,W,A*1D
$GPGGA,000655.10,3000.207728,N,12000.513049,E,1,00,1.0,-6.6,M,7.0,M,,*72

$GPVTG,129.0,T,129.0,M,75.3,N,139.4,K,A*1D
$GPDTM,P90,,0000.000022,S,00000.000001,W,0.988,W84*5A
$GPRMC,000655.20,A,3000.206416,N,12000.514925,E,75.3,129.0,230721,4.3,W,A*13
$GPGGA,000655.20,3000.206416,N,12000.514925,E,1,00,1.0,-6.5,M,7.0,M,,*79
$GPVTG,129.4,T,129.4,M,75.3,N,139.5,K,A*1C
$GPDTM,P90,,0000.000022,S,00000.000001,W,0.988,W84*5A
$GPRMC,000655.30,A,3000.205090,N,12000.516791,E,75.3,129.4,230721,4.3,W,A*1C
$GPGGA,000655.30,3000.205090,N,12000.516791,E,1,00,1.0,-6.5,M,7.0,M,,*72

$GPVTG,129.9,T,129.9,M,75.4,N,139.6,K,A*18
$GPDTM,P90,,0000.000022,S,00000.000001,W,0.988,W84*5A
$GPRMC,000655.40,A,3000.203752,N,12000.518647,E,75.4,129.9,230721,4.3,W,A*1A
$GPGGA,000655.40,3000.203752,N,12000.518647,E,1,00,1.0,-6.4,M,7.0,M,,*7F

$GPVTG,130.3,T,130.3,M,75.4,N,139.7,K,A*19
$GPDTM,P90,,0000.000022,S,00000.000001,W,0.988,W84*5A
$GPRMC,000655.50,A,3000.202400,N,12000.520492,E,75.4,130.3,230721,4.3,W,A*1D
$GPGGA,000655.50,3000.202400,N,12000.520492,E,1,00,1.0,-6.4,M,7.0,M,,*7A

$GPVTG,130.7,T,130.7,M,75.5,N,139.8,K,A*17
$GPDTM,P90,,0000.000022,S,00000.000001,W,0.988,W84*5A
$GPRMC,000655.60,A,3000.201035,N,12000.522328,E,75.5,130.7,230721,4.3,W,A*1E
$GPGGA,000655.60,3000.201035,N,12000.522328,E,1,00,1.0,-6.3,M,7.0,M,,*7B

$GPVTG,131.1,T,131.1,M,75.6,N,139.9,K,A*15
$GPDTM,P90,,0000.000022,S,00000.000001,W,0.988,W84*5A
$GPRMC,000655.70,A,3000.199658,N,12000.524154,E,75.6,131.1,230721,4.3,W,A*1B
$GPGGA,000655.70,3000.199658,N,12000.524154,E,1,00,1.0,-6.3,M,7.0,M,,*7A

$GPVTG,131.5,T,131.5,M,75.6,N,140.1,K,A*13
$GPDTM,P90,,0000.000022,S,00000.000001,W,0.988,W84*5A
$GPRMC,000655.80,A,3000.198268,N,12000.525970,E,75.6,131.5,230721,4.3,W,A*19
$GPGGA,000655.80,3000.198268,N,12000.525970,E,1,00,1.0,-6.2,M,7.0,M,,*7D

$GPVTG,132.0,T,132.0,M,75.7,N,140.2,K,A*11
$GPDTM,P90,,0000.000022,S,00000.000001,W,0.988,W84*5A
$GPRMC,000655.90,A,3000.196865,N,12000.527776,E,75.7,132.0,230721,4.3,W,A*1C
$GPGGA,000655.90,3000.196865,N,12000.527776,E,1,00,1.0,-6.2,M,7.0,M,,*7F

$GPGSV,3,1,12,02,32,295,27,04,49,241,27,07,83,084,27,08,49,208,27*74
$GPGSV,3,2,12,13,47,033,26,20,19,122,26,23,24,059,26,25,63,039,26*72
$GPGSV,3,3,12,27,19,219,27,10,01,310,,16,00,000,,28,00,000,*77
$GLGSV,1,1,01,71,02,080,*58
$GAGSV,2,1,08,09,14,316,,10,65,333,,11,53,119,,12,04,130,*60
$GAGSV,2,2,08,17,28,039,,23,39,223,,24,82,016,,27,27,127,*61
$PQGSV,1,1,0,0*43
$PQGSV,1,1,0,0*43
$GPGSA,A,3,02,04,07,08,13,20,23,25,27,,,,1.3,1.0,0.8*33
$GPVTG,132.9,T,132.9,M,75.0,N,138.9,K,A*12
$GPDTM,P90,,0000.000022,S,00000.000001,W,0.988,W84*5A
$GPRMC,000656.00,A,3000.195446,N,12000.528122,E,75.0,132.9,230721,4.3,W,A*1E
$GPGGA,000656.00,3000.195446,N,12000.528122,E,1,09,1.0,-6.5,M,7.0,M,,*7D

$GPVTG,133.3,T,133.3,M,75.0,N,139.0,K,A*1A
$GPDTM,P90,,0000.000022,S,00000.000001,W,0.988,W84*5A
$GPRMC,000656.10,A,3000.194018,N,12000.529875,E,75.0,133.3,230721,4.3,W,A*10
$GPGGA,000656.10,3000.194018,N,12000.529875,E,1,00,1.0,-6.5,M,7.0,M,,*71

$GPVTG,133.8,T,133.8,M,75.1,N,139.0,K,A*1B
$GPDTM,P90,,0000.000022,S,00000.000001,W,0.988,W84*5A
$GPRMC,000656.20,A,3000.192579,N,12000.531615,E,75.1,133.8,230721,4.3,W,A*1C
$GPGGA,000656.20,3000.192579,N,12000.531615,E,1,00,1.0,-6.4,M,7.0,M,,*76

$GPVTG,134.2,T,134.2,M,75.1,N,139.1,K,A*1A
$GPDTM,P90,,0000.000022,S,00000.000001,W,0.988,W84*5A
$GPRMC,000656.30,A,3000.191126,N,12000.533343,E,75.1,134.2,230721,4.3,W,A*19
$GPGGA,000656.30,3000.191126,N,12000.533343,E,1,00,1.0,-6.4,M,7.0,M,,*7E

$GPVTG,134.7,T,134.7,M,75.2,N,139.2,K,A*1A
$GPDTM,P90,,0000.000022,S,00000.000001,W,0.988,W84*5A
$GPRMC,000656.40,A,3000.189661,N,12000.535058,E,75.2,134.7,230721,4.3,W,A*1A
$GPGGA,000656.40,3000.189661,N,12000.535058,E,1,00,1.0,-6.4,M,7.0,M,,*7B

$GPVTG,135.1,T,135.1,M,75.2,N,139.3,K,A*1B
$GPDTM,P90,,0000.000022,S,00000.000001,W,0.988,W84*5A
$GPRMC,000656.50,A,3000.188182,N,12000.536762,E,75.2,135.1,230721,4.3,W,A*1A
$GPGGA,000656.50,3000.188182,N,12000.536762,E,1,00,1.0,-6.4,M,7.0,M,,*7C

$GPVTG,135.6,T,135.6,M,75.3,N,139.4,K,A*1D
$GPDTM,P90,,0000.000022,S,00000.000001,W,0.988,W84*5A
$GPRMC,000656.60,A,3000.186691,N,12000.538454,E,75.3,135.6,230721,4.3,W,A*1C
$GPGGA,000656.60,3000.186691,N,12000.538454,E,1,00,1.0,-6.4,M,7.0,M,,*7C

$GPVTG,136.0,T,136.0,M,75.4,N,139.5,K,A*1B
$GPDTM,P90,,0000.000022,S,00000.000001,W,0.988,W84*5A
$GPRMC,000656.70,A,3000.185188,N,12000.540133,E,75.4,136.0,230721,4.3,W,A*18
$GPGGA,000656.70,3000.185188,N,12000.540133,E,1,00,1.0,-6.4,M,7.0,M,,*7A

$GPVTG,136.5,T,136.5,M,75.4,N,139.7,K,A*19
$GPDTM,P90,,0000.000022,S,00000.000001,W,0.988,W84*5A
$GPRMC,000656.80,A,3000.183671,N,12000.541801,E,75.4,136.5,230721,4.3,W,A*1C
$GPGGA,000656.80,3000.183671,N,12000.541801,E,1,00,1.0,-6.4,M,7.0,M,,*7B

$GPVTG,136.9,T,136.9,M,75.5,N,139.8,K,A*17
$GPDTM,P90,,0000.000022,S,00000.000001,W,0.988,W84*5A
$GPRMC,000656.90,A,3000.182141,N,12000.543456,E,75.5,136.9,230721,4.3,W,A*19
$GPGGA,000656.90,3000.182141,N,12000.543456,E,1,00,1.0,-6.4,M,7.0,M,,*73

$GPGSV,3,1,12,02,32,295,27,04,49,241,26,07,83,084,26,08,49,208,27*74
$GPGSV,3,2,12,13,47,033,26,20,19,122,26,23,24,059,26,25,63,039,27*73
$GPGSV,3,3,12,27,19,219,27,10,01,310,,16,00,000,,28,00,000,*77
$GLGSV,1,1,01,71,02,080,*58
$GAGSV,2,1,08,09,14,316,,10,65,333,,11,53,119,,12,04,130,*60
$GAGSV,2,2,08,17,28,039,,23,39,223,,24,82,016,,27,27,127,*61
$PQGSV,1,1,0,0*43
$PQGSV,1,1,0,0*43
$GPGSA,A,3,02,04,07,08,13,20,23,25,27,,,,1.3,1.0,0.8*33
$GPVTG,137.7,T,137.7,M,76.7,N,142.1,K,A*13
$GPDTM,P90,,0000.000022,S,00000.000001,W,0.988,W84*5A
$GPRMC,000657.00,A,3000.179766,N,12000.545585,E,76.7,137.7,230721,4.3,W,A*11
$GPGGA,000657.00,3000.179766,N,12000.545585,E,1,09,1.0,-6.5,M,7.0,M,,*7D

$GPVTG,138.1,T,138.1,M,76.9,N,142.4,K,A*18
$GPDTM,P90,,0000.000022,S,00000.000001,W,0.988,W84*5A
$GPRMC,000657.10,A,3000.178180,N,12000.547232,E,76.9,138.1,230721,4.3,W,A*11
$GPGGA,000657.10,3000.178180,N,12000.547232,E,1,00,1.0,-6.4,M,7.0,M,,*72

$GPVTG,138.6,T,138.6,M,77.0,N,142.7,K,A*13
$GPDTM,P90,,0000.000022,S,00000.000001,W,0.988,W84*5A
$GPRMC,000657.20,A,3000.176578,N,12000.548868,E,77.0,138.6,230721,4.3,W,A*1A
$GPGGA,000657.20,3000.176578,N,12000.548868,E,1,00,1.0,-6.4,M,7.0,M,,*76

$GPVTG,139.0,T,139.0,M,77.2,N,143.0,K,A*17
$GPDTM,P90,,0000.000022,S,00000.000001,W,0.988,W84*5A
$GPRMC,000657.30,A,3000.174962,N,12000.550493,E,77.2,139.0,230721,4.3,W,A*1A
$GPGGA,000657.30,3000.174962,N,12000.550493,E,1,00,1.0,-6.4,M,7.0,M,,*73
$GPVTG,139.5,T,139.5,M,77.4,N,143.3,K,A*12
$GPDTM,P90,,0000.000022,S,00000.000001,W,0.988,W84*5A
$GPRMC,000657.40,A,3000.173332,N,12000.552107,E,77.4,139.5,230721,4.3,W,A*1C
$GPGGA,000657.40,3000.173332,N,12000.552107,E,1,00,1.0,-6.3,M,7.0,M,,*71

$GPVTG,139.9,T,139.9,M,77.6,N,143.6,K,A*15
$GPDTM,P90,,0000.000022,S,00000.000001,W,0.988,W84*5A
$GPRMC,000657.50,A,3000.171686,N,12000.553710,E,77.6,139.9,230721,4.3,W,A*1A
$GPGGA,000657.50,3000.171686,N,12000.553710,E,1,00,1.0,-6.3,M,7.0,M,,*79

$GPVTG,140.4,T,140.4,M,77.7,N,144.0,K,A*15
$GPDTM,P90,,0000.000022,S,00000.000001,W,0.988,W84*5A
$GPRMC,000657.60,A,3000.170026,N,12000.555302,E,77.7,140.4,230721,4.3,W,A*17
$GPGGA,000657.60,3000.170026,N,12000.555302,E,1,00,1.0,-6.3,M,7.0,M,,*76

$GPVTG,140.8,T,140.8,M,77.9,N,144.3,K,A*18
$GPDTM,P90,,0000.000022,S,00000.000001,W,0.988,W84*5A
$GPRMC,000657.70,A,3000.168352,N,12000.556883,E,77.9,140.8,230721,4.3,W,A*1C
$GPGGA,000657.70,3000.168352,N,12000.556883,E,1,00,1.0,-6.3,M,7.0,M,,*7F

$GPVTG,141.3,T,141.3,M,78.1,N,144.7,K,A*1B
$GPDTM,P90,,0000.000022,S,00000.000001,W,0.988,W84*5A
$GPRMC,000657.80,A,3000.166663,N,12000.558453,E,78.1,141.3,230721,4.3,W,A*18
$GPGGA,000657.80,3000.166663,N,12000.558453,E,1,00,1.0,-6.2,M,7.0,M,,*77

$GPVTG,141.7,T,141.7,M,78.3,N,145.1,K,A*1E
$GPDTM,P90,,0000.000022,S,00000.000001,W,0.988,W84*5A
$GPRMC,000657.90,A,3000.164958,N,12000.560011,E,78.3,141.7,230721,4.3,W,A*13
$GPGGA,000657.90,3000.164958,N,12000.560011,E,1,00,1.0,-6.2,M,7.0,M,,*7A

$GPGSV,3,1,12,02,32,295,27,04,49,241,27,07,83,084,26,08,49,208,26*74
$GPGSV,3,2,12,13,47,033,26,20,19,122,27,23,24,059,26,25,63,039,26*73
$GPGSV,3,3,12,27,19,219,27,10,01,310,,16,00,000,,28,00,000,*77
$GLGSV,1,1,01,71,02,080,*58
$GAGSV,2,1,08,09,14,316,,10,65,333,,11,53,119,,12,04,130,*60
$GAGSV,2,2,08,17,28,039,,23,39,223,,24,82,016,,27,27,127,*61
$PQGSV,1,1,0,0*43
$PQGSV,1,1,0,0*43
$GPGSA,A,3,02,04,07,08,13,20,23,25,27,,,,1.3,1.0,0.8*33
$GPVTG,142.1,T,142.1,M,74.9,N,138.6,K,A*15
$GPDTM,P90,,0000.000022,S,00000.000001,W,0.988,W84*5A
$GPRMC,000658.00,A,3000.163925,N,12000.560384,E,74.9,142.1,230721,4.3,W,A*14
$GPGGA,000658.00,3000.163925,N,12000.560384,E,1,09,1.0,-8.5,M,7.0,M,,*7E

$GPVTG,142.6,T,142.6,M,74.8,N,138.6,K,A*14
$GPDTM,P90,,0000.000022,S,00000.000001,W,0.988,W84*5A
$GPRMC,000658.10,A,3000.162274,N,12000.561847,E,74.8,142.6,230721,4.3,W,A*18
$GPGGA,000658.10,3000.162274,N,12000.561847,E,1,00,1.0,-8.6,M,7.0,M,,*7E

$GPVTG,143.1,T,143.1,M,74.8,N,138.6,K,A*14
$GPDTM,P90,,0000.000022,S,00000.000001,W,0.988,W84*5A
$GPRMC,000658.20,A,3000.160614,N,12000.563293,E,74.8,143.1,230721,4.3,W,A*1C
$GPGGA,000658.20,3000.160614,N,12000.563293,E,1,00,1.0,-8.7,M,7.0,M,,*7D

$GPVTG,143.5,T,143.5,M,74.8,N,138.6,K,A*14
$GPDTM,P90,,0000.000022,S,00000.000001,W,0.988,W84*5A
$GPRMC,000658.30,A,3000.158944,N,12000.564724,E,74.8,143.5,230721,4.3,W,A*16
$GPGGA,000658.30,3000.158944,N,12000.564724,E,1,00,1.0,-8.7,M,7.0,M,,*73

$GPVTG,144.0,T,144.0,M,74.8,N,138.5,K,A*17
$GPDTM,P90,,0000.000022,S,00000.000001,W,0.988,W84*5A
$GPRMC,000658.40,A,3000.157264,N,12000.566138,E,74.8,144.0,230721,4.3,W,A*1C
$GPGGA,000658.40,3000.157264,N,12000.566138,E,1,00,1.0,-8.8,M,7.0,M,,*74

$GPVTG,144.4,T,144.4,M,74.8,N,138.5,K,A*17
$GPDTM,P90,,0000.000022,S,00000.000001,W,0.988,W84*5A
$GPRMC,000658.50,A,3000.155574,N,12000.567538,E,74.8,144.4,230721,4.3,W,A*18
$GPGGA,000658.50,3000.155574,N,12000.567538,E,1,00,1.0,-8.9,M,7.0,M,,*75

$GPVTG,144.9,T,144.9,M,74.8,N,138.6,K,A*14
$GPDTM,P90,,0000.000022,S,00000.000001,W,0.988,W84*5A
$GPRMC,000658.60,A,3000.153875,N,12000.568922,E,74.8,144.9,230721,4.3,W,A*14
$GPGGA,000658.60,3000.153875,N,12000.568922,E,1,00,1.0,-9.0,M,7.0,M,,*7C

$GPVTG,145.4,T,145.4,M,74.8,N,138.6,K,A*14
$GPDTM,P90,,0000.000022,S,00000.000001,W,0.988,W84*5A
$GPRMC,000658.70,A,3000.152165,N,12000.570291,E,74.8,145.4,230721,4.3,W,A*1A
$GPGGA,000658.70,3000.152165,N,12000.570291,E,1,00,1.0,-9.1,M,7.0,M,,*7F

$GPVTG,145.8,T,145.8,M,74.8,N,138.6,K,A*14
$GPDTM,P90,,0000.000022,S,00000.000001,W,0.988,W84*5A
$GPRMC,000658.80,A,3000.150447,N,12000.571644,E,74.8,145.8,230721,4.3,W,A*13
$GPGGA,000658.80,3000.150447,N,12000.571644,E,1,00,1.0,-9.2,M,7.0,M,,*79

$GPVTG,146.3,T,146.3,M,74.9,N,138.6,K,A*15
$GPDTM,P90,,0000.000022,S,00000.000001,W,0.988,W84*5A
$GPRMC,000658.90,A,3000.148718,N,12000.572981,E,74.9,146.3,230721,4.3,W,A*1E
$GPGGA,000658.90,3000.148718,N,12000.572981,E,1,00,1.0,-9.3,M,7.0,M,,*7C

$GPGSV,3,1,12,02,32,295,26,04,49,241,26,07,83,084,27,08,49,208,26*75
$GPGSV,3,2,12,13,47,033,26,20,19,122,26,23,24,059,26,25,63,039,27*73
$GPGSV,3,3,12,27,19,219,26,10,01,310,,16,00,000,,28,00,000,*76
$GLGSV,1,1,01,71,02,080,*58
$GAGSV,2,1,08,09,14,316,,10,65,333,,11,53,119,,12,04,130,*60
$GAGSV,2,2,08,17,28,039,,23,39,223,,24,82,016,,27,27,127,*61
$PQGSV,1,1,0,0*43
$PQGSV,1,1,0,0*43
$GPGSA,A,3,02,04,07,08,13,20,23,25,27,,,,1.3,1.0,0.8*33
$GPVTG,146.6,T,146.6,M,75.5,N,139.8,K,A*17
$GPDTM,P90,,0000.000022,S,00000.000001,W,0.988,W84*5A
$GPRMC,000659.00,A,3000.147161,N,12000.573803,E,75.5,146.6,230721,4.3,W,A*13
$GPGGA,000659.00,3000.147161,N,12000.573803,E,1,09,1.0,-9.3,M,7.0,M,,*70

$GPVTG,147.0,T,147.0,M,75.5,N,139.9,K,A*16
$GPDTM,P90,,0000.000022,S,00000.000001,W,0.988,W84*5A
$GPRMC,000659.10,A,3000.145403,N,12000.575126,E,75.5,147.0,230721,4.3,W,A*1E
$GPGGA,000659.10,3000.145403,N,12000.575126,E,1,00,1.0,-9.3,M,7.0,M,,*73

$GPVTG,147.4,T,147.4,M,75.6,N,140.0,K,A*12
$GPDTM,P90,,0000.000022,S,00000.000001,W,0.988,W84*5A
$GPRMC,000659.20,A,3000.143633,N,12000.576434,E,75.6,147.4,230721,4.3,W,A*18
$GPGGA,000659.20,3000.143633,N,12000.576434,E,1,00,1.0,-9.3,M,7.0,M,,*72

$GPVTG,147.9,T,147.9,M,75.7,N,140.1,K,A*12
$GPDTM,P90,,0000.000022,S,00000.000001,W,0.988,W84*5A
$GPRMC,000659.30,A,3000.141854,N,12000.577728,E,75.7,147.9,230721,4.3,W,A*17
$GPGGA,000659.30,3000.141854,N,12000.577728,E,1,00,1.0,-9.3,M,7.0,M,,*71

$GPVTG,148.3,T,148.3,M,75.7,N,140.3,K,A*10
$GPDTM,P90,,0000.000022,S,00000.000001,W,0.988,W84*5A
$GPRMC,000659.40,A,3000.140063,N,12000.579008,E,75.7,148.3,230721,4.3,W,A*13
$GPGGA,000659.40,3000.140063,N,12000.579008,E,1,00,1.0,-9.2,M,7.0,M,,*71

$GPVTG,148.8,T,148.8,M,75.8,N,140.4,K,A*18
$GPDTM,P90,,0000.000022,S,00000.000001,W,0.988,W84*5A
$GPRMC,000659.50,A,3000.138263,N,12000.580273,E,75.8,148.8,230721,4.3,W,A*13
$GPGGA,000659.50,3000.138263,N,12000.580273,E,1,00,1.0,-9.2,M,7.0,M,,*75
$GPVTG,149.2,T,149.2,M,75.9,N,140.6,K,A*1B
$GPDTM,P90,,0000.000022,S,00000.000001,W,0.988,W84*5A
$GPRMC,000659.60,A,3000.136453,N,12000.581523,E,75.9,149.2,230721,4.3,W,A*12
$GPGGA,000659.60,3000.136453,N,12000.581523,E,1,00,1.0,-9.2,M,7.0,M,,*7E

$GPVTG,149.7,T,149.7,M,76.0,N,140.8,K,A*1F
$GPDTM,P90,,0000.000022,S,00000.000001,W,0.988,W84*5A
$GPRMC,000659.70,A,3000.134632,N,12000.582759,E,76.0,149.7,230721,4.3,W,A*17
$GPGGA,000659.70,3000.134632,N,12000.582759,E,1,00,1.0,-9.2,M,7.0,M,,*74

$GPVTG,150.1,T,150.1,M,76.1,N,140.9,K,A*1F
$GPDTM,P90,,0000.000022,S,00000.000001,W,0.988,W84*5A
$GPRMC,000659.80,A,3000.132800,N,12000.583980,E,76.1,150.1,230721,4.3,W,A*15
$GPGGA,000659.80,3000.132800,N,12000.583980,E,1,00,1.0,-9.2,M,7.0,M,,*79

$GPVTG,150.5,T,150.5,M,76.2,N,141.1,K,A*15
$GPDTM,P90,,0000.000022,S,00000.000001,W,0.988,W84*5A
$GPRMC,000659.90,A,3000.130958,N,12000.585187,E,76.2,150.5,230721,4.3,W,A*14
$GPGGA,000659.90,3000.130958,N,12000.585187,E,1,00,1.0,-9.2,M,7.0,M,,*7F

$GPGSV,3,1,12,02,32,295,26,04,49,241,27,07,83,084,27,08,49,208,27*75
$GPGSV,3,2,12,13,47,033,27,20,19,122,27,23,24,059,26,25,63,039,26*72
$GPGSV,3,3,12,27,19,219,26,10,01,310,,16,00,000,,28,00,000,*76
$GLGSV,1,1,01,71,02,080,*58
$GAGSV,2,1,08,09,14,316,,10,65,333,,11,53,119,,12,04,130,*60
$GAGSV,2,2,08,17,28,039,,23,39,223,,24,82,016,,27,27,127,*61
$PQGSV,1,1,0,0*43
$PQGSV,1,1,0,0*43
$GPGSA,A,3,02,04,07,08,13,20,23,25,27,,,,1.3,1.0,0.8*33
$GPVTG,150.9,T,150.9,M,75.6,N,140.0,K,A*12
$GPDTM,P90,,0000.000022,S,00000.000001,W,0.988,W84*5A
$GPRMC,000700.00,A,3000.129352,N,12000.586006,E,75.6,150.9,230721,4.3,W,A*18
$GPGGA,000700.00,3000.129352,N,12000.586006,E,1,09,1.0,-9.6,M,7.0,M,,*75

$GPVTG,151.4,T,151.4,M,75.7,N,140.1,K,A*12
$GPDTM,P90,,0000.000022,S,00000.000001,W,0.988,W84*5A
$GPRMC,000700.10,A,3000.127508,N,12000.587173,E,75.7,151.4,230721,4.3,W,A*11
$GPGGA,000700.10,3000.127508,N,12000.587173,E,1,00,1.0,-9.6,M,7.0,M,,*78

$GPVTG,151.8,T,151.8,M,75.7,N,140.2,K,A*11
$GPDTM,P90,,0000.000022,S,00000.000001,W,0.988,W84*5A
$GPRMC,000700.20,A,3000.125655,N,12000.588326,E,75.7,151.8,230721,4.3,W,A*1A
$GPGGA,000700.20,3000.125655,N,12000.588326,E,1,00,1.0,-9.7,M,7.0,M,,*7E

$GPVTG,152.2,T,152.2,M,75.8,N,140.4,K,A*18
$GPDTM,P90,,0000.000022,S,00000.000001,W,0.988,W84*5A
$GPRMC,000700.30,A,3000.123793,N,12000.589463,E,75.8,152.2,230721,4.3,W,A*17
$GPGGA,000700.30,3000.123793,N,12000.589463,E,1,00,1.0,-9.7,M,7.0,M,,*75

$GPVTG,152.7,T,152.7,M,75.9,N,140.5,K,A*18
$GPDTM,P90,,0000.000022,S,00000.000001,W,0.988,W84*5A
$GPRMC,000700.40,A,3000.121921,N,12000.590586,E,75.9,152.7,230721,4.3,W,A*13
$GPGGA,000700.40,3000.121921,N,12000.590586,E,1,00,1.0,-9.8,M,7.0,M,,*7A

$GPVTG,153.1,T,153.1,M,75.9,N,140.7,K,A*1A
$GPDTM,P90,,0000.000022,S,00000.000001,W,0.988,W84*5A
$GPRMC,000700.50,A,3000.120040,N,12000.591694,E,75.9,153.1,230721,4.3,W,A*1B
$GPGGA,000700.50,3000.120040,N,12000.591694,E,1,00,1.0,-9.8,M,7.0,M,,*75

$GPVTG,153.5,T,153.5,M,76.0,N,140.8,K,A*1F
$GPDTM,P90,,0000.000022,S,00000.000001,W,0.988,W84*5A
$GPRMC,000700.60,A,3000.118150,N,12000.592786,E,76.0,153.5,230721,4.3,W,A*1C
$GPGGA,000700.60,3000.118150,N,12000.592786,E,1,00,1.0,-9.9,M,7.0,M,,*7D

$GPVTG,153.9,T,153.9,M,76.1,N,141.0,K,A*17
$GPDTM,P90,,0000.000022,S,00000.000001,W,0.988,W84*5A
$GPRMC,000700.70,A,3000.116249,N,12000.593863,E,76.1,153.9,230721,4.3,W,A*10
$GPGGA,000700.70,3000.116249,N,12000.593863,E,1,00,1.0,-9.9,M,7.0,M,,*7C

$GPVTG,154.4,T,154.4,M,76.2,N,141.2,K,A*16
$GPDTM,P90,,0000.000022,S,00000.000001,W,0.988,W84*5A
$GPRMC,000700.80,A,3000.114341,N,12000.594925,E,76.2,154.4,230721,4.3,W,A*19
$GPGGA,000700.80,3000.114341,N,12000.594925,E,1,00,1.0,-10.0,M,7.0,M,,*4D

$GPVTG,154.8,T,154.8,M,76.3,N,141.3,K,A*16
$GPDTM,P90,,0000.000022,S,00000.000001,W,0.988,W84*5A
$GPRMC,000700.90,A,3000.112423,N,12000.595972,E,76.3,154.8,230721,4.3,W,A*13
$GPGGA,000700.90,3000.112423,N,12000.595972,E,1,00,1.0,-10.0,M,7.0,M,,*4A

$GPGSV,3,1,12,02,32,295,26,04,49,241,27,07,83,084,27,08,49,208,26*74
$GPGSV,3,2,12,13,47,033,27,20,19,122,27,23,24,059,26,25,63,039,26*72
$GPGSV,3,3,12,27,19,219,26,10,01,310,,16,00,000,,28,00,000,*76
$GLGSV,1,1,01,71,02,080,*58
$GAGSV,2,1,08,09,14,316,,10,65,333,,11,53,119,,12,04,130,*60
$GAGSV,2,2,08,17,28,039,,23,39,223,,24,82,016,,27,27,127,*61
$PQGSV,1,1,0,0*43
$PQGSV,1,1,0,0*43
$GPGSA,A,3,02,04,07,08,13,20,23,25,27,,,,1.3,1.0,0.8*33
$GPVTG,155.8,T,155.8,M,76.4,N,141.6,K,A*14
$GPDTM,P90,,0000.000022,S,00000.000001,W,0.988,W84*5A
$GPRMC,000701.00,A,3000.110098,N,12000.596003,E,76.4,155.8,230721,4.3,W,A*17
$GPGGA,000701.00,3000.110098,N,12000.596003,E,1,09,1.0,-10.3,M,7.0,M,,*42

$GPVTG,156.2,T,156.2,M,76.6,N,141.8,K,A*18
$GPDTM,P90,,0000.000022,S,00000.000001,W,0.988,W84*5A
$GPRMC,000701.10,A,3000.108151,N,12000.596999,E,76.6,156.2,230721,4.3,W,A*1A
$GPGGA,000701.10,3000.108151,N,12000.596999,E,1,00,1.0,-10.4,M,7.0,M,,*4A

$GPVTG,156.7,T,156.7,M,76.7,N,142.0,K,A*12
$GPDTM,P90,,0000.000022,S,00000.000001,W,0.988,W84*5A
$GPRMC,000701.20,A,3000.106196,N,12000.597979,E,76.7,156.7,230721,4.3,W,A*17
$GPGGA,000701.20,3000.106196,N,12000.597979,E,1,00,1.0,-10.4,M,7.0,M,,*43

$GPVTG,157.1,T,157.1,M,76.8,N,142.2,K,A*1F
$GPDTM,P90,,0000.000022,S,00000.000001,W,0.988,W84*5A
$GPRMC,000701.30,A,3000.104230,N,12000.598942,E,76.8,157.1,230721,4.3,W,A*14
$GPGGA,000701.30,3000.104230,N,12000.598942,E,1,00,1.0,-10.4,M,7.0,M,,*48

$GPVTG,157.6,T,157.6,M,76.9,N,142.5,K,A*19
$GPDTM,P90,,0000.000022,S,00000.000001,W,0.988,W84*5A
$GPRMC,000701.40,A,3000.102254,N,12000.599888,E,76.9,157.6,230721,4.3,W,A*17
$GPGGA,000701.40,3000.102254,N,12000.599888,E,1,00,1.0,-10.4,M,7.0,M,,*4D

$GPVTG,158.0,T,158.0,M,77.1,N,142.7,K,A*12
$GPDTM,P90,,0000.000022,S,00000.000001,W,0.988,W84*5A
$GPRMC,000701.50,A,3000.100269,N,12000.600819,E,77.1,158.0,230721,4.3,W,A*11
$GPGGA,000701.50,3000.100269,N,12000.600819,E,1,00,1.0,-10.4,M,7.0,M,,*4B
$GPVTG,158.5,T,158.5,M,77.2,N,143.0,K,A*17
$GPDTM,P90,,0000.000022,S,00000.000001,W,0.988,W84*5A
$GPRMC,000701.60,A,3000.098274,N,12000.601733,E,77.2,158.5,230721,4.3,W,A*1E
$GPGGA,000701.60,3000.098274,N,12000.601733,E,1,00,1.0,-10.4,M,7.0,M,,*42

$GPVTG,158.9,T,158.9,M,77.4,N,143.3,K,A*12
$GPDTM,P90,,0000.000022,S,00000.000001,W,0.988,W84*5A
$GPRMC,000701.70,A,3000.096269,N,12000.602630,E,77.4,158.9,230721,4.3,W,A*16
$GPGGA,000701.70,3000.096269,N,12000.602630,E,1,00,1.0,-10.4,M,7.0,M,,*40

$GPVTG,159.4,T,159.4,M,77.5,N,143.5,K,A*15
$GPDTM,P90,,0000.000022,S,00000.000001,W,0.988,W84*5A
$GPRMC,000701.80,A,3000.094254,N,12000.603511,E,77.5,159.4,230721,4.3,W,A*19
$GPGGA,000701.80,3000.094254,N,12000.603511,E,1,00,1.0,-10.4,M,7.0,M,,*42

$GPVTG,159.8,T,159.8,M,77.7,N,143.8,K,A*1A
$GPDTM,P90,,0000.000022,S,00000.000001,W,0.988,W84*5A
$GPRMC,000701.90,A,3000.092229,N,12000.604376,E,77.7,159.8,230721,4.3,W,A*1A
$GPGGA,000701.90,3000.092229,N,12000.604376,E,1,00,1.0,-10.4,M,7.0,M,,*4F

$GPGSV,3,1,12,02,32,295,26,04,49,241,26,07,83,084,27,08,49,208,26*75
$GPGSV,3,2,12,13,47,033,26,20,19,122,26,23,24,059,27,25,63,039,26*73
$GPGSV,3,3,12,27,19,219,26,10,01,310,,16,00,000,,28,00,000,*76
$GLGSV,1,1,01,71,02,080,*58
$GAGSV,2,1,08,09,14,316,,10,65,333,,11,53,119,,12,04,130,*60
$GAGSV,2,2,08,17,28,039,,23,39,223,,24,82,016,,27,27,127,*61
$PQGSV,1,1,0,0*43
$PQGSV,1,1,0,0*43
$GPGSA,A,3,02,04,07,08,13,20,23,25,27,,,,1.3,1.0,0.8*33
$GPVTG,159.8,T,159.8,M,76.2,N,141.1,K,A*15
$GPDTM,P90,,0000.000022,S,00000.000001,W,0.988,W84*5A
$GPRMC,000702.00,A,3000.090518,N,12000.604967,E,76.2,159.8,230721,4.3,W,A*19
$GPGGA,000702.00,3000.090518,N,12000.604967,E,1,09,1.0,-10.1,M,7.0,M,,*44

$GPVTG,160.3,T,160.3,M,76.2,N,141.2,K,A*16
$GPDTM,P90,,0000.000022,S,00000.000001,W,0.988,W84*5A
$GPRMC,000702.10,A,3000.088524,N,12000.605798,E,76.2,160.3,230721,4.3,W,A*10
$GPGGA,000702.10,3000.088524,N,12000.605798,E,1,00,1.0,-10.1,M,7.0,M,,*45

$GPVTG,160.7,T,160.7,M,76.3,N,141.3,K,A*16
$GPDTM,P90,,0000.000022,S,00000.000001,W,0.988,W84*5A
$GPRMC,000702.20,A,3000.086522,N,12000.606613,E,76.3,160.7,230721,4.3,W,A*1F
$GPGGA,000702.20,3000.086522,N,12000.606613,E,1,00,1.0,-10.1,M,7.0,M,,*4F

$GPVTG,161.1,T,161.1,M,76.4,N,141.4,K,A*16
$GPDTM,P90,,0000.000022,S,00000.000001,W,0.988,W84*5A
$GPRMC,000702.30,A,3000.084514,N,12000.607412,E,76.4,161.1,230721,4.3,W,A*1B
$GPGGA,000702.30,3000.084514,N,12000.607412,E,1,00,1.0,-10.1,M,7.0,M,,*4B

$GPVTG,161.5,T,161.5,M,76.4,N,141.5,K,A*17
$GPDTM,P90,,0000.000022,S,00000.000001,W,0.988,W84*5A
$GPRMC,000702.40,A,3000.082499,N,12000.608195,E,76.4,161.5,230721,4.3,W,A*1F
$GPGGA,000702.40,3000.082499,N,12000.608195,E,1,00,1.0,-10.1,M,7.0,M,,*4B

$GPVTG,162.0,T,162.0,M,76.5,N,141.7,K,A*14
$GPDTM,P90,,0000.000022,S,00000.000001,W,0.988,W84*5A
$GPRMC,000702.50,A,3000.080477,N,12000.608961,E,76.5,162.0,230721,4.3,W,A*18
$GPGGA,000702.50,3000.080477,N,12000.608961,E,1,00,1.0,-10.2,M,7.0,M,,*48

$GPVTG,162.4,T,162.4,M,76.6,N,141.8,K,A*18
$GPDTM,P90,,0000.000022,S,00000.000001,W,0.988,W84*5A
$GPRMC,000702.60,A,3000.078448,N,12000.609710,E,76.6,162.4,230721,4.3,W,A*1E
$GPGGA,000702.60,3000.078448,N,12000.609710,E,1,00,1.0,-10.2,M,7.0,M,,*49

$GPVTG,162.8,T,162.8,M,76.7,N,142.0,K,A*12
$GPDTM,P90,,0000.000022,S,00000.000001,W,0.988,W84*5A
$GPRMC,000702.70,A,3000.076412,N,12000.610444,E,76.7,162.8,230721,4.3,W,A*19
$GPGGA,000702.70,3000.076412,N,12000.610444,E,1,00,1.0,-10.2,M,7.0,M,,*43

$GPVTG,163.2,T,163.2,M,76.8,N,142.1,K,A*1C
$GPDTM,P90,,0000.000022,S,00000.000001,W,0.988,W84*5A
$GPRMC,000702.80,A,3000.074369,N,12000.611161,E,76.8,163.2,230721,4.3,W,A*18
$GPGGA,000702.80,3000.074369,N,12000.611161,E,1,00,1.0,-10.2,M,7.0,M,,*46

$GPVTG,163.6,T,163.6,M,76.8,N,142.3,K,A*1E
$GPDTM,P90,,0000.000022,S,00000.000001,W,0.988,W84*5A
$GPRMC,000702.90,A,3000.072320,N,12000.611861,E,76.8,163.6,230721,4.3,W,A*1F
$GPGGA,000702.90,3000.072320,N,12000.611861,E,1,00,1.0,-10.2,M,7.0,M,,*45

$GPGSV,3,1,12,02,32,295,27,04,49,241,27,07,83,084,26,08,49,208,28*7A
$GPGSV,3,2,12,13,47,033,27,20,19,122,27,23,24,059,26,25,63,039,27*73
$GPGSV,3,3,12,27,19,219,26,10,01,310,,16,00,000,,28,00,000,*76
$GLGSV,1,1,01,71,02,080,*58
$GAGSV,2,1,08,09,14,316,,10,65,333,,11,53,119,,12,04,130,*60
$GAGSV,2,2,08,17,28,039,,23,39,223,,24,82,016,,27,27,127,*61
$PQGSV,1,1,0,0*43
$PQGSV,1,1,0,0*43
$GPGSA,A,3,02,04,07,08,13,20,23,25,27,,,,1.3,1.0,0.8*33
$GPVTG,164.8,T,164.8,M,75.7,N,140.1,K,A*12
$GPDTM,P90,,0000.000022,S,00000.000001,W,0.988,W84*5A
$GPRMC,000703.00,A,3000.070832,N,12000.611575,E,75.7,164.8,230721,4.3,W,A*10
$GPGGA,000703.00,3000.070832,N,12000.611575,E,1,09,1.0,-10.9,M,7.0,M,,*4D

$GPVTG,165.3,T,165.3,M,75.7,N,140.2,K,A*11
$GPDTM,P90,,0000.000022,S,00000.000001,W,0.988,W84*5A
$GPRMC,000703.10,A,3000.068797,N,12000.612200,E,75.7,165.3,230721,4.3,W,A*14
$GPGGA,000703.10,3000.068797,N,12000.612200,E,1,00,1.0,-10.9,M,7.0,M,,*4A

$GPVTG,165.7,T,165.7,M,75.7,N,140.2,K,A*11
$GPDTM,P90,,0000.000022,S,00000.000001,W,0.988,W84*5A
$GPRMC,000703.20,A,3000.066755,N,12000.612807,E,75.7,165.7,230721,4.3,W,A*1E
$GPGGA,000703.20,3000.066755,N,12000.612807,E,1,00,1.0,-10.9,M,7.0,M,,*44

$GPVTG,166.2,T,166.2,M,75.8,N,140.3,K,A*1F
$GPDTM,P90,,0000.000022,S,00000.000001,W,0.988,W84*5A
$GPRMC,000703.30,A,3000.064709,N,12000.613394,E,75.8,166.2,230721,4.3,W,A*1D
$GPGGA,000703.30,3000.064709,N,12000.613394,E,1,00,1.0,-10.9,M,7.0,M,,*4E

$GPVTG,166.7,T,166.7,M,75.8,N,140.4,K,A*18
$GPDTM,P90,,0000.000022,S,00000.000001,W,0.988,W84*5A
$GPRMC,000703.40,A,3000.062659,N,12000.613963,E,75.8,166.7,230721,4.3,W,A*1F
$GPGGA,000703.40,3000.062659,N,12000.613963,E,1,00,1.0,-10.9,M,7.0,M,,*49

$GPVTG,167.1,T,167.1,M,75.8,N,140.5,K,A*19
$GPDTM,P90,,0000.000022,S,00000.000001,W,0.988,W84*5A
$GPRMC,000703.50,A,3000.060602,N,12000.614513,E,75.8,167.1,230721,4.3,W,A*19
$GPGGA,000703.50,3000.060602,N,12000.614513,E,1,00,1.0,-10.8,M,7.0,M,,*49

$GPVTG,167.6,T,167.6,M,75.9,N,140.6,K,A*1B
$GPDTM,P90,,0000.000022,S,00000.000001,W,0.988,W84*5A
$GPRMC,000703.60,A,3000.058541,N,12000.615044,E,75.9,167.6,230721,4.3,W,A*15
$GPGGA,000703.60,3000.058541,N,12000.615044,E,1,00,1.0,-10.8,M,7.0,M,,*43
$GPVTG,168.1,T,168.1,M,76.0,N,140.7,K,A*10
$GPDTM,P90,,0000.000022,S,00000.000001,W,0.988,W84*5A
$GPRMC,000703.70,A,3000.056474,N,12000.615556,E,76.0,168.1,230721,4.3,W,A*19
$GPGGA,000703.70,3000.056474,N,12000.615556,E,1,00,1.0,-10.8,M,7.0,M,,*4D
$GPVTG,168.5,T,168.5,M,76.0,N,140.8,K,A*1F
$GPDTM,P90,,0000.000022,S,00000.000001,W,0.988,W84*5A
$GPRMC,000703.80,A,3000.054402,N,12000.616049,E,76.0,168.5,230721,4.3,W,A*19
$GPGGA,000703.80,3000.054402,N,12000.616049,E,1,00,1.0,-10.8,M,7.0,M,,*49

$GPVTG,169.0,T,169.0,M,76.1,N,140.9,K,A*1F
$GPDTM,P90,,0000.000022,S,00000.000001,W,0.988,W84*5A
$GPRMC,000703.90,A,3000.052325,N,12000.616523,E,76.1,169.0,230721,4.3,W,A*10
$GPGGA,000703.90,3000.052325,N,12000.616523,E,1,00,1.0,-10.7,M,7.0,M,,*4A

$GPGSV,3,1,12,02,32,295,26,04,49,241,27,07,83,084,26,08,49,208,26*75
$GPGSV,3,2,12,13,47,033,26,20,19,122,25,23,24,059,26,25,63,039,26*71
$GPGSV,3,3,12,27,19,219,26,10,01,310,,16,00,000,,28,00,000,*76
$GLGSV,1,1,01,71,02,080,*58
$GAGSV,2,1,08,09,14,316,,10,65,333,,11,53,119,,12,04,130,*60
$GAGSV,2,2,08,17,28,039,,23,39,223,,24,82,016,,27,27,127,*61
$PQGSV,1,1,0,0*43
$PQGSV,1,1,0,0*43
$GPGSA,A,3,02,04,07,08,13,20,23,25,27,,,,1.3,1.0,0.8*33
$GPVTG,168.9,T,168.9,M,75.6,N,140.0,K,A*12
$GPDTM,P90,,0000.000022,S,00000.000001,W,0.988,W84*5A
$GPRMC,000704.00,A,3000.050352,N,12000.616691,E,75.6,168.9,230721,4.3,W,A*1A
$GPGGA,000704.00,3000.050352,N,12000.616691,E,1,09,1.0,-11.2,M,7.0,M,,*41

$GPVTG,169.3,T,169.3,M,75.6,N,140.0,K,A*12
$GPDTM,P90,,0000.000022,S,00000.000001,W,0.988,W84*5A
$GPRMC,000704.10,A,3000.048285,N,12000.617148,E,75.6,169.3,230721,4.3,W,A*10
$GPGGA,000704.10,3000.048285,N,12000.617148,E,1,00,1.0,-11.2,M,7.0,M,,*49

$GPVTG,169.7,T,169.7,M,75.7,N,140.1,K,A*12
$GPDTM,P90,,0000.000022,S,00000.000001,W,0.988,W84*5A
$GPRMC,000704.20,A,3000.046214,N,12000.617588,E,75.7,169.7,230721,4.3,W,A*18
$GPGGA,000704.20,3000.046214,N,12000.617588,E,1,00,1.0,-11.2,M,7.0,M,,*44

$GPVTG,170.2,T,170.2,M,75.7,N,140.2,K,A*11
$GPDTM,P90,,0000.000022,S,00000.000001,W,0.988,W84*5A
$GPRMC,000704.30,A,3000.044139,N,12000.618010,E,75.7,170.2,230721,4.3,W,A*11
$GPGGA,000704.30,3000.044139,N,12000.618010,E,1,00,1.0,-11.2,M,7.0,M,,*40

$GPVTG,170.6,T,170.6,M,75.8,N,140.3,K,A*1F
$GPDTM,P90,,0000.000022,S,00000.000001,W,0.988,W84*5A
$GPRMC,000704.40,A,3000.042060,N,12000.618415,E,75.8,170.6,230721,4.3,W,A*17
$GPGGA,000704.40,3000.042060,N,12000.618415,E,1,00,1.0,-11.1,M,7.0,M,,*4E

$GPVTG,171.0,T,171.0,M,75.8,N,140.4,K,A*18
$GPDTM,P90,,0000.000022,S,00000.000001,W,0.988,W84*5A
$GPRMC,000704.50,A,3000.039977,N,12000.618802,E,75.8,171.0,230721,4.3,W,A*18
$GPGGA,000704.50,3000.039977,N,12000.618802,E,1,00,1.0,-11.1,M,7.0,M,,*46

$GPVTG,171.5,T,171.5,M,75.9,N,140.5,K,A*18
$GPDTM,P90,,0000.000022,S,00000.000001,W,0.988,W84*5A
$GPRMC,000704.60,A,3000.037890,N,12000.619171,E,75.9,171.5,230721,4.3,W,A*15
$GPGGA,000704.60,3000.037890,N,12000.619171,E,1,00,1.0,-11.1,M,7.0,M,,*4F

$GPVTG,171.9,T,171.9,M,75.9,N,140.6,K,A*1B
$GPDTM,P90,,0000.000022,S,00000.000001,W,0.988,W84*5A
$GPRMC,000704.70,A,3000.035798,N,12000.619523,E,75.9,171.9,230721,4.3,W,A*1E
$GPGGA,000704.70,3000.035798,N,12000.619523,E,1,00,1.0,-11.1,M,7.0,M,,*48

$GPVTG,172.3,T,172.3,M,76.0,N,140.7,K,A*10
$GPDTM,P90,,0000.000022,S,00000.000001,W,0.988,W84*5A
$GPRMC,000704.80,A,3000.033704,N,12000.619857,E,76.0,172.3,230721,4.3,W,A*1F
$GPGGA,000704.80,3000.033704,N,12000.619857,E,1,00,1.0,-11.1,M,7.0,M,,*4A

$GPVTG,172.7,T,172.7,M,76.1,N,140.9,K,A*1F
$GPDTM,P90,,0000.000022,S,00000.000001,W,0.988,W84*5A
$GPRMC,000704.90,A,3000.031604,N,12000.620173,E,76.1,172.7,230721,4.3,W,A*1D
$GPGGA,000704.90,3000.031604,N,12000.620173,E,1,00,1.0,-11.0,M,7.0,M,,*4C

$GPGSV,3,1,12,02,32,295,27,04,49,241,26,07,83,084,26,08,49,208,26*75
$GPGSV,3,2,12,13,47,033,26,20,19,122,26,23,24,059,26,25,63,039,27*73
$GPGSV,3,3,12,27,19,219,27,10,01,310,,16,00,000,,28,00,000,*77
$GLGSV,1,1,01,71,02,080,*58
$GAGSV,2,1,08,09,14,316,,10,65,333,,11,53,119,,12,04,130,*60
$GAGSV,2,2,08,17,28,039,,23,39,223,,24,82,016,,27,27,127,*61
$PQGSV,1,1,0,0*43
$PQGSV,1,1,0,0*43
$GPGSA,A,3,02,04,07,08,13,20,23,25,27,,,,1.3,1.0,0.8*33
$GPVTG,172.6,T,172.6,M,76.8,N,142.3,K,A*1E
$GPDTM,P90,,0000.000022,S,00000.000001,W,0.988,W84*5A
$GPRMC,000705.00,A,3000.029717,N,12000.620957,E,76.8,172.6,230721,4.3,W,A*19
$GPGGA,000705.00,3000.029717,N,12000.620957,E,1,09,1.0,-9.9,M,7.0,M,,*79

$GPVTG,173.0,T,173.0,M,77.0,N,142.5,K,A*11
$GPDTM,P90,,0000.000022,S,00000.000001,W,0.988,W84*5A
$GPRMC,000705.10,A,3000.027592,N,12000.621266,E,77.0,173.0,230721,4.3,W,A*1F
$GPGGA,000705.10,3000.027592,N,12000.621266,E,1,00,1.0,-9.9,M,7.0,M,,*78

$GPVTG,173.4,T,173.4,M,77.1,N,142.8,K,A*1D
$GPDTM,P90,,0000.000022,S,00000.000001,W,0.988,W84*5A
$GPRMC,000705.20,A,3000.025463,N,12000.621559,E,77.1,173.4,230721,4.3,W,A*1F
$GPGGA,000705.20,3000.025463,N,12000.621559,E,1,00,1.0,-9.9,M,7.0,M,,*7D
$GPVTG,173.7,T,173.7,M,77.2,N,143.0,K,A*17
$GPDTM,P90,,0000.000022,S,00000.000001,W,0.988,W84*5A
$GPRMC,000705.30,A,3000.023328,N,12000.621836,E,77.2,173.7,230721,4.3,W,A*14
$GPGGA,000705.30,3000.023328,N,12000.621836,E,1,00,1.0,-10.0,M,7.0,M,,*47
$GPVTG,174.1,T,174.1,M,77.3,N,143.2,K,A*14
$GPDTM,P90,,0000.000022,S,00000.000001,W,0.988,W84*5A
$GPRMC,000705.40,A,3000.021188,N,12000.622097,E,77.3,174.1,230721,4.3,W,A*19
$GPGGA,000705.40,3000.021188,N,12000.622097,E,1,00,1.0,-10.0,M,7.0,M,,*4A

$GPVTG,174.5,T,174.5,M,77.5,N,143.5,K,A*15
$GPDTM,P90,,0000.000022,S,00000.000001,W,0.988,W84*5A
$GPRMC,000705.50,A,3000.019044,N,12000.622343,E,77.5,174.5,230721,4.3,W,A*1A
$GPGGA,000705.50,3000.019044,N,12000.622343,E,1,00,1.0,-10.0,M,7.0,M,,*4B

$GPVTG,174.9,T,174.9,M,77.6,N,143.7,K,A*14
$GPDTM,P90,,0000.000022,S,00000.000001,W,0.988,W84*5A
$GPRMC,000705.60,A,3000.016895,N,12000.622572,E,77.6,174.9,230721,4.3,W,A*19
$GPGGA,000705.60,3000.016895,N,12000.622572,E,1,00,1.0,-10.0,M,7.0,M,,*47

$GPVTG,175.3,T,175.3,M,77.7,N,144.0,K,A*15
$GPDTM,P90,,0000.000022,S,00000.000001,W,0.988,W84*5A
$GPRMC,000705.70,A,3000.014740,N,12000.622785,E,77.7,175.3,230721,4.3,W,A*1D
$GPGGA,000705.70,3000.014740,N,12000.622785,E,1,00,1.0,-10.0,M,7.0,M,,*49

$GPVTG,175.6,T,175.6,M,77.9,N,144.2,K,A*19
$GPDTM,P90,,0000.000022,S,00000.000001,W,0.988,W84*5A
$GPRMC,000705.80,A,3000.012580,N,12000.622982,E,77.9,175.6,230721,4.3,W,A*18
$GPGGA,000705.80,3000.012580,N,12000.622982,E,1,00,1.0,-10.1,M,7.0,M,,*46

$GPVTG,176.0,T,176.0,M,78.0,N,144.5,K,A*18
$GPDTM,P90,,0000.000022,S,00000.000001,W,0.988,W84*5A
$GPRMC,000705.90,A,3000.010416,N,12000.623164,E,78.0,176.0,230721,4.3,W,A*17
$GPGGA,000705.90,3000.010416,N,12000.623164,E,1,00,1.0,-10.1,M,7.0,M,,*4A

$GPGSV,3,1,12,02,32,295,27,04,49,241,27,07,83,084,26,08,49,208,26*74
$GPGSV,3,2,12,13,47,033,27,20,19,122,27,23,24,059,27,25,63,039,27*72
$GPGSV,3,3,12,27,19,219,27,10,01,310,,16,00,000,,28,00,000,*77
$GLGSV,1,1,01,71,02,080,*58
$GAGSV,2,1,08,09,14,316,,10,65,333,,11,53,119,,12,04,130,*60
$GAGSV,2,2,08,17,28,039,,23,39,223,,24,82,016,,27,27,127,*61
$PQGSV,1,1,0,0*43
$PQGSV,1,1,0,0*43
$GPGSA,A,3,02,04,07,08,13,20,23,25,27,,,,1.3,1.0,0.8*33
$GPVTG,177.5,T,177.5,M,75.9,N,140.6,K,A*1B
$GPDTM,P90,,0000.000022,S,00000.000001,W,0.988,W84*5A
$GPRMC,000706.00,A,3000.008328,N,12000.623236,E,75.9,177.5,230721,4.3,W,A*1A
$GPGGA,000706.00,3000.008328,N,12000.623236,E,1,09,1.0,-9.8,M,7.0,M,,*7F

$GPVTG,178.0,T,178.0,M,75.9,N,140.6,K,A*1B
$GPDTM,P90,,0000.000022,S,00000.000001,W,0.988,W84*5A
$GPRMC,000706.10,A,3000.006215,N,12000.623332,E,75.9,178.0,230721,4.3,W,A*15
$GPGGA,000706.10,3000.006215,N,12000.623332,E,1,00,1.0,-9.8,M,7.0,M,,*73

$GPVTG,178.4,T,178.4,M,76.0,N,140.7,K,A*10
$GPDTM,P90,,0000.000022,S,00000.000001,W,0.988,W84*5A
$GPRMC,000706.20,A,3000.004102,N,12000.623409,E,76.0,178.4,230721,4.3,W,A*10
$GPGGA,000706.20,3000.004102,N,12000.623409,E,1,00,1.0,-9.8,M,7.0,M,,*78

$GPVTG,178.9,T,178.9,M,76.0,N,140.8,K,A*1F
$GPDTM,P90,,0000.000022,S,00000.000001,W,0.988,W84*5A
$GPRMC,000706.30,A,3000.001986,N,12000.623467,E,76.0,178.9,230721,4.3,W,A*15
$GPGGA,000706.30,3000.001986,N,12000.623467,E,1,00,1.0,-9.8,M,7.0,M,,*70

$GPVTG,179.3,T,179.3,M,76.0,N,140.8,K,A*1F
$GPDTM,P90,,0000.000022,S,00000.000001,W,0.988,W84*5A
$GPRMC,000706.40,A,2959.999869,N,12000.623505,E,76.0,179.3,230721,4.3,W,A*10
$GPGGA,000706.40,2959.999869,N,12000.623505,E,1,00,1.0,-9.8,M,7.0,M,,*7E

$GPVTG,179.8,T,179.8,M,76.1,N,140.9,K,A*1F
$GPDTM,P90,,0000.000022,S,00000.000001,W,0.988,W84*5A
$GPRMC,000706.50,A,2959.997751,N,12000.623524,E,76.1,179.8,230721,4.3,W,A*12
$GPGGA,000706.50,2959.997751,N,12000.623524,E,1,00,1.0,-9.8,M,7.0,M,,*76

$GPVTG,180.2,T,180.2,M,76.1,N,141.0,K,A*17
$GPDTM,P90,,0000.000022,S,00000.000001,W,0.988,W84*5A
$GPRMC,000706.60,A,2959.995632,N,12000.623524,E,76.1,180.2,230721,4.3,W,A*1B
$GPGGA,000706.60,2959.995632,N,12000.623524,E,1,00,1.0,-9.7,M,7.0,M,,*7C

$GPVTG,180.7,T,180.7,M,76.2,N,141.1,K,A*15
$GPDTM,P90,,0000.000022,S,00000.000001,W,0.988,W84*5A
$GPRMC,000706.70,A,2959.993511,N,12000.623505,E,76.2,180.7,230721,4.3,W,A*1B
$GPGGA,000706.70,2959.993511,N,12000.623505,E,1,00,1.0,-9.7,M,7.0,M,,*7A
$GPVTG,181.1,T,181.1,M,76.3,N,141.2,K,A*17
$GPDTM,P90,,0000.000022,S,00000.000001,W,0.988,W84*5A
$GPRMC,000706.80,A,2959.991389,N,12000.623467,E,76.3,181.1,230721,4.3,W,A*12
$GPGGA,000706.80,2959.991389,N,12000.623467,E,1,00,1.0,-9.7,M,7.0,M,,*75

$GPVTG,181.6,T,181.6,M,76.3,N,141.3,K,A*16
$GPDTM,P90,,0000.000022,S,00000.000001,W,0.988,W84*5A
$GPRMC,000706.90,A,2959.989265,N,12000.623410,E,76.3,181.6,230721,4.3,W,A*1E
$GPGGA,000706.90,2959.989265,N,12000.623410,E,1,00,1.0,-9.7,M,7.0,M,,*7E

$GPGSV,3,1,12,02,32,295,27,04,49,241,27,07,83,084,27,08,49,208,26*75
$GPGSV,3,2,12,13,47,033,27,20,19,122,26,23,24,059,26,25,63,039,27*72
$GPGSV,3,3,12,27,19,219,26,10,01,310,,16,00,000,,28,00,000,*76
$GLGSV,1,1,01,71,02,080,*58
$GAGSV,2,1,08,09,14,316,,10,65,333,,11,53,119,,12,04,130,*60
$GAGSV,2,2,08,17,28,039,,23,39,223,,24,82,016,,27,27,127,*61
$PQGSV,1,1,0,0*43
$PQGSV,1,1,0,0*43
$GPGSA,A,3,02,04,07,08,13,20,23,25,27,,,,1.3,1.0,0.8*33
$GPVTG,182.0,T,182.0,M,75.8,N,140.4,K,A*18
$GPDTM,P90,,0000.000022,S,00000.000001,W,0.988,W84*5A
$GPRMC,000707.00,A,2959.987486,N,12000.623233,E,75.8,182.0,230721,4.3,W,A*19
$GPGGA,000707.00,2959.987486,N,12000.623233,E,1,09,1.0,-10.2,M,7.0,M,,*40

$GPVTG,182.5,T,182.5,M,75.9,N,140.5,K,A*18
$GPDTM,P90,,0000.000022,S,00000.000001,W,0.988,W84*5A
$GPRMC,000707.10,A,2959.985376,N,12000.623137,E,75.9,182.5,230721,4.3,W,A*11
$GPGGA,000707.10,2959.985376,N,12000.623137,E,1,00,1.0,-10.1,M,7.0,M,,*46

$GPVTG,182.9,T,182.9,M,75.9,N,140.6,K,A*1B
$GPDTM,P90,,0000.000022,S,00000.000001,W,0.988,W84*5A
$GPRMC,000707.20,A,2959.983265,N,12000.623021,E,75.9,182.9,230721,4.3,W,A*1D
$GPGGA,000707.20,2959.983265,N,12000.623021,E,1,00,1.0,-10.1,M,7.0,M,,*46

$GPVTG,183.4,T,183.4,M,75.9,N,140.6,K,A*1B
$GPDTM,P90,,0000.000022,S,00000.000001,W,0.988,W84*5A
$GPRMC,000707.30,A,2959.981155,N,12000.622888,E,75.9,183.4,230721,4.3,W,A*18
$GPGGA,000707.30,2959.981155,N,12000.622888,E,1,00,1.0,-10.1,M,7.0,M,,*4F

$GPVTG,183.8,T,183.8,M,76.0,N,140.7,K,A*10
$GPDTM,P90,,0000.000022,S,00000.000001,W,0.988,W84*5A
$GPRMC,000707.40,A,2959.979043,N,12000.622734,E,76.0,183.8,230721,4.3,W,A*10
$GPGGA,000707.40,2959.979043,N,12000.622734,E,1,00,1.0,-10.1,M,7.0,M,,*41

$GPVTG,184.3,T,184.3,M,76.1,N,140.8,K,A*1E
$GPDTM,P90,,0000.000022,S,00000.000001,W,0.988,W84*5A
$GPRMC,000707.50,A,2959.976932,N,12000.622561,E,76.1,184.3,230721,4.3,W,A*1E
$GPGGA,000707.50,2959.976932,N,12000.622561,E,1,00,1.0,-10.1,M,7.0,M,,*42

$GPVTG,184.7,T,184.7,M,76.1,N,141.0,K,A*17
$GPDTM,P90,,0000.000022,S,00000.000001,W,0.988,W84*5A
$GPRMC,000707.60,A,2959.974820,N,12000.622369,E,76.1,184.7,230721,4.3,W,A*17
$GPGGA,000707.60,2959.974820,N,12000.622369,E,1,00,1.0,-10.1,M,7.0,M,,*4F

$GPVTG,185.2,T,185.2,M,76.2,N,141.1,K,A*15
$GPDTM,P90,,0000.000022,S,00000.000001,W,0.988,W84*5A
$GPRMC,000707.70,A,2959.972708,N,12000.622159,E,76.2,185.2,230721,4.3,W,A*13
$GPGGA,000707.70,2959.972708,N,12000.622159,E,1,00,1.0,-10.1,M,7.0,M,,*4C

$GPVTG,185.6,T,185.6,M,76.2,N,141.2,K,A*16
$GPDTM,P90,,0000.000022,S,00000.000001,W,0.988,W84*5A
$GPRMC,000707.80,A,2959.970595,N,12000.621928,E,76.2,185.6,230721,4.3,W,A*11
$GPGGA,000707.80,2959.970595,N,12000.621928,E,1,00,1.0,-10.1,M,7.0,M,,*4A

$GPVTG,186.1,T,186.1,M,76.3,N,141.3,K,A*16
$GPDTM,P90,,0000.000022,S,00000.000001,W,0.988,W84*5A
$GPRMC,000707.90,A,2959.968482,N,12000.621679,E,76.3,186.1,230721,4.3,W,A*10
$GPGGA,000707.90,2959.968482,N,12000.621679,E,1,00,1.0,-10.1,M,7.0,M,,*4E

$GPGSV,3,1,12,02,32,295,27,04,49,241,27,07,83,084,26,08,49,208,27*75
$GPGSV,3,2,12,13,47,033,26,20,19,122,26,23,24,059,27,25,63,039,27*72
$GPGSV,3,3,12,27,19,219,26,10,01,310,,16,00,000,,28,00,000,*76
$GLGSV,1,1,01,71,02,080,*58
$GAGSV,2,1,08,09,14,316,,10,65,333,,11,53,119,,12,04,130,*60
$GAGSV,2,2,08,17,28,039,,23,39,223,,24,82,016,,27,27,127,*61
$PQGSV,1,1,0,0*43
$PQGSV,1,1,0,0*43
$GPGSA,A,3,02,04,07,08,13,20,23,25,27,,,,1.3,1.0,0.8*33
$GPVTG,186.3,T,186.3,M,76.1,N,140.9,K,A*1F
$GPDTM,P90,,0000.000022,S,00000.000001,W,0.988,W84*5A
$GPRMC,000708.00,A,2959.966621,N,12000.620614,E,76.1,186.3,230721,4.3,W,A*19
$GPGGA,000708.00,2959.966621,N,12000.620614,E,1,09,1.0,-9.3,M,7.0,M,,*74

$GPVTG,186.7,T,186.7,M,76.1,N,141.0,K,A*17
$GPDTM,P90,,0000.000022,S,00000.000001,W,0.988,W84*5A
$GPRMC,000708.10,A,2959.964515,N,12000.620339,E,76.1,186.7,230721,4.3,W,A*10
$GPGGA,000708.10,2959.964515,N,12000.620339,E,1,00,1.0,-9.2,M,7.0,M,,*71
$GPVTG,187.1,T,187.1,M,76.2,N,141.1,K,A*15
$GPDTM,P90,,0000.000022,S,00000.000001,W,0.988,W84*5A
$GPRMC,000708.20,A,2959.962411,N,12000.620045,E,76.2,187.1,230721,4.3,W,A*1C
$GPGGA,000708.20,2959.962411,N,12000.620045,E,1,00,1.0,-9.2,M,7.0,M,,*79

$GPVTG,187.6,T,187.6,M,76.2,N,141.2,K,A*16
$GPDTM,P90,,0000.000022,S,00000.000001,W,0.988,W84*5A
$GPRMC,000708.30,A,2959.960306,N,12000.619734,E,76.2,187.6,230721,4.3,W,A*12
$GPGGA,000708.30,2959.960306,N,12000.619734,E,1,00,1.0,-9.1,M,7.0,M,,*73

$GPVTG,188.0,T,188.0,M,76.3,N,141.3,K,A*16
$GPDTM,P90,,0000.000022,S,00000.000001,W,0.988,W84*5A
$GPRMC,000708.40,A,2959.958201,N,12000.619403,E,76.3,188.0,230721,4.3,W,A*17
$GPGGA,000708.40,2959.958201,N,12000.619403,E,1,00,1.0,-9.1,M,7.0,M,,*7E

$GPVTG,188.4,T,188.4,M,76.4,N,141.5,K,A*17
$GPDTM,P90,,0000.000022,S,00000.000001,W,0.988,W84*5A
$GPRMC,000708.50,A,2959.956097,N,12000.619055,E,76.4,188.4,230721,4.3,W,A*11
$GPGGA,000708.50,2959.956097,N,12000.619055,E,1,00,1.0,-9.1,M,7.0,M,,*7B

$GPVTG,188.8,T,188.8,M,76.5,N,141.6,K,A*15
$GPDTM,P90,,0000.000022,S,00000.000001,W,0.988,W84*5A
$GPRMC,000708.60,A,2959.953993,N,12000.618688,E,76.5,188.8,230721,4.3,W,A*10
$GPGGA,000708.60,2959.953993,N,12000.618688,E,1,00,1.0,-9.0,M,7.0,M,,*76

$GPVTG,189.3,T,189.3,M,76.6,N,141.8,K,A*18
$GPDTM,P90,,0000.000022,S,00000.000001,W,0.988,W84*5A
$GPRMC,000708.70,A,2959.951888,N,12000.618302,E,76.6,189.3,230721,4.3,W,A*16
$GPGGA,000708.70,2959.951888,N,12000.618302,E,1,00,1.0,-9.0,M,7.0,M,,*79

$GPVTG,189.7,T,189.7,M,76.7,N,142.0,K,A*12
$GPDTM,P90,,0000.000022,S,00000.000001,W,0.988,W84*5A
$GPRMC,000708.80,A,2959.949784,N,12000.617898,E,76.7,189.7,230721,4.3,W,A*11
$GPGGA,000708.80,2959.949784,N,12000.617898,E,1,00,1.0,-8.9,M,7.0,M,,*73

$GPVTG,190.1,T,190.1,M,76.8,N,142.1,K,A*1C
$GPDTM,P90,,0000.000022,S,00000.000001,W,0.988,W84*5A
$GPRMC,000708.90,A,2959.947680,N,12000.617476,E,76.8,190.1,230721,4.3,W,A*16
$GPGGA,000708.90,2959.947680,N,12000.617476,E,1,00,1.0,-8.9,M,7.0,M,,*75

$GPGSV,3,1,12,02,32,295,26,04,49,241,26,07,83,084,27,08,49,208,26*75
$GPGSV,3,2,12,13,47,033,27,20,19,122,26,23,24,059,27,25,63,039,27*73
$GPGSV,3,3,12,27,19,219,26,10,01,310,,16,00,000,,28,00,000,*76
$GLGSV,1,1,01,71,02,080,*58
$GAGSV,2,1,08,09,14,316,,10,65,333,,11,53,119,,12,04,130,*60
$GAGSV,2,2,08,17,28,039,,23,39,223,,24,82,016,,27,27,127,*61
$PQGSV,1,1,0,0*43
$PQGSV,1,1,0,0*43
$GPGSA,A,3,02,04,07,08,13,20,23,25,27,,,,1.3,1.0,0.8*33
$GPVTG,191.5,T,191.5,M,77.1,N,142.7,K,A*12
$GPDTM,P90,,0000.000022,S,00000.000001,W,0.988,W84*5A
$GPRMC,000709.00,A,2959.945322,N,12000.616225,E,77.1,191.5,230721,4.3,W,A*1D
$GPGGA,000709.00,2959.945322,N,12000.616225,E,1,09,1.0,-9.6,M,7.0,M,,*74

$GPVTG,191.9,T,191.9,M,77.2,N,142.9,K,A*1F
$GPDTM,P90,,0000.000022,S,00000.000001,W,0.988,W84*5A
$GPRMC,000709.10,A,2959.943220,N,12000.615724,E,77.2,191.9,230721,4.3,W,A*11
$GPGGA,000709.10,2959.943220,N,12000.615724,E,1,00,1.0,-9.6,M,7.0,M,,*7E

$GPVTG,192.4,T,192.4,M,77.3,N,143.2,K,A*14
$GPDTM,P90,,0000.000022,S,00000.000001,W,0.988,W84*5A
$GPRMC,000709.20,A,2959.941117,N,12000.615203,E,77.3,192.4,230721,4.3,W,A*18
$GPGGA,000709.20,2959.941117,N,12000.615203,E,1,00,1.0,-9.6,M,7.0,M,,*78

$GPVTG,192.9,T,192.9,M,77.5,N,143.4,K,A*14
$GPDTM,P90,,0000.000022,S,00000.000001,W,0.988,W84*5A
$GPRMC,000709.30,A,2959.939014,N,12000.614661,E,77.5,192.9,230721,4.3,W,A*1E
$GPGGA,000709.30,2959.939014,N,12000.614661,E,1,00,1.0,-9.5,M,7.0,M,,*76

$GPVTG,193.4,T,193.4,M,77.6,N,143.7,K,A*14
$GPDTM,P90,,0000.000022,S,00000.000001,W,0.988,W84*5A
$GPRMC,000709.40,A,2959.936912,N,12000.614098,E,77.6,193.4,230721,4.3,W,A*16
$GPGGA,000709.40,2959.936912,N,12000.614098,E,1,00,1.0,-9.5,M,7.0,M,,*71
$GPVTG,193.8,T,193.8,M,77.7,N,144.0,K,A*15
$GPDTM,P90,,0000.000022,S,00000.000001,W,0.988,W84*5A
$GPRMC,000709.50,A,2959.934810,N,12000.613514,E,77.7,193.8,230721,4.3,W,A*1D
$GPGGA,000709.50,2959.934810,N,12000.613514,E,1,00,1.0,-9.5,M,7.0,M,,*77

$GPVTG,194.3,T,194.3,M,77.9,N,144.3,K,A*18
$GPDTM,P90,,0000.000022,S,00000.000001,W,0.988,W84*5A
$GPRMC,000709.60,A,2959.932708,N,12000.612909,E,77.9,194.3,230721,4.3,W,A*1D
$GPGGA,000709.60,2959.932708,N,12000.612909,E,1,00,1.0,-9.5,M,7.0,M,,*75

$GPVTG,194.8,T,194.8,M,78.1,N,144.6,K,A*1A
$GPDTM,P90,,0000.000022,S,00000.000001,W,0.988,W84*5A
$GPRMC,000709.70,A,2959.930606,N,12000.612283,E,78.1,194.8,230721,4.3,W,A*14
$GPGGA,000709.70,2959.930606,N,12000.612283,E,1,00,1.0,-9.5,M,7.0,M,,*70

$GPVTG,195.2,T,195.2,M,78.2,N,144.9,K,A*16
$GPDTM,P90,,0000.000022,S,00000.000001,W,0.988,W84*5A
$GPRMC,000709.80,A,2959.928505,N,12000.611637,E,78.2,195.2,230721,4.3,W,A*12
$GPGGA,000709.80,2959.928505,N,12000.611637,E,1,00,1.0,-9.5,M,7.0,M,,*7E

$GPVTG,195.7,T,195.7,M,78.4,N,145.2,K,A*1A
$GPDTM,P90,,0000.000022,S,00000.000001,W,0.988,W84*5A
$GPRMC,000709.90,A,2959.926404,N,12000.610970,E,78.4,195.7,230721,4.3,W,A*13
