$GPVTG,,T,,M,0.0,N,0.0,K,A*23
$GPDTM,P90,,0000.000022,S,00000.000001,W,0.988,W84*5A
$GPRMC,000410.70,A,2959.999710,N,12000.001231,E,0.0,,230721,4.3,W,A*03
$GPGGA,000410.70,2959.999710,N,12000.001231,E,1,00,1.0,-21.8,M,7.0,M,,*44

$GPVTG,,T,,M,0.0,N,0.0,K,A*23
$GPDTM,P90,,0000.000022,S,00000.000001,W,0.988,W84*5A
$GPRMC,000410.80,A,2959.999710,N,12000.001231,E,0.0,,230721,4.3,W,A*0C
$GPGGA,000410.80,2959.999710,N,12000.001231,E,1,00,1.0,-21.8,M,7.0,M,,*4B

$GPVTG,,T,,M,0.0,N,0.0,K,A*23
$GPDTM,P90,,0000.000022,S,00000.000001,W,0.988,W84*5A
$GPRMC,000410.90,A,2959.999710,N,12000.001231,E,0.0,,230721,4.3,W,A*0D
$GPGGA,000410.90,2959.999710,N,12000.001231,E,1,00,1.0,-21.8,M,7.0,M,,*4A

$GPGSV,3,1,12,02,32,298,27,04,50,244,27,07,83,105,27,08,47,206,27*7C
$GPGSV,3,2,12,13,48,030,28,20,21,120,27,23,25,057,26,25,64,040,26*7E
$GPGSV,3,3,12,27,18,219,27,10,00,000,,16,00,000,,28,00,000,*75
$GLGSV,1,1,03,77,58,323,25,78,04,330,,76,62,160,*57
$GAGSV,1,1,0,7*43
$PQGSV,1,1,0,0*43
$PQGSV,1,1,0,0*43
$GPGSA,A,3,02,04,07,08,13,20,23,25,27,,,,1.3,1.0,0.8*33
$GPVTG,,T,,M,0.0,N,0.0,K,A*23
$GPDTM,P90,,0000.000022,S,00000.000001,W,0.988,W84*5A
$GPRMC,000411.00,A,2959.999708,N,12000.001239,E,0.0,,230721,4.3,W,A*04
$GPGGA,000411.00,2959.999708,N,12000.001239,E,1,09,1.0,-21.8,M,7.0,M,,*4A

$GPVTG,,T,,M,0.0,N,0.0,K,A*23
$GPDTM,P90,,0000.000022,S,00000.000001,W,0.988,W84*5A
$GPRMC,000411.10,A,2959.999708,N,12000.001239,E,0.0,,230721,4.3,W,A*05
$GPGGA,000411.10,2959.999708,N,12000.001239,E,1,00,1.0,-21.8,M,7.0,M,,*42

$GPVTG,,T,,M,0.0,N,0.0,K,A*23
$GPDTM,P90,,0000.000022,S,00000.000001,W,0.988,W84*5A
$GPRMC,000411.20,A,2959.999708,N,12000.001239,E,0.0,,230721,4.3,W,A*06
$GPGGA,000411.20,2959.999708,N,12000.001239,E,1,00,1.0,-21.8,M,7.0,M,,*41

$GPVTG,,T,,M,0.0,N,0.0,K,A*23
$GPDTM,P90,,0000.000022,S,00000.000001,W,0.988,W84*5A
$GPRMC,000411.30,A,2959.999708,N,12000.001239,E,0.0,,230721,4.3,W,A*07
$GPGGA,000411.30,2959.999708,N,12000.001239,E,1,00,1.0,-21.8,M,7.0,M,,*40

$GPVTG,,T,,M,0.0,N,0.0,K,A*23
$GPDTM,P90,,0000.000022,S,00000.000001,W,0.988,W84*5A
$GPRMC,000411.40,A,2959.999708,N,12000.001239,E,0.0,,230721,4.3,W,A*00
$GPGGA,000411.40,2959.999708,N,12000.001239,E,1,00,1.0,-21.8,M,7.0,M,,*47

$GPVTG,,T,,M,0.0,N,0.0,K,A*23
$GPDTM,P90,,0000.000022,S,00000.000001,W,0.988,W84*5A
$GPRMC,000411.50,A,2959.999708,N,12000.001239,E,0.0,,230721,4.3,W,A*01
$GPGGA,000411.50,2959.999708,N,12000.001239,E,1,00,1.0,-21.8,M,7.0,M,,*46

$GPVTG,,T,,M,0.0,N,0.0,K,A*23
$GPDTM,P90,,0000.000022,S,00000.000001,W,0.988,W84*5A
$GPRMC,000411.60,A,2959.999708,N,12000.001239,E,0.0,,230721,4.3,W,A*02
$GPGGA,000411.60,2959.999708,N,12000.001239,E,1,00,1.0,-21.8,M,7.0,M,,*45

$GPVTG,,T,,M,0.0,N,0.0,K,A*23
$GPDTM,P90,,0000.000022,S,00000.000001,W,0.988,W84*5A
$GPRMC,000411.70,A,2959.999708,N,12000.001239,E,0.0,,230721,4.3,W,A*03
$GPGGA,000411.70,2959.999708,N,12000.001239,E,1,00,1.0,-21.8,M,7.0,M,,*44

$GPVTG,,T,,M,0.0,N,0.0,K,A*23
$GPDTM,P90,,0000.000022,S,00000.000001,W,0.988,W84*5A
$GPRMC,000411.80,A,2959.999708,N,12000.001239,E,0.0,,230721,4.3,W,A*0C
$GPGGA,000411.80,2959.999708,N,12000.001239,E,1,00,1.0,-21.8,M,7.0,M,,*4B

$GPVTG,,T,,M,0.0,N,0.0,K,A*23
$GPDTM,P90,,0000.000022,S,00000.000001,W,0.988,W84*5A
$GPRMC,000411.90,A,2959.999708,N,12000.001239,E,0.0,,230721,4.3,W,A*0D
$GPGGA,000411.90,2959.999708,N,12000.001239,E,1,00,1.0,-21.8,M,7.0,M,,*4A

$GPGSV,3,1,12,02,32,298,27,04,50,244,27,07,83,105,27,08,47,206,27*7C
$GPGSV,3,2,12,13,48,030,27,20,21,120,26,23,25,057,28,25,64,040,27*7F
$GPGSV,3,3,12,27,18,219,25,10,00,000,,16,00,000,,28,00,000,*77
$GLGSV,1,1,03,77,58,323,25,78,04,330,,76,62,160,*57
$GAGSV,1,1,0,7*43
$PQGSV,1,1,0,0*43
$PQGSV,1,1,0,0*43
$GPGSA,A,3,02,04,07,08,13,20,23,25,27,,,,1.3,1.0,0.8*33
$GPVTG,,T,,M,0.0,N,0.0,K,A*23
$GPDTM,P90,,0000.000022,S,00000.000001,W,0.988,W84*5A
$GPRMC,000412.00,A,2959.999709,N,12000.001243,E,0.0,,230721,4.3,W,A*0B
$GPGGA,000412.00,2959.999709,N,12000.001243,E,1,09,1.0,-21.8,M,7.0,M,,*45

$GPVTG,,T,,M,0.0,N,0.0,K,A*23
$GPDTM,P90,,0000.000022,S,00000.000001,W,0.988,W84*5A
$GPRMC,000412.10,A,2959.999709,N,12000.001243,E,0.0,,230721,4.3,W,A*0A
$GPGGA,000412.10,2959.999709,N,12000.001243,E,1,00,1.0,-21.8,M,7.0,M,,*4D

$GPVTG,,T,,M,0.0,N,0.0,K,A*23
$GPDTM,P90,,0000.000022,S,00000.000001,W,0.988,W84*5A
$GPRMC,000412.20,A,2959.999709,N,12000.001243,E,0.0,,230721,4.3,W,A*09
$GPGGA,000412.20,2959.999709,N,12000.001243,E,1,00,1.0,-21.8,M,7.0,M,,*4E

$GPVTG,,T,,M,0.0,N,0.0,K,A*23
$GPDTM,P90,,0000.000022,S,00000.000001,W,0.988,W84*5A
$GPRMC,000412.30,A,2959.999709,N,12000.001243,E,0.0,,230721,4.3,W,A*08
$GPGGA,000412.30,2959.999709,N,12000.001243,E,1,00,1.0,-21.8,M,7.0,M,,*4F

$GPVTG,,T,,M,0.0,N,0.0,K,A*23
$GPDTM,P90,,0000.000022,S,00000.000001,W,0.988,W84*5A
$GPRMC,000412.40,A,2959.999709,N,12000.001243,E,0.0,,230721,4.3,W,A*0F
$GPGGA,000412.40,2959.999709,N,12000.001243,E,1,00,1.0,-21.8,M,7.0,M,,*48

$GPVTG,,T,,M,0.0,N,0.0,K,A*23
$GPDTM,P90,,0000.000022,S,00000.000001,W,0.988,W84*5A
$GPRMC,000412.50,A,2959.999709,N,12000.001243,E,0.0,,230721,4.3,W,A*0E
$GPGGA,000412.50,2959.999709,N,12000.001243,E,1,00,1.0,-21.8,M,7.0,M,,*49

$GPVTG,,T,,M,0.0,N,0.0,K,A*23
$GPDTM,P90,,0000.000022,S,00000.000001,W,0.988,W84*5A
$GPRMC,000412.60,A,2959.999709,N,12000.001243,E,0.0,,230721,4.3,W,A*0D
$GPGGA,000412.60,2959.999709,N,12000.001243,E,1,00,1.0,-21.8,M,7.0,M,,*4A

$GPVTG,,T,,M,0.0,N,0.0,K,A*23
$GPDTM,P90,,0000.000022,S,00000.000001,W,0.988,W84*5A
$GPRMC,000412.70,A,2959.999709,N,12000.001243,E,0.0,,230721,4.3,W,A*0C
$GPGGA,000412.70,2959.999709,N,12000.001243,E,1,00,1.0,-21.8,M,7.0,M,,*4B

$GPVTG,,T,,M,0.0,N,0.0,K,A*23
$GPDTM,P90,,0000.000022,S,00000.000001,W,0.988,W84*5A
$GPRMC,000412.80,A,2959.999709,N,12000.001243,E,0.0,,230721,4.3,W,A*03
$GPGGA,000412.80,2959.999709,N,12000.001243,E,1,00,1.0,-21.8,M,7.0,M,,*44

$GPVTG,,T,,M,0.0,N,0.0,K,A*23
$GPDTM,P90,,0000.000022,S,00000.000001,W,0.988,W84*5A
$GPRMC,000412.90,A,2959.999709,N,12000.001243,E,0.0,,230721,4.3,W,A*02
$GPGGA,000412.90,2959.999709,N,12000.001243,E,1,00,1.0,-21.8,M,7.0,M,,*45

$GPGSV,3,1,12,02,32,298,27,04,50,244,27,07,83,105,27,08,47,206,27*7C
$GPGSV,3,2,12,13,48,030,26,20,21,120,27,23,25,057,27,25,64,040,27*70
$GPGSV,3,3,12,27,18,219,26,10,00,000,,16,00,000,,28,00,000,*74
$GLGSV,1,1,03,77,58,323,26,78,04,330,,76,62,160,*54
$GAGSV,1,1,0,7*43
$PQGSV,1,1,0,0*43
$PQGSV,1,1,0,0*43
$GPGSA,A,3,02,04,07,08,13,20,23,25,27,,,,1.3,1.0,0.8*33
$GPVTG,,T,,M,0.0,N,0.0,K,A*23
$GPDTM,P90,,0000.000022,S,00000.000001,W,0.988,W84*5A
$GPRMC,000413.00,A,2959.999704,N,12000.001244,E,0.0,,230721,4.3,W,A*00
$GPGGA,000413.00,2959.999704,N,12000.001244,E,1,09,1.0,-21.8,M,7.0,M,,*4E

$GPVTG,,T,,M,0.0,N,0.0,K,A*23
$GPDTM,P90,,0000.000022,S,00000.000001,W,0.988,W84*5A
$GPRMC,000413.10,A,2959.999704,N,12000.001244,E,0.0,,230721,4.3,W,A*01
$GPGGA,000413.10,2959.999704,N,12000.001244,E,1,00,1.0,-21.8,M,7.0,M,,*46

$GPVTG,,T,,M,0.0,N,0.0,K,A*23
$GPDTM,P90,,0000.000022,S,00000.000001,W,0.988,W84*5A
$GPRMC,000413.20,A,2959.999704,N,12000.001244,E,0.0,,230721,4.3,W,A*02
$GPGGA,000413.20,2959.999704,N,12000.001244,E,1,00,1.0,-21.8,M,7.0,M,,*45

$GPVTG,,T,,M,0.0,N,0.0,K,A*23
$GPDTM,P90,,0000.000022,S,00000.000001,W,0.988,W84*5A
$GPRMC,000413.30,A,2959.999704,N,12000.001244,E,0.0,,230721,4.3,W,A*03
$GPGGA,000413.30,2959.999704,N,12000.001244,E,1,00,1.0,-21.8,M,7.0,M,,*44

$GPVTG,,T,,M,0.0,N,0.0,K,A*23
$GPDTM,P90,,0000.000022,S,00000.000001,W,0.988,W84*5A
$GPRMC,000413.40,A,2959.999704,N,12000.001244,E,0.0,,230721,4.3,W,A*04
$GPGGA,000413.40,2959.999704,N,12000.001244,E,1,00,1.0,-21.8,M,7.0,M,,*43

$GPVTG,,T,,M,0.0,N,0.0,K,A*23
$GPDTM,P90,,0000.000022,S,00000.000001,W,0.988,W84*5A
$GPRMC,000413.50,A,2959.999704,N,12000.001244,E,0.0,,230721,4.3,W,A*05
$GPGGA,000413.50,2959.999704,N,12000.001244,E,1,00,1.0,-21.8,M,7.0,M,,*42

$GPVTG,,T,,M,0.0,N,0.0,K,A*23
$GPDTM,P90,,0000.000022,S,00000.000001,W,0.988,W84*5A
$GPRMC,000413.60,A,2959.999704,N,12000.001244,E,0.0,,230721,4.3,W,A*06
$GPGGA,000413.60,2959.999704,N,12000.001244,E,1,00,1.0,-21.8,M,7.0,M,,*41

$GPVTG,,T,,M,0.0,N,0.0,K,A*23
$GPDTM,P90,,0000.000022,S,00000.000001,W,0.988,W84*5A
$GPRMC,000413.70,A,2959.999704,N,12000.001244,E,0.0,,230721,4.3,W,A*07
$GPGGA,000413.70,2959.999704,N,12000.001244,E,1,00,1.0,-21.8,M,7.0,M,,*40

$GPVTG,,T,,M,0.0,N,0.0,K,A*23
$GPDTM,P90,,0000.000022,S,00000.000001,W,0.988,W84*5A
$GPRMC,000413.80,A,2959.999704,N,12000.001244,E,0.0,,230721,4.3,W,A*08
$GPGGA,000413.80,2959.999704,N,12000.001244,E,1,00,1.0,-21.8,M,7.0,M,,*4F

$GPVTG,,T,,M,0.0,N,0.0,K,A*23
$GPDTM,P90,,0000.000022,S,00000.000001,W,0.988,W84*5A
$GPRMC,000413.90,A,2959.999704,N,12000.001244,E,0.0,,230721,4.3,W,A*09
$GPGGA,000413.90,2959.999704,N,12000.001244,E,1,00,1.0,-21.8,M,7.0,M,,*4E

$GPGSV,3,1,12,02,32,298,26,04,50,244,26,07,83,105,27,08,47,206,27*7C
$GPGSV,3,2,12,13,48,030,27,20,21,120,26,23,25,057,27,25,64,040,27*70
$GPGSV,3,3,12,27,18,219,27,10,00,000,,16,00,000,,28,00,000,*75
$GLGSV,1,1,03,77,58,323,26,78,04,330,,76,62,160,*54
$GAGSV,1,1,0,7*43
$PQGSV,1,1,0,0*43
$PQGSV,1,1,0,0*43
$GPGSA,A,3,02,04,07,08,13,20,23,25,27,,,,1.3,1.0,0.8*33
$GPVTG,,T,,M,0.0,N,0.0,K,A*23
$GPDTM,P90,,0000.000022,S,00000.000001,W,0.988,W84*5A
$GPRMC,000414.00,A,2959.999709,N,12000.001243,E,0.0,,230721,4.3,W,A*0D
$GPGGA,000414.00,2959.999709,N,12000.001243,E,1,09,1.0,-21.8,M,7.0,M,,*43

$GPVTG,,T,,M,0.0,N,0.0,K,A*23
$GPDTM,P90,,0000.000022,S,00000.000001,W,0.988,W84*5A
$GPRMC,000414.10,A,2959.999709,N,12000.001243,E,0.0,,230721,4.3,W,A*0C
$GPGGA,000414.10,2959.999709,N,12000.001243,E,1,00,1.0,-21.8,M,7.0,M,,*4B

$GPVTG,,T,,M,0.0,N,0.0,K,A*23
$GPDTM,P90,,0000.000022,S,00000.000001,W,0.988,W84*5A
$GPRMC,000414.20,A,2959.999709,N,12000.001243,E,0.0,,230721,4.3,W,A*0F
$GPGGA,000414.20,2959.999709,N,12000.001243,E,1,00,1.0,-21.8,M,7.0,M,,*48

$GPVTG,,T,,M,0.0,N,0.0,K,A*23
$GPDTM,P90,,0000.000022,S,00000.000001,W,0.988,W84*5A
$GPRMC,000414.30,A,2959.999709,N,12000.001243,E,0.0,,230721,4.3,W,A*0E
$GPGGA,000414.30,2959.999709,N,12000.001243,E,1,00,1.0,-21.8,M,7.0,M,,*49

$GPVTG,,T,,M,0.0,N,0.0,K,A*23
$GPDTM,P90,,0000.000022,S,00000.000001,W,0.988,W84*5A
$GPRMC,000414.40,A,2959.999709,N,12000.001243,E,0.0,,230721,4.3,W,A*09
$GPGGA,000414.40,2959.999709,N,12000.001243,E,1,00,1.0,-21.8,M,7.0,M,,*4E

$GPVTG,,T,,M,0.0,N,0.0,K,A*23
$GPDTM,P90,,0000.000022,S,00000.000001,W,0.988,W84*5A
$GPRMC,000414.50,A,2959.999709,N,12000.001243,E,0.0,,230721,4.3,W,A*08
$GPGGA,000414.50,2959.999709,N,12000.001243,E,1,00,1.0,-21.8,M,7.0,M,,*4F

$GPVTG,,T,,M,0.0,N,0.0,K,A*23
$GPDTM,P90,,0000.000022,S,00000.000001,W,0.988,W84*5A
$GPRMC,000414.60,A,2959.999709,N,12000.001243,E,0.0,,230721,4.3,W,A*0B
$GPGGA,000414.60,2959.999709,N,12000.001243,E,1,00,1.0,-21.8,M,7.0,M,,*4C

$GPVTG,,T,,M,0.0,N,0.0,K,A*23
$GPDTM,P90,,0000.000022,S,00000.000001,W,0.988,W84*5A
$GPRMC,000414.70,A,2959.999709,N,12000.001243,E,0.0,,230721,4.3,W,A*0A
$GPGGA,000414.70,2959.999709,N,12000.001243,E,1,00,1.0,-21.8,M,7.0,M,,*4D

$GPVTG,,T,,M,0.0,N,0.0,K,A*23
$GPDTM,P90,,0000.000022,S,00000.000001,W,0.988,W84*5A
$GPRMC,000414.80,A,2959.999709,N,12000.001243,E,0.0,,230721,4.3,W,A*05
$GPGGA,000414.80,2959.999709,N,12000.001243,E,1,00,1.0,-21.8,M,7.0,M,,*42

$GPVTG,,T,,M,0.0,N,0.0,K,A*23
$GPDTM,P90,,0000.000022,S,00000.000001,W,0.988,W84*5A
$GPRMC,000414.90,A,2959.999709,N,12000.001243,E,0.0,,230721,4.3,W,A*04
$GPGGA,000414.90,2959.999709,N,12000.001243,E,1,00,1.0,-21.8,M,7.0,M,,*43

$GPGSV,3,1,12,02,32,298,27,04,50,244,26,07,83,105,27,08,47,206,26*7C
$GPGSV,3,2,12,13,48,030,27,20,21,120,26,23,25,057,27,25,64,040,27*70
$GPGSV,3,3,12,27,18,219,27,10,00,000,,16,00,000,,28,00,000,*75
$GLGSV,1,1,03,77,58,323,26,78,04,330,,76,62,160,*54
$GAGSV,1,1,0,7*43
$PQGSV,1,1,0,0*43
$PQGSV,1,1,0,0*43
$GPGSA,A,3,02,04,07,08,13,20,23,25,27,,,,1.3,1.0,0.8*33
$GPVTG,,T,,M,0.0,N,0.0,K,A*23
$GPDTM,P90,,0000.000022,S,00000.000001,W,0.988,W84*5A
$GPRMC,000415.00,A,2959.999708,N,12000.001245,E,0.0,,230721,4.3,W,A*0B
$GPGGA,000415.00,2959.999708,N,12000.001245,E,1,09,1.0,-21.9,M,7.0,M,,*44

$GPVTG,,T,,M,0.0,N,0.0,K,A*23
$GPDTM,P90,,0000.000022,S,00000.000001,W,0.988,W84*5A
$GPRMC,000415.10,A,2959.999708,N,12000.001245,E,0.0,,230721,4.3,W,A*0A
$GPGGA,000415.10,2959.999708,N,12000.001245,E,1,00,1.0,-21.9,M,7.0,M,,*4C

$GPVTG,,T,,M,0.0,N,0.0,K,A*23
$GPDTM,P90,,0000.000022,S,00000.000001,W,0.988,W84*5A
$GPRMC,000415.20,A,2959.999708,N,12000.001245,E,0.0,,230721,4.3,W,A*09
$GPGGA,000415.20,2959.999708,N,12000.001245,E,1,00,1.0,-21.9,M,7.0,M,,*4F

$GPVTG,,T,,M,0.0,N,0.0,K,A*23
$GPDTM,P90,,0000.000022,S,00000.000001,W,0.988,W84*5A
$GPRMC,000415.30,A,2959.999708,N,12000.001245,E,0.0,,230721,4.3,W,A*08
$GPGGA,000415.30,2959.999708,N,12000.001245,E,1,00,1.0,-21.9,M,7.0,M,,*4E

$GPVTG,,T,,M,0.0,N,0.0,K,A*23
$GPDTM,P90,,0000.000022,S,00000.000001,W,0.988,W84*5A
$GPRMC,000415.40,A,2959.999708,N,12000.001245,E,0.0,,230721,4.3,W,A*0F
$GPGGA,000415.40,2959.999708,N,12000.001245,E,1,00,1.0,-21.9,M,7.0,M,,*49

$GPVTG,,T,,M,0.0,N,0.0,K,A*23
$GPDTM,P90,,0000.000022,S,00000.000001,W,0.988,W84*5A
$GPRMC,000415.50,A,2959.999708,N,12000.001245,E,0.0,,230721,4.3,W,A*0E
$GPGGA,000415.50,2959.999708,N,12000.001245,E,1,00,1.0,-21.9,M,7.0,M,,*48

$GPVTG,,T,,M,0.0,N,0.0,K,A*23
$GPDTM,P90,,0000.000022,S,00000.000001,W,0.988,W84*5A
$GPRMC,000415.60,A,2959.999708,N,12000.001245,E,0.0,,230721,4.3,W,A*0D
$GPGGA,000415.60,2959.999708,N,12000.001245,E,1,00,1.0,-21.9,M,7.0,M,,*4B

$GPVTG,,T,,M,0.0,N,0.0,K,A*23
$GPDTM,P90,,0000.000022,S,00000.000001,W,0.988,W84*5A
$GPRMC,000415.70,A,2959.999708,N,12000.001245,E,0.0,,230721,4.3,W,A*0C
$GPGGA,000415.70,2959.999708,N,12000.001245,E,1,00,1.0,-21.9,M,7.0,M,,*4A

$GPVTG,,T,,M,0.0,N,0.0,K,A*23
$GPDTM,P90,,0000.000022,S,00000.000001,W,0.988,W84*5A
$GPRMC,000415.80,A,2959.999708,N,12000.001245,E,0.0,,230721,4.3,W,A*03
$GPGGA,000415.80,2959.999708,N,12000.001245,E,1,00,1.0,-21.9,M,7.0,M,,*45

$GPVTG,,T,,M,0.0,N,0.0,K,A*23
$GPDTM,P90,,0000.000022,S,00000.000001,W,0.988,W84*5A
$GPRMC,000415.90,A,2959.999708,N,12000.001245,E,0.0,,230721,4.3,W,A*02
$GPGGA,000415.90,2959.999708,N,12000.001245,E,1,00,1.0,-21.9,M,7.0,M,,*44

$GPGSV,3,1,12,02,32,298,27,04,50,244,27,07,83,105,28,08,47,206,27*73
$GPGSV,3,2,12,13,48,030,27,20,21,120,26,23,25,057,27,25,64,040,26*71
$GPGSV,3,3,12,27,18,219,27,10,00,000,,16,00,000,,28,00,000,*75
$GLGSV,1,1,03,77,58,323,25,78,04,330,,76,62,160,*57
$GAGSV,1,1,0,7*43
$PQGSV,1,1,0,0*43
$PQGSV,1,1,0,0*43
$GPGSA,A,3,02,04,07,08,13,20,23,25,27,,,,1.3,1.0,0.8*33
$GPVTG,,T,,M,0.0,N,0.0,K,A*23
$GPDTM,P90,,0000.000022,S,00000.000001,W,0.988,W84*5A
$GPRMC,000416.00,A,2959.999706,N,12000.001250,E,0.0,,230721,4.3,W,A*02
$GPGGA,000416.00,2959.999706,N,12000.001250,E,1,09,1.0,-21.9,M,7.0,M,,*4D

$GPVTG,,T,,M,0.0,N,0.0,K,A*23
$GPDTM,P90,,0000.000022,S,00000.000001,W,0.988,W84*5A
$GPRMC,000416.10,A,2959.999706,N,12000.001250,E,0.0,,230721,4.3,W,A*03
$GPGGA,000416.10,2959.999706,N,12000.001250,E,1,00,1.0,-21.9,M,7.0,M,,*45

$GPVTG,,T,,M,0.0,N,0.0,K,A*23
$GPDTM,P90,,0000.000022,S,00000.000001,W,0.988,W84*5A
$GPRMC,000416.20,A,2959.999706,N,12000.001250,E,0.0,,230721,4.3,W,A*00
$GPGGA,000416.20,2959.999706,N,12000.001250,E,1,00,1.0,-21.9,M,7.0,M,,*46

$GPVTG,,T,,M,0.0,N,0.0,K,A*23
$GPDTM,P90,,0000.000022,S,00000.000001,W,0.988,W84*5A
$GPRMC,000416.30,A,2959.999706,N,12000.001250,E,0.0,,230721,4.3,W,A*01
$GPGGA,000416.30,2959.999706,N,12000.001250,E,1,00,1.0,-21.9,M,7.0,M,,*47

$GPVTG,,T,,M,0.0,N,0.0,K,A*23
$GPDTM,P90,,0000.000022,S,00000.000001,W,0.988,W84*5A
$GPRMC,000416.40,A,2959.999706,N,12000.001250,E,0.0,,230721,4.3,W,A*06
$GPGGA,000416.40,2959.999706,N,12000.001250,E,1,00,1.0,-21.9,M,7.0,M,,*40

$GPVTG,,T,,M,0.0,N,0.0,K,A*23
$GPDTM,P90,,0000.000022,S,00000.000001,W,0.988,W84*5A
$GPRMC,000416.50,A,2959.999706,N,12000.001250,E,0.0,,230721,4.3,W,A*07
$GPGGA,000416.50,2959.999706,N,12000.001250,E,1,00,1.0,-21.9,M,7.0,M,,*41

$GPVTG,,T,,M,0.0,N,0.0,K,A*23
$GPDTM,P90,,0000.000022,S,00000.000001,W,0.988,W84*5A
$GPRMC,000416.60,A,2959.999706,N,12000.001250,E,0.0,,230721,4.3,W,A*04
$GPGGA,000416.60,2959.999706,N,12000.001250,E,1,00,1.0,-21.9,M,7.0,M,,*42

$GPVTG,,T,,M,0.0,N,0.0,K,A*23
$GPDTM,P90,,0000.000022,S,00000.000001,W,0.988,W84*5A
$GPRMC,000416.70,A,2959.999706,N,12000.001250,E,0.0,,230721,4.3,W,A*05
$GPGGA,000416.70,2959.999706,N,12000.001250,E,1,00,1.0,-21.9,M,7.0,M,,*43

$GPVTG,,T,,M,0.0,N,0.0,K,A*23
$GPDTM,P90,,0000.000022,S,00000.000001,W,0.988,W84*5A
$GPRMC,000416.80,A,2959.999706,N,12000.001250,E,0.0,,230721,4.3,W,A*0A
$GPGGA,000416.80,2959.999706,N,12000.001250,E,1,00,1.0,-21.9,M,7.0,M,,*4C

$GPVTG,,T,,M,0.0,N,0.0,K,A*23
$GPDTM,P90,,0000.000022,S,00000.000001,W,0.988,W84*5A
$GPRMC,000416.90,A,2959.999706,N,12000.001250,E,0.0,,230721,4.3,W,A*0B
$GPGGA,000416.90,2959.999706,N,12000.001250,E,1,00,1.0,-21.9,M,7.0,M,,*4D

$GPGSV,3,1,12,02,32,298,28,04,50,244,26,07,83,105,26,08,47,206,26*72
$GPGSV,3,2,12,13,48,030,27,20,21,120,27,23,25,057,27,25,64,040,27*71
$GPGSV,3,3,12,27,18,219,26,10,00,000,,16,00,000,,28,00,000,*74
$GLGSV,1,1,03,77,58,323,25,78,04,330,,76,62,160,*57
$GAGSV,1,1,0,7*43
$PQGSV,1,1,0,0*43
$PQGSV,1,1,0,0*43
$GPGSA,A,3,02,04,07,08,13,20,23,25,27,,,,1.3,1.0,0.8*33
$GPVTG,,T,,M,0.0,N,0.0,K,A*23
$GPDTM,P90,,0000.000022,S,00000.000001,W,0.988,W84*5A
$GPRMC,000417.00,A,2959.999709,N,12000.001246,E,0.0,,230721,4.3,W,A*0B
$GPGGA,000417.00,2959.999709,N,12000.001246,E,1,09,1.0,-21.8,M,7.0,M,,*45

$GPVTG,,T,,M,0.0,N,0.0,K,A*23
$GPDTM,P90,,0000.000022,S,00000.000001,W,0.988,W84*5A
$GPRMC,000417.10,A,2959.999709,N,12000.001246,E,0.0,,230721,4.3,W,A*0A
$GPGGA,000417.10,2959.999709,N,12000.001246,E,1,00,1.0,-21.8,M,7.0,M,,*4D

$GPVTG,,T,,M,0.0,N,0.0,K,A*23
$GPDTM,P90,,0000.000022,S,00000.000001,W,0.988,W84*5A
$GPRMC,000417.20,A,2959.999709,N,12000.001246,E,0.0,,230721,4.3,W,A*09
$GPGGA,000417.20,2959.999709,N,12000.001246,E,1,00,1.0,-21.8,M,7.0,M,,*4E

$GPVTG,,T,,M,0.0,N,0.0,K,A*23
$GPDTM,P90,,0000.000022,S,00000.000001,W,0.988,W84*5A
$GPRMC,000417.30,A,2959.999709,N,12000.001246,E,0.0,,230721,4.3,W,A*08
$GPGGA,000417.30,2959.999709,N,12000.001246,E,1,00,1.0,-21.8,M,7.0,M,,*4F

$GPVTG,,T,,M,0.0,N,0.0,K,A*23
$GPDTM,P90,,0000.000022,S,00000.000001,W,0.988,W84*5A
$GPRMC,000417.40,A,2959.999709,N,12000.001246,E,0.0,,230721,4.3,W,A*0F
$GPGGA,000417.40,2959.999709,N,12000.001246,E,1,00,1.0,-21.8,M,7.0,M,,*48

$GPVTG,,T,,M,0.0,N,0.0,K,A*23
$GPDTM,P90,,0000.000022,S,00000.000001,W,0.988,W84*5A
$GPRMC,000417.50,A,2959.999709,N,12000.001246,E,0.0,,230721,4.3,W,A*0E
$GPGGA,000417.50,2959.999709,N,12000.001246,E,1,00,1.0,-21.8,M,7.0,M,,*49

$GPVTG,,T,,M,0.0,N,0.0,K,A*23
$GPDTM,P90,,0000.000022,S,00000.000001,W,0.988,W84*5A
$GPRMC,000417.60,A,2959.999709,N,12000.001246,E,0.0,,230721,4.3,W,A*0D
$GPGGA,000417.60,2959.999709,N,12000.001246,E,1,00,1.0,-21.8,M,7.0,M,,*4A

$GPVTG,,T,,M,0.0,N,0.0,K,A*23
$GPDTM,P90,,0000.000022,S,00000.000001,W,0.988,W84*5A
$GPRMC,000417.70,A,2959.999709,N,12000.001246,E,0.0,,230721,4.3,W,A*0C
$GPGGA,000417.70,2959.999709,N,12000.001246,E,1,00,1.0,-21.8,M,7.0,M,,*4B

$GPVTG,,T,,M,0.0,N,0.0,K,A*23
$GPDTM,P90,,0000.000022,S,00000.000001,W,0.988,W84*5A
$GPRMC,000417.80,A,2959.999709,N,12000.001246,E,0.0,,230721,4.3,W,A*03
$GPGGA,000417.80,2959.999709,N,12000.001246,E,1,00,1.0,-21.8,M,7.0,M,,*44

$GPVTG,,T,,M,0.0,N,0.0,K,A*23
$GPDTM,P90,,0000.000022,S,00000.000001,W,0.988,W84*5A
$GPRMC,000417.90,A,2959.999709,N,12000.001246,E,0.0,,230721,4.3,W,A*02
$GPGGA,000417.90,2959.999709,N,12000.001246,E,1,00,1.0,-21.8,M,7.0,M,,*45

$GPGSV,3,1,12,02,32,298,27,04,50,244,27,07,83,105,27,08,47,206,26*7D
$GPGSV,3,2,12,13,48,030,27,20,21,120,26,23,25,057,27,25,64,040,26*71
$GPGSV,3,3,12,27,18,219,28,10,00,000,,16,00,000,,28,00,000,*7A
$GLGSV,1,1,03,77,58,323,26,78,04,330,,76,62,160,*54
$GAGSV,1,1,0,7*43
$PQGSV,1,1,0,0*43
$PQGSV,1,1,0,0*43
$GPGSA,A,3,02,04,07,08,13,20,23,25,27,,,,1.3,1.0,0.8*33
$GPVTG,,T,,M,0.0,N,0.0,K,A*23
$GPDTM,P90,,0000.000022,S,00000.000001,W,0.988,W84*5A
$GPRMC,000418.00,A,2959.999715,N,12000.001243,E,0.0,,230721,4.3,W,A*0C
$GPGGA,000418.00,2959.999715,N,12000.001243,E,1,09,1.0,-21.8,M,7.0,M,,*42

$GPVTG,,T,,M,0.0,N,0.0,K,A*23
$GPDTM,P90,,0000.000022,S,00000.000001,W,0.988,W84*5A
$GPRMC,000418.10,A,2959.999715,N,12000.001243,E,0.0,,230721,4.3,W,A*0D
$GPGGA,000418.10,2959.999715,N,12000.001243,E,1,00,1.0,-21.8,M,7.0,M,,*4A

$GPVTG,,T,,M,0.0,N,0.0,K,A*23
$GPDTM,P90,,0000.000022,S,00000.000001,W,0.988,W84*5A
$GPRMC,000418.20,A,2959.999715,N,12000.001243,E,0.0,,230721,4.3,W,A*0E
$GPGGA,000418.20,2959.999715,N,12000.001243,E,1,00,1.0,-21.8,M,7.0,M,,*49

$GPVTG,,T,,M,0.0,N,0.0,K,A*23
$GPDTM,P90,,0000.000022,S,00000.000001,W,0.988,W84*5A
$GPRMC,000418.30,A,2959.999715,N,12000.001243,E,0.0,,230721,4.3,W,A*0F
$GPGGA,000418.30,2959.999715,N,12000.001243,E,1,00,1.0,-21.8,M,7.0,M,,*48

$GPVTG,,T,,M,0.0,N,0.0,K,A*23
$GPDTM,P90,,0000.000022,S,00000.000001,W,0.988,W84*5A
$GPRMC,000418.40,A,2959.999715,N,12000.001243,E,0.0,,230721,4.3,W,A*08
$GPGGA,000418.40,2959.999715,N,12000.001243,E,1,00,1.0,-21.8,M,7.0,M,,*4F

$GPVTG,,T,,M,0.0,N,0.0,K,A*23
$GPDTM,P90,,0000.000022,S,00000.000001,W,0.988,W84*5A
$GPRMC,000418.50,A,2959.999715,N,12000.001243,E,0.0,,230721,4.3,W,A*09
$GPGGA,000418.50,2959.999715,N,12000.001243,E,1,00,1.0,-21.8,M,7.0,M,,*4E

$GPVTG,,T,,M,0.0,N,0.0,K,A*23
$GPDTM,P90,,0000.000022,S,00000.000001,W,0.988,W84*5A
$GPRMC,000418.60,A,2959.999715,N,12000.001243,E,0.0,,230721,4.3,W,A*0A
$GPGGA,000418.60,2959.999715,N,12000.001243,E,1,00,1.0,-21.8,M,7.0,M,,*4D

$GPVTG,,T,,M,0.0,N,0.0,K,A*23
$GPDTM,P90,,0000.000022,S,00000.000001,W,0.988,W84*5A
$GPRMC,000418.70,A,2959.999715,N,12000.001243,E,0.0,,230721,4.3,W,A*0B
$GPGGA,000418.70,2959.999715,N,12000.001243,E,1,00,1.0,-21.8,M,7.0,M,,*4C

$GPVTG,,T,,M,0.0,N,0.0,K,A*23
$GPDTM,P90,,0000.000022,S,00000.000001,W,0.988,W84*5A
$GPRMC,000418.80,A,2959.999715,N,12000.001243,E,0.0,,230721,4.3,W,A*04
$GPGGA,000418.80,2959.999715,N,12000.001243,E,1,00,1.0,-21.8,M,7.0,M,,*43

$GPVTG,,T,,M,0.0,N,0.0,K,A*23
$GPDTM,P90,,0000.000022,S,00000.000001,W,0.988,W84*5A
$GPRMC,000418.90,A,2959.999715,N,12000.001243,E,0.0,,230721,4.3,W,A*05
$GPGGA,000418.90,2959.999715,N,12000.001243,E,1,00,1.0,-21.8,M,7.0,M,,*42

$GPGSV,3,1,12,02,32,298,26,04,50,244,27,07,83,105,27,08,47,206,26*7C
$GPGSV,3,2,12,13,48,030,27,20,21,120,27,23,25,057,28,25,64,040,27*7E
$GPGSV,3,3,12,27,18,219,27,10,00,000,,16,00,000,,28,00,000,*75
$GLGSV,1,1,03,77,58,323,26,78,04,330,,76,62,160,*54
$GAGSV,1,1,0,7*43
$PQGSV,1,1,0,0*43
$PQGSV,1,1,0,0*43
$GPGSA,A,3,02,04,07,08,13,20,23,25,27,,,,1.3,1.0,0.8*33
$GPVTG,,T,,M,0.0,N,0.0,K,A*23
$GPDTM,P90,,0000.000022,S,00000.000001,W,0.988,W84*5A
$GPRMC,000419.00,A,2959.999713,N,12000.001241,E,0.0,,230721,4.3,W,A*09
$GPGGA,000419.00,2959.999713,N,12000.001241,E,1,09,1.0,-21.8,M,7.0,M,,*47

$GPVTG,,T,,M,0.0,N,0.0,K,A*23
$GPDTM,P90,,0000.000022,S,00000.000001,W,0.988,W84*5A
$GPRMC,000419.10,A,2959.999713,N,12000.001241,E,0.0,,230721,4.3,W,A*08
$GPGGA,000419.10,2959.999713,N,12000.001241,E,1,00,1.0,-21.8,M,7.0,M,,*4F

$GPVTG,,T,,M,0.0,N,0.0,K,A*23
$GPDTM,P90,,0000.000022,S,00000.000001,W,0.988,W84*5A
$GPRMC,000419.20,A,2959.999713,N,12000.001241,E,0.0,,230721,4.3,W,A*0B
$GPGGA,000419.20,2959.999713,N,12000.001241,E,1,00,1.0,-21.8,M,7.0,M,,*4C

$GPVTG,,T,,M,0.0,N,0.0,K,A*23
$GPDTM,P90,,0000.000022,S,00000.000001,W,0.988,W84*5A
$GPRMC,000419.30,A,2959.999713,N,12000.001241,E,0.0,,230721,4.3,W,A*0A
$GPGGA,000419.30,2959.999713,N,12000.001241,E,1,00,1.0,-21.8,M,7.0,M,,*4D

$GPVTG,,T,,M,0.0,N,0.0,K,A*23
$GPDTM,P90,,0000.000022,S,00000.000001,W,0.988,W84*5A
$GPRMC,000419.40,A,2959.999713,N,12000.001241,E,0.0,,230721,4.3,W,A*0D
$GPGGA,000419.40,2959.999713,N,12000.001241,E,1,00,1.0,-21.8,M,7.0,M,,*4A

$GPVTG,,T,,M,0.0,N,0.0,K,A*23
$GPDTM,P90,,0000.000022,S,00000.000001,W,0.988,W84*5A
$GPRMC,000419.50,A,2959.999713,N,12000.001241,E,0.0,,230721,4.3,W,A*0C
$GPGGA,000419.50,2959.999713,N,12000.001241,E,1,00,1.0,-21.8,M,7.0,M,,*4B

$GPVTG,,T,,M,0.0,N,0.0,K,A*23
$GPDTM,P90,,0000.000022,S,00000.000001,W,0.988,W84*5A
$GPRMC,000419.60,A,2959.999713,N,12000.001241,E,0.0,,230721,4.3,W,A*0F
$GPGGA,000419.60,2959.999713,N,12000.001241,E,1,00,1.0,-21.8,M,7.0,M,,*48

$GPVTG,,T,,M,0.0,N,0.0,K,A*23
$GPDTM,P90,,0000.000022,S,00000.000001,W,0.988,W84*5A
$GPRMC,000419.70,A,2959.999713,N,12000.001241,E,0.0,,230721,4.3,W,A*0E
$GPGGA,000419.70,2959.999713,N,12000.001241,E,1,00,1.0,-21.8,M,7.0,M,,*49

$GPVTG,,T,,M,0.0,N,0.0,K,A*23
$GPDTM,P90,,0000.000022,S,00000.000001,W,0.988,W84*5A
$GPRMC,000419.80,A,2959.999713,N,12000.001241,E,0.0,,230721,4.3,W,A*01
$GPGGA,000419.80,2959.999713,N,12000.001241,E,1,00,1.0,-21.8,M,7.0,M,,*46

$GPVTG,,T,,M,0.0,N,0.0,K,A*23
$GPDTM,P90,,0000.000022,S,00000.000001,W,0.988,W84*5A
$GPRMC,000419.90,A,2959.999713,N,12000.001241,E,0.0,,230721,4.3,W,A*00
$GPGGA,000419.90,2959.999713,N,12000.001241,E,1,00,1.0,-21.8,M,7.0,M,,*47

$GPGSV,3,1,12,02,32,298,27,04,50,244,28,07,83,105,27,08,47,206,27*73
$GPGSV,3,2,12,13,48,030,27,20,21,120,27,23,25,057,26,25,64,040,27*70
$GPGSV,3,3,12,27,18,219,26,10,00,000,,16,00,000,,28,00,000,*74
$GLGSV,1,1,03,77,58,323,26,78,04,330,,76,62,160,*54
$GAGSV,1,1,0,7*43
$PQGSV,1,1,0,0*43
$PQGSV,1,1,0,0*43
$GPGSA,A,3,02,04,07,08,13,20,23,25,27,,,,1.3,1.0,0.8*33
$GPVTG,,T,,M,0.0,N,0.0,K,A*23
$GPDTM,P90,,0000.000022,S,00000.000001,W,0.988,W84*5A
$GPRMC,000420.00,A,2959.999708,N,12000.001244,E,0.0,,230721,4.3,W,A*0C
$GPGGA,000420.00,2959.999708,N,12000.001244,E,1,09,1.0,-21.8,M,7.0,M,,*42

$GPVTG,,T,,M,0.0,N,0.0,K,A*23
$GPDTM,P90,,0000.000022,S,00000.000001,W,0.988,W84*5A
$GPRMC,000420.10,A,2959.999708,N,12000.001244,E,0.0,,230721,4.3,W,A*0D
$GPGGA,000420.10,2959.999708,N,12000.001244,E,1,00,1.0,-21.8,M,7.0,M,,*4A

$GPVTG,,T,,M,0.0,N,0.0,K,A*23
$GPDTM,P90,,0000.000022,S,00000.000001,W,0.988,W84*5A
$GPRMC,000420.20,A,2959.999708,N,12000.001244,E,0.0,,230721,4.3,W,A*0E
$GPGGA,000420.20,2959.999708,N,12000.001244,E,1,00,1.0,-21.8,M,7.0,M,,*49

$GPVTG,,T,,M,0.0,N,0.0,K,A*23
$GPDTM,P90,,0000.000022,S,00000.000001,W,0.988,W84*5A
$GPRMC,000420.30,A,2959.999708,N,12000.001244,E,0.0,,230721,4.3,W,A*0F
$GPGGA,000420.30,2959.999708,N,12000.001244,E,1,00,1.0,-21.8,M,7.0,M,,*48

$GPVTG,,T,,M,0.0,N,0.0,K,A*23
$GPDTM,P90,,0000.000022,S,00000.000001,W,0.988,W84*5A
$GPRMC,000420.40,A,2959.999708,N,12000.001244,E,0.0,,230721,4.3,W,A*08
$GPGGA,000420.40,2959.999708,N,12000.001244,E,1,00,1.0,-21.8,M,7.0,M,,*4F

$GPVTG,,T,,M,0.0,N,0.0,K,A*23
$GPDTM,P90,,0000.000022,S,00000.000001,W,0.988,W84*5A
$GPRMC,000420.50,A,2959.999708,N,12000.001244,E,0.0,,230721,4.3,W,A*09
$GPGGA,000420.50,2959.999708,N,12000.001244,E,1,00,1.0,-21.8,M,7.0,M,,*4E

$GPVTG,,T,,M,0.0,N,0.0,K,A*23
$GPDTM,P90,,0000.000022,S,00000.000001,W,0.988,W84*5A
$GPRMC,000420.60,A,2959.999708,N,12000.001244,E,0.0,,230721,4.3,W,A*0A
$GPGGA,000420.60,2959.999708,N,12000.001244,E,1,00,1.0,-21.8,M,7.0,M,,*4D

$GPVTG,,T,,M,0.0,N,0.0,K,A*23
$GPDTM,P90,,0000.000022,S,00000.000001,W,0.988,W84*5A
$GPRMC,000420.70,A,2959.999708,N,12000.001244,E,0.0,,230721,4.3,W,A*0B
$GPGGA,000420.70,2959.999708,N,12000.001244,E,1,00,1.0,-21.8,M,7.0,M,,*4C

$GPVTG,,T,,M,0.0,N,0.0,K,A*23
$GPDTM,P90,,0000.000022,S,00000.000001,W,0.988,W84*5A
$GPRMC,000420.80,A,2959.999708,N,12000.001244,E,0.0,,230721,4.3,W,A*04
$GPGGA,000420.80,2959.999708,N,12000.001244,E,1,00,1.0,-21.8,M,7.0,M,,*43

$GPVTG,,T,,M,0.0,N,0.0,K,A*23
$GPDTM,P90,,0000.000022,S,00000.000001,W,0.988,W84*5A
$GPRMC,000420.90,A,2959.999708,N,12000.001244,E,0.0,,230721,4.3,W,A*05
$GPGGA,000420.90,2959.999708,N,12000.001244,E,1,00,1.0,-21.8,M,7.0,M,,*42

$GPGSV,3,1,12,02,32,298,27,04,50,244,27,07,83,105,28,08,47,206,27*73
$GPGSV,3,2,12,13,48,030,27,20,21,120,27,23,25,057,28,25,64,040,26*7F
$GPGSV,3,3,12,27,18,219,27,10,00,000,,16,00,000,,28,00,000,*75
$GLGSV,1,1,03,77,58,323,25,78,04,330,,76,62,160,*57
$GAGSV,1,1,0,7*43
$PQGSV,1,1,0,0*43
$PQGSV,1,1,0,0*43
$GPGSA,A,3,02,04,07,08,13,20,23,25,27,,,,1.3,1.0,0.8*33
$GPVTG,,T,,M,0.0,N,0.0,K,A*23
$GPDTM,P90,,0000.000022,S,00000.000001,W,0.988,W84*5A
$GPRMC,000421.00,A,2959.999700,N,12000.001240,E,0.0,,230721,4.3,W,A*01
$GPGGA,000421.00,2959.999700,N,12000.001240,E,1,09,1.0,-21.8,M,7.0,M,,*4F

$GPVTG,,T,,M,0.0,N,0.0,K,A*23
$GPDTM,P90,,0000.000022,S,00000.000001,W,0.988,W84*5A
$GPRMC,000421.10,A,2959.999700,N,12000.001240,E,0.0,,230721,4.3,W,A*00
$GPGGA,000421.10,2959.999700,N,12000.001240,E,1,00,1.0,-21.8,M,7.0,M,,*47

$GPVTG,,T,,M,0.0,N,0.0,K,A*23
$GPDTM,P90,,0000.000022,S,00000.000001,W,0.988,W84*5A
$GPRMC,000421.20,A,2959.999700,N,12000.001240,E,0.0,,230721,4.3,W,A*03
$GPGGA,000421.20,2959.999700,N,12000.001240,E,1,00,1.0,-21.8,M,7.0,M,,*44

$GPVTG,,T,,M,0.0,N,0.0,K,A*23
$GPDTM,P90,,0000.000022,S,00000.000001,W,0.988,W84*5A
$GPRMC,000421.30,A,2959.999700,N,12000.001240,E,0.0,,230721,4.3,W,A*02
$GPGGA,000421.30,2959.999700,N,12000.001240,E,1,00,1.0,-21.8,M,7.0,M,,*45

$GPVTG,,T,,M,0.0,N,0.0,K,A*23
$GPDTM,P90,,0000.000022,S,00000.000001,W,0.988,W84*5A
$GPRMC,000421.40,A,2959.999700,N,12000.001240,E,0.0,,230721,4.3,W,A*05
$GPGGA,000421.40,2959.999700,N,12000.001240,E,1,00,1.0,-21.8,M,7.0,M,,*42

$GPVTG,,T,,M,0.0,N,0.0,K,A*23
$GPDTM,P90,,0000.000022,S,00000.000001,W,0.988,W84*5A
$GPRMC,000421.50,A,2959.999700,N,12000.001240,E,0.0,,230721,4.3,W,A*04
$GPGGA,000421.50,2959.999700,N,12000.001240,E,1,00,1.0,-21.8,M,7.0,M,,*43

$GPVTG,,T,,M,0.0,N,0.0,K,A*23
$GPDTM,P90,,0000.000022,S,00000.000001,W,0.988,W84*5A
$GPRMC,000421.60,A,2959.999700,N,12000.001240,E,0.0,,230721,4.3,W,A*07
$GPGGA,000421.60,2959.999700,N,12000.001240,E,1,00,1.0,-21.8,M,7.0,M,,*40

$GPVTG,,T,,M,0.0,N,0.0,K,A*23
$GPDTM,P90,,0000.000022,S,00000.000001,W,0.988,W84*5A
$GPRMC,000421.70,A,2959.999700,N,12000.001240,E,0.0,,230721,4.3,W,A*06
$GPGGA,000421.70,2959.999700,N,12000.001240,E,1,00,1.0,-21.8,M,7.0,M,,*41

$GPVTG,,T,,M,0.0,N,0.0,K,A*23
$GPDTM,P90,,0000.000022,S,00000.000001,W,0.988,W84*5A
$GPRMC,000421.80,A,2959.999700,N,12000.001240,E,0.0,,230721,4.3,W,A*09
$GPGGA,000421.80,2959.999700,N,12000.001240,E,1,00,1.0,-21.8,M,7.0,M,,*4E

$GPVTG,,T,,M,0.0,N,0.0,K,A*23
$GPDTM,P90,,0000.000022,S,00000.000001,W,0.988,W84*5A
$GPRMC,000421.90,A,2959.999700,N,12000.001240,E,0.0,,230721,4.3,W,A*08
$GPGGA,000421.90,2959.999700,N,12000.001240,E,1,00,1.0,-21.8,M,7.0,M,,*4F

$GPGSV,3,1,12,02,32,298,28,04,50,244,27,07,83,105,27,08,47,206,27*73
$GPGSV,3,2,12,13,48,030,27,20,21,120,26,23,25,057,27,25,64,040,26*71
$GPGSV,3,3,12,27,18,219,27,10,00,000,,16,00,000,,28,00,000,*75
$GLGSV,1,1,03,77,58,323,25,78,04,330,,76,62,160,*57
$GAGSV,1,1,0,7*43
$PQGSV,1,1,0,0*43
$PQGSV,1,1,0,0*43
$GPGSA,A,3,02,04,07,08,13,20,23,25,27,,,,1.3,1.0,0.8*33
$GPVTG,,T,,M,0.0,N,0.0,K,A*23
$GPDTM,P90,,0000.000022,S,00000.000001,W,0.988,W84*5A
$GPRMC,000422.00,A,2959.999698,N,12000.001235,E,0.0,,230721,4.3,W,A*00
$GPGGA,000422.00,2959.999698,N,12000.001235,E,1,09,1.0,-21.8,M,7.0,M,,*4E

$GPVTG,,T,,M,0.0,N,0.0,K,A*23
$GPDTM,P90,,0000.000022,S,00000.000001,W,0.988,W84*5A
$GPRMC,000422.10,A,2959.999698,N,12000.001235,E,0.0,,230721,4.3,W,A*01
$GPGGA,000422.10,2959.999698,N,12000.001235,E,1,00,1.0,-21.8,M,7.0,M,,*46

$GPVTG,,T,,M,0.0,N,0.0,K,A*23
$GPDTM,P90,,0000.000022,S,00000.000001,W,0.988,W84*5A
$GPRMC,000422.20,A,2959.999698,N,12000.001235,E,0.0,,230721,4.3,W,A*02
$GPGGA,000422.20,2959.999698,N,12000.001235,E,1,00,1.0,-21.8,M,7.0,M,,*45

$GPVTG,,T,,M,0.0,N,0.0,K,A*23
$GPDTM,P90,,0000.000022,S,00000.000001,W,0.988,W84*5A
$GPRMC,000422.30,A,2959.999698,N,12000.001235,E,0.0,,230721,4.3,W,A*03
$GPGGA,000422.30,2959.999698,N,12000.001235,E,1,00,1.0,-21.8,M,7.0,M,,*44

$GPVTG,,T,,M,0.0,N,0.0,K,A*23
$GPDTM,P90,,0000.000022,S,00000.000001,W,0.988,W84*5A
$GPRMC,000422.40,A,2959.999698,N,12000.001235,E,0.0,,230721,4.3,W,A*04
$GPGGA,000422.40,2959.999698,N,12000.001235,E,1,00,1.0,-21.8,M,7.0,M,,*43

$GPVTG,,T,,M,0.0,N,0.0,K,A*23
$GPDTM,P90,,0000.000022,S,00000.000001,W,0.988,W84*5A
$GPRMC,000422.50,A,2959.999698,N,12000.001235,E,0.0,,230721,4.3,W,A*05
$GPGGA,000422.50,2959.999698,N,12000.001235,E,1,00,1.0,-21.8,M,7.0,M,,*42

$GPVTG,,T,,M,0.0,N,0.0,K,A*23
$GPDTM,P90,,0000.000022,S,00000.000001,W,0.988,W84*5A
$GPRMC,000422.60,A,2959.999698,N,12000.001235,E,0.0,,230721,4.3,W,A*06
$GPGGA,000422.60,2959.999698,N,12000.001235,E,1,00,1.0,-21.8,M,7.0,M,,*41

$GPVTG,,T,,M,0.0,N,0.0,K,A*23
$GPDTM,P90,,0000.000022,S,00000.000001,W,0.988,W84*5A
$GPRMC,000422.70,A,2959.999698,N,12000.001235,E,0.0,,230721,4.3,W,A*07
$GPGGA,000422.70,2959.999698,N,12000.001235,E,1,00,1.0,-21.8,M,7.0,M,,*40

$GPVTG,,T,,M,0.0,N,0.0,K,A*23
$GPDTM,P90,,0000.000022,S,00000.000001,W,0.988,W84*5A
$GPRMC,000422.80,A,2959.999698,N,12000.001235,E,0.0,,230721,4.3,W,A*08
$GPGGA,000422.80,2959.999698,N,12000.001235,E,1,00,1.0,-21.8,M,7.0,M,,*4F

$GPVTG,,T,,M,0.0,N,0.0,K,A*23
$GPDTM,P90,,0000.000022,S,00000.000001,W,0.988,W84*5A
$GPRMC,000422.90,A,2959.999698,N,12000.001235,E,0.0,,230721,4.3,W,A*09
$GPGGA,000422.90,2959.999698,N,12000.001235,E,1,00,1.0,-21.8,M,7.0,M,,*4E

$GPGSV,3,1,12,02,32,298,27,04,50,244,27,07,83,105,27,08,47,206,28*73
$GPGSV,3,2,12,13,48,030,27,20,21,120,27,23,25,057,27,25,64,040,27*71
$GPGSV,3,3,12,27,18,219,27,10,00,000,,16,00,000,,28,00,000,*75
$GLGSV,1,1,03,77,58,323,26,78,04,330,,76,62,160,*54
$GAGSV,1,1,0,7*43
$PQGSV,1,1,0,0*43
$PQGSV,1,1,0,0*43
$GPGSA,A,3,02,04,07,08,13,20,23,25,27,,,,1.3,1.0,0.8*33
$GPVTG,,T,,M,0.0,N,0.0,K,A*23
$GPDTM,P90,,0000.000022,S,00000.000001,W,0.988,W84*5A
$GPRMC,000423.00,A,2959.999703,N,12000.001238,E,0.0,,230721,4.3,W,A*0F
$GPGGA,000423.00,2959.999703,N,12000.001238,E,1,09,1.0,-21.8,M,7.0,M,,*41

$GPVTG,,T,,M,0.0,N,0.0,K,A*23
$GPDTM,P90,,0000.000022,S,00000.000001,W,0.988,W84*5A
$GPRMC,000423.10,A,2959.999703,N,12000.001238,E,0.0,,230721,4.3,W,A*0E
$GPGGA,000423.10,2959.999703,N,12000.001238,E,1,00,1.0,-21.8,M,7.0,M,,*49

$GPVTG,,T,,M,0.0,N,0.0,K,A*23
$GPDTM,P90,,0000.000022,S,00000.000001,W,0.988,W84*5A
$GPRMC,000423.20,A,2959.999703,N,12000.001238,E,0.0,,230721,4.3,W,A*0D
$GPGGA,000423.20,2959.999703,N,12000.001238,E,1,00,1.0,-21.8,M,7.0,M,,*4A

$GPVTG,,T,,M,0.0,N,0.0,K,A*23
$GPDTM,P90,,0000.000022,S,00000.000001,W,0.988,W84*5A
$GPRMC,000423.30,A,2959.999703,N,12000.001238,E,0.0,,230721,4.3,W,A*0C
$GPGGA,000423.30,2959.999703,N,12000.001238,E,1,00,1.0,-21.8,M,7.0,M,,*4B

$GPVTG,,T,,M,0.0,N,0.0,K,A*23
$GPDTM,P90,,0000.000022,S,00000.000001,W,0.988,W84*5A
$GPRMC,000423.40,A,2959.999703,N,12000.001238,E,0.0,,230721,4.3,W,A*0B
$GPGGA,000423.40,2959.999703,N,12000.001238,E,1,00,1.0,-21.8,M,7.0,M,,*4C

$GPVTG,,T,,M,0.0,N,0.0,K,A*23
$GPDTM,P90,,0000.000022,S,00000.000001,W,0.988,W84*5A
$GPRMC,000423.50,A,2959.999703,N,12000.001238,E,0.0,,230721,4.3,W,A*0A
$GPGGA,000423.50,2959.999703,N,12000.001238,E,1,00,1.0,-21.8,M,7.0,M,,*4D

$GPVTG,,T,,M,0.0,N,0.0,K,A*23
$GPDTM,P90,,0000.000022,S,00000.000001,W,0.988,W84*5A
$GPRMC,000423.60,A,2959.999703,N,12000.001238,E,0.0,,230721,4.3,W,A*09
$GPGGA,000423.60,2959.999703,N,12000.001238,E,1,00,1.0,-21.8,M,7.0,M,,*4E

$GPVTG,,T,,M,0.0,N,0.0,K,A*23
$GPDTM,P90,,0000.000022,S,00000.000001,W,0.988,W84*5A
$GPRMC,000423.70,A,2959.999703,N,12000.001238,E,0.0,,230721,4.3,W,A*08
$GPGGA,000423.70,2959.999703,N,12000.001238,E,1,00,1.0,-21.8,M,7.0,M,,*4F

$GPVTG,,T,,M,0.0,N,0.0,K,A*23
$GPDTM,P90,,0000.000022,S,00000.000001,W,0.988,W84*5A
$GPRMC,000423.80,A,2959.999703,N,12000.001238,E,0.0,,230721,4.3,W,A*07
$GPGGA,000423.80,2959.999703,N,12000.001238,E,1,00,1.0,-21.8,M,7.0,M,,*40

$GPVTG,,T,,M,0.0,N,0.0,K,A*23
$GPDTM,P90,,0000.000022,S,00000.000001,W,0.988,W84*5A
$GPRMC,000423.90,A,2959.999703,N,12000.001238,E,0.0,,230721,4.3,W,A*06
$GPGGA,000423.90,2959.999703,N,12000.001238,E,1,00,1.0,-21.8,M,7.0,M,,*41

$GPGSV,3,1,12,02,32,298,26,04,50,244,27,07,83,105,27,08,47,206,27*7D
$GPGSV,3,2,12,13,48,030,27,20,21,120,27,23,25,057,27,25,64,040,26*70
$GPGSV,3,3,12,27,18,219,27,10,00,000,,16,00,000,,28,00,000,*75
$GLGSV,1,1,03,77,58,323,25,78,04,330,,76,62,160,*57
$GAGSV,1,1,0,7*43
$PQGSV,1,1,0,0*43
$PQGSV,1,1,0,0*43
$GPGSA,A,3,02,04,07,08,13,20,23,25,27,,,,1.3,1.0,0.8*33
$GPVTG,,T,,M,0.0,N,0.0,K,A*23
$GPDTM,P90,,0000.000022,S,00000.000001,W,0.988,W84*5A
$GPRMC,000424.00,A,2959.999699,N,12000.001241,E,0.0,,230721,4.3,W,A*04
$GPGGA,000424.00,2959.999699,N,12000.001241,E,1,09,1.0,-21.8,M,7.0,M,,*4A

$GPVTG,,T,,M,0.0,N,0.0,K,A*23
$GPDTM,P90,,0000.000022,S,00000.000001,W,0.988,W84*5A
$GPRMC,000424.10,A,2959.999699,N,12000.001241,E,0.0,,230721,4.3,W,A*05
$GPGGA,000424.10,2959.999699,N,12000.001241,E,1,00,1.0,-21.8,M,7.0,M,,*42

$GPVTG,,T,,M,0.0,N,0.0,K,A*23
$GPDTM,P90,,0000.000022,S,00000.000001,W,0.988,W84*5A
$GPRMC,000424.20,A,2959.999699,N,12000.001241,E,0.0,,230721,4.3,W,A*06
$GPGGA,000424.20,2959.999699,N,12000.001241,E,1,00,1.0,-21.8,M,7.0,M,,*41

$GPVTG,,T,,M,0.0,N,0.0,K,A*23
$GPDTM,P90,,0000.000022,S,00000.000001,W,0.988,W84*5A
$GPRMC,000424.30,A,2959.999699,N,12000.001241,E,0.0,,230721,4.3,W,A*07
$GPGGA,000424.30,2959.999699,N,12000.001241,E,1,00,1.0,-21.8,M,7.0,M,,*40

$GPVTG,,T,,M,0.0,N,0.0,K,A*23
$GPDTM,P90,,0000.000022,S,00000.000001,W,0.988,W84*5A
$GPRMC,000424.40,A,2959.999699,N,12000.001241,E,0.0,,230721,4.3,W,A*00
$GPGGA,000424.40,2959.999699,N,12000.001241,E,1,00,1.0,-21.8,M,7.0,M,,*47

$GPVTG,,T,,M,0.0,N,0.0,K,A*23
$GPDTM,P90,,0000.000022,S,00000.000001,W,0.988,W84*5A
$GPRMC,000424.50,A,2959.999699,N,12000.001241,E,0.0,,230721,4.3,W,A*01
$GPGGA,000424.50,2959.999699,N,12000.001241,E,1,00,1.0,-21.8,M,7.0,M,,*46

$GPVTG,,T,,M,0.0,N,0.0,K,A*23
$GPDTM,P90,,0000.000022,S,00000.000001,W,0.988,W84*5A
$GPRMC,000424.60,A,2959.999699,N,12000.001241,E,0.0,,230721,4.3,W,A*02
$GPGGA,000424.60,2959.999699,N,12000.001241,E,1,00,1.0,-21.8,M,7.0,M,,*45

$GPVTG,,T,,M,0.0,N,0.0,K,A*23
$GPDTM,P90,,0000.000022,S,00000.000001,W,0.988,W84*5A
$GPRMC,000424.70,A,2959.999699,N,12000.001241,E,0.0,,230721,4.3,W,A*03
$GPGGA,000424.70,2959.999699,N,12000.001241,E,1,00,1.0,-21.8,M,7.0,M,,*44

$GPVTG,,T,,M,0.0,N,0.0,K,A*23
$GPDTM,P90,,0000.000022,S,00000.000001,W,0.988,W84*5A
$GPRMC,000424.80,A,2959.999699,N,12000.001241,E,0.0,,230721,4.3,W,A*0C
$GPGGA,000424.80,2959.999699,N,12000.001241,E,1,00,1.0,-21.8,M,7.0,M,,*4B

$GPVTG,,T,,M,0.0,N,0.0,K,A*23
$GPDTM,P90,,0000.000022,S,00000.000001,W,0.988,W84*5A
$GPRMC,000424.90,A,2959.999699,N,12000.001241,E,0.0,,230721,4.3,W,A*0D
$GPGGA,000424.90,2959.999699,N,12000.001241,E,1,00,1.0,-21.8,M,7.0,M,,*4A

$GPGSV,3,1,12,02,32,298,28,04,50,244,28,07,83,105,26,08,47,206,27*7D
$GPGSV,3,2,12,13,48,030,26,20,21,120,27,23,25,057,26,25,64,040,27*71
$GPGSV,3,3,12,27,18,219,26,10,00,000,,16,00,000,,28,00,000,*74
$GLGSV,1,1,03,77,58,323,26,78,04,330,,76,62,160,*54
$GAGSV,1,1,0,7*43
$PQGSV,1,1,0,0*43
$PQGSV,1,1,0,0*43
$GPGSA,A,3,02,04,07,08,13,20,23,25,27,,,,1.3,1.0,0.8*33
$GPVTG,,T,,M,0.0,N,0.0,K,A*23
$GPDTM,P90,,0000.000022,S,00000.000001,W,0.988,W84*5A
$GPRMC,000425.00,A,2959.999698,N,12000.001241,E,0.0,,230721,4.3,W,A*04
$GPGGA,000425.00,2959.999698,N,12000.001241,E,1,09,1.0,-21.8,M,7.0,M,,*4A

$GPVTG,,T,,M,0.0,N,0.0,K,A*23
$GPDTM,P90,,0000.000022,S,00000.000001,W,0.988,W84*5A
$GPRMC,000425.10,A,2959.999698,N,12000.001241,E,0.0,,230721,4.3,W,A*05
$GPGGA,000425.10,2959.999698,N,12000.001241,E,1,00,1.0,-21.8,M,7.0,M,,*42

$GPVTG,,T,,M,0.0,N,0.0,K,A*23
$GPDTM,P90,,0000.000022,S,00000.000001,W,0.988,W84*5A
$GPRMC,000425.20,A,2959.999698,N,12000.001241,E,0.0,,230721,4.3,W,A*06
$GPGGA,000425.20,2959.999698,N,12000.001241,E,1,00,1.0,-21.8,M,7.0,M,,*41

$GPVTG,,T,,M,0.0,N,0.0,K,A*23
$GPDTM,P90,,0000.000022,S,00000.000001,W,0.988,W84*5A
$GPRMC,000425.30,A,2959.999698,N,12000.001241,E,0.0,,230721,4.3,W,A*07
$GPGGA,000425.30,2959.999698,N,12000.001241,E,1,00,1.0,-21.8,M,7.0,M,,*40

$GPVTG,,T,,M,0.0,N,0.0,K,A*23
$GPDTM,P90,,0000.000022,S,00000.000001,W,0.988,W84*5A
$GPRMC,000425.40,A,2959.999698,N,12000.001241,E,0.0,,230721,4.3,W,A*00
$GPGGA,000425.40,2959.999698,N,12000.001241,E,1,00,1.0,-21.8,M,7.0,M,,*47

$GPVTG,,T,,M,0.0,N,0.0,K,A*23
$GPDTM,P90,,0000.000022,S,00000.000001,W,0.988,W84*5A
$GPRMC,000425.50,A,2959.999698,N,12000.001241,E,0.0,,230721,4.3,W,A*01
$GPGGA,000425.50,2959.999698,N,12000.001241,E,1,00,1.0,-21.8,M,7.0,M,,*46

$GPVTG,,T,,M,0.0,N,0.0,K,A*23
$GPDTM,P90,,0000.000022,S,00000.000001,W,0.988,W84*5A
$GPRMC,000425.60,A,2959.999698,N,12000.001241,E,0.0,,230721,4.3,W,A*02
$GPGGA,000425.60,2959.999698,N,12000.001241,E,1,00,1.0,-21.8,M,7.0,M,,*45

$GPVTG,,T,,M,0.0,N,0.0,K,A*23
$GPDTM,P90,,0000.000022,S,00000.000001,W,0.988,W84*5A
$GPRMC,000425.70,A,2959.999698,N,12000.001241,E,0.0,,230721,4.3,W,A*03
$GPGGA,000425.70,2959.999698,N,12000.001241,E,1,00,1.0,-21.8,M,7.0,M,,*44

$GPVTG,,T,,M,0.0,N,0.0,K,A*23
$GPDTM,P90,,0000.000022,S,00000.000001,W,0.988,W84*5A
$GPRMC,000425.80,A,2959.999698,N,12000.001241,E,0.0,,230721,4.3,W,A*0C
$GPGGA,000425.80,2959.999698,N,12000.001241,E,1,00,1.0,-21.8,M,7.0,M,,*4B

$GPVTG,,T,,M,0.0,N,0.0,K,A*23
$GPDTM,P90,,0000.000022,S,00000.000001,W,0.988,W84*5A
$GPRMC,000425.90,A,2959.999698,N,12000.001241,E,0.0,,230721,4.3,W,A*0D
$GPGGA,000425.90,2959.999698,N,12000.001241,E,1,00,1.0,-21.8,M,7.0,M,,*4A

$GPGSV,3,1,12,02,32,298,26,04,50,244,27,07,83,105,27,08,47,206,27*7D
$GPGSV,3,2,12,13,48,030,26,20,21,120,27,23,25,057,26,25,64,040,27*71
$GPGSV,3,3,12,27,18,219,27,10,00,000,,16,00,000,,28,00,000,*75
$GLGSV,1,1,03,77,58,323,25,78,04,330,,76,62,160,*57
$GAGSV,1,1,0,7*43
$PQGSV,1,1,0,0*43
$PQGSV,1,1,0,0*43
$GPGSA,A,3,02,04,07,08,13,20,23,25,27,,,,1.3,1.0,0.8*33
$GPVTG,,T,,M,0.0,N,0.0,K,A*23
$GPDTM,P90,,0000.000022,S,00000.000001,W,0.988,W84*5A
$GPRMC,000426.00,A,2959.999700,N,12000.001240,E,0.0,,230721,4.3,W,A*06
$GPGGA,000426.00,2959.999700,N,12000.001240,E,1,09,1.0,-21.8,M,7.0,M,,*48

$GPVTG,,T,,M,0.0,N,0.0,K,A*23
$GPDTM,P90,,0000.000022,S,00000.000001,W,0.988,W84*5A
$GPRMC,000426.10,A,2959.999700,N,12000.001240,E,0.0,,230721,4.3,W,A*07
$GPGGA,000426.10,2959.999700,N,12000.001240,E,1,00,1.0,-21.8,M,7.0,M,,*40

$GPVTG,,T,,M,0.0,N,0.0,K,A*23
$GPDTM,P90,,0000.000022,S,00000.000001,W,0.988,W84*5A
$GPRMC,000426.20,A,2959.999700,N,12000.001240,E,0.0,,230721,4.3,W,A*04
$GPGGA,000426.20,2959.999700,N,12000.001240,E,1,00,1.0,-21.8,M,7.0,M,,*43

$GPVTG,,T,,M,0.0,N,0.0,K,A*23
$GPDTM,P90,,0000.000022,S,00000.000001,W,0.988,W84*5A
$GPRMC,000426.30,A,2959.999700,N,12000.001240,E,0.0,,230721,4.3,W,A*05
$GPGGA,000426.30,2959.999700,N,12000.001240,E,1,00,1.0,-21.8,M,7.0,M,,*42

$GPVTG,,T,,M,0.0,N,0.0,K,A*23
$GPDTM,P90,,0000.000022,S,00000.000001,W,0.988,W84*5A
$GPRMC,000426.40,A,2959.999700,N,12000.001240,E,0.0,,230721,4.3,W,A*02
$GPGGA,000426.40,2959.999700,N,12000.001240,E,1,00,1.0,-21.8,M,7.0,M,,*45

$GPVTG,,T,,M,0.0,N,0.0,K,A*23
$GPDTM,P90,,0000.000022,S,00000.000001,W,0.988,W84*5A
$GPRMC,000426.50,A,2959.999700,N,12000.001240,E,0.0,,230721,4.3,W,A*03
$GPGGA,000426.50,2959.999700,N,12000.001240,E,1,00,1.0,-21.8,M,7.0,M,,*44

$GPVTG,,T,,M,0.0,N,0.0,K,A*23
$GPDTM,P90,,0000.000022,S,00000.000001,W,0.988,W84*5A
$GPRMC,000426.60,A,2959.999700,N,12000.001240,E,0.0,,230721,4.3,W,A*00
$GPGGA,000426.60,2959.999700,N,12000.001240,E,1,00,1.0,-21.8,M,7.0,M,,*47

$GPVTG,,T,,M,0.0,N,0.0,K,A*23
$GPDTM,P90,,0000.000022,S,00000.000001,W,0.988,W84*5A
$GPRMC,000426.70,A,2959.999700,N,12000.001240,E,0.0,,230721,4.3,W,A*01
$GPGGA,000426.70,2959.999700,N,12000.001240,E,1,00,1.0,-21.8,M,7.0,M,,*46

$GPVTG,,T,,M,0.0,N,0.0,K,A*23
$GPDTM,P90,,0000.000022,S,00000.000001,W,0.988,W84*5A
$GPRMC,000426.80,A,2959.999700,N,12000.001240,E,0.0,,230721,4.3,W,A*0E
$GPGGA,000426.80,2959.999700,N,12000.001240,E,1,00,1.0,-21.8,M,7.0,M,,*49

$GPVTG,,T,,M,0.0,N,0.0,K,A*23
$GPDTM,P90,,0000.000022,S,00000.000001,W,0.988,W84*5A
$GPRMC,000426.90,A,2959.999700,N,12000.001240,E,0.0,,230721,4.3,W,A*0F
$GPGGA,000426.90,2959.999700,N,12000.001240,E,1,00,1.0,-21.8,M,7.0,M,,*48

$GPGSV,3,1,12,02,32,298,27,04,50,244,26,07,83,105,27,08,47,206,26*7C
$GPGSV,3,2,12,13,48,030,26,20,21,120,26,23,25,057,27,25,64,040,27*71
$GPGSV,3,3,12,27,18,219,26,10,00,000,,16,00,000,,28,00,000,*74
$GLGSV,1,1,03,77,58,323,25,78,04,330,,76,62,160,*57
$GAGSV,1,1,0,7*43
$PQGSV,1,1,0,0*43
$PQGSV,1,1,0,0*43
$GPGSA,A,3,02,04,07,08,13,20,23,25,27,,,,1.3,1.0,0.8*33
$GPVTG,,T,,M,0.0,N,0.0,K,A*23
$GPDTM,P90,,0000.000022,S,00000.000001,W,0.988,W84*5A
$GPRMC,000427.00,A,2959.999699,N,12000.001237,E,0.0,,230721,4.3,W,A*06
$GPGGA,000427.00,2959.999699,N,12000.001237,E,1,09,1.0,-21.8,M,7.0,M,,*48

$GPVTG,,T,,M,0.0,N,0.0,K,A*23
$GPDTM,P90,,0000.000022,S,00000.000001,W,0.988,W84*5A
$GPRMC,000427.10,A,2959.999699,N,12000.001237,E,0.0,,230721,4.3,W,A*07
$GPGGA,000427.10,2959.999699,N,12000.001237,E,1,00,1.0,-21.8,M,7.0,M,,*40

$GPVTG,,T,,M,0.0,N,0.0,K,A*23
$GPDTM,P90,,0000.000022,S,00000.000001,W,0.988,W84*5A
$GPRMC,000427.20,A,2959.999699,N,12000.001237,E,0.0,,230721,4.3,W,A*04
$GPGGA,000427.20,2959.999699,N,12000.001237,E,1,00,1.0,-21.8,M,7.0,M,,*43

$GPVTG,,T,,M,0.0,N,0.0,K,A*23
$GPDTM,P90,,0000.000022,S,00000.000001,W,0.988,W84*5A
$GPRMC,000427.30,A,2959.999699,N,12000.001237,E,0.0,,230721,4.3,W,A*05
$GPGGA,000427.30,2959.999699,N,12000.001237,E,1,00,1.0,-21.8,M,7.0,M,,*42

$GPVTG,,T,,M,0.0,N,0.0,K,A*23
$GPDTM,P90,,0000.000022,S,00000.000001,W,0.988,W84*5A
$GPRMC,000427.40,A,2959.999699,N,12000.001237,E,0.0,,230721,4.3,W,A*02
$GPGGA,000427.40,2959.999699,N,12000.001237,E,1,00,1.0,-21.8,M,7.0,M,,*45

$GPVTG,,T,,M,0.0,N,0.0,K,A*23
$GPDTM,P90,,0000.000022,S,00000.000001,W,0.988,W84*5A
$GPRMC,000427.50,A,2959.999699,N,12000.001237,E,0.0,,230721,4.3,W,A*03
$GPGGA,000427.50,2959.999699,N,12000.001237,E,1,00,1.0,-21.8,M,7.0,M,,*44

$GPVTG,,T,,M,0.0,N,0.0,K,A*23
$GPDTM,P90,,0000.000022,S,00000.000001,W,0.988,W84*5A
$GPRMC,000427.60,A,2959.999699,N,12000.001237,E,0.0,,230721,4.3,W,A*00
$GPGGA,000427.60,2959.999699,N,12000.001237,E,1,00,1.0,-21.8,M,7.0,M,,*47

$GPVTG,,T,,M,0.0,N,0.0,K,A*23
$GPDTM,P90,,0000.000022,S,00000.000001,W,0.988,W84*5A
$GPRMC,000427.70,A,2959.999699,N,12000.001237,E,0.0,,230721,4.3,W,A*01
$GPGGA,000427.70,2959.999699,N,12000.001237,E,1,00,1.0,-21.8,M,7.0,M,,*46

$GPVTG,,T,,M,0.0,N,0.0,K,A*23
$GPDTM,P90,,0000.000022,S,00000.000001,W,0.988,W84*5A
$GPRMC,000427.80,A,2959.999699,N,12000.001237,E,0.0,,230721,4.3,W,A*0E
$GPGGA,000427.80,2959.999699,N,12000.001237,E,1,00,1.0,-21.8,M,7.0,M,,*49

$GPVTG,,T,,M,0.0,N,0.0,K,A*23
$GPDTM,P90,,0000.000022,S,00000.000001,W,0.988,W84*5A
$GPRMC,000427.90,A,2959.999699,N,12000.001237,E,0.0,,230721,4.3,W,A*0F
$GPGGA,000427.90,2959.999699,N,12000.001237,E,1,00,1.0,-21.8,M,7.0,M,,*48

$GPGSV,3,1,12,02,32,298,26,04,50,244,27,07,83,105,25,08,47,206,26*7E
$GPGSV,3,2,12,13,48,030,28,20,21,120,27,23,25,057,27,25,64,040,27*7E
$GPGSV,3,3,12,27,18,219,26,10,00,000,,16,00,000,,28,00,000,*74
$GLGSV,1,1,03,77,58,323,26,78,04,330,,76,62,160,*54
$GAGSV,1,1,0,7*43
$PQGSV,1,1,0,0*43
$PQGSV,1,1,0,0*43
$GPGSA,A,3,02,04,07,08,13,20,23,25,27,,,,1.3,1.0,0.8*33
$GPVTG,,T,,M,0.0,N,0.0,K,A*23
$GPDTM,P90,,0000.000022,S,00000.000001,W,0.988,W84*5A
$GPRMC,000428.00,A,2959.999700,N,12000.001239,E,0.0,,230721,4.3,W,A*06
$GPGGA,000428.00,2959.999700,N,12000.001239,E,1,09,1.0,-21.7,M,7.0,M,,*47

$GPVTG,,T,,M,0.0,N,0.0,K,A*23
$GPDTM,P90,,0000.000022,S,00000.000001,W,0.988,W84*5A
$GPRMC,000428.10,A,2959.999700,N,12000.001239,E,0.0,,230721,4.3,W,A*07
$GPGGA,000428.10,2959.999700,N,12000.001239,E,1,00,1.0,-21.7,M,7.0,M,,*4F

$GPVTG,,T,,M,0.0,N,0.0,K,A*23
$GPDTM,P90,,0000.000022,S,00000.000001,W,0.988,W84*5A
$GPRMC,000428.20,A,2959.999700,N,12000.001239,E,0.0,,230721,4.3,W,A*04
$GPGGA,000428.20,2959.999700,N,12000.001239,E,1,00,1.0,-21.7,M,7.0,M,,*4C

$GPVTG,,T,,M,0.0,N,0.0,K,A*23
$GPDTM,P90,,0000.000022,S,00000.000001,W,0.988,W84*5A
$GPRMC,000428.30,A,2959.999700,N,12000.001239,E,0.0,,230721,4.3,W,A*05
$GPGGA,000428.30,2959.999700,N,12000.001239,E,1,00,1.0,-21.7,M,7.0,M,,*4D

$GPVTG,,T,,M,0.0,N,0.0,K,A*23
$GPDTM,P90,,0000.000022,S,00000.000001,W,0.988,W84*5A
$GPRMC,000428.40,A,2959.999700,N,12000.001239,E,0.0,,230721,4.3,W,A*02
$GPGGA,000428.40,2959.999700,N,12000.001239,E,1,00,1.0,-21.7,M,7.0,M,,*4A

$GPVTG,,T,,M,0.0,N,0.0,K,A*23
$GPDTM,P90,,0000.000022,S,00000.000001,W,0.988,W84*5A
$GPRMC,000428.50,A,2959.999700,N,12000.001239,E,0.0,,230721,4.3,W,A*03
$GPGGA,000428.50,2959.999700,N,12000.001239,E,1,00,1.0,-21.7,M,7.0,M,,*4B

$GPVTG,,T,,M,0.0,N,0.0,K,A*23
$GPDTM,P90,,0000.000022,S,00000.000001,W,0.988,W84*5A
$GPRMC,000428.60,A,2959.999700,N,12000.001239,E,0.0,,230721,4.3,W,A*00
$GPGGA,000428.60,2959.999700,N,12000.001239,E,1,00,1.0,-21.7,M,7.0,M,,*48

$GPVTG,,T,,M,0.0,N,0.0,K,A*23
$GPDTM,P90,,0000.000022,S,00000.000001,W,0.988,W84*5A
$GPRMC,000428.70,A,2959.999700,N,12000.001239,E,0.0,,230721,4.3,W,A*01
$GPGGA,000428.70,2959.999700,N,12000.001239,E,1,00,1.0,-21.7,M,7.0,M,,*49

$GPVTG,,T,,M,0.0,N,0.0,K,A*23
$GPDTM,P90,,0000.000022,S,00000.000001,W,0.988,W84*5A
$GPRMC,000428.80,A,2959.999700,N,12000.001239,E,0.0,,230721,4.3,W,A*0E
$GPGGA,000428.80,2959.999700,N,12000.001239,E,1,00,1.0,-21.7,M,7.0,M,,*46

$GPVTG,,T,,M,0.0,N,0.0,K,A*23
$GPDTM,P90,,0000.000022,S,00000.000001,W,0.988,W84*5A
$GPRMC,000428.90,A,2959.999700,N,12000.001239,E,0.0,,230721,4.3,W,A*0F
$GPGGA,000428.90,2959.999700,N,12000.001239,E,1,00,1.0,-21.7,M,7.0,M,,*47

$GPGSV,3,1,12,02,32,298,27,04,50,244,27,07,83,105,27,08,47,206,27*7C
$GPGSV,3,2,12,13,48,030,27,20,21,120,26,23,25,057,27,25,64,040,27*70
$GPGSV,3,3,12,27,18,219,26,10,00,000,,16,00,000,,28,00,000,*74
$GLGSV,1,1,03,77,58,323,26,78,04,330,,76,62,160,*54
$GAGSV,1,1,0,7*43
$PQGSV,1,1,0,0*43
$PQGSV,1,1,0,0*43
$GPGSA,A,3,02,04,07,08,13,20,23,25,27,,,,1.3,1.0,0.8*33
$GPVTG,,T,,M,0.0,N,0.0,K,A*23
$GPDTM,P90,,0000.000022,S,00000.000001,W,0.988,W84*5A
$GPRMC,000429.00,A,2959.999696,N,12000.001240,E,0.0,,230721,4.3,W,A*07
$GPGGA,000429.00,2959.999696,N,12000.001240,E,1,09,1.0,-21.7,M,7.0,M,,*46

$GPVTG,,T,,M,0.0,N,0.0,K,A*23
$GPDTM,P90,,0000.000022,S,00000.000001,W,0.988,W84*5A
$GPRMC,000429.10,A,2959.999696,N,12000.001240,E,0.0,,230721,4.3,W,A*06
$GPGGA,000429.10,2959.999696,N,12000.001240,E,1,00,1.0,-21.7,M,7.0,M,,*4E

$GPVTG,,T,,M,0.0,N,0.0,K,A*23
$GPDTM,P90,,0000.000022,S,00000.000001,W,0.988,W84*5A
$GPRMC,000429.20,A,2959.999696,N,12000.001240,E,0.0,,230721,4.3,W,A*05
$GPGGA,000429.20,2959.999696,N,12000.001240,E,1,00,1.0,-21.7,M,7.0,M,,*4D

$GPVTG,,T,,M,0.0,N,0.0,K,A*23
$GPDTM,P90,,0000.000022,S,00000.000001,W,0.988,W84*5A
$GPRMC,000429.30,A,2959.999696,N,12000.001240,E,0.0,,230721,4.3,W,A*04
$GPGGA,000429.30,2959.999696,N,12000.001240,E,1,00,1.0,-21.7,M,7.0,M,,*4C

$GPVTG,,T,,M,0.0,N,0.0,K,A*23
$GPDTM,P90,,0000.000022,S,00000.000001,W,0.988,W84*5A
$GPRMC,000429.40,A,2959.999696,N,12000.001240,E,0.0,,230721,4.3,W,A*03
$GPGGA,000429.40,2959.999696,N,12000.001240,E,1,00,1.0,-21.7,M,7.0,M,,*4B

$GPVTG,,T,,M,0.0,N,0.0,K,A*23
$GPDTM,P90,,0000.000022,S,00000.000001,W,0.988,W84*5A
$GPRMC,000429.50,A,2959.999696,N,12000.001240,E,0.0,,230721,4.3,W,A*02
$GPGGA,000429.50,2959.999696,N,12000.001240,E,1,00,1.0,-21.7,M,7.0,M,,*4A

$GPVTG,,T,,M,0.0,N,0.0,K,A*23
$GPDTM,P90,,0000.000022,S,00000.000001,W,0.988,W84*5A
$GPRMC,000429.60,A,2959.999696,N,12000.001240,E,0.0,,230721,4.3,W,A*01
$GPGGA,000429.60,2959.999696,N,12000.001240,E,1,00,1.0,-21.7,M,7.0,M,,*49

$GPVTG,,T,,M,0.0,N,0.0,K,A*23
$GPDTM,P90,,0000.000022,S,00000.000001,W,0.988,W84*5A
$GPRMC,000429.70,A,2959.999696,N,12000.001240,E,0.0,,230721,4.3,W,A*00
$GPGGA,000429.70,2959.999696,N,12000.001240,E,1,00,1.0,-21.7,M,7.0,M,,*48

$GPVTG,,T,,M,0.0,N,0.0,K,A*23
$GPDTM,P90,,0000.000022,S,00000.000001,W,0.988,W84*5A
$GPRMC,000429.80,A,2959.999696,N,12000.001240,E,0.0,,230721,4.3,W,A*0F
$GPGGA,000429.80,2959.999696,N,12000.001240,E,1,00,1.0,-21.7,M,7.0,M,,*47

$GPVTG,,T,,M,0.0,N,0.0,K,A*23
$GPDTM,P90,,0000.000022,S,00000.000001,W,0.988,W84*5A
$GPRMC,000429.90,A,2959.999696,N,12000.001240,E,0.0,,230721,4.3,W,A*0E
$GPGGA,000429.90,2959.999696,N,12000.001240,E,1,00,1.0,-21.7,M,7.0,M,,*46

$GPGSV,3,1,12,02,32,298,27,04,50,244,27,07,83,105,27,08,47,206,28*73
$GPGSV,3,2,12,13,48,030,27,20,21,120,27,23,25,057,27,25,64,040,27*71
$GPGSV,3,3,12,27,18,219,26,10,00,000,,16,00,000,,28,00,000,*74
$GLGSV,1,1,03,77,58,323,26,78,04,330,,76,62,160,*54
$GAGSV,1,1,0,7*43
$PQGSV,1,1,0,0*43
$PQGSV,1,1,0,0*43
$GPGSA,A,3,02,04,07,08,13,20,23,25,27,,,,1.3,1.0,0.8*33
$GPVTG,,T,,M,0.0,N,0.0,K,A*23
$GPDTM,P90,,0000.000022,S,00000.000001,W,0.988,W84*5A
$GPRMC,000430.00,A,2959.999696,N,12000.001238,E,0.0,,230721,4.3,W,A*00
$GPGGA,000430.00,2959.999696,N,12000.001238,E,1,09,1.0,-21.7,M,7.0,M,,*41

$GPVTG,,T,,M,0.0,N,0.0,K,A*23
$GPDTM,P90,,0000.000022,S,00000.000001,W,0.988,W84*5A
$GPRMC,000430.10,A,2959.999696,N,12000.001238,E,0.0,,230721,4.3,W,A*01
$GPGGA,000430.10,2959.999696,N,12000.001238,E,1,00,1.0,-21.7,M,7.0,M,,*49

$GPVTG,,T,,M,0.0,N,0.0,K,A*23
$GPDTM,P90,,0000.000022,S,00000.000001,W,0.988,W84*5A
$GPRMC,000430.20,A,2959.999696,N,12000.001238,E,0.0,,230721,4.3,W,A*02
$GPGGA,000430.20,2959.999696,N,12000.001238,E,1,00,1.0,-21.7,M,7.0,M,,*4A

$GPVTG,,T,,M,0.0,N,0.0,K,A*23
$GPDTM,P90,,0000.000022,S,00000.000001,W,0.988,W84*5A
$GPRMC,000430.30,A,2959.999696,N,12000.001238,E,0.0,,230721,4.3,W,A*03
$GPGGA,000430.30,2959.999696,N,12000.001238,E,1,00,1.0,-21.7,M,7.0,M,,*4B

$GPVTG,,T,,M,0.0,N,0.0,K,A*23
$GPDTM,P90,,0000.000022,S,00000.000001,W,0.988,W84*5A
$GPRMC,000430.40,A,2959.999696,N,12000.001238,E,0.0,,230721,4.3,W,A*04
$GPGGA,000430.40,2959.999696,N,12000.001238,E,1,00,1.0,-21.7,M,7.0,M,,*4C

$GPVTG,,T,,M,0.0,N,0.0,K,A*23
$GPDTM,P90,,0000.000022,S,00000.000001,W,0.988,W84*5A
$GPRMC,000430.50,A,2959.999696,N,12000.001238,E,0.0,,230721,4.3,W,A*05
$GPGGA,000430.50,2959.999696,N,12000.001238,E,1,00,1.0,-21.7,M,7.0,M,,*4D

$GPVTG,,T,,M,0.0,N,0.0,K,A*23
$GPDTM,P90,,0000.000022,S,00000.000001,W,0.988,W84*5A
$GPRMC,000430.60,A,2959.999696,N,12000.001238,E,0.0,,230721,4.3,W,A*06
$GPGGA,000430.60,2959.999696,N,12000.001238,E,1,00,1.0,-21.7,M,7.0,M,,*4E

$GPVTG,,T,,M,0.0,N,0.0,K,A*23
$GPDTM,P90,,0000.000022,S,00000.000001,W,0.988,W84*5A
$GPRMC,000430.70,A,2959.999696,N,12000.001238,E,0.0,,230721,4.3,W,A*07
$GPGGA,000430.70,2959.999696,N,12000.001238,E,1,00,1.0,-21.7,M,7.0,M,,*4F

$GPVTG,,T,,M,0.0,N,0.0,K,A*23
$GPDTM,P90,,0000.000022,S,00000.000001,W,0.988,W84*5A
$GPRMC,000430.80,A,2959.999696,N,12000.001238,E,0.0,,230721,4.3,W,A*08
$GPGGA,000430.80,2959.999696,N,12000.001238,E,1,00,1.0,-21.7,M,7.0,M,,*40

$GPVTG,,T,,M,0.0,N,0.0,K,A*23
$GPDTM,P90,,0000.000022,S,00000.000001,W,0.988,W84*5A
$GPRMC,000430.90,A,2959.999696,N,12000.001238,E,0.0,,230721,4.3,W,A*09
$GPGGA,000430.90,2959.999696,N,12000.001238,E,1,00,1.0,-21.7,M,7.0,M,,*41

$GPGSV,3,1,12,02,32,298,27,04,50,244,27,07,83,105,26,08,47,206,27*7D
$GPGSV,3,2,12,13,48,030,27,20,21,120,26,23,25,057,26,25,64,040,27*71
$GPGSV,3,3,12,27,18,219,26,10,00,000,,16,00,000,,28,00,000,*74
$GLGSV,1,1,03,77,58,323,25,78,04,330,,76,62,160,*57
$GAGSV,1,1,0,7*43
$PQGSV,1,1,0,0*43
$PQGSV,1,1,0,0*43
$GPGSA,A,3,02,04,07,08,13,20,23,25,27,,,,1.3,1.0,0.8*33
$GPVTG,,T,,M,0.0,N,0.0,K,A*23
$GPDTM,P90,,0000.000022,S,00000.000001,W,0.988,W84*5A
$GPRMC,000431.00,A,2959.999697,N,12000.001235,E,0.0,,230721,4.3,W,A*0D
$GPGGA,000431.00,2959.999697,N,12000.001235,E,1,09,1.0,-21.7,M,7.0,M,,*4C

$GPVTG,,T,,M,0.0,N,0.0,K,A*23
$GPDTM,P90,,0000.000022,S,00000.000001,W,0.988,W84*5A
$GPRMC,000431.10,A,2959.999697,N,12000.001235,E,0.0,,230721,4.3,W,A*0C
$GPGGA,000431.10,2959.999697,N,12000.001235,E,1,00,1.0,-21.7,M,7.0,M,,*44

$GPVTG,,T,,M,0.0,N,0.0,K,A*23
$GPDTM,P90,,0000.000022,S,00000.000001,W,0.988,W84*5A
$GPRMC,000431.20,A,2959.999697,N,12000.001235,E,0.0,,230721,4.3,W,A*0F
$GPGGA,000431.20,2959.999697,N,12000.001235,E,1,00,1.0,-21.7,M,7.0,M,,*47

$GPVTG,,T,,M,0.0,N,0.0,K,A*23
$GPDTM,P90,,0000.000022,S,00000.000001,W,0.988,W84*5A
$GPRMC,000431.30,A,2959.999697,N,12000.001235,E,0.0,,230721,4.3,W,A*0E
$GPGGA,000431.30,2959.999697,N,12000.001235,E,1,00,1.0,-21.7,M,7.0,M,,*46

$GPVTG,,T,,M,0.0,N,0.0,K,A*23
$GPDTM,P90,,0000.000022,S,00000.000001,W,0.988,W84*5A
$GPRMC,000431.40,A,2959.999697,N,12000.001235,E,0.0,,230721,4.3,W,A*09
$GPGGA,000431.40,2959.999697,N,12000.001235,E,1,00,1.0,-21.7,M,7.0,M,,*41

$GPVTG,,T,,M,0.0,N,0.0,K,A*23
$GPDTM,P90,,0000.000022,S,00000.000001,W,0.988,W84*5A
$GPRMC,000431.50,A,2959.999697,N,12000.001235,E,0.0,,230721,4.3,W,A*08
$GPGGA,000431.50,2959.999697,N,12000.001235,E,1,00,1.0,-21.7,M,7.0,M,,*40

$GPVTG,,T,,M,0.0,N,0.0,K,A*23
$GPDTM,P90,,0000.000022,S,00000.000001,W,0.988,W84*5A
$GPRMC,000431.60,A,2959.999697,N,12000.001235,E,0.0,,230721,4.3,W,A*0B
$GPGGA,000431.60,2959.999697,N,12000.001235,E,1,00,1.0,-21.7,M,7.0,M,,*43

$GPVTG,,T,,M,0.0,N,0.0,K,A*23
$GPDTM,P90,,0000.000022,S,00000.000001,W,0.988,W84*5A
$GPRMC,000431.70,A,2959.999697,N,12000.001235,E,0.0,,230721,4.3,W,A*0A
$GPGGA,000431.70,2959.999697,N,12000.001235,E,1,00,1.0,-21.7,M,7.0,M,,*42

$GPVTG,,T,,M,0.0,N,0.0,K,A*23
$GPDTM,P90,,0000.000022,S,00000.000001,W,0.988,W84*5A
$GPRMC,000431.80,A,2959.999697,N,12000.001235,E,0.0,,230721,4.3,W,A*05
$GPGGA,000431.80,2959.999697,N,12000.001235,E,1,00,1.0,-21.7,M,7.0,M,,*4D

$GPVTG,,T,,M,0.0,N,0.0,K,A*23
$GPDTM,P90,,0000.000022,S,00000.000001,W,0.988,W84*5A
$GPRMC,000431.90,A,2959.999697,N,12000.001235,E,0.0,,230721,4.3,W,A*04
$GPGGA,000431.90,2959.999697,N,12000.001235,E,1,00,1.0,-21.7,M,7.0,M,,*4C

$GPGSV,3,1,12,02,32,298,27,04,50,244,27,07,83,105,28,08,47,206,27*73
$GPGSV,3,2,12,13,48,030,27,20,21,120,27,23,25,057,27,25,64,040,26*70
$GPGSV,3,3,12,27,18,219,26,10,00,000,,16,00,000,,28,00,000,*74
$GLGSV,1,1,03,77,58,323,25,78,04,330,,76,62,160,*57
$GAGSV,1,1,0,7*43
$PQGSV,1,1,0,0*43
$PQGSV,1,1,0,0*43
$GPGSA,A,3,02,04,07,08,13,20,23,25,27,,,,1.3,1.0,0.8*33
$GPVTG,,T,,M,0.0,N,0.0,K,A*23
$GPDTM,P90,,0000.000022,S,00000.000001,W,0.988,W84*5A
$GPRMC,000432.00,A,2959.999696,N,12000.001235,E,0.0,,230721,4.3,W,A*0F
$GPGGA,000432.00,2959.999696,N,12000.001235,E,1,09,1.0,-21.7,M,7.0,M,,*4E

$GPVTG,,T,,M,0.0,N,0.0,K,A*23
$GPDTM,P90,,0000.000022,S,00000.000001,W,0.988,W84*5A
$GPRMC,000432.10,A,2959.999696,N,12000.001235,E,0.0,,230721,4.3,W,A*0E
$GPGGA,000432.10,2959.999696,N,12000.001235,E,1,00,1.0,-21.7,M,7.0,M,,*46

$GPVTG,,T,,M,0.0,N,0.0,K,A*23
$GPDTM,P90,,0000.000022,S,00000.000001,W,0.988,W84*5A
$GPRMC,000432.20,A,2959.999696,N,12000.001235,E,0.0,,230721,4.3,W,A*0D
$GPGGA,000432.20,2959.999696,N,12000.001235,E,1,00,1.0,-21.7,M,7.0,M,,*45

$GPVTG,,T,,M,0.0,N,0.0,K,A*23
$GPDTM,P90,,0000.000022,S,00000.000001,W,0.988,W84*5A
$GPRMC,000432.30,A,2959.999696,N,12000.001235,E,0.0,,230721,4.3,W,A*0C
$GPGGA,000432.30,2959.999696,N,12000.001235,E,1,00,1.0,-21.7,M,7.0,M,,*44

$GPVTG,,T,,M,0.0,N,0.0,K,A*23
$GPDTM,P90,,0000.000022,S,00000.000001,W,0.988,W84*5A
$GPRMC,000432.40,A,2959.999696,N,12000.001235,E,0.0,,230721,4.3,W,A*0B
$GPGGA,000432.40,2959.999696,N,12000.001235,E,1,00,1.0,-21.7,M,7.0,M,,*43

$GPVTG,,T,,M,0.0,N,0.0,K,A*23
$GPDTM,P90,,0000.000022,S,00000.000001,W,0.988,W84*5A
$GPRMC,000432.50,A,2959.999696,N,12000.001235,E,0.0,,230721,4.3,W,A*0A
$GPGGA,000432.50,2959.999696,N,12000.001235,E,1,00,1.0,-21.7,M,7.0,M,,*42

$GPVTG,,T,,M,0.0,N,0.0,K,A*23
$GPDTM,P90,,0000.000022,S,00000.000001,W,0.988,W84*5A
$GPRMC,000432.60,A,2959.999696,N,12000.001235,E,0.0,,230721,4.3,W,A*09
$GPGGA,000432.60,2959.999696,N,12000.001235,E,1,00,1.0,-21.7,M,7.0,M,,*41

$GPVTG,,T,,M,0.0,N,0.0,K,A*23
$GPDTM,P90,,0000.000022,S,00000.000001,W,0.988,W84*5A
$GPRMC,000432.70,A,2959.999696,N,12000.001235,E,0.0,,230721,4.3,W,A*08
$GPGGA,000432.70,2959.999696,N,12000.001235,E,1,00,1.0,-21.7,M,7.0,M,,*40

$GPVTG,,T,,M,0.0,N,0.0,K,A*23
$GPDTM,P90,,0000.000022,S,00000.000001,W,0.988,W84*5A
$GPRMC,000432.80,A,2959.999696,N,12000.001235,E,0.0,,230721,4.3,W,A*07
$GPGGA,000432.80,2959.999696,N,12000.001235,E,1,00,1.0,-21.7,M,7.0,M,,*4F

$GPVTG,,T,,M,0.0,N,0.0,K,A*23
$GPDTM,P90,,0000.000022,S,00000.000001,W,0.988,W84*5A
$GPRMC,000432.90,A,2959.999696,N,12000.001235,E,0.0,,230721,4.3,W,A*06
$GPGGA,000432.90,2959.999696,N,12000.001235,E,1,00,1.0,-21.7,M,7.0,M,,*4E

$GPGSV,3,1,12,02,32,298,26,04,50,244,27,07,83,105,26,08,47,206,26*7D
$GPGSV,3,2,12,13,48,030,27,20,21,120,26,23,25,057,26,25,64,040,27*71
$GPGSV,3,3,12,27,18,219,26,10,00,000,,16,00,000,,28,00,000,*74
$GLGSV,1,1,03,77,58,323,26,78,04,330,,76,62,160,*54
$GAGSV,1,1,0,7*43
$PQGSV,1,1,0,0*43
$PQGSV,1,1,0,0*43
$GPGSA,A,3,02,04,07,08,13,20,23,25,27,,,,1.3,1.0,0.8*33
$GPVTG,,T,,M,0.0,N,0.0,K,A*23
$GPDTM,P90,,0000.000022,S,00000.000001,W,0.988,W84*5A
$GPRMC,000433.00,A,2959.999691,N,12000.001234,E,0.0,,230721,4.3,W,A*08
$GPGGA,000433.00,2959.999691,N,12000.001234,E,1,09,1.0,-21.7,M,7.0,M,,*49

$GPVTG,,T,,M,0.0,N,0.0,K,A*23
$GPDTM,P90,,0000.000022,S,00000.000001,W,0.988,W84*5A
