$GPGSV,3,1,12,02,34,270,41,04,34,217,41,07,63,032,41,08,70,230,41*72
$GPGSV,3,2,12,10,18,316,40,13,35,056,41,20,04,135,41,23,13,075,41*71
$GPGSV,3,3,12,25,42,036,41,27,37,233,41,28,16,170,40,26,00,000,*76
$GLGSV,2,1,07,78,28,326,40,86,14,042,40,77,73,264,40,88,33,270,40*6F
$GLGSV,2,2,07,87,51,350,40,71,09,056,40,72,10,108,39*54
$GAGSV,2,1,08,09,28,319,,10,82,314,,11,39,139,,17,14,042,*62
$GAGSV,2,2,08,22,03,230,,23,52,244,,24,64,021,,27,14,139,*6A
$PQGSV,1,1,0,0*43
$PQGSV,1,1,0,0*43
$GPGSA,A,3,02,04,07,08,10,13,20,23,25,27,28,,1.0,0.6,0.7*33
$GLGSA,A,3,71,72,77,78,86,87,88,,,,,,1.0,0.6,0.7*23
$GPVTG,,T,,M,0.0,N,0.0,K,A*23
$GPDTM,P90,,0000.000022,S,00000.000001,W,0.988,W84*5A
$GPRMC,005224.00,A,2959.999852,N,11959.999936,E,0.0,,230721,4.3,W,A*0B
$GPGGA,005224.00,2959.999852,N,11959.999936,E,1,12,0.6,-5.4,M,7.0,M,,*72

$GPGSV,3,1,12,02,34,270,41,04,34,217,41,07,63,032,41,08,70,230,41*72
$GPGSV,3,2,12,10,18,316,40,13,35,056,41,20,04,135,41,23,13,075,41*71
$GPGSV,3,3,12,25,42,036,41,27,37,233,41,28,16,170,40,26,00,000,*76
$GLGSV,2,1,07,78,28,326,40,86,14,042,40,77,73,264,40,88,33,270,40*6F
$GLGSV,2,2,07,87,51,350,40,71,09,056,40,72,10,108,39*54
$GAGSV,2,1,08,09,28,319,,10,82,314,,11,39,139,,17,14,042,*62
$GAGSV,2,2,08,22,03,230,,23,52,244,,24,64,021,,27,14,139,*6A
$PQGSV,1,1,0,0*43
$PQGSV,1,1,0,0*43
$GPGSA,A,3,02,04,07,08,10,13,20,23,25,27,28,,1.0,0.6,0.7*33
$GLGSA,A,3,71,72,77,78,86,87,88,,,,,,1.0,0.6,0.7*23
$GPVTG,,T,,M,0.0,N,0.0,K,A*23
$GPDTM,P90,,0000.000022,S,00000.000001,W,0.988,W84*5A
$GPRMC,005225.00,A,2959.999846,N,11959.999933,E,0.0,,230721,4.3,W,A*0A
$GPGGA,005225.00,2959.999846,N,11959.999933,E,1,12,0.6,-5.4,M,7.0,M,,*73

$GPGSV,3,1,12,02,34,270,41,04,34,217,42,07,63,032,41,08,70,230,41*71
$GPGSV,3,2,12,10,18,316,40,13,35,056,41,20,04,135,41,23,13,075,41*71
$GPGSV,3,3,12,25,42,036,41,27,37,233,41,28,16,170,40,26,00,000,*76
$GLGSV,2,1,07,78,28,326,40,86,14,042,40,77,73,264,40,88,33,270,40*6F
$GLGSV,2,2,07,87,51,350,40,71,09,056,40,72,10,108,39*54
$GAGSV,2,1,08,09,28,319,,10,82,314,,11,39,139,,17,14,042,*62
$GAGSV,2,2,08,22,03,230,,23,52,244,,24,64,021,,27,14,139,*6A
$PQGSV,1,1,0,0*43
$PQGSV,1,1,0,0*43
$GPGSA,A,3,02,04,07,08,10,13,20,23,25,27,28,,1.0,0.6,0.7*33
$GLGSA,A,3,71,72,77,78,86,87,88,,,,,,1.0,0.6,0.7*23
$GPVTG,,T,,M,0.0,N,0.0,K,A*23
$GPDTM,P90,,0000.000022,S,00000.000001,W,0.988,W84*5A
$GPRMC,005226.00,A,2959.999848,N,11959.999932,E,0.0,,230721,4.3,W,A*06
$GPGGA,005226.00,2959.999848,N,11959.999932,E,1,12,0.6,-5.4,M,7.0,M,,*7F

$GPGSV,3,1,12,02,34,270,41,04,34,217,41,07,63,032,41,08,70,230,41*72
$GPGSV,3,2,12,10,18,316,40,13,35,056,41,20,04,135,42,23,13,075,41*72
$GPGSV,3,3,12,25,42,036,41,27,37,233,41,28,16,170,40,26,00,000,*76
$GLGSV,2,1,07,78,28,326,40,86,14,042,40,77,73,264,40,88,33,270,40*6F
$GLGSV,2,2,07,87,51,350,40,71,09,056,40,72,10,108,39*54
$GAGSV,2,1,08,09,28,319,,10,82,314,,11,39,139,,17,14,042,*62
$GAGSV,2,2,08,22,03,230,,23,52,244,,24,64,021,,27,14,139,*6A
$PQGSV,1,1,0,0*43
$PQGSV,1,1,0,0*43
$GPGSA,A,3,02,04,07,08,10,13,20,23,25,27,28,,1.0,0.6,0.7*33
$GLGSA,A,3,71,72,77,78,86,87,88,,,,,,1.0,0.6,0.7*23
$GPVTG,,T,,M,0.0,N,0.0,K,A*23
$GPDTM,P90,,0000.000022,S,00000.000001,W,0.988,W84*5A
$GPRMC,005227.00,A,2959.999848,N,11959.999929,E,0.0,,230721,4.3,W,A*0D
$GPGGA,005227.00,2959.999848,N,11959.999929,E,1,12,0.6,-5.4,M,7.0,M,,*74

$GPGSV,3,1,12,02,34,270,41,04,34,217,41,07,63,032,41,08,70,230,41*72
$GPGSV,3,2,12,10,18,316,40,13,35,056,42,20,04,135,41,23,13,075,41*72
$GPGSV,3,3,12,25,42,036,41,27,37,233,41,28,16,170,40,26,00,000,*76
$GLGSV,2,1,07,78,28,326,40,86,14,042,40,77,73,264,40,88,33,270,40*6F
$GLGSV,2,2,07,87,51,350,40,71,09,056,40,72,10,108,39*54
$GAGSV,2,1,08,09,28,319,,10,82,314,,11,39,139,,17,14,042,*62
$GAGSV,2,2,08,22,03,230,,23,52,244,,24,64,021,,27,14,139,*6A
$PQGSV,1,1,0,0*43
$PQGSV,1,1,0,0*43
$GPGSA,A,3,02,04,07,08,10,13,20,23,25,27,28,,1.0,0.6,0.7*33
$GLGSA,A,3,71,72,77,78,86,87,88,,,,,,1.0,0.6,0.7*23
$GPVTG,,T,,M,0.0,N,0.0,K,A*23
$GPDTM,P90,,0000.000022,S,00000.000001,W,0.988,W84*5A
$GPRMC,005228.00,A,2959.999849,N,11959.999929,E,0.0,,230721,4.3,W,A*03
$GPGGA,005228.00,2959.999849,N,11959.999929,E,1,12,0.6,-5.4,M,7.0,M,,*7A

$GPGSV,3,1,12,02,34,270,41,04,34,217,41,07,63,032,41,08,70,230,41*72
$GPGSV,3,2,12,10,18,316,40,13,35,056,41,20,04,135,41,23,13,075,41*71
$GPGSV,3,3,12,25,42,036,41,27,37,233,41,28,16,170,40,26,00,000,*76
$GLGSV,2,1,07,78,28,326,40,86,14,042,40,77,73,264,40,88,33,270,40*6F
$GLGSV,2,2,07,87,51,350,40,71,09,056,40,72,10,108,39*54
$GAGSV,2,1,08,09,28,319,,10,82,314,,11,39,139,,17,14,042,*62
$GAGSV,2,2,08,22,03,230,,23,52,244,,24,64,021,,27,14,139,*6A
$PQGSV,1,1,0,0*43
$PQGSV,1,1,0,0*43
$GPGSA,A,3,02,04,07,08,10,13,20,23,25,27,28,,1.0,0.6,0.7*33
$GLGSA,A,3,71,72,77,78,86,87,88,,,,,,1.0,0.6,0.7*23
$GPVTG,,T,,M,0.0,N,0.0,K,A*23
$GPDTM,P90,,0000.000022,S,00000.000001,W,0.988,W84*5A
$GPRMC,005229.00,A,2959.999849,N,11959.999929,E,0.0,,230721,4.3,W,A*02
$GPGGA,005229.00,2959.999849,N,11959.999929,E,1,12,0.6,-5.4,M,7.0,M,,*7B

$GPGSV,3,1,12,02,34,270,41,04,34,217,41,07,63,032,41,08,70,230,41*72
$GPGSV,3,2,12,10,18,316,40,13,35,056,41,20,04,135,41,23,13,075,41*71
$GPGSV,3,3,12,25,42,036,41,27,37,233,41,28,16,170,40,26,00,000,*76
$GLGSV,2,1,07,78,28,326,40,86,14,042,40,77,73,264,40,88,33,270,40*6F
$GLGSV,2,2,07,87,51,350,40,71,09,056,40,72,10,108,39*54
$GAGSV,2,1,08,09,28,319,,10,82,314,,11,39,139,,17,14,042,*62
$GAGSV,2,2,08,22,03,230,,23,52,244,,24,64,021,,27,14,139,*6A
$PQGSV,1,1,0,0*43
$PQGSV,1,1,0,0*43
$GPGSA,A,3,02,04,07,08,10,13,20,23,25,27,28,,1.0,0.6,0.7*33
$GLGSA,A,3,71,72,77,78,86,87,88,,,,,,1.0,0.6,0.7*23
$GPVTG,,T,,M,0.0,N,0.0,K,A*23
$GPDTM,P90,,0000.000022,S,00000.000001,W,0.988,W84*5A
$GPRMC,005230.00,A,2959.999848,N,11959.999928,E,0.0,,230721,4.3,W,A*0A
$GPGGA,005230.00,2959.999848,N,11959.999928,E,1,12,0.6,-5.4,M,7.0,M,,*73

$GPGSV,3,1,12,02,34,270,41,04,34,217,41,07,63,032,41,08,70,230,41*72
$GPGSV,3,2,12,10,18,316,40,13,35,056,41,20,04,135,41,23,13,075,41*71
$GPGSV,3,3,12,25,42,036,41,27,37,233,41,28,16,170,41,26,00,000,*77
$GLGSV,2,1,07,78,28,326,40,86,14,042,40,77,73,264,40,88,33,270,40*6F
$GLGSV,2,2,07,87,51,350,40,71,09,056,40,72,10,108,39*54
$GAGSV,2,1,08,09,28,319,,10,82,314,,11,39,139,,17,14,042,*62
$GAGSV,2,2,08,22,03,230,,23,52,244,,24,64,021,,27,14,139,*6A
$PQGSV,1,1,0,0*43
$PQGSV,1,1,0,0*43
$GPGSA,A,3,02,04,07,08,10,13,20,23,25,27,28,,1.0,0.6,0.7*33
$GLGSA,A,3,71,72,77,78,86,87,88,,,,,,1.0,0.6,0.7*23
$GPVTG,,T,,M,0.0,N,0.0,K,A*23
$GPDTM,P90,,0000.000022,S,00000.000001,W,0.988,W84*5A
$GPRMC,005231.00,A,2959.999849,N,11959.999928,E,0.0,,230721,4.3,W,A*0A
$GPGGA,005231.00,2959.999849,N,11959.999928,E,1,12,0.6,-5.4,M,7.0,M,,*73

$GPGSV,3,1,12,02,34,270,41,04,34,217,41,07,63,032,41,08,70,230,41*72
$GPGSV,3,2,12,10,18,316,40,13,35,056,41,20,04,135,41,23,13,075,41*71
$GPGSV,3,3,12,25,42,036,41,27,37,233,41,28,16,170,40,26,00,000,*76
$GLGSV,2,1,07,78,28,326,40,86,14,042,40,77,73,264,40,88,33,270,40*6F
$GLGSV,2,2,07,87,51,350,40,71,09,056,40,72,10,108,39*54
$GAGSV,2,1,08,09,28,319,,10,82,314,,11,39,139,,17,14,042,*62
$GAGSV,2,2,08,22,03,230,,23,52,244,,24,64,021,,27,14,139,*6A
$PQGSV,1,1,0,0*43
$PQGSV,1,1,0,0*43
$GPGSA,A,3,02,04,07,08,10,13,20,23,25,27,28,,1.0,0.6,0.7*33
$GLGSA,A,3,71,72,77,78,86,87,88,,,,,,1.0,0.6,0.7*23
$GPVTG,,T,,M,0.0,N,0.0,K,A*23
$GPDTM,P90,,0000.000022,S,00000.000001,W,0.988,W84*5A
$GPRMC,005232.00,A,2959.999849,N,11959.999927,E,0.0,,230721,4.3,W,A*06
$GPGGA,005232.00,2959.999849,N,11959.999927,E,1,12,0.6,-5.4,M,7.0,M,,*7F

$GPGSV,3,1,12,02,34,270,41,04,34,217,41,07,63,032,41,08,70,230,41*72
$GPGSV,3,2,12,10,18,316,40,13,35,056,41,20,04,135,41,23,13,075,41*71
$GPGSV,3,3,12,25,42,036,41,27,37,233,41,28,16,170,40,26,00,000,*76
$GLGSV,2,1,07,78,28,326,40,86,14,042,40,77,73,264,40,88,33,270,40*6F
$GLGSV,2,2,07,87,51,350,40,71,09,056,40,72,10,108,39*54
$GAGSV,2,1,08,09,28,319,,10,82,314,,11,39,139,,17,14,042,*62
$GAGSV,2,2,08,22,03,230,,23,52,244,,24,64,021,,27,14,139,*6A
$PQGSV,1,1,0,0*43
$PQGSV,1,1,0,0*43
$GPGSA,A,3,02,04,07,08,10,13,20,23,25,27,28,,1.0,0.6,0.7*33
$GLGSA,A,3,71,72,77,78,86,87,88,,,,,,1.0,0.6,0.7*23
$GPVTG,,T,,M,0.0,N,0.0,K,A*23
$GPDTM,P90,,0000.000022,S,00000.000001,W,0.988,W84*5A
$GPRMC,005233.00,A,2959.999849,N,11959.999927,E,0.0,,230721,4.3,W,A*07
$GPGGA,005233.00,2959.999849,N,11959.999927,E,1,12,0.6,-5.4,M,7.0,M,,*7E

$GPGSV,3,1,12,02,34,270,41,04,34,217,41,07,63,032,41,08,70,230,41*72
$GPGSV,3,2,12,10,18,316,40,13,35,056,41,20,04,135,41,23,13,075,41*71
$GPGSV,3,3,12,25,42,036,41,27,37,233,41,28,16,170,40,26,00,000,*76
$GLGSV,2,1,07,78,28,326,40,86,14,042,40,77,73,264,40,88,33,270,40*6F
$GLGSV,2,2,07,87,51,350,40,71,09,056,40,72,10,108,39*54
$GAGSV,2,1,08,09,28,319,,10,82,314,,11,39,139,,17,14,042,*62
$GAGSV,2,2,08,22,03,230,,23,52,244,,24,64,021,,27,14,139,*6A
$PQGSV,1,1,0,0*43
$PQGSV,1,1,0,0*43
$GPGSA,A,3,02,04,07,08,10,13,20,23,25,27,28,,1.0,0.7,0.7*32
$GLGSA,A,3,71,72,77,78,86,87,88,,,,,,1.0,0.7,0.7*22
$GPVTG,,T,,M,0.0,N,0.0,K,A*23
$GPDTM,P90,,0000.000022,S,00000.000001,W,0.988,W84*5A
$GPRMC,005234.00,A,2959.999849,N,11959.999927,E,0.0,,230721,4.3,W,A*00
$GPGGA,005234.00,2959.999849,N,11959.999927,E,1,12,0.7,-5.4,M,7.0,M,,*78

$GPGSV,3,1,12,02,34,270,41,04,34,217,41,07,63,032,41,08,70,230,41*72
$GPGSV,3,2,12,10,18,316,40,13,35,056,41,20,04,135,41,23,13,075,41*71
$GPGSV,3,3,12,25,42,036,41,27,37,233,41,28,16,170,40,26,00,000,*76
$GLGSV,2,1,07,78,28,326,40,86,14,042,40,77,73,264,40,88,33,270,40*6F
$GLGSV,2,2,07,87,51,350,40,71,09,056,40,72,10,108,39*54
$GAGSV,2,1,08,09,28,319,,10,82,314,,11,39,139,,17,14,042,*62
$GAGSV,2,2,08,22,03,230,,23,52,244,,24,64,021,,27,14,139,*6A
$PQGSV,1,1,0,0*43
$PQGSV,1,1,0,0*43
$GPGSA,A,3,02,04,07,08,10,13,23,25,27,28,,,1.0,0.7,0.7*30
$GLGSA,A,3,71,72,77,78,86,87,88,,,,,,1.0,0.7,0.7*22
$GPVTG,,T,,M,0.0,N,0.0,K,A*23
$GPDTM,P90,,0000.000022,S,00000.000001,W,0.988,W84*5A
$GPRMC,005235.00,A,2959.999848,N,11959.999927,E,0.0,,230721,4.3,W,A*00
$GPGGA,005235.00,2959.999848,N,11959.999927,E,1,12,0.7,-5.4,M,7.0,M,,*78

$GPGSV,3,1,12,02,34,270,41,04,34,217,41,07,63,032,41,08,70,230,41*72
$GPGSV,3,2,12,10,18,316,40,13,35,056,41,20,04,135,41,23,13,075,41*71
$GPGSV,3,3,12,25,42,036,41,27,37,233,41,28,16,170,40,26,00,000,*76
$GLGSV,2,1,07,78,28,326,40,86,14,042,40,77,73,264,40,88,33,270,40*6F
$GLGSV,2,2,07,87,51,350,40,71,09,056,40,72,10,108,39*54
$GAGSV,2,1,08,09,28,319,,10,82,314,,11,39,139,,17,14,042,*62
$GAGSV,2,2,08,22,03,230,,23,52,244,,24,64,021,,27,14,139,*6A
$PQGSV,1,1,0,0*43
$PQGSV,1,1,0,0*43
$GPGSA,A,3,02,04,07,08,10,13,23,25,27,28,,,1.0,0.7,0.7*30
$GLGSA,A,3,71,72,77,78,86,87,88,,,,,,1.0,0.7,0.7*22
$GPVTG,,T,,M,0.0,N,0.0,K,A*23
$GPDTM,P90,,0000.000022,S,00000.000001,W,0.988,W84*5A
$GPRMC,005236.00,A,2959.999849,N,11959.999926,E,0.0,,230721,4.3,W,A*03
$GPGGA,005236.00,2959.999849,N,11959.999926,E,1,12,0.7,-5.4,M,7.0,M,,*7B

$GPGSV,3,1,12,02,34,270,41,04,34,217,41,07,63,032,41,08,70,230,41*72
$GPGSV,3,2,12,10,18,316,40,13,35,056,41,20,04,135,41,23,13,075,41*71
$GPGSV,3,3,12,25,42,036,41,27,37,233,41,28,16,170,40,26,00,000,*76
$GLGSV,2,1,07,78,28,326,40,86,14,042,40,77,73,264,40,88,33,270,40*6F
$GLGSV,2,2,07,87,51,350,40,71,09,056,40,72,10,108,39*54
$GAGSV,2,1,08,09,28,319,,10,82,314,,11,39,139,,17,14,042,*62
$GAGSV,2,2,08,22,03,230,,23,52,244,,24,64,021,,27,14,139,*6A
$PQGSV,1,1,0,0*43
$PQGSV,1,1,0,0*43
$GPGSA,A,3,02,04,07,08,10,13,23,25,27,28,,,1.0,0.7,0.7*30
$GLGSA,A,3,71,72,77,78,86,87,88,,,,,,1.0,0.7,0.7*22
$GPVTG,,T,,M,0.0,N,0.0,K,A*23
$GPDTM,P90,,0000.000022,S,00000.000001,W,0.988,W84*5A
$GPRMC,005237.00,A,2959.999848,N,11959.999927,E,0.0,,230721,4.3,W,A*02
$GPGGA,005237.00,2959.999848,N,11959.999927,E,1,12,0.7,-5.4,M,7.0,M,,*7A

$GPGSV,3,1,12,02,34,270,42,04,34,217,41,07,63,032,41,08,70,230,41*71
$GPGSV,3,2,12,10,18,316,40,13,35,056,41,20,04,135,41,23,13,075,41*71
$GPGSV,3,3,12,25,42,036,41,27,37,233,41,28,16,170,40,26,00,000,*76
$GLGSV,2,1,07,78,28,326,40,86,14,042,40,77,73,264,40,88,33,270,40*6F
$GLGSV,2,2,07,87,51,350,40,71,09,056,40,72,10,108,39*54
$GAGSV,2,1,08,09,28,319,,10,82,314,,11,39,139,,17,14,042,*62
$GAGSV,2,2,08,22,03,230,,23,52,244,,24,64,021,,27,14,139,*6A
$PQGSV,1,1,0,0*43
$PQGSV,1,1,0,0*43
$GPGSA,A,3,02,04,07,08,10,13,23,25,27,28,,,1.0,0.7,0.7*30
$GLGSA,A,3,71,72,77,78,86,87,88,,,,,,1.0,0.7,0.7*22
$GPVTG,,T,,M,0.0,N,0.0,K,A*23
$GPDTM,P90,,0000.000022,S,00000.000001,W,0.988,W84*5A
$GPRMC,005238.00,A,2959.999848,N,11959.999926,E,0.0,,230721,4.3,W,A*0C
$GPGGA,005238.00,2959.999848,N,11959.999926,E,1,12,0.7,-5.4,M,7.0,M,,*74

$GPGSV,3,1,12,02,34,270,41,04,34,217,41,07,63,032,41,08,70,230,41*72
$GPGSV,3,2,12,10,18,316,40,13,35,056,41,20,04,135,41,23,13,075,41*71
$GPGSV,3,3,12,25,42,036,41,27,37,233,41,28,16,170,40,26,00,000,*76
$GLGSV,2,1,07,78,28,326,40,86,14,042,40,77,73,264,40,88,33,270,40*6F
$GLGSV,2,2,07,87,51,350,40,71,09,056,40,72,10,108,39*54
$GAGSV,2,1,08,09,28,319,,10,82,314,,11,39,139,,17,14,042,*62
$GAGSV,2,2,08,22,03,230,,23,52,244,,24,64,021,,27,14,139,*6A
$PQGSV,1,1,0,0*43
$PQGSV,1,1,0,0*43
$GPGSA,A,3,02,04,07,08,10,13,23,25,27,28,,,1.0,0.7,0.7*30
$GLGSA,A,3,71,72,77,78,86,87,88,,,,,,1.0,0.7,0.7*22
$GPVTG,,T,,M,0.0,N,0.0,K,A*23
$GPDTM,P90,,0000.000022,S,00000.000001,W,0.988,W84*5A
$GPRMC,005239.00,A,2959.999848,N,11959.999926,E,0.0,,230721,4.3,W,A*0D
$GPGGA,005239.00,2959.999848,N,11959.999926,E,1,12,0.7,-5.4,M,7.0,M,,*75

$GPGSV,3,1,12,02,34,270,41,04,34,217,41,07,63,032,41,08,70,230,42*71
$GPGSV,3,2,12,10,18,316,40,13,35,056,41,20,04,135,41,23,13,075,41*71
$GPGSV,3,3,12,25,42,036,41,27,37,233,41,28,16,170,40,26,00,000,*76
$GLGSV,2,1,07,78,28,326,40,86,14,042,40,77,73,264,40,88,33,270,40*6F
$GLGSV,2,2,07,87,51,350,40,71,09,056,40,72,10,108,39*54
$GAGSV,2,1,08,09,28,319,45,10,82,314,,11,39,139,,17,14,042,*63
$GAGSV,2,2,08,22,03,230,,23,52,244,,24,64,021,,27,14,139,*6A
$PQGSV,1,1,0,0*43
$PQGSV,1,1,0,0*43
$GPGSA,A,3,02,04,07,08,10,13,23,25,27,28,,,1.0,0.7,0.7*30
$GLGSA,A,3,71,72,77,78,86,87,88,,,,,,1.0,0.7,0.7*22
$GPVTG,,T,,M,0.0,N,0.0,K,A*23
$GPDTM,P90,,0000.000022,S,00000.000001,W,0.988,W84*5A
$GPRMC,005240.00,A,2959.999845,N,11959.999929,E,0.0,,230721,4.3,W,A*01
$GPGGA,005240.00,2959.999845,N,11959.999929,E,1,12,0.7,-5.4,M,7.0,M,,*79

$GPGSV,3,1,12,02,34,270,41,04,34,217,41,07,63,032,41,08,70,230,41*72
$GPGSV,3,2,12,10,18,316,40,13,35,056,41,20,04,135,41,23,13,075,41*71
$GPGSV,3,3,12,25,42,036,41,27,37,233,41,28,16,170,40,26,00,000,*76
$GLGSV,2,1,07,78,28,326,40,86,14,042,40,77,73,264,40,88,33,270,40*6F
$GLGSV,2,2,07,87,51,350,40,71,09,056,40,72,10,108,39*54
$GAGSV,2,1,08,09,28,319,45,10,82,314,,11,39,139,,17,14,042,*63
$GAGSV,2,2,08,22,03,230,,23,52,244,,24,64,021,,27,14,139,*6A
$PQGSV,1,1,0,0*43
$PQGSV,1,1,0,0*43
$GPGSA,A,3,02,04,07,08,10,13,23,25,27,28,,,1.0,0.7,0.7*30
$GLGSA,A,3,71,72,77,78,86,87,88,,,,,,1.0,0.7,0.7*22
$GAGSA,A,3,09,,,,,,,,,,,,1.0,0.7,0.7*2B
$GPVTG,,T,,M,0.0,N,0.0,K,A*23
$GPDTM,P90,,0000.000022,S,00000.000001,W,0.988,W84*5A
$GPRMC,005241.00,A,2959.999845,N,11959.999929,E,0.0,,230721,4.3,W,A*00
$GPGGA,005241.00,2959.999845,N,11959.999929,E,1,12,0.7,-5.4,M,7.0,M,,*78

$GPGSV,3,1,12,02,34,270,41,04,34,217,42,07,63,032,41,08,70,230,41*71
$GPGSV,3,2,12,10,18,316,40,13,35,056,41,20,04,135,36,23,13,075,41*71
$GPGSV,3,3,12,25,42,036,41,27,37,233,41,28,16,170,40,26,00,000,*76
$GLGSV,2,1,07,78,28,326,40,86,14,042,40,77,73,264,40,88,33,270,40*6F
$GLGSV,2,2,07,87,51,350,40,71,09,056,40,72,10,108,39*54
$GAGSV,2,1,08,09,28,319,45,10,82,314,,11,39,139,,17,14,042,*63
$GAGSV,2,2,08,22,03,230,,23,52,244,,24,64,021,,27,14,139,*6A
$PQGSV,1,1,0,0*43
$PQGSV,1,1,0,0*43
$GPGSA,A,3,02,04,07,08,10,13,23,25,27,28,,,1.0,0.7,0.7*30
$GLGSA,A,3,71,72,77,78,86,87,88,,,,,,1.0,0.7,0.7*22
$GAGSA,A,3,09,,,,,,,,,,,,1.0,0.7,0.7*2B
$GPVTG,,T,,M,0.0,N,0.0,K,A*23
$GPDTM,P90,,0000.000022,S,00000.000001,W,0.988,W84*5A
$GPRMC,005242.00,A,2959.999845,N,11959.999929,E,0.0,,230721,4.3,W,A*03
$GPGGA,005242.00,2959.999845,N,11959.999929,E,1,12,0.7,-5.4,M,7.0,M,,*7B

$GPGSV,3,1,12,02,34,270,41,04,34,217,41,07,63,032,42,08,70,230,41*71
$GPGSV,3,2,12,10,18,316,40,13,35,056,42,20,04,135,36,23,13,075,41*72
$GPGSV,3,3,12,25,42,036,41,27,37,233,41,28,16,170,40,26,00,000,*76
$GLGSV,2,1,07,78,28,326,40,86,14,042,40,77,73,264,40,88,33,270,40*6F
$GLGSV,2,2,07,87,51,350,40,71,09,056,40,72,10,108,39*54
$GAGSV,2,1,08,09,28,319,45,10,82,314,,11,39,139,,17,14,042,*63
$GAGSV,2,2,08,22,03,230,,23,52,244,,24,64,021,,27,14,139,*6A
$PQGSV,1,1,0,0*43
$PQGSV,1,1,0,0*43
$GPGSA,A,3,02,04,07,08,10,13,23,25,27,28,,,1.0,0.7,0.7*30
$GLGSA,A,3,71,72,77,78,86,87,88,,,,,,1.0,0.7,0.7*22
$GAGSA,A,3,09,,,,,,,,,,,,1.0,0.7,0.7*2B
$GPVTG,,T,,M,0.0,N,0.0,K,A*23
$GPDTM,P90,,0000.000022,S,00000.000001,W,0.988,W84*5A
$GPRMC,005243.00,A,2959.999843,N,11959.999930,E,0.0,,230721,4.3,W,A*0C
$GPGGA,005243.00,2959.999843,N,11959.999930,E,1,12,0.7,-5.4,M,7.0,M,,*74

$GPGSV,3,1,12,02,34,270,41,04,34,217,41,07,63,032,42,08,70,230,41*71
$GPGSV,3,2,12,10,18,316,40,13,35,056,41,20,04,135,24,23,13,075,41*72
$GPGSV,3,3,12,25,42,036,41,27,37,233,41,28,16,170,40,26,00,000,*76
$GLGSV,2,1,07,78,28,326,40,86,14,042,40,77,73,264,40,88,33,270,40*6F
$GLGSV,2,2,07,87,51,350,40,71,09,056,40,72,10,108,39*54
$GAGSV,2,1,08,09,28,319,45,10,82,314,,11,39,139,,17,14,042,*63
$GAGSV,2,2,08,22,03,230,,23,52,244,,24,64,021,,27,14,139,*6A
$PQGSV,1,1,0,0*43
$PQGSV,1,1,0,0*43
$GPGSA,A,3,02,04,07,08,10,13,23,25,27,28,,,1.0,0.7,0.7*30
$GLGSA,A,3,71,72,77,78,86,87,88,,,,,,1.0,0.7,0.7*22
$GAGSA,A,3,09,,,,,,,,,,,,1.0,0.7,0.7*2B
$GPVTG,,T,,M,0.0,N,0.0,K,A*23
$GPDTM,P90,,0000.000022,S,00000.000001,W,0.988,W84*5A
$GPRMC,005244.00,A,2959.999842,N,11959.999931,E,0.0,,230721,4.3,W,A*0B
$GPGGA,005244.00,2959.999842,N,11959.999931,E,1,12,0.7,-5.4,M,7.0,M,,*73

$GPGSV,3,1,12,02,34,270,41,04,34,217,41,07,63,032,41,08,70,230,41*72
$GPGSV,3,2,12,10,18,316,40,13,35,056,41,20,04,135,22,23,13,075,41*74
$GPGSV,3,3,12,25,42,036,41,27,37,233,41,28,16,170,40,26,00,000,*76
$GLGSV,2,1,07,78,28,326,40,86,14,042,40,77,73,264,40,88,33,270,40*6F
$GLGSV,2,2,07,87,51,350,40,71,09,056,40,72,10,108,39*54
$GAGSV,2,1,08,09,28,319,45,10,82,314,,11,39,139,,17,14,042,*63
$GAGSV,2,2,08,22,03,230,,23,52,244,,24,64,021,,27,14,139,*6A
$PQGSV,1,1,0,0*43
$PQGSV,1,1,0,0*43
$GPGSA,A,3,02,04,07,08,10,13,23,25,27,28,,,1.0,0.7,0.7*30
$GLGSA,A,3,71,72,77,78,86,87,88,,,,,,1.0,0.7,0.7*22
$GAGSA,A,3,09,,,,,,,,,,,,1.0,0.7,0.7*2B
$GPVTG,,T,,M,0.0,N,0.0,K,A*23
$GPDTM,P90,,0000.000022,S,00000.000001,W,0.988,W84*5A
$GPRMC,005245.00,A,2959.999842,N,11959.999933,E,0.0,,230721,4.3,W,A*08
$GPGGA,005245.00,2959.999842,N,11959.999933,E,1,12,0.7,-5.4,M,7.0,M,,*70

$GPGSV,3,1,12,02,34,270,41,04,34,217,41,07,63,032,41,08,70,230,41*72
$GPGSV,3,2,12,10,18,316,40,13,35,056,41,20,04,135,21,23,13,075,41*77
$GPGSV,3,3,12,25,42,036,41,27,37,233,41,28,16,170,40,26,00,000,*76
$GLGSV,2,1,07,78,28,326,40,86,14,042,40,77,73,264,40,88,33,270,40*6F
$GLGSV,2,2,07,87,51,350,40,71,09,056,40,72,10,108,39*54
$GAGSV,2,1,08,09,28,319,45,10,82,314,,11,39,139,,17,14,042,*63
$GAGSV,2,2,08,22,03,230,,23,52,244,,24,64,021,,27,14,139,*6A
$PQGSV,1,1,0,0*43
$PQGSV,1,1,0,0*43
$GPGSA,A,3,02,04,07,08,10,13,23,25,27,28,,,1.0,0.7,0.7*30
$GLGSA,A,3,71,72,77,78,86,87,88,,,,,,1.0,0.7,0.7*22
$GAGSA,A,3,09,,,,,,,,,,,,1.0,0.7,0.7*2B
$GPVTG,,T,,M,0.0,N,0.0,K,A*23
$GPDTM,P90,,0000.000022,S,00000.000001,W,0.988,W84*5A
$GPRMC,005246.00,A,2959.999842,N,11959.999932,E,0.0,,230721,4.3,W,A*0A
$GPGGA,005246.00,2959.999842,N,11959.999932,E,1,12,0.7,-5.4,M,7.0,M,,*72

$GPGSV,3,1,12,02,34,270,42,04,34,217,41,07,63,032,41,08,70,230,42*72
$GPGSV,3,2,12,10,18,316,40,13,35,056,41,20,04,135,21,23,13,075,41*77
$GPGSV,3,3,12,25,42,036,42,27,37,233,41,28,16,170,40,26,00,000,*75
$GLGSV,2,1,07,78,28,326,40,86,14,042,40,77,73,264,40,88,33,270,40*6F
$GLGSV,2,2,07,87,51,350,40,71,09,056,40,72,10,108,39*54
$GAGSV,2,1,08,09,28,319,45,10,82,314,,11,39,139,,17,14,042,*63
$GAGSV,2,2,08,22,03,230,,23,52,244,,24,64,021,,27,14,139,*6A
$PQGSV,1,1,0,0*43
$PQGSV,1,1,0,0*43
$GPGSA,A,3,02,04,07,08,10,13,23,25,27,28,,,1.0,0.7,0.7*30
$GLGSA,A,3,71,72,77,78,86,87,88,,,,,,1.0,0.7,0.7*22
$GAGSA,A,3,09,,,,,,,,,,,,1.0,0.7,0.7*2B
$GPVTG,,T,,M,0.0,N,0.0,K,A*23
$GPDTM,P90,,0000.000022,S,00000.000001,W,0.988,W84*5A
$GPRMC,005247.00,A,2959.999841,N,11959.999932,E,0.0,,230721,4.3,W,A*08
$GPGGA,005247.00,2959.999841,N,11959.999932,E,1,12,0.7,-5.4,M,7.0,M,,*70

$GPGSV,3,1,12,02,34,270,41,04,34,217,41,07,63,032,41,08,70,230,41*72
$GPGSV,3,2,12,10,18,316,40,13,35,056,42,20,04,135,20,23,13,075,42*76
$GPGSV,3,3,12,25,42,036,41,27,37,233,41,28,16,170,40,26,00,000,*76
$GLGSV,2,1,07,78,28,326,40,86,14,042,40,77,73,264,40,88,33,270,40*6F
$GLGSV,2,2,07,87,51,350,40,71,09,056,40,72,10,108,39*54
$GAGSV,2,1,08,09,28,319,45,10,82,314,,11,39,139,,17,14,042,*63
$GAGSV,2,2,08,22,03,230,,23,52,244,,24,64,021,,27,14,139,*6A
$PQGSV,1,1,0,0*43
$PQGSV,1,1,0,0*43
$GPGSA,A,3,02,04,07,08,10,13,23,25,27,28,,,1.0,0.7,0.7*30
$GLGSA,A,3,71,72,77,78,86,87,88,,,,,,1.0,0.7,0.7*22
$GAGSA,A,3,09,,,,,,,,,,,,1.0,0.7,0.7*2B
$GPVTG,,T,,M,0.0,N,0.0,K,A*23
$GPDTM,P90,,0000.000022,S,00000.000001,W,0.988,W84*5A
$GPRMC,005248.00,A,2959.999840,N,11959.999933,E,0.0,,230721,4.3,W,A*07
$GPGGA,005248.00,2959.999840,N,11959.999933,E,1,12,0.7,-5.4,M,7.0,M,,*7F

$GPGSV,3,1,12,02,34,270,41,04,34,217,41,07,63,032,41,08,70,230,41*72
$GPGSV,3,2,12,10,18,316,40,13,35,056,41,20,04,135,20,23,13,075,41*76
$GPGSV,3,3,12,25,42,036,41,27,37,233,41,28,16,170,40,26,00,000,*76
$GLGSV,2,1,07,78,28,326,40,86,14,042,40,77,73,264,40,88,33,270,40*6F
$GLGSV,2,2,07,87,51,350,40,71,09,056,40,72,10,108,39*54
$GAGSV,2,1,08,09,28,319,45,10,82,314,,11,39,139,,17,14,042,*63
$GAGSV,2,2,08,22,03,230,,23,52,244,,24,64,021,,27,14,139,*6A
$PQGSV,1,1,0,0*43
$PQGSV,1,1,0,0*43
$GPGSA,A,3,02,04,07,08,10,13,23,25,27,28,,,1.0,0.7,0.7*30
$GLGSA,A,3,71,72,77,78,86,87,88,,,,,,1.0,0.7,0.7*22
$GAGSA,A,3,09,,,,,,,,,,,,1.0,0.7,0.7*2B
$GPVTG,,T,,M,0.0,N,0.0,K,A*23
$GPDTM,P90,,0000.000022,S,00000.000001,W,0.988,W84*5A
$GPRMC,005249.00,A,2959.999840,N,11959.999932,E,0.0,,230721,4.3,W,A*07
$GPGGA,005249.00,2959.999840,N,11959.999932,E,1,12,0.7,-5.4,M,7.0,M,,*7F

$GPGSV,3,1,12,02,34,270,41,04,34,217,41,07,63,032,41,08,70,230,41*72
$GPGSV,3,2,12,10,18,316,40,13,35,056,41,20,04,135,20,23,13,075,41*76
$GPGSV,3,3,12,25,42,036,41,27,37,233,41,28,16,170,40,26,00,000,*76
$GLGSV,2,1,07,78,28,326,40,86,14,042,40,77,73,264,40,88,33,270,40*6F
$GLGSV,2,2,07,87,51,350,40,71,09,056,40,72,10,108,39*54
$GAGSV,2,1,08,09,28,319,45,10,82,314,,11,39,139,,17,14,042,*63
$GAGSV,2,2,08,22,03,230,,23,52,244,,24,64,021,,27,14,139,*6A
$PQGSV,1,1,0,0*43
$PQGSV,1,1,0,0*43
$GPGSA,A,3,02,04,07,08,10,13,23,25,27,28,,,1.0,0.7,0.7*30
$GLGSA,A,3,71,72,77,78,86,87,88,,,,,,1.0,0.7,0.7*22
$GAGSA,A,3,09,,,,,,,,,,,,1.0,0.7,0.7*2B
$GPVTG,,T,,M,0.0,N,0.0,K,A*23
$GPDTM,P90,,0000.000022,S,00000.000001,W,0.988,W84*5A
$GPRMC,005250.00,A,2959.999840,N,11959.999933,E,0.0,,230721,4.3,W,A*0E
$GPGGA,005250.00,2959.999840,N,11959.999933,E,1,12,0.7,-5.4,M,7.0,M,,*76

$GPGSV,3,1,12,02,34,270,41,04,34,217,41,07,63,032,41,08,70,230,41*72
$GPGSV,3,2,12,10,18,316,40,13,35,056,42,20,04,135,19,23,13,075,41*7F
$GPGSV,3,3,12,25,42,036,41,27,37,233,41,28,16,170,40,26,00,000,*76
$GLGSV,2,1,07,78,28,326,40,86,14,042,40,77,73,264,40,88,33,270,40*6F
$GLGSV,2,2,07,87,51,350,40,71,09,056,40,72,10,108,39*54
$GAGSV,2,1,08,09,28,319,45,10,82,314,,11,39,139,,17,14,042,*63
$GAGSV,2,2,08,22,03,230,,23,52,244,,24,64,021,,27,14,139,*6A
$PQGSV,1,1,0,0*43
$PQGSV,1,1,0,0*43
$GPGSA,A,3,02,04,07,08,10,13,23,25,27,28,,,1.0,0.7,0.7*30
$GLGSA,A,3,71,72,77,78,86,87,88,,,,,,1.0,0.7,0.7*22
$GAGSA,A,3,09,,,,,,,,,,,,1.0,0.7,0.7*2B
$GPVTG,,T,,M,0.0,N,0.0,K,A*23
$GPDTM,P90,,0000.000022,S,00000.000001,W,0.988,W84*5A
$GPRMC,005251.00,A,2959.999839,N,11959.999934,E,0.0,,230721,4.3,W,A*06
$GPGGA,005251.00,2959.999839,N,11959.999934,E,1,12,0.7,-5.4,M,7.0,M,,*7E

$GPGSV,3,1,12,02,34,270,41,04,34,217,41,07,63,032,41,08,70,230,42*71
$GPGSV,3,2,12,10,18,316,40,13,35,056,41,20,04,135,19,23,13,075,41*7C
$GPGSV,3,3,12,25,42,036,42,27,37,233,41,28,16,170,40,26,00,000,*75
$GLGSV,2,1,07,78,28,326,40,86,14,042,40,77,73,264,40,88,33,270,40*6F
$GLGSV,2,2,07,87,51,350,40,71,09,056,40,72,10,108,39*54
$GAGSV,2,1,08,09,28,319,45,10,82,314,,11,39,139,,17,14,042,*63
$GAGSV,2,2,08,22,03,230,,23,52,244,,24,64,021,,27,14,139,*6A
$PQGSV,1,1,0,0*43
$PQGSV,1,1,0,0*43
$GPGSA,A,3,02,04,07,08,10,13,23,25,27,28,,,1.0,0.7,0.7*30
$GLGSA,A,3,71,72,77,78,86,87,88,,,,,,1.0,0.7,0.7*22
$GAGSA,A,3,09,,,,,,,,,,,,1.0,0.7,0.7*2B
$GPVTG,,T,,M,0.0,N,0.0,K,A*23
$GPDTM,P90,,0000.000022,S,00000.000001,W,0.988,W84*5A
$GPRMC,005252.00,A,2959.999839,N,11959.999933,E,0.0,,230721,4.3,W,A*02
$GPGGA,005252.00,2959.999839,N,11959.999933,E,1,12,0.7,-5.4,M,7.0,M,,*7A

$GPGSV,3,1,12,02,34,270,41,04,34,217,41,07,63,032,41,08,70,230,41*72
$GPGSV,3,2,12,10,18,316,40,13,35,056,41,20,04,135,19,23,13,075,42*7F
$GPGSV,3,3,12,25,42,036,42,27,37,233,41,28,16,170,40,26,00,000,*75
$GLGSV,2,1,07,78,28,326,40,86,14,042,40,77,73,264,40,88,33,270,40*6F
$GLGSV,2,2,07,87,51,350,40,71,09,056,40,72,10,108,39*54
$GAGSV,2,1,08,09,28,319,45,10,82,314,,11,39,139,,17,14,042,*63
$GAGSV,2,2,08,22,03,230,,23,52,244,,24,64,021,,27,14,139,*6A
$PQGSV,1,1,0,0*43
$PQGSV,1,1,0,0*43
$GPGSA,A,3,02,04,07,08,10,13,23,25,27,28,,,1.0,0.7,0.7*30
$GLGSA,A,3,71,72,77,78,86,87,88,,,,,,1.0,0.7,0.7*22
$GAGSA,A,3,09,,,,,,,,,,,,1.0,0.7,0.7*2B
$GPVTG,,T,,M,0.0,N,0.0,K,A*23
$GPDTM,P90,,0000.000022,S,00000.000001,W,0.988,W84*5A
$GPRMC,005253.00,A,2959.999838,N,11959.999934,E,0.0,,230721,4.3,W,A*05
$GPGGA,005253.00,2959.999838,N,11959.999934,E,1,12,0.7,-5.4,M,7.0,M,,*7D

$GPGSV,3,1,12,02,34,270,41,04,34,217,41,07,63,032,41,08,70,230,41*72
$GPGSV,3,2,12,10,18,316,40,13,35,056,41,20,04,135,19,23,13,075,41*7C
$GPGSV,3,3,12,25,42,036,41,27,37,233,41,28,16,170,41,26,00,000,*77
$GLGSV,2,1,07,78,28,326,40,86,14,042,40,77,73,264,40,88,33,270,40*6F
$GLGSV,2,2,07,87,51,350,40,71,09,056,40,72,10,108,39*54
$GAGSV,2,1,08,09,28,319,45,10,82,314,,11,39,139,,17,14,042,*63
$GAGSV,2,2,08,22,03,230,,23,52,244,,24,64,021,,27,14,139,*6A
$PQGSV,1,1,0,0*43
$PQGSV,1,1,0,0*43
$GPGSA,A,3,02,04,07,08,10,13,23,25,27,28,,,1.0,0.7,0.7*30
$GLGSA,A,3,71,72,77,78,86,87,88,,,,,,1.0,0.7,0.7*22
$GAGSA,A,3,09,,,,,,,,,,,,1.0,0.7,0.7*2B
$GPVTG,,T,,M,0.0,N,0.0,K,A*23
$GPDTM,P90,,0000.000022,S,00000.000001,W,0.988,W84*5A
$GPRMC,005254.00,A,2959.999837,N,11959.999933,E,0.0,,230721,4.3,W,A*0A
$GPGGA,005254.00,2959.999837,N,11959.999933,E,1,12,0.7,-5.4,M,7.0,M,,*72

$GPGSV,3,1,12,02,34,270,41,04,34,217,42,07,63,032,41,08,70,230,42*72
$GPGSV,3,2,12,10,18,316,40,13,35,056,41,20,04,135,19,23,13,075,42*7F
$GPGSV,3,3,12,25,42,036,41,27,37,233,41,28,16,170,40,26,00,000,*76
$GLGSV,2,1,07,78,28,326,40,86,14,042,40,77,73,264,40,88,33,270,40*6F
$GLGSV,2,2,07,87,51,350,40,71,09,056,40,72,10,108,39*54
$GAGSV,2,1,08,09,28,319,45,10,82,314,,11,39,139,,17,14,042,*63
$GAGSV,2,2,08,22,03,230,,23,52,244,,24,64,021,,27,14,139,*6A
$PQGSV,1,1,0,0*43
$PQGSV,1,1,0,0*43
$GPGSA,A,3,02,04,07,08,10,13,23,25,27,28,,,1.0,0.7,0.7*30
$GLGSA,A,3,71,72,77,78,86,87,88,,,,,,1.0,0.7,0.7*22
$GAGSA,A,3,09,,,,,,,,,,,,1.0,0.7,0.7*2B
$GPVTG,,T,,M,0.0,N,0.0,K,A*23
$GPDTM,P90,,0000.000022,S,00000.000001,W,0.988,W84*5A
$GPRMC,005255.00,A,2959.999837,N,11959.999933,E,0.0,,230721,4.3,W,A*0B
$GPGGA,005255.00,2959.999837,N,11959.999933,E,1,12,0.7,-5.4,M,7.0,M,,*73

$GPGSV,3,1,12,02,34,270,41,04,34,217,42,07,63,032,42,08,70,230,41*72
$GPGSV,3,2,12,10,18,316,40,13,35,056,41,20,04,135,19,23,13,075,41*7C
$GPGSV,3,3,12,25,42,036,41,27,37,233,41,28,16,170,41,26,00,000,*77
$GLGSV,2,1,07,78,28,326,40,86,14,042,40,77,73,264,40,88,33,270,40*6F
$GLGSV,2,2,07,87,51,350,40,71,09,056,40,72,10,108,39*54
$GAGSV,2,1,08,09,28,319,45,10,82,314,,11,39,139,,17,14,042,*63
$GAGSV,2,2,08,22,03,230,,23,52,244,,24,64,021,,27,14,139,*6A
$PQGSV,1,1,0,0*43
$PQGSV,1,1,0,0*43
$GPGSA,A,3,02,04,07,08,10,13,23,25,27,28,,,1.0,0.7,0.7*30
$GLGSA,A,3,71,72,77,78,86,87,88,,,,,,1.0,0.7,0.7*22
$GAGSA,A,3,09,,,,,,,,,,,,1.0,0.7,0.7*2B
$GPVTG,,T,,M,0.0,N,0.0,K,A*23
$GPDTM,P90,,0000.000022,S,00000.000001,W,0.988,W84*5A
$GPRMC,005256.00,A,2959.999837,N,11959.999933,E,0.0,,230721,4.3,W,A*08
$GPGGA,005256.00,2959.999837,N,11959.999933,E,1,12,0.7,-5.4,M,7.0,M,,*70

$GPGSV,3,1,12,02,34,270,41,04,34,217,41,07,63,032,42,08,70,230,41*71
$GPGSV,3,2,12,10,18,316,40,13,35,056,42,20,04,135,19,23,13,075,42*7C
$GPGSV,3,3,12,25,42,036,41,27,37,233,41,28,16,170,40,26,00,000,*76
$GLGSV,2,1,07,78,28,326,40,86,14,042,40,77,73,264,40,88,33,270,40*6F
$GLGSV,2,2,07,87,51,350,40,71,09,056,40,72,10,108,39*54
$GAGSV,2,1,08,09,28,319,45,10,82,314,,11,39,139,,17,14,042,*63
$GAGSV,2,2,08,22,03,230,,23,52,244,,24,64,021,,27,14,139,*6A
$PQGSV,1,1,0,0*43
$PQGSV,1,1,0,0*43
$GPGSA,A,3,02,04,07,08,10,13,23,25,27,28,,,1.0,0.7,0.7*30
$GLGSA,A,3,71,72,77,78,86,87,88,,,,,,1.0,0.7,0.7*22
$GAGSA,A,3,09,,,,,,,,,,,,1.0,0.7,0.7*2B
$GPVTG,,T,,M,0.0,N,0.0,K,A*23
$GPDTM,P90,,0000.000022,S,00000.000001,W,0.988,W84*5A
$GPRMC,005257.00,A,2959.999836,N,11959.999933,E,0.0,,230721,4.3,W,A*08
$GPGGA,005257.00,2959.999836,N,11959.999933,E,1,12,0.7,-5.4,M,7.0,M,,*70

$GPGSV,3,1,12,02,34,270,41,04,34,217,41,07,63,032,41,08,70,230,42*71
$GPGSV,3,2,12,10,18,316,40,13,35,056,41,20,04,135,19,23,13,075,42*7F
$GPGSV,3,3,12,25,42,036,42,27,37,233,41,28,16,170,40,26,00,000,*75
$GLGSV,2,1,07,78,28,326,40,86,14,042,40,77,73,264,40,88,33,270,40*6F
$GLGSV,2,2,07,87,51,350,40,71,09,056,40,72,10,108,39*54
$GAGSV,2,1,08,09,28,319,45,10,82,314,,11,39,139,,17,14,042,*63
$GAGSV,2,2,08,22,03,230,,23,52,244,,24,64,021,,27,14,139,*6A
$PQGSV,1,1,0,0*43
$PQGSV,1,1,0,0*43
$GPGSA,A,3,02,04,07,08,10,13,23,25,27,28,,,1.0,0.7,0.7*30
$GLGSA,A,3,71,72,77,78,86,87,88,,,,,,1.0,0.7,0.7*22
$GAGSA,A,3,09,,,,,,,,,,,,1.0,0.7,0.7*2B
$GPVTG,,T,,M,0.0,N,0.0,K,A*23
$GPDTM,P90,,0000.000022,S,00000.000001,W,0.988,W84*5A
$GPRMC,005258.00,A,2959.999836,N,11959.999933,E,0.0,,230721,4.3,W,A*07
$GPGGA,005258.00,2959.999836,N,11959.999933,E,1,12,0.7,-5.4,M,7.0,M,,*7F

$GPGSV,3,1,12,02,34,270,41,04,34,217,41,07,63,032,41,08,70,230,41*72
$GPGSV,3,2,12,10,18,316,40,13,35,056,41,20,04,135,19,23,13,075,41*7C
$GPGSV,3,3,12,25,42,036,41,27,37,233,41,28,16,170,40,26,00,000,*76
$GLGSV,2,1,07,78,28,326,40,86,14,042,40,77,73,264,40,88,33,270,40*6F
$GLGSV,2,2,07,87,51,350,40,71,09,056,40,72,10,108,39*54
$GAGSV,2,1,08,09,28,319,45,10,82,314,,11,39,139,,17,14,042,*63
$GAGSV,2,2,08,22,03,230,,23,52,244,,24,64,021,,27,14,139,*6A
$PQGSV,1,1,0,0*43
$PQGSV,1,1,0,0*43
$GPGSA,A,3,02,04,07,08,10,13,23,25,27,28,,,1.0,0.7,0.7*30
$GLGSA,A,3,71,72,77,78,86,87,88,,,,,,1.0,0.7,0.7*22
$GAGSA,A,3,09,,,,,,,,,,,,1.0,0.7,0.7*2B
$GPVTG,,T,,M,0.0,N,0.0,K,A*23
$GPDTM,P90,,0000.000022,S,00000.000001,W,0.988,W84*5A
$GPRMC,005259.00,A,2959.999836,N,11959.999933,E,0.0,,230721,4.3,W,A*06
$GPGGA,005259.00,2959.999836,N,11959.999933,E,1,12,0.7,-5.4,M,7.0,M,,*7E

$GPGSV,3,1,12,02,34,270,41,04,34,217,41,07,63,032,41,08,70,230,42*71
$GPGSV,3,2,12,10,18,316,40,13,35,056,41,20,04,135,19,23,13,075,41*7C
$GPGSV,3,3,12,25,42,036,41,27,37,233,41,28,16,170,40,26,00,000,*76
$GLGSV,2,1,07,78,28,326,40,86,14,042,40,77,73,264,40,88,33,270,40*6F
$GLGSV,2,2,07,87,51,350,40,71,09,056,40,72,10,108,39*54
$GAGSV,2,1,08,09,28,319,45,10,82,314,,11,39,139,,17,14,042,*63
$GAGSV,2,2,08,22,03,230,,23,52,244,,24,64,021,,27,14,139,*6A
$PQGSV,1,1,0,0*43
$PQGSV,1,1,0,0*43
$GPGSA,A,3,02,04,07,08,10,13,23,25,27,28,,,1.0,0.7,0.7*30
$GLGSA,A,3,71,72,77,78,86,87,88,,,,,,1.0,0.7,0.7*22
$GAGSA,A,3,09,,,,,,,,,,,,1.0,0.7,0.7*2B
$GPVTG,,T,,M,0.0,N,0.0,K,A*23
$GPDTM,P90,,0000.000022,S,00000.000001,W,0.988,W84*5A
$GPRMC,005300.00,A,2959.999835,N,11959.999933,E,0.0,,230721,4.3,W,A*08
$GPGGA,005300.00,2959.999835,N,11959.999933,E,1,12,0.7,-5.4,M,7.0,M,,*70

$GPGSV,3,1,12,02,34,270,41,04,34,217,41,07,63,032,42,08,70,230,41*71
$GPGSV,3,2,12,10,18,316,40,13,35,056,41,20,04,135,19,23,13,075,41*7C
$GPGSV,3,3,12,25,42,036,41,27,37,233,41,28,16,170,40,26,00,000,*76
$GLGSV,2,1,07,78,28,326,40,86,14,042,40,77,73,264,40,88,33,270,40*6F
$GLGSV,2,2,07,87,51,350,40,71,09,056,40,72,10,108,39*54
$GAGSV,2,1,08,09,28,319,45,10,82,314,,11,39,139,,17,14,042,*63
$GAGSV,2,2,08,22,03,230,,23,52,244,,24,64,021,,27,14,139,*6A
$PQGSV,1,1,0,0*43
$PQGSV,1,1,0,0*43
$GPGSA,A,3,02,04,07,08,10,13,23,25,27,28,,,1.0,0.7,0.7*30
$GLGSA,A,3,71,72,77,78,86,87,88,,,,,,1.0,0.7,0.7*22
$GAGSA,A,3,09,,,,,,,,,,,,1.0,0.7,0.7*2B
$GPVTG,,T,,M,0.0,N,0.0,K,A*23
$GPDTM,P90,,0000.000022,S,00000.000001,W,0.988,W84*5A
$GPRMC,005301.00,A,2959.999835,N,11959.999933,E,0.0,,230721,4.3,W,A*09
$GPGGA,005301.00,2959.999835,N,11959.999933,E,1,12,0.7,-5.4,M,7.0,M,,*71

$GPGSV,3,1,12,02,34,270,41,04,34,217,41,07,63,032,41,08,70,230,41*72
$GPGSV,3,2,12,10,18,316,40,13,35,056,42,20,04,135,19,23,13,075,42*7C
$GPGSV,3,3,12,25,42,036,41,27,37,233,41,28,16,170,40,26,00,000,*76
$GLGSV,2,1,07,78,28,326,40,86,14,042,40,77,73,264,40,88,33,270,40*6F
$GLGSV,2,2,07,87,51,350,40,71,09,056,40,72,10,108,39*54
$GAGSV,2,1,08,09,28,319,45,10,82,314,,11,39,139,,17,14,042,*63
$GAGSV,2,2,08,22,03,230,,23,52,244,,24,64,021,,27,14,139,*6A
$PQGSV,1,1,0,0*43
$PQGSV,1,1,0,0*43
$GPGSA,A,3,02,04,07,08,10,13,23,25,27,28,,,1.0,0.7,0.7*30
$GLGSA,A,3,71,72,77,78,86,87,88,,,,,,1.0,0.7,0.7*22
$GAGSA,A,3,09,,,,,,,,,,,,1.0,0.7,0.7*2B
$GPVTG,,T,,M,0.0,N,0.0,K,A*23
$GPDTM,P90,,0000.000022,S,00000.000001,W,0.988,W84*5A
$GPRMC,005302.00,A,2959.999835,N,11959.999933,E,0.0,,230721,4.3,W,A*0A
$GPGGA,005302.00,2959.999835,N,11959.999933,E,1,12,0.7,-5.4,M,7.0,M,,*72

$GPGSV,3,1,12,02,34,270,41,04,34,217,41,07,63,032,41,08,70,230,41*72
$GPGSV,3,2,12,10,18,316,40,13,35,056,42,20,04,135,19,23,13,075,41*7F
$GPGSV,3,3,12,25,42,036,41,27,37,233,41,28,16,170,40,26,00,000,*76
$GLGSV,2,1,07,78,28,326,40,86,14,042,40,77,73,264,40,88,33,270,40*6F
$GLGSV,2,2,07,87,51,350,40,71,09,056,40,72,10,108,39*54
$GAGSV,2,1,08,09,28,319,45,10,82,314,,11,39,139,,17,14,042,*63
$GAGSV,2,2,08,22,03,230,,23,52,244,,24,64,021,,27,14,139,*6A
$PQGSV,1,1,0,0*43
$PQGSV,1,1,0,0*43
$GPGSA,A,3,02,04,07,08,10,13,23,25,27,28,,,1.0,0.7,0.7*30
$GLGSA,A,3,71,72,77,78,86,87,88,,,,,,1.0,0.7,0.7*22
$GAGSA,A,3,09,,,,,,,,,,,,1.0,0.7,0.7*2B
$GPVTG,,T,,M,0.0,N,0.0,K,A*23
$GPDTM,P90,,0000.000022,S,00000.000001,W,0.988,W84*5A
$GPRMC,005303.00,A,2959.999834,N,11959.999933,E,0.0,,230721,4.3,W,A*0A
$GPGGA,005303.00,2959.999834,N,11959.999933,E,1,12,0.7,-5.4,M,7.0,M,,*72

$GPGSV,3,1,12,02,34,270,41,04,34,217,41,07,63,032,41,08,70,230,42*71
$GPGSV,3,2,12,10,18,316,40,13,35,056,41,20,04,135,19,23,13,075,41*7C
$GPGSV,3,3,12,25,42,036,41,27,37,233,41,28,16,170,40,26,00,000,*76
$GLGSV,2,1,07,78,28,326,40,86,14,042,40,77,73,264,40,88,33,270,40*6F
$GLGSV,2,2,07,87,51,350,40,71,09,056,40,72,10,108,39*54
$GAGSV,2,1,08,09,28,319,45,10,82,314,,11,39,139,,17,14,042,*63
$GAGSV,2,2,08,22,03,230,,23,52,244,,24,64,021,,27,14,139,*6A
$PQGSV,1,1,0,0*43
$PQGSV,1,1,0,0*43
$GPGSA,A,3,02,04,07,08,10,13,23,25,27,28,,,1.0,0.7,0.7*30
$GLGSA,A,3,71,72,77,78,86,87,88,,,,,,1.0,0.7,0.7*22
$GAGSA,A,3,09,,,,,,,,,,,,1.0,0.7,0.7*2B
$GPVTG,,T,,M,0.0,N,0.0,K,A*23
$GPDTM,P90,,0000.000022,S,00000.000001,W,0.988,W84*5A
$GPRMC,005304.00,A,2959.999834,N,11959.999933,E,0.0,,230721,4.3,W,A*0D
$GPGGA,005304.00,2959.999834,N,11959.999933,E,1,12,0.7,-5.4,M,7.0,M,,*75

$GPGSV,3,1,12,02,34,270,41,04,34,217,41,07,63,032,41,08,70,230,42*71
$GPGSV,3,2,12,10,18,316,40,13,35,056,41,20,04,135,19,23,13,075,42*7F
$GPGSV,3,3,12,25,42,036,41,27,37,233,41,28,16,170,40,26,00,000,*76
$GLGSV,2,1,07,78,28,326,40,86,14,042,40,77,73,264,40,88,33,270,40*6F
$GLGSV,2,2,07,87,51,350,40,71,09,056,40,72,10,108,39*54
$GAGSV,2,1,08,09,28,319,45,10,82,314,,11,39,139,,17,14,042,*63
$GAGSV,2,2,08,22,03,230,,23,52,244,,24,64,021,,27,14,139,*6A
$PQGSV,1,1,0,0*43
$PQGSV,1,1,0,0*43
$GPGSA,A,3,02,04,07,08,10,13,23,25,27,28,,,1.0,0.7,0.7*30
$GLGSA,A,3,71,72,77,78,86,87,88,,,,,,1.0,0.7,0.7*22
$GAGSA,A,3,09,,,,,,,,,,,,1.0,0.7,0.7*2B
$GPVTG,,T,,M,0.0,N,0.0,K,A*23
$GPDTM,P90,,0000.000022,S,00000.000001,W,0.988,W84*5A
$GPRMC,005305.00,A,2959.999834,N,11959.999933,E,0.0,,230721,4.3,W,A*0C
$GPGGA,005305.00,2959.999834,N,11959.999933,E,1,12,0.7,-5.4,M,7.0,M,,*74

$GPGSV,3,1,12,02,34,270,41,04,34,217,41,07,63,032,42,08,70,230,41*71
$GPGSV,3,2,12,10,18,316,40,13,35,056,41,20,04,135,19,23,13,075,41*7C
$GPGSV,3,3,12,25,42,036,41,27,37,233,41,28,16,170,40,26,00,000,*76
$GLGSV,2,1,07,78,28,326,40,86,14,042,40,77,73,264,40,88,33,270,40*6F
$GLGSV,2,2,07,87,51,350,40,71,09,056,40,72,10,108,39*54
$GAGSV,2,1,08,09,28,319,45,10,82,314,,11,39,139,,17,14,042,*63
$GAGSV,2,2,08,22,03,230,,23,52,244,,24,64,021,,27,14,139,*6A
$PQGSV,1,1,0,0*43
$PQGSV,1,1,0,0*43
$GPGSA,A,3,02,04,07,08,10,13,23,25,27,28,,,1.0,0.7,0.7*30
$GLGSA,A,3,71,72,77,78,86,87,88,,,,,,1.0,0.7,0.7*22
$GAGSA,A,3,09,,,,,,,,,,,,1.0,0.7,0.7*2B
$GPVTG,,T,,M,0.0,N,0.0,K,A*23
$GPDTM,P90,,0000.000022,S,00000.000001,W,0.988,W84*5A
$GPRMC,005306.00,A,2959.999834,N,11959.999933,E,0.0,,230721,4.3,W,A*0F
$GPGGA,005306.00,2959.999834,N,11959.999933,E,1,12,0.7,-5.4,M,7.0,M,,*77

$GPGSV,3,1,11,02,34,270,41,04,34,217,41,07,63,032,42,08,70,230,41*72
$GPGSV,3,2,11,10,18,316,40,13,35,056,42,23,13,075,41,25,42,036,41*74
$GPGSV,3,3,11,27,37,233,41,28,16,170,40,26,00,000,*44
$GLGSV,2,1,07,78,28,326,40,86,14,042,40,77,73,264,40,88,33,270,40*6F
$GLGSV,2,2,07,87,51,350,40,71,09,056,40,72,10,108,39*54
$GAGSV,2,1,08,09,28,319,45,10,82,314,,11,39,139,,17,14,042,*63
$GAGSV,2,2,08,22,03,230,,23,52,244,,24,64,021,,27,14,139,*6A
$PQGSV,1,1,0,0*43
$PQGSV,1,1,0,0*43
$GPGSA,A,3,02,04,07,08,10,13,23,25,27,28,,,1.0,0.7,0.7*30
$GLGSA,A,3,71,72,77,78,86,87,88,,,,,,1.0,0.7,0.7*22
$GAGSA,A,3,09,,,,,,,,,,,,1.0,0.7,0.7*2B
$GPVTG,,T,,M,0.0,N,0.0,K,A*23
$GPDTM,P90,,0000.000022,S,00000.000001,W,0.988,W84*5A
$GPRMC,005307.00,A,2959.999833,N,11959.999933,E,0.0,,230721,4.3,W,A*09
$GPGGA,005307.00,2959.999833,N,11959.999933,E,1,12,0.7,-5.4,M,7.0,M,,*71

$GPGSV,3,1,12,02,34,270,42,04,34,217,41,07,63,032,42,08,70,230,41*72
$GPGSV,3,2,12,10,18,316,40,13,35,056,41,23,13,075,42,25,42,036,41*77
$GPGSV,3,3,12,27,37,233,41,28,16,170,40,20,04,135,,26,00,000,*76
$GLGSV,2,1,07,78,28,326,40,86,14,042,40,77,73,264,40,88,33,270,40*6F
$GLGSV,2,2,07,87,51,350,40,71,09,056,40,72,10,108,39*54
$GAGSV,2,1,08,09,28,319,45,10,82,314,,11,39,139,,17,14,042,*63
$GAGSV,2,2,08,22,03,230,,23,52,244,,24,64,021,,27,14,139,*6A
$PQGSV,1,1,0,0*43
$PQGSV,1,1,0,0*43
$GPGSA,A,3,02,04,07,08,10,13,23,25,27,28,,,1.0,0.7,0.7*30
$GLGSA,A,3,71,72,77,78,86,87,88,,,,,,1.0,0.7,0.7*22
$GAGSA,A,3,09,,,,,,,,,,,,1.0,0.7,0.7*2B
$GPVTG,,T,,M,0.0,N,0.0,K,A*23
$GPDTM,P90,,0000.000022,S,00000.000001,W,0.988,W84*5A
$GPRMC,005308.00,A,2959.999833,N,11959.999933,E,0.0,,230721,4.3,W,A*06
$GPGGA,005308.00,2959.999833,N,11959.999933,E,1,12,0.7,-5.4,M,7.0,M,,*7E

$GPGSV,3,1,12,02,34,270,41,04,34,217,41,07,63,032,41,08,70,230,41*72
$GPGSV,3,2,12,10,18,316,40,13,35,056,41,23,13,075,42,25,42,036,41*77
$GPGSV,3,3,12,27,37,233,41,28,16,170,40,20,04,135,,26,00,000,*76
$GLGSV,2,1,07,78,28,326,40,86,14,042,40,77,73,264,40,88,33,270,40*6F
$GLGSV,2,2,07,87,51,350,40,71,09,056,40,72,10,108,39*54
$GAGSV,2,1,08,09,28,319,45,10,82,314,45,11,39,139,,17,14,042,*62
$GAGSV,2,2,08,22,03,230,,23,52,244,,24,64,021,,27,14,139,*6A
$PQGSV,1,1,0,0*43
$PQGSV,1,1,0,0*43
$GPGSA,A,3,02,04,07,08,10,13,23,25,27,28,,,1.0,0.6,0.7*31
$GLGSA,A,3,71,72,77,78,86,87,88,,,,,,1.0,0.6,0.7*23
$GAGSA,A,3,09,,,,,,,,,,,,1.0,0.6,0.7*2A
$GPVTG,,T,,M,0.0,N,0.0,K,A*23
$GPDTM,P90,,0000.000022,S,00000.000001,W,0.988,W84*5A
$GPRMC,005309.00,A,2959.999837,N,11959.999925,E,0.0,,230721,4.3,W,A*04
$GPGGA,005309.00,2959.999837,N,11959.999925,E,1,12,0.6,-5.5,M,7.0,M,,*7C

$GPGSV,3,1,12,02,34,270,41,04,34,217,41,07,63,032,41,08,70,230,41*72
$GPGSV,3,2,12,10,18,316,40,13,35,056,41,23,13,075,42,25,42,036,41*77
$GPGSV,3,3,12,27,37,233,41,28,16,170,40,20,04,135,,26,00,000,*76
$GLGSV,2,1,07,78,28,326,40,86,14,042,40,77,73,264,40,88,33,270,40*6F
$GLGSV,2,2,07,87,51,350,40,71,09,056,40,72,10,108,39*54
$GAGSV,2,1,08,09,28,319,45,10,82,314,45,11,39,139,,17,14,042,*62
$GAGSV,2,2,08,22,03,230,,23,52,244,,24,64,021,,27,14,139,*6A
$PQGSV,1,1,0,0*43
$PQGSV,1,1,0,0*43
$GPGSA,A,3,02,04,07,08,10,13,23,25,27,28,,,1.0,0.6,0.7*31
$GLGSA,A,3,71,72,77,78,86,87,88,,,,,,1.0,0.6,0.7*23
$GAGSA,A,3,09,10,,,,,,,,,,,1.0,0.6,0.7*2B
$GPVTG,,T,,M,0.0,N,0.0,K,A*23
$GPDTM,P90,,0000.000022,S,00000.000001,W,0.988,W84*5A
$GPRMC,005310.00,A,2959.999838,N,11959.999924,E,0.0,,230721,4.3,W,A*02
$GPGGA,005310.00,2959.999838,N,11959.999924,E,1,12,0.6,-5.5,M,7.0,M,,*7A

$GPGSV,3,1,12,02,34,270,41,04,34,217,41,07,63,032,41,08,70,230,41*72
$GPGSV,3,2,12,10,18,316,40,13,35,056,41,23,13,075,41,25,42,036,41*74
$GPGSV,3,3,12,27,37,233,41,28,16,170,40,20,04,135,,26,00,000,*76
$GLGSV,2,1,07,78,28,326,40,86,14,042,40,77,73,264,40,88,33,270,40*6F
$GLGSV,2,2,07,87,51,350,40,71,09,056,40,72,10,108,39*54
$GAGSV,2,1,08,09,28,319,45,10,82,314,45,11,39,139,,17,14,042,*62
$GAGSV,2,2,08,22,03,230,,23,52,244,,24,64,021,,27,14,139,*6A
$PQGSV,1,1,0,0*43
$PQGSV,1,1,0,0*43
$GPGSA,A,3,02,04,07,08,10,13,23,25,27,28,,,1.0,0.6,0.7*31
$GLGSA,A,3,71,72,77,78,86,87,88,,,,,,1.0,0.6,0.7*23
$GAGSA,A,3,09,10,,,,,,,,,,,1.0,0.6,0.7*2B
$GPVTG,,T,,M,0.0,N,0.0,K,A*23
$GPDTM,P90,,0000.000022,S,00000.000001,W,0.988,W84*5A
$GPRMC,005311.00,A,2959.999838,N,11959.999924,E,0.0,,230721,4.3,W,A*03
$GPGGA,005311.00,2959.999838,N,11959.999924,E,1,12,0.6,-5.5,M,7.0,M,,*7B

$GPGSV,3,1,12,02,34,270,41,04,34,217,41,07,63,032,41,08,70,230,41*72
$GPGSV,3,2,12,10,18,316,40,13,35,056,41,23,13,075,42,25,42,036,41*77
$GPGSV,3,3,12,27,37,233,41,28,16,170,40,20,04,135,,26,00,000,*76
$GLGSV,2,1,07,78,28,326,40,86,14,042,40,77,73,264,40,88,33,270,40*6F
$GLGSV,2,2,07,87,51,350,40,71,09,056,40,72,10,108,39*54
$GAGSV,2,1,08,09,28,319,45,10,82,314,45,11,39,139,,17,14,042,*62
$GAGSV,2,2,08,22,03,230,,23,52,244,,24,64,021,,27,14,139,*6A
$PQGSV,1,1,0,0*43
$PQGSV,1,1,0,0*43
$GPGSA,A,3,02,04,07,08,10,13,23,25,27,28,,,1.0,0.6,0.7*31
$GLGSA,A,3,71,72,77,78,86,87,88,,,,,,1.0,0.6,0.7*23
$GAGSA,A,3,09,10,,,,,,,,,,,1.0,0.6,0.7*2B
$GPVTG,,T,,M,0.0,N,0.0,K,A*23
$GPDTM,P90,,0000.000022,S,00000.000001,W,0.988,W84*5A
$GPRMC,005312.00,A,2959.999837,N,11959.999924,E,0.0,,230721,4.3,W,A*0F
$GPGGA,005312.00,2959.999837,N,11959.999924,E,1,12,0.6,-5.5,M,7.0,M,,*77

$GPGSV,3,1,12,02,34,270,41,04,34,217,41,07,63,032,41,08,70,230,41*72
$GPGSV,3,2,12,10,18,316,40,13,35,056,41,23,13,075,41,25,42,036,41*74
$GPGSV,3,3,12,27,37,233,42,28,16,170,40,20,04,135,,26,00,000,*75
$GLGSV,2,1,07,78,28,326,40,86,14,042,40,77,73,264,40,88,33,270,40*6F
$GLGSV,2,2,07,87,51,350,40,71,09,056,40,72,10,108,39*54
$GAGSV,2,1,08,09,28,319,45,10,82,314,45,11,39,139,,17,14,042,*62
$GAGSV,2,2,08,22,03,230,,23,52,244,,24,64,021,,27,14,139,*6A
$PQGSV,1,1,0,0*43
$PQGSV,1,1,0,0*43
$GPGSA,A,3,02,04,07,08,10,13,23,25,27,28,,,1.0,0.6,0.7*31
$GLGSA,A,3,71,72,77,78,86,87,88,,,,,,1.0,0.6,0.7*23
$GAGSA,A,3,09,10,,,,,,,,,,,1.0,0.6,0.7*2B
$GPVTG,,T,,M,0.0,N,0.0,K,A*23
$GPDTM,P90,,0000.000022,S,00000.000001,W,0.988,W84*5A
$GPRMC,005313.00,A,2959.999837,N,11959.999924,E,0.0,,230721,4.3,W,A*0E
$GPGGA,005313.00,2959.999837,N,11959.999924,E,1,12,0.6,-5.5,M,7.0,M,,*76

$GPGSV,3,1,12,02,34,270,41,04,34,217,41,07,63,032,41,08,70,230,41*72
$GPGSV,3,2,12,10,18,316,40,13,35,056,41,23,13,075,41,25,42,036,41*74
$GPGSV,3,3,12,27,37,233,41,28,16,170,40,20,04,135,,26,00,000,*76
$GLGSV,2,1,07,78,28,326,40,86,14,042,40,77,73,264,40,88,33,270,40*6F
$GLGSV,2,2,07,87,51,350,40,71,09,056,40,72,10,108,39*54
$GAGSV,2,1,08,09,28,319,45,10,82,314,45,11,39,139,,17,14,042,*62
$GAGSV,2,2,08,22,03,230,,23,52,244,,24,64,021,,27,14,139,*6A
$PQGSV,1,1,0,0*43
$PQGSV,1,1,0,0*43
$GPGSA,A,3,02,04,07,08,10,13,23,25,27,28,,,1.0,0.6,0.7*31
$GLGSA,A,3,71,72,77,78,86,87,88,,,,,,1.0,0.6,0.7*23
$GAGSA,A,3,09,10,,,,,,,,,,,1.0,0.6,0.7*2B
$GPVTG,,T,,M,0.0,N,0.0,K,A*23
$GPDTM,P90,,0000.000022,S,00000.000001,W,0.988,W84*5A
$GPRMC,005314.00,A,2959.999837,N,11959.999924,E,0.0,,230721,4.3,W,A*09
$GPGGA,005314.00,2959.999837,N,11959.999924,E,1,12,0.6,-5.5,M,7.0,M,,*71

$GPGSV,3,1,12,02,34,270,41,04,34,217,41,07,63,032,41,08,70,230,41*72
$GPGSV,3,2,12,10,18,316,40,13,35,056,41,23,13,075,41,25,42,036,41*74
$GPGSV,3,3,12,27,37,233,41,28,16,170,40,20,04,135,,26,00,000,*76
$GLGSV,2,1,07,78,28,326,40,86,14,042,40,77,73,264,40,88,33,270,40*6F
$GLGSV,2,2,07,87,51,350,40,71,09,056,40,72,10,108,39*54
$GAGSV,2,1,08,09,28,319,45,10,82,314,45,11,39,139,,17,14,042,*62
$GAGSV,2,2,08,22,03,230,,23,52,244,,24,64,021,,27,14,139,*6A
$PQGSV,1,1,0,0*43
$PQGSV,1,1,0,0*43
$GPGSA,A,3,02,04,07,08,10,13,23,25,27,28,,,1.0,0.6,0.7*31
$GLGSA,A,3,71,72,77,78,86,87,88,,,,,,1.0,0.6,0.7*23
$GAGSA,A,3,09,10,,,,,,,,,,,1.0,0.6,0.7*2B
$GPVTG,,T,,M,0.0,N,0.0,K,A*23
$GPDTM,P90,,0000.000022,S,00000.000001,W,0.988,W84*5A
$GPRMC,005315.00,A,2959.999836,N,11959.999924,E,0.0,,230721,4.3,W,A*09
$GPGGA,005315.00,2959.999836,N,11959.999924,E,1,12,0.6,-5.5,M,7.0,M,,*71

$GPGSV,3,1,12,02,34,270,41,04,34,217,41,07,63,032,41,08,70,230,41*72
$GPGSV,3,2,12,10,18,316,40,13,35,056,41,23,13,075,41,25,42,036,41*74
$GPGSV,3,3,12,27,37,233,41,28,16,170,40,20,04,135,,26,00,000,*76
$GLGSV,2,1,07,78,28,326,40,86,14,042,40,77,73,264,40,88,33,270,40*6F
$GLGSV,2,2,07,87,51,350,40,71,09,056,40,72,10,108,39*54
$GAGSV,2,1,08,09,28,319,45,10,82,314,45,11,39,139,,17,14,042,*62
$GAGSV,2,2,08,22,03,230,,23,52,244,,24,64,021,,27,14,139,*6A
$PQGSV,1,1,0,0*43
$PQGSV,1,1,0,0*43
$GPGSA,A,3,02,04,07,08,10,13,23,25,27,28,,,1.0,0.6,0.7*31
$GLGSA,A,3,71,72,77,78,86,87,88,,,,,,1.0,0.6,0.7*23
$GAGSA,A,3,09,10,,,,,,,,,,,1.0,0.6,0.7*2B
$GPVTG,,T,,M,0.0,N,0.0,K,A*23
$GPDTM,P90,,0000.000022,S,00000.000001,W,0.988,W84*5A
$GPRMC,005316.00,A,2959.999836,N,11959.999924,E,0.0,,230721,4.3,W,A*0A
$GPGGA,005316.00,2959.999836,N,11959.999924,E,1,12,0.6,-5.5,M,7.0,M,,*72

$GPGSV,3,1,12,02,34,270,41,04,34,217,41,07,63,032,41,08,70,230,42*71
$GPGSV,3,2,12,10,18,316,40,13,35,056,41,23,13,075,41,25,42,036,41*74
$GPGSV,3,3,12,27,37,233,41,28,16,170,40,20,04,135,,26,00,000,*76
$GLGSV,2,1,07,78,28,326,40,86,14,042,40,77,73,264,40,88,33,270,40*6F
$GLGSV,2,2,07,87,51,350,40,71,09,056,40,72,10,108,39*54
$GAGSV,2,1,08,09,28,319,45,10,82,314,45,11,39,139,,17,14,042,*62
$GAGSV,2,2,08,22,03,230,,23,52,244,,24,64,021,,27,14,139,*6A
$PQGSV,1,1,0,0*43
$PQGSV,1,1,0,0*43
$GPGSA,A,3,02,04,07,08,10,13,23,25,27,28,,,1.0,0.6,0.7*31
$GLGSA,A,3,71,72,77,78,86,87,88,,,,,,1.0,0.6,0.7*23
$GAGSA,A,3,09,10,,,,,,,,,,,1.0,0.6,0.7*2B
$GPVTG,,T,,M,0.0,N,0.0,K,A*23
$GPDTM,P90,,0000.000022,S,00000.000001,W,0.988,W84*5A
$GPRMC,005317.00,A,2959.999836,N,11959.999924,E,0.0,,230721,4.3,W,A*0B
$GPGGA,005317.00,2959.999836,N,11959.999924,E,1,12,0.6,-5.5,M,7.0,M,,*73

$GPGSV,3,1,12,02,34,270,41,04,34,217,41,07,63,032,42,08,70,230,41*71
$GPGSV,3,2,12,10,18,316,40,13,35,056,41,23,13,075,41,25,42,036,41*74
$GPGSV,3,3,12,27,37,233,41,28,16,170,40,20,04,135,,26,00,000,*76
$GLGSV,2,1,07,78,28,326,40,86,14,042,40,77,73,264,40,88,33,270,40*6F
$GLGSV,2,2,07,87,51,350,40,71,09,056,40,72,10,108,39*54
$GAGSV,2,1,08,09,28,319,45,10,82,314,45,11,39,139,,17,14,042,*62
$GAGSV,2,2,08,22,03,230,,23,52,244,,24,64,021,,27,14,139,*6A
$PQGSV,1,1,0,0*43
$PQGSV,1,1,0,0*43
$GPGSA,A,3,02,04,07,08,10,13,23,25,27,28,,,1.0,0.6,0.7*31
$GLGSA,A,3,71,72,77,78,86,87,88,,,,,,1.0,0.6,0.7*23
$GAGSA,A,3,09,10,,,,,,,,,,,1.0,0.6,0.7*2B
$GPVTG,,T,,M,0.0,N,0.0,K,A*23
$GPDTM,P90,,0000.000022,S,00000.000001,W,0.988,W84*5A
$GPRMC,005318.00,A,2959.999837,N,11959.999923,E,0.0,,230721,4.3,W,A*02
$GPGGA,005318.00,2959.999837,N,11959.999923,E,1,12,0.6,-5.5,M,7.0,M,,*7A

$GPGSV,3,1,12,02,34,270,41,04,34,217,41,07,63,032,41,08,70,230,41*72
$GPGSV,3,2,12,10,18,316,40,13,35,056,41,23,13,075,41,25,42,036,41*74
$GPGSV,3,3,12,27,37,233,41,28,16,170,40,20,04,135,,26,00,000,*76
$GLGSV,2,1,07,78,28,326,40,86,14,042,39,77,73,264,40,88,33,270,40*61
$GLGSV,2,2,07,87,51,350,40,71,09,056,40,72,10,108,39*54
$GAGSV,2,1,08,09,28,319,45,10,82,314,45,11,39,139,,17,14,042,*62
$GAGSV,2,2,08,22,03,230,,23,52,244,,24,64,021,,27,14,139,*6A
$PQGSV,1,1,0,0*43
$PQGSV,1,1,0,0*43
$GPGSA,A,3,02,04,07,08,10,13,23,25,27,28,,,1.0,0.6,0.7*31
$GLGSA,A,3,71,72,77,78,86,87,88,,,,,,1.0,0.6,0.7*23
$GAGSA,A,3,09,10,,,,,,,,,,,1.0,0.6,0.7*2B
$GPVTG,,T,,M,0.0,N,0.0,K,A*23
$GPDTM,P90,,0000.000022,S,00000.000001,W,0.988,W84*5A
$GPRMC,005319.00,A,2959.999836,N,11959.999921,E,0.0,,230721,4.3,W,A*00
$GPGGA,005319.00,2959.999836,N,11959.999921,E,1,12,0.6,-5.5,M,7.0,M,,*78

$GPGSV,3,1,12,02,34,270,41,04,34,217,41,07,63,032,41,08,70,230,42*71
$GPGSV,3,2,12,10,18,316,40,13,35,056,41,23,13,075,41,25,42,036,41*74
$GPGSV,3,3,12,27,37,233,41,28,16,170,40,20,04,135,,26,00,000,*76
$GLGSV,2,1,07,78,28,326,40,86,14,042,40,77,73,264,40,88,33,270,40*6F
$GLGSV,2,2,07,87,51,350,40,71,09,056,40,72,10,108,39*54
$GAGSV,2,1,08,09,28,319,45,10,82,314,45,11,39,139,,17,14,042,*62
$GAGSV,2,2,08,22,03,230,,23,52,244,,24,64,021,,27,14,139,*6A
$PQGSV,1,1,0,0*43
$PQGSV,1,1,0,0*43
$GPGSA,A,3,02,04,07,08,10,13,23,25,27,28,,,1.0,0.6,0.7*31
$GLGSA,A,3,71,72,77,78,86,87,88,,,,,,1.0,0.6,0.7*23
$GAGSA,A,3,09,10,,,,,,,,,,,1.0,0.6,0.7*2B
$GPVTG,,T,,M,0.0,N,0.0,K,A*23
$GPDTM,P90,,0000.000022,S,00000.000001,W,0.988,W84*5A
$GPRMC,005320.00,A,2959.999836,N,11959.999921,E,0.0,,230721,4.3,W,A*0A
$GPGGA,005320.00,2959.999836,N,11959.999921,E,1,12,0.6,-5.5,M,7.0,M,,*72

$GPGSV,3,1,12,02,34,270,41,04,34,217,41,07,63,032,41,08,70,230,41*72
$GPGSV,3,2,12,10,18,316,40,13,35,056,41,23,13,075,41,25,42,036,41*74
$GPGSV,3,3,12,27,37,233,41,28,16,170,40,20,04,135,,26,00,000,*76
$GLGSV,2,1,07,78,28,326,40,86,14,042,40,77,73,264,40,88,33,270,40*6F
$GLGSV,2,2,07,87,51,350,40,71,09,056,40,72,10,108,39*54
$GAGSV,2,1,08,09,28,319,45,10,82,314,45,11,39,139,,17,14,042,*62
$GAGSV,2,2,08,22,03,230,,23,52,244,,24,64,021,,27,14,139,*6A
$PQGSV,1,1,0,0*43
$PQGSV,1,1,0,0*43
$GPGSA,A,3,02,04,07,08,10,13,23,25,27,28,,,1.0,0.6,0.7*31
$GLGSA,A,3,71,72,77,78,86,87,88,,,,,,1.0,0.6,0.7*23
$GAGSA,A,3,09,10,,,,,,,,,,,1.0,0.6,0.7*2B
$GPVTG,,T,,M,0.0,N,0.0,K,A*23
$GPDTM,P90,,0000.000022,S,00000.000001,W,0.988,W84*5A
$GPRMC,005321.00,A,2959.999836,N,11959.999920,E,0.0,,230721,4.3,W,A*0A
$GPGGA,005321.00,2959.999836,N,11959.999920,E,1,12,0.6,-5.5,M,7.0,M,,*72

$GPGSV,3,1,12,02,34,270,41,04,34,217,41,07,63,032,41,08,70,230,41*72
$GPGSV,3,2,12,10,18,316,40,13,35,056,41,23,13,075,41,25,42,036,41*74
$GPGSV,3,3,12,27,37,233,41,28,16,170,40,20,04,135,,26,00,000,*76
$GLGSV,2,1,07,78,28,326,40,86,14,042,40,77,73,264,40,88,33,270,40*6F
$GLGSV,2,2,07,87,51,350,40,71,09,056,40,72,10,108,39*54
$GAGSV,2,1,08,09,28,319,45,10,82,314,45,11,39,139,,17,14,042,*62
$GAGSV,2,2,08,22,03,230,,23,52,244,,24,64,021,,27,14,139,*6A
$PQGSV,1,1,0,0*43
$PQGSV,1,1,0,0*43
$GPGSA,A,3,02,04,07,08,10,13,23,25,27,28,,,1.0,0.6,0.7*31
$GLGSA,A,3,71,72,77,78,86,87,88,,,,,,1.0,0.6,0.7*23
$GAGSA,A,3,09,10,,,,,,,,,,,1.0,0.6,0.7*2B
$GPVTG,,T,,M,0.0,N,0.0,K,A*23
$GPDTM,P90,,0000.000022,S,00000.000001,W,0.988,W84*5A
$GPRMC,005322.00,A,2959.999836,N,11959.999920,E,0.0,,230721,4.3,W,A*09
$GPGGA,005322.00,2959.999836,N,11959.999920,E,1,12,0.6,-5.5,M,7.0,M,,*71

$GPGSV,3,1,12,02,34,270,41,04,34,217,41,07,63,032,41,08,70,230,41*72
$GPGSV,3,2,12,10,18,316,40,13,35,056,41,23,13,075,41,25,42,036,41*74
$GPGSV,3,3,12,27,37,233,41,28,16,170,40,20,04,135,,26,00,000,*76
$GLGSV,2,1,07,78,28,326,40,86,14,042,40,77,73,264,40,88,33,270,40*6F
$GLGSV,2,2,07,87,51,350,40,71,09,056,40,72,10,108,39*54
$GAGSV,2,1,08,09,28,319,45,10,82,314,45,11,39,139,,17,14,042,*62
$GAGSV,2,2,08,22,03,230,,23,52,244,,24,64,021,,27,14,139,*6A
$PQGSV,1,1,0,0*43
$PQGSV,1,1,0,0*43
$GPGSA,A,3,02,04,07,08,10,13,23,25,27,28,,,1.0,0.6,0.7*31
$GLGSA,A,3,71,72,77,78,86,87,88,,,,,,1.0,0.6,0.7*23
$GAGSA,A,3,09,10,,,,,,,,,,,1.0,0.6,0.7*2B
$GPVTG,,T,,M,0.0,N,0.0,K,A*23
$GPDTM,P90,,0000.000022,S,00000.000001,W,0.988,W84*5A
$GPRMC,005323.00,A,2959.999836,N,11959.999920,E,0.0,,230721,4.3,W,A*08
$GPGGA,005323.00,2959.999836,N,11959.999920,E,1,12,0.6,-5.5,M,7.0,M,,*70

$GPGSV,3,1,12,02,34,270,41,04,34,217,41,07,63,032,42,08,70,230,42*72
$GPGSV,3,2,12,10,18,316,40,13,35,056,41,23,13,075,42,25,42,036,41*77
$GPGSV,3,3,12,27,37,233,41,28,16,170,40,20,04,135,,26,00,000,*76
$GLGSV,2,1,07,78,28,326,40,86,14,042,40,77,73,264,40,88,33,270,40*6F
$GLGSV,2,2,07,87,51,350,40,71,09,056,40,72,10,108,39*54
$GAGSV,2,1,08,09,28,319,45,10,82,314,45,11,39,139,,17,14,042,*62
$GAGSV,2,2,08,22,03,230,,23,52,244,,24,64,021,,27,14,139,*6A
$PQGSV,1,1,0,0*43
$PQGSV,1,1,0,0*43
$GPGSA,A,3,02,04,07,08,10,13,23,25,27,28,,,1.0,0.6,0.7*31
$GLGSA,A,3,71,72,77,78,86,87,88,,,,,,1.0,0.6,0.7*23
$GAGSA,A,3,09,10,,,,,,,,,,,1.0,0.6,0.7*2B
$GPVTG,,T,,M,0.0,N,0.0,K,A*23
$GPDTM,P90,,0000.000022,S,00000.000001,W,0.988,W84*5A
$GPRMC,005324.00,A,2959.999836,N,11959.999919,E,0.0,,230721,4.3,W,A*05
$GPGGA,005324.00,2959.999836,N,11959.999919,E,1,12,0.6,-5.5,M,7.0,M,,*7D

$GPGSV,3,1,12,02,34,270,41,04,34,217,41,07,63,032,41,08,70,230,41*72
$GPGSV,3,2,12,10,18,316,40,13,35,056,41,23,13,075,41,25,42,036,41*74
$GPGSV,3,3,12,27,37,233,41,28,16,170,40,20,04,135,,26,00,000,*76
$GLGSV,2,1,07,78,28,326,40,86,14,042,40,77,73,264,40,88,33,270,40*6F
$GLGSV,2,2,07,87,51,350,40,71,09,056,40,72,10,108,39*54
$GAGSV,2,1,08,09,28,319,45,10,82,314,45,11,39,139,,17,14,042,*62
$GAGSV,2,2,08,22,03,230,,23,52,244,,24,64,021,,27,14,139,*6A
$PQGSV,1,1,0,0*43
$PQGSV,1,1,0,0*43
$GPGSA,A,3,02,04,07,08,10,13,23,25,27,28,,,1.0,0.6,0.7*31
$GLGSA,A,3,71,72,77,78,86,87,88,,,,,,1.0,0.6,0.7*23
$GAGSA,A,3,09,10,,,,,,,,,,,1.0,0.6,0.7*2B
$GPVTG,,T,,M,0.0,N,0.0,K,A*23
$GPDTM,P90,,0000.000022,S,00000.000001,W,0.988,W84*5A
$GPRMC,005325.00,A,2959.999836,N,11959.999919,E,0.0,,230721,4.3,W,A*04
$GPGGA,005325.00,2959.999836,N,11959.999919,E,1,12,0.6,-5.5,M,7.0,M,,*7C

$GPGSV,3,1,12,02,34,270,41,04,34,217,41,07,63,032,41,08,70,230,41*72
$GPGSV,3,2,12,10,18,316,40,13,35,056,41,23,13,075,41,25,42,036,41*74
$GPGSV,3,3,12,27,37,233,41,28,16,170,40,20,04,135,,26,00,000,*76
$GLGSV,2,1,07,78,28,326,40,86,14,042,40,77,73,264,40,88,33,270,40*6F
$GLGSV,2,2,07,87,51,350,40,71,09,056,40,72,10,108,39*54
$GAGSV,2,1,08,09,28,319,45,10,82,314,45,11,39,139,,17,14,042,*62
$GAGSV,2,2,08,22,03,230,,23,52,244,,24,64,021,,27,14,139,*6A
$PQGSV,1,1,0,0*43
$PQGSV,1,1,0,0*43
$GPGSA,A,3,02,04,07,08,10,13,23,25,27,28,,,1.0,0.6,0.7*31
$GLGSA,A,3,71,72,77,78,86,87,88,,,,,,1.0,0.6,0.7*23
$GAGSA,A,3,09,10,,,,,,,,,,,1.0,0.6,0.7*2B
$GPVTG,,T,,M,0.0,N,0.0,K,A*23
$GPDTM,P90,,0000.000022,S,00000.000001,W,0.988,W84*5A
$GPRMC,005326.00,A,2959.999836,N,11959.999918,E,0.0,,230721,4.3,W,A*06
$GPGGA,005326.00,2959.999836,N,11959.999918,E,1,12,0.6,-5.5,M,7.0,M,,*7E

$GPGSV,3,1,12,02,34,270,42,04,34,217,41,07,63,032,41,08,70,230,41*71
$GPGSV,3,2,12,10,18,316,40,13,35,056,41,23,13,075,41,25,42,036,41*74
$GPGSV,3,3,12,27,37,233,41,28,16,170,40,20,04,135,,26,00,000,*76
$GLGSV,2,1,07,78,28,326,40,86,14,042,40,77,73,264,40,88,33,270,40*6F
$GLGSV,2,2,07,87,51,350,40,71,09,056,40,72,10,108,39*54
$GAGSV,2,1,08,09,28,319,45,10,82,314,45,11,39,139,,17,14,042,*62
$GAGSV,2,2,08,22,03,230,,23,52,244,,24,64,021,,27,14,139,*6A
$PQGSV,1,1,0,0*43
$PQGSV,1,1,0,0*43
$GPGSA,A,3,02,04,07,08,10,13,23,25,27,28,,,1.0,0.6,0.7*31
$GLGSA,A,3,71,72,77,78,86,87,88,,,,,,1.0,0.6,0.7*23
$GAGSA,A,3,09,10,,,,,,,,,,,1.0,0.6,0.7*2B
$GPVTG,,T,,M,0.0,N,0.0,K,A*23
$GPDTM,P90,,0000.000022,S,00000.000001,W,0.988,W84*5A
$GPRMC,005327.00,A,2959.999836,N,11959.999918,E,0.0,,230721,4.3,W,A*07
$GPGGA,005327.00,2959.999836,N,11959.999918,E,1,12,0.6,-5.5,M,7.0,M,,*7F

$GPGSV,3,1,12,02,34,270,41,04,34,217,41,07,63,032,41,08,70,230,41*72
$GPGSV,3,2,12,10,18,316,40,13,35,056,41,23,13,075,41,25,42,036,41*74
$GPGSV,3,3,12,27,37,233,41,28,16,170,40,20,04,135,,26,00,000,*76
$GLGSV,2,1,07,78,28,326,40,86,14,042,39,77,73,264,40,88,33,270,40*61
$GLGSV,2,2,07,87,51,350,40,71,09,056,40,72,10,108,39*54
$GAGSV,2,1,08,09,28,319,45,10,82,314,45,11,39,139,,17,14,042,*62
$GAGSV,2,2,08,22,03,230,,23,52,244,,24,64,021,,27,14,139,*6A
$PQGSV,1,1,0,0*43
$PQGSV,1,1,0,0*43
$GPGSA,A,3,02,04,07,08,10,13,23,25,27,28,,,1.0,0.6,0.7*31
$GLGSA,A,3,71,72,77,78,86,87,88,,,,,,1.0,0.6,0.7*23
$GAGSA,A,3,09,10,,,,,,,,,,,1.0,0.6,0.7*2B
$GPVTG,,T,,M,0.0,N,0.0,K,A*23
$GPDTM,P90,,0000.000022,S,00000.000001,W,0.988,W84*5A
$GPRMC,005328.00,A,2959.999836,N,11959.999917,E,0.0,,230721,4.3,W,A*07
$GPGGA,005328.00,2959.999836,N,11959.999917,E,1,12,0.6,-5.5,M,7.0,M,,*7F

$GPGSV,3,1,12,02,34,270,41,04,34,217,41,07,63,032,41,08,70,230,41*72
$GPGSV,3,2,12,10,18,316,40,13,35,056,41,23,13,075,41,25,42,036,41*74
$GPGSV,3,3,12,27,37,233,41,28,16,170,40,20,04,135,,26,00,000,*76
$GLGSV,2,1,07,78,28,326,40,86,14,042,39,77,73,264,40,88,33,270,40*61
$GLGSV,2,2,07,87,51,350,40,71,09,056,40,72,10,108,39*54
$GAGSV,2,1,08,09,28,319,45,10,82,314,45,11,39,139,,17,14,042,*62
$GAGSV,2,2,08,22,03,230,,23,52,244,,24,64,021,,27,14,139,*6A
$PQGSV,1,1,0,0*43
$PQGSV,1,1,0,0*43
$GPGSA,A,3,02,04,07,08,10,13,23,25,27,28,,,1.0,0.6,0.7*31
$GLGSA,A,3,71,72,77,78,86,87,88,,,,,,1.0,0.6,0.7*23
$GAGSA,A,3,09,10,,,,,,,,,,,1.0,0.6,0.7*2B
$GPVTG,,T,,M,0.0,N,0.0,K,A*23
$GPDTM,P90,,0000.000022,S,00000.000001,W,0.988,W84*5A
$GPRMC,005329.00,A,2959.999836,N,11959.999918,E,0.0,,230721,4.3,W,A*09
$GPGGA,005329.00,2959.999836,N,11959.999918,E,1,12,0.6,-5.5,M,7.0,M,,*71

