$GPGSV,3,1,12,02,31,298,37,04,50,246,37,07,83,113,38,08,46,206,37*74
$GPGSV,3,2,12,13,48,030,37,25,65,042,37,10,00,000,,16,00,000,*72
$GPGSV,3,3,12,20,21,120,,23,26,056,,27,17,217,,28,00,000,*73
$GLGSV,2,1,07,78,06,330,34,86,33,023,35,77,55,326,36,75,10,151,34*65
$GLGSV,2,2,07,87,60,299,36,88,19,243,,71,00,000,*57
$GAGSV,2,1,08,09,12,316,,10,63,333,,11,55,116,,12,05,129,*60
$GAGSV,2,2,08,17,29,039,,23,37,222,,24,84,019,,27,29,125,*6A
$PQGSV,1,1,0,0*43
$PQGSV,1,1,0,0*43
$GPGSA,A,3,02,04,07,08,13,25,,,,,,,1.6,1.3,0.9*32
$GLGSA,A,3,77,78,86,87,,,,,,,,,1.6,1.3,0.9*2C
$GPVTG,232.4,T,232.4,M,75.8,N,140.3,K,A*1F
$GPDTM,P90,,0000.000022,S,00000.000001,W,0.988,W84*5A
$GPRMC,000155.00,A,2959.786102,N,12000.498962,E,75.8,232.4,230721,4.3,W,A*1F
$GPGGA,000155.00,2959.786102,N,12000.498962,E,1,10,1.3,-8.6,M,7.0,M,,*7C

$GPGSV,3,1,12,02,31,298,36,04,50,246,37,07,83,113,38,08,46,206,37*75
$GPGSV,3,2,12,13,48,030,37,25,65,042,38,10,00,000,,16,00,000,*7D
$GPGSV,3,3,12,20,21,120,,23,26,056,,27,17,217,,28,00,000,*73
$GLGSV,2,1,07,78,06,330,34,86,33,023,35,77,55,326,35,75,10,151,34*66
$GLGSV,2,2,07,87,60,299,36,88,19,243,,71,00,000,*57
$GAGSV,2,1,08,17,29,039,41,09,12,316,,10,63,333,,11,55,116,*6E
$GAGSV,2,2,08,12,05,129,,23,37,222,,24,84,019,,27,29,125,*61
$PQGSV,1,1,0,0*43
$PQGSV,1,1,0,0*43
$GPGSA,A,3,02,04,07,08,13,25,,,,,,,1.5,1.3,0.9*31
$GLGSA,A,3,77,78,86,87,,,,,,,,,1.5,1.3,0.9*2F
$GPVTG,236.9,T,236.9,M,75.8,N,140.4,K,A*18
$GPDTM,P90,,0000.000022,S,00000.000001,W,0.988,W84*5A
$GPRMC,000156.00,A,2959.773927,N,12000.479442,E,75.8,236.9,230721,4.3,W,A*10
$GPGGA,000156.00,2959.773927,N,12000.479442,E,1,10,1.3,-8.7,M,7.0,M,,*7B

$GPGSV,3,1,12,02,31,298,37,04,50,246,37,07,83,113,38,08,46,206,37*74
$GPGSV,3,2,12,13,48,030,37,25,65,042,37,10,00,000,,16,00,000,*72
$GPGSV,3,3,12,20,21,120,,23,26,056,,27,17,217,,28,00,000,*73
$GLGSV,2,1,07,78,06,330,34,86,33,023,35,77,55,326,35,75,10,151,34*66
$GLGSV,2,2,07,87,60,299,36,88,19,243,,71,00,000,*57
$GAGSV,2,1,08,17,29,039,40,09,12,316,,10,63,333,,11,55,116,*6F
$GAGSV,2,2,08,12,05,129,,23,37,222,,24,84,019,,27,29,125,*61
$PQGSV,1,1,0,0*43
$PQGSV,1,1,0,0*43
$GPGSA,A,3,02,04,07,08,13,25,,,,,,,1.5,1.3,0.9*31
$GLGSA,A,3,77,78,86,87,,,,,,,,,1.5,1.3,0.9*2F
$GAGSA,A,3,17,,,,,,,,,,,,1.5,1.3,0.9*2A
$GPVTG,241.3,T,241.3,M,75.7,N,140.3,K,A*10
$GPDTM,P90,,0000.000022,S,00000.000001,W,0.988,W84*5A
$GPRMC,000157.00,A,2959.763130,N,12000.458591,E,75.7,241.3,230721,4.3,W,A*17
$GPGGA,000157.00,2959.763130,N,12000.458591,E,1,11,1.3,-7.9,M,7.0,M,,*79

$GPGSV,3,1,12,02,31,298,36,04,50,246,37,07,83,113,38,08,46,206,37*75
$GPGSV,3,2,12,13,48,030,37,25,65,042,37,10,00,000,,16,00,000,*72
$GPGSV,3,3,12,20,21,120,,23,26,056,,27,17,217,,28,00,000,*73
$GLGSV,2,1,07,78,06,330,34,86,33,023,34,77,55,326,35,75,10,151,34*67
$GLGSV,2,2,07,87,60,299,36,88,19,243,,71,00,000,*57
$GAGSV,2,1,08,17,29,039,40,09,12,316,,10,63,333,,11,55,116,*6F
$GAGSV,2,2,08,12,05,129,,23,37,222,,24,84,019,,27,29,125,*61
$PQGSV,1,1,0,0*43
$PQGSV,1,1,0,0*43
$GPGSA,A,3,02,04,07,08,13,25,,,,,,,1.5,1.3,0.9*31
$GLGSA,A,3,77,78,86,87,,,,,,,,,1.5,1.3,0.9*2F
$GAGSA,A,3,17,,,,,,,,,,,,1.5,1.3,0.9*2A
$GPVTG,245.9,T,245.9,M,75.9,N,140.5,K,A*18
$GPDTM,P90,,0000.000022,S,00000.000001,W,0.988,W84*5A
$GPRMC,000158.00,A,2959.753794,N,12000.436578,E,75.9,245.9,230721,4.3,W,A*1C
$GPGGA,000158.00,2959.753794,N,12000.436578,E,1,11,1.3,-7.1,M,7.0,M,,*7A

$GPGSV,3,1,12,02,31,298,36,04,50,246,37,07,83,113,38,08,46,206,37*75
$GPGSV,3,2,12,13,48,030,37,25,65,042,38,10,00,000,,16,00,000,*7D
$GPGSV,3,3,12,20,21,120,,23,26,056,,27,17,217,,28,00,000,*73
$GLGSV,2,1,07,78,06,330,34,86,33,023,35,77,55,326,35,75,10,151,34*66
$GLGSV,2,2,07,87,60,299,36,88,19,243,,71,00,000,*57
$GAGSV,2,1,08,17,29,039,40,09,12,316,,10,63,333,,11,55,116,*6F
$GAGSV,2,2,08,12,05,129,,23,37,222,,24,84,019,,27,29,125,*61
$PQGSV,1,1,0,0*43
$PQGSV,1,1,0,0*43
$GPGSA,A,3,02,04,07,08,13,25,,,,,,,1.5,1.3,0.9*31
$GLGSA,A,3,77,78,86,87,,,,,,,,,1.5,1.3,0.9*2F
$GAGSA,A,3,17,,,,,,,,,,,,1.5,1.3,0.9*2A
$GPVTG,250.2,T,250.2,M,75.7,N,140.3,K,A*10
$GPDTM,P90,,0000.000022,S,00000.000001,W,0.988,W84*5A
$GPRMC,000159.00,A,2959.746162,N,12000.413863,E,75.7,250.2,230721,4.3,W,A*17
$GPGGA,000159.00,2959.746162,N,12000.413863,E,1,11,1.3,-7.8,M,7.0,M,,*79

$GPGSV,3,1,12,02,31,298,36,04,50,246,37,07,83,113,38,08,46,206,37*75
$GPGSV,3,2,12,13,48,030,37,25,65,042,38,10,00,000,,16,00,000,*7D
$GPGSV,3,3,12,20,21,120,,23,26,056,,27,17,217,,28,00,000,*73
$GLGSV,2,1,07,78,06,330,34,86,33,023,35,77,55,326,35,75,10,151,34*66
$GLGSV,2,2,07,87,60,299,36,88,19,243,,71,00,000,*57
$GAGSV,2,1,08,17,29,039,40,09,12,316,,10,63,333,,11,55,116,*6F
$GAGSV,2,2,08,12,05,129,,23,37,222,,24,84,019,,27,29,125,*61
$PQGSV,1,1,0,0*43
$PQGSV,1,1,0,0*43
$GPGSA,A,3,02,04,07,08,13,25,,,,,,,1.5,1.3,0.9*31
$GLGSA,A,3,77,78,86,87,,,,,,,,,1.5,1.3,0.9*2F
$GAGSA,A,3,17,,,,,,,,,,,,1.5,1.3,0.9*2A
$GPVTG,254.7,T,254.7,M,75.7,N,140.2,K,A*11
$GPDTM,P90,,0000.000022,S,00000.000001,W,0.988,W84*5A
$GPRMC,000200.00,A,2959.739895,N,12000.390709,E,75.7,254.7,230721,4.3,W,A*1F
$GPGGA,000200.00,2959.739895,N,12000.390709,E,1,11,1.3,-7.9,M,7.0,M,,*71

$GPGSV,3,1,12,02,31,298,37,04,50,246,37,07,83,113,38,08,46,206,37*74
$GPGSV,3,2,12,13,48,030,37,25,65,042,37,10,00,000,,16,00,000,*72
$GPGSV,3,3,12,20,21,120,,23,26,056,,27,17,217,,28,00,000,*73
$GLGSV,2,1,07,78,06,330,34,86,33,023,34,77,55,326,36,75,10,151,34*64
$GLGSV,2,2,07,87,60,299,36,88,19,243,,71,00,000,*57
$GAGSV,2,1,08,17,29,039,40,09,12,316,,10,63,333,,11,55,116,*6F
$GAGSV,2,2,08,12,05,129,,23,37,222,,24,84,019,,27,29,125,*61
$PQGSV,1,1,0,0*43
$PQGSV,1,1,0,0*43
$GPGSA,A,3,02,04,07,08,13,25,,,,,,,1.5,1.3,0.9*31
$GLGSA,A,3,77,78,86,87,,,,,,,,,1.5,1.3,0.9*2F
$GAGSA,A,3,17,,,,,,,,,,,,1.5,1.3,0.9*2A
$GPVTG,259.1,T,259.1,M,75.6,N,139.9,K,A*15
$GPDTM,P90,,0000.000022,S,00000.000001,W,0.988,W84*5A
$GPRMC,000201.00,A,2959.735150,N,12000.367091,E,75.6,259.1,230721,4.3,W,A*16
$GPGGA,000201.00,2959.735150,N,12000.367091,E,1,11,1.3,-8.2,M,7.0,M,,*76

$GPGSV,3,1,12,02,31,298,36,04,50,246,37,07,83,113,38,08,46,206,37*75
$GPGSV,3,2,12,13,48,030,37,25,65,042,38,10,00,000,,16,00,000,*7D
$GPGSV,3,3,12,20,21,120,,23,26,056,,27,17,217,,28,00,000,*73
$GLGSV,2,1,07,78,06,330,34,86,33,023,35,77,55,326,36,75,10,151,34*65
$GLGSV,2,2,07,87,60,299,36,88,19,243,,71,00,000,*57
$GAGSV,2,1,08,17,29,039,40,09,12,316,,10,63,333,,11,55,116,*6F
$GAGSV,2,2,08,12,05,129,,23,37,222,,24,84,019,,27,29,125,*61
$PQGSV,1,1,0,0*43
$PQGSV,1,1,0,0*43
$GPGSA,A,3,02,04,07,08,13,25,,,,,,,1.2,0.9,0.8*3C
$GLGSA,A,3,77,78,86,87,,,,,,,,,1.2,0.9,0.8*22
$GAGSA,A,3,17,,,,,,,,,,,,1.2,0.9,0.8*27
$GPVTG,263.7,T,263.7,M,76.0,N,140.7,K,A*10
$GPDTM,P90,,0000.000022,S,00000.000001,W,0.988,W84*5A
$GPRMC,000202.00,A,2959.732108,N,12000.343124,E,76.0,263.7,230721,4.3,W,A*1C
$GPGGA,000202.00,2959.732108,N,12000.343124,E,1,11,0.9,-7.1,M,7.0,M,,*71

$GPGSV,3,1,12,02,31,298,36,04,50,246,37,07,83,113,38,08,46,206,37*75
$GPGSV,3,2,12,13,48,030,37,25,65,042,38,10,00,000,,16,00,000,*7D
$GPGSV,3,3,12,20,21,120,,23,26,056,,27,17,217,,28,00,000,*73
$GLGSV,2,1,07,78,06,330,34,86,33,023,35,77,55,326,35,75,10,151,34*66
$GLGSV,2,2,07,87,60,299,36,88,19,243,,71,00,000,*57
$GAGSV,2,1,08,17,29,039,40,09,12,316,,10,63,333,,11,55,116,*6F
$GAGSV,2,2,08,12,05,129,,23,37,222,,24,84,019,,27,29,125,*61
$PQGSV,1,1,0,0*43
$PQGSV,1,1,0,0*43
$GPGSA,A,3,02,04,07,08,13,25,,,,,,,1.2,0.9,0.8*3C
$GLGSA,A,3,75,77,78,86,87,,,,,,,,1.2,0.9,0.8*20
$GAGSA,A,3,17,,,,,,,,,,,,1.2,0.9,0.8*27
$GPVTG,268.1,T,268.1,M,75.9,N,140.5,K,A*18
$GPDTM,P90,,0000.000022,S,00000.000001,W,0.988,W84*5A
$GPRMC,000203.00,A,2959.730329,N,12000.319137,E,75.9,268.1,230721,4.3,W,A*14
$GPGGA,000203.00,2959.730329,N,12000.319137,E,1,12,0.9,-8.2,M,7.0,M,,*71

$GPGSV,3,1,12,02,31,298,36,04,50,246,37,07,83,113,38,08,46,206,37*75
$GPGSV,3,2,12,13,48,030,37,25,65,042,37,10,00,000,,16,00,000,*72
$GPGSV,3,3,12,20,21,120,,23,26,056,,27,17,217,,28,00,000,*73
$GLGSV,2,1,07,78,06,330,33,86,33,023,34,77,55,326,36,75,10,151,34*63
$GLGSV,2,2,07,87,60,299,36,88,19,243,,71,00,000,*57
$GAGSV,2,1,08,17,29,039,40,09,12,316,,10,63,333,,11,55,116,*6F
$GAGSV,2,2,08,12,05,129,,23,37,222,,24,84,019,,27,29,125,*61
$PQGSV,1,1,0,0*43
$PQGSV,1,1,0,0*43
$GPGSA,A,3,02,04,07,08,13,25,,,,,,,1.2,0.9,0.8*3C
$GLGSA,A,3,75,77,78,86,87,,,,,,,,1.2,0.9,0.8*20
$GAGSA,A,3,17,,,,,,,,,,,,1.2,0.9,0.8*27
$GPVTG,272.6,T,272.6,M,75.7,N,140.3,K,A*10
$GPDTM,P90,,0000.000022,S,00000.000001,W,0.988,W84*5A
$GPRMC,000204.00,A,2959.730579,N,12000.295018,E,75.7,272.6,230721,4.3,W,A*1B
$GPGGA,000204.00,2959.730579,N,12000.295018,E,1,12,0.9,-8.6,M,7.0,M,,*78

$GPGSV,3,1,12,02,31,298,36,04,50,246,37,07,83,113,37,08,46,206,37*7A
$GPGSV,3,2,12,13,48,030,37,25,65,042,37,10,00,000,,16,00,000,*72
$GPGSV,3,3,12,20,21,120,,23,26,056,,27,17,217,,28,00,000,*73
$GLGSV,2,1,07,78,06,330,34,86,33,023,34,77,55,326,36,75,10,151,34*64
$GLGSV,2,2,07,87,60,299,36,88,19,243,,71,00,000,*57
$GAGSV,2,1,08,17,29,039,40,09,12,316,,10,63,333,,11,55,116,*6F
$GAGSV,2,2,08,12,05,129,,23,37,222,,24,84,019,,27,29,125,*61
$PQGSV,1,1,0,0*43
$PQGSV,1,1,0,0*43
$GPGSA,A,3,02,04,07,08,13,25,,,,,,,1.2,0.9,0.8*3C
$GLGSA,A,3,75,77,78,86,87,,,,,,,,1.2,0.9,0.8*20
$GAGSA,A,3,17,,,,,,,,,,,,1.2,0.9,0.8*27
$GPVTG,277.0,T,277.0,M,75.9,N,140.6,K,A*1B
$GPDTM,P90,,0000.000022,S,00000.000001,W,0.988,W84*5A
$GPRMC,000205.00,A,2959.732400,N,12000.270877,E,75.9,277.0,230721,4.3,W,A*10
$GPGGA,000205.00,2959.732400,N,12000.270877,E,1,12,0.9,-8.0,M,7.0,M,,*78

$GPGSV,3,1,12,02,31,298,37,04,50,246,37,07,83,113,38,08,46,206,37*74
$GPGSV,3,2,12,13,48,030,37,25,65,042,37,10,00,000,,16,00,000,*72
$GPGSV,3,3,12,20,21,120,,23,26,056,,27,17,217,,28,00,000,*73
$GLGSV,2,1,07,78,06,330,34,86,33,023,35,77,55,326,36,75,10,151,34*65
$GLGSV,2,2,07,87,60,299,36,88,19,243,,71,00,000,*57
$GAGSV,2,1,08,17,29,039,40,09,12,316,,10,63,333,,11,55,116,*6F
$GAGSV,2,2,08,12,05,129,,23,37,222,,24,84,019,,27,29,125,*61
$PQGSV,1,1,0,0*43
$PQGSV,1,1,0,0*43
$GPGSA,A,3,02,04,07,08,13,25,,,,,,,1.2,0.9,0.8*3C
$GLGSA,A,3,75,77,78,86,87,,,,,,,,1.2,0.9,0.8*20
$GAGSA,A,3,17,,,,,,,,,,,,1.2,0.9,0.8*27
$GPVTG,281.5,T,281.5,M,75.8,N,140.3,K,A*1F
$GPDTM,P90,,0000.000022,S,00000.000001,W,0.988,W84*5A
$GPRMC,000206.00,A,2959.735846,N,12000.246919,E,75.8,281.5,230721,4.3,W,A*1B
$GPGGA,000206.00,2959.735846,N,12000.246919,E,1,12,0.9,-8.3,M,7.0,M,,*7D

$GPGSV,3,1,12,02,31,298,37,04,50,246,37,07,83,113,38,08,46,206,37*74
$GPGSV,3,2,12,13,48,030,37,25,65,042,37,10,00,000,,16,00,000,*72
$GPGSV,3,3,12,20,21,120,,23,26,056,,27,17,217,,28,00,000,*73
$GLGSV,2,1,07,78,06,330,34,86,33,023,35,77,55,326,35,75,10,151,34*66
$GLGSV,2,2,07,87,60,299,36,88,19,243,,71,00,000,*57
$GAGSV,2,1,08,17,29,039,40,09,12,316,,10,63,333,,11,55,116,*6F
$GAGSV,2,2,08,12,05,129,,23,37,222,,24,84,019,,27,29,125,*61
$PQGSV,1,1,0,0*43
$PQGSV,1,1,0,0*43
$GPGSA,A,3,02,04,07,08,13,25,,,,,,,1.2,0.9,0.8*3C
$GLGSA,A,3,75,77,78,86,87,,,,,,,,1.2,0.9,0.8*20
$GAGSA,A,3,17,,,,,,,,,,,,1.2,0.9,0.8*27
$GPVTG,285.9,T,285.9,M,75.9,N,140.6,K,A*1B
$GPDTM,P90,,0000.000022,S,00000.000001,W,0.988,W84*5A
$GPRMC,000207.00,A,2959.740970,N,12000.223388,E,75.9,285.9,230721,4.3,W,A*14
$GPGGA,000207.00,2959.740970,N,12000.223388,E,1,12,0.9,-8.1,M,7.0,M,,*79

$GPGSV,3,1,12,02,31,298,37,04,50,246,37,07,83,113,38,08,46,206,37*74
$GPGSV,3,2,12,13,48,030,37,25,65,042,38,10,00,000,,16,00,000,*7D
$GPGSV,3,3,12,20,21,120,,23,26,056,,27,17,217,,28,00,000,*73
$GLGSV,2,1,07,78,06,330,34,86,33,023,34,77,55,326,35,75,10,151,34*67
$GLGSV,2,2,07,87,60,299,36,88,19,243,,71,00,000,*57
$GAGSV,2,1,08,17,29,039,40,09,12,316,,10,63,333,,11,55,116,*6F
$GAGSV,2,2,08,12,05,129,,23,37,222,,24,84,019,,27,29,125,*61
$PQGSV,1,1,0,0*43
$PQGSV,1,1,0,0*43
$GPGSA,A,3,02,04,07,08,13,25,,,,,,,1.2,0.9,0.8*3C
$GLGSA,A,3,75,77,78,86,87,,,,,,,,1.2,0.9,0.8*20
$GAGSA,A,3,17,,,,,,,,,,,,1.2,0.9,0.8*27
$GPVTG,290.4,T,290.4,M,75.7,N,140.1,K,A*12
$GPDTM,P90,,0000.000022,S,00000.000001,W,0.988,W84*5A
$GPRMC,000208.00,A,2959.747530,N,12000.200563,E,75.7,290.4,230721,4.3,W,A*11
$GPGGA,000208.00,2959.747530,N,12000.200563,E,1,12,0.9,-8.2,M,7.0,M,,*78

$GPGSV,3,1,12,02,31,298,37,04,50,246,37,07,83,113,38,08,46,206,37*74
$GPGSV,3,2,12,13,48,030,37,25,65,042,37,10,00,000,,16,00,000,*72
$GPGSV,3,3,12,20,21,120,,23,26,056,,27,17,217,,28,00,000,*73
$GLGSV,2,1,07,78,06,330,34,86,33,023,35,77,55,326,35,75,10,151,34*66
$GLGSV,2,2,07,87,60,299,36,88,19,243,,71,00,000,*57
$GAGSV,2,1,08,17,29,039,40,09,12,316,,10,63,333,,11,55,116,*6F
$GAGSV,2,2,08,12,05,129,,23,37,222,,24,84,019,,27,29,125,*61
$PQGSV,1,1,0,0*43
$PQGSV,1,1,0,0*43
$GPGSA,A,3,02,04,07,08,13,25,,,,,,,1.2,0.9,0.8*3C
$GLGSA,A,3,75,77,78,86,87,,,,,,,,1.2,0.9,0.8*20
$GAGSA,A,3,17,,,,,,,,,,,,1.2,0.9,0.8*27
$GPVTG,294.9,T,294.9,M,75.8,N,140.4,K,A*18
$GPDTM,P90,,0000.000022,S,00000.000001,W,0.988,W84*5A
$GPRMC,000209.00,A,2959.755337,N,12000.178505,E,75.8,294.9,230721,4.3,W,A*18
$GPGGA,000209.00,2959.755337,N,12000.178505,E,1,12,0.9,-8.6,M,7.0,M,,*73

$GPGSV,3,1,12,02,31,298,37,04,50,246,37,07,83,113,38,08,46,206,37*74
$GPGSV,3,2,12,13,48,030,37,25,65,042,37,10,00,000,,16,00,000,*72
$GPGSV,3,3,12,20,21,120,,23,26,056,,27,17,217,,28,00,000,*73
$GLGSV,2,1,07,78,06,330,34,86,33,023,35,77,55,326,36,75,10,151,34*65
$GLGSV,2,2,07,87,60,299,36,88,19,243,,71,00,000,*57
$GAGSV,2,1,08,17,29,039,40,09,12,316,,10,63,333,,11,55,116,*6F
$GAGSV,2,2,08,12,05,129,,23,37,222,,24,84,019,,27,29,125,*61
$PQGSV,1,1,0,0*43
$PQGSV,1,1,0,0*43
$GPGSA,A,3,02,04,07,08,13,25,,,,,,,1.2,0.9,0.8*3C
$GLGSA,A,3,75,77,78,86,87,,,,,,,,1.2,0.9,0.8*20
$GAGSA,A,3,17,,,,,,,,,,,,1.2,0.9,0.8*27
$GPVTG,299.3,T,299.3,M,75.8,N,140.5,K,A*19
$GPDTM,P90,,0000.000022,S,00000.000001,W,0.988,W84*5A
$GPRMC,000210.00,A,2959.764990,N,12000.157039,E,75.8,299.3,230721,4.3,W,A*15
$GPGGA,000210.00,2959.764990,N,12000.157039,E,1,12,0.9,-9.1,M,7.0,M,,*7F

$GPGSV,3,1,12,02,31,298,37,04,50,246,37,07,83,113,38,08,46,206,37*74
$GPGSV,3,2,12,13,48,030,37,25,65,042,37,10,00,000,,16,00,000,*72
$GPGSV,3,3,12,20,21,120,,23,26,056,,27,17,217,,28,00,000,*73
$GLGSV,2,1,07,78,06,330,34,86,33,023,35,77,55,326,36,75,10,151,34*65
$GLGSV,2,2,07,87,60,299,36,88,19,243,,71,00,000,*57
$GAGSV,2,1,08,17,29,039,40,09,12,316,,10,63,333,,11,55,116,*6F
$GAGSV,2,2,08,12,05,129,,23,37,222,,24,84,019,,27,29,125,*61
$PQGSV,1,1,0,0*43
$PQGSV,1,1,0,0*43
$GPGSA,A,3,02,04,07,08,13,25,,,,,,,1.2,0.9,0.8*3C
$GLGSA,A,3,75,77,78,86,87,,,,,,,,1.2,0.9,0.8*20
$GAGSA,A,3,17,,,,,,,,,,,,1.2,0.9,0.8*27
$GPVTG,303.8,T,303.8,M,75.7,N,140.2,K,A*11
$GPDTM,P90,,0000.000022,S,00000.000001,W,0.988,W84*5A
$GPRMC,000211.00,A,2959.775945,N,12000.136412,E,75.7,303.8,230721,4.3,W,A*10
$GPGGA,000211.00,2959.775945,N,12000.136412,E,1,12,0.9,-9.3,M,7.0,M,,*7E

$GPGSV,3,1,12,02,31,298,37,04,50,246,37,07,83,113,37,08,46,206,37*7B
$GPGSV,3,2,12,13,48,030,37,25,65,042,37,10,00,000,,16,00,000,*72
$GPGSV,3,3,12,20,21,120,,23,26,056,,27,17,217,,28,00,000,*73
$GLGSV,2,1,07,78,06,330,34,86,33,023,35,77,55,326,35,75,10,151,34*66
$GLGSV,2,2,07,87,60,299,36,88,19,243,,71,00,000,*57
$GAGSV,2,1,08,17,29,039,40,09,12,316,,10,63,333,,11,55,116,*6F
$GAGSV,2,2,08,12,05,129,,23,37,222,,24,84,019,,27,29,125,*61
$PQGSV,1,1,0,0*43
$PQGSV,1,1,0,0*43
$GPGSA,A,3,02,04,07,08,13,25,,,,,,,1.2,0.9,0.8*3C
$GLGSA,A,3,75,77,78,86,87,,,,,,,,1.2,0.9,0.8*20
$GAGSA,A,3,17,,,,,,,,,,,,1.2,0.9,0.8*27
$GPVTG,308.3,T,308.3,M,75.8,N,140.3,K,A*1F
$GPDTM,P90,,0000.000022,S,00000.000001,W,0.988,W84*5A
$GPRMC,000212.00,A,2959.788325,N,12000.117239,E,75.8,308.3,230721,4.3,W,A*1E
$GPGGA,000212.00,2959.788325,N,12000.117239,E,1,12,0.9,-9.7,M,7.0,M,,*7B

$GPGSV,3,1,12,02,31,298,37,04,50,246,37,07,83,113,38,08,46,206,37*74
$GPGSV,3,2,12,13,48,030,37,25,65,042,37,10,00,000,,16,00,000,*72
$GPGSV,3,3,12,20,21,120,,23,26,056,,27,17,217,,28,00,000,*73
$GLGSV,2,1,07,78,06,330,34,86,33,023,35,77,55,326,35,75,10,151,34*66
$GLGSV,2,2,07,87,60,299,36,88,19,243,,71,00,000,*57
$GAGSV,2,1,08,17,29,039,40,09,12,316,,10,63,333,,11,55,116,*6F
$GAGSV,2,2,08,12,05,129,,23,37,222,,24,84,019,,27,29,125,*61
$PQGSV,1,1,0,0*43
$PQGSV,1,1,0,0*43
$GPGSA,A,3,02,04,07,08,13,25,,,,,,,1.2,0.9,0.8*3C
$GLGSA,A,3,75,77,78,86,87,,,,,,,,1.2,0.9,0.8*20
$GAGSA,A,3,17,,,,,,,,,,,,1.2,0.9,0.8*27
$GPVTG,312.7,T,312.7,M,75.7,N,140.2,K,A*11
$GPDTM,P90,,0000.000022,S,00000.000001,W,0.988,W84*5A
$GPRMC,000213.00,A,2959.802037,N,12000.098847,E,75.7,312.7,230721,4.3,W,A*17
$GPGGA,000213.00,2959.802037,N,12000.098847,E,1,12,0.9,-9.6,M,7.0,M,,*73

$GPGSV,3,1,12,02,31,298,37,04,50,246,37,07,83,113,38,08,46,206,37*74
$GPGSV,3,2,12,13,48,030,37,25,65,042,37,10,00,000,,16,00,000,*72
$GPGSV,3,3,12,20,21,120,,23,26,056,,27,17,217,,28,00,000,*73
$GLGSV,2,1,07,78,06,330,34,86,33,023,35,77,55,326,36,75,10,151,34*65
$GLGSV,2,2,07,87,60,299,36,88,19,243,,71,00,000,*57
$GAGSV,2,1,08,17,29,039,40,09,12,316,,10,63,333,,11,55,116,*6F
$GAGSV,2,2,08,12,05,129,,23,37,222,,24,84,019,,27,29,125,*61
$PQGSV,1,1,0,0*43
$PQGSV,1,1,0,0*43
$GPGSA,A,3,02,04,07,08,13,25,,,,,,,1.2,0.9,0.8*3C
$GLGSA,A,3,75,77,78,86,87,,,,,,,,1.2,0.9,0.8*20
$GAGSA,A,3,17,,,,,,,,,,,,1.2,0.9,0.8*27
$GPVTG,317.1,T,317.1,M,75.8,N,140.4,K,A*18
$GPDTM,P90,,0000.000022,S,00000.000001,W,0.988,W84*5A
$GPRMC,000214.00,A,2959.816879,N,12000.081541,E,75.8,317.1,230721,4.3,W,A*18
$GPGGA,000214.00,2959.816879,N,12000.081541,E,1,12,0.9,-9.0,M,7.0,M,,*76

$GPGSV,3,1,12,02,31,298,37,04,50,246,37,07,83,113,38,08,46,206,37*74
$GPGSV,3,2,12,13,48,030,37,25,65,042,37,10,00,000,,16,00,000,*72
$GPGSV,3,3,12,20,21,120,,23,26,056,,27,17,217,,28,00,000,*73
$GLGSV,2,1,07,78,06,330,34,86,33,023,35,77,55,326,36,75,10,151,34*65
$GLGSV,2,2,07,87,60,299,35,88,19,243,,71,00,000,*54
$GAGSV,2,1,08,17,29,039,40,09,12,316,,10,63,333,,11,55,116,*6F
$GAGSV,2,2,08,12,05,129,,23,37,222,,24,84,019,,27,29,125,*61
$PQGSV,1,1,0,0*43
$PQGSV,1,1,0,0*43
$GPGSA,A,3,02,04,07,08,13,25,,,,,,,1.2,0.9,0.8*3C
$GLGSA,A,3,75,77,78,86,87,,,,,,,,1.2,0.9,0.8*20
$GAGSA,A,3,17,,,,,,,,,,,,1.2,0.9,0.8*27
$GPVTG,321.6,T,321.6,M,75.8,N,140.4,K,A*18
$GPDTM,P90,,0000.000022,S,00000.000001,W,0.988,W84*5A
$GPRMC,000215.00,A,2959.832760,N,12000.065866,E,75.8,321.6,230721,4.3,W,A*18
$GPGGA,000215.00,2959.832760,N,12000.065866,E,1,12,0.9,-9.5,M,7.0,M,,*71

$GPGSV,3,1,12,02,31,298,37,04,50,246,37,07,83,113,38,08,46,206,37*74
$GPGSV,3,2,12,13,48,030,37,25,65,042,37,10,00,000,,16,00,000,*72
$GPGSV,3,3,12,20,21,120,,23,26,056,,27,17,217,,28,00,000,*73
$GLGSV,2,1,07,78,06,330,34,86,33,023,35,77,55,326,36,75,10,151,34*65
$GLGSV,2,2,07,87,60,299,36,88,19,243,,71,00,000,*57
$GAGSV,2,1,08,17,29,039,40,09,12,316,,10,63,333,,11,55,116,*6F
$GAGSV,2,2,08,12,05,129,,23,37,222,,24,84,019,,27,29,125,*61
$PQGSV,1,1,0,0*43
$PQGSV,1,1,0,0*43
$GPGSA,A,3,02,04,07,08,13,25,,,,,,,1.2,0.9,0.8*3C
$GLGSA,A,3,75,77,78,86,87,,,,,,,,1.2,0.9,0.8*20
$GAGSA,A,3,17,,,,,,,,,,,,1.2,0.9,0.8*27
$GPVTG,326.1,T,326.1,M,75.8,N,140.3,K,A*1F
$GPDTM,P90,,0000.000022,S,00000.000001,W,0.988,W84*5A
$GPRMC,000216.00,A,2959.849668,N,12000.051766,E,75.8,326.1,230721,4.3,W,A*16
$GPGGA,000216.00,2959.849668,N,12000.051766,E,1,12,0.9,-9.8,M,7.0,M,,*72

$GPGSV,3,1,12,02,31,298,37,04,50,246,37,07,83,113,38,08,46,206,36*75
$GPGSV,3,2,12,13,48,030,37,25,65,042,37,10,00,000,,16,00,000,*72
$GPGSV,3,3,12,20,21,120,,23,26,056,,27,17,217,,28,00,000,*73
$GLGSV,2,1,07,78,06,330,34,86,33,023,35,77,55,326,36,75,10,151,34*65
$GLGSV,2,2,07,87,60,299,36,88,19,243,,71,00,000,*57
$GAGSV,2,1,08,17,29,039,40,09,12,316,,10,63,333,,11,55,116,*6F
$GAGSV,2,2,08,12,05,129,,23,37,222,,24,84,019,,27,29,125,*61
$PQGSV,1,1,0,0*43
$PQGSV,1,1,0,0*43
$GPGSA,A,3,02,04,07,08,13,25,,,,,,,1.2,0.9,0.8*3C
$GLGSA,A,3,75,77,78,86,87,,,,,,,,1.2,0.9,0.8*20
$GAGSA,A,3,17,,,,,,,,,,,,1.2,0.9,0.8*27
$GPVTG,330.5,T,330.5,M,75.8,N,140.3,K,A*1F
$GPDTM,P90,,0000.000022,S,00000.000001,W,0.988,W84*5A
$GPRMC,000217.00,A,2959.867523,N,12000.038959,E,75.8,330.5,230721,4.3,W,A*19
$GPGGA,000217.00,2959.867523,N,12000.038959,E,1,12,0.9,-10.2,M,7.0,M,,*4C

$GPGSV,3,1,12,02,31,298,37,04,50,246,37,07,83,113,38,08,46,206,37*74
$GPGSV,3,2,12,13,48,030,37,25,65,042,37,10,00,000,,16,00,000,*72
$GPGSV,3,3,12,20,21,120,,23,26,056,,27,17,217,,28,00,000,*73
$GLGSV,2,1,07,78,06,330,34,86,33,023,35,77,55,326,36,75,10,151,34*65
$GLGSV,2,2,07,87,60,299,36,88,19,243,,71,00,000,*57
$GAGSV,2,1,08,17,29,039,40,09,12,316,,10,63,333,,11,55,116,*6F
$GAGSV,2,2,08,12,05,129,,23,37,222,,24,84,019,,27,29,125,*61
$PQGSV,1,1,0,0*43
$PQGSV,1,1,0,0*43
$GPGSA,A,3,02,04,07,08,13,25,,,,,,,1.2,0.9,0.8*3C
$GLGSA,A,3,75,77,78,86,87,,,,,,,,1.2,0.9,0.8*20
$GAGSA,A,3,17,,,,,,,,,,,,1.2,0.9,0.8*27
$GPVTG,335.0,T,335.0,M,75.7,N,140.3,K,A*10
$GPDTM,P90,,0000.000022,S,00000.000001,W,0.988,W84*5A
$GPRMC,000218.00,A,2959.886187,N,12000.027680,E,75.7,335.0,230721,4.3,W,A*19
$GPGGA,000218.00,2959.886187,N,12000.027680,E,1,12,0.9,-10.0,M,7.0,M,,*41

$GPGSV,3,1,12,02,31,298,37,04,50,246,37,07,83,113,38,08,46,206,37*74
$GPGSV,3,2,12,13,48,030,37,25,65,042,37,10,00,000,,16,00,000,*72
$GPGSV,3,3,12,20,21,120,,23,26,056,,27,17,217,,28,00,000,*73
$GLGSV,2,1,07,78,06,330,34,86,33,023,35,77,55,326,35,75,10,151,34*66
$GLGSV,2,2,07,87,60,299,36,88,19,243,,71,00,000,*57
$GAGSV,2,1,08,17,29,039,40,09,12,316,,10,63,333,,11,55,116,*6F
$GAGSV,2,2,08,12,05,129,,23,37,222,,24,84,019,,27,29,125,*61
$PQGSV,1,1,0,0*43
$PQGSV,1,1,0,0*43
$GPGSA,A,3,02,04,07,08,13,25,,,,,,,1.2,0.9,0.8*3C
$GLGSA,A,3,75,77,78,86,87,,,,,,,,1.2,0.9,0.8*20
$GAGSA,A,3,17,,,,,,,,,,,,1.2,0.9,0.8*27
$GPVTG,339.4,T,339.4,M,75.8,N,140.3,K,A*1F
$GPDTM,P90,,0000.000022,S,00000.000001,W,0.988,W84*5A
$GPRMC,000219.00,A,2959.905346,N,12000.018558,E,75.8,339.4,230721,4.3,W,A*10
$GPGGA,000219.00,2959.905346,N,12000.018558,E,1,12,0.9,-10.2,M,7.0,M,,*4D

$GPGSV,3,1,12,02,31,298,36,04,50,246,37,07,83,113,38,08,46,206,37*75
$GPGSV,3,2,12,13,48,030,37,25,65,042,37,10,00,000,,16,00,000,*72
$GPGSV,3,3,12,20,21,120,,23,26,056,,27,17,217,,28,00,000,*73
$GLGSV,2,1,07,78,06,330,34,86,33,023,35,77,55,326,35,75,10,151,34*66
$GLGSV,2,2,07,87,60,299,36,88,19,243,,71,00,000,*57
$GAGSV,2,1,08,17,29,039,40,09,12,316,,10,63,333,,11,55,116,*6F
$GAGSV,2,2,08,12,05,129,,23,37,222,,24,84,019,,27,29,125,*61
$PQGSV,1,1,0,0*43
$PQGSV,1,1,0,0*43
$GPGSA,A,3,02,04,07,08,13,25,,,,,,,1.2,0.9,0.8*3C
$GLGSA,A,3,75,77,78,86,87,,,,,,,,1.2,0.9,0.8*20
$GAGSA,A,3,17,,,,,,,,,,,,1.2,0.9,0.8*27
$GPVTG,343.9,T,343.9,M,75.8,N,140.3,K,A*1F
$GPDTM,P90,,0000.000022,S,00000.000001,W,0.988,W84*5A
$GPRMC,000220.00,A,2959.925381,N,12000.011113,E,75.8,343.9,230721,4.3,W,A*11
$GPGGA,000220.00,2959.925381,N,12000.011113,E,1,12,0.9,-10.1,M,7.0,M,,*4F

$GPGSV,3,1,12,02,31,298,37,04,50,246,37,07,83,113,38,08,46,206,37*74
$GPGSV,3,2,12,13,48,030,37,25,65,042,37,10,00,000,,16,00,000,*72
$GPGSV,3,3,12,20,21,120,,23,26,056,,27,17,217,,28,00,000,*73
$GLGSV,2,1,07,78,06,330,34,86,33,023,35,77,55,326,36,75,10,151,34*65
$GLGSV,2,2,07,87,60,299,36,88,19,243,,71,00,000,*57
$GAGSV,2,1,08,17,29,039,40,09,12,316,,10,63,333,,11,55,116,*6F
$GAGSV,2,2,08,12,05,129,,23,37,222,,24,84,019,,27,29,125,*61
$PQGSV,1,1,0,0*43
$PQGSV,1,1,0,0*43
$GPGSA,A,3,02,04,07,08,13,25,,,,,,,1.2,0.9,0.8*3C
$GLGSA,A,3,75,77,78,86,87,,,,,,,,1.2,0.9,0.8*20
$GAGSA,A,3,17,,,,,,,,,,,,1.2,0.9,0.8*27
$GPVTG,348.3,T,348.3,M,75.8,N,140.4,K,A*18
$GPDTM,P90,,0000.000022,S,00000.000001,W,0.988,W84*5A
$GPRMC,000221.00,A,2959.945727,N,12000.005258,E,75.8,348.3,230721,4.3,W,A*16
$GPGGA,000221.00,2959.945727,N,12000.005258,E,1,12,0.9,-10.0,M,7.0,M,,*48

$GPGSV,3,1,12,02,31,298,37,04,50,246,37,07,83,113,38,08,46,206,37*74
$GPGSV,3,2,12,13,48,030,37,25,65,042,37,10,00,000,,16,00,000,*72
$GPGSV,3,3,12,20,21,120,,23,26,056,,27,17,217,,28,00,000,*73
$GLGSV,2,1,07,78,06,330,34,86,33,023,35,77,55,326,35,75,10,151,34*66
$GLGSV,2,2,07,87,60,299,36,88,19,243,,71,00,000,*57
$GAGSV,2,1,08,17,29,039,40,09,12,316,,10,63,333,,11,55,116,*6F
$GAGSV,2,2,08,12,05,129,,23,37,222,,24,84,019,,27,29,125,*61
$PQGSV,1,1,0,0*43
$PQGSV,1,1,0,0*43
$GPGSA,A,3,02,04,07,08,13,25,,,,,,,1.2,0.9,0.8*3C
$GLGSA,A,3,75,77,78,86,87,,,,,,,,1.2,0.9,0.8*20
$GAGSA,A,3,17,,,,,,,,,,,,1.2,0.9,0.8*27
$GPVTG,352.8,T,352.8,M,75.7,N,140.3,K,A*10
$GPDTM,P90,,0000.000022,S,00000.000001,W,0.988,W84*5A
$GPRMC,000222.00,A,2959.966411,N,12000.001402,E,75.7,352.8,230721,4.3,W,A*10
$GPGGA,000222.00,2959.966411,N,12000.001402,E,1,12,0.9,-9.6,M,7.0,M,,*7F

$GPGSV,3,1,12,02,31,298,37,04,50,246,37,07,83,113,38,08,46,206,37*74
$GPGSV,3,2,12,13,48,030,37,25,65,042,37,10,00,000,,16,00,000,*72
$GPGSV,3,3,12,20,21,120,,23,26,056,,27,17,217,,28,00,000,*73
$GLGSV,2,1,07,78,06,330,34,86,33,023,35,77,55,326,35,75,10,151,34*66
$GLGSV,2,2,07,87,60,299,36,88,19,243,,71,00,000,*57
$GAGSV,2,1,08,17,29,039,40,09,12,316,,10,63,333,,11,55,116,*6F
$GAGSV,2,2,08,12,05,129,,23,37,222,,24,84,019,,27,29,125,*61
$PQGSV,1,1,0,0*43
$PQGSV,1,1,0,0*43
$GPGSA,A,3,02,04,07,08,13,25,,,,,,,1.2,0.9,0.8*3C
$GLGSA,A,3,75,77,78,86,87,,,,,,,,1.2,0.9,0.8*20
$GAGSA,A,3,17,,,,,,,,,,,,1.2,0.9,0.8*27
$GPVTG,357.2,T,357.2,M,75.8,N,140.4,K,A*18
$GPDTM,P90,,0000.000022,S,00000.000001,W,0.988,W84*5A
$GPRMC,000223.00,A,2959.987569,N,11959.999260,E,75.8,357.2,230721,4.3,W,A*1C
$GPGGA,000223.00,2959.987569,N,11959.999260,E,1,12,0.9,-10.0,M,7.0,M,,*4D

$GPGSV,3,1,12,02,31,298,36,04,50,246,37,07,83,113,38,08,46,206,37*75
$GPGSV,3,2,12,13,48,030,37,25,65,042,37,10,00,000,,16,00,000,*72
$GPGSV,3,3,12,20,21,120,,23,26,056,,27,17,217,,28,00,000,*73
$GLGSV,2,1,07,78,06,330,34,86,33,023,35,77,55,326,35,75,10,151,34*66
$GLGSV,2,2,07,87,60,299,36,88,19,243,,71,00,000,*57
$GAGSV,2,1,08,17,29,039,40,09,12,316,,10,63,333,,11,55,116,*6F
$GAGSV,2,2,08,12,05,129,,23,37,222,,24,84,019,,27,29,125,*61
$PQGSV,1,1,0,0*43
$PQGSV,1,1,0,0*43
$GPGSA,A,3,02,04,07,08,13,25,,,,,,,1.2,0.9,0.8*3C
$GLGSA,A,3,75,77,78,86,87,,,,,,,,1.2,0.9,0.8*20
$GAGSA,A,3,17,,,,,,,,,,,,1.2,0.9,0.8*27
$GPVTG,1.7,T,1.7,M,75.8,N,140.4,K,A*18
$GPDTM,P90,,0000.000022,S,00000.000001,W,0.988,W84*5A
$GPRMC,000224.00,A,3000.008746,N,11959.998965,E,75.8,1.7,230721,4.3,W,A*14
$GPGGA,000224.00,3000.008746,N,11959.998965,E,1,12,0.9,-10.4,M,7.0,M,,*44

$GPGSV,3,1,12,02,31,298,37,04,50,246,37,07,83,113,38,08,46,206,37*74
$GPGSV,3,2,12,13,48,030,37,25,65,042,37,10,00,000,,16,00,000,*72
$GPGSV,3,3,12,20,21,120,,23,26,056,,27,17,217,,28,00,000,*73
$GLGSV,2,1,07,78,06,330,34,86,33,023,35,77,55,326,36,75,10,151,34*65
$GLGSV,2,2,07,87,60,299,36,88,19,243,,71,00,000,*57
$GAGSV,2,1,08,17,29,039,40,09,12,316,,10,63,333,,11,55,116,*6F
$GAGSV,2,2,08,12,05,129,,23,37,222,,24,84,019,,27,29,125,*61
$PQGSV,1,1,0,0*43
$PQGSV,1,1,0,0*43
$GPGSA,A,3,02,04,07,08,13,25,,,,,,,1.2,0.9,0.8*3C
$GLGSA,A,3,75,77,78,86,87,,,,,,,,1.2,0.9,0.8*20
$GAGSA,A,3,17,,,,,,,,,,,,1.2,0.9,0.8*27
$GPVTG,6.1,T,6.1,M,75.8,N,140.3,K,A*1F
$GPDTM,P90,,0000.000022,S,00000.000001,W,0.988,W84*5A
$GPRMC,000225.00,A,3000.029656,N,12000.000808,E,75.8,6.1,230721,4.3,W,A*13
$GPGGA,000225.00,3000.029656,N,12000.000808,E,1,12,0.9,-10.7,M,7.0,M,,*41

$GPGSV,3,1,12,02,31,298,37,04,50,246,37,07,83,113,38,08,46,206,37*74
$GPGSV,3,2,12,13,48,030,37,25,65,042,37,10,00,000,,16,00,000,*72
$GPGSV,3,3,12,20,21,120,,23,26,056,,27,17,217,,28,00,000,*73
$GLGSV,2,1,07,78,06,330,34,86,33,023,35,77,55,326,36,75,10,151,34*65
$GLGSV,2,2,07,87,60,299,36,88,19,243,,71,00,000,*57
$GAGSV,2,1,08,17,29,039,40,09,12,316,,10,63,333,,11,55,116,*6F
$GAGSV,2,2,08,12,05,129,,23,37,222,,24,84,019,,27,29,125,*61
$PQGSV,1,1,0,0*43
$PQGSV,1,1,0,0*43
$GPGSA,A,3,02,04,07,08,13,25,,,,,,,1.2,0.9,0.8*3C
$GLGSA,A,3,75,77,78,86,87,,,,,,,,1.2,0.9,0.8*20
$GAGSA,A,3,17,,,,,,,,,,,,1.2,0.9,0.8*27
$GPVTG,10.7,T,10.7,M,75.8,N,140.4,K,A*18
$GPDTM,P90,,0000.000022,S,00000.000001,W,0.988,W84*5A
$GPRMC,000226.00,A,3000.050522,N,12000.004425,E,75.8,10.7,230721,4.3,W,A*28
$GPGGA,000226.00,3000.050522,N,12000.004425,E,1,12,0.9,-11.0,M,7.0,M,,*4D

$GPGSV,3,1,12,02,31,298,37,04,50,246,37,07,83,113,38,08,46,206,37*74
$GPGSV,3,2,12,13,48,030,37,25,65,042,37,10,00,000,,16,00,000,*72
$GPGSV,3,3,12,20,21,120,,23,26,056,,27,17,217,,28,00,000,*73
$GLGSV,2,1,07,78,06,330,34,86,33,023,35,77,55,326,35,75,10,151,34*66
$GLGSV,2,2,07,87,60,299,36,88,19,243,,71,00,000,*57
$GAGSV,2,1,08,17,29,039,40,09,12,316,,10,63,333,,11,55,116,*6F
$GAGSV,2,2,08,12,05,129,,23,37,222,,24,84,019,,27,29,125,*61
$PQGSV,1,1,0,0*43
$PQGSV,1,1,0,0*43
$GPGSA,A,3,02,04,07,08,13,25,,,,,,,1.2,0.9,0.8*3C
$GLGSA,A,3,75,77,78,86,87,,,,,,,,1.2,0.9,0.8*20
$GAGSA,A,3,17,,,,,,,,,,,,1.2,0.9,0.8*27
$GPVTG,15.1,T,15.1,M,75.8,N,140.4,K,A*18
$GPDTM,P90,,0000.000022,S,00000.000001,W,0.988,W84*5A
$GPRMC,000227.00,A,3000.071038,N,12000.009929,E,75.8,15.1,230721,4.3,W,A*2B
$GPGGA,000227.00,3000.071038,N,12000.009929,E,1,12,0.9,-10.5,M,7.0,M,,*49

$GPGSV,3,1,12,02,31,298,37,04,50,246,37,07,83,113,38,08,46,206,37*74
$GPGSV,3,2,12,13,48,030,37,25,65,042,37,10,00,000,,16,00,000,*72
$GPGSV,3,3,12,20,21,120,,23,26,056,,27,17,217,,28,00,000,*73
$GLGSV,2,1,07,78,06,330,34,86,33,023,35,77,55,326,36,75,10,151,34*65
$GLGSV,2,2,07,87,60,299,36,88,19,243,,71,00,000,*57
$GAGSV,2,1,08,17,29,039,40,09,12,316,,10,63,333,,11,55,116,*6F
$GAGSV,2,2,08,12,05,129,,23,37,222,,24,84,019,,27,29,125,*61
$PQGSV,1,1,0,0*43
$PQGSV,1,1,0,0*43
$GPGSA,A,3,02,04,07,08,13,25,,,,,,,1.2,0.9,0.8*3C
$GLGSA,A,3,75,77,78,86,87,,,,,,,,1.2,0.9,0.8*20
$GAGSA,A,3,17,,,,,,,,,,,,1.2,0.9,0.8*27
$GPVTG,19.5,T,19.5,M,75.8,N,140.3,K,A*1F
$GPDTM,P90,,0000.000022,S,00000.000001,W,0.988,W84*5A
$GPRMC,000228.00,A,3000.091087,N,12000.017108,E,75.8,19.5,230721,4.3,W,A*22
$GPGGA,000228.00,3000.091087,N,12000.017108,E,1,12,0.9,-10.6,M,7.0,M,,*4B

$GPGSV,3,1,12,02,31,298,36,04,50,246,37,07,83,113,38,08,46,206,37*75
$GPGSV,3,2,12,13,48,030,37,25,65,042,38,10,00,000,,16,00,000,*7D
$GPGSV,3,3,12,20,21,120,,23,26,056,,27,17,217,,28,00,000,*73
$GLGSV,2,1,07,78,06,330,34,86,33,023,35,77,55,326,36,75,10,151,34*65
$GLGSV,2,2,07,87,60,299,36,88,19,243,,71,00,000,*57
$GAGSV,2,1,08,17,29,039,40,09,12,316,,10,63,333,,11,55,116,*6F
$GAGSV,2,2,08,12,05,129,,23,37,222,,24,84,019,,27,29,125,*61
$PQGSV,1,1,0,0*43
$PQGSV,1,1,0,0*43
$GPGSA,A,3,02,04,07,08,13,25,,,,,,,1.2,0.9,0.8*3C
$GLGSA,A,3,75,77,78,86,87,,,,,,,,1.2,0.9,0.8*20
$GAGSA,A,3,17,,,,,,,,,,,,1.2,0.9,0.8*27
$GPVTG,24.1,T,24.1,M,75.8,N,140.4,K,A*18
$GPDTM,P90,,0000.000022,S,00000.000001,W,0.988,W84*5A
$GPRMC,000229.00,A,3000.110597,N,12000.026245,E,75.8,24.1,230721,4.3,W,A*2D
$GPGGA,000229.00,3000.110597,N,12000.026245,E,1,12,0.9,-10.8,M,7.0,M,,*40

$GPGSV,3,1,12,02,31,298,37,04,50,246,37,07,83,113,38,08,46,206,37*74
$GPGSV,3,2,12,13,48,030,37,25,65,042,37,10,00,000,,16,00,000,*72
$GPGSV,3,3,12,20,21,120,,23,26,056,,27,17,217,,28,00,000,*73
$GLGSV,2,1,07,78,06,330,34,86,33,023,35,77,55,326,36,75,10,151,34*65
$GLGSV,2,2,07,87,60,299,36,88,19,243,,71,00,000,*57
$GAGSV,2,1,08,17,29,039,40,09,12,316,,10,63,333,,11,55,116,*6F
$GAGSV,2,2,08,12,05,129,,23,37,222,,24,84,019,,27,29,125,*61
$PQGSV,1,1,0,0*43
$PQGSV,1,1,0,0*43
$GPGSA,A,3,02,04,07,08,13,25,,,,,,,1.2,0.9,0.8*3C
$GLGSA,A,3,75,77,78,86,87,,,,,,,,1.2,0.9,0.8*20
$GAGSA,A,3,17,,,,,,,,,,,,1.2,0.9,0.8*27
$GPVTG,28.5,T,28.5,M,75.8,N,140.4,K,A*18
$GPDTM,P90,,0000.000022,S,00000.000001,W,0.988,W84*5A
$GPRMC,000230.00,A,3000.129508,N,12000.036923,E,75.8,28.5,230721,4.3,W,A*2B
$GPGGA,000230.00,3000.129508,N,12000.036923,E,1,12,0.9,-10.6,M,7.0,M,,*40

$GPGSV,3,1,12,02,31,298,36,04,50,246,37,07,83,113,38,08,46,206,37*75
$GPGSV,3,2,12,13,48,030,37,25,65,042,37,10,00,000,,16,00,000,*72
$GPGSV,3,3,12,20,21,120,,23,26,056,,27,17,217,,28,00,000,*73
$GLGSV,2,1,07,78,06,330,34,86,33,023,35,77,55,326,36,75,10,151,34*65
$GLGSV,2,2,07,87,60,299,36,88,19,243,,71,00,000,*57
$GAGSV,2,1,08,17,29,039,40,09,12,316,,10,63,333,,11,55,116,*6F
$GAGSV,2,2,08,12,05,129,,23,37,222,,24,84,019,,27,29,125,*61
$PQGSV,1,1,0,0*43
$PQGSV,1,1,0,0*43
$GPGSA,A,3,02,04,07,08,13,25,,,,,,,1.2,0.9,0.8*3C
$GLGSA,A,3,75,77,78,86,87,,,,,,,,1.2,0.9,0.8*20
$GAGSA,A,3,17,,,,,,,,,,,,1.2,0.9,0.8*27
$GPVTG,32.9,T,32.9,M,75.8,N,140.3,K,A*1F
$GPDTM,P90,,0000.000022,S,00000.000001,W,0.988,W84*5A
$GPRMC,000231.00,A,3000.147597,N,12000.049402,E,75.8,32.9,230721,4.3,W,A*25
$GPGGA,000231.00,3000.147597,N,12000.049402,E,1,12,0.9,-10.4,M,7.0,M,,*4B

$GPGSV,3,1,12,02,31,298,37,04,50,246,37,07,83,113,38,08,46,206,37*74
$GPGSV,3,2,12,13,48,030,37,25,65,042,38,10,00,000,,16,00,000,*7D
$GPGSV,3,3,12,20,21,120,,23,26,056,,27,17,217,,28,00,000,*73
$GLGSV,2,1,07,78,06,330,34,86,33,023,35,77,55,326,35,75,10,151,34*66
$GLGSV,2,2,07,87,60,299,36,88,19,243,,71,00,000,*57
$GAGSV,2,1,08,17,29,039,40,09,12,316,,10,63,333,,11,55,116,*6F
$GAGSV,2,2,08,12,05,129,,23,37,222,,24,84,019,,27,29,125,*61
$PQGSV,1,1,0,0*43
$PQGSV,1,1,0,0*43
$GPGSA,A,3,02,04,07,08,13,25,,,,,,,1.2,0.9,0.8*3C
$GLGSA,A,3,75,77,78,86,87,,,,,,,,1.2,0.9,0.8*20
$GAGSA,A,3,17,,,,,,,,,,,,1.2,0.9,0.8*27
$GPVTG,37.4,T,37.4,M,75.8,N,140.4,K,A*18
$GPDTM,P90,,0000.000022,S,00000.000001,W,0.988,W84*5A
$GPRMC,000232.00,A,3000.164653,N,12000.063347,E,75.8,37.4,230721,4.3,W,A*2A
$GPGGA,000232.00,3000.164653,N,12000.063347,E,1,12,0.9,-9.9,M,7.0,M,,*79

$GPGSV,3,1,12,02,31,298,36,04,50,246,37,07,83,113,38,08,46,206,37*75
$GPGSV,3,2,12,13,48,030,37,25,65,042,37,10,00,000,,16,00,000,*72
$GPGSV,3,3,12,20,21,120,,23,26,056,,27,17,217,,28,00,000,*73
$GLGSV,2,1,07,78,06,330,34,86,33,023,34,77,55,326,35,75,10,151,34*67
$GLGSV,2,2,07,87,60,299,36,88,19,243,,71,00,000,*57
$GAGSV,2,1,08,17,29,039,40,09,12,316,,10,63,333,,11,55,116,*6F
$GAGSV,2,2,08,12,05,129,,23,37,222,,24,84,019,,27,29,125,*61
$PQGSV,1,1,0,0*43
$PQGSV,1,1,0,0*43
$GPGSA,A,3,02,04,07,08,13,25,,,,,,,1.2,0.9,0.8*3C
$GLGSA,A,3,75,77,78,86,87,,,,,,,,1.2,0.9,0.8*20
$GAGSA,A,3,17,,,,,,,,,,,,1.2,0.9,0.8*27
$GPVTG,41.8,T,41.8,M,75.8,N,140.3,K,A*1F
$GPDTM,P90,,0000.000022,S,00000.000001,W,0.988,W84*5A
$GPRMC,000233.00,A,3000.181207,N,12000.078707,E,75.8,41.8,230721,4.3,W,A*22
$GPGGA,000233.00,3000.181207,N,12000.078707,E,1,12,0.9,-10.4,M,7.0,M,,*49

$GPGSV,3,1,12,02,31,298,37,04,50,246,37,07,83,113,38,08,46,206,37*74
$GPGSV,3,2,12,13,48,030,37,25,65,042,37,10,00,000,,16,00,000,*72
$GPGSV,3,3,12,20,21,120,,23,26,056,,27,17,217,,28,00,000,*73
$GLGSV,2,1,07,78,06,330,34,86,33,023,35,77,55,326,35,75,10,151,34*66
$GLGSV,2,2,07,87,60,299,36,88,19,243,,71,00,000,*57
$GAGSV,2,1,08,17,29,039,40,09,12,316,,10,63,333,,11,55,116,*6F
$GAGSV,2,2,08,12,05,129,,23,37,222,,24,84,019,,27,29,125,*61
$PQGSV,1,1,0,0*43
$PQGSV,1,1,0,0*43
$GPGSA,A,3,02,04,07,08,13,25,,,,,,,1.2,0.9,0.8*3C
$GLGSA,A,3,75,77,78,86,87,,,,,,,,1.2,0.9,0.8*20
$GAGSA,A,3,17,,,,,,,,,,,,1.2,0.9,0.8*27
$GPVTG,46.3,T,46.3,M,75.9,N,140.5,K,A*18
$GPDTM,P90,,0000.000022,S,00000.000001,W,0.988,W84*5A
$GPRMC,000234.00,A,3000.196476,N,12000.095374,E,75.9,46.3,230721,4.3,W,A*2D
$GPGGA,000234.00,3000.196476,N,12000.095374,E,1,12,0.9,-10.7,M,7.0,M,,*48

$GPGSV,3,1,12,02,31,298,37,04,50,246,37,07,83,113,38,08,46,206,37*74
$GPGSV,3,2,12,13,48,030,38,25,65,042,38,10,00,000,,16,00,000,*72
$GPGSV,3,3,12,20,21,120,,23,26,056,,27,17,217,,28,00,000,*73
$GLGSV,2,1,07,78,06,330,34,86,33,023,35,77,55,326,35,75,10,151,34*66
$GLGSV,2,2,07,87,60,299,36,88,19,243,,71,00,000,*57
$GAGSV,2,1,08,17,29,039,40,09,12,316,,10,63,333,,11,55,116,*6F
$GAGSV,2,2,08,12,05,129,,23,37,222,,24,84,019,,27,29,125,*61
$PQGSV,1,1,0,0*43
$PQGSV,1,1,0,0*43
$GPGSA,A,3,02,04,07,08,13,25,,,,,,,1.2,0.9,0.8*3C
$GLGSA,A,3,75,77,78,86,87,,,,,,,,1.2,0.9,0.8*20
$GAGSA,A,3,17,,,,,,,,,,,,1.2,0.9,0.8*27
$GPVTG,50.7,T,50.7,M,75.8,N,140.3,K,A*1F
$GPDTM,P90,,0000.000022,S,00000.000001,W,0.988,W84*5A
$GPRMC,000235.00,A,3000.210502,N,12000.113390,E,75.8,50.7,230721,4.3,W,A*24
$GPGGA,000235.00,3000.210502,N,12000.113390,E,1,12,0.9,-10.8,M,7.0,M,,*4C

$GPGSV,3,1,12,02,31,298,37,04,50,246,37,07,83,113,38,08,46,206,37*74
$GPGSV,3,2,12,13,48,030,37,25,65,042,38,10,00,000,,16,00,000,*7D
$GPGSV,3,3,12,20,21,120,,23,26,056,,27,17,217,,28,00,000,*73
$GLGSV,2,1,07,78,06,330,34,86,33,023,35,77,55,326,36,75,10,151,34*65
$GLGSV,2,2,07,87,60,299,36,88,19,243,,71,00,000,*57
$GAGSV,2,1,08,17,29,039,41,09,12,316,,10,63,333,,11,55,116,*6E
$GAGSV,2,2,08,12,05,129,,23,37,222,,24,84,019,,27,29,125,*61
$PQGSV,1,1,0,0*43
$PQGSV,1,1,0,0*43
$GPGSA,A,3,02,04,07,08,13,25,,,,,,,1.2,0.9,0.8*3C
$GLGSA,A,3,75,77,78,86,87,,,,,,,,1.2,0.9,0.8*20
$GAGSA,A,3,17,,,,,,,,,,,,1.2,0.9,0.8*27
$GPVTG,55.2,T,55.2,M,75.8,N,140.5,K,A*19
$GPDTM,P90,,0000.000022,S,00000.000001,W,0.988,W84*5A
$GPRMC,000236.00,A,3000.223406,N,12000.132800,E,75.8,55.2,230721,4.3,W,A*23
$GPGGA,000236.00,3000.223406,N,12000.132800,E,1,12,0.9,-10.6,M,7.0,M,,*45

$GPGSV,3,1,12,02,31,298,37,04,50,246,37,07,83,113,38,08,46,206,37*74
$GPGSV,3,2,12,13,48,030,37,25,65,042,37,10,00,000,,16,00,000,*72
$GPGSV,3,3,12,20,21,120,,23,26,056,,27,17,217,,28,00,000,*73
$GLGSV,2,1,07,78,06,330,34,86,33,023,35,77,55,326,35,75,10,151,34*66
$GLGSV,2,2,07,87,60,299,36,88,19,243,,71,00,000,*57
$GAGSV,2,1,08,17,29,039,40,09,12,316,,10,63,333,,11,55,116,*6F
$GAGSV,2,2,08,12,05,129,,23,37,222,,24,84,019,,27,29,125,*61
$PQGSV,1,1,0,0*43
$PQGSV,1,1,0,0*43
$GPGSA,A,3,02,04,07,08,13,25,,,,,,,1.2,0.9,0.8*3C
$GLGSA,A,3,75,77,78,86,87,,,,,,,,1.2,0.9,0.8*20
$GAGSA,A,3,17,,,,,,,,,,,,1.2,0.9,0.8*27
$GPVTG,59.6,T,59.6,M,75.7,N,140.3,K,A*10
$GPDTM,P90,,0000.000022,S,00000.000001,W,0.988,W84*5A
$GPRMC,000237.00,A,3000.234552,N,12000.153121,E,75.7,59.6,230721,4.3,W,A*2E
$GPGGA,000237.00,3000.234552,N,12000.153121,E,1,12,0.9,-10.2,M,7.0,M,,*4B

$GPGSV,3,1,12,02,31,298,37,04,50,246,37,07,83,113,38,08,46,206,37*74
$GPGSV,3,2,12,13,48,030,37,25,65,042,37,10,00,000,,16,00,000,*72
$GPGSV,3,3,12,20,21,120,,23,26,056,,27,17,217,,28,00,000,*73
$GLGSV,2,1,07,78,06,330,34,86,33,023,35,77,55,326,36,75,10,151,34*65
$GLGSV,2,2,07,87,60,299,36,88,19,243,,71,00,000,*57
$GAGSV,2,1,08,17,29,039,40,09,12,316,,10,63,333,,11,55,116,*6F
$GAGSV,2,2,08,12,05,129,,23,37,222,,24,84,019,,27,29,125,*61
$PQGSV,1,1,0,0*43
$PQGSV,1,1,0,0*43
$GPGSA,A,3,02,04,07,08,13,25,,,,,,,1.2,0.9,0.8*3C
$GLGSA,A,3,75,77,78,86,87,,,,,,,,1.2,0.9,0.8*20
$GAGSA,A,3,17,,,,,,,,,,,,1.2,0.9,0.8*27
$GPVTG,64.1,T,64.1,M,75.8,N,140.5,K,A*19
$GPDTM,P90,,0000.000022,S,00000.000001,W,0.988,W84*5A
$GPRMC,000238.00,A,3000.244349,N,12000.174747,E,75.8,64.1,230721,4.3,W,A*2F
$GPGGA,000238.00,3000.244349,N,12000.174747,E,1,12,0.9,-10.5,M,7.0,M,,*4B

$GPGSV,3,1,12,02,31,298,36,04,50,246,37,07,83,113,38,08,46,206,37*75
$GPGSV,3,2,12,13,48,030,37,25,65,042,37,10,00,000,,16,00,000,*72
$GPGSV,3,3,12,20,21,120,,23,26,056,,27,17,217,,28,00,000,*73
$GLGSV,2,1,07,78,06,330,34,86,33,023,35,77,55,326,35,75,10,151,34*66
$GLGSV,2,2,07,87,60,299,36,88,19,243,,71,00,000,*57
$GAGSV,2,1,08,17,29,039,40,09,12,316,,10,63,333,,11,55,116,*6F
$GAGSV,2,2,08,12,05,129,,23,37,222,,24,84,019,,27,29,125,*61
$PQGSV,1,1,0,0*43
$PQGSV,1,1,0,0*43
$GPGSA,A,3,02,04,07,08,13,25,,,,,,,1.2,0.9,0.8*3C
$GLGSA,A,3,75,77,78,86,87,,,,,,,,1.2,0.9,0.8*20
$GAGSA,A,3,17,,,,,,,,,,,,1.2,0.9,0.8*27
$GPVTG,68.6,T,68.6,M,75.8,N,140.3,K,A*1F
$GPDTM,P90,,0000.000022,S,00000.000001,W,0.988,W84*5A
$GPRMC,000239.00,A,3000.252564,N,12000.197013,E,75.8,68.6,230721,4.3,W,A*20
$GPGGA,000239.00,3000.252564,N,12000.197013,E,1,12,0.9,-10.6,M,7.0,M,,*4C

$GPGSV,3,1,12,02,31,298,37,04,50,246,37,07,83,113,38,08,46,206,37*74
$GPGSV,3,2,12,13,48,030,37,25,65,042,37,10,00,000,,16,00,000,*72
$GPGSV,3,3,12,20,21,120,,23,26,056,,27,17,217,,28,00,000,*73
$GLGSV,2,1,07,78,06,330,34,86,33,023,35,77,55,326,35,75,10,151,34*66
$GLGSV,2,2,07,87,60,299,36,88,19,243,,71,00,000,*57
$GAGSV,2,1,08,17,29,039,40,09,12,316,,10,63,333,,11,55,116,*6F
$GAGSV,2,2,08,12,05,129,,23,37,222,,24,84,019,,27,29,125,*61
$PQGSV,1,1,0,0*43
$PQGSV,1,1,0,0*43
$GPGSA,A,3,02,04,07,08,13,25,,,,,,,1.2,0.9,0.8*3C
$GLGSA,A,3,75,77,78,86,87,,,,,,,,1.2,0.9,0.8*20
$GAGSA,A,3,17,,,,,,,,,,,,1.2,0.9,0.8*27
$GPVTG,73.0,T,73.0,M,75.8,N,140.4,K,A*18
$GPDTM,P90,,0000.000022,S,00000.000001,W,0.988,W84*5A
$GPRMC,000240.00,A,3000.259350,N,12000.219861,E,75.8,73.0,230721,4.3,W,A*20
$GPGGA,000240.00,3000.259350,N,12000.219861,E,1,12,0.9,-10.2,M,7.0,M,,*44

$GPGSV,3,1,12,02,31,298,37,04,50,246,37,07,83,113,38,08,46,206,37*74
$GPGSV,3,2,12,13,48,030,37,25,65,042,37,10,00,000,,16,00,000,*72
$GPGSV,3,3,12,20,21,120,,23,26,056,,27,17,217,,28,00,000,*73
$GLGSV,2,1,07,78,06,330,34,86,33,023,35,77,55,326,35,75,10,151,34*66
$GLGSV,2,2,07,87,60,299,36,88,19,243,,71,00,000,*57
$GAGSV,2,1,08,17,29,039,40,09,12,316,,10,63,333,,11,55,116,*6F
$GAGSV,2,2,08,12,05,129,,23,37,222,,24,84,019,,27,29,125,*61
$PQGSV,1,1,0,0*43
$PQGSV,1,1,0,0*43
$GPGSA,A,3,02,04,07,08,13,25,,,,,,,1.2,0.9,0.8*3C
$GLGSA,A,3,75,77,78,86,87,,,,,,,,1.2,0.9,0.8*20
$GAGSA,A,3,17,,,,,,,,,,,,1.2,0.9,0.8*27
$GPVTG,77.5,T,77.5,M,75.8,N,140.4,K,A*18
$GPDTM,P90,,0000.000022,S,00000.000001,W,0.988,W84*5A
$GPRMC,000241.00,A,3000.264332,N,12000.243449,E,75.8,77.5,230721,4.3,W,A*23
$GPGGA,000241.00,3000.264332,N,12000.243449,E,1,12,0.9,-10.4,M,7.0,M,,*40

$GPGSV,3,1,12,02,31,298,36,04,50,246,37,07,83,113,38,08,46,206,37*75
$GPGSV,3,2,12,13,48,030,37,25,65,042,38,10,00,000,,16,00,000,*7D
$GPGSV,3,3,12,20,21,120,,23,26,056,,27,17,217,,28,00,000,*73
$GLGSV,2,1,07,78,06,330,34,86,33,023,35,77,55,326,36,75,10,151,34*65
$GLGSV,2,2,07,87,60,299,36,88,19,243,,71,00,000,*57
$GAGSV,2,1,08,17,29,039,40,09,12,316,,10,63,333,,11,55,116,*6F
$GAGSV,2,2,08,12,05,129,,23,37,222,,24,84,019,,27,29,125,*61
$PQGSV,1,1,0,0*43
$PQGSV,1,1,0,0*43
$GPGSA,A,3,02,04,07,08,13,25,,,,,,,1.2,0.9,0.8*3C
$GLGSA,A,3,75,77,78,86,87,,,,,,,,1.2,0.9,0.8*20
$GAGSA,A,3,17,,,,,,,,,,,,1.2,0.9,0.8*27
$GPVTG,81.9,T,81.9,M,75.7,N,140.3,K,A*10
$GPDTM,P90,,0000.000022,S,00000.000001,W,0.988,W84*5A
$GPRMC,000242.00,A,3000.268258,N,12000.267102,E,75.7,81.9,230721,4.3,W,A*27
$GPGGA,000242.00,3000.268258,N,12000.267102,E,1,12,0.9,-11.1,M,7.0,M,,*4A

$GPGSV,3,1,12,02,31,298,37,04,50,246,37,07,83,113,38,08,46,206,37*74
$GPGSV,3,2,12,13,48,030,37,25,65,042,38,10,00,000,,16,00,000,*7D
$GPGSV,3,3,12,20,21,120,,23,26,056,,27,17,217,,28,00,000,*73
$GLGSV,2,1,07,78,06,330,34,86,33,023,35,77,55,326,35,75,10,151,34*66
$GLGSV,2,2,07,87,60,299,36,88,19,243,,71,00,000,*57
$GAGSV,2,1,08,17,29,039,40,09,12,316,,10,63,333,,11,55,116,*6F
$GAGSV,2,2,08,12,05,129,,23,37,222,,24,84,019,,27,29,125,*61
$PQGSV,1,1,0,0*43
$PQGSV,1,1,0,0*43
$GPGSA,A,3,02,04,07,08,13,25,,,,,,,1.2,0.9,0.8*3C
$GLGSA,A,3,75,77,78,86,87,,,,,,,,1.2,0.9,0.8*20
$GAGSA,A,3,17,,,,,,,,,,,,1.2,0.9,0.8*27
$GPVTG,86.4,T,86.4,M,75.8,N,140.3,K,A*1F
$GPDTM,P90,,0000.000022,S,00000.000001,W,0.988,W84*5A
$GPRMC,000243.00,A,3000.270464,N,12000.291279,E,75.8,86.4,230721,4.3,W,A*25
$GPGGA,000243.00,3000.270464,N,12000.291279,E,1,12,0.9,-10.7,M,7.0,M,,*4A

$GPGSV,3,1,12,02,31,298,37,04,50,246,37,07,83,113,38,08,46,206,37*74
$GPGSV,3,2,12,13,48,030,37,25,65,042,37,10,00,000,,16,00,000,*72
$GPGSV,3,3,12,20,21,120,,23,26,056,,27,17,217,,28,00,000,*73
$GLGSV,2,1,07,78,06,330,34,86,33,023,34,77,55,326,36,75,10,151,34*64
$GLGSV,2,2,07,87,60,299,36,88,19,243,,71,00,000,*57
$GAGSV,2,1,08,17,29,039,40,09,12,316,,10,63,333,,11,55,116,*6F
$GAGSV,2,2,08,12,05,129,,23,37,222,,24,84,019,,27,29,125,*61
$PQGSV,1,1,0,0*43
$PQGSV,1,1,0,0*43
$GPGSA,A,3,02,04,07,08,13,25,,,,,,,1.2,0.9,0.8*3C
$GLGSA,A,3,75,77,78,86,87,,,,,,,,1.2,0.9,0.8*20
$GAGSA,A,3,17,,,,,,,,,,,,1.2,0.9,0.8*27
$GPVTG,90.8,T,90.8,M,75.8,N,140.3,K,A*1F
$GPDTM,P90,,0000.000022,S,00000.000001,W,0.988,W84*5A
$GPRMC,000244.00,A,3000.271083,N,12000.315562,E,75.8,90.8,230721,4.3,W,A*25
$GPGGA,000244.00,3000.271083,N,12000.315562,E,1,12,0.9,-10.6,M,7.0,M,,*40

$GPGSV,3,1,12,02,31,298,37,04,50,246,37,07,83,113,38,08,46,206,37*74
$GPGSV,3,2,12,13,48,030,37,25,65,042,38,10,00,000,,16,00,000,*7D
$GPGSV,3,3,12,20,21,120,,23,26,056,,27,17,217,,28,00,000,*73
$GLGSV,2,1,07,78,06,330,34,86,33,023,34,77,55,326,36,75,10,151,34*64
$GLGSV,2,2,07,87,60,299,36,88,19,243,,71,00,000,*57
$GAGSV,2,1,08,17,29,039,40,09,12,316,,10,63,333,,11,55,116,*6F
$GAGSV,2,2,08,12,05,129,,23,37,222,,24,84,019,,27,29,125,*61
$PQGSV,1,1,0,0*43
$PQGSV,1,1,0,0*43
$GPGSA,A,3,02,04,07,08,13,25,,,,,,,1.2,0.9,0.8*3C
$GLGSA,A,3,75,77,78,86,87,,,,,,,,1.2,0.9,0.8*20
$GAGSA,A,3,17,,,,,,,,,,,,1.2,0.9,0.8*27
$GPVTG,95.3,T,95.3,M,75.7,N,140.3,K,A*10
$GPDTM,P90,,0000.000022,S,00000.000001,W,0.988,W84*5A
$GPRMC,000245.00,A,3000.269929,N,12000.339628,E,75.7,95.3,230721,4.3,W,A*26
$GPGGA,000245.00,3000.269929,N,12000.339628,E,1,12,0.9,-10.7,M,7.0,M,,*43

$GPGSV,3,1,12,02,31,298,36,04,50,246,37,07,83,113,38,08,46,206,37*75
$GPGSV,3,2,12,13,48,030,37,25,65,042,37,10,00,000,,16,00,000,*72
$GPGSV,3,3,12,20,21,120,,23,26,056,,27,17,217,,28,00,000,*73
$GLGSV,2,1,07,78,06,330,34,86,33,023,35,77,55,326,36,75,10,151,34*65
$GLGSV,2,2,07,87,60,299,36,88,19,243,,71,00,000,*57
$GAGSV,2,1,08,17,29,039,40,09,12,316,,10,63,333,,11,55,116,*6F
$GAGSV,2,2,08,12,05,129,,23,37,222,,24,84,019,,27,29,125,*61
$PQGSV,1,1,0,0*43
$PQGSV,1,1,0,0*43
$GPGSA,A,3,02,04,07,08,13,25,,,,,,,1.2,0.9,0.8*3C
$GLGSA,A,3,75,77,78,86,87,,,,,,,,1.2,0.9,0.8*20
$GAGSA,A,3,17,,,,,,,,,,,,1.2,0.9,0.8*27
$GPVTG,99.8,T,99.8,M,75.8,N,140.4,K,A*18
$GPDTM,P90,,0000.000022,S,00000.000001,W,0.988,W84*5A
$GPRMC,000246.00,A,3000.266774,N,12000.364073,E,75.8,99.8,230721,4.3,W,A*24
$GPGGA,000246.00,3000.266774,N,12000.364073,E,1,12,0.9,-11.2,M,7.0,M,,*4D

$GPGSV,3,1,12,02,31,298,37,04,50,246,37,07,83,113,38,08,46,206,37*74
$GPGSV,3,2,12,13,48,030,37,25,65,042,37,10,00,000,,16,00,000,*72
$GPGSV,3,3,12,20,21,120,,23,26,056,,27,17,217,,28,00,000,*73
$GLGSV,2,1,07,78,06,330,34,86,33,023,35,77,55,326,36,75,10,151,34*65
$GLGSV,2,2,07,87,60,299,36,88,19,243,,71,00,000,*57
$GAGSV,2,1,08,17,29,039,40,09,12,316,,10,63,333,,11,55,116,*6F
$GAGSV,2,2,08,12,05,129,,23,37,222,,24,84,019,,27,29,125,*61
$PQGSV,1,1,0,0*43
$PQGSV,1,1,0,0*43
$GPGSA,A,3,02,04,07,08,13,25,,,,,,,1.2,0.9,0.8*3C
$GLGSA,A,3,75,77,78,86,87,,,,,,,,1.2,0.9,0.8*20
$GAGSA,A,3,17,,,,,,,,,,,,1.2,0.9,0.8*27
$GPVTG,104.2,T,104.2,M,75.7,N,140.2,K,A*11
$GPDTM,P90,,0000.000022,S,00000.000001,W,0.988,W84*5A
$GPRMC,000247.00,A,3000.262738,N,12000.387450,E,75.7,104.2,230721,4.3,W,A*11
$GPGGA,000247.00,3000.262738,N,12000.387450,E,1,12,0.9,-11.4,M,7.0,M,,*4E

$GPGSV,3,1,12,02,31,298,37,04,50,246,37,07,83,113,38,08,46,206,37*74
$GPGSV,3,2,12,13,48,030,37,25,65,042,37,10,00,000,,16,00,000,*72
$GPGSV,3,3,12,20,21,120,,23,26,056,,27,17,217,,28,00,000,*73
$GLGSV,2,1,07,78,06,330,34,86,33,023,34,77,55,326,35,75,10,151,34*67
$GLGSV,2,2,07,87,60,299,36,88,19,243,,71,00,000,*57
$GAGSV,2,1,08,17,29,039,40,09,12,316,,10,63,333,,11,55,116,*6F
$GAGSV,2,2,08,12,05,129,,23,37,222,,24,84,019,,27,29,125,*61
$PQGSV,1,1,0,0*43
$PQGSV,1,1,0,0*43
$GPGSA,A,3,02,04,07,08,13,25,,,,,,,1.2,0.9,0.8*3C
$GLGSA,A,3,75,77,78,86,87,,,,,,,,1.2,0.9,0.8*20
$GAGSA,A,3,17,,,,,,,,,,,,1.2,0.9,0.8*27
$GPVTG,108.7,T,108.7,M,75.8,N,140.4,K,A*18
$GPDTM,P90,,0000.000022,S,00000.000001,W,0.988,W84*5A
$GPRMC,000248.00,A,3000.256670,N,12000.410549,E,75.8,108.7,230721,4.3,W,A*12
$GPGGA,000248.00,3000.256670,N,12000.410549,E,1,12,0.9,-11.7,M,7.0,M,,*48

$GPGSV,3,1,12,02,31,298,36,04,50,246,37,07,83,113,38,08,46,206,37*75
$GPGSV,3,2,12,13,48,030,37,25,65,042,37,10,00,000,,16,00,000,*72
$GPGSV,3,3,12,20,21,120,,23,26,056,,27,17,217,,28,00,000,*73
$GLGSV,2,1,07,78,06,330,34,86,33,023,35,77,55,326,36,75,10,151,35*64
$GLGSV,2,2,07,87,60,299,36,88,19,243,,71,00,000,*57
$GAGSV,2,1,08,17,29,039,40,09,12,316,,10,63,333,,11,55,116,*6F
$GAGSV,2,2,08,12,05,129,,23,37,222,,24,84,019,,27,29,125,*61
$PQGSV,1,1,0,0*43
$PQGSV,1,1,0,0*43
$GPGSA,A,3,02,04,07,08,13,25,,,,,,,1.2,0.9,0.8*3C
$GLGSA,A,3,75,77,78,86,87,,,,,,,,1.2,0.9,0.8*20
$GAGSA,A,3,17,,,,,,,,,,,,1.2,0.9,0.8*27
$GPVTG,113.1,T,113.1,M,75.7,N,140.3,K,A*10
$GPDTM,P90,,0000.000022,S,00000.000001,W,0.988,W84*5A
$GPRMC,000249.00,A,3000.249158,N,12000.433014,E,75.7,113.1,230721,4.3,W,A*1F
$GPGGA,000249.00,3000.249158,N,12000.433014,E,1,12,0.9,-11.8,M,7.0,M,,*49

$GPGSV,3,1,12,02,31,298,37,04,50,246,37,07,83,113,38,08,46,206,37*74
$GPGSV,3,2,12,13,48,030,37,25,65,042,37,10,00,000,,16,00,000,*72
$GPGSV,3,3,12,20,21,120,,23,26,056,,27,17,217,,28,00,000,*73
$GLGSV,2,1,07,78,06,330,34,86,33,023,35,77,55,326,35,75,10,151,34*66
$GLGSV,2,2,07,87,60,299,36,88,19,243,,71,00,000,*57
$GAGSV,2,1,08,17,29,039,40,09,12,316,,10,63,333,,11,55,116,*6F
$GAGSV,2,2,08,12,05,129,,23,37,222,,24,84,019,,27,29,125,*61
$PQGSV,1,1,0,0*43
$PQGSV,1,1,0,0*43
$GPGSA,A,3,02,04,07,08,13,25,,,,,,,1.2,0.9,0.8*3C
$GLGSA,A,3,75,77,78,86,87,,,,,,,,1.2,0.9,0.8*20
$GAGSA,A,3,17,,,,,,,,,,,,1.2,0.9,0.8*27
$GPVTG,117.6,T,117.6,M,75.7,N,140.2,K,A*11
$GPDTM,P90,,0000.000022,S,00000.000001,W,0.988,W84*5A
$GPRMC,000250.00,A,3000.239969,N,12000.454842,E,75.7,117.6,230721,4.3,W,A*13
$GPGGA,000250.00,3000.239969,N,12000.454842,E,1,12,0.9,-11.9,M,7.0,M,,*47

$GPGSV,3,1,12,02,31,298,37,04,50,246,37,07,83,113,38,08,46,206,37*74
$GPGSV,3,2,12,13,48,030,37,25,65,042,37,10,00,000,,16,00,000,*72
$GPGSV,3,3,12,20,21,120,,23,26,056,,27,17,217,,28,00,000,*73
$GLGSV,2,1,07,78,06,330,34,86,33,023,35,77,55,326,36,75,10,151,34*65
$GLGSV,2,2,07,87,60,299,36,88,19,243,,71,00,000,*57
$GAGSV,2,1,08,17,29,039,40,09,12,316,,10,63,333,,11,55,116,*6F
$GAGSV,2,2,08,12,05,129,,23,37,222,,24,84,019,,27,29,125,*61
$PQGSV,1,1,0,0*43
$PQGSV,1,1,0,0*43
$GPGSA,A,3,02,04,07,08,13,25,,,,,,,1.2,0.9,0.8*3C
$GLGSA,A,3,75,77,78,86,87,,,,,,,,1.2,0.9,0.8*20
$GAGSA,A,3,17,,,,,,,,,,,,1.2,0.9,0.8*27
$GPVTG,122.0,T,122.0,M,75.8,N,140.4,K,A*18
$GPDTM,P90,,0000.000022,S,00000.000001,W,0.988,W84*5A
$GPRMC,000251.00,A,3000.229378,N,12000.475927,E,75.8,122.0,230721,4.3,W,A*17
$GPGGA,000251.00,3000.229378,N,12000.475927,E,1,12,0.9,-12.2,M,7.0,M,,*44

$GPGSV,3,1,12,02,31,298,36,04,50,246,37,07,83,113,38,08,46,206,37*75
$GPGSV,3,2,12,13,48,030,37,25,65,042,37,10,00,000,,16,00,000,*72
$GPGSV,3,3,12,20,21,120,,23,26,056,,27,17,217,,28,00,000,*73
$GLGSV,2,1,07,78,06,330,34,86,33,023,35,77,55,326,35,75,10,151,34*66
$GLGSV,2,2,07,87,60,299,36,88,19,243,,71,00,000,*57
$GAGSV,2,1,08,17,29,039,40,09,12,316,,10,63,333,,11,55,116,*6F
$GAGSV,2,2,08,12,05,129,,23,37,222,,24,84,019,,27,29,125,*61
$PQGSV,1,1,0,0*43
$PQGSV,1,1,0,0*43
$GPGSA,A,3,02,04,07,08,13,25,,,,,,,1.2,0.9,0.8*3C
$GLGSA,A,3,75,77,78,86,87,,,,,,,,1.2,0.9,0.8*20
$GAGSA,A,3,17,,,,,,,,,,,,1.2,0.9,0.8*27
$GPVTG,126.5,T,126.5,M,75.8,N,140.4,K,A*18
$GPDTM,P90,,0000.000022,S,00000.000001,W,0.988,W84*5A
$GPRMC,000252.00,A,3000.217634,N,12000.495965,E,75.8,126.5,230721,4.3,W,A*1D
$GPGGA,000252.00,3000.217634,N,12000.495965,E,1,12,0.9,-12.1,M,7.0,M,,*4C

$GPGSV,3,1,12,02,31,298,37,04,50,246,37,07,83,113,38,08,46,206,37*74
$GPGSV,3,2,12,13,48,030,37,25,65,042,37,10,00,000,,16,00,000,*72
$GPGSV,3,3,12,20,21,120,,23,26,056,,27,17,217,,28,00,000,*73
$GLGSV,2,1,07,78,06,330,34,86,33,023,35,77,55,326,36,75,10,151,34*65
$GLGSV,2,2,07,87,60,299,36,88,19,243,,71,00,000,*57
$GAGSV,2,1,08,17,29,039,40,09,12,316,,10,63,333,,11,55,116,*6F
$GAGSV,2,2,08,12,05,129,,23,37,222,,24,84,019,,27,29,125,*61
$PQGSV,1,1,0,0*43
$PQGSV,1,1,0,0*43
$GPGSA,A,3,02,04,07,08,13,25,,,,,,,1.2,0.9,0.8*3C
$GLGSA,A,3,75,77,78,86,87,,,,,,,,1.2,0.9,0.8*20
$GAGSA,A,3,17,,,,,,,,,,,,1.2,0.9,0.8*27
$GPVTG,131.0,T,131.0,M,75.7,N,140.3,K,A*10
$GPDTM,P90,,0000.000022,S,00000.000001,W,0.988,W84*5A
$GPRMC,000253.00,A,3000.204472,N,12000.514769,E,75.7,131.0,230721,4.3,W,A*18
$GPGGA,000253.00,3000.204472,N,12000.514769,E,1,12,0.9,-11.6,M,7.0,M,,*41

$GPGSV,3,1,12,02,31,298,37,04,50,246,37,07,83,113,38,08,46,206,37*74
$GPGSV,3,2,12,13,48,030,37,25,65,042,37,10,00,000,,16,00,000,*72
$GPGSV,3,3,12,20,21,120,,23,26,056,,27,17,217,,28,00,000,*73
$GLGSV,2,1,07,78,06,330,34,86,33,023,35,77,55,326,36,75,10,151,34*65
$GLGSV,2,2,07,87,60,299,36,88,19,243,,71,00,000,*57
$GAGSV,2,1,08,17,29,039,40,09,12,316,,10,63,333,,11,55,116,*6F
$GAGSV,2,2,08,12,05,129,,23,37,222,,24,84,019,,27,29,125,*61
$PQGSV,1,1,0,0*43
$PQGSV,1,1,0,0*43
$GPGSA,A,3,02,04,07,08,13,25,,,,,,,1.2,0.9,0.8*3C
$GLGSA,A,3,75,77,78,86,87,,,,,,,,1.2,0.9,0.8*20
$GAGSA,A,3,17,,,,,,,,,,,,1.2,0.9,0.8*27
$GPVTG,135.4,T,135.4,M,75.9,N,140.5,K,A*18
$GPDTM,P90,,0000.000022,S,00000.000001,W,0.988,W84*5A
$GPRMC,000254.00,A,3000.190081,N,12000.532393,E,75.9,135.4,230721,4.3,W,A*12
$GPGGA,000254.00,3000.190081,N,12000.532393,E,1,12,0.9,-11.3,M,7.0,M,,*40

$GPGSV,3,1,12,02,31,298,37,04,50,246,37,07,83,113,38,08,46,206,37*74
$GPGSV,3,2,12,13,48,030,37,25,65,042,37,10,00,000,,16,00,000,*72
$GPGSV,3,3,12,20,21,120,,23,26,056,,27,17,217,,28,00,000,*73
$GLGSV,2,1,07,78,06,330,34,86,33,023,35,77,55,326,36,75,10,151,34*65
$GLGSV,2,2,07,87,60,299,36,88,19,243,,71,00,000,*57
$GAGSV,2,1,08,17,29,039,40,09,12,316,,10,63,333,,11,55,116,*6F
$GAGSV,2,2,08,12,05,129,,23,37,222,,24,84,019,,27,29,125,*61
$PQGSV,1,1,0,0*43
$PQGSV,1,1,0,0*43
$GPGSA,A,3,02,04,07,08,13,25,,,,,,,1.2,0.9,0.8*3C
$GLGSA,A,3,75,77,78,86,87,,,,,,,,1.2,0.9,0.8*20
$GAGSA,A,3,17,,,,,,,,,,,,1.2,0.9,0.8*27
$GPVTG,140.0,T,140.0,M,75.6,N,140.1,K,A*13
$GPDTM,P90,,0000.000022,S,00000.000001,W,0.988,W84*5A
$GPRMC,000255.00,A,3000.174575,N,12000.548674,E,75.6,140.0,230721,4.3,W,A*1F
$GPGGA,000255.00,3000.174575,N,12000.548674,E,1,12,0.9,-10.6,M,7.0,M,,*40

$GPGSV,3,1,12,02,31,298,36,04,50,246,37,07,83,113,38,08,46,206,37*75
$GPGSV,3,2,12,13,48,030,37,25,65,042,38,10,00,000,,16,00,000,*7D
$GPGSV,3,3,12,20,21,120,,23,26,056,,27,17,217,,28,00,000,*73
$GLGSV,2,1,07,78,06,330,34,86,33,023,35,77,55,326,36,75,10,151,34*65
$GLGSV,2,2,07,87,60,299,35,88,19,243,,71,00,000,*54
$GAGSV,2,1,08,17,29,039,40,09,12,316,,10,63,333,,11,55,116,*6F
$GAGSV,2,2,08,12,05,129,,23,37,222,,24,84,019,,27,29,125,*61
$PQGSV,1,1,0,0*43
$PQGSV,1,1,0,0*43
$GPGSA,A,3,02,04,07,08,13,25,,,,,,,1.2,0.9,0.8*3C
$GLGSA,A,3,75,77,78,86,87,,,,,,,,1.2,0.9,0.8*20
$GAGSA,A,3,17,,,,,,,,,,,,1.2,0.9,0.8*27
$GPVTG,144.4,T,144.4,M,75.8,N,140.3,K,A*1F
$GPDTM,P90,,0000.000022,S,00000.000001,W,0.988,W84*5A
$GPRMC,000256.00,A,3000.157924,N,12000.563290,E,75.8,144.4,230721,4.3,W,A*1C
$GPGGA,000256.00,3000.157924,N,12000.563290,E,1,12,0.9,-10.7,M,7.0,M,,*4C

$GPGSV,3,1,12,02,31,298,37,04,50,246,37,07,83,113,38,08,46,206,37*74
$GPGSV,3,2,12,13,48,030,37,25,65,042,37,10,00,000,,16,00,000,*72
$GPGSV,3,3,12,20,21,120,,23,26,056,,27,17,217,,28,00,000,*73
$GLGSV,2,1,07,78,06,330,34,86,33,023,35,77,55,326,36,75,10,151,34*65
$GLGSV,2,2,07,87,60,299,36,88,19,243,,71,00,000,*57
$GAGSV,2,1,08,17,29,039,40,24,84,019,41,09,12,316,,10,63,333,*6E
$GAGSV,2,2,08,11,55,116,,12,05,129,,23,37,222,,27,29,125,*65
$PQGSV,1,1,0,0*43
$PQGSV,1,1,0,0*43
$GPGSA,A,3,02,04,07,08,13,25,,,,,,,1.2,0.9,0.7*33
$GLGSA,A,3,75,77,78,86,87,,,,,,,,1.2,0.9,0.7*2F
$GAGSA,A,3,17,,,,,,,,,,,,1.2,0.9,0.7*28
$GPVTG,148.7,T,148.7,M,75.8,N,140.4,K,A*18
$GPDTM,P90,,0000.000022,S,00000.000001,W,0.988,W84*5A
$GPRMC,000257.00,A,3000.140512,N,12000.576536,E,75.8,148.7,230721,4.3,W,A*12
$GPGGA,000257.00,3000.140512,N,12000.576536,E,1,12,0.9,-10.8,M,7.0,M,,*42

$GPGSV,3,1,12,02,31,298,37,04,50,246,37,07,83,113,38,08,46,206,37*74
$GPGSV,3,2,12,13,48,030,37,25,65,042,38,10,00,000,,16,00,000,*7D
$GPGSV,3,3,12,20,21,120,,23,26,056,,27,17,217,,28,00,000,*73
$GLGSV,2,1,07,78,06,330,34,86,33,023,35,77,55,326,36,75,10,151,34*65
$GLGSV,2,2,07,87,60,299,36,88,19,243,,71,00,000,*57
$GAGSV,2,1,08,17,29,039,40,24,84,019,41,09,12,316,,10,63,333,*6E
$GAGSV,2,2,08,11,55,116,,12,05,129,,23,37,222,,27,29,125,*65
$PQGSV,1,1,0,0*43
$PQGSV,1,1,0,0*43
$GPGSA,A,3,02,04,07,08,13,25,,,,,,,1.2,0.9,0.7*33
$GLGSA,A,3,75,77,78,86,87,,,,,,,,1.2,0.9,0.7*2F
$GAGSA,A,3,17,24,,,,,,,,,,,1.2,0.9,0.7*2E
$GPVTG,153.3,T,153.3,M,75.8,N,140.3,K,A*1F
$GPDTM,P90,,0000.000022,S,00000.000001,W,0.988,W84*5A
$GPRMC,000258.00,A,3000.122283,N,12000.588257,E,75.8,153.3,230721,4.3,W,A*19
$GPGGA,000258.00,3000.122283,N,12000.588257,E,1,12,0.9,-10.8,M,7.0,M,,*47

$GPGSV,3,1,12,02,31,298,37,04,50,246,37,07,83,113,38,08,46,206,37*74
$GPGSV,3,2,12,13,48,030,37,25,65,042,37,10,00,000,,16,00,000,*72
$GPGSV,3,3,12,20,21,120,,23,26,056,,27,17,217,,28,00,000,*73
$GLGSV,2,1,07,78,06,330,34,86,33,023,35,77,55,326,35,75,10,151,34*66
$GLGSV,2,2,07,87,60,299,36,88,19,243,,71,00,000,*57
$GAGSV,2,1,08,17,29,039,40,24,84,019,41,09,12,316,,10,63,333,*6E
$GAGSV,2,2,08,11,55,116,,12,05,129,,23,37,222,,27,29,125,*65
$PQGSV,1,1,0,0*43
$PQGSV,1,1,0,0*43
$GPGSA,A,3,02,04,07,08,13,25,,,,,,,1.2,0.9,0.7*33
$GLGSA,A,3,75,77,78,86,87,,,,,,,,1.2,0.9,0.7*2F
$GAGSA,A,3,17,24,,,,,,,,,,,1.2,0.9,0.7*2E
$GPVTG,157.8,T,157.8,M,75.8,N,140.4,K,A*18
$GPDTM,P90,,0000.000022,S,00000.000001,W,0.988,W84*5A
$GPRMC,000259.00,A,3000.103139,N,12000.598064,E,75.8,157.8,230721,4.3,W,A*15
$GPGGA,000259.00,3000.103139,N,12000.598064,E,1,12,0.9,-10.5,M,7.0,M,,*49

$GPGSV,3,1,12,02,31,298,37,04,50,246,37,07,83,113,38,08,46,206,37*74
$GPGSV,3,2,12,13,48,030,37,25,65,042,37,10,00,000,,16,00,000,*72
$GPGSV,3,3,12,20,21,120,,23,26,056,,27,17,217,,28,00,000,*73
$GLGSV,2,1,07,78,06,330,34,86,33,023,35,77,55,326,35,75,10,151,35*67
$GLGSV,2,2,07,87,60,299,36,88,19,243,,71,00,000,*57
$GAGSV,2,1,08,17,29,039,40,24,84,019,41,09,12,316,,10,63,333,*6E
$GAGSV,2,2,08,11,55,116,,12,05,129,,23,37,222,,27,29,125,*65
$PQGSV,1,1,0,0*43
$PQGSV,1,1,0,0*43
$GPGSA,A,3,02,04,07,08,13,25,,,,,,,1.2,0.9,0.7*33
$GLGSA,A,3,75,77,78,86,87,,,,,,,,1.2,0.9,0.7*2F
$GAGSA,A,3,17,24,,,,,,,,,,,1.2,0.9,0.7*2E
$GPVTG,162.1,T,162.1,M,75.8,N,140.3,K,A*1F
$GPDTM,P90,,0000.000022,S,00000.000001,W,0.988,W84*5A
$GPRMC,000300.00,A,3000.083353,N,12000.606341,E,75.8,162.1,230721,4.3,W,A*10
$GPGGA,000300.00,3000.083353,N,12000.606341,E,1,12,0.9,-10.7,M,7.0,M,,*41

$GPGSV,3,1,12,02,31,298,36,04,50,246,37,07,83,113,38,08,46,206,37*75
$GPGSV,3,2,12,13,48,030,37,25,65,042,37,10,00,000,,16,00,000,*72
$GPGSV,3,3,12,20,21,120,,23,26,056,,27,17,217,,28,00,000,*73
$GLGSV,2,1,07,78,06,330,34,86,33,023,34,77,55,326,35,75,10,151,34*67
$GLGSV,2,2,07,87,60,299,36,88,19,243,,71,00,000,*57
$GAGSV,2,1,08,17,29,039,40,24,84,019,41,09,12,316,,10,63,333,*6E
$GAGSV,2,2,08,11,55,116,,12,05,129,,23,37,222,,27,29,125,*65
$PQGSV,1,1,0,0*43
$PQGSV,1,1,0,0*43
$GPGSA,A,3,02,04,07,08,13,25,,,,,,,1.2,0.9,0.7*33
$GLGSA,A,3,75,77,78,86,87,,,,,,,,1.2,0.9,0.7*2F
$GAGSA,A,3,17,24,,,,,,,,,,,1.2,0.9,0.7*2E
$GPVTG,166.5,T,166.5,M,75.8,N,140.4,K,A*18
$GPDTM,P90,,0000.000022,S,00000.000001,W,0.988,W84*5A
$GPRMC,000301.00,A,3000.063015,N,12000.612811,E,75.8,166.5,230721,4.3,W,A*15
$GPGGA,000301.00,3000.063015,N,12000.612811,E,1,12,0.9,-10.4,M,7.0,M,,*47

$GPGSV,3,1,12,02,31,298,37,04,50,246,37,07,83,113,38,08,46,206,37*74
$GPGSV,3,2,12,13,48,030,37,25,65,042,37,10,00,000,,16,00,000,*72
$GPGSV,3,3,12,20,21,120,,23,26,056,,27,17,217,,28,00,000,*73
$GLGSV,2,1,07,78,06,330,34,86,33,023,35,77,55,326,36,75,10,151,34*65
$GLGSV,2,2,07,87,60,299,36,88,19,243,,71,00,000,*57
$GAGSV,2,1,08,17,29,039,40,24,84,019,41,09,12,316,,10,63,333,*6E
$GAGSV,2,2,08,11,55,116,,12,05,129,,23,37,222,,27,29,125,*65
$PQGSV,1,1,0,0*43
$PQGSV,1,1,0,0*43
$GPGSA,A,3,02,04,07,08,13,25,,,,,,,1.2,0.9,0.7*33
$GLGSA,A,3,75,77,78,86,87,,,,,,,,1.2,0.9,0.7*2F
$GAGSA,A,3,17,24,,,,,,,,,,,1.2,0.9,0.7*2E
$GPVTG,171.1,T,171.1,M,75.8,N,140.4,K,A*18
$GPDTM,P90,,0000.000022,S,00000.000001,W,0.988,W84*5A
$GPRMC,000302.00,A,3000.042405,N,12000.617473,E,75.8,171.1,230721,4.3,W,A*1F
$GPGGA,000302.00,3000.042405,N,12000.617473,E,1,12,0.9,-10.2,M,7.0,M,,*49

$GPGSV,3,1,12,02,31,298,37,04,50,246,37,07,83,113,38,08,46,206,37*74
$GPGSV,3,2,12,13,48,030,37,25,65,042,37,10,00,000,,16,00,000,*72
$GPGSV,3,3,12,20,21,120,,23,26,056,,27,17,217,,28,00,000,*73
$GLGSV,2,1,07,78,06,330,34,86,33,023,35,77,55,326,36,75,10,151,34*65
$GLGSV,2,2,07,87,60,299,36,88,19,243,,71,00,000,*57
$GAGSV,2,1,08,17,29,039,40,24,84,019,41,09,12,316,,10,63,333,*6E
$GAGSV,2,2,08,11,55,116,,12,05,129,,23,37,222,,27,29,125,*65
$PQGSV,1,1,0,0*43
$PQGSV,1,1,0,0*43
$GPGSA,A,3,02,04,07,08,13,25,,,,,,,1.2,0.9,0.7*33
$GLGSA,A,3,75,77,78,86,87,,,,,,,,1.2,0.9,0.7*2F
$GAGSA,A,3,17,24,,,,,,,,,,,1.2,0.9,0.7*2E
$GPVTG,175.5,T,175.5,M,75.8,N,140.3,K,A*1F
$GPDTM,P90,,0000.000022,S,00000.000001,W,0.988,W84*5A
$GPRMC,000303.00,A,3000.021722,N,12000.620284,E,75.8,175.5,230721,4.3,W,A*17
$GPGGA,000303.00,3000.021722,N,12000.620284,E,1,12,0.9,-10.3,M,7.0,M,,*40

$GPGSV,3,1,12,02,31,298,37,04,50,246,37,07,83,113,38,08,46,206,37*74
$GPGSV,3,2,12,13,48,030,37,25,65,042,37,10,00,000,,16,00,000,*72
$GPGSV,3,3,12,20,21,120,,23,26,056,,27,17,217,,28,00,000,*73
$GLGSV,2,1,07,78,06,330,34,86,33,023,35,77,55,326,35,75,10,151,34*66
$GLGSV,2,2,07,87,60,299,36,88,19,243,,71,00,000,*57
$GAGSV,2,1,08,17,29,039,40,24,84,019,41,09,12,316,,10,63,333,*6E
$GAGSV,2,2,08,11,55,116,,12,05,129,,23,37,222,,27,29,125,*65
$PQGSV,1,1,0,0*43
$PQGSV,1,1,0,0*43
$GPGSA,A,3,02,04,07,08,13,25,,,,,,,1.2,0.9,0.7*33
$GLGSA,A,3,75,77,78,86,87,,,,,,,,1.2,0.9,0.7*2F
$GAGSA,A,3,17,24,,,,,,,,,,,1.2,0.9,0.7*2E
