$GPGSV,3,1,12,02,32,298,37,04,50,244,37,07,83,105,37,08,47,206,36*7D
$GPGSV,3,2,12,13,48,030,36,20,21,120,37,23,25,057,37,25,64,040,37*70
$GPGSV,3,3,12,27,18,219,37,10,00,000,,16,00,000,,28,00,000,*74
$GLGSV,2,1,07,78,07,330,35,86,31,025,35,77,57,326,35,75,09,153,35*6B
$GLGSV,2,2,07,88,21,244,35,87,60,303,35,71,01,078,*52
$GAGSV,2,1,08,09,13,316,41,10,64,333,40,11,54,119,40,12,04,130,40*60
$GAGSV,2,2,08,17,28,039,40,23,38,223,40,24,83,018,40,27,28,126,40*61
$PQGSV,1,1,0,0*43
$PQGSV,1,1,0,0*43
$GPGSA,A,3,02,04,07,08,13,20,23,25,27,,,,0.8,0.6,0.6*30
$GLGSA,A,3,75,77,78,86,87,88,,,,,,,0.8,0.6,0.6*2A
$GAGSA,A,3,09,10,11,12,17,23,24,27,,,,,0.8,0.6,0.6*24
$GPVTG,92.8,T,92.8,M,75.8,N,140.4,K,A*18
$GPDTM,P90,,0000.000022,S,00000.000001,W,0.988,W84*5A
$GPRMC,000526.00,A,3000.271128,N,12000.326111,E,75.8,92.8,230721,4.3,W,A*24
$GPGGA,000526.00,3000.271128,N,12000.326111,E,1,12,0.6,-6.8,M,7.0,M,,*75

$GPGSV,3,1,12,02,32,298,37,04,50,244,37,07,83,105,37,08,47,206,37*7C
$GPGSV,3,2,12,13,48,030,37,20,21,120,36,23,25,057,37,25,64,040,37*70
$GPGSV,3,3,12,27,18,219,36,10,00,000,,16,00,000,,28,00,000,*75
$GLGSV,2,1,07,78,07,330,35,86,31,025,35,77,57,326,35,75,09,153,35*6B
$GLGSV,2,2,07,88,21,244,35,87,60,303,35,71,01,078,*52
$GAGSV,2,1,08,09,13,316,40,10,64,333,40,11,54,119,41,12,04,130,40*60
$GAGSV,2,2,08,17,28,039,40,23,38,223,40,24,83,018,40,27,28,126,41*60
$PQGSV,1,1,0,0*43
$PQGSV,1,1,0,0*43
$GPGSA,A,3,02,04,07,08,13,20,23,25,27,,,,0.8,0.6,0.6*30
$GLGSA,A,3,75,77,78,86,87,88,,,,,,,0.8,0.6,0.6*2A
$GAGSA,A,3,09,10,11,12,17,23,24,27,,,,,0.8,0.6,0.6*24
$GPVTG,97.2,T,97.2,M,75.8,N,140.4,K,A*18
$GPDTM,P90,,0000.000022,S,00000.000001,W,0.988,W84*5A
$GPRMC,000527.00,A,3000.269257,N,12000.350323,E,75.8,97.2,230721,4.3,W,A*2A
$GPGGA,000527.00,3000.269257,N,12000.350323,E,1,12,0.6,-6.6,M,7.0,M,,*7A

$GPGSV,3,1,12,02,32,298,36,04,50,244,37,07,83,105,37,08,47,206,37*7D
$GPGSV,3,2,12,13,48,030,36,20,21,120,37,23,25,057,37,25,64,040,37*70
$GPGSV,3,3,12,27,18,219,37,10,00,000,,16,00,000,,28,00,000,*74
$GLGSV,2,1,07,78,07,330,35,86,31,025,34,77,57,326,35,75,09,153,35*6A
$GLGSV,2,2,07,88,21,244,35,87,60,303,35,71,01,078,*52
$GAGSV,2,1,08,09,13,316,40,10,64,333,40,11,54,119,41,12,04,130,40*60
$GAGSV,2,2,08,17,28,039,40,23,38,223,40,24,83,018,40,27,28,126,40*61
$PQGSV,1,1,0,0*43
$PQGSV,1,1,0,0*43
$GPGSA,A,3,02,04,07,08,13,20,23,25,27,,,,0.8,0.6,0.6*30
$GLGSA,A,3,75,77,78,86,87,88,,,,,,,0.8,0.6,0.6*2A
$GAGSA,A,3,09,10,11,12,17,23,24,27,,,,,0.8,0.6,0.6*24
$GPVTG,101.7,T,101.7,M,75.8,N,140.4,K,A*18
$GPDTM,P90,,0000.000022,S,00000.000001,W,0.988,W84*5A
$GPRMC,000528.00,A,3000.265992,N,12000.374153,E,75.8,101.7,230721,4.3,W,A*13
$GPGGA,000528.00,3000.265992,N,12000.374153,E,1,12,0.6,-6.5,M,7.0,M,,*7B

$GPGSV,3,1,12,02,32,298,37,04,50,244,37,07,83,105,37,08,47,206,36*7D
$GPGSV,3,2,12,13,48,030,37,20,21,120,37,23,25,057,36,25,64,040,37*70
$GPGSV,3,3,12,27,18,219,37,10,00,000,,16,00,000,,28,00,000,*74
$GLGSV,2,1,07,78,07,330,35,86,31,025,34,77,57,326,35,75,09,153,35*6A
$GLGSV,2,2,07,88,21,244,35,87,60,303,35,71,01,078,*52
$GAGSV,2,1,08,09,13,316,40,10,64,333,40,11,54,119,40,12,04,130,40*61
$GAGSV,2,2,08,17,28,039,40,23,38,223,40,24,83,018,40,27,28,126,41*60
$PQGSV,1,1,0,0*43
$PQGSV,1,1,0,0*43
$GPGSA,A,3,02,04,07,08,13,20,23,25,27,,,,0.8,0.6,0.6*30
$GLGSA,A,3,75,77,78,86,87,88,,,,,,,0.8,0.6,0.6*2A
$GAGSA,A,3,09,10,11,12,17,23,24,27,,,,,0.8,0.6,0.6*24
$GPVTG,106.1,T,106.1,M,75.8,N,140.3,K,A*1F
$GPDTM,P90,,0000.000022,S,00000.000001,W,0.988,W84*5A
$GPRMC,000529.00,A,3000.261050,N,12000.397586,E,75.8,106.1,230721,4.3,W,A*11
$GPGGA,000529.00,3000.261050,N,12000.397586,E,1,12,0.6,-6.5,M,7.0,M,,*78

$GPGSV,3,1,12,02,32,298,37,04,50,244,37,07,83,105,37,08,47,206,36*7D
$GPGSV,3,2,12,13,48,030,36,20,21,120,36,23,25,057,37,25,64,040,37*71
$GPGSV,3,3,12,27,18,219,37,10,00,000,,16,00,000,,28,00,000,*74
$GLGSV,2,1,07,78,07,330,35,86,31,025,35,77,57,326,35,75,09,153,35*6B
$GLGSV,2,2,07,88,21,244,35,87,60,303,35,71,01,078,*52
$GAGSV,2,1,08,09,13,316,41,10,64,333,40,11,54,119,40,12,04,130,40*60
$GAGSV,2,2,08,17,28,039,41,23,38,223,40,24,83,018,41,27,28,126,40*61
$PQGSV,1,1,0,0*43
$PQGSV,1,1,0,0*43
$GPGSA,A,3,02,04,07,08,13,20,23,25,27,,,,0.8,0.6,0.6*30
$GLGSA,A,3,75,77,78,86,87,88,,,,,,,0.8,0.6,0.6*2A
$GAGSA,A,3,09,10,11,12,17,23,24,27,,,,,0.8,0.6,0.6*24
$GPVTG,110.6,T,110.6,M,75.8,N,140.4,K,A*18
$GPDTM,P90,,0000.000022,S,00000.000001,W,0.988,W84*5A
$GPRMC,000530.00,A,3000.254195,N,12000.420553,E,75.8,110.6,230721,4.3,W,A*14
$GPGGA,000530.00,3000.254195,N,12000.420553,E,1,12,0.6,-6.4,M,7.0,M,,*7C

$GPGSV,3,1,12,02,32,298,37,04,50,244,37,07,83,105,37,08,47,206,37*7C
$GPGSV,3,2,12,13,48,030,37,20,21,120,37,23,25,057,37,25,64,040,37*71
$GPGSV,3,3,12,27,18,219,36,10,00,000,,16,00,000,,28,00,000,*75
$GLGSV,2,1,07,78,07,330,35,86,31,025,35,77,57,326,35,75,09,153,35*6B
$GLGSV,2,2,07,88,21,244,35,87,60,303,35,71,01,078,*52
$GAGSV,2,1,08,09,13,316,40,10,64,333,40,11,54,119,40,12,04,130,40*61
$GAGSV,2,2,08,17,28,039,40,23,38,223,40,24,83,018,40,27,28,126,40*61
$PQGSV,1,1,0,0*43
$PQGSV,1,1,0,0*43
$GPGSA,A,3,02,04,07,08,13,20,23,25,27,,,,0.8,0.6,0.6*30
$GLGSA,A,3,75,77,78,86,87,88,,,,,,,0.8,0.6,0.6*2A
$GAGSA,A,3,09,10,11,12,17,23,24,27,,,,,0.8,0.6,0.6*24
$GPVTG,115.0,T,115.0,M,75.8,N,140.3,K,A*1F
$GPDTM,P90,,0000.000022,S,00000.000001,W,0.988,W84*5A
$GPRMC,000531.00,A,3000.245879,N,12000.442730,E,75.8,115.0,230721,4.3,W,A*1E
$GPGGA,000531.00,3000.245879,N,12000.442730,E,1,12,0.6,-6.2,M,7.0,M,,*73

$GPGSV,3,1,12,02,32,298,36,04,50,244,36,07,83,105,37,08,47,206,37*7C
$GPGSV,3,2,12,13,48,030,37,20,21,120,37,23,25,057,37,25,64,040,37*71
$GPGSV,3,3,12,27,18,219,36,10,00,000,,16,00,000,,28,00,000,*75
$GLGSV,2,1,07,78,07,330,35,86,31,025,34,77,57,326,35,75,09,153,35*6A
$GLGSV,2,2,07,88,21,244,35,87,60,303,35,71,01,078,*52
$GAGSV,2,1,08,09,13,316,40,10,64,333,41,11,54,119,41,12,04,130,40*61
$GAGSV,2,2,08,17,28,039,40,23,38,223,40,24,83,018,41,27,28,126,41*61
$PQGSV,1,1,0,0*43
$PQGSV,1,1,0,0*43
$GPGSA,A,3,02,04,07,08,13,20,23,25,27,,,,0.8,0.6,0.6*30
$GLGSA,A,3,75,77,78,86,87,88,,,,,,,0.8,0.6,0.6*2A
$GAGSA,A,3,09,10,11,12,17,23,24,27,,,,,0.8,0.6,0.6*24
$GPVTG,119.5,T,119.5,M,75.8,N,140.4,K,A*18
$GPDTM,P90,,0000.000022,S,00000.000001,W,0.988,W84*5A
$GPRMC,000532.00,A,3000.236225,N,12000.464197,E,75.8,119.5,230721,4.3,W,A*1C
$GPGGA,000532.00,3000.236225,N,12000.464197,E,1,12,0.6,-6.4,M,7.0,M,,*7E

$GPGSV,3,1,12,02,32,298,37,04,50,244,37,07,83,105,37,08,47,206,37*7C
$GPGSV,3,2,12,13,48,030,36,20,21,120,37,23,25,057,37,25,64,040,37*70
$GPGSV,3,3,12,27,18,219,37,10,00,000,,16,00,000,,28,00,000,*74
$GLGSV,2,1,07,78,07,330,35,86,31,025,35,77,57,326,35,75,09,153,35*6B
$GLGSV,2,2,07,88,21,244,35,87,60,303,35,71,01,078,*52
$GAGSV,2,1,08,09,13,316,40,10,64,333,40,11,54,119,40,12,04,130,40*61
$GAGSV,2,2,08,17,28,039,40,23,38,223,41,24,83,018,41,27,28,126,40*61
$PQGSV,1,1,0,0*43
$PQGSV,1,1,0,0*43
$GPGSA,A,3,02,04,07,08,13,20,23,25,27,,,,0.8,0.6,0.6*30
$GLGSA,A,3,75,77,78,86,87,88,,,,,,,0.8,0.6,0.6*2A
$GAGSA,A,3,09,10,11,12,17,23,24,27,,,,,0.8,0.6,0.6*24
$GPVTG,124.0,T,124.0,M,75.8,N,140.4,K,A*18
$GPDTM,P90,,0000.000022,S,00000.000001,W,0.988,W84*5A
$GPRMC,000533.00,A,3000.225163,N,12000.484655,E,75.8,124.0,230721,4.3,W,A*12
$GPGGA,000533.00,3000.225163,N,12000.484655,E,1,12,0.6,-6.1,M,7.0,M,,*7E

$GPGSV,3,1,12,02,32,298,37,04,50,244,36,07,83,105,37,08,47,206,36*7C
$GPGSV,3,2,12,13,48,030,37,20,21,120,37,23,25,057,36,25,64,040,37*70
$GPGSV,3,3,12,27,18,219,37,10,00,000,,16,00,000,,28,00,000,*74
$GLGSV,2,1,07,78,07,330,35,86,31,025,34,77,57,326,35,75,09,153,35*6A
$GLGSV,2,2,07,88,21,244,35,87,60,303,35,71,01,078,*52
$GAGSV,2,1,08,09,13,316,41,10,64,333,41,11,54,119,40,12,04,130,40*61
$GAGSV,2,2,08,17,28,039,40,23,38,223,40,24,83,018,40,27,28,126,40*61
$PQGSV,1,1,0,0*43
$PQGSV,1,1,0,0*43
$GPGSA,A,3,02,04,07,08,13,20,23,25,27,,,,0.8,0.6,0.6*30
$GLGSA,A,3,75,77,78,86,87,88,,,,,,,0.8,0.6,0.6*2A
$GAGSA,A,3,09,10,11,12,17,23,24,27,,,,,0.8,0.6,0.6*24
$GPVTG,128.4,T,128.4,M,75.8,N,140.4,K,A*18
$GPDTM,P90,,0000.000022,S,00000.000001,W,0.988,W84*5A
$GPRMC,000534.00,A,3000.212624,N,12000.504107,E,75.8,128.4,230721,4.3,W,A*14
$GPGGA,000534.00,3000.212624,N,12000.504107,E,1,12,0.6,-6.2,M,7.0,M,,*73

$GPGSV,3,1,12,02,32,298,37,04,50,244,37,07,83,105,36,08,47,206,37*7D
$GPGSV,3,2,12,13,48,030,37,20,21,120,37,23,25,057,37,25,64,040,37*71
$GPGSV,3,3,12,27,18,219,37,10,00,000,,16,00,000,,28,00,000,*74
$GLGSV,2,1,07,78,07,330,35,86,31,025,35,77,57,326,35,75,09,153,35*6B
$GLGSV,2,2,07,88,21,244,35,87,60,303,35,71,01,078,*52
$GAGSV,2,1,08,09,13,316,41,10,64,333,40,11,54,119,40,12,04,130,41*61
$GAGSV,2,2,08,17,28,039,40,23,38,223,40,24,83,018,40,27,28,126,41*60
$PQGSV,1,1,0,0*43
$PQGSV,1,1,0,0*43
$GPGSA,A,3,02,04,07,08,13,20,23,25,27,,,,0.8,0.6,0.6*30
$GLGSA,A,3,75,77,78,86,87,88,,,,,,,0.8,0.6,0.6*2A
$GAGSA,A,3,09,10,11,12,17,23,24,27,,,,,0.8,0.6,0.6*24
$GPVTG,132.9,T,132.9,M,75.8,N,140.4,K,A*18
$GPDTM,P90,,0000.000022,S,00000.000001,W,0.988,W84*5A
$GPRMC,000535.00,A,3000.198827,N,12000.522279,E,75.8,132.9,230721,4.3,W,A*11
$GPGGA,000535.00,3000.198827,N,12000.522279,E,1,12,0.6,-6.5,M,7.0,M,,*77

$GPGSV,3,1,12,02,32,298,37,04,50,244,37,07,83,105,37,08,47,206,37*7C
$GPGSV,3,2,12,13,48,030,37,20,21,120,36,23,25,057,36,25,64,040,37*71
$GPGSV,3,3,12,27,18,219,37,10,00,000,,16,00,000,,28,00,000,*74
$GLGSV,2,1,07,78,07,330,35,86,31,025,35,77,57,326,35,75,09,153,35*6B
$GLGSV,2,2,07,88,21,244,35,87,60,303,35,71,01,078,*52
$GAGSV,2,1,08,09,13,316,41,10,64,333,40,11,54,119,40,12,04,130,40*60
$GAGSV,2,2,08,17,28,039,41,23,38,223,40,24,83,018,40,27,28,126,40*60
$PQGSV,1,1,0,0*43
$PQGSV,1,1,0,0*43
$GPGSA,A,3,02,04,07,08,13,20,23,25,27,,,,0.8,0.6,0.6*30
$GLGSA,A,3,75,77,78,86,87,88,,,,,,,0.8,0.6,0.6*2A
$GAGSA,A,3,09,10,11,12,17,23,24,27,,,,,0.8,0.6,0.6*24
$GPVTG,137.4,T,137.4,M,75.8,N,140.4,K,A*18
$GPDTM,P90,,0000.000022,S,00000.000001,W,0.988,W84*5A
$GPRMC,000536.00,A,3000.183770,N,12000.539296,E,75.8,137.4,230721,4.3,W,A*16
$GPGGA,000536.00,3000.183770,N,12000.539296,E,1,12,0.6,-6.2,M,7.0,M,,*7F

$GPGSV,3,1,12,02,32,298,37,04,50,244,37,07,83,105,37,08,47,206,36*7D
$GPGSV,3,2,12,13,48,030,37,20,21,120,37,23,25,057,37,25,64,040,37*71
$GPGSV,3,3,12,27,18,219,36,10,00,000,,16,00,000,,28,00,000,*75
$GLGSV,2,1,07,78,07,330,35,86,31,025,35,77,57,326,35,75,09,153,35*6B
$GLGSV,2,2,07,88,21,244,35,87,60,303,35,71,01,078,*52
$GAGSV,2,1,08,09,13,316,40,10,64,333,41,11,54,119,40,12,04,130,41*61
$GAGSV,2,2,08,17,28,039,40,23,38,223,40,24,83,018,40,27,28,126,41*60
$PQGSV,1,1,0,0*43
$PQGSV,1,1,0,0*43
$GPGSA,A,3,02,04,07,08,13,20,23,25,27,,,,0.8,0.6,0.6*30
$GLGSA,A,3,75,77,78,86,87,88,,,,,,,0.8,0.6,0.6*2A
$GAGSA,A,3,09,10,11,12,17,23,24,27,,,,,0.8,0.6,0.6*24
$GPVTG,141.8,T,141.8,M,75.8,N,140.4,K,A*18
$GPDTM,P90,,0000.000022,S,00000.000001,W,0.988,W84*5A
$GPRMC,000537.00,A,3000.167771,N,12000.555028,E,75.8,141.8,230721,4.3,W,A*1C
$GPGGA,000537.00,3000.167771,N,12000.555028,E,1,12,0.6,-6.3,M,7.0,M,,*79

$GPGSV,3,1,12,02,32,298,36,04,50,244,37,07,83,105,37,08,47,206,37*7D
$GPGSV,3,2,12,13,48,030,37,20,21,120,37,23,25,057,37,25,64,040,37*71
$GPGSV,3,3,12,27,18,219,37,10,00,000,,16,00,000,,28,00,000,*74
$GLGSV,2,1,07,78,07,330,35,86,31,025,35,77,57,326,35,75,09,153,35*6B
$GLGSV,2,2,07,88,21,244,35,87,60,303,35,71,01,078,*52
$GAGSV,2,1,08,09,13,316,40,10,64,333,40,11,54,119,40,12,04,130,41*60
$GAGSV,2,2,08,17,28,039,40,23,38,223,41,24,83,018,41,27,28,126,40*61
$PQGSV,1,1,0,0*43
$PQGSV,1,1,0,0*43
$GPGSA,A,3,02,04,07,08,13,20,23,25,27,,,,0.8,0.6,0.6*30
$GLGSA,A,3,75,77,78,86,87,88,,,,,,,0.8,0.6,0.6*2A
$GAGSA,A,3,09,10,11,12,17,23,24,27,,,,,0.8,0.6,0.6*24
$GPVTG,146.2,T,146.2,M,75.8,N,140.4,K,A*18
$GPDTM,P90,,0000.000022,S,00000.000001,W,0.988,W84*5A
$GPRMC,000538.00,A,3000.150685,N,12000.569162,E,75.8,146.2,230721,4.3,W,A*10
$GPGGA,000538.00,3000.150685,N,12000.569162,E,1,12,0.6,-6.0,M,7.0,M,,*7B

$GPGSV,3,1,12,02,32,298,37,04,50,244,37,07,83,105,37,08,47,206,36*7D
$GPGSV,3,2,12,13,48,030,36,20,21,120,37,23,25,057,37,25,64,040,37*70
$GPGSV,3,3,12,27,18,219,36,10,00,000,,16,00,000,,28,00,000,*75
$GLGSV,2,1,07,78,07,330,35,86,31,025,35,77,57,326,35,75,09,153,35*6B
$GLGSV,2,2,07,88,21,244,35,87,60,303,35,71,01,078,*52
$GAGSV,2,1,08,09,13,316,41,10,64,333,40,11,54,119,40,12,04,130,40*60
$GAGSV,2,2,08,17,28,039,41,23,38,223,40,24,83,018,41,27,28,126,40*61
$PQGSV,1,1,0,0*43
$PQGSV,1,1,0,0*43
$GPGSA,A,3,02,04,07,08,13,20,23,25,27,,,,0.8,0.6,0.6*30
$GLGSA,A,3,75,77,78,86,87,88,,,,,,,0.8,0.6,0.6*2A
$GAGSA,A,3,09,10,11,12,17,23,24,27,,,,,0.8,0.6,0.6*24
$GPVTG,150.7,T,150.7,M,75.8,N,140.5,K,A*19
$GPDTM,P90,,0000.000022,S,00000.000001,W,0.988,W84*5A
$GPRMC,000539.00,A,3000.132607,N,12000.581636,E,75.8,150.7,230721,4.3,W,A*1D
$GPGGA,000539.00,3000.132607,N,12000.581636,E,1,12,0.6,-5.8,M,7.0,M,,*7F

$GPGSV,3,1,12,02,32,298,37,04,50,244,37,07,83,105,37,08,47,206,37*7C
$GPGSV,3,2,12,13,48,030,36,20,21,120,37,23,25,057,36,25,64,040,37*71
$GPGSV,3,3,12,27,18,219,36,10,00,000,,16,00,000,,28,00,000,*75
$GLGSV,2,1,07,78,07,330,35,86,31,025,34,77,57,326,35,75,09,153,35*6A
$GLGSV,2,2,07,88,21,244,35,87,60,303,35,71,01,078,*52
$GAGSV,2,1,08,09,13,316,40,10,64,333,40,11,54,119,40,12,04,130,40*61
$GAGSV,2,2,08,17,28,039,40,23,38,223,40,24,83,018,40,27,28,126,40*61
$PQGSV,1,1,0,0*43
$PQGSV,1,1,0,0*43
$GPGSA,A,3,02,04,07,08,13,20,23,25,27,,,,0.8,0.6,0.6*30
$GLGSA,A,3,75,77,78,86,87,88,,,,,,,0.8,0.6,0.6*2A
$GAGSA,A,3,09,10,11,12,17,23,24,27,,,,,0.8,0.6,0.6*24
$GPVTG,155.2,T,155.2,M,75.8,N,140.4,K,A*18
$GPDTM,P90,,0000.000022,S,00000.000001,W,0.988,W84*5A
$GPRMC,000540.00,A,3000.114135,N,12000.592862,E,75.8,155.2,230721,4.3,W,A*1C
$GPGGA,000540.00,3000.114135,N,12000.592862,E,1,12,0.6,-5.9,M,7.0,M,,*7F

$GPGSV,3,1,12,02,32,298,37,04,50,244,36,07,83,105,37,08,47,206,37*7D
$GPGSV,3,2,12,13,48,030,36,20,21,120,37,23,25,057,37,25,64,040,37*70
$GPGSV,3,3,12,27,18,219,37,10,00,000,,16,00,000,,28,00,000,*74
$GLGSV,2,1,07,78,07,330,35,86,31,025,34,77,57,326,35,75,09,153,35*6A
$GLGSV,2,2,07,88,21,244,35,87,60,303,35,71,01,078,*52
$GAGSV,2,1,08,09,13,316,40,10,64,333,40,11,54,119,40,12,04,130,41*60
$GAGSV,2,2,08,17,28,039,41,23,38,223,40,24,83,018,41,27,28,126,40*61
$PQGSV,1,1,0,0*43
$PQGSV,1,1,0,0*43
$GPGSA,A,3,02,04,07,08,13,20,23,25,27,,,,0.8,0.6,0.6*30
$GLGSA,A,3,75,77,78,86,87,88,,,,,,,0.8,0.6,0.6*2A
$GAGSA,A,3,09,10,11,12,17,23,24,27,,,,,0.8,0.6,0.6*24
$GPVTG,159.6,T,159.6,M,75.8,N,140.4,K,A*18
$GPDTM,P90,,0000.000022,S,00000.000001,W,0.988,W84*5A
$GPRMC,000541.00,A,3000.094834,N,12000.602254,E,75.8,159.6,230721,4.3,W,A*11
$GPGGA,000541.00,3000.094834,N,12000.602254,E,1,12,0.6,-5.7,M,7.0,M,,*74

$GPGSV,3,1,12,02,32,298,36,04,50,244,37,07,83,105,37,08,47,206,37*7D
$GPGSV,3,2,12,13,48,030,36,20,21,120,37,23,25,057,36,25,64,040,37*71
$GPGSV,3,3,12,27,18,219,36,10,00,000,,16,00,000,,28,00,000,*75
$GLGSV,2,1,07,78,07,330,35,86,31,025,35,77,57,326,35,75,09,153,35*6B
$GLGSV,2,2,07,88,21,244,35,87,60,303,35,71,01,078,*52
$GAGSV,2,1,08,09,13,316,40,10,64,333,41,11,54,119,41,12,04,130,41*60
$GAGSV,2,2,08,17,28,039,40,23,38,223,40,24,83,018,40,27,28,126,40*61
$PQGSV,1,1,0,0*43
$PQGSV,1,1,0,0*43
$GPGSA,A,3,02,04,07,08,13,20,23,25,27,,,,0.8,0.6,0.6*30
$GLGSA,A,3,75,77,78,86,87,88,,,,,,,0.8,0.6,0.6*2A
$GAGSA,A,3,09,10,11,12,17,23,24,27,,,,,0.8,0.6,0.6*24
$GPVTG,164.1,T,164.1,M,75.8,N,140.4,K,A*18
$GPDTM,P90,,0000.000022,S,00000.000001,W,0.988,W84*5A
$GPRMC,000542.00,A,3000.074807,N,12000.609836,E,75.8,164.1,230721,4.3,W,A*10
$GPGGA,000542.00,3000.074807,N,12000.609836,E,1,12,0.6,-5.7,M,7.0,M,,*7C

$GPGSV,3,1,12,02,32,298,37,04,50,244,36,07,83,105,37,08,47,206,36*7C
$GPGSV,3,2,12,13,48,030,36,20,21,120,36,23,25,057,36,25,64,040,37*70
$GPGSV,3,3,12,27,18,219,36,10,00,000,,16,00,000,,28,00,000,*75
$GLGSV,2,1,07,78,07,330,35,86,31,025,34,77,57,326,35,75,09,153,35*6A
$GLGSV,2,2,07,88,21,244,35,87,60,303,35,71,01,078,*52
$GAGSV,2,1,08,09,13,316,40,10,64,333,40,11,54,119,40,12,04,130,40*61
$GAGSV,2,2,08,17,28,039,41,23,38,223,40,24,83,018,40,27,28,126,40*60
$PQGSV,1,1,0,0*43
$PQGSV,1,1,0,0*43
$GPGSA,A,3,02,04,07,08,13,20,23,25,27,,,,0.8,0.6,0.6*30
$GLGSA,A,3,75,77,78,86,87,88,,,,,,,0.8,0.6,0.6*2A
$GAGSA,A,3,09,10,11,12,17,23,24,27,,,,,0.8,0.6,0.6*24
$GPVTG,168.5,T,168.5,M,75.8,N,140.4,K,A*18
$GPDTM,P90,,0000.000022,S,00000.000001,W,0.988,W84*5A
$GPRMC,000543.00,A,3000.054327,N,12000.615453,E,75.8,168.5,230721,4.3,W,A*10
$GPGGA,000543.00,3000.054327,N,12000.615453,E,1,12,0.6,-5.7,M,7.0,M,,*74

$GPGSV,3,1,12,02,32,298,37,04,50,244,37,07,83,105,37,08,47,206,37*7C
$GPGSV,3,2,12,13,48,030,36,20,21,120,37,23,25,057,37,25,64,040,37*70
$GPGSV,3,3,12,27,18,219,36,10,00,000,,16,00,000,,28,00,000,*75
$GLGSV,2,1,07,78,07,330,34,86,31,025,35,77,57,326,35,75,09,153,35*6A
$GLGSV,2,2,07,88,21,244,35,87,60,303,35,71,01,078,*52
$GAGSV,2,1,08,09,13,316,40,10,64,333,40,11,54,119,40,12,04,130,40*61
$GAGSV,2,2,08,17,28,039,41,23,38,223,41,24,83,018,40,27,28,126,40*61
$PQGSV,1,1,0,0*43
$PQGSV,1,1,0,0*43
$GPGSA,A,3,02,04,07,08,13,20,23,25,27,,,,0.8,0.6,0.6*30
$GLGSA,A,3,75,77,78,86,87,88,,,,,,,0.8,0.6,0.6*2A
$GAGSA,A,3,09,10,11,12,17,23,24,27,,,,,0.8,0.6,0.6*24
$GPVTG,173.0,T,173.0,M,75.8,N,140.4,K,A*18
$GPDTM,P90,,0000.000022,S,00000.000001,W,0.988,W84*5A
$GPRMC,000544.00,A,3000.033513,N,12000.619351,E,75.8,173.0,230721,4.3,W,A*11
$GPGGA,000544.00,3000.033513,N,12000.619351,E,1,12,0.6,-6.2,M,7.0,M,,*7C

$GPGSV,3,1,12,02,32,298,37,04,50,244,37,07,83,105,37,08,47,206,37*7C
$GPGSV,3,2,12,13,48,030,36,20,21,120,36,23,25,057,36,25,64,040,37*70
$GPGSV,3,3,12,27,18,219,37,10,00,000,,16,00,000,,28,00,000,*74
$GLGSV,2,1,07,78,07,330,35,86,31,025,34,77,57,326,34,75,09,153,35*6B
$GLGSV,2,2,07,88,21,244,35,87,60,303,35,71,01,078,*52
$GAGSV,2,1,08,09,13,316,40,10,64,333,40,11,54,119,40,12,04,130,40*61
$GAGSV,2,2,08,17,28,039,40,23,38,223,40,24,83,018,40,27,28,126,40*61
$PQGSV,1,1,0,0*43
$PQGSV,1,1,0,0*43
$GPGSA,A,3,02,04,07,08,13,20,23,25,27,,,,0.8,0.6,0.6*30
$GLGSA,A,3,75,77,78,86,87,88,,,,,,,0.8,0.6,0.6*2A
$GAGSA,A,3,09,10,11,12,17,23,24,27,,,,,0.8,0.6,0.6*24
$GPVTG,177.4,T,177.4,M,75.8,N,140.4,K,A*18
$GPDTM,P90,,0000.000022,S,00000.000001,W,0.988,W84*5A
$GPRMC,000545.00,A,3000.012499,N,12000.621279,E,75.8,177.4,230721,4.3,W,A*10
$GPGGA,000545.00,3000.012499,N,12000.621279,E,1,12,0.6,-5.7,M,7.0,M,,*7B

$GPGSV,3,1,12,02,32,298,37,04,50,244,37,07,83,105,37,08,47,206,36*7D
$GPGSV,3,2,12,13,48,030,37,20,21,120,36,23,25,057,37,25,64,040,37*70
$GPGSV,3,3,12,27,18,219,36,10,00,000,,16,00,000,,28,00,000,*75
$GLGSV,2,1,07,78,07,330,35,86,31,025,34,77,57,326,34,75,09,153,35*6B
$GLGSV,2,2,07,88,21,244,35,87,60,303,35,71,01,078,*52
$GAGSV,2,1,08,09,13,316,40,10,64,333,41,11,54,119,40,12,04,130,40*60
$GAGSV,2,2,08,17,28,039,41,23,38,223,40,24,83,018,40,27,28,126,40*60
$PQGSV,1,1,0,0*43
$PQGSV,1,1,0,0*43
$GPGSA,A,3,02,04,07,08,13,20,23,25,27,,,,0.8,0.6,0.6*30
$GLGSA,A,3,75,77,78,86,87,88,,,,,,,0.8,0.6,0.6*2A
$GAGSA,A,3,09,10,11,12,17,23,24,27,,,,,0.8,0.6,0.6*24
$GPVTG,181.9,T,181.9,M,75.8,N,140.4,K,A*18
$GPDTM,P90,,0000.000022,S,00000.000001,W,0.988,W84*5A
$GPRMC,000546.00,A,2959.991480,N,12000.621202,E,75.8,181.9,230721,4.3,W,A*15
$GPGGA,000546.00,2959.991480,N,12000.621202,E,1,12,0.6,-5.8,M,7.0,M,,*75

$GPGSV,3,1,12,02,32,298,36,04,50,244,36,07,83,105,37,08,47,206,36*7D
$GPGSV,3,2,12,13,48,030,37,20,21,120,37,23,25,057,37,25,64,040,37*71
$GPGSV,3,3,12,27,18,219,36,10,00,000,,16,00,000,,28,00,000,*75
$GLGSV,2,1,07,78,07,330,35,86,31,025,35,77,57,326,35,75,09,153,35*6B
$GLGSV,2,2,07,88,21,244,35,87,60,303,35,71,01,078,*52
$GAGSV,2,1,08,09,13,316,40,10,64,333,40,11,54,119,40,12,04,130,41*60
$GAGSV,2,2,08,17,28,039,40,23,38,223,40,24,83,018,40,27,28,126,40*61
$PQGSV,1,1,0,0*43
$PQGSV,1,1,0,0*43
$GPGSA,A,3,02,04,07,08,13,20,23,25,27,,,,0.8,0.6,0.6*30
$GLGSA,A,3,75,77,78,86,87,88,,,,,,,0.8,0.6,0.6*2A
$GAGSA,A,3,09,10,11,12,17,23,24,27,,,,,0.8,0.6,0.6*24
$GPVTG,186.3,T,186.3,M,75.8,N,140.3,K,A*1F
$GPDTM,P90,,0000.000022,S,00000.000001,W,0.988,W84*5A
$GPRMC,000547.00,A,2959.970529,N,12000.619305,E,75.8,186.3,230721,4.3,W,A*19
$GPGGA,000547.00,2959.970529,N,12000.619305,E,1,12,0.6,-5.8,M,7.0,M,,*74

$GPGSV,3,1,12,02,32,298,37,04,50,244,37,07,83,105,37,08,47,206,37*7C
$GPGSV,3,2,12,13,48,030,37,20,21,120,37,23,25,057,37,25,64,040,36*70
$GPGSV,3,3,12,27,18,219,36,10,00,000,,16,00,000,,28,00,000,*75
$GLGSV,2,1,07,78,07,330,34,86,31,025,35,77,57,326,35,75,09,153,34*6B
$GLGSV,2,2,07,88,21,244,35,87,60,303,35,71,01,078,*52
$GAGSV,2,1,08,09,13,316,41,10,64,333,40,11,54,119,40,12,04,130,40*60
$GAGSV,2,2,08,17,28,039,40,23,38,223,40,24,83,018,41,27,28,126,40*60
$PQGSV,1,1,0,0*43
$PQGSV,1,1,0,0*43
$GPGSA,A,3,02,04,07,08,13,20,23,25,27,,,,0.8,0.6,0.6*30
$GLGSA,A,3,75,77,78,86,87,88,,,,,,,0.8,0.6,0.6*2A
$GAGSA,A,3,09,10,11,12,17,23,24,27,,,,,0.8,0.6,0.6*24
$GPVTG,190.8,T,190.8,M,75.8,N,140.4,K,A*18
$GPDTM,P90,,0000.000022,S,00000.000001,W,0.988,W84*5A
$GPRMC,000548.00,A,2959.949670,N,12000.615818,E,75.8,190.8,230721,4.3,W,A*14
$GPGGA,000548.00,2959.949670,N,12000.615818,E,1,12,0.6,-5.7,M,7.0,M,,*7A

$GPGSV,3,1,12,02,32,298,37,04,50,244,37,07,83,105,37,08,47,206,37*7C
$GPGSV,3,2,12,13,48,030,37,20,21,120,37,23,25,057,36,25,64,040,36*71
$GPGSV,3,3,12,27,18,219,36,10,00,000,,16,00,000,,28,00,000,*75
$GLGSV,2,1,07,78,07,330,35,86,31,025,35,77,57,326,35,75,09,153,35*6B
$GLGSV,2,2,07,88,21,244,35,87,60,303,35,71,01,078,*52
$GAGSV,2,1,08,09,13,316,40,10,64,333,40,11,54,119,41,12,04,130,40*60
$GAGSV,2,2,08,17,28,039,40,23,38,223,40,24,83,018,40,27,28,126,40*61
$PQGSV,1,1,0,0*43
$PQGSV,1,1,0,0*43
$GPGSA,A,3,02,04,07,08,13,20,23,25,27,,,,0.8,0.6,0.6*30
$GLGSA,A,3,75,77,78,86,87,88,,,,,,,0.8,0.6,0.6*2A
$GAGSA,A,3,09,10,11,12,17,23,24,27,,,,,0.8,0.6,0.6*24
$GPVTG,195.3,T,195.3,M,75.8,N,140.4,K,A*18
$GPDTM,P90,,0000.000022,S,00000.000001,W,0.988,W84*5A
$GPRMC,000549.00,A,2959.929216,N,12000.610560,E,75.8,195.3,230721,4.3,W,A*1E
$GPGGA,000549.00,2959.929216,N,12000.610560,E,1,12,0.6,-5.6,M,7.0,M,,*7F

$GPGSV,3,1,12,02,32,298,37,04,50,244,37,07,83,105,37,08,47,206,37*7C
$GPGSV,3,2,12,13,48,030,36,20,21,120,37,23,25,057,37,25,64,040,37*70
$GPGSV,3,3,12,27,18,219,37,10,00,000,,16,00,000,,28,00,000,*74
$GLGSV,2,1,07,78,07,330,35,86,31,025,35,77,57,326,35,75,09,153,35*6B
$GLGSV,2,2,07,88,21,244,35,87,60,303,35,71,01,078,*52
$GAGSV,2,1,08,09,13,316,40,10,64,333,40,11,54,119,40,12,04,130,40*61
$GAGSV,2,2,08,17,28,039,40,23,38,223,40,24,83,018,40,27,28,126,40*61
$PQGSV,1,1,0,0*43
$PQGSV,1,1,0,0*43
$GPGSA,A,3,02,04,07,08,13,20,23,25,27,,,,0.8,0.6,0.6*30
$GLGSA,A,3,75,77,78,86,87,88,,,,,,,0.8,0.6,0.6*2A
$GAGSA,A,3,09,10,11,12,17,23,24,27,,,,,0.8,0.6,0.6*24
$GPVTG,199.7,T,199.7,M,75.8,N,140.4,K,A*18
$GPDTM,P90,,0000.000022,S,00000.000001,W,0.988,W84*5A
$GPRMC,000550.00,A,2959.908999,N,12000.603293,E,75.8,199.7,230721,4.3,W,A*18
$GPGGA,000550.00,2959.908999,N,12000.603293,E,1,12,0.6,-5.3,M,7.0,M,,*74

$GPGSV,3,1,12,02,32,298,37,04,50,244,37,07,83,105,37,08,47,206,37*7C
$GPGSV,3,2,12,13,48,030,37,20,21,120,37,23,25,057,37,25,64,040,37*71
$GPGSV,3,3,12,27,18,219,36,10,00,000,,16,00,000,,28,00,000,*75
$GLGSV,2,1,07,78,07,330,35,86,31,025,35,77,57,326,35,75,09,153,35*6B
$GLGSV,2,2,07,88,21,244,35,87,60,303,35,71,01,078,*52
$GAGSV,2,1,08,09,13,316,40,10,64,333,41,11,54,119,40,12,04,130,41*61
$GAGSV,2,2,08,17,28,039,40,23,38,223,41,24,83,018,40,27,28,126,40*60
$PQGSV,1,1,0,0*43
$PQGSV,1,1,0,0*43
$GPGSA,A,3,02,04,07,08,13,20,23,25,27,,,,0.8,0.6,0.6*30
$GLGSA,A,3,75,77,78,86,87,88,,,,,,,0.8,0.6,0.6*2A
$GAGSA,A,3,09,10,11,12,17,23,24,27,,,,,0.8,0.6,0.6*24
$GPVTG,204.2,T,204.2,M,75.8,N,140.4,K,A*18
$GPDTM,P90,,0000.000022,S,00000.000001,W,0.988,W84*5A
$GPRMC,000551.00,A,2959.889381,N,12000.594257,E,75.8,204.2,230721,4.3,W,A*15
$GPGGA,000551.00,2959.889381,N,12000.594257,E,1,12,0.6,-5.4,M,7.0,M,,*7C

$GPGSV,3,1,12,02,32,298,37,04,50,244,37,07,83,105,36,08,47,206,37*7D
$GPGSV,3,2,12,13,48,030,37,20,21,120,37,23,25,057,37,25,64,040,37*71
$GPGSV,3,3,12,27,18,219,37,10,00,000,,16,00,000,,28,00,000,*74
$GLGSV,2,1,07,78,07,330,34,86,31,025,35,77,57,326,35,75,09,153,35*6A
$GLGSV,2,2,07,88,21,244,35,87,60,303,35,71,01,078,*52
$GAGSV,2,1,08,09,13,316,41,10,64,333,40,11,54,119,41,12,04,130,40*61
$GAGSV,2,2,08,17,28,039,40,23,38,223,41,24,83,018,40,27,28,126,40*60
$PQGSV,1,1,0,0*43
$PQGSV,1,1,0,0*43
$GPGSA,A,3,02,04,07,08,13,20,23,25,27,,,,0.8,0.6,0.6*30
$GLGSA,A,3,75,77,78,86,87,88,,,,,,,0.8,0.6,0.6*2A
$GAGSA,A,3,09,10,11,12,17,23,24,27,,,,,0.8,0.6,0.6*24
$GPVTG,208.6,T,208.6,M,75.8,N,140.4,K,A*18
$GPDTM,P90,,0000.000022,S,00000.000001,W,0.988,W84*5A
$GPRMC,000552.00,A,2959.870530,N,12000.583305,E,75.8,208.6,230721,4.3,W,A*14
$GPGGA,000552.00,2959.870530,N,12000.583305,E,1,12,0.6,-5.7,M,7.0,M,,*76

$GPGSV,3,1,12,02,32,298,37,04,50,244,37,07,83,105,37,08,47,206,37*7C
$GPGSV,3,2,12,13,48,030,36,20,21,120,37,23,25,057,37,25,64,040,37*70
$GPGSV,3,3,12,27,18,219,37,10,00,000,,16,00,000,,28,00,000,*74
$GLGSV,2,1,07,78,07,330,35,86,31,025,35,77,57,326,35,75,09,153,35*6B
$GLGSV,2,2,07,88,21,244,35,87,60,303,35,71,01,078,*52
$GAGSV,2,1,08,09,13,316,40,10,64,333,40,11,54,119,40,12,04,130,40*61
$GAGSV,2,2,08,17,28,039,40,23,38,223,40,24,83,018,40,27,28,126,40*61
$PQGSV,1,1,0,0*43
$PQGSV,1,1,0,0*43
$GPGSA,A,3,02,04,07,08,13,20,23,25,27,,,,0.8,0.6,0.6*30
$GLGSA,A,3,75,77,78,86,87,88,,,,,,,0.8,0.6,0.6*2A
$GAGSA,A,3,09,10,11,12,17,23,24,27,,,,,0.8,0.6,0.6*24
$GPVTG,213.1,T,213.1,M,75.8,N,140.4,K,A*18
$GPDTM,P90,,0000.000022,S,00000.000001,W,0.988,W84*5A
$GPRMC,000553.00,A,2959.852547,N,12000.570613,E,75.8,213.1,230721,4.3,W,A*16
$GPGGA,000553.00,2959.852547,N,12000.570613,E,1,12,0.6,-5.7,M,7.0,M,,*79

$GPGSV,3,1,12,02,32,298,36,04,50,244,37,07,83,105,37,08,47,206,37*7D
$GPGSV,3,2,12,13,48,030,37,20,21,120,36,23,25,057,37,25,64,040,37*70
$GPGSV,3,3,12,27,18,219,37,10,00,000,,16,00,000,,28,00,000,*74
$GLGSV,2,1,07,78,07,330,35,86,31,025,35,77,57,326,35,75,09,153,35*6B
$GLGSV,2,2,07,88,21,244,35,87,60,303,35,71,01,078,*52
$GAGSV,2,1,08,09,13,316,41,10,64,333,40,11,54,119,40,12,04,130,40*60
$GAGSV,2,2,08,17,28,039,40,23,38,223,41,24,83,018,40,27,28,126,40*60
$PQGSV,1,1,0,0*43
$PQGSV,1,1,0,0*43
$GPGSA,A,3,02,04,07,08,13,20,23,25,27,,,,0.8,0.6,0.6*30
$GLGSA,A,3,75,77,78,86,87,88,,,,,,,0.8,0.6,0.6*2A
$GAGSA,A,3,09,10,11,12,17,23,24,27,,,,,0.8,0.6,0.6*24
$GPVTG,217.5,T,217.5,M,75.8,N,140.4,K,A*18
$GPDTM,P90,,0000.000022,S,00000.000001,W,0.988,W84*5A
$GPRMC,000554.00,A,2959.835347,N,12000.556638,E,75.8,217.5,230721,4.3,W,A*1B
$GPGGA,000554.00,2959.835347,N,12000.556638,E,1,12,0.6,-5.8,M,7.0,M,,*7B

$GPGSV,3,1,12,02,32,298,36,04,50,244,37,07,83,105,36,08,47,206,37*7C
$GPGSV,3,2,12,13,48,030,37,20,21,120,37,23,25,057,37,25,64,040,37*71
$GPGSV,3,3,12,27,18,219,37,10,00,000,,16,00,000,,28,00,000,*74
$GLGSV,2,1,07,78,07,330,35,86,31,025,35,77,57,326,35,75,09,153,35*6B
$GLGSV,2,2,07,88,21,244,35,87,60,303,35,71,01,078,*52
$GAGSV,2,1,08,09,13,316,41,10,64,333,40,11,54,119,40,12,04,130,41*61
$GAGSV,2,2,08,17,28,039,40,23,38,223,41,24,83,018,41,27,28,126,40*61
$PQGSV,1,1,0,0*43
$PQGSV,1,1,0,0*43
$GPGSA,A,3,02,04,07,08,13,20,23,25,27,,,,0.8,0.6,0.6*30
$GLGSA,A,3,75,77,78,86,87,88,,,,,,,0.8,0.6,0.6*2A
$GAGSA,A,3,09,10,11,12,17,23,24,27,,,,,0.8,0.6,0.6*24
$GPVTG,222.0,T,222.0,M,75.8,N,140.4,K,A*18
$GPDTM,P90,,0000.000022,S,00000.000001,W,0.988,W84*5A
$GPRMC,000555.00,A,2959.819195,N,12000.541100,E,75.8,222.0,230721,4.3,W,A*10
$GPGGA,000555.00,2959.819195,N,12000.541100,E,1,12,0.6,-6.1,M,7.0,M,,*79

$GPGSV,3,1,12,02,32,298,37,04,50,244,37,07,83,105,36,08,47,206,37*7D
$GPGSV,3,2,12,13,48,030,37,20,21,120,37,23,25,057,37,25,64,040,37*71
$GPGSV,3,3,12,27,18,219,36,10,00,000,,16,00,000,,28,00,000,*75
$GLGSV,2,1,07,78,07,330,35,86,31,025,35,77,57,326,35,75,09,153,35*6B
$GLGSV,2,2,07,88,21,244,35,87,60,303,35,71,01,078,*52
$GAGSV,2,1,08,09,13,316,40,10,64,333,40,11,54,119,40,12,04,130,40*61
$GAGSV,2,2,08,17,28,039,40,23,38,223,40,24,83,018,41,27,28,126,41*61
$PQGSV,1,1,0,0*43
$PQGSV,1,1,0,0*43
$GPGSA,A,3,02,04,07,08,13,20,23,25,27,,,,0.8,0.6,0.6*30
$GLGSA,A,3,75,77,78,86,87,88,,,,,,,0.8,0.6,0.6*2A
$GAGSA,A,3,09,10,11,12,17,23,24,27,,,,,0.8,0.6,0.6*24
$GPVTG,226.4,T,226.4,M,75.8,N,140.4,K,A*18
$GPDTM,P90,,0000.000022,S,00000.000001,W,0.988,W84*5A
$GPRMC,000556.00,A,2959.804208,N,12000.524166,E,75.8,226.4,230721,4.3,W,A*1B
$GPGGA,000556.00,2959.804208,N,12000.524166,E,1,12,0.6,-6.3,M,7.0,M,,*70

$GPGSV,3,1,12,02,32,298,37,04,50,244,37,07,83,105,37,08,47,206,37*7C
$GPGSV,3,2,12,13,48,030,37,20,21,120,37,23,25,057,37,25,64,040,36*70
$GPGSV,3,3,12,27,18,219,37,10,00,000,,16,00,000,,28,00,000,*74
$GLGSV,2,1,07,78,07,330,35,86,31,025,35,77,57,326,35,75,09,153,35*6B
$GLGSV,2,2,07,88,21,244,35,87,60,303,35,71,01,078,*52
$GAGSV,2,1,08,09,13,316,40,10,64,333,40,11,54,119,40,12,04,130,40*61
$GAGSV,2,2,08,17,28,039,40,23,38,223,40,24,83,018,40,27,28,126,40*61
$PQGSV,1,1,0,0*43
$PQGSV,1,1,0,0*43
$GPGSA,A,3,02,04,07,08,13,20,23,25,27,,,,0.8,0.6,0.6*30
$GLGSA,A,3,75,77,78,86,87,88,,,,,,,0.8,0.6,0.6*2A
$GAGSA,A,3,09,10,11,12,17,23,24,27,,,,,0.8,0.6,0.6*24
$GPVTG,230.9,T,230.9,M,75.8,N,140.4,K,A*18
$GPDTM,P90,,0000.000022,S,00000.000001,W,0.988,W84*5A
$GPRMC,000557.00,A,2959.790171,N,12000.506064,E,75.8,230.9,230721,4.3,W,A*1C
$GPGGA,000557.00,2959.790171,N,12000.506064,E,1,12,0.6,-6.4,M,7.0,M,,*7A

$GPGSV,3,1,12,02,32,298,36,04,50,244,37,07,83,105,37,08,47,206,37*7D
$GPGSV,3,2,12,13,48,030,37,20,21,120,37,23,25,057,36,25,64,040,37*70
$GPGSV,3,3,12,27,18,219,37,10,00,000,,16,00,000,,28,00,000,*74
$GLGSV,2,1,07,78,07,330,35,86,31,025,35,77,57,326,35,75,09,153,35*6B
$GLGSV,2,2,07,88,21,244,35,87,60,303,35,71,01,078,*52
$GAGSV,2,1,08,09,13,316,40,10,64,333,40,11,54,119,40,12,04,130,40*61
$GAGSV,2,2,08,17,28,039,41,23,38,223,40,24,83,018,40,27,28,126,40*60
$PQGSV,1,1,0,0*43
$PQGSV,1,1,0,0*43
$GPGSA,A,3,02,04,07,08,13,20,23,25,27,,,,0.8,0.6,0.6*30
$GLGSA,A,3,75,77,78,86,87,88,,,,,,,0.8,0.6,0.6*2A
$GAGSA,A,3,09,10,11,12,17,23,24,27,,,,,0.8,0.6,0.6*24
$GPVTG,235.4,T,235.4,M,75.8,N,140.4,K,A*18
$GPDTM,P90,,0000.000022,S,00000.000001,W,0.988,W84*5A
$GPRMC,000558.00,A,2959.777511,N,12000.486473,E,75.8,235.4,230721,4.3,W,A*1B
$GPGGA,000558.00,2959.777511,N,12000.486473,E,1,12,0.6,-6.7,M,7.0,M,,*76

$GPGSV,3,1,12,02,32,298,36,04,50,244,36,07,83,105,37,08,47,206,37*7C
$GPGSV,3,2,12,13,48,030,36,20,21,120,36,23,25,057,37,25,64,040,37*71
$GPGSV,3,3,12,27,18,219,37,10,00,000,,16,00,000,,28,00,000,*74
$GLGSV,2,1,07,78,07,330,35,86,31,025,35,77,57,326,35,75,09,153,35*6B
$GLGSV,2,2,07,88,21,244,35,87,60,303,35,71,01,078,*52
$GAGSV,2,1,08,09,13,316,40,10,64,333,40,11,54,119,40,12,04,130,40*61
$GAGSV,2,2,08,17,28,039,40,23,38,223,40,24,83,018,40,27,28,126,40*61
$PQGSV,1,1,0,0*43
$PQGSV,1,1,0,0*43
$GPGSA,A,3,02,04,07,08,13,20,23,25,27,,,,0.8,0.6,0.6*30
$GLGSA,A,3,75,77,78,86,87,88,,,,,,,0.8,0.6,0.6*2A
$GAGSA,A,3,09,10,11,12,17,23,24,27,,,,,0.8,0.6,0.6*24
$GPVTG,239.8,T,239.8,M,75.8,N,140.4,K,A*18
$GPDTM,P90,,0000.000022,S,00000.000001,W,0.988,W84*5A
$GPRMC,000559.00,A,2959.766305,N,12000.466066,E,75.8,239.8,230721,4.3,W,A*17
$GPGGA,000559.00,2959.766305,N,12000.466066,E,1,12,0.6,-6.3,M,7.0,M,,*7E

$GPGSV,3,1,12,02,32,298,36,04,50,244,37,07,83,105,37,08,47,206,36*7C
$GPGSV,3,2,12,13,48,030,37,20,21,120,36,23,25,057,37,25,64,040,37*70
$GPGSV,3,3,12,27,18,219,37,10,00,000,,16,00,000,,28,00,000,*74
$GLGSV,2,1,07,78,07,330,35,86,31,025,35,77,57,326,35,75,09,153,35*6B
$GLGSV,2,2,07,88,21,244,35,87,60,303,35,71,01,078,*52
$GAGSV,2,1,08,09,13,316,41,10,64,333,40,11,54,119,40,12,04,130,40*60
$GAGSV,2,2,08,17,28,039,40,23,38,223,41,24,83,018,40,27,28,126,40*60
$PQGSV,1,1,0,0*43
$PQGSV,1,1,0,0*43
$GPGSA,A,3,02,04,07,08,13,20,23,25,27,,,,0.8,0.6,0.6*30
$GLGSA,A,3,75,77,78,86,87,88,,,,,,,0.8,0.6,0.6*2A
$GAGSA,A,3,09,10,11,12,17,23,24,27,,,,,0.8,0.6,0.6*24
$GPVTG,244.3,T,244.3,M,75.8,N,140.4,K,A*18
$GPDTM,P90,,0000.000022,S,00000.000001,W,0.988,W84*5A
$GPRMC,000600.00,A,2959.756389,N,12000.444821,E,75.8,244.3,230721,4.3,W,A*15
$GPGGA,000600.00,2959.756389,N,12000.444821,E,1,12,0.6,-6.1,M,7.0,M,,*7F

$GPGSV,3,1,12,02,32,298,37,04,50,244,37,07,83,105,37,08,47,206,37*7C
$GPGSV,3,2,12,13,48,030,37,20,21,120,37,23,25,057,36,25,64,040,37*70
$GPGSV,3,3,12,27,18,219,37,10,00,000,,16,00,000,,28,00,000,*74
$GLGSV,2,1,07,78,07,330,35,86,31,025,34,77,57,326,35,75,09,153,35*6A
$GLGSV,2,2,07,88,21,244,35,87,60,303,35,71,01,078,*52
$GAGSV,2,1,08,09,13,316,40,10,64,333,40,11,54,119,40,12,04,130,40*61
$GAGSV,2,2,08,17,28,039,40,23,38,223,40,24,83,018,40,27,28,126,40*61
$PQGSV,1,1,0,0*43
$PQGSV,1,1,0,0*43
$GPGSA,A,3,02,04,07,08,13,20,23,25,27,,,,0.8,0.6,0.6*30
$GLGSA,A,3,75,77,78,86,87,88,,,,,,,0.8,0.6,0.6*2A
$GAGSA,A,3,09,10,11,12,17,23,24,27,,,,,0.8,0.6,0.6*24
$GPVTG,248.8,T,248.8,M,75.8,N,140.4,K,A*18
$GPDTM,P90,,0000.000022,S,00000.000001,W,0.988,W84*5A
$GPRMC,000601.00,A,2959.748032,N,12000.422385,E,75.8,248.8,230721,4.3,W,A*1A
$GPGGA,000601.00,2959.748032,N,12000.422385,E,1,12,0.6,-5.9,M,7.0,M,,*7C

$GPGSV,3,1,12,02,32,298,37,04,50,244,37,07,83,105,37,08,47,206,37*7C
$GPGSV,3,2,12,13,48,030,37,20,21,120,37,23,25,057,37,25,64,040,37*71
$GPGSV,3,3,12,27,18,219,37,10,00,000,,16,00,000,,28,00,000,*74
$GLGSV,2,1,07,78,07,330,35,86,31,025,35,77,57,326,35,75,09,153,35*6B
$GLGSV,2,2,07,88,21,244,35,87,60,303,35,71,01,078,*52
$GAGSV,2,1,08,09,13,316,40,10,64,333,40,11,54,119,41,12,04,130,40*60
$GAGSV,2,2,08,17,28,039,40,23,38,223,41,24,83,018,40,27,28,126,40*60
$PQGSV,1,1,0,0*43
$PQGSV,1,1,0,0*43
$GPGSA,A,3,02,04,07,08,13,20,23,25,27,,,,0.8,0.6,0.6*30
$GLGSA,A,3,75,77,78,86,87,88,,,,,,,0.8,0.6,0.6*2A
$GAGSA,A,3,09,10,11,12,17,23,24,27,,,,,0.8,0.6,0.6*24
$GPVTG,253.2,T,253.2,M,75.8,N,140.4,K,A*18
$GPDTM,P90,,0000.000022,S,00000.000001,W,0.988,W84*5A
$GPRMC,000602.00,A,2959.741239,N,12000.399744,E,75.8,253.2,230721,4.3,W,A*17
$GPGGA,000602.00,2959.741239,N,12000.399744,E,1,12,0.6,-5.7,M,7.0,M,,*7F

$GPGSV,3,1,12,02,32,298,36,04,50,244,36,07,83,105,36,08,47,206,36*7C
$GPGSV,3,2,12,13,48,030,37,20,21,120,37,23,25,057,36,25,64,040,36*71
$GPGSV,3,3,12,27,18,219,36,10,00,000,,16,00,000,,28,00,000,*75
$GLGSV,2,1,07,78,07,330,35,86,31,025,35,77,57,326,35,75,09,153,35*6B
$GLGSV,2,2,07,88,21,244,35,87,60,303,35,71,01,078,*52
$GAGSV,2,1,08,09,13,316,40,10,64,333,41,11,54,119,40,12,04,130,40*60
$GAGSV,2,2,08,17,28,039,40,23,38,223,40,24,83,018,40,27,28,126,40*61
$PQGSV,1,1,0,0*43
$PQGSV,1,1,0,0*43
$GPGSA,A,3,02,04,07,08,13,20,23,25,27,,,,0.8,0.6,0.6*30
$GLGSA,A,3,75,77,78,86,87,88,,,,,,,0.8,0.6,0.6*2A
$GAGSA,A,3,09,10,11,12,17,23,24,27,,,,,0.8,0.6,0.6*24
$GPVTG,257.7,T,257.7,M,75.8,N,140.3,K,A*1F
$GPDTM,P90,,0000.000022,S,00000.000001,W,0.988,W84*5A
$GPRMC,000603.00,A,2959.735958,N,12000.376238,E,75.8,257.7,230721,4.3,W,A*17
$GPGGA,000603.00,2959.735958,N,12000.376238,E,1,12,0.6,-5.6,M,7.0,M,,*7F

$GPGSV,3,1,12,02,32,298,37,04,50,244,37,07,83,105,37,08,47,206,36*7D
$GPGSV,3,2,12,13,48,030,36,20,21,120,37,23,25,057,37,25,64,040,37*70
$GPGSV,3,3,12,27,18,219,36,10,00,000,,16,00,000,,28,00,000,*75
$GLGSV,2,1,07,78,07,330,35,86,31,025,34,77,57,326,35,75,09,153,35*6A
$GLGSV,2,2,07,88,21,244,35,87,60,303,35,71,01,078,*52
$GAGSV,2,1,08,09,13,316,40,10,64,333,41,11,54,119,41,12,04,130,40*61
$GAGSV,2,2,08,17,28,039,40,23,38,223,40,24,83,018,41,27,28,126,40*60
$PQGSV,1,1,0,0*43
$PQGSV,1,1,0,0*43
$GPGSA,A,3,02,04,07,08,13,20,23,25,27,,,,0.8,0.6,0.6*30
$GLGSA,A,3,75,77,78,86,87,88,,,,,,,0.8,0.6,0.6*2A
$GAGSA,A,3,09,10,11,12,17,23,24,27,,,,,0.8,0.6,0.6*24
$GPVTG,262.1,T,262.1,M,75.8,N,140.4,K,A*18
$GPDTM,P90,,0000.000022,S,00000.000001,W,0.988,W84*5A
$GPRMC,000604.00,A,2959.732667,N,12000.352353,E,75.8,262.1,230721,4.3,W,A*1E
$GPGGA,000604.00,2959.732667,N,12000.352353,E,1,12,0.6,-6.0,M,7.0,M,,*73

$GPGSV,3,1,12,02,32,298,37,04,50,244,37,07,83,105,37,08,47,206,37*7C
$GPGSV,3,2,12,13,48,030,37,20,21,120,37,23,25,057,37,25,64,040,37*71
$GPGSV,3,3,12,27,18,219,36,10,00,000,,16,00,000,,28,00,000,*75
$GLGSV,2,1,07,78,07,330,34,86,31,025,35,77,57,326,35,75,09,153,35*6A
$GLGSV,2,2,07,88,21,244,35,87,60,303,35,71,01,078,*52
$GAGSV,2,1,08,09,13,316,40,10,64,333,40,11,54,119,41,12,04,130,40*60
$GAGSV,2,2,08,17,28,039,40,23,38,223,40,24,83,018,40,27,28,126,41*60
$PQGSV,1,1,0,0*43
$PQGSV,1,1,0,0*43
$GPGSA,A,3,02,04,07,08,13,20,23,25,27,,,,0.8,0.6,0.6*30
$GLGSA,A,3,75,77,78,86,87,88,,,,,,,0.8,0.6,0.6*2A
$GAGSA,A,3,09,10,11,12,17,23,24,27,,,,,0.8,0.6,0.6*24
$GPVTG,266.5,T,266.5,M,75.8,N,140.4,K,A*18
$GPDTM,P90,,0000.000022,S,00000.000001,W,0.988,W84*5A
$GPRMC,000605.00,A,2959.730767,N,12000.328344,E,75.8,266.5,230721,4.3,W,A*17
$GPGGA,000605.00,2959.730767,N,12000.328344,E,1,12,0.6,-5.6,M,7.0,M,,*7F

$GPGSV,3,1,12,02,32,298,37,04,50,244,36,07,83,105,37,08,47,206,36*7C
$GPGSV,3,2,12,13,48,030,37,20,21,120,36,23,25,057,37,25,64,040,37*70
$GPGSV,3,3,12,27,18,219,36,10,00,000,,16,00,000,,28,00,000,*75
$GLGSV,2,1,07,78,07,330,35,86,31,025,34,77,57,326,35,75,09,153,35*6A
$GLGSV,2,2,07,88,21,244,35,87,60,303,35,71,01,078,*52
$GAGSV,2,1,08,09,13,316,41,10,64,333,41,11,54,119,41,12,04,130,40*60
$GAGSV,2,2,08,17,28,039,40,23,38,223,40,24,83,018,40,27,28,126,40*61
$PQGSV,1,1,0,0*43
$PQGSV,1,1,0,0*43
$GPGSA,A,3,02,04,07,08,13,20,23,25,27,,,,0.8,0.6,0.6*30
$GLGSA,A,3,75,77,78,86,87,88,,,,,,,0.8,0.6,0.6*2A
$GAGSA,A,3,09,10,11,12,17,23,24,27,,,,,0.8,0.6,0.6*24
$GPVTG,271.0,T,271.0,M,75.8,N,140.4,K,A*18
$GPDTM,P90,,0000.000022,S,00000.000001,W,0.988,W84*5A
$GPRMC,000606.00,A,2959.730185,N,12000.304178,E,75.8,271.0,230721,4.3,W,A*1E
$GPGGA,000606.00,2959.730185,N,12000.304178,E,1,12,0.6,-5.5,M,7.0,M,,*76

$GPGSV,3,1,12,02,32,298,37,04,50,244,37,07,83,105,37,08,47,206,36*7D
$GPGSV,3,2,12,13,48,030,37,20,21,120,37,23,25,057,37,25,64,040,37*71
$GPGSV,3,3,12,27,18,219,37,10,00,000,,16,00,000,,28,00,000,*74
$GLGSV,2,1,07,78,07,330,35,86,31,025,35,77,57,326,35,75,09,153,35*6B
$GLGSV,2,2,07,88,21,244,35,87,60,303,35,71,01,078,*52
$GAGSV,2,1,08,09,13,316,40,10,64,333,40,11,54,119,40,12,04,130,40*61
$GAGSV,2,2,08,17,28,039,40,23,38,223,40,24,83,018,40,27,28,126,40*61
$PQGSV,1,1,0,0*43
$PQGSV,1,1,0,0*43
$GPGSA,A,3,02,04,07,08,13,20,23,25,27,,,,0.8,0.6,0.6*30
$GLGSA,A,3,75,77,78,86,87,88,,,,,,,0.8,0.6,0.6*2A
$GAGSA,A,3,09,10,11,12,17,23,24,27,,,,,0.8,0.6,0.6*24
$GPVTG,275.5,T,275.5,M,75.8,N,140.4,K,A*18
$GPDTM,P90,,0000.000022,S,00000.000001,W,0.988,W84*5A
$GPRMC,000607.00,A,2959.731390,N,12000.279931,E,75.8,275.5,230721,4.3,W,A*17
$GPGGA,000607.00,2959.731390,N,12000.279931,E,1,12,0.6,-5.5,M,7.0,M,,*7E

$GPGSV,3,1,12,02,32,298,36,04,50,244,37,07,83,105,37,08,47,206,37*7D
$GPGSV,3,2,12,13,48,030,37,20,21,120,37,23,25,057,37,25,64,040,36*70
$GPGSV,3,3,12,27,18,219,37,10,00,000,,16,00,000,,28,00,000,*74
$GLGSV,2,1,07,78,07,330,35,86,31,025,34,77,57,326,35,75,09,153,35*6A
$GLGSV,2,2,07,88,21,244,35,87,60,303,35,71,01,078,*52
$GAGSV,2,1,08,09,13,316,40,10,64,333,40,11,54,119,40,12,04,130,40*61
$GAGSV,2,2,08,17,28,039,40,23,38,223,40,24,83,018,40,27,28,126,40*61
$PQGSV,1,1,0,0*43
$PQGSV,1,1,0,0*43
$GPGSA,A,3,02,04,07,08,13,20,23,25,27,,,,0.8,0.6,0.6*30
$GLGSA,A,3,75,77,78,86,87,88,,,,,,,0.8,0.6,0.6*2A
$GAGSA,A,3,09,10,11,12,17,23,24,27,,,,,0.8,0.6,0.6*24
$GPVTG,279.9,T,279.9,M,75.8,N,140.3,K,A*1F
$GPDTM,P90,,0000.000022,S,00000.000001,W,0.988,W84*5A
$GPRMC,000608.00,A,2959.734232,N,12000.255961,E,75.8,279.9,230721,4.3,W,A*1F
$GPGGA,000608.00,2959.734232,N,12000.255961,E,1,12,0.6,-5.4,M,7.0,M,,*77

$GPGSV,3,1,12,02,32,298,36,04,50,244,37,07,83,105,37,08,47,206,36*7C
$GPGSV,3,2,12,13,48,030,36,20,21,120,37,23,25,057,37,25,64,040,37*70
$GPGSV,3,3,12,27,18,219,37,10,00,000,,16,00,000,,28,00,000,*74
$GLGSV,2,1,07,78,07,330,35,86,31,025,35,77,57,326,35,75,09,153,35*6B
$GLGSV,2,2,07,88,21,244,35,87,60,303,35,71,01,078,*52
$GAGSV,2,1,08,09,13,316,40,10,64,333,40,11,54,119,40,12,04,130,40*61
$GAGSV,2,2,08,17,28,039,40,23,38,223,41,24,83,018,40,27,28,126,41*61
$PQGSV,1,1,0,0*43
$PQGSV,1,1,0,0*43
$GPGSA,A,3,02,04,07,08,13,20,23,25,27,,,,0.8,0.6,0.6*30
$GLGSA,A,3,75,77,78,86,87,88,,,,,,,0.8,0.6,0.6*2A
$GAGSA,A,3,09,10,11,12,17,23,24,27,,,,,0.8,0.6,0.6*24
$GPVTG,284.4,T,284.4,M,75.8,N,140.4,K,A*18
$GPDTM,P90,,0000.000022,S,00000.000001,W,0.988,W84*5A
$GPRMC,000609.00,A,2959.738404,N,12000.232312,E,75.8,284.4,230721,4.3,W,A*11
$GPGGA,000609.00,2959.738404,N,12000.232312,E,1,12,0.6,-5.4,M,7.0,M,,*76

$GPGSV,3,1,12,02,32,298,36,04,50,244,36,07,83,105,37,08,47,206,37*7C
$GPGSV,3,2,12,13,48,030,37,20,21,120,37,23,25,057,37,25,64,040,36*70
$GPGSV,3,3,12,27,18,219,36,10,00,000,,16,00,000,,28,00,000,*75
$GLGSV,2,1,07,78,07,330,35,86,31,025,34,77,57,326,35,75,09,153,35*6A
$GLGSV,2,2,07,88,21,244,35,87,60,303,35,71,01,078,*52
$GAGSV,2,1,08,09,13,316,40,10,64,333,40,11,54,119,40,12,04,130,40*61
$GAGSV,2,2,08,17,28,039,40,23,38,223,40,24,83,018,41,27,28,126,40*60
$PQGSV,1,1,0,0*43
$PQGSV,1,1,0,0*43
$GPGSA,A,3,02,04,07,08,13,20,23,25,27,,,,0.8,0.6,0.6*30
$GLGSA,A,3,75,77,78,86,87,88,,,,,,,0.8,0.6,0.6*2A
$GAGSA,A,3,09,10,11,12,17,23,24,27,,,,,0.8,0.6,0.6*24
$GPVTG,288.8,T,288.8,M,75.8,N,140.4,K,A*18
$GPDTM,P90,,0000.000022,S,00000.000001,W,0.988,W84*5A
$GPRMC,000610.00,A,2959.744517,N,12000.209342,E,75.8,288.8,230721,4.3,W,A*1C
$GPGGA,000610.00,2959.744517,N,12000.209342,E,1,12,0.6,-5.2,M,7.0,M,,*7D

$GPGSV,3,1,12,02,32,298,37,04,50,244,37,07,83,105,37,08,47,206,36*7D
$GPGSV,3,2,12,13,48,030,37,20,21,120,36,23,25,057,37,25,64,040,37*70
$GPGSV,3,3,12,27,18,219,37,10,00,000,,16,00,000,,28,00,000,*74
$GLGSV,2,1,07,78,07,330,35,86,31,025,35,77,57,326,34,75,09,153,35*6A
$GLGSV,2,2,07,88,21,244,35,87,60,303,35,71,01,078,*52
$GAGSV,2,1,08,09,13,316,41,10,64,333,41,11,54,119,40,12,04,130,40*61
$GAGSV,2,2,08,17,28,039,40,23,38,223,40,24,83,018,41,27,28,126,40*60
$PQGSV,1,1,0,0*43
$PQGSV,1,1,0,0*43
$GPGSA,A,3,02,04,07,08,13,20,23,25,27,,,,0.8,0.6,0.6*30
$GLGSA,A,3,75,77,78,86,87,88,,,,,,,0.8,0.6,0.6*2A
$GAGSA,A,3,09,10,11,12,17,23,24,27,,,,,0.8,0.6,0.6*24
$GPVTG,293.3,T,293.3,M,75.8,N,140.4,K,A*18
$GPDTM,P90,,0000.000022,S,00000.000001,W,0.988,W84*5A
$GPRMC,000611.00,A,2959.752091,N,12000.186852,E,75.8,293.3,230721,4.3,W,A*1E
$GPGGA,000611.00,2959.752091,N,12000.186852,E,1,12,0.6,-5.4,M,7.0,M,,*78

$GPGSV,3,1,12,02,32,298,37,04,50,244,37,07,83,105,37,08,47,206,36*7D
$GPGSV,3,2,12,13,48,030,37,20,21,120,37,23,25,057,36,25,64,040,37*70
$GPGSV,3,3,12,27,18,219,36,10,00,000,,16,00,000,,28,00,000,*75
$GLGSV,2,1,07,78,07,330,35,86,31,025,35,77,57,326,35,75,09,153,35*6B
$GLGSV,2,2,07,88,21,244,35,87,60,303,35,71,01,078,*52
$GAGSV,2,1,08,09,13,316,41,10,64,333,40,11,54,119,41,12,04,130,40*61
$GAGSV,2,2,08,17,28,039,40,23,38,223,41,24,83,018,40,27,28,126,41*61
$PQGSV,1,1,0,0*43
$PQGSV,1,1,0,0*43
$GPGSA,A,3,02,04,07,08,13,20,23,25,27,,,,0.8,0.6,0.6*30
$GLGSA,A,3,75,77,78,86,87,88,,,,,,,0.8,0.6,0.6*2A
$GAGSA,A,3,09,10,11,12,17,23,24,27,,,,,0.8,0.6,0.6*24
$GPVTG,297.7,T,297.7,M,75.8,N,140.4,K,A*18
$GPDTM,P90,,0000.000022,S,00000.000001,W,0.988,W84*5A
$GPRMC,000612.00,A,2959.761150,N,12000.164892,E,75.8,297.7,230721,4.3,W,A*11
$GPGGA,000612.00,2959.761150,N,12000.164892,E,1,12,0.6,-5.4,M,7.0,M,,*77

$GPGSV,3,1,12,02,32,298,37,04,50,244,36,07,83,105,37,08,47,206,36*7C
$GPGSV,3,2,12,13,48,030,37,20,21,120,37,23,25,057,36,25,64,040,37*70
$GPGSV,3,3,12,27,18,219,37,10,00,000,,16,00,000,,28,00,000,*74
$GLGSV,2,1,07,78,07,330,35,86,31,025,34,77,57,326,35,75,09,153,35*6A
$GLGSV,2,2,07,88,21,244,35,87,60,303,35,71,01,078,*52
$GAGSV,2,1,08,09,13,316,40,10,64,333,40,11,54,119,40,12,04,130,40*61
$GAGSV,2,2,08,17,28,039,40,23,38,223,40,24,83,018,40,27,28,126,40*61
$PQGSV,1,1,0,0*43
$PQGSV,1,1,0,0*43
$GPGSA,A,3,02,04,07,08,13,20,23,25,27,,,,0.8,0.6,0.6*30
$GLGSA,A,3,75,77,78,86,87,88,,,,,,,0.8,0.6,0.6*2A
$GAGSA,A,3,09,10,11,12,17,23,24,27,,,,,0.8,0.6,0.6*24
$GPVTG,302.2,T,302.2,M,75.8,N,140.4,K,A*18
$GPDTM,P90,,0000.000022,S,00000.000001,W,0.988,W84*5A
$GPRMC,000613.00,A,2959.771560,N,12000.143793,E,75.8,302.2,230721,4.3,W,A*15
$GPGGA,000613.00,2959.771560,N,12000.143793,E,1,12,0.6,-5.6,M,7.0,M,,*79

$GPGSV,3,1,12,02,32,298,37,04,50,244,37,07,83,105,37,08,47,206,36*7D
$GPGSV,3,2,12,13,48,030,37,20,21,120,37,23,25,057,37,25,64,040,37*71
$GPGSV,3,3,12,27,18,219,36,10,00,000,,16,00,000,,28,00,000,*75
$GLGSV,2,1,07,78,07,330,35,86,31,025,34,77,57,326,35,75,09,153,35*6A
$GLGSV,2,2,07,88,21,244,35,87,60,303,35,71,01,078,*52
$GAGSV,2,1,08,09,13,316,41,10,64,333,40,11,54,119,41,12,04,130,40*61
$GAGSV,2,2,08,17,28,039,41,23,38,223,40,24,83,018,40,27,28,126,40*60
$PQGSV,1,1,0,0*43
$PQGSV,1,1,0,0*43
$GPGSA,A,3,02,04,07,08,13,20,23,25,27,,,,0.8,0.6,0.6*30
$GLGSA,A,3,75,77,78,86,87,88,,,,,,,0.8,0.6,0.6*2A
$GAGSA,A,3,09,10,11,12,17,23,24,27,,,,,0.8,0.6,0.6*24
$GPVTG,306.7,T,306.7,M,75.8,N,140.4,K,A*18
$GPDTM,P90,,0000.000022,S,00000.000001,W,0.988,W84*5A
$GPRMC,000614.00,A,2959.783762,N,12000.123892,E,75.8,306.7,230721,4.3,W,A*16
$GPGGA,000614.00,2959.783762,N,12000.123892,E,1,12,0.6,-5.7,M,7.0,M,,*7A

$GPGSV,3,1,12,02,32,298,37,04,50,244,37,07,83,105,37,08,47,206,37*7C
$GPGSV,3,2,12,13,48,030,36,20,21,120,37,23,25,057,36,25,64,040,36*70
$GPGSV,3,3,12,27,18,219,36,10,00,000,,16,00,000,,28,00,000,*75
$GLGSV,2,1,07,78,07,330,35,86,31,025,34,77,57,326,35,75,09,153,35*6A
$GLGSV,2,2,07,88,21,244,35,87,60,303,35,71,01,078,*52
$GAGSV,2,1,08,09,13,316,40,10,64,333,40,11,54,119,40,12,04,130,40*61
$GAGSV,2,2,08,17,28,039,41,23,38,223,40,24,83,018,40,27,28,126,40*60
$PQGSV,1,1,0,0*43
$PQGSV,1,1,0,0*43
$GPGSA,A,3,02,04,07,08,13,20,23,25,27,,,,0.8,0.6,0.6*30
$GLGSA,A,3,75,77,78,86,87,88,,,,,,,0.8,0.6,0.6*2A
$GAGSA,A,3,09,10,11,12,17,23,24,27,,,,,0.8,0.6,0.6*24
$GPVTG,311.1,T,311.1,M,75.8,N,140.3,K,A*1F
$GPDTM,P90,,0000.000022,S,00000.000001,W,0.988,W84*5A
$GPRMC,000615.00,A,2959.797004,N,12000.105203,E,75.8,311.1,230721,4.3,W,A*13
$GPGGA,000615.00,2959.797004,N,12000.105203,E,1,12,0.6,-5.6,M,7.0,M,,*7E

$GPGSV,3,1,12,02,32,298,36,04,50,244,36,07,83,105,37,08,47,206,37*7C
$GPGSV,3,2,12,13,48,030,37,20,21,120,37,23,25,057,36,25,64,040,37*70
$GPGSV,3,3,12,27,18,219,36,10,00,000,,16,00,000,,28,00,000,*75
$GLGSV,2,1,07,78,07,330,35,86,31,025,34,77,57,326,35,75,09,153,35*6A
$GLGSV,2,2,07,88,21,244,35,87,60,303,35,71,01,078,*52
$GAGSV,2,1,08,09,13,316,40,10,64,333,40,11,54,119,40,12,04,130,40*61
$GAGSV,2,2,08,17,28,039,41,23,38,223,41,24,83,018,40,27,28,126,40*61
$PQGSV,1,1,0,0*43
$PQGSV,1,1,0,0*43
$GPGSA,A,3,02,04,07,08,13,20,23,25,27,,,,0.8,0.6,0.6*30
$GLGSA,A,3,75,77,78,86,87,88,,,,,,,0.8,0.6,0.6*2A
$GAGSA,A,3,09,10,11,12,17,23,24,27,,,,,0.8,0.6,0.6*24
$GPVTG,315.6,T,315.6,M,75.8,N,140.4,K,A*18
$GPDTM,P90,,0000.000022,S,00000.000001,W,0.988,W84*5A
$GPRMC,000616.00,A,2959.811658,N,12000.087769,E,75.8,315.6,230721,4.3,W,A*1F
$GPGGA,000616.00,2959.811658,N,12000.087769,E,1,12,0.6,-5.5,M,7.0,M,,*72

$GPGSV,3,1,12,02,32,298,36,04,50,244,37,07,83,105,36,08,47,206,37*7C
$GPGSV,3,2,12,13,48,030,37,20,21,120,37,23,25,057,37,25,64,040,36*70
$GPGSV,3,3,12,27,18,219,36,10,00,000,,16,00,000,,28,00,000,*75
$GLGSV,2,1,07,78,07,330,35,86,31,025,35,77,57,326,35,75,09,153,35*6B
$GLGSV,2,2,07,88,21,244,35,87,60,303,35,71,01,078,*52
$GAGSV,2,1,08,09,13,316,40,10,64,333,40,11,54,119,40,12,04,130,41*60
$GAGSV,2,2,08,17,28,039,40,23,38,223,40,24,83,018,40,27,28,126,40*61
$PQGSV,1,1,0,0*43
$PQGSV,1,1,0,0*43
$GPGSA,A,3,02,04,07,08,13,20,23,25,27,,,,0.8,0.6,0.6*30
$GLGSA,A,3,75,77,78,86,87,88,,,,,,,0.8,0.6,0.6*2A
$GAGSA,A,3,09,10,11,12,17,23,24,27,,,,,0.8,0.6,0.6*24
$GPVTG,320.0,T,320.0,M,75.8,N,140.3,K,A*1F
$GPDTM,P90,,0000.000022,S,00000.000001,W,0.988,W84*5A
$GPRMC,000617.00,A,2959.827184,N,12000.071461,E,75.8,320.0,230721,4.3,W,A*1F
$GPGGA,000617.00,2959.827184,N,12000.071461,E,1,12,0.6,-5.6,M,7.0,M,,*71

$GPGSV,3,1,12,02,32,298,37,04,50,244,37,07,83,105,37,08,47,206,37*7C
$GPGSV,3,2,12,13,48,030,37,20,21,120,37,23,25,057,36,25,64,040,36*71
$GPGSV,3,3,12,27,18,219,37,10,00,000,,16,00,000,,28,00,000,*74
$GLGSV,2,1,07,78,07,330,35,86,31,025,35,77,57,326,35,75,09,153,35*6B
$GLGSV,2,2,07,88,21,244,35,87,60,303,35,71,01,078,*52
$GAGSV,2,1,08,09,13,316,41,10,64,333,41,11,54,119,41,12,04,130,41*61
$GAGSV,2,2,08,17,28,039,40,23,38,223,40,24,83,018,41,27,28,126,40*60
$PQGSV,1,1,0,0*43
$PQGSV,1,1,0,0*43
$GPGSA,A,3,02,04,07,08,13,20,23,25,27,,,,0.8,0.6,0.6*30
$GLGSA,A,3,75,77,78,86,87,88,,,,,,,0.8,0.6,0.6*2A
$GAGSA,A,3,09,10,11,12,17,23,24,27,,,,,0.8,0.6,0.6*24
$GPVTG,324.5,T,324.5,M,75.8,N,140.3,K,A*1F
$GPDTM,P90,,0000.000022,S,00000.000001,W,0.988,W84*5A
$GPRMC,000618.00,A,2959.843680,N,12000.056740,E,75.8,324.5,230721,4.3,W,A*15
$GPGGA,000618.00,2959.843680,N,12000.056740,E,1,12,0.6,-5.8,M,7.0,M,,*74

$GPGSV,3,1,12,02,32,298,37,04,50,244,36,07,83,105,37,08,47,206,37*7D
$GPGSV,3,2,12,13,48,030,37,20,21,120,37,23,25,057,36,25,64,040,37*70
$GPGSV,3,3,12,27,18,219,36,10,00,000,,16,00,000,,28,00,000,*75
$GLGSV,2,1,07,78,07,330,35,86,31,025,35,77,57,326,35,75,09,153,35*6B
$GLGSV,2,2,07,88,21,244,35,87,60,303,35,71,01,078,*52
$GAGSV,2,1,08,09,13,316,40,10,64,333,41,11,54,119,40,12,04,130,41*61
$GAGSV,2,2,08,17,28,039,40,23,38,223,40,24,83,018,40,27,28,126,40*61
$PQGSV,1,1,0,0*43
$PQGSV,1,1,0,0*43
$GPGSA,A,3,02,04,07,08,13,20,23,25,27,,,,0.8,0.6,0.6*30
$GLGSA,A,3,75,77,78,86,87,88,,,,,,,0.8,0.6,0.6*2A
$GAGSA,A,3,09,10,11,12,17,23,24,27,,,,,0.8,0.6,0.6*24
$GPVTG,328.9,T,328.9,M,75.8,N,140.4,K,A*18
$GPDTM,P90,,0000.000022,S,00000.000001,W,0.988,W84*5A
$GPRMC,000619.00,A,2959.861461,N,12000.043607,E,75.8,328.9,230721,4.3,W,A*1F
$GPGGA,000619.00,2959.861461,N,12000.043607,E,1,12,0.6,-5.6,M,7.0,M,,*70

$GPGSV,3,1,12,02,32,298,36,04,50,244,37,07,83,105,37,08,47,206,36*7C
$GPGSV,3,2,12,13,48,030,37,20,21,120,36,23,25,057,37,25,64,040,37*70
$GPGSV,3,3,12,27,18,219,36,10,00,000,,16,00,000,,28,00,000,*75
$GLGSV,2,1,07,78,07,330,35,86,31,025,35,77,57,326,35,75,09,153,35*6B
$GLGSV,2,2,07,88,21,244,35,87,60,303,35,71,01,078,*52
$GAGSV,2,1,08,09,13,316,40,10,64,333,40,11,54,119,41,12,04,130,40*60
$GAGSV,2,2,08,17,28,039,40,23,38,223,40,24,83,018,41,27,28,126,40*60
$PQGSV,1,1,0,0*43
$PQGSV,1,1,0,0*43
$GPGSA,A,3,02,04,07,08,13,20,23,25,27,,,,0.8,0.6,0.6*30
$GLGSA,A,3,75,77,78,86,87,88,,,,,,,0.8,0.6,0.6*2A
$GAGSA,A,3,09,10,11,12,17,23,24,27,,,,,0.8,0.6,0.6*24
$GPVTG,333.4,T,333.4,M,75.8,N,140.4,K,A*18
$GPDTM,P90,,0000.000022,S,00000.000001,W,0.988,W84*5A
$GPRMC,000620.00,A,2959.880001,N,12000.031825,E,75.8,333.4,230721,4.3,W,A*14
$GPGGA,000620.00,2959.880001,N,12000.031825,E,1,12,0.6,-5.7,M,7.0,M,,*7D

$GPGSV,3,1,12,02,32,298,37,04,50,244,36,07,83,105,37,08,47,206,37*7D
$GPGSV,3,2,12,13,48,030,37,20,21,120,36,23,25,057,37,25,64,040,37*70
$GPGSV,3,3,12,27,18,219,36,10,00,000,,16,00,000,,28,00,000,*75
$GLGSV,2,1,07,78,07,330,35,86,31,025,34,77,57,326,35,75,09,153,35*6A
$GLGSV,2,2,07,88,21,244,35,87,60,303,35,71,01,078,*52
$GAGSV,2,1,08,09,13,316,40,10,64,333,41,11,54,119,40,12,04,130,40*60
$GAGSV,2,2,08,17,28,039,41,23,38,223,40,24,83,018,40,27,28,126,41*61
$PQGSV,1,1,0,0*43
$PQGSV,1,1,0,0*43
$GPGSA,A,3,02,04,07,08,13,20,23,25,27,,,,0.8,0.6,0.6*30
$GLGSA,A,3,75,77,78,86,87,88,,,,,,,0.8,0.6,0.6*2A
$GAGSA,A,3,09,10,11,12,17,23,24,27,,,,,0.8,0.6,0.6*24
$GPVTG,337.9,T,337.9,M,75.8,N,140.3,K,A*1F
$GPDTM,P90,,0000.000022,S,00000.000001,W,0.988,W84*5A
$GPRMC,000621.00,A,2959.899335,N,12000.021941,E,75.8,337.9,230721,4.3,W,A*12
$GPGGA,000621.00,2959.899335,N,12000.021941,E,1,12,0.6,-5.6,M,7.0,M,,*73

$GPGSV,3,1,12,02,32,298,37,04,50,244,37,07,83,105,37,08,47,206,37*7C
$GPGSV,3,2,12,13,48,030,37,20,21,120,37,23,25,057,37,25,64,040,37*71
$GPGSV,3,3,12,27,18,219,37,10,00,000,,16,00,000,,28,00,000,*74
$GLGSV,2,1,07,78,07,330,35,86,31,025,34,77,57,326,35,75,09,153,35*6A
$GLGSV,2,2,07,88,21,244,35,87,60,303,35,71,01,078,*52
$GAGSV,2,1,08,09,13,316,40,10,64,333,40,11,54,119,40,12,04,130,40*61
$GAGSV,2,2,08,17,28,039,41,23,38,223,41,24,83,018,40,27,28,126,41*60
$PQGSV,1,1,0,0*43
$PQGSV,1,1,0,0*43
$GPGSA,A,3,02,04,07,08,13,20,23,25,27,,,,0.8,0.6,0.6*30
$GLGSA,A,3,75,77,78,86,87,88,,,,,,,0.8,0.6,0.6*2A
$GAGSA,A,3,09,10,11,12,17,23,24,27,,,,,0.8,0.6,0.6*24
$GPVTG,342.3,T,342.3,M,75.8,N,140.5,K,A*19
$GPDTM,P90,,0000.000022,S,00000.000001,W,0.988,W84*5A
$GPRMC,000622.00,A,2959.919156,N,12000.013701,E,75.8,342.3,230721,4.3,W,A*1C
$GPGGA,000622.00,2959.919156,N,12000.013701,E,1,12,0.6,-5.4,M,7.0,M,,*77

$GPGSV,3,1,12,02,32,298,37,04,50,244,36,07,83,105,37,08,47,206,36*7C
$GPGSV,3,2,12,13,48,030,37,20,21,120,37,23,25,057,37,25,64,040,37*71
$GPGSV,3,3,12,27,18,219,37,10,00,000,,16,00,000,,28,00,000,*74
$GLGSV,2,1,07,78,07,330,35,86,31,025,35,77,57,326,35,75,09,153,35*6B
$GLGSV,2,2,07,88,21,244,35,87,60,303,35,71,01,078,*52
$GAGSV,2,1,08,09,13,316,40,10,64,333,40,11,54,119,40,12,04,130,40*61
$GAGSV,2,2,08,17,28,039,40,23,38,223,40,24,83,018,40,27,28,126,40*61
$PQGSV,1,1,0,0*43
$PQGSV,1,1,0,0*43
$GPGSA,A,3,02,04,07,08,13,20,23,25,27,,,,0.8,0.6,0.6*30
$GLGSA,A,3,75,77,78,86,87,88,,,,,,,0.8,0.6,0.6*2A
$GAGSA,A,3,09,10,11,12,17,23,24,27,,,,,0.8,0.6,0.6*24
$GPVTG,346.8,T,346.8,M,75.7,N,140.2,K,A*11
$GPDTM,P90,,0000.000022,S,00000.000001,W,0.988,W84*5A
$GPRMC,000623.00,A,2959.939351,N,12000.007544,E,75.7,346.8,230721,4.3,W,A*1C
$GPGGA,000623.00,2959.939351,N,12000.007544,E,1,12,0.6,-5.4,M,7.0,M,,*77

$GPGSV,3,1,12,02,32,296,36,04,49,241,37,07,83,088,37,08,48,208,36*7A
$GPGSV,3,2,12,13,47,033,37,20,20,122,37,23,25,057,36,25,63,039,37*76
$GPGSV,3,3,12,27,19,219,37,10,01,310,,16,00,000,,28,00,000,*76
$GLGSV,2,1,07,78,07,330,35,86,31,025,35,77,57,326,35,75,09,153,35*6B
$GLGSV,2,2,07,88,21,244,35,87,60,303,35,71,01,078,*52
$GAGSV,2,1,08,09,14,316,40,10,65,333,40,11,53,119,41,12,04,130,40*61
$GAGSV,2,2,08,17,28,039,40,23,39,223,40,24,82,018,40,27,27,127,40*6F
$PQGSV,1,1,0,0*43
$PQGSV,1,1,0,0*43
$GPGSA,A,3,02,04,07,08,13,20,23,25,27,,,,0.8,0.6,0.6*30
$GLGSA,A,3,75,77,78,86,87,88,,,,,,,0.8,0.6,0.6*2A
$GAGSA,A,3,09,10,11,12,17,23,24,27,,,,,0.8,0.6,0.6*24
$GPVTG,351.2,T,351.2,M,75.8,N,140.4,K,A*18
$GPDTM,P90,,0000.000022,S,00000.000001,W,0.988,W84*5A
$GPRMC,000624.00,A,2959.959949,N,12000.003063,E,75.8,351.2,230721,4.3,W,A*19
$GPGGA,000624.00,2959.959949,N,12000.003063,E,1,12,0.6,-5.6,M,7.0,M,,*73

$GPGSV,3,1,12,02,32,296,37,04,49,241,37,07,83,088,37,08,48,208,37*7A
$GPGSV,3,2,12,13,47,033,37,20,20,122,36,23,25,057,37,25,63,039,37*76
$GPGSV,3,3,12,27,19,219,36,10,01,310,,16,00,000,,28,00,000,*77
$GLGSV,2,1,07,78,07,330,35,86,31,025,35,77,57,326,35,75,09,153,35*6B
$GLGSV,2,2,07,88,21,244,34,87,60,303,35,71,01,078,*53
$GAGSV,2,1,08,09,14,316,40,10,65,333,40,11,53,119,40,12,04,130,40*60
$GAGSV,2,2,08,17,28,039,41,23,39,223,40,24,82,018,41,27,27,127,40*6F
$PQGSV,1,1,0,0*43
$PQGSV,1,1,0,0*43
$GPGSA,A,3,02,04,07,08,13,20,23,25,27,,,,0.8,0.6,0.6*30
$GLGSA,A,3,75,77,78,86,87,88,,,,,,,0.8,0.6,0.6*2A
$GAGSA,A,3,09,10,11,12,17,23,24,27,,,,,0.8,0.6,0.6*24
$GPVTG,355.7,T,355.7,M,75.8,N,140.4,K,A*18
$GPDTM,P90,,0000.000022,S,00000.000001,W,0.988,W84*5A
$GPRMC,000625.00,A,2959.980927,N,12000.000428,E,75.8,355.7,230721,4.3,W,A*1D
$GPGGA,000625.00,2959.980927,N,12000.000428,E,1,12,0.6,-5.8,M,7.0,M,,*78

$GPGSV,3,1,12,02,32,296,37,04,49,241,36,07,83,088,37,08,48,208,37*7B
$GPGSV,3,2,12,13,47,033,37,20,20,122,36,23,25,057,36,25,63,039,36*76
$GPGSV,3,3,12,27,19,219,37,10,01,310,,16,00,000,,28,00,000,*76
$GLGSV,2,1,07,78,07,330,35,86,31,025,34,77,57,326,35,75,09,153,35*6A
$GLGSV,2,2,07,88,21,244,35,87,60,303,35,71,01,078,*52
$GAGSV,2,1,08,09,14,316,41,10,65,333,40,11,53,119,40,12,04,130,40*61
$GAGSV,2,2,08,17,28,039,40,23,39,223,40,24,82,018,40,27,27,127,40*6F
$PQGSV,1,1,0,0*43
$PQGSV,1,1,0,0*43
$GPGSA,A,3,02,04,07,08,13,20,23,25,27,,,,0.8,0.6,0.6*30
$GLGSA,A,3,75,77,78,86,87,88,,,,,,,0.8,0.6,0.6*2A
$GAGSA,A,3,09,10,11,12,17,23,24,27,,,,,0.8,0.6,0.6*24
$GPVTG,0.1,T,0.1,M,75.8,N,140.4,K,A*18
$GPDTM,P90,,0000.000022,S,00000.000001,W,0.988,W84*5A
$GPRMC,000626.00,A,3000.002074,N,11959.999254,E,75.8,0.1,230721,4.3,W,A*11
$GPGGA,000626.00,3000.002074,N,11959.999254,E,1,12,0.6,-6.1,M,7.0,M,,*7B

$GPGSV,3,1,12,02,32,296,37,04,49,241,37,07,83,088,37,08,48,208,37*7A
$GPGSV,3,2,12,13,47,033,37,20,20,122,37,23,25,057,36,25,63,039,36*77
$GPGSV,3,3,12,27,19,219,36,10,01,310,,16,00,000,,28,00,000,*77
$GLGSV,2,1,07,78,07,330,35,86,31,025,35,77,57,326,35,75,09,153,35*6B
$GLGSV,2,2,07,88,21,244,35,87,60,303,35,71,01,078,*52
$GAGSV,2,1,08,09,14,316,40,10,65,333,40,11,53,119,40,12,04,130,40*60
$GAGSV,2,2,08,17,28,039,40,23,39,223,40,24,82,018,40,27,27,127,40*6F
$PQGSV,1,1,0,0*43
$PQGSV,1,1,0,0*43
$GPGSA,A,3,02,04,07,08,13,20,23,25,27,,,,0.8,0.6,0.6*30
$GLGSA,A,3,75,77,78,86,87,88,,,,,,,0.8,0.6,0.6*2A
$GAGSA,A,3,09,10,11,12,17,23,24,27,,,,,0.8,0.6,0.6*24
$GPVTG,4.6,T,4.6,M,75.8,N,140.3,K,A*1F
$GPDTM,P90,,0000.000022,S,00000.000001,W,0.988,W84*5A
$GPRMC,000627.00,A,3000.023234,N,12000.000256,E,75.8,4.6,230721,4.3,W,A*1B
$GPGGA,000627.00,3000.023234,N,12000.000256,E,1,12,0.6,-5.8,M,7.0,M,,*78

$GPGSV,3,1,12,02,32,296,36,04,49,241,36,07,83,088,37,08,48,208,37*7A
$GPGSV,3,2,12,13,47,033,36,20,20,122,37,23,25,057,37,25,63,039,37*76
$GPGSV,3,3,12,27,19,219,36,10,01,310,,16,00,000,,28,00,000,*77
$GLGSV,2,1,07,78,07,330,35,86,31,025,35,77,57,326,35,75,09,153,35*6B
$GLGSV,2,2,07,88,21,244,35,87,60,303,35,71,01,078,*52
$GAGSV,2,1,08,09,14,316,41,10,65,333,40,11,53,119,40,12,04,130,40*61
$GAGSV,2,2,08,17,28,039,40,23,39,223,40,24,82,018,40,27,27,127,40*6F
$PQGSV,1,1,0,0*43
$PQGSV,1,1,0,0*43
$GPGSA,A,3,02,04,07,08,13,20,23,25,27,,,,0.8,0.6,0.6*30
$GLGSA,A,3,75,77,78,86,87,88,,,,,,,0.8,0.6,0.6*2A
$GAGSA,A,3,09,10,11,12,17,23,24,27,,,,,0.8,0.6,0.6*24
$GPVTG,9.0,T,9.0,M,75.8,N,140.4,K,A*18
$GPDTM,P90,,0000.000022,S,00000.000001,W,0.988,W84*5A
$GPRMC,000628.00,A,3000.044049,N,12000.002977,E,75.8,9.0,230721,4.3,W,A*1C
$GPGGA,000628.00,3000.044049,N,12000.002977,E,1,12,0.6,-6.2,M,7.0,M,,*7D

$GPGSV,3,1,12,02,32,296,36,04,49,241,36,07,83,088,37,08,48,208,37*7A
$GPGSV,3,2,12,13,47,033,37,20,20,122,37,23,25,057,37,25,63,039,37*77
$GPGSV,3,3,12,27,19,219,36,10,01,310,,16,00,000,,28,00,000,*77
$GLGSV,2,1,07,78,07,330,35,86,31,025,35,77,57,326,35,75,09,153,35*6B
$GLGSV,2,2,07,88,21,244,35,87,60,303,35,71,01,078,*52
$GAGSV,2,1,08,09,14,316,41,10,65,333,40,11,53,119,40,12,04,130,40*61
$GAGSV,2,2,08,17,28,039,40,23,39,223,41,24,82,018,41,27,27,127,40*6F
$PQGSV,1,1,0,0*43
$PQGSV,1,1,0,0*43
$GPGSA,A,3,02,04,07,08,13,20,23,25,27,,,,0.8,0.6,0.6*30
$GLGSA,A,3,75,77,78,86,87,88,,,,,,,0.8,0.6,0.6*2A
$GAGSA,A,3,09,10,11,12,17,23,24,27,,,,,0.8,0.6,0.6*24
$GPVTG,13.5,T,13.5,M,75.8,N,140.3,K,A*1F
$GPDTM,P90,,0000.000022,S,00000.000001,W,0.988,W84*5A
$GPRMC,000629.00,A,3000.064346,N,12000.007856,E,75.8,13.5,230721,4.3,W,A*2A
$GPGGA,000629.00,3000.064346,N,12000.007856,E,1,12,0.6,-6.3,M,7.0,M,,*74

$GPGSV,3,1,12,02,32,296,37,04,49,241,37,07,83,088,37,08,48,208,37*7A
$GPGSV,3,2,12,13,47,033,36,20,20,122,37,23,25,057,37,25,63,039,36*77
$GPGSV,3,3,12,27,19,219,37,10,01,310,,16,00,000,,28,00,000,*76
$GLGSV,2,1,07,78,07,330,35,86,31,025,35,77,57,326,35,75,09,153,35*6B
$GLGSV,2,2,07,88,21,244,35,87,60,303,35,71,01,078,*52
$GAGSV,2,1,08,09,14,316,40,10,65,333,41,11,53,119,40,12,04,130,40*61
$GAGSV,2,2,08,17,28,039,40,23,39,223,41,24,82,018,40,27,27,127,40*6E
$PQGSV,1,1,0,0*43
$PQGSV,1,1,0,0*43
$GPGSA,A,3,02,04,07,08,13,20,23,25,27,,,,0.8,0.6,0.6*30
$GLGSA,A,3,75,77,78,86,87,88,,,,,,,0.8,0.6,0.6*2A
$GAGSA,A,3,09,10,11,12,17,23,24,27,,,,,0.8,0.6,0.6*24
$GPVTG,18.0,T,18.0,M,75.8,N,140.3,K,A*1F
$GPDTM,P90,,0000.000022,S,00000.000001,W,0.988,W84*5A
$GPRMC,000630.00,A,3000.084467,N,12000.014582,E,75.8,18.0,230721,4.3,W,A*20
$GPGGA,000630.00,3000.084467,N,12000.014582,E,1,12,0.6,-6.1,M,7.0,M,,*72

$GPGSV,3,1,12,02,32,296,37,04,49,241,37,07,83,088,37,08,48,208,37*7A
$GPGSV,3,2,12,13,47,033,37,20,20,122,36,23,25,057,36,25,63,039,36*76
$GPGSV,3,3,12,27,19,219,37,10,01,310,,16,00,000,,28,00,000,*76
$GLGSV,2,1,07,78,07,330,35,86,31,025,35,77,57,326,35,75,09,153,35*6B
$GLGSV,2,2,07,88,21,244,35,87,60,303,35,71,01,078,*52
$GAGSV,2,1,08,09,14,316,40,10,65,333,40,11,53,119,40,12,04,130,40*60
$GAGSV,2,2,08,17,28,039,40,23,39,223,41,24,82,018,40,27,27,127,40*6E
$PQGSV,1,1,0,0*43
$PQGSV,1,1,0,0*43
$GPGSA,A,3,02,04,07,08,13,20,23,25,27,,,,0.8,0.6,0.6*30
$GLGSA,A,3,75,77,78,86,87,88,,,,,,,0.8,0.6,0.6*2A
$GAGSA,A,3,09,10,11,12,17,23,24,27,,,,,0.8,0.6,0.6*24
$GPVTG,22.5,T,22.5,M,75.8,N,140.4,K,A*18
$GPDTM,P90,,0000.000022,S,00000.000001,W,0.988,W84*5A
$GPRMC,000631.00,A,3000.104156,N,12000.023066,E,75.8,22.5,230721,4.3,W,A*28
$GPGGA,000631.00,3000.104156,N,12000.023066,E,1,12,0.6,-6.5,M,7.0,M,,*72

$GPGSV,3,1,12,02,32,296,37,04,49,241,37,07,83,088,37,08,48,208,37*7A
$GPGSV,3,2,12,13,47,033,37,20,20,122,37,23,25,057,36,25,63,039,37*76
$GPGSV,3,3,12,27,19,219,36,10,01,310,,16,00,000,,28,00,000,*77
