$GPGSV,3,1,11,02,31,255,31,04,24,209,32,07,51,033,32,08,78,274,33*77
$GPGSV,3,2,11,10,28,317,30,13,29,067,32,23,07,084,31,25,32,039,32*79
$GPGSV,3,3,11,26,06,282,21,27,46,244,32,28,26,165,30*4B
$GLGSV,2,1,08,78,39,317,30,86,07,050,30,77,65,226,31,88,37,286,30*6E
$GLGSV,2,2,08,87,44,007,30,71,09,045,30,72,17,097,29,81,02,254,*65
$GAGSV,2,1,08,27,06,143,35,09,36,317,,10,82,205,,11,30,146,*65
$GAGSV,2,2,08,17,07,046,,22,09,237,,23,58,261,,24,55,025,*64
$PQGSV,1,1,0,0*43
$PQGSV,1,1,0,0*43
$GPGSA,A,3,02,04,07,08,10,13,23,25,27,28,,,1.0,0.7,0.8*3F
$GLGSA,A,3,71,72,77,86,87,88,,,,,,,1.0,0.7,0.8*22
$GAGSA,A,3,27,,,,,,,,,,,,1.0,0.7,0.8*28
$GPVTG,,T,,M,0.0,N,0.0,K,A*23
$GPDTM,P90,,0000.000022,S,00000.000001,W,0.988,W84*5A
$GPRMC,011754.00,A,2959.999576,N,12000.000980,E,0.0,,230721,4.3,W,A*05
$GPGGA,011754.00,2959.999576,N,12000.000980,E,1,12,0.7,-3.8,M,7.0,M,,*77

$GPGSV,3,1,11,02,31,255,32,04,24,209,32,07,51,033,32,08,78,274,33*74
$GPGSV,3,2,11,10,28,317,30,13,29,067,32,23,07,084,31,25,32,039,32*79
$GPGSV,3,3,11,26,06,282,22,27,46,244,32,28,26,165,30*48
$GLGSV,2,1,08,78,39,317,30,86,07,050,29,77,65,226,31,88,37,286,30*66
$GLGSV,2,2,08,87,44,007,30,71,09,045,29,72,17,097,28,81,02,254,*6C
$GAGSV,2,1,08,27,06,143,35,09,36,317,,10,82,205,,11,30,146,*65
$GAGSV,2,2,08,17,07,046,,22,09,237,,23,58,261,,24,55,025,*64
$PQGSV,1,1,0,0*43
$PQGSV,1,1,0,0*43
$GPGSA,A,3,02,04,07,08,10,13,23,25,27,28,,,1.0,0.7,0.8*3F
$GLGSA,A,3,71,72,77,86,87,88,,,,,,,1.0,0.7,0.8*22
$GAGSA,A,3,27,,,,,,,,,,,,1.0,0.7,0.8*28
$GPVTG,,T,,M,0.0,N,0.0,K,A*23
$GPDTM,P90,,0000.000022,S,00000.000001,W,0.988,W84*5A
$GPRMC,011755.00,A,2959.999573,N,12000.000982,E,0.0,,230721,4.3,W,A*03
$GPGGA,011755.00,2959.999573,N,12000.000982,E,1,12,0.7,-3.8,M,7.0,M,,*71

$GPGSV,3,1,11,02,31,255,32,04,24,209,32,07,51,033,32,08,78,274,33*74
$GPGSV,3,2,11,10,28,317,30,13,29,067,32,23,07,084,31,25,32,039,32*79
$GPGSV,3,3,11,26,06,282,23,27,46,244,32,28,26,165,31*48
$GLGSV,2,1,08,78,39,317,30,86,07,050,29,77,65,226,31,88,37,286,30*66
$GLGSV,2,2,08,87,44,007,30,71,09,045,29,72,17,097,28,81,02,254,*6C
$GAGSV,2,1,08,27,06,143,35,09,36,317,,10,82,205,,11,30,146,*65
$GAGSV,2,2,08,17,07,046,,22,09,237,,23,58,261,,24,55,025,*64
$PQGSV,1,1,0,0*43
$PQGSV,1,1,0,0*43
$GPGSA,A,3,02,04,07,08,10,13,23,25,27,28,,,1.0,0.7,0.8*3F
$GLGSA,A,3,71,72,77,86,87,88,,,,,,,1.0,0.7,0.8*22
$GAGSA,A,3,27,,,,,,,,,,,,1.0,0.7,0.8*28
$GPVTG,,T,,M,0.0,N,0.0,K,A*23
$GPDTM,P90,,0000.000022,S,00000.000001,W,0.988,W84*5A
$GPRMC,011756.00,A,2959.999565,N,12000.000986,E,0.0,,230721,4.3,W,A*03
$GPGGA,011756.00,2959.999565,N,12000.000986,E,1,12,0.7,-3.8,M,7.0,M,,*71

$GPGSV,3,1,11,02,31,255,32,04,24,209,32,07,51,033,33,08,78,274,33*75
$GPGSV,3,2,11,10,28,317,30,13,29,067,32,23,07,084,31,25,32,039,32*79
$GPGSV,3,3,11,26,06,282,23,27,46,244,32,28,26,165,31*48
$GLGSV,2,1,08,78,39,317,30,86,07,050,30,77,65,226,31,88,37,286,30*6E
$GLGSV,2,2,08,87,44,007,30,71,09,045,29,72,17,097,28,81,02,254,*6C
$GAGSV,2,1,08,27,06,143,35,09,36,317,,10,82,205,,11,30,146,*65
$GAGSV,2,2,08,17,07,046,,22,09,237,,23,58,261,,24,55,025,*64
$PQGSV,1,1,0,0*43
$PQGSV,1,1,0,0*43
$GPGSA,A,3,02,04,07,08,10,13,23,25,27,28,,,1.0,0.7,0.8*3F
$GLGSA,A,3,71,72,77,86,87,88,,,,,,,1.0,0.7,0.8*22
$GAGSA,A,3,27,,,,,,,,,,,,1.0,0.7,0.8*28
$GPVTG,,T,,M,0.0,N,0.0,K,A*23
$GPDTM,P90,,0000.000022,S,00000.000001,W,0.988,W84*5A
$GPRMC,011757.00,A,2959.999566,N,12000.000985,E,0.0,,230721,4.3,W,A*02
$GPGGA,011757.00,2959.999566,N,12000.000985,E,1,12,0.7,-3.8,M,7.0,M,,*70

$GPGSV,3,1,11,02,31,255,32,04,24,209,31,07,51,033,33,08,78,274,33*76
$GPGSV,3,2,11,10,28,317,30,13,29,067,32,23,07,084,32,25,32,039,32*7A
$GPGSV,3,3,11,26,06,282,23,27,46,244,32,28,26,165,30*49
$GLGSV,2,1,08,78,39,317,30,86,07,050,29,77,65,226,31,88,37,286,30*66
$GLGSV,2,2,08,87,44,007,30,71,09,045,29,72,17,097,29,81,02,254,*6D
$GAGSV,2,1,08,27,06,143,35,09,36,317,,10,82,205,,11,30,146,*65
$GAGSV,2,2,08,17,07,046,,22,09,237,,23,58,261,,24,55,025,*64
$PQGSV,1,1,0,0*43
$PQGSV,1,1,0,0*43
$GPGSA,A,3,02,04,07,08,10,13,23,25,27,28,,,1.0,0.7,0.8*3F
$GLGSA,A,3,71,72,77,86,87,88,,,,,,,1.0,0.7,0.8*22
$GAGSA,A,3,27,,,,,,,,,,,,1.0,0.7,0.8*28
$GPVTG,,T,,M,0.0,N,0.0,K,A*23
$GPDTM,P90,,0000.000022,S,00000.000001,W,0.988,W84*5A
$GPRMC,011758.00,A,2959.999561,N,12000.000987,E,0.0,,230721,4.3,W,A*08
$GPGGA,011758.00,2959.999561,N,12000.000987,E,1,12,0.7,-3.8,M,7.0,M,,*7A

$GPGSV,3,1,11,02,31,255,32,04,24,209,32,07,51,033,33,08,78,274,33*75
$GPGSV,3,2,11,10,28,317,30,13,29,067,32,23,07,084,31,25,32,039,32*79
$GPGSV,3,3,11,26,06,282,21,27,46,244,32,28,26,165,30*4B
$GLGSV,2,1,08,78,39,317,30,86,07,050,29,77,65,226,31,88,37,286,30*66
$GLGSV,2,2,08,87,44,007,31,71,09,045,30,72,17,097,28,81,02,254,*65
$GAGSV,2,1,08,27,06,143,35,09,36,317,,10,82,205,,11,30,146,*65
$GAGSV,2,2,08,17,07,046,,22,09,237,,23,58,261,,24,55,025,*64
$PQGSV,1,1,0,0*43
$PQGSV,1,1,0,0*43
$GPGSA,A,3,02,04,07,08,10,13,23,25,27,28,,,1.0,0.7,0.8*3F
$GLGSA,A,3,71,72,77,86,87,88,,,,,,,1.0,0.7,0.8*22
$GAGSA,A,3,27,,,,,,,,,,,,1.0,0.7,0.8*28
$GPVTG,,T,,M,0.0,N,0.0,K,A*23
$GPDTM,P90,,0000.000022,S,00000.000001,W,0.988,W84*5A
$GPRMC,011759.00,A,2959.999567,N,12000.000981,E,0.0,,230721,4.3,W,A*09
$GPGGA,011759.00,2959.999567,N,12000.000981,E,1,12,0.7,-3.8,M,7.0,M,,*7B

$GPGSV,3,1,11,02,31,255,32,04,24,209,32,07,51,033,32,08,78,274,32*75
$GPGSV,3,2,11,10,28,317,30,13,29,067,32,23,07,084,31,25,32,039,32*79
$GPGSV,3,3,11,26,06,282,21,27,46,244,32,28,26,165,31*4A
$GLGSV,2,1,08,78,39,317,30,86,07,050,29,77,65,226,31,88,37,286,29*6E
$GLGSV,2,2,08,87,44,007,31,71,09,045,29,72,17,097,29,81,02,254,*6C
$GAGSV,2,1,08,27,06,143,35,09,36,317,,10,82,205,,11,30,146,*65
$GAGSV,2,2,08,17,07,046,,22,09,237,,23,58,261,,24,55,025,*64
$PQGSV,1,1,0,0*43
$PQGSV,1,1,0,0*43
$GPGSA,A,3,02,04,07,08,10,13,23,25,27,28,,,1.0,0.7,0.8*3F
$GLGSA,A,3,71,72,77,86,87,88,,,,,,,1.0,0.7,0.8*22
$GAGSA,A,3,27,,,,,,,,,,,,1.0,0.7,0.8*28
$GPVTG,,T,,M,0.0,N,0.0,K,A*23
$GPDTM,P90,,0000.000022,S,00000.000001,W,0.988,W84*5A
$GPRMC,011800.00,A,2959.999571,N,12000.000976,E,0.0,,230721,4.3,W,A*05
$GPGGA,011800.00,2959.999571,N,12000.000976,E,1,12,0.7,-3.8,M,7.0,M,,*77

$GPGSV,3,1,11,02,31,255,32,04,24,209,32,07,51,033,32,08,78,274,32*75
$GPGSV,3,2,11,10,28,317,31,13,29,067,32,23,07,084,31,25,32,039,32*78
$GPGSV,3,3,11,26,06,282,22,27,46,244,33,28,26,165,31*48
$GLGSV,2,1,08,78,39,317,30,86,07,050,29,77,65,226,31,88,37,286,30*66
$GLGSV,2,2,08,87,44,007,31,71,09,045,29,72,17,097,29,81,02,254,*6C
$GAGSV,2,1,08,27,06,143,35,09,36,317,,10,82,205,,11,30,146,*65
$GAGSV,2,2,08,17,07,046,,22,09,237,,23,58,261,,24,55,025,*64
$PQGSV,1,1,0,0*43
$PQGSV,1,1,0,0*43
$GPGSA,A,3,02,04,07,08,10,13,23,25,27,28,,,1.0,0.7,0.8*3F
$GLGSA,A,3,71,72,77,86,87,88,,,,,,,1.0,0.7,0.8*22
$GAGSA,A,3,27,,,,,,,,,,,,1.0,0.7,0.8*28
$GPVTG,,T,,M,0.0,N,0.0,K,A*23
$GPDTM,P90,,0000.000022,S,00000.000001,W,0.988,W84*5A
$GPRMC,011801.00,A,2959.999569,N,12000.000979,E,0.0,,230721,4.3,W,A*02
$GPGGA,011801.00,2959.999569,N,12000.000979,E,1,12,0.7,-3.8,M,7.0,M,,*70

$GPGSV,3,1,11,02,31,255,32,04,24,209,32,07,51,033,32,08,78,274,32*75
$GPGSV,3,2,11,10,28,317,30,13,29,067,31,23,07,084,31,25,32,039,33*7B
$GPGSV,3,3,11,26,06,282,22,27,46,244,32,28,26,165,31*49
$GLGSV,2,1,08,78,39,317,30,86,07,050,29,77,65,226,31,88,37,286,30*66
$GLGSV,2,2,08,87,44,007,31,71,09,045,29,72,17,097,29,81,02,254,*6C
$GAGSV,2,1,08,27,06,143,35,09,36,317,,10,82,205,,11,30,146,*65
$GAGSV,2,2,08,17,07,046,,22,09,237,,23,58,261,,24,55,025,*64
$PQGSV,1,1,0,0*43
$PQGSV,1,1,0,0*43
$GPGSA,A,3,02,04,07,08,10,13,23,25,27,28,,,1.0,0.7,0.8*3F
$GLGSA,A,3,71,72,77,86,87,88,,,,,,,1.0,0.7,0.8*22
$GAGSA,A,3,27,,,,,,,,,,,,1.0,0.7,0.8*28
$GPVTG,,T,,M,0.0,N,0.0,K,A*23
$GPDTM,P90,,0000.000022,S,00000.000001,W,0.988,W84*5A
$GPRMC,011802.00,A,2959.999572,N,12000.000969,E,0.0,,230721,4.3,W,A*0A
$GPGGA,011802.00,2959.999572,N,12000.000969,E,1,12,0.7,-3.8,M,7.0,M,,*78

$GPGSV,3,1,11,02,31,255,32,04,24,209,32,07,51,033,32,08,78,274,33*74
$GPGSV,3,2,11,10,28,317,30,13,29,067,32,23,07,084,31,25,32,039,32*79
$GPGSV,3,3,11,26,06,282,20,27,46,244,32,28,26,165,31*4B
$GLGSV,2,1,08,78,39,317,30,86,07,050,29,77,65,226,31,88,37,286,30*66
$GLGSV,2,2,08,87,44,007,31,71,09,045,29,72,17,097,29,81,02,254,*6C
$GAGSV,2,1,08,27,06,143,35,09,36,317,,10,82,205,,11,30,146,*65
$GAGSV,2,2,08,17,07,046,,22,09,237,,23,58,261,,24,55,025,*64
$PQGSV,1,1,0,0*43
$PQGSV,1,1,0,0*43
$GPGSA,A,3,02,04,07,08,10,13,23,25,27,28,,,1.0,0.7,0.8*3F
$GLGSA,A,3,71,72,77,86,87,88,,,,,,,1.0,0.7,0.8*22
$GAGSA,A,3,27,,,,,,,,,,,,1.0,0.7,0.8*28
$GPVTG,,T,,M,0.0,N,0.0,K,A*23
$GPDTM,P90,,0000.000022,S,00000.000001,W,0.988,W84*5A
$GPRMC,011803.00,A,2959.999575,N,12000.000967,E,0.0,,230721,4.3,W,A*02
$GPGGA,011803.00,2959.999575,N,12000.000967,E,1,12,0.7,-3.8,M,7.0,M,,*70

$GPGSV,3,1,11,02,31,255,32,04,24,209,32,07,51,033,32,08,78,274,33*74
$GPGSV,3,2,11,10,28,317,31,13,29,067,32,23,07,084,31,25,32,039,32*78
$GPGSV,3,3,11,26,06,282,22,27,46,244,32,28,26,165,30*48
$GLGSV,2,1,08,78,39,317,30,86,07,050,29,77,65,226,31,88,37,286,30*66
$GLGSV,2,2,08,87,44,007,31,71,09,045,29,72,17,097,29,81,02,254,*6C
$GAGSV,2,1,08,27,06,143,35,09,36,317,,10,82,205,,11,30,146,*65
$GAGSV,2,2,08,17,07,046,,22,09,237,,23,58,261,,24,55,025,*64
$PQGSV,1,1,0,0*43
$PQGSV,1,1,0,0*43
$GPGSA,A,3,02,04,07,08,10,13,23,25,27,28,,,1.0,0.7,0.8*3F
$GLGSA,A,3,71,72,77,86,87,88,,,,,,,1.0,0.7,0.8*22
$GAGSA,A,3,27,,,,,,,,,,,,1.0,0.7,0.8*28
$GPVTG,,T,,M,0.0,N,0.0,K,A*23
$GPDTM,P90,,0000.000022,S,00000.000001,W,0.988,W84*5A
$GPRMC,011804.00,A,2959.999572,N,12000.000968,E,0.0,,230721,4.3,W,A*0D
$GPGGA,011804.00,2959.999572,N,12000.000968,E,1,12,0.7,-3.8,M,7.0,M,,*7F

$GPGSV,3,1,11,02,31,255,32,04,24,209,32,07,51,033,33,08,78,274,32*74
$GPGSV,3,2,11,10,28,317,30,13,29,067,32,23,07,084,31,25,32,039,32*79
$GPGSV,3,3,11,26,06,282,22,27,46,244,32,28,26,165,30*48
$GLGSV,2,1,08,78,39,317,30,86,07,050,29,77,65,226,31,88,37,286,30*66
$GLGSV,2,2,08,87,44,007,30,71,09,045,30,72,17,097,28,81,02,254,*64
$GAGSV,2,1,08,27,06,143,35,09,36,317,,10,82,205,,11,30,146,*65
$GAGSV,2,2,08,17,07,046,,22,09,237,,23,58,261,,24,55,025,*64
$PQGSV,1,1,0,0*43
$PQGSV,1,1,0,0*43
$GPGSA,A,3,02,04,07,08,10,13,23,25,27,28,,,1.0,0.7,0.8*3F
$GLGSA,A,3,71,72,77,86,87,88,,,,,,,1.0,0.7,0.8*22
$GAGSA,A,3,27,,,,,,,,,,,,1.0,0.7,0.8*28
$GPVTG,,T,,M,0.0,N,0.0,K,A*23
$GPDTM,P90,,0000.000022,S,00000.000001,W,0.988,W84*5A
$GPRMC,011805.00,A,2959.999569,N,12000.000971,E,0.0,,230721,4.3,W,A*0E
$GPGGA,011805.00,2959.999569,N,12000.000971,E,1,12,0.7,-3.8,M,7.0,M,,*7C

$GPGSV,3,1,11,02,31,255,32,04,24,209,32,07,51,033,32,08,78,274,33*74
$GPGSV,3,2,11,10,28,317,30,13,29,067,32,23,07,084,31,25,32,039,33*78
$GPGSV,3,3,11,26,06,282,22,27,46,244,32,28,26,165,31*49
$GLGSV,2,1,08,78,39,317,30,86,07,050,29,77,65,226,31,88,37,286,30*66
$GLGSV,2,2,08,87,44,007,30,71,09,045,29,72,17,097,28,81,02,254,*6C
$GAGSV,2,1,08,27,06,143,35,09,36,317,,10,82,205,,11,30,146,*65
$GAGSV,2,2,08,17,07,046,,22,09,237,,23,58,261,,24,55,025,*64
$PQGSV,1,1,0,0*43
$PQGSV,1,1,0,0*43
$GPGSA,A,3,02,04,07,08,10,13,23,25,27,28,,,1.0,0.7,0.8*3F
$GLGSA,A,3,71,72,77,86,87,88,,,,,,,1.0,0.7,0.8*22
$GAGSA,A,3,27,,,,,,,,,,,,1.0,0.7,0.8*28
$GPVTG,,T,,M,0.0,N,0.0,K,A*23
$GPDTM,P90,,0000.000022,S,00000.000001,W,0.988,W84*5A
$GPRMC,011806.00,A,2959.999569,N,12000.000966,E,0.0,,230721,4.3,W,A*0B
$GPGGA,011806.00,2959.999569,N,12000.000966,E,1,12,0.7,-3.8,M,7.0,M,,*79

$GPGSV,3,1,11,02,31,255,32,04,24,209,32,07,51,033,33,08,78,274,33*75
$GPGSV,3,2,11,10,28,317,30,13,29,067,32,23,07,084,31,25,32,039,32*79
$GPGSV,3,3,11,26,06,282,22,27,46,244,32,28,26,165,30*48
$GLGSV,2,1,08,78,39,317,30,86,07,050,29,77,65,226,31,88,37,286,30*66
$GLGSV,2,2,08,87,44,007,30,71,09,045,29,72,17,097,28,81,02,254,*6C
$GAGSV,2,1,08,27,06,143,35,09,36,317,,10,82,205,,11,30,146,*65
$GAGSV,2,2,08,17,07,046,,22,09,237,,23,58,261,,24,55,025,*64
$PQGSV,1,1,0,0*43
$PQGSV,1,1,0,0*43
$GPGSA,A,3,02,04,07,08,10,13,23,25,27,28,,,1.0,0.7,0.8*3F
$GLGSA,A,3,71,72,77,86,87,88,,,,,,,1.0,0.7,0.8*22
$GAGSA,A,3,27,,,,,,,,,,,,1.0,0.7,0.8*28
$GPVTG,,T,,M,0.0,N,0.0,K,A*23
$GPDTM,P90,,0000.000022,S,00000.000001,W,0.988,W84*5A
$GPRMC,011807.00,A,2959.999568,N,12000.000964,E,0.0,,230721,4.3,W,A*09
$GPGGA,011807.00,2959.999568,N,12000.000964,E,1,12,0.7,-3.8,M,7.0,M,,*7B

$GPGSV,3,1,11,02,31,255,32,04,24,209,32,07,51,033,33,08,78,274,33*75
$GPGSV,3,2,11,10,28,317,30,13,29,067,32,23,07,084,31,25,32,039,32*79
$GPGSV,3,3,11,26,06,282,22,27,46,244,32,28,26,165,30*48
$GLGSV,2,1,08,78,39,317,30,86,07,050,29,77,65,226,31,88,37,286,30*66
$GLGSV,2,2,08,87,44,007,31,71,09,045,29,72,17,097,29,81,02,254,*6C
$GAGSV,2,1,08,27,06,143,35,09,36,317,,10,82,205,,11,30,146,*65
$GAGSV,2,2,08,17,07,046,,22,09,237,,23,58,261,,24,55,025,*64
$PQGSV,1,1,0,0*43
$PQGSV,1,1,0,0*43
$GPGSA,A,3,02,04,07,08,10,13,23,25,27,28,,,1.0,0.7,0.8*3F
$GLGSA,A,3,71,72,77,86,87,88,,,,,,,1.0,0.7,0.8*22
$GAGSA,A,3,27,,,,,,,,,,,,1.0,0.7,0.8*28
$GPVTG,,T,,M,0.0,N,0.0,K,A*23
$GPDTM,P90,,0000.000022,S,00000.000001,W,0.988,W84*5A
$GPRMC,011808.00,A,2959.999568,N,12000.000964,E,0.0,,230721,4.3,W,A*06
$GPGGA,011808.00,2959.999568,N,12000.000964,E,1,12,0.7,-3.8,M,7.0,M,,*74

$GPGSV,3,1,11,02,31,255,32,04,24,209,31,07,51,033,33,08,78,274,33*76
$GPGSV,3,2,11,10,28,317,30,13,29,067,32,23,07,084,31,25,32,039,32*79
$GPGSV,3,3,11,26,06,282,22,27,46,244,32,28,26,165,31*49
$GLGSV,2,1,08,78,39,317,30,86,07,050,29,77,65,226,31,88,37,286,30*66
$GLGSV,2,2,08,87,44,007,30,71,09,045,30,72,17,097,29,81,02,254,*65
$GAGSV,2,1,08,27,06,143,35,09,36,317,,10,82,205,,11,30,146,*65
$GAGSV,2,2,08,17,07,046,,22,09,237,,23,58,261,,24,55,025,*64
$PQGSV,1,1,0,0*43
$PQGSV,1,1,0,0*43
$GPGSA,A,3,02,04,07,08,10,13,23,25,27,28,,,1.0,0.7,0.8*3F
$GLGSA,A,3,71,72,77,86,87,88,,,,,,,1.0,0.7,0.8*22
$GAGSA,A,3,27,,,,,,,,,,,,1.0,0.7,0.8*28
$GPVTG,,T,,M,0.0,N,0.0,K,A*23
$GPDTM,P90,,0000.000022,S,00000.000001,W,0.988,W84*5A
$GPRMC,011809.00,A,2959.999568,N,12000.000962,E,0.0,,230721,4.3,W,A*01
$GPGGA,011809.00,2959.999568,N,12000.000962,E,1,12,0.7,-3.8,M,7.0,M,,*73

$GPGSV,3,1,11,02,31,255,32,04,24,209,31,07,51,033,32,08,78,274,33*77
$GPGSV,3,2,11,10,28,317,30,13,29,067,32,23,07,084,31,25,32,039,32*79
$GPGSV,3,3,11,26,06,282,23,27,46,244,32,28,26,165,31*48
$GLGSV,2,1,08,78,39,317,30,86,07,050,29,77,65,226,31,88,37,286,30*66
$GLGSV,2,2,08,87,44,007,30,71,09,045,29,72,17,097,29,81,02,254,*6D
$GAGSV,2,1,08,27,06,143,34,09,36,317,,10,82,205,,11,30,146,*64
$GAGSV,2,2,08,17,07,046,,22,09,237,,23,58,261,,24,55,025,*64
$PQGSV,1,1,0,0*43
$PQGSV,1,1,0,0*43
$GPGSA,A,3,02,04,07,08,10,13,23,25,27,28,,,1.0,0.7,0.8*3F
$GLGSA,A,3,71,72,77,86,87,88,,,,,,,1.0,0.7,0.8*22
$GAGSA,A,3,27,,,,,,,,,,,,1.0,0.7,0.8*28
$GPVTG,,T,,M,0.0,N,0.0,K,A*23
$GPDTM,P90,,0000.000022,S,00000.000001,W,0.988,W84*5A
$GPRMC,011810.00,A,2959.999570,N,12000.000960,E,0.0,,230721,4.3,W,A*02
$GPGGA,011810.00,2959.999570,N,12000.000960,E,1,12,0.7,-3.8,M,7.0,M,,*70

$GPGSV,3,1,11,02,31,255,31,04,24,209,32,07,51,033,33,08,78,274,32*77
$GPGSV,3,2,11,10,28,317,30,13,29,067,32,23,07,084,31,25,32,039,32*79
$GPGSV,3,3,11,26,06,282,23,27,46,244,32,28,26,165,31*48
$GLGSV,2,1,08,78,39,317,30,86,07,050,30,77,65,226,32,88,37,286,30*6D
$GLGSV,2,2,08,87,44,007,30,71,09,045,29,72,17,097,28,81,02,254,*6C
$GAGSV,2,1,08,27,06,143,35,09,36,317,,10,82,205,,11,30,146,*65
$GAGSV,2,2,08,17,07,046,,22,09,237,,23,58,261,,24,55,025,*64
$PQGSV,1,1,0,0*43
$PQGSV,1,1,0,0*43
$GPGSA,A,3,02,04,07,08,10,13,23,25,27,28,,,1.0,0.7,0.8*3F
$GLGSA,A,3,71,72,77,86,87,88,,,,,,,1.0,0.7,0.8*22
$GAGSA,A,3,27,,,,,,,,,,,,1.0,0.7,0.8*28
$GPVTG,,T,,M,0.0,N,0.0,K,A*23
$GPDTM,P90,,0000.000022,S,00000.000001,W,0.988,W84*5A
$GPRMC,011811.00,A,2959.999566,N,12000.000959,E,0.0,,230721,4.3,W,A*0E
$GPGGA,011811.00,2959.999566,N,12000.000959,E,1,12,0.7,-3.9,M,7.0,M,,*7D

$GPGSV,3,1,11,02,31,255,32,04,24,209,32,07,51,033,33,08,78,274,33*75
$GPGSV,3,2,11,10,28,317,31,13,29,067,32,23,07,084,31,25,32,039,32*78
$GPGSV,3,3,11,26,06,282,22,27,46,244,32,28,26,165,31*49
$GLGSV,2,1,08,78,39,317,30,86,07,050,29,77,65,226,31,88,37,286,30*66
$GLGSV,2,2,08,87,44,007,31,71,09,045,29,72,17,097,29,81,02,254,*6C
$GAGSV,2,1,08,27,06,143,35,09,36,317,,10,82,205,,11,30,146,*65
$GAGSV,2,2,08,17,07,046,,22,09,237,,23,58,261,,24,55,025,*64
$PQGSV,1,1,0,0*43
$PQGSV,1,1,0,0*43
$GPGSA,A,3,02,04,07,08,10,13,23,25,27,28,,,1.0,0.7,0.8*3F
$GLGSA,A,3,71,72,77,86,87,88,,,,,,,1.0,0.7,0.8*22
$GAGSA,A,3,27,,,,,,,,,,,,1.0,0.7,0.8*28
$GPVTG,,T,,M,0.0,N,0.0,K,A*23
$GPDTM,P90,,0000.000022,S,00000.000001,W,0.988,W84*5A
$GPRMC,011812.00,A,2959.999565,N,12000.000958,E,0.0,,230721,4.3,W,A*0F
$GPGGA,011812.00,2959.999565,N,12000.000958,E,1,12,0.7,-3.8,M,7.0,M,,*7D

$GPGSV,3,1,11,02,31,255,32,04,24,209,31,07,51,033,32,08,78,274,33*77
$GPGSV,3,2,11,10,28,317,30,13,29,067,32,23,07,084,32,25,32,039,32*7A
$GPGSV,3,3,11,26,06,282,23,27,46,244,32,28,26,165,30*49
$GLGSV,2,1,08,78,39,317,30,86,07,050,29,77,65,226,31,88,37,286,30*66
$GLGSV,2,2,08,87,44,007,31,71,09,045,29,72,17,097,29,81,02,254,*6C
$GAGSV,2,1,08,27,06,143,35,09,36,317,,10,82,205,,11,30,146,*65
$GAGSV,2,2,08,17,07,046,,22,09,237,,23,58,261,,24,55,025,*64
$PQGSV,1,1,0,0*43
$PQGSV,1,1,0,0*43
$GPGSA,A,3,02,04,07,08,10,13,23,25,27,28,,,1.0,0.7,0.8*3F
$GLGSA,A,3,71,72,77,86,87,88,,,,,,,1.0,0.7,0.8*22
$GAGSA,A,3,27,,,,,,,,,,,,1.0,0.7,0.8*28
$GPVTG,,T,,M,0.0,N,0.0,K,A*23
$GPDTM,P90,,0000.000022,S,00000.000001,W,0.988,W84*5A
$GPRMC,011813.00,A,2959.999563,N,12000.000955,E,0.0,,230721,4.3,W,A*05
$GPGGA,011813.00,2959.999563,N,12000.000955,E,1,12,0.7,-3.8,M,7.0,M,,*77

$GPGSV,3,1,11,02,31,255,32,04,24,209,31,07,51,033,32,08,78,274,32*76
$GPGSV,3,2,11,10,28,317,30,13,29,067,32,23,07,084,31,25,32,039,32*79
$GPGSV,3,3,11,26,06,282,23,27,46,244,32,28,26,165,30*49
$GLGSV,2,1,08,78,39,317,30,86,07,050,29,77,65,226,31,88,37,286,30*66
$GLGSV,2,2,08,87,44,007,30,71,09,045,30,72,17,097,28,81,02,254,*64
$GAGSV,2,1,08,27,06,143,35,09,36,317,,10,82,205,,11,30,146,*65
$GAGSV,2,2,08,17,07,046,,22,09,237,,23,58,261,,24,55,025,*64
$PQGSV,1,1,0,0*43
$PQGSV,1,1,0,0*43
$GPGSA,A,3,02,04,07,08,10,13,23,25,27,28,,,1.0,0.7,0.8*3F
$GLGSA,A,3,71,72,77,86,87,88,,,,,,,1.0,0.7,0.8*22
$GAGSA,A,3,27,,,,,,,,,,,,1.0,0.7,0.8*28
$GPVTG,,T,,M,0.0,N,0.0,K,A*23
$GPDTM,P90,,0000.000022,S,00000.000001,W,0.988,W84*5A
$GPRMC,011814.00,A,2959.999560,N,12000.000956,E,0.0,,230721,4.3,W,A*02
$GPGGA,011814.00,2959.999560,N,12000.000956,E,1,12,0.7,-3.8,M,7.0,M,,*70

$GPGSV,3,1,11,02,31,255,31,04,24,209,32,07,51,033,33,08,78,274,33*76
$GPGSV,3,2,11,10,28,317,30,13,29,067,31,23,07,084,31,25,32,039,32*7A
$GPGSV,3,3,11,26,06,282,22,27,46,244,33,28,26,165,31*48
$GLGSV,2,1,08,78,39,317,30,86,07,050,29,77,65,226,31,88,37,286,30*66
$GLGSV,2,2,08,87,44,007,31,71,09,045,29,72,17,097,29,81,02,254,*6C
$GAGSV,2,1,08,27,06,143,35,09,36,317,,10,82,205,,11,30,146,*65
$GAGSV,2,2,08,17,07,046,,22,09,237,,23,58,261,,24,55,025,*64
$PQGSV,1,1,0,0*43
$PQGSV,1,1,0,0*43
$GPGSA,A,3,02,04,07,08,10,13,23,25,27,28,,,1.0,0.7,0.8*3F
$GLGSA,A,3,71,72,77,86,87,88,,,,,,,1.0,0.7,0.8*22
$GAGSA,A,3,27,,,,,,,,,,,,1.0,0.7,0.8*28
$GPVTG,,T,,M,0.0,N,0.0,K,A*23
$GPDTM,P90,,0000.000022,S,00000.000001,W,0.988,W84*5A
$GPRMC,011815.00,A,2959.999561,N,12000.000956,E,0.0,,230721,4.3,W,A*02
$GPGGA,011815.00,2959.999561,N,12000.000956,E,1,12,0.7,-3.8,M,7.0,M,,*70

$GPGSV,3,1,11,02,31,255,32,04,24,209,32,07,51,033,33,08,78,274,33*75
$GPGSV,3,2,11,10,28,317,30,13,29,067,31,23,07,084,31,25,32,039,32*7A
$GPGSV,3,3,11,26,06,282,22,27,46,244,32,28,26,165,30*48
$GLGSV,2,1,08,78,39,317,30,86,07,050,29,77,65,226,31,88,37,286,30*66
$GLGSV,2,2,08,87,44,007,31,71,09,045,30,72,17,097,28,81,02,254,*65
$GAGSV,2,1,08,27,06,143,35,09,36,317,,10,82,205,,11,30,146,*65
$GAGSV,2,2,08,17,07,046,,22,09,237,,23,58,261,,24,55,025,*64
$PQGSV,1,1,0,0*43
$PQGSV,1,1,0,0*43
$GPGSA,A,3,02,04,07,08,10,13,23,25,27,28,,,1.0,0.7,0.8*3F
$GLGSA,A,3,71,72,77,86,87,88,,,,,,,1.0,0.7,0.8*22
$GAGSA,A,3,27,,,,,,,,,,,,1.0,0.7,0.8*28
$GPVTG,,T,,M,0.0,N,0.0,K,A*23
$GPDTM,P90,,0000.000022,S,00000.000001,W,0.988,W84*5A
$GPRMC,011816.00,A,2959.999560,N,12000.000956,E,0.0,,230721,4.3,W,A*00
$GPGGA,011816.00,2959.999560,N,12000.000956,E,1,12,0.7,-3.8,M,7.0,M,,*72

$GPGSV,3,1,11,02,31,255,32,04,24,209,31,07,51,033,32,08,78,274,33*77
$GPGSV,3,2,11,10,28,317,30,13,29,067,32,23,07,084,31,25,32,039,32*79
$GPGSV,3,3,11,26,06,282,22,27,46,244,32,28,26,165,30*48
$GLGSV,2,1,08,78,39,317,30,86,07,050,29,77,65,226,31,88,37,286,30*66
$GLGSV,2,2,08,87,44,007,31,71,09,045,30,72,17,097,29,81,02,254,*64
$GAGSV,2,1,08,27,06,143,35,09,36,317,,10,82,205,,11,30,146,*65
$GAGSV,2,2,08,17,07,046,,22,09,237,,23,58,261,,24,55,025,*64
$PQGSV,1,1,0,0*43
$PQGSV,1,1,0,0*43
$GPGSA,A,3,02,04,07,08,10,13,23,25,27,28,,,1.0,0.7,0.8*3F
$GLGSA,A,3,71,72,77,86,87,88,,,,,,,1.0,0.7,0.8*22
$GAGSA,A,3,27,,,,,,,,,,,,1.0,0.7,0.8*28
$GPVTG,,T,,M,0.0,N,0.0,K,A*23
$GPDTM,P90,,0000.000022,S,00000.000001,W,0.988,W84*5A
$GPRMC,011817.00,A,2959.999559,N,12000.000954,E,0.0,,230721,4.3,W,A*09
$GPGGA,011817.00,2959.999559,N,12000.000954,E,1,12,0.7,-3.8,M,7.0,M,,*7B

$GPGSV,3,1,11,02,31,255,32,04,24,209,32,07,51,033,33,08,78,274,33*75
$GPGSV,3,2,11,10,28,317,31,13,29,067,31,23,07,084,31,25,32,039,32*7B
$GPGSV,3,3,11,26,06,282,23,27,46,244,32,28,26,165,30*49
$GLGSV,2,1,08,78,39,317,30,86,07,050,29,77,65,226,31,88,37,286,30*66
$GLGSV,2,2,08,87,44,007,31,71,09,045,29,72,17,097,29,81,02,254,*6C
$GAGSV,2,1,08,27,06,143,35,09,36,317,,10,82,205,,11,30,146,*65
$GAGSV,2,2,08,17,07,046,,22,09,237,,23,58,261,,24,55,025,*64
$PQGSV,1,1,0,0*43
$PQGSV,1,1,0,0*43
$GPGSA,A,3,02,04,07,08,10,13,23,25,27,28,,,1.0,0.7,0.8*3F
$GLGSA,A,3,71,72,77,86,87,88,,,,,,,1.0,0.7,0.8*22
$GAGSA,A,3,27,,,,,,,,,,,,1.0,0.7,0.8*28
$GPVTG,,T,,M,0.0,N,0.0,K,A*23
$GPDTM,P90,,0000.000022,S,00000.000001,W,0.988,W84*5A
$GPRMC,011818.00,A,2959.999560,N,12000.000950,E,0.0,,230721,4.3,W,A*08
$GPGGA,011818.00,2959.999560,N,12000.000950,E,1,12,0.7,-3.8,M,7.0,M,,*7A

$GPGSV,3,1,11,02,31,255,32,04,24,209,32,07,51,033,33,08,78,274,33*75
$GPGSV,3,2,11,10,28,317,30,13,29,067,32,23,07,084,31,25,32,039,32*79
$GPGSV,3,3,11,26,06,282,21,27,46,244,32,28,26,165,30*4B
$GLGSV,2,1,08,78,39,317,29,86,07,050,29,77,65,226,31,88,37,286,31*6F
$GLGSV,2,2,08,87,44,007,30,71,09,045,30,72,17,097,28,81,02,254,*64
$GAGSV,2,1,08,27,06,143,35,09,36,317,,10,82,205,,11,30,146,*65
$GAGSV,2,2,08,17,07,046,,22,09,237,,23,58,261,,24,55,025,*64
$PQGSV,1,1,0,0*43
$PQGSV,1,1,0,0*43
$GPGSA,A,3,02,04,07,08,10,13,23,25,27,28,,,1.0,0.7,0.8*3F
$GLGSA,A,3,71,72,77,86,87,88,,,,,,,1.0,0.7,0.8*22
$GAGSA,A,3,27,,,,,,,,,,,,1.0,0.7,0.8*28
$GPVTG,,T,,M,0.0,N,0.0,K,A*23
$GPDTM,P90,,0000.000022,S,00000.000001,W,0.988,W84*5A
$GPRMC,011819.00,A,2959.999564,N,12000.000945,E,0.0,,230721,4.3,W,A*09
$GPGGA,011819.00,2959.999564,N,12000.000945,E,1,12,0.7,-3.8,M,7.0,M,,*7B

$GPGSV,3,1,11,02,31,255,32,04,24,209,32,07,51,033,32,08,78,274,33*74
$GPGSV,3,2,11,10,28,317,31,13,29,067,32,23,07,084,31,25,32,039,32*78
$GPGSV,3,3,11,26,06,282,21,27,46,244,32,28,26,165,30*4B
$GLGSV,2,1,08,78,39,317,30,86,07,050,28,77,65,226,31,88,37,286,30*67
$GLGSV,2,2,08,87,44,007,31,71,09,045,29,72,17,097,29,81,02,254,*6C
$GAGSV,2,1,08,27,06,143,35,09,36,317,,10,82,205,,11,30,146,*65
$GAGSV,2,2,08,17,07,046,,22,09,237,,23,58,261,,24,55,025,*64
$PQGSV,1,1,0,0*43
$PQGSV,1,1,0,0*43
$GPGSA,A,3,02,04,07,08,10,13,23,25,27,28,,,1.0,0.7,0.8*3F
$GLGSA,A,3,71,72,77,86,87,88,,,,,,,1.0,0.7,0.8*22
$GAGSA,A,3,27,,,,,,,,,,,,1.0,0.7,0.8*28
$GPVTG,,T,,M,0.0,N,0.0,K,A*23
$GPDTM,P90,,0000.000022,S,00000.000001,W,0.988,W84*5A
$GPRMC,011820.00,A,2959.999565,N,12000.000946,E,0.0,,230721,4.3,W,A*01
$GPGGA,011820.00,2959.999565,N,12000.000946,E,1,12,0.7,-3.8,M,7.0,M,,*73

$GPGSV,3,1,11,02,31,255,32,04,24,209,32,07,51,033,32,08,78,274,33*74
$GPGSV,3,2,11,10,28,317,30,13,29,067,32,23,07,084,31,25,32,039,32*79
$GPGSV,3,3,11,26,06,282,22,27,46,244,32,28,26,165,30*48
$GLGSV,2,1,08,78,39,317,30,86,07,050,29,77,65,226,31,88,37,286,29*6E
$GLGSV,2,2,08,87,44,007,30,71,09,045,29,72,17,097,29,81,02,254,*6D
$GAGSV,2,1,08,27,06,143,35,09,36,317,,10,82,205,,11,30,146,*65
$GAGSV,2,2,08,17,07,046,,22,09,237,,23,58,261,,24,55,025,*64
$PQGSV,1,1,0,0*43
$PQGSV,1,1,0,0*43
$GPGSA,A,3,02,04,07,08,10,13,23,25,27,28,,,1.0,0.7,0.8*3F
$GLGSA,A,3,71,72,77,86,87,88,,,,,,,1.0,0.7,0.8*22
$GAGSA,A,3,27,,,,,,,,,,,,1.0,0.7,0.8*28
$GPVTG,,T,,M,0.0,N,0.0,K,A*23
$GPDTM,P90,,0000.000022,S,00000.000001,W,0.988,W84*5A
$GPRMC,011821.00,A,2959.999569,N,12000.000945,E,0.0,,230721,4.3,W,A*0F
$GPGGA,011821.00,2959.999569,N,12000.000945,E,1,12,0.7,-3.8,M,7.0,M,,*7D

$GPGSV,3,1,11,02,31,255,32,04,24,209,32,07,51,033,32,08,78,274,33*74
$GPGSV,3,2,11,10,28,317,30,13,29,067,32,23,07,084,31,25,32,039,32*79
$GPGSV,3,3,11,26,06,282,22,27,46,244,32,28,26,165,30*48
$GLGSV,2,1,08,78,39,317,30,86,07,050,30,77,65,226,31,88,37,286,30*6E
$GLGSV,2,2,08,87,44,007,31,71,09,045,29,72,17,097,28,81,02,254,*6D
$GAGSV,2,1,08,27,06,143,35,09,36,317,,10,82,205,,11,30,146,*65
$GAGSV,2,2,08,17,07,046,,22,09,237,,23,58,261,,24,55,025,*64
$PQGSV,1,1,0,0*43
$PQGSV,1,1,0,0*43
$GPGSA,A,3,02,04,07,08,10,13,23,25,27,28,,,1.0,0.7,0.8*3F
$GLGSA,A,3,71,72,77,86,87,88,,,,,,,1.0,0.7,0.8*22
$GAGSA,A,3,27,,,,,,,,,,,,1.0,0.7,0.8*28
$GPVTG,,T,,M,0.0,N,0.0,K,A*23
$GPDTM,P90,,0000.000022,S,00000.000001,W,0.988,W84*5A
$GPRMC,011822.00,A,2959.999572,N,12000.000934,E,0.0,,230721,4.3,W,A*00
$GPGGA,011822.00,2959.999572,N,12000.000934,E,1,12,0.7,-3.9,M,7.0,M,,*73

$GPGSV,3,1,11,02,31,255,32,04,24,209,32,07,51,033,33,08,78,274,33*75
$GPGSV,3,2,11,10,28,317,30,13,29,067,32,23,07,084,31,25,32,039,32*79
$GPGSV,3,3,11,26,06,282,22,27,46,244,32,28,26,165,30*48
$GLGSV,2,1,08,78,39,317,30,86,07,050,29,77,65,226,30,88,37,286,30*67
$GLGSV,2,2,08,87,44,007,30,71,09,045,29,72,17,097,28,81,02,254,*6C
$GAGSV,2,1,08,27,06,143,35,09,36,317,,10,82,205,,11,30,146,*65
$GAGSV,2,2,08,17,07,046,,22,09,237,,23,58,261,,24,55,025,*64
$PQGSV,1,1,0,0*43
$PQGSV,1,1,0,0*43
$GPGSA,A,3,02,04,07,08,10,13,23,25,27,28,,,1.0,0.7,0.8*3F
$GLGSA,A,3,71,72,77,86,87,88,,,,,,,1.0,0.7,0.8*22
$GAGSA,A,3,27,,,,,,,,,,,,1.0,0.7,0.8*28
$GPVTG,,T,,M,0.0,N,0.0,K,A*23
$GPDTM,P90,,0000.000022,S,00000.000001,W,0.988,W84*5A
$GPRMC,011823.00,A,2959.999570,N,12000.000932,E,0.0,,230721,4.3,W,A*05
$GPGGA,011823.00,2959.999570,N,12000.000932,E,1,12,0.7,-3.9,M,7.0,M,,*76

$GPGSV,3,1,11,02,31,255,32,04,24,209,32,07,51,033,33,08,78,274,33*75
$GPGSV,3,2,11,10,28,317,31,13,29,067,32,23,07,084,31,25,32,039,32*78
$GPGSV,3,3,11,26,06,282,22,27,46,244,32,28,26,165,30*48
$GLGSV,2,1,08,78,39,317,30,86,07,050,29,77,65,226,31,88,37,286,30*66
$GLGSV,2,2,08,87,44,007,31,71,09,045,29,72,17,097,29,81,02,254,*6C
$GAGSV,2,1,08,27,06,143,35,09,36,317,,10,82,205,,11,30,146,*65
$GAGSV,2,2,08,17,07,046,,22,09,237,,23,58,261,,24,55,025,*64
$PQGSV,1,1,0,0*43
$PQGSV,1,1,0,0*43
$GPGSA,A,3,02,04,07,08,10,13,23,25,27,28,,,1.0,0.7,0.8*3F
$GLGSA,A,3,71,72,77,86,87,88,,,,,,,1.0,0.7,0.8*22
$GAGSA,A,3,27,,,,,,,,,,,,1.0,0.7,0.8*28
$GPVTG,,T,,M,0.0,N,0.0,K,A*23
$GPDTM,P90,,0000.000022,S,00000.000001,W,0.988,W84*5A
$GPRMC,011824.00,A,2959.999560,N,12000.000938,E,0.0,,230721,4.3,W,A*09
$GPGGA,011824.00,2959.999560,N,12000.000938,E,1,12,0.7,-3.8,M,7.0,M,,*7B

$GPGSV,3,1,11,02,31,255,32,04,24,209,32,07,51,033,33,08,78,274,33*75
$GPGSV,3,2,11,10,28,317,31,13,29,067,32,23,07,084,31,25,32,039,33*79
$GPGSV,3,3,11,26,06,282,22,27,46,244,32,28,26,165,31*49
$GLGSV,2,1,08,78,39,317,30,86,07,050,29,77,65,226,31,88,37,286,30*66
$GLGSV,2,2,08,87,44,007,31,71,09,045,29,72,17,097,28,81,02,254,*6D
$GAGSV,2,1,08,27,06,143,35,09,36,317,,10,82,205,,11,30,146,*65
$GAGSV,2,2,08,17,07,046,,22,09,237,,23,58,261,,24,55,025,*64
$PQGSV,1,1,0,0*43
$PQGSV,1,1,0,0*43
$GPGSA,A,3,02,04,07,08,10,13,23,25,27,28,,,1.0,0.7,0.8*3F
$GLGSA,A,3,71,72,77,86,87,88,,,,,,,1.0,0.7,0.8*22
$GAGSA,A,3,27,,,,,,,,,,,,1.0,0.7,0.8*28
$GPVTG,,T,,M,0.0,N,0.0,K,A*23
$GPDTM,P90,,0000.000022,S,00000.000001,W,0.988,W84*5A
$GPRMC,011825.00,A,2959.999561,N,12000.000936,E,0.0,,230721,4.3,W,A*07
$GPGGA,011825.00,2959.999561,N,12000.000936,E,1,12,0.7,-3.9,M,7.0,M,,*74

$GPGSV,3,1,11,02,31,255,32,04,24,209,32,07,51,033,33,08,78,274,33*75
$GPGSV,3,2,11,10,28,317,30,13,29,067,32,23,07,084,31,25,32,039,32*79
$GPGSV,3,3,11,26,06,282,22,27,46,244,32,28,26,165,31*49
$GLGSV,2,1,08,78,39,317,30,86,07,050,30,77,65,226,31,88,37,286,30*6E
$GLGSV,2,2,08,87,44,007,31,71,09,045,30,72,17,097,29,81,02,254,*64
$GAGSV,2,1,08,27,06,143,35,09,36,317,,10,82,205,,11,30,146,*65
$GAGSV,2,2,08,17,07,046,,22,09,237,,23,58,261,,24,55,025,*64
$PQGSV,1,1,0,0*43
$PQGSV,1,1,0,0*43
$GPGSA,A,3,02,04,07,08,10,13,23,25,27,28,,,1.0,0.7,0.8*3F
$GLGSA,A,3,71,72,77,86,87,88,,,,,,,1.0,0.7,0.8*22
$GAGSA,A,3,27,,,,,,,,,,,,1.0,0.7,0.8*28
$GPVTG,,T,,M,0.0,N,0.0,K,A*23
$GPDTM,P90,,0000.000022,S,00000.000001,W,0.988,W84*5A
$GPRMC,011826.00,A,2959.999563,N,12000.000935,E,0.0,,230721,4.3,W,A*05
$GPGGA,011826.00,2959.999563,N,12000.000935,E,1,12,0.7,-3.9,M,7.0,M,,*76

$GPGSV,3,1,11,02,31,255,32,04,24,209,32,07,51,033,33,08,78,274,33*75
$GPGSV,3,2,11,10,28,317,30,13,29,067,31,23,07,084,31,25,32,039,32*7A
$GPGSV,3,3,11,26,06,282,22,27,46,244,32,28,26,165,30*48
$GLGSV,2,1,08,78,39,317,30,86,07,050,29,77,65,226,31,88,37,286,30*66
$GLGSV,2,2,08,87,44,007,30,71,09,045,30,72,17,097,28,81,02,254,*64
$GAGSV,2,1,08,27,06,143,35,09,36,317,,10,82,205,,11,30,146,*65
$GAGSV,2,2,08,17,07,046,,22,09,237,,23,58,261,,24,55,025,*64
$PQGSV,1,1,0,0*43
$PQGSV,1,1,0,0*43
$GPGSA,A,3,02,04,07,08,10,13,23,25,27,28,,,1.0,0.7,0.8*3F
$GLGSA,A,3,71,72,77,86,87,88,,,,,,,1.0,0.7,0.8*22
$GAGSA,A,3,27,,,,,,,,,,,,1.0,0.7,0.8*28
$GPVTG,,T,,M,0.0,N,0.0,K,A*23
$GPDTM,P90,,0000.000022,S,00000.000001,W,0.988,W84*5A
$GPRMC,011827.00,A,2959.999563,N,12000.000933,E,0.0,,230721,4.3,W,A*02
$GPGGA,011827.00,2959.999563,N,12000.000933,E,1,12,0.7,-3.8,M,7.0,M,,*70

$GPGSV,3,1,11,02,31,255,32,04,24,209,32,07,51,033,32,08,78,274,33*74
$GPGSV,3,2,11,10,28,317,31,13,29,067,32,23,07,084,32,25,32,039,32*7B
$GPGSV,3,3,11,26,06,282,22,27,46,244,32,28,26,165,30*48
$GLGSV,2,1,08,78,39,317,30,86,07,050,29,77,65,226,31,88,37,286,30*66
$GLGSV,2,2,08,87,44,007,30,71,09,045,30,72,17,097,29,81,02,254,*65
$GAGSV,2,1,08,27,06,143,35,09,36,317,,10,82,205,,11,30,146,*65
$GAGSV,2,2,08,17,07,046,,22,09,237,,23,58,261,,24,55,025,*64
$PQGSV,1,1,0,0*43
$PQGSV,1,1,0,0*43
$GPGSA,A,3,02,04,07,08,10,13,23,25,27,28,,,1.0,0.7,0.8*3F
$GLGSA,A,3,71,72,77,86,87,88,,,,,,,1.0,0.7,0.8*22
$GAGSA,A,3,27,,,,,,,,,,,,1.0,0.7,0.8*28
$GPVTG,,T,,M,0.0,N,0.0,K,A*23
$GPDTM,P90,,0000.000022,S,00000.000001,W,0.988,W84*5A
$GPRMC,011828.00,A,2959.999562,N,12000.000928,E,0.0,,230721,4.3,W,A*06
$GPGGA,011828.00,2959.999562,N,12000.000928,E,1,12,0.7,-3.9,M,7.0,M,,*75

$GPGSV,3,1,11,02,31,255,32,04,24,209,32,07,51,033,32,08,78,274,33*74
$GPGSV,3,2,11,10,28,317,31,13,29,067,32,23,07,084,31,25,32,039,32*78
$GPGSV,3,3,11,26,06,282,22,27,46,244,32,28,26,165,30*48
$GLGSV,2,1,08,78,39,317,30,86,07,050,29,77,65,226,30,88,37,286,30*67
$GLGSV,2,2,08,87,44,007,31,71,09,045,30,72,17,097,28,81,02,254,*65
$GAGSV,2,1,08,27,06,143,35,09,36,317,,10,82,205,,11,30,146,*65
$GAGSV,2,2,08,17,07,046,,22,09,237,,23,58,261,,24,55,025,*64
$PQGSV,1,1,0,0*43
$PQGSV,1,1,0,0*43
$GPGSA,A,3,02,04,07,08,10,13,23,25,27,28,,,1.0,0.7,0.8*3F
$GLGSA,A,3,71,72,77,86,87,88,,,,,,,1.0,0.7,0.8*22
$GAGSA,A,3,27,,,,,,,,,,,,1.0,0.7,0.8*28
$GPVTG,,T,,M,0.0,N,0.0,K,A*23
$GPDTM,P90,,0000.000022,S,00000.000001,W,0.988,W84*5A
$GPRMC,011829.00,A,2959.999561,N,12000.000927,E,0.0,,230721,4.3,W,A*0B
$GPGGA,011829.00,2959.999561,N,12000.000927,E,1,12,0.7,-3.9,M,7.0,M,,*78

$GPGSV,3,1,11,02,31,255,32,04,24,209,32,07,51,033,32,08,78,274,33*74
$GPGSV,3,2,11,10,28,317,30,13,29,067,32,23,07,084,31,25,32,039,32*79
$GPGSV,3,3,11,26,06,282,22,27,46,244,32,28,26,165,30*48
$GLGSV,2,1,08,78,39,317,29,86,07,050,29,77,65,226,31,88,37,286,30*6E
$GLGSV,2,2,08,87,44,007,31,71,09,045,30,72,17,097,28,81,02,254,*65
$GAGSV,2,1,08,27,06,143,35,09,36,317,,10,82,205,,11,30,146,*65
$GAGSV,2,2,08,17,07,046,,22,09,237,,23,58,261,,24,55,025,*64
$PQGSV,1,1,0,0*43
$PQGSV,1,1,0,0*43
$GPGSA,A,3,02,04,07,08,10,13,23,25,27,28,,,1.0,0.7,0.8*3F
$GLGSA,A,3,71,72,77,86,87,88,,,,,,,1.0,0.7,0.8*22
$GAGSA,A,3,27,,,,,,,,,,,,1.0,0.7,0.8*28
$GPVTG,,T,,M,0.0,N,0.0,K,A*23
$GPDTM,P90,,0000.000022,S,00000.000001,W,0.988,W84*5A
$GPRMC,011830.00,A,2959.999567,N,12000.000924,E,0.0,,230721,4.3,W,A*06
$GPGGA,011830.00,2959.999567,N,12000.000924,E,1,12,0.7,-3.9,M,7.0,M,,*75

$GPGSV,3,1,11,02,31,255,32,04,24,209,32,07,51,033,33,08,78,274,32*74
$GPGSV,3,2,11,10,28,317,30,13,29,067,32,23,07,084,31,25,32,039,32*79
$GPGSV,3,3,11,26,06,282,22,27,46,244,31,28,26,165,31*4A
$GLGSV,2,1,08,78,39,317,30,86,07,050,29,77,65,226,31,88,37,286,30*66
$GLGSV,2,2,08,87,44,007,31,71,09,045,29,72,17,097,29,81,02,254,*6C
$GAGSV,2,1,08,27,06,143,36,09,36,317,,10,82,205,,11,30,146,*66
$GAGSV,2,2,08,17,07,046,,22,09,237,,23,58,261,,24,55,025,*64
$PQGSV,1,1,0,0*43
$PQGSV,1,1,0,0*43
$GPGSA,A,3,02,04,07,08,10,13,23,25,27,28,,,1.0,0.7,0.8*3F
$GLGSA,A,3,71,72,77,86,87,88,,,,,,,1.0,0.7,0.8*22
$GAGSA,A,3,27,,,,,,,,,,,,1.0,0.7,0.8*28
$GPVTG,,T,,M,0.0,N,0.0,K,A*23
$GPDTM,P90,,0000.000022,S,00000.000001,W,0.988,W84*5A
$GPRMC,011831.00,A,2959.999563,N,12000.000923,E,0.0,,230721,4.3,W,A*04
$GPGGA,011831.00,2959.999563,N,12000.000923,E,1,12,0.7,-3.9,M,7.0,M,,*77

$GPGSV,3,1,11,02,31,255,32,04,24,209,32,07,51,033,32,08,78,274,33*74
$GPGSV,3,2,11,10,28,317,31,13,29,067,32,23,07,084,31,25,32,039,32*78
$GPGSV,3,3,11,26,06,282,21,27,46,244,32,28,26,165,30*4B
$GLGSV,2,1,08,78,39,317,30,86,07,050,29,77,65,226,31,88,37,286,30*66
$GLGSV,2,2,08,87,44,007,30,71,09,045,29,72,17,097,29,81,02,254,*6D
$GAGSV,2,1,08,27,06,143,35,09,36,317,,10,82,205,,11,30,146,*65
$GAGSV,2,2,08,17,07,046,,22,09,237,,23,58,261,,24,55,025,*64
$PQGSV,1,1,0,0*43
$PQGSV,1,1,0,0*43
$GPGSA,A,3,02,04,07,08,10,13,23,25,27,28,,,1.0,0.7,0.8*3F
$GLGSA,A,3,71,72,77,86,87,88,,,,,,,1.0,0.7,0.8*22
$GAGSA,A,3,27,,,,,,,,,,,,1.0,0.7,0.8*28
$GPVTG,,T,,M,0.0,N,0.0,K,A*23
$GPDTM,P90,,0000.000022,S,00000.000001,W,0.988,W84*5A
$GPRMC,011832.00,A,2959.999562,N,12000.000923,E,0.0,,230721,4.3,W,A*06
$GPGGA,011832.00,2959.999562,N,12000.000923,E,1,12,0.7,-3.9,M,7.0,M,,*75

$GPGSV,3,1,11,02,31,255,32,04,24,209,32,07,51,033,32,08,78,274,32*75
$GPGSV,3,2,11,10,28,317,30,13,29,067,32,23,07,084,31,25,32,039,32*79
$GPGSV,3,3,11,26,06,282,21,27,46,244,32,28,26,165,31*4A
$GLGSV,2,1,08,78,39,317,30,86,07,050,29,77,65,226,31,88,37,286,30*66
$GLGSV,2,2,08,87,44,007,31,71,09,045,29,72,17,097,28,81,02,254,*6D
$GAGSV,2,1,08,27,06,143,35,09,36,317,,10,82,205,,11,30,146,*65
$GAGSV,2,2,08,17,07,046,,22,09,237,,23,58,261,,24,55,025,*64
$PQGSV,1,1,0,0*43
$PQGSV,1,1,0,0*43
$GPGSA,A,3,02,04,07,08,10,13,23,25,27,28,,,1.0,0.7,0.8*3F
$GLGSA,A,3,71,72,77,86,87,88,,,,,,,1.0,0.7,0.8*22
$GAGSA,A,3,27,,,,,,,,,,,,1.0,0.7,0.8*28
$GPVTG,,T,,M,0.0,N,0.0,K,A*23
$GPDTM,P90,,0000.000022,S,00000.000001,W,0.988,W84*5A
$GPRMC,011833.00,A,2959.999562,N,12000.000919,E,0.0,,230721,4.3,W,A*0E
$GPGGA,011833.00,2959.999562,N,12000.000919,E,1,12,0.7,-3.9,M,7.0,M,,*7D

$GPGSV,3,1,11,02,31,255,32,04,24,209,32,07,51,033,32,08,78,274,33*74
$GPGSV,3,2,11,10,28,317,31,13,29,067,32,23,07,084,31,25,32,039,32*78
$GPGSV,3,3,11,26,06,282,21,27,46,244,33,28,26,165,30*4A
$GLGSV,2,1,08,78,39,317,30,86,07,050,29,77,65,226,31,88,37,286,30*66
$GLGSV,2,2,08,87,44,007,30,71,09,045,30,72,17,097,28,81,02,254,*64
$GAGSV,2,1,08,27,06,143,35,09,36,317,,10,82,205,,11,30,146,*65
$GAGSV,2,2,08,17,07,046,,22,09,237,,23,58,261,,24,55,025,*64
$PQGSV,1,1,0,0*43
$PQGSV,1,1,0,0*43
$GPGSA,A,3,02,04,07,08,10,13,23,25,27,28,,,1.0,0.7,0.8*3F
$GLGSA,A,3,71,72,77,86,87,88,,,,,,,1.0,0.7,0.8*22
$GAGSA,A,3,27,,,,,,,,,,,,1.0,0.7,0.8*28
$GPVTG,,T,,M,0.0,N,0.0,K,A*23
$GPDTM,P90,,0000.000022,S,00000.000001,W,0.988,W84*5A
$GPRMC,011834.00,A,2959.999561,N,12000.000918,E,0.0,,230721,4.3,W,A*0B
$GPGGA,011834.00,2959.999561,N,12000.000918,E,1,12,0.7,-3.9,M,7.0,M,,*78

$GPGSV,3,1,11,02,31,255,32,04,24,209,32,07,51,033,33,08,78,274,32*74
$GPGSV,3,2,11,10,28,317,30,13,29,067,32,23,07,084,31,25,32,039,32*79
$GPGSV,3,3,11,26,06,282,22,27,46,244,33,28,26,165,30*49
$GLGSV,2,1,08,78,39,317,30,86,07,050,29,77,65,226,31,88,37,286,30*66
$GLGSV,2,2,08,87,44,007,30,71,09,045,29,72,17,097,29,81,02,254,*6D
$GAGSV,2,1,08,27,06,143,35,09,36,317,,10,82,205,,11,30,146,*65
$GAGSV,2,2,08,17,07,046,,22,09,237,,23,58,261,,24,55,025,*64
$PQGSV,1,1,0,0*43
$PQGSV,1,1,0,0*43
$GPGSA,A,3,02,04,07,08,10,13,23,25,27,28,,,1.0,0.7,0.8*3F
$GLGSA,A,3,71,72,77,86,87,88,,,,,,,1.0,0.7,0.8*22
$GAGSA,A,3,27,,,,,,,,,,,,1.0,0.7,0.8*28
$GPVTG,,T,,M,0.0,N,0.0,K,A*23
$GPDTM,P90,,0000.000022,S,00000.000001,W,0.988,W84*5A
$GPRMC,011835.00,A,2959.999569,N,12000.000910,E,0.0,,230721,4.3,W,A*0A
$GPGGA,011835.00,2959.999569,N,12000.000910,E,1,12,0.7,-3.9,M,7.0,M,,*79

$GPGSV,3,1,11,02,31,255,32,04,24,209,32,07,51,033,33,08,78,274,33*75
$GPGSV,3,2,11,10,28,317,30,13,29,067,32,23,07,084,31,25,32,039,32*79
$GPGSV,3,3,11,26,06,282,24,27,46,244,32,28,26,165,30*4E
$GLGSV,2,1,08,78,39,317,30,86,07,050,29,77,65,226,31,88,37,286,30*66
$GLGSV,2,2,08,87,44,007,30,71,09,045,29,72,17,097,29,81,02,254,*6D
$GAGSV,2,1,08,27,06,143,35,09,36,317,,10,82,205,,11,30,146,*65
$GAGSV,2,2,08,17,07,046,,22,09,237,,23,58,261,,24,55,025,*64
$PQGSV,1,1,0,0*43
$PQGSV,1,1,0,0*43
$GPGSA,A,3,02,04,07,08,10,13,23,25,27,28,,,1.0,0.7,0.8*3F
$GLGSA,A,3,71,72,77,86,87,88,,,,,,,1.0,0.7,0.8*22
$GAGSA,A,3,27,,,,,,,,,,,,1.0,0.7,0.8*28
$GPVTG,,T,,M,0.0,N,0.0,K,A*23
$GPDTM,P90,,0000.000022,S,00000.000001,W,0.988,W84*5A
$GPRMC,011836.00,A,2959.999572,N,12000.000908,E,0.0,,230721,4.3,W,A*0A
$GPGGA,011836.00,2959.999572,N,12000.000908,E,1,12,0.7,-3.9,M,7.0,M,,*79

$GPGSV,3,1,11,02,31,255,32,04,24,209,32,07,51,033,32,08,78,274,33*74
$GPGSV,3,2,11,10,28,317,30,13,29,067,31,23,07,084,31,25,32,039,32*7A
$GPGSV,3,3,11,26,06,282,22,27,46,244,32,28,26,165,30*48
$GLGSV,2,1,08,78,40,316,30,86,07,050,29,77,65,226,31,88,37,286,30*69
$GLGSV,2,2,08,87,44,007,31,71,09,045,29,72,17,097,29,81,02,254,*6C
$GAGSV,2,1,08,27,06,143,35,09,36,317,,10,82,205,,11,30,146,*65
$GAGSV,2,2,08,17,07,046,,22,09,237,,23,58,261,,24,55,025,*64
$PQGSV,1,1,0,0*43
$PQGSV,1,1,0,0*43
$GPGSA,A,3,02,04,07,08,10,13,23,25,27,28,,,1.0,0.7,0.8*3F
$GLGSA,A,3,71,72,77,78,86,87,88,,,,,,1.0,0.7,0.8*2D
$GAGSA,A,3,27,,,,,,,,,,,,1.0,0.7,0.8*28
$GPVTG,,T,,M,0.0,N,0.0,K,A*23
$GPDTM,P90,,0000.000022,S,00000.000001,W,0.988,W84*5A
$GPRMC,011837.00,A,2959.999566,N,12000.000911,E,0.0,,230721,4.3,W,A*06
$GPGGA,011837.00,2959.999566,N,12000.000911,E,1,12,0.7,-3.9,M,7.0,M,,*75

$GPGSV,3,1,11,02,31,255,32,04,24,209,32,07,51,033,32,08,78,274,32*75
$GPGSV,3,2,11,10,28,317,31,13,29,067,32,23,07,084,31,25,32,039,32*78
$GPGSV,3,3,11,26,06,282,22,27,46,244,32,28,26,165,31*49
$GLGSV,2,1,08,78,40,316,30,86,07,050,29,77,65,226,30,88,37,286,30*68
$GLGSV,2,2,08,87,44,007,30,71,09,045,29,72,17,097,29,81,02,254,*6D
$GAGSV,2,1,08,27,06,143,35,09,36,317,,10,82,205,,11,30,146,*65
$GAGSV,2,2,08,17,07,046,,22,09,237,,23,58,261,,24,55,025,*64
$PQGSV,1,1,0,0*43
$PQGSV,1,1,0,0*43
$GPGSA,A,3,02,04,07,08,10,13,23,25,27,28,,,1.0,0.7,0.8*3F
$GLGSA,A,3,71,72,77,78,86,87,88,,,,,,1.0,0.7,0.8*2D
$GAGSA,A,3,27,,,,,,,,,,,,1.0,0.7,0.8*28
$GPVTG,,T,,M,0.0,N,0.0,K,A*23
$GPDTM,P90,,0000.000022,S,00000.000001,W,0.988,W84*5A
$GPRMC,011838.00,A,2959.999570,N,12000.000906,E,0.0,,230721,4.3,W,A*08
$GPGGA,011838.00,2959.999570,N,12000.000906,E,1,12,0.7,-3.9,M,7.0,M,,*7B

$GPGSV,3,1,11,02,31,255,32,04,24,209,33,07,51,033,32,08,78,274,33*75
$GPGSV,3,2,11,10,28,317,30,13,29,067,32,23,07,084,31,25,32,039,32*79
$GPGSV,3,3,11,26,06,282,22,27,46,244,32,28,26,165,30*48
$GLGSV,2,1,08,78,40,316,30,86,07,050,29,77,65,226,31,88,37,286,31*68
$GLGSV,2,2,08,87,44,007,31,71,09,045,29,72,17,097,29,81,02,254,*6C
$GAGSV,2,1,08,27,06,143,35,09,36,317,,10,82,205,,11,30,146,*65
$GAGSV,2,2,08,17,07,046,,22,09,237,,23,58,261,,24,55,025,*64
$PQGSV,1,1,0,0*43
$PQGSV,1,1,0,0*43
$GPGSA,A,3,02,04,07,08,10,13,23,25,27,28,,,1.0,0.7,0.8*3F
$GLGSA,A,3,71,72,77,78,86,87,88,,,,,,1.0,0.7,0.8*2D
$GAGSA,A,3,27,,,,,,,,,,,,1.0,0.7,0.8*28
$GPVTG,,T,,M,0.0,N,0.0,K,A*23
$GPDTM,P90,,0000.000022,S,00000.000001,W,0.988,W84*5A
$GPRMC,011839.00,A,2959.999571,N,12000.000903,E,0.0,,230721,4.3,W,A*0D
$GPGGA,011839.00,2959.999571,N,12000.000903,E,1,12,0.7,-3.9,M,7.0,M,,*7E

$GPGSV,3,1,11,02,31,255,32,04,24,209,32,07,51,033,33,08,78,274,33*75
$GPGSV,3,2,11,10,28,317,30,13,29,067,32,23,07,084,31,25,32,039,32*79
$GPGSV,3,3,11,26,06,282,22,27,46,244,32,28,26,165,31*49
$GLGSV,2,1,08,78,40,316,30,86,06,052,30,77,63,223,31,88,37,288,30*6F
$GLGSV,2,2,08,87,44,007,31,71,09,043,29,72,17,097,29,81,02,254,*6A
$GAGSV,2,1,08,27,06,143,35,09,36,317,,10,82,205,,11,30,146,*65
$GAGSV,2,2,08,17,07,046,,22,09,237,,23,58,261,,24,55,025,*64
$PQGSV,1,1,0,0*43
$PQGSV,1,1,0,0*43
$GPGSA,A,3,02,04,07,08,10,13,23,25,27,28,,,1.0,0.7,0.8*3F
$GLGSA,A,3,71,72,77,78,86,87,88,,,,,,1.0,0.7,0.8*2D
$GAGSA,A,3,27,,,,,,,,,,,,1.0,0.7,0.8*28
$GPVTG,,T,,M,0.0,N,0.0,K,A*23
$GPDTM,P90,,0000.000022,S,00000.000001,W,0.988,W84*5A
$GPRMC,011840.00,A,2959.999566,N,12000.000907,E,0.0,,230721,4.3,W,A*01
$GPGGA,011840.00,2959.999566,N,12000.000907,E,1,12,0.7,-3.9,M,7.0,M,,*72

$GPGSV,3,1,11,02,31,255,32,04,24,209,32,07,51,033,32,08,78,274,32*75
$GPGSV,3,2,11,10,28,317,30,13,29,067,32,23,07,084,31,25,32,039,31*7A
$GPGSV,3,3,11,26,06,282,22,27,46,244,32,28,26,165,30*48
$GLGSV,2,1,08,78,40,316,30,86,06,052,29,77,63,223,31,88,37,288,30*67
$GLGSV,2,2,08,87,44,007,30,71,09,043,30,72,17,097,28,81,02,254,*62
$GAGSV,2,1,08,27,06,143,35,09,36,317,,10,82,205,,11,30,146,*65
$GAGSV,2,2,08,17,07,046,,22,09,237,,23,58,261,,24,55,025,*64
$PQGSV,1,1,0,0*43
$PQGSV,1,1,0,0*43
$GPGSA,A,3,02,04,07,08,10,13,23,25,27,28,,,1.0,0.7,0.8*3F
$GLGSA,A,3,71,72,77,78,86,87,88,,,,,,1.0,0.7,0.8*2D
$GAGSA,A,3,27,,,,,,,,,,,,1.0,0.7,0.8*28
$GPVTG,,T,,M,0.0,N,0.0,K,A*23
$GPDTM,P90,,0000.000022,S,00000.000001,W,0.988,W84*5A
$GPRMC,011841.00,A,2959.999562,N,12000.000904,E,0.0,,230721,4.3,W,A*07
$GPGGA,011841.00,2959.999562,N,12000.000904,E,1,12,0.7,-3.9,M,7.0,M,,*74

$GPGSV,3,1,11,02,31,255,32,04,24,209,32,07,51,033,32,08,78,274,32*75
$GPGSV,3,2,11,10,28,317,30,13,29,067,33,23,07,084,31,25,32,039,32*78
$GPGSV,3,3,11,26,06,282,23,27,46,244,32,28,26,165,30*49
$GLGSV,2,1,08,78,40,316,29,86,06,052,29,77,63,223,31,88,37,288,30*6F
$GLGSV,2,2,08,87,44,007,30,71,09,043,29,72,17,097,28,81,02,254,*6A
$GAGSV,2,1,08,27,06,143,35,09,36,317,,10,82,205,,11,30,146,*65
$GAGSV,2,2,08,17,07,046,,22,09,237,,23,58,261,,24,55,025,*64
$PQGSV,1,1,0,0*43
$PQGSV,1,1,0,0*43
$GPGSA,A,3,02,04,07,08,10,13,23,25,27,28,,,1.0,0.7,0.8*3F
$GLGSA,A,3,71,72,77,78,86,87,88,,,,,,1.0,0.7,0.8*2D
$GAGSA,A,3,27,,,,,,,,,,,,1.0,0.7,0.8*28
$GPVTG,,T,,M,0.0,N,0.0,K,A*23
$GPDTM,P90,,0000.000022,S,00000.000001,W,0.988,W84*5A
$GPRMC,011842.00,A,2959.999565,N,12000.000900,E,0.0,,230721,4.3,W,A*07
$GPGGA,011842.00,2959.999565,N,12000.000900,E,1,12,0.7,-3.9,M,7.0,M,,*74

$GPGSV,3,1,11,02,31,255,32,04,24,209,32,07,51,033,33,08,78,274,33*75
$GPGSV,3,2,11,10,28,317,30,13,29,067,32,23,07,084,31,25,32,039,32*79
$GPGSV,3,3,11,26,06,282,23,27,46,244,32,28,26,165,31*48
$GLGSV,2,1,08,78,40,316,30,86,06,052,29,77,63,223,31,88,37,288,30*67
$GLGSV,2,2,08,87,44,007,31,71,09,043,29,72,17,097,29,81,02,254,*6A
$GAGSV,2,1,08,27,06,143,35,09,36,317,,10,82,205,,11,30,146,*65
$GAGSV,2,2,08,17,07,046,,22,09,237,,23,58,261,,24,55,025,*64
$PQGSV,1,1,0,0*43
$PQGSV,1,1,0,0*43
$GPGSA,A,3,02,04,07,08,10,13,23,25,27,28,,,1.0,0.7,0.8*3F
$GLGSA,A,3,71,72,77,78,86,87,88,,,,,,1.0,0.7,0.8*2D
$GAGSA,A,3,27,,,,,,,,,,,,1.0,0.7,0.8*28
$GPVTG,,T,,M,0.0,N,0.0,K,A*23
$GPDTM,P90,,0000.000022,S,00000.000001,W,0.988,W84*5A
$GPRMC,011843.00,A,2959.999566,N,12000.000901,E,0.0,,230721,4.3,W,A*04
$GPGGA,011843.00,2959.999566,N,12000.000901,E,1,12,0.7,-3.9,M,7.0,M,,*77

$GPGSV,3,1,11,02,31,255,32,04,24,209,32,07,51,033,33,08,78,274,33*75
$GPGSV,3,2,11,10,28,317,30,13,29,067,31,23,07,084,31,25,32,039,32*7A
$GPGSV,3,3,11,26,06,282,22,27,46,244,32,28,26,165,30*48
$GLGSV,2,1,08,78,40,316,30,86,06,052,28,77,63,223,31,88,37,288,30*66
$GLGSV,2,2,08,87,44,007,30,71,09,043,30,72,17,097,28,81,02,254,*62
$GAGSV,2,1,08,27,06,143,35,09,36,317,,10,82,205,,11,30,146,*65
$GAGSV,2,2,08,17,07,046,,22,09,237,,23,58,261,,24,55,025,*64
$PQGSV,1,1,0,0*43
$PQGSV,1,1,0,0*43
$GPGSA,A,3,02,04,07,08,10,13,23,25,27,28,,,1.0,0.7,0.8*3F
$GLGSA,A,3,71,72,77,78,86,87,88,,,,,,1.0,0.7,0.8*2D
$GAGSA,A,3,27,,,,,,,,,,,,1.0,0.7,0.8*28
$GPVTG,,T,,M,0.0,N,0.0,K,A*23
$GPDTM,P90,,0000.000022,S,00000.000001,W,0.988,W84*5A
$GPRMC,011844.00,A,2959.999568,N,12000.000896,E,0.0,,230721,4.3,W,A*02
$GPGGA,011844.00,2959.999568,N,12000.000896,E,1,12,0.7,-3.9,M,7.0,M,,*71

$GPGSV,3,1,11,02,31,255,32,04,24,209,32,07,51,033,33,08,78,274,32*74
$GPGSV,3,2,11,10,28,317,31,13,29,067,32,23,07,084,31,25,32,039,32*78
$GPGSV,3,3,11,26,06,282,22,27,46,244,32,28,26,165,30*48
$GLGSV,2,1,08,78,40,316,30,86,06,052,29,77,63,223,31,88,37,288,30*67
$GLGSV,2,2,08,87,44,007,31,71,09,043,29,72,17,097,29,81,02,254,*6A
$GAGSV,2,1,08,27,06,143,35,09,36,317,,10,82,205,,11,30,146,*65
$GAGSV,2,2,08,17,07,046,,22,09,237,,23,58,261,,24,55,025,*64
$PQGSV,1,1,0,0*43
$PQGSV,1,1,0,0*43
$GPGSA,A,3,02,04,07,08,10,13,23,25,27,28,,,1.0,0.7,0.8*3F
$GLGSA,A,3,71,72,77,78,86,87,88,,,,,,1.0,0.7,0.8*2D
$GAGSA,A,3,27,,,,,,,,,,,,1.0,0.7,0.8*28
$GPVTG,,T,,M,0.0,N,0.0,K,A*23
$GPDTM,P90,,0000.000022,S,00000.000001,W,0.988,W84*5A
$GPRMC,011845.00,A,2959.999564,N,12000.000902,E,0.0,,230721,4.3,W,A*03
$GPGGA,011845.00,2959.999564,N,12000.000902,E,1,12,0.7,-3.9,M,7.0,M,,*70

$GPGSV,3,1,11,02,31,255,32,04,24,209,32,07,51,033,32,08,78,274,33*74
$GPGSV,3,2,11,10,28,317,30,13,29,067,32,23,07,084,31,25,32,039,32*79
$GPGSV,3,3,11,26,06,282,22,27,46,244,32,28,26,165,31*49
$GLGSV,2,1,08,78,40,316,30,86,06,052,29,77,63,223,31,88,37,288,30*67
$GLGSV,2,2,08,87,44,007,31,71,09,043,30,72,17,097,28,81,02,254,*63
$GAGSV,2,1,08,27,06,143,35,09,36,317,,10,82,205,,11,30,146,*65
$GAGSV,2,2,08,17,07,046,,22,09,237,,23,58,261,,24,55,025,*64
$PQGSV,1,1,0,0*43
$PQGSV,1,1,0,0*43
$GPGSA,A,3,02,04,07,08,10,13,23,25,27,28,,,1.0,0.7,0.8*3F
$GLGSA,A,3,71,72,77,78,86,87,88,,,,,,1.0,0.7,0.8*2D
$GAGSA,A,3,27,,,,,,,,,,,,1.0,0.7,0.8*28
$GPVTG,,T,,M,0.0,N,0.0,K,A*23
$GPDTM,P90,,0000.000022,S,00000.000001,W,0.988,W84*5A
$GPRMC,011846.00,A,2959.999567,N,12000.000897,E,0.0,,230721,4.3,W,A*0E
$GPGGA,011846.00,2959.999567,N,12000.000897,E,1,12,0.7,-3.9,M,7.0,M,,*7D

$GPGSV,3,1,11,02,31,255,32,04,24,209,32,07,51,033,33,08,78,274,33*75
$GPGSV,3,2,11,10,28,317,31,13,29,067,32,23,07,084,31,25,32,039,32*78
$GPGSV,3,3,11,26,06,282,22,27,46,244,32,28,26,165,30*48
$GLGSV,2,1,08,78,40,316,30,86,06,052,29,77,63,223,31,88,37,288,29*6F
$GLGSV,2,2,08,87,44,007,30,71,09,043,29,72,17,097,28,81,02,254,*6A
$GAGSV,2,1,08,27,06,143,35,09,36,317,,10,82,205,,11,30,146,*65
$GAGSV,2,2,08,17,07,046,,22,09,237,,23,58,261,,24,55,025,*64
$PQGSV,1,1,0,0*43
$PQGSV,1,1,0,0*43
$GPGSA,A,3,02,04,07,08,10,13,23,25,27,28,,,1.0,0.7,0.8*3F
$GLGSA,A,3,71,72,77,78,86,87,88,,,,,,1.0,0.7,0.8*2D
$GAGSA,A,3,27,,,,,,,,,,,,1.0,0.7,0.8*28
$GPVTG,,T,,M,0.0,N,0.0,K,A*23
$GPDTM,P90,,0000.000022,S,00000.000001,W,0.988,W84*5A
$GPRMC,011847.00,A,2959.999563,N,12000.000898,E,0.0,,230721,4.3,W,A*04
$GPGGA,011847.00,2959.999563,N,12000.000898,E,1,12,0.7,-3.9,M,7.0,M,,*77

$GPGSV,3,1,11,02,31,255,31,04,24,209,32,07,51,033,33,08,78,274,33*76
$GPGSV,3,2,11,10,28,317,30,13,29,067,31,23,07,084,31,25,32,039,32*7A
$GPGSV,3,3,11,26,06,282,21,27,46,244,32,28,26,165,30*4B
$GLGSV,2,1,08,78,40,316,30,86,06,052,29,77,63,223,31,88,37,288,30*67
$GLGSV,2,2,08,87,44,007,31,71,09,043,29,72,17,097,28,81,02,254,*6B
$GAGSV,2,1,08,27,06,143,35,09,36,317,,10,82,205,,11,30,146,*65
$GAGSV,2,2,08,17,07,046,,22,09,237,,23,58,261,,24,55,025,*64
$PQGSV,1,1,0,0*43
$PQGSV,1,1,0,0*43
$GPGSA,A,3,02,04,07,08,10,13,23,25,27,28,,,1.0,0.7,0.8*3F
$GLGSA,A,3,71,72,77,78,86,87,88,,,,,,1.0,0.7,0.8*2D
$GAGSA,A,3,27,,,,,,,,,,,,1.0,0.7,0.8*28
$GPVTG,,T,,M,0.0,N,0.0,K,A*23
$GPDTM,P90,,0000.000022,S,00000.000001,W,0.988,W84*5A
$GPRMC,011848.00,A,2959.999560,N,12000.000896,E,0.0,,230721,4.3,W,A*06
$GPGGA,011848.00,2959.999560,N,12000.000896,E,1,12,0.7,-3.9,M,7.0,M,,*75

$GPGSV,3,1,11,02,31,255,32,04,24,209,32,07,51,033,32,08,78,274,32*75
$GPGSV,3,2,11,10,28,317,31,13,29,067,32,23,07,084,31,25,32,039,31*7B
$GPGSV,3,3,11,26,06,282,21,27,46,244,33,28,26,165,31*4B
$GLGSV,2,1,08,78,40,316,30,86,06,052,29,77,63,223,31,88,37,288,30*67
$GLGSV,2,2,08,87,44,007,31,71,09,043,29,72,17,097,29,81,02,254,*6A
$GAGSV,2,1,08,27,06,143,35,09,36,317,,10,82,205,,11,30,146,*65
$GAGSV,2,2,08,17,07,046,,22,09,237,,23,58,261,,24,55,025,*64
$PQGSV,1,1,0,0*43
$PQGSV,1,1,0,0*43
$GPGSA,A,3,02,04,07,08,10,13,23,25,27,28,,,1.0,0.7,0.8*3F
$GLGSA,A,3,71,72,77,78,86,87,88,,,,,,1.0,0.7,0.8*2D
$GAGSA,A,3,27,,,,,,,,,,,,1.0,0.7,0.8*28
$GPVTG,,T,,M,0.0,N,0.0,K,A*23
$GPDTM,P90,,0000.000022,S,00000.000001,W,0.988,W84*5A
$GPRMC,011849.00,A,2959.999556,N,12000.000899,E,0.0,,230721,4.3,W,A*0D
$GPGGA,011849.00,2959.999556,N,12000.000899,E,1,12,0.7,-3.9,M,7.0,M,,*7E

$GPGSV,3,1,11,02,31,255,32,04,24,209,32,07,51,033,32,08,78,274,33*74
$GPGSV,3,2,11,10,28,317,31,13,29,067,32,23,07,084,31,25,32,039,32*78
$GPGSV,3,3,11,26,06,282,23,27,46,244,32,28,26,165,30*49
$GLGSV,2,1,08,78,40,316,30,86,06,052,30,77,63,223,31,88,37,288,30*6F
$GLGSV,2,2,08,87,44,007,31,71,09,043,29,72,17,097,29,81,02,254,*6A
$GAGSV,2,1,08,27,06,143,35,09,36,317,,10,82,205,,11,30,146,*65
$GAGSV,2,2,08,17,07,046,,22,09,237,,23,58,261,,24,55,025,*64
$PQGSV,1,1,0,0*43
$PQGSV,1,1,0,0*43
$GPGSA,A,3,02,04,07,08,10,13,23,25,27,28,,,1.0,0.7,0.8*3F
$GLGSA,A,3,71,72,77,78,86,87,88,,,,,,1.0,0.7,0.8*2D
$GAGSA,A,3,27,,,,,,,,,,,,1.0,0.7,0.8*28
$GPVTG,,T,,M,0.0,N,0.0,K,A*23
$GPDTM,P90,,0000.000022,S,00000.000001,W,0.988,W84*5A
$GPRMC,011850.00,A,2959.999554,N,12000.000900,E,0.0,,230721,4.3,W,A*06
$GPGGA,011850.00,2959.999554,N,12000.000900,E,1,12,0.7,-3.9,M,7.0,M,,*75

$GPGSV,3,1,11,02,31,255,32,04,24,209,32,07,51,033,33,08,78,274,33*75
$GPGSV,3,2,11,10,28,317,30,13,29,067,31,23,07,084,31,25,32,039,32*7A
$GPGSV,3,3,11,26,06,282,21,27,46,244,32,28,26,165,30*4B
$GLGSV,2,1,08,78,40,316,30,86,06,052,29,77,63,223,31,88,37,288,30*67
$GLGSV,2,2,08,87,44,007,30,71,09,043,30,72,17,097,29,81,02,254,*63
$GAGSV,2,1,08,27,06,143,35,09,36,317,,10,82,205,,11,30,146,*65
$GAGSV,2,2,08,17,07,046,,22,09,237,,23,58,261,,24,55,025,*64
$PQGSV,1,1,0,0*43
$PQGSV,1,1,0,0*43
$GPGSA,A,3,02,04,07,08,10,13,23,25,27,28,,,1.0,0.7,0.8*3F
$GLGSA,A,3,71,72,77,78,86,87,88,,,,,,1.0,0.7,0.8*2D
$GAGSA,A,3,27,,,,,,,,,,,,1.0,0.7,0.8*28
$GPVTG,,T,,M,0.0,N,0.0,K,A*23
$GPDTM,P90,,0000.000022,S,00000.000001,W,0.988,W84*5A
$GPRMC,011851.00,A,2959.999556,N,12000.000899,E,0.0,,230721,4.3,W,A*04
$GPGGA,011851.00,2959.999556,N,12000.000899,E,1,12,0.7,-3.9,M,7.0,M,,*77

$GPGSV,3,1,11,02,31,255,32,04,24,209,32,07,51,033,33,08,78,274,33*75
$GPGSV,3,2,11,10,28,317,30,13,29,067,32,23,07,084,31,25,32,039,31*7A
$GPGSV,3,3,11,26,06,282,22,27,46,244,32,28,26,165,30*48
$GLGSV,2,1,08,78,40,316,29,86,06,052,29,77,63,223,30,88,37,288,30*6E
$GLGSV,2,2,08,87,44,007,31,71,09,043,29,72,17,097,28,81,02,254,*6B
$GAGSV,2,1,08,27,06,143,35,09,36,317,,10,82,205,,11,30,146,*65
$GAGSV,2,2,08,17,07,046,,22,09,237,,23,58,261,,24,55,025,*64
$PQGSV,1,1,0,0*43
$PQGSV,1,1,0,0*43
$GPGSA,A,3,02,04,07,08,10,13,23,25,27,28,,,1.0,0.7,0.8*3F
$GLGSA,A,3,71,72,77,78,86,87,88,,,,,,1.0,0.7,0.8*2D
$GAGSA,A,3,27,,,,,,,,,,,,1.0,0.7,0.8*28
$GPVTG,,T,,M,0.0,N,0.0,K,A*23
$GPDTM,P90,,0000.000022,S,00000.000001,W,0.988,W84*5A
$GPRMC,011852.00,A,2959.999557,N,12000.000895,E,0.0,,230721,4.3,W,A*0A
$GPGGA,011852.00,2959.999557,N,12000.000895,E,1,12,0.7,-3.9,M,7.0,M,,*79

$GPGSV,3,1,11,02,31,255,32,04,24,209,32,07,51,033,33,08,78,274,33*75
$GPGSV,3,2,11,10,28,317,30,13,29,067,32,23,07,084,31,25,32,039,32*79
$GPGSV,3,3,11,26,06,282,22,27,46,244,32,28,26,165,31*49
$GLGSV,2,1,08,78,40,316,30,86,06,052,29,77,63,223,31,88,37,288,30*67
$GLGSV,2,2,08,87,44,007,31,71,09,043,30,72,17,097,28,81,02,254,*63
$GAGSV,2,1,08,27,06,143,35,09,36,317,,10,82,205,,11,30,146,*65
$GAGSV,2,2,08,17,07,046,,22,09,237,,23,58,261,,24,55,025,*64
$PQGSV,1,1,0,0*43
$PQGSV,1,1,0,0*43
$GPGSA,A,3,02,04,07,08,10,13,23,25,27,28,,,1.0,0.7,0.8*3F
$GLGSA,A,3,71,72,77,78,86,87,88,,,,,,1.0,0.7,0.8*2D
$GAGSA,A,3,27,,,,,,,,,,,,1.0,0.7,0.8*28
$GPVTG,,T,,M,0.0,N,0.0,K,A*23
$GPDTM,P90,,0000.000022,S,00000.000001,W,0.988,W84*5A
$GPRMC,011853.00,A,2959.999560,N,12000.000890,E,0.0,,230721,4.3,W,A*0A
$GPGGA,011853.00,2959.999560,N,12000.000890,E,1,12,0.7,-3.9,M,7.0,M,,*79

$GPGSV,3,1,11,02,31,255,32,04,24,209,32,07,51,033,33,08,78,274,33*75
$GPGSV,3,2,11,10,28,317,30,13,29,067,32,23,07,084,31,25,32,039,32*79
$GPGSV,3,3,11,26,06,282,21,27,46,244,32,28,26,165,31*4A
$GLGSV,2,1,08,78,40,316,30,86,06,052,30,77,63,223,31,88,37,288,30*6F
$GLGSV,2,2,08,87,44,007,31,71,09,043,29,72,17,097,29,81,02,254,*6A
$GAGSV,2,1,08,27,06,143,35,09,36,317,,10,82,205,,11,30,146,*65
$GAGSV,2,2,08,17,07,046,,22,09,237,,23,58,261,,24,55,025,*64
$PQGSV,1,1,0,0*43
$PQGSV,1,1,0,0*43
$GPGSA,A,3,02,04,07,08,10,13,23,25,27,28,,,1.0,0.7,0.8*3F
$GLGSA,A,3,71,72,77,78,86,87,88,,,,,,1.0,0.7,0.8*2D
$GAGSA,A,3,27,,,,,,,,,,,,1.0,0.7,0.8*28
$GPVTG,,T,,M,0.0,N,0.0,K,A*23
$GPDTM,P90,,0000.000022,S,00000.000001,W,0.988,W84*5A
$GPRMC,011854.00,A,2959.999561,N,12000.000884,E,0.0,,230721,4.3,W,A*09
$GPGGA,011854.00,2959.999561,N,12000.000884,E,1,12,0.7,-3.9,M,7.0,M,,*7A

$GPGSV,3,1,11,02,31,255,32,04,24,209,32,07,51,033,33,08,78,274,32*74
$GPGSV,3,2,11,10,28,317,31,13,29,067,32,23,07,084,31,25,32,039,32*78
$GPGSV,3,3,11,26,06,282,22,27,46,244,32,28,26,165,30*48
$GLGSV,2,1,08,78,40,316,30,86,06,052,29,77,63,223,31,88,37,288,30*67
$GLGSV,2,2,08,87,44,007,31,71,09,043,30,72,17,097,29,81,02,254,*62
$GAGSV,2,1,08,27,06,143,35,09,36,317,,10,82,205,,11,30,146,*65
$GAGSV,2,2,08,17,07,046,,22,09,237,,23,58,261,,24,55,025,*64
$PQGSV,1,1,0,0*43
$PQGSV,1,1,0,0*43
$GPGSA,A,3,02,04,07,08,10,13,23,25,27,28,,,1.0,0.7,0.8*3F
$GLGSA,A,3,71,72,77,78,86,87,88,,,,,,1.0,0.7,0.8*2D
$GAGSA,A,3,27,,,,,,,,,,,,1.0,0.7,0.8*28
$GPVTG,,T,,M,0.0,N,0.0,K,A*23
$GPDTM,P90,,0000.000022,S,00000.000001,W,0.988,W84*5A
$GPRMC,011855.00,A,2959.999557,N,12000.000885,E,0.0,,230721,4.3,W,A*0C
$GPGGA,011855.00,2959.999557,N,12000.000885,E,1,12,0.7,-3.9,M,7.0,M,,*7F

$GPGSV,3,1,11,02,31,255,32,04,24,209,32,07,51,033,33,08,78,274,32*74
$GPGSV,3,2,11,10,28,317,31,13,29,067,32,23,07,084,31,25,32,039,32*78
$GPGSV,3,3,11,26,06,282,22,27,46,244,32,28,26,165,31*49
$GLGSV,2,1,08,78,40,316,30,86,06,052,29,77,63,223,31,88,37,288,30*67
$GLGSV,2,2,08,87,44,007,31,71,09,043,29,72,17,097,29,81,02,254,*6A
$GAGSV,2,1,08,27,06,143,35,09,36,317,,10,82,205,,11,30,146,*65
$GAGSV,2,2,08,17,07,046,,22,09,237,,23,58,261,,24,55,025,*64
$PQGSV,1,1,0,0*43
$PQGSV,1,1,0,0*43
$GPGSA,A,3,02,04,07,08,10,13,23,25,27,28,,,1.0,0.7,0.8*3F
$GLGSA,A,3,71,72,77,78,86,87,88,,,,,,1.0,0.7,0.8*2D
$GAGSA,A,3,27,,,,,,,,,,,,1.0,0.7,0.8*28
$GPVTG,,T,,M,0.0,N,0.0,K,A*23
$GPDTM,P90,,0000.000022,S,00000.000001,W,0.988,W84*5A
$GPRMC,011856.00,A,2959.999553,N,12000.000887,E,0.0,,230721,4.3,W,A*09
$GPGGA,011856.00,2959.999553,N,12000.000887,E,1,12,0.7,-3.9,M,7.0,M,,*7A

$GPGSV,3,1,11,02,31,255,32,04,24,209,32,07,51,033,33,08,78,274,33*75
$GPGSV,3,2,11,10,28,317,30,13,29,067,32,23,07,084,31,25,32,039,32*79
$GPGSV,3,3,11,26,06,282,21,27,46,244,32,28,26,165,31*4A
$GLGSV,2,1,08,78,40,316,30,86,06,052,29,77,63,223,31,88,37,288,30*67
$GLGSV,2,2,08,87,44,007,31,71,09,043,29,72,17,097,30,81,02,254,*62
$GAGSV,2,1,08,27,06,143,35,09,36,317,,10,82,205,,11,30,146,*65
$GAGSV,2,2,08,17,07,046,,22,09,237,,23,58,261,,24,55,025,*64
$PQGSV,1,1,0,0*43
$PQGSV,1,1,0,0*43
$GPGSA,A,3,02,04,07,08,10,13,23,25,27,28,,,1.0,0.7,0.8*3F
$GLGSA,A,3,71,72,77,78,86,87,88,,,,,,1.0,0.7,0.8*2D
$GAGSA,A,3,27,,,,,,,,,,,,1.0,0.7,0.8*28
$GPVTG,,T,,M,0.0,N,0.0,K,A*23
$GPDTM,P90,,0000.000022,S,00000.000001,W,0.988,W84*5A
$GPRMC,011857.00,A,2959.999556,N,12000.000881,E,0.0,,230721,4.3,W,A*0B
$GPGGA,011857.00,2959.999556,N,12000.000881,E,1,12,0.7,-3.9,M,7.0,M,,*78

$GPGSV,3,1,11,02,31,255,32,04,24,209,32,07,51,033,33,08,78,274,33*75
$GPGSV,3,2,11,10,28,317,30,13,29,067,31,23,07,084,31,25,32,039,32*7A
$GPGSV,3,3,11,26,06,282,22,27,46,244,32,28,26,165,30*48
$GLGSV,2,1,08,78,40,316,30,86,06,052,29,77,63,223,31,88,37,288,30*67
$GLGSV,2,2,08,87,44,007,31,71,09,043,29,72,17,097,29,81,02,254,*6A
$GAGSV,2,1,08,27,06,143,35,09,36,317,,10,82,205,,11,30,146,*65
$GAGSV,2,2,08,17,07,046,,22,09,237,,23,58,261,,24,55,025,*64
$PQGSV,1,1,0,0*43
$PQGSV,1,1,0,0*43
$GPGSA,A,3,02,04,07,08,10,13,23,25,27,28,,,1.0,0.7,0.8*3F
$GLGSA,A,3,71,72,77,78,86,87,88,,,,,,1.0,0.7,0.8*2D
$GAGSA,A,3,27,,,,,,,,,,,,1.0,0.7,0.8*28
$GPVTG,,T,,M,0.0,N,0.0,K,A*23
$GPDTM,P90,,0000.000022,S,00000.000001,W,0.988,W84*5A
$GPRMC,011858.00,A,2959.999555,N,12000.000880,E,0.0,,230721,4.3,W,A*06
$GPGGA,011858.00,2959.999555,N,12000.000880,E,1,12,0.7,-3.9,M,7.0,M,,*75

$GPGSV,3,1,11,02,31,255,32,04,24,209,32,07,51,033,33,08,78,274,32*74
$GPGSV,3,2,11,10,28,317,30,13,29,067,32,23,07,084,31,25,32,039,32*79
$GPGSV,3,3,11,26,06,282,22,27,46,244,32,28,26,165,31*49
$GLGSV,2,1,08,78,40,316,30,86,06,052,29,77,63,223,31,88,37,288,31*66
$GLGSV,2,2,08,87,44,007,30,71,09,043,29,72,17,097,28,81,02,254,*6A
$GAGSV,2,1,08,27,06,143,35,09,36,317,,10,82,205,,11,30,146,*65
$GAGSV,2,2,08,17,07,046,,22,09,237,,23,58,261,,24,55,025,*64
$PQGSV,1,1,0,0*43
$PQGSV,1,1,0,0*43
$GPGSA,A,3,02,04,07,08,10,13,23,25,27,28,,,1.0,0.7,0.8*3F
$GLGSA,A,3,71,72,77,78,86,87,88,,,,,,1.0,0.7,0.8*2D
$GAGSA,A,3,27,,,,,,,,,,,,1.0,0.7,0.8*28
$GPVTG,,T,,M,0.0,N,0.0,K,A*23
$GPDTM,P90,,0000.000022,S,00000.000001,W,0.988,W84*5A
$GPRMC,011859.00,A,2959.999555,N,12000.000878,E,0.0,,230721,4.3,W,A*00
$GPGGA,011859.00,2959.999555,N,12000.000878,E,1,12,0.7,-3.9,M,7.0,M,,*73

$GPGSV,3,1,11,02,31,255,32,04,24,209,32,07,51,033,32,08,78,274,33*74
$GPGSV,3,2,11,10,28,317,30,13,29,067,32,23,07,084,31,25,32,039,32*79
$GPGSV,3,3,11,26,06,282,21,27,46,244,32,28,26,165,31*4A
$GLGSV,2,1,08,78,40,316,30,86,06,052,29,77,63,223,31,88,37,288,30*67
$GLGSV,2,2,08,87,44,007,31,71,09,043,29,72,17,097,28,81,02,254,*6B
$GAGSV,2,1,08,27,06,143,35,09,36,317,,10,82,205,,11,30,146,*65
$GAGSV,2,2,08,17,07,046,,22,09,237,,23,58,261,,24,55,025,*64
$PQGSV,1,1,0,0*43
$PQGSV,1,1,0,0*43
$GPGSA,A,3,02,04,07,08,10,13,23,25,27,28,,,1.0,0.7,0.8*3F
$GLGSA,A,3,71,72,77,78,86,87,88,,,,,,1.0,0.7,0.8*2D
$GAGSA,A,3,27,,,,,,,,,,,,1.0,0.7,0.8*28
$GPVTG,,T,,M,0.0,N,0.0,K,A*23
$GPDTM,P90,,0000.000022,S,00000.000001,W,0.988,W84*5A
$GPRMC,011900.00,A,2959.999558,N,12000.000875,E,0.0,,230721,4.3,W,A*0D
$GPGGA,011900.00,2959.999558,N,12000.000875,E,1,12,0.7,-3.9,M,7.0,M,,*7E

$GPGSV,3,1,11,02,31,255,32,04,24,209,31,07,51,033,32,08,78,274,33*77
$GPGSV,3,2,11,10,28,317,30,13,29,067,32,23,07,084,31,25,32,039,32*79
$GPGSV,3,3,11,26,06,282,22,27,46,244,32,28,26,165,31*49
$GLGSV,2,1,08,78,40,316,31,86,06,052,30,77,63,223,31,88,37,288,30*6E
$GLGSV,2,2,08,87,44,007,31,71,09,043,29,72,17,097,29,81,02,254,*6A
$GAGSV,2,1,08,27,06,143,35,09,36,317,,10,82,205,,11,30,146,*65
$GAGSV,2,2,08,17,07,046,,22,09,237,,23,58,261,,24,55,025,*64
$PQGSV,1,1,0,0*43
$PQGSV,1,1,0,0*43
$GPGSA,A,3,02,04,07,08,10,13,23,25,27,28,,,1.0,0.7,0.8*3F
$GLGSA,A,3,71,72,77,78,86,87,88,,,,,,1.0,0.7,0.8*2D
$GAGSA,A,3,27,,,,,,,,,,,,1.0,0.7,0.8*28
$GPVTG,,T,,M,0.0,N,0.0,K,A*23
$GPDTM,P90,,0000.000022,S,00000.000001,W,0.988,W84*5A
$GPRMC,011901.00,A,2959.999565,N,12000.000865,E,0.0,,230721,4.3,W,A*03
$GPGGA,011901.00,2959.999565,N,12000.000865,E,1,12,0.7,-3.9,M,7.0,M,,*70

$GPGSV,3,1,11,02,31,255,32,04,24,209,32,07,51,033,33,08,78,274,33*75
$GPGSV,3,2,11,10,28,317,30,13,29,067,32,23,07,084,31,25,32,039,32*79
$GPGSV,3,3,11,26,06,282,22,27,46,244,32,28,26,165,31*49
$GLGSV,2,1,08,78,40,316,30,86,06,052,29,77,63,223,30,88,37,288,30*66
$GLGSV,2,2,08,87,44,007,31,71,09,043,29,72,17,097,29,81,02,254,*6A
$GAGSV,2,1,08,27,06,143,35,09,36,317,,10,82,205,,11,30,146,*65
$GAGSV,2,2,08,17,07,046,,22,09,237,,23,58,261,,24,55,025,*64
$PQGSV,1,1,0,0*43
$PQGSV,1,1,0,0*43
$GPGSA,A,3,02,04,07,08,10,13,23,25,27,28,,,1.0,0.7,0.8*3F
$GLGSA,A,3,71,72,77,78,86,87,88,,,,,,1.0,0.7,0.8*2D
$GAGSA,A,3,27,,,,,,,,,,,,1.0,0.7,0.8*28
$GPVTG,,T,,M,0.0,N,0.0,K,A*23
$GPDTM,P90,,0000.000022,S,00000.000001,W,0.988,W84*5A
$GPRMC,011902.00,A,2959.999565,N,12000.000863,E,0.0,,230721,4.3,W,A*06
$GPGGA,011902.00,2959.999565,N,12000.000863,E,1,12,0.7,-3.9,M,7.0,M,,*75

$GPGSV,3,1,11,02,31,255,31,04,24,209,32,07,51,033,33,08,78,274,33*76
