$GPGGA,000148,2959.90164,N,12000.60047,E,3,18,1.02,-7.86,M,7.86,M,,*61
$GPRMC,000148,A,2959.90164,N,12000.60047,E,75.594,201.413,230721,0.000,E,A,V*5D
$GPGGA,000149,2959.88236,N,12000.59077,E,3,18,1.02,-7.86,M,7.86,M,,*64
$GPRMC,000149,A,2959.88236,N,12000.59077,E,75.594,205.869,230721,0.000,E,A,V*5D
$GPGGA,000150,2959.86379,N,12000.57939,E,3,18,1.02,-7.86,M,7.86,M,,*65
$GPRMC,000150,A,2959.86379,N,12000.57939,E,75.594,210.326,230721,0.000,E,A,V*58
$GPGGA,000151,2959.84606,N,12000.56638,E,3,18,1.02,-7.86,M,7.86,M,,*64
$GPRMC,000151,A,2959.84606,N,12000.56638,E,75.594,214.782,230721,0.000,E,A,V*57
$GPGGA,000152,2959.82925,N,12000.55183,E,3,18,1.02,-7.86,M,7.86,M,,*6B
$GPRMC,000152,A,2959.82925,N,12000.55183,E,75.594,219.238,230721,0.000,E,A,V*51
$GPGGA,000153,2959.81348,N,12000.53582,E,3,18,1.02,-7.86,M,7.86,M,,*6B
$GPRMC,000153,A,2959.81348,N,12000.53582,E,75.594,223.694,230721,0.000,E,A,V*5A
$GPGGA,000154,2959.79884,N,12000.51846,E,3,18,1.02,-7.86,M,7.86,M,,*67
$GPRMC,000154,A,2959.79884,N,12000.51846,E,75.594,228.150,230721,0.000,E,A,V*52
$GPGGA,000155,2959.78542,N,12000.49983,E,3,18,1.02,-7.86,M,7.86,M,,*61
$GPRMC,000155,A,2959.78542,N,12000.49983,E,75.594,232.607,230721,0.000,E,A,V*5A
$GPGGA,000156,2959.77330,N,12000.48007,E,3,18,1.02,-7.86,M,7.86,M,,*6A
$GPRMC,000156,A,2959.77330,N,12000.48007,E,75.594,237.063,230721,0.000,E,A,V*50
$GPGGA,000157,2959.76255,N,12000.45929,E,3,18,1.02,-7.86,M,7.86,M,,*60
$GPRMC,000157,A,2959.76255,N,12000.45929,E,75.594,241.519,230721,0.000,E,A,V*53
$GPGGA,000158,2959.75324,N,12000.43761,E,3,18,1.02,-7.86,M,7.86,M,,*6F
$GPRMC,000158,A,2959.75324,N,12000.43761,E,75.594,245.975,230721,0.000,E,A,V*5E
$GPGGA,000159,2959.74543,N,12000.41516,E,3,18,1.02,-7.86,M,7.86,M,,*68
$GPRMC,000159,A,2959.74543,N,12000.41516,E,75.594,250.431,230721,0.000,E,A,V*50
$GPGGA,000200,2959.73915,N,12000.39208,E,3,18,1.02,-7.86,M,7.86,M,,*68
$GPRMC,000200,A,2959.73915,N,12000.39208,E,75.594,254.887,230721,0.000,E,A,V*55
$GPGGA,000201,2959.73446,N,12000.36851,E,3,18,1.02,-7.86,M,7.86,M,,*6B
$GPRMC,000201,A,2959.73446,N,12000.36851,E,75.594,259.344,230721,0.000,E,A,V*5F
$GPGGA,000202,2959.73137,N,12000.34460,E,3,18,1.02,-7.86,M,7.86,M,,*67
$GPRMC,000202,A,2959.73137,N,12000.34460,E,75.594,263.800,230721,0.000,E,A,V*51
$GPGGA,000203,2959.72992,N,12000.32048,E,3,18,1.02,-7.86,M,7.86,M,,*68
$GPRMC,000203,A,2959.72992,N,12000.32048,E,75.594,268.256,230721,0.000,E,A,V*5C
$GPGGA,000204,2959.73009,N,12000.29631,E,3,18,1.02,-7.86,M,7.86,M,,*67
$GPRMC,000204,A,2959.73009,N,12000.29631,E,75.594,272.712,230721,0.000,E,A,V*5D
$GPGGA,000205,2959.73190,N,12000.27222,E,3,18,1.02,-7.86,M,7.86,M,,*6F
$GPRMC,000205,A,2959.73190,N,12000.27222,E,75.594,277.168,230721,0.000,E,A,V*5B
$GPGGA,000206,2959.73534,N,12000.24837,E,3,18,1.02,-7.86,M,7.86,M,,*6B
$GPRMC,000206,A,2959.73534,N,12000.24837,E,75.594,281.624,230721,0.000,E,A,V*59
$GPGGA,000207,2959.74038,N,12000.22490,E,3,18,1.02,-7.86,M,7.86,M,,*63
$GPRMC,000207,A,2959.74038,N,12000.22490,E,75.594,286.080,230721,0.000,E,A,V*5E
$GPGGA,000208,2959.74699,N,12000.20194,E,3,18,1.02,-7.86,M,7.86,M,,*62
$GPRMC,000208,A,2959.74699,N,12000.20194,E,75.594,290.536,230721,0.000,E,A,V*50
$GPGGA,000209,2959.75513,N,12000.17965,E,3,18,1.02,-7.86,M,7.86,M,,*61
$GPRMC,000209,A,2959.75513,N,12000.17965,E,75.594,294.993,230721,0.000,E,A,V*54
$GPGGA,000210,2959.76475,N,12000.15815,E,3,18,1.02,-7.86,M,7.86,M,,*6F
$GPRMC,000210,A,2959.76475,N,12000.15815,E,75.594,299.449,230721,0.000,E,A,V*5D
$GPGGA,000211,2959.77580,N,12000.13758,E,3,18,1.02,-7.86,M,7.86,M,,*64
$GPRMC,000211,A,2959.77580,N,12000.13758,E,75.594,303.905,230721,0.000,E,A,V*51
$GPGGA,000212,2959.78821,N,12000.11805,E,3,18,1.02,-7.86,M,7.86,M,,*6B
$GPRMC,000212,A,2959.78821,N,12000.11805,E,75.594,308.361,230721,0.000,E,A,V*5D
$GPGGA,000213,2959.80190,N,12000.09969,E,3,18,1.02,-7.86,M,7.86,M,,*6C
$GPRMC,000213,A,2959.80190,N,12000.09969,E,75.594,312.817,230721,0.000,E,A,V*5B
$GPGGA,000214,2959.81679,N,12000.08261,E,3,18,1.02,-7.86,M,7.86,M,,*68
$GPRMC,000214,A,2959.81679,N,12000.08261,E,75.594,317.273,230721,0.000,E,A,V*52
$GPGGA,000215,2959.83280,N,12000.06691,E,3,18,1.02,-7.86,M,7.86,M,,*6C
$GPRMC,000215,A,2959.83280,N,12000.06691,E,75.594,321.730,230721,0.000,E,A,V*51
$GPGGA,000216,2959.84981,N,12000.05268,E,3,18,1.02,-7.86,M,7.86,M,,*63
$GPRMC,000216,A,2959.84981,N,12000.05268,E,75.594,326.186,230721,0.000,E,A,V*52
$GPGGA,000217,2959.86774,N,12000.04002,E,3,18,1.02,-7.86,M,7.86,M,,*6B
$GPRMC,000217,A,2959.86774,N,12000.04002,E,75.594,330.642,230721,0.000,E,A,V*52
$GPGGA,000218,2959.88647,N,12000.02899,E,3,18,1.02,-7.86,M,7.86,M,,*67
$GPRMC,000218,A,2959.88647,N,12000.02899,E,75.594,335.098,230721,0.000,E,A,V*5A
$GPGGA,000219,2959.90588,N,12000.01968,E,3,18,1.02,-7.86,M,7.86,M,,*63
$GPRMC,000219,A,2959.90588,N,12000.01968,E,75.594,339.555,230721,0.000,E,A,V*56
$GPGGA,000220,2959.92587,N,12000.01212,E,3,18,1.02,-7.86,M,7.86,M,,*62
$GPRMC,000220,A,2959.92587,N,12000.01212,E,75.594,344.011,230721,0.000,E,A,V*58
$GPGGA,000221,2959.94631,N,12000.00637,E,3,18,1.02,-7.86,M,7.86,M,,*69
$GPRMC,000221,A,2959.94631,N,12000.00637,E,75.594,348.467,230721,0.000,E,A,V*5A
$GPGGA,000222,2959.96708,N,12000.00246,E,3,18,1.02,-7.86,M,7.86,M,,*61
$GPRMC,000222,A,2959.96708,N,12000.00246,E,75.594,352.923,230721,0.000,E,A,V*54
$GPGGA,000223,2959.98805,N,12000.00041,E,3,18,1.02,-7.86,M,7.86,M,,*69
$GPRMC,000223,A,2959.98805,N,12000.00041,E,75.594,357.380,230721,0.000,E,A,V*5A
$GPGGA,000224,3000.00909,N,12000.00025,E,3,18,1.02,-7.85,M,7.85,M,,*64
$GPRMC,000224,A,3000.00909,N,12000.00025,E,75.594,1.836,230721,0.000,E,A,V*51
$GPGGA,000225,3000.03008,N,12000.00196,E,3,18,1.02,-7.85,M,7.85,M,,*67
$GPRMC,000225,A,3000.03008,N,12000.00196,E,75.594,6.292,230721,0.000,E,A,V*51
$GPGGA,000226,3000.05089,N,12000.00554,E,3,18,1.02,-7.85,M,7.85,M,,*61
$GPRMC,000226,A,3000.05089,N,12000.00554,E,75.594,10.749,230721,0.000,E,A,V*63
$GPGGA,000227,3000.07140,N,12000.01097,E,3,18,1.02,-7.85,M,7.85,M,,*6D
$GPRMC,000227,A,3000.07140,N,12000.01097,E,75.594,15.205,230721,0.000,E,A,V*67
$GPGGA,000228,3000.09148,N,12000.01822,E,3,18,1.02,-7.85,M,7.85,M,,*62
$GPRMC,000228,A,3000.09148,N,12000.01822,E,75.594,19.661,230721,0.000,E,A,V*62
$GPGGA,000229,3000.11100,N,12000.02723,E,3,18,1.02,-7.85,M,7.85,M,,*6B
$GPRMC,000229,A,3000.11100,N,12000.02723,E,75.594,24.118,230721,0.000,E,A,V*6C
$GPGGA,000230,3000.12986,N,12000.03796,E,3,18,1.02,-7.85,M,7.85,M,,*69
$GPRMC,000230,A,3000.12986,N,12000.03796,E,75.594,28.574,230721,0.000,E,A,V*6C
$GPGGA,000231,3000.14794,N,12000.05034,E,3,18,1.02,-7.85,M,7.85,M,,*6A
$GPRMC,000231,A,3000.14794,N,12000.05034,E,75.594,33.031,230721,0.000,E,A,V*61
$GPGGA,000232,3000.16512,N,12000.06430,E,3,18,1.02,-7.85,M,7.85,M,,*64
$GPRMC,000232,A,3000.16512,N,12000.06430,E,75.594,37.487,230721,0.000,E,A,V*62
$GPGGA,000233,3000.18131,N,12000.07975,E,3,18,1.02,-7.85,M,7.85,M,,*63
$GPRMC,000233,A,3000.18131,N,12000.07975,E,75.594,41.944,230721,0.000,E,A,V*66
$GPGGA,000234,3000.19640,N,12000.09659,E,3,18,1.02,-7.85,M,7.85,M,,*6B
$GPRMC,000234,A,3000.19640,N,12000.09659,E,75.594,46.400,230721,0.000,E,A,V*64
$GPGGA,000235,3000.21031,N,12000.11474,E,3,18,1.02,-7.85,M,7.85,M,,*65
$GPRMC,000235,A,3000.21031,N,12000.11474,E,75.594,50.857,230721,0.000,E,A,V*63
$GPGGA,000236,3000.22295,N,12000.13407,E,3,18,1.02,-7.85,M,7.85,M,,*6F
$GPRMC,000236,A,3000.22295,N,12000.13407,E,75.594,55.313,230721,0.000,E,A,V*67
$GPGGA,000237,3000.23425,N,12000.15447,E,3,18,1.02,-7.85,M,7.85,M,,*60
$GPRMC,000237,A,3000.23425,N,12000.15447,E,75.594,59.770,230721,0.000,E,A,V*65
$GPGGA,000238,3000.24413,N,12000.17582,E,3,18,1.02,-7.86,M,7.86,M,,*67
$GPRMC,000238,A,3000.24413,N,12000.17582,E,75.594,64.226,230721,0.000,E,A,V*6A
$GPGGA,000239,3000.25253,N,12000.19798,E,3,18,1.02,-7.86,M,7.86,M,,*62
$GPRMC,000239,A,3000.25253,N,12000.19798,E,75.594,68.683,230721,0.000,E,A,V*68
$GPGGA,000240,3000.25942,N,12000.22083,E,3,18,1.02,-7.86,M,7.86,M,,*62
$GPRMC,000240,A,3000.25942,N,12000.22083,E,75.594,73.139,230721,0.000,E,A,V*64
$GPGGA,000241,3000.26473,N,12000.24422,E,3,18,1.02,-7.86,M,7.86,M,,*66
$GPRMC,000241,A,3000.26473,N,12000.24422,E,75.594,77.596,230721,0.000,E,A,V*65
$GPGGA,000242,3000.26845,N,12000.26802,E,3,18,1.02,-7.86,M,7.86,M,,*60
$GPRMC,000242,A,3000.26845,N,12000.26802,E,75.594,82.052,230721,0.000,E,A,V*64
$GPGGA,000243,3000.27055,N,12000.29208,E,3,18,1.02,-7.86,M,7.86,M,,*66
$GPRMC,000243,A,3000.27055,N,12000.29208,E,75.594,86.509,230721,0.000,E,A,V*6D
$GPGGA,000244,3000.27101,N,12000.31625,E,3,18,1.02,-7.86,M,7.86,M,,*63
$GPRMC,000244,A,3000.27101,N,12000.31625,E,75.594,90.965,230721,0.000,E,A,V*69
$GPGGA,000245,3000.26984,N,12000.34039,E,3,18,1.02,-7.86,M,7.86,M,,*68
$GPRMC,000245,A,3000.26984,N,12000.34039,E,75.594,95.422,230721,0.000,E,A,V*69
$GPGGA,000246,3000.26704,N,12000.36435,E,3,18,1.03,-7.86,M,7.86,M,,*66
$GPRMC,000246,A,3000.26704,N,12000.36435,E,75.594,99.878,230721,0.000,E,A,V*69
$GPGGA,000247,3000.26263,N,12000.38799,E,3,18,1.03,-7.86,M,7.86,M,,*68
$GPRMC,000247,A,3000.26263,N,12000.38799,E,75.594,104.335,230721,0.000,E,A,V*50
$GPGGA,000248,3000.25663,N,12000.41117,E,3,18,1.03,-7.86,M,7.86,M,,*6E
$GPRMC,000248,A,3000.25663,N,12000.41117,E,75.594,108.791,230721,0.000,E,A,V*50
$GPGGA,000249,3000.24909,N,12000.43374,E,3,18,1.03,-7.86,M,7.86,M,,*68
$GPRMC,000249,A,3000.24909,N,12000.43374,E,75.594,113.248,230721,0.000,E,A,V*5D
$GPGGA,000250,3000.24004,N,12000.45557,E,3,18,1.03,-7.86,M,7.86,M,,*65
$GPRMC,000250,A,3000.24004,N,12000.45557,E,75.594,117.704,230721,0.000,E,A,V*59
$GPGGA,000251,3000.22954,N,12000.47652,E,3,18,1.03,-7.86,M,7.86,M,,*6A
$GPRMC,000251,A,3000.22954,N,12000.47652,E,75.594,122.161,230721,0.000,E,A,V*55
$GPGGA,000252,3000.21765,N,12000.49647,E,3,18,1.03,-7.86,M,7.86,M,,*6C
$GPRMC,000252,A,3000.21765,N,12000.49647,E,75.594,126.617,230721,0.000,E,A,V*51
$GPGGA,000253,3000.20445,N,12000.51531,E,3,18,1.03,-7.86,M,7.86,M,,*66
$GPRMC,000253,A,3000.20445,N,12000.51531,E,75.594,131.074,230721,0.000,E,A,V*5E
$GPGGA,000254,3000.19002,N,12000.53290,E,3,18,1.03,-7.86,M,7.86,M,,*62
$GPRMC,000254,A,3000.19002,N,12000.53290,E,75.594,135.530,230721,0.000,E,A,V*5B
$GPGGA,000255,3000.17444,N,12000.54916,E,3,18,1.03,-7.86,M,7.86,M,,*69
$GPRMC,000255,A,3000.17444,N,12000.54916,E,75.594,139.987,230721,0.000,E,A,V*5C
$GPGGA,000256,3000.15781,N,12000.56397,E,3,18,1.03,-7.86,M,7.86,M,,*63
$GPRMC,000256,A,3000.15781,N,12000.56397,E,75.594,144.443,230721,0.000,E,A,V*59
$GPGGA,000257,3000.14023,N,12000.57726,E,3,18,1.03,-7.86,M,7.86,M,,*63
$GPRMC,000257,A,3000.14023,N,12000.57726,E,75.594,148.900,230721,0.000,E,A,V*5F
$GPGGA,000258,3000.12180,N,12000.58893,E,3,18,1.03,-7.86,M,7.86,M,,*6C
$GPRMC,000258,A,3000.12180,N,12000.58893,E,75.594,153.356,230721,0.000,E,A,V*53
$GPGGA,000259,3000.10264,N,12000.59893,E,3,18,1.03,-7.86,M,7.86,M,,*67
$GPRMC,000259,A,3000.10264,N,12000.59893,E,75.594,157.812,230721,0.000,E,A,V*57
$GPGGA,000300,3000.08286,N,12000.60719,E,3,18,1.03,-7.86,M,7.86,M,,*68
$GPRMC,000300,A,3000.08286,N,12000.60719,E,75.594,162.269,230721,0.000,E,A,V*58
$GPGGA,000301,3000.06259,N,12000.61365,E,3,18,1.03,-7.86,M,7.86,M,,*6B
$GPRMC,000301,A,3000.06259,N,12000.61365,E,75.594,166.725,230721,0.000,E,A,V*52
$GPGGA,000302,3000.04193,N,12000.61828,E,3,18,1.03,-7.86,M,7.86,M,,*6D
$GPRMC,000302,A,3000.04193,N,12000.61828,E,75.594,171.182,230721,0.000,E,A,V*59
$GPGGA,000303,3000.02103,N,12000.62106,E,3,18,1.03,-7.86,M,7.86,M,,*65
$GPRMC,000303,A,3000.02103,N,12000.62106,E,75.594,175.638,230721,0.000,E,A,V*53
$GPGGA,000304,3000.00000,N,12000.62196,E,3,18,1.03,-7.86,M,7.86,M,,*6B
$GPRMC,000304,A,3000.00000,N,12000.62196,E,75.594,180.094,230721,0.000,E,A,V*57
$GPGGA,000305,2959.97897,N,12000.62099,E,3,18,1.03,-7.86,M,7.86,M,,*68
$GPRMC,000305,A,2959.97897,N,12000.62099,E,75.594,184.551,230721,0.000,E,A,V*5C
$GPGGA,000306,2959.95808,N,12000.61813,E,3,18,1.03,-7.86,M,7.86,M,,*66
$GPRMC,000306,A,2959.95808,N,12000.61813,E,75.594,189.007,230721,0.000,E,A,V*59
$GPGGA,000307,2959.93744,N,12000.61343,E,3,18,1.03,-7.86,M,7.86,M,,*68
$GPRMC,000307,A,2959.93744,N,12000.61343,E,75.594,193.463,230721,0.000,E,A,V*5A
$GPGGA,000308,2959.91718,N,12000.60689,E,3,18,1.03,-7.86,M,7.86,M,,*6E
$GPRMC,000308,A,2959.91718,N,12000.60689,E,75.594,197.919,230721,0.000,E,A,V*58
$GPGGA,000309,2959.89742,N,12000.59856,E,3,18,1.03,-7.86,M,7.86,M,,*6F
$GPRMC,000309,A,2959.89742,N,12000.59856,E,75.594,202.376,230721,0.000,E,A,V*55
$GPGGA,000310,2959.87829,N,12000.58850,E,3,18,1.03,-7.86,M,7.86,M,,*6C
$GPRMC,000310,A,2959.87829,N,12000.58850,E,75.594,206.832,230721,0.000,E,A,V*59
$GPGGA,000311,2959.85989,N,12000.57676,E,3,18,1.03,-7.86,M,7.86,M,,*61
$GPRMC,000311,A,2959.85989,N,12000.57676,E,75.594,211.288,230721,0.000,E,A,V*59
$GPGGA,000312,2959.84234,N,12000.56341,E,3,18,1.03,-7.86,M,7.86,M,,*6E
$GPRMC,000312,A,2959.84234,N,12000.56341,E,75.594,215.744,230721,0.000,E,A,V*57
$GPGGA,000313,2959.82575,N,12000.54854,E,3,18,1.03,-7.86,M,7.86,M,,*66
$GPRMC,000313,A,2959.82575,N,12000.54854,E,75.594,220.201,230721,0.000,E,A,V*5D
$GPGGA,000314,2959.81022,N,12000.53223,E,3,18,1.03,-7.86,M,7.86,M,,*68
$GPRMC,000314,A,2959.81022,N,12000.53223,E,75.594,224.657,230721,0.000,E,A,V*50
$GPGGA,000315,2959.79584,N,12000.51458,E,3,18,1.03,-7.86,M,7.86,M,,*6F
$GPRMC,000315,A,2959.79584,N,12000.51458,E,75.594,229.113,230721,0.000,E,A,V*5D
$GPGGA,000316,2959.78269,N,12000.49570,E,3,18,1.03,-7.86,M,7.86,M,,*6B
$GPRMC,000316,A,2959.78269,N,12000.49570,E,75.594,233.569,230721,0.000,E,A,V*5B
$GPGGA,000317,2959.77086,N,12000.47571,E,3,18,1.03,-7.86,M,7.86,M,,*69
$GPRMC,000317,A,2959.77086,N,12000.47571,E,75.594,238.025,230721,0.000,E,A,V*5F
$GPGGA,000318,2959.76042,N,12000.45472,E,3,18,1.03,-7.86,M,7.86,M,,*6F
$GPRMC,000318,A,2959.76042,N,12000.45472,E,75.594,242.481,230721,0.000,E,A,V*5E
$GPGGA,000319,2959.75143,N,12000.43286,E,3,18,1.03,-7.86,M,7.86,M,,*66
$GPRMC,000319,A,2959.75143,N,12000.43286,E,75.594,246.938,230721,0.000,E,A,V*5C
$GPGGA,000320,2959.74394,N,12000.41027,E,3,18,1.03,-7.86,M,7.86,M,,*6E
$GPRMC,000320,A,2959.74394,N,12000.41027,E,75.594,251.394,230721,0.000,E,A,V*5E
$GPGGA,000321,2959.73800,N,12000.38707,E,3,18,1.03,-7.86,M,7.86,M,,*65
$GPRMC,000321,A,2959.73800,N,12000.38707,E,75.594,255.850,230721,0.000,E,A,V*52
$GPGGA,000322,2959.73366,N,12000.36342,E,3,18,1.03,-7.86,M,7.86,M,,*66
$GPRMC,000322,A,2959.73366,N,12000.36342,E,75.594,260.306,230721,0.000,E,A,V*5F
$GPGGA,000323,2959.73092,N,12000.33945,E,3,18,1.03,-7.86,M,7.86,M,,*67
$GPRMC,000323,A,2959.73092,N,12000.33945,E,75.594,264.762,230721,0.000,E,A,V*5C
$GPGGA,000324,2959.72981,N,12000.31530,E,3,18,1.03,-7.86,M,7.86,M,,*66
$GPRMC,000324,A,2959.72981,N,12000.31530,E,75.594,269.218,230721,0.000,E,A,V*58
$GPGGA,000325,2959.73035,N,12000.29114,E,3,18,1.03,-7.86,M,7.86,M,,*6B
$GPRMC,000325,A,2959.73035,N,12000.29114,E,75.594,273.674,230721,0.000,E,A,V*50
$GPGGA,000326,2959.73251,N,12000.26709,E,3,18,1.03,-7.86,M,7.86,M,,*6D
$GPRMC,000326,A,2959.73251,N,12000.26709,E,75.594,278.131,230721,0.000,E,A,V*5B
$GPGGA,000327,2959.73629,N,12000.24331,E,3,18,1.03,-7.86,M,7.86,M,,*6A
$GPRMC,000327,A,2959.73629,N,12000.24331,E,75.594,282.587,230721,0.000,E,A,V*50
$GPGGA,000328,2959.74167,N,12000.21993,E,3,18,1.03,-7.86,M,7.86,M,,*68
$GPRMC,000328,A,2959.74167,N,12000.21993,E,75.594,287.043,230721,0.000,E,A,V*5A
$GPGGA,000329,2959.74862,N,12000.19711,E,3,18,1.03,-7.86,M,7.86,M,,*6A
$GPRMC,000329,A,2959.74862,N,12000.19711,E,75.594,291.499,230721,0.000,E,A,V*5C
$GPGGA,000330,2959.75708,N,12000.17498,E,3,18,1.03,-7.86,M,7.86,M,,*6C
$GPRMC,000330,A,2959.75708,N,12000.17498,E,75.594,295.955,230721,0.000,E,A,V*53
$GPGGA,000331,2959.76702,N,12000.15367,E,3,18,1.03,-7.86,M,7.86,M,,*61
$GPRMC,000331,A,2959.76702,N,12000.15367,E,75.594,300.411,230721,0.000,E,A,V*5E
$GPGGA,000332,2959.77837,N,12000.13331,E,3,18,1.03,-7.86,M,7.86,M,,*6F
$GPRMC,000332,A,2959.77837,N,12000.13331,E,75.594,304.867,230721,0.000,E,A,V*59
$GPGGA,000333,2959.79106,N,12000.11403,E,3,18,1.03,-7.86,M,7.86,M,,*6F
$GPRMC,000333,A,2959.79106,N,12000.11403,E,75.594,309.324,230721,0.000,E,A,V*58
$GPGGA,000334,2959.80502,N,12000.09593,E,3,18,1.03,-7.86,M,7.86,M,,*6F
$GPRMC,000334,A,2959.80502,N,12000.09593,E,75.594,313.780,230721,0.000,E,A,V*59
$GPGGA,000335,2959.82016,N,12000.07914,E,3,18,1.03,-7.86,M,7.86,M,,*61
$GPRMC,000335,A,2959.82016,N,12000.07914,E,75.594,318.236,230721,0.000,E,A,V*54
$GPGGA,000336,2959.83639,N,12000.06375,E,3,18,1.03,-7.86,M,7.86,M,,*64
$GPRMC,000336,A,2959.83639,N,12000.06375,E,75.594,322.692,230721,0.000,E,A,V*52
$GPGGA,000337,2959.85361,N,12000.04986,E,3,18,1.03,-7.86,M,7.86,M,,*6F
$GPRMC,000337,A,2959.85361,N,12000.04986,E,75.594,327.148,230721,0.000,E,A,V*5C
$GPGGA,000338,2959.87172,N,12000.03754,E,3,18,1.03,-7.86,M,7.86,M,,*64
$GPRMC,000338,A,2959.87172,N,12000.03754,E,75.594,331.605,230721,0.000,E,A,V*5E
$GPGGA,000339,2959.89061,N,12000.02688,E,3,18,1.03,-7.86,M,7.86,M,,*69
$GPRMC,000339,A,2959.89061,N,12000.02688,E,75.594,336.061,230721,0.000,E,A,V*50
$GPGGA,000340,2959.91016,N,12000.01794,E,3,18,1.03,-7.86,M,7.86,M,,*61
$GPRMC,000340,A,2959.91016,N,12000.01794,E,75.594,340.517,230721,0.000,E,A,V*5D
$GPGGA,000341,2959.93025,N,12000.01076,E,3,18,1.03,-7.86,M,7.86,M,,*69
$GPRMC,000341,A,2959.93025,N,12000.01076,E,75.594,344.973,230721,0.000,E,A,V*5F
$GPGGA,000342,2959.95078,N,12000.00541,E,3,18,1.03,-7.86,M,7.86,M,,*64
$GPRMC,000342,A,2959.95078,N,12000.00541,E,75.594,349.430,230721,0.000,E,A,V*55
$GPGGA,000343,2959.97160,N,12000.00190,E,3,18,1.03,-7.86,M,7.86,M,,*67
$GPRMC,000343,A,2959.97160,N,12000.00190,E,75.594,353.886,230721,0.000,E,A,V*5C
$GPGGA,000344,2959.99259,N,12000.00026,E,3,18,1.03,-7.86,M,7.86,M,,*6B
$GPRMC,000344,A,2959.99259,N,12000.00026,E,75.594,358.342,230721,0.000,E,A,V*58
$GPGGA,000345,3000.01363,N,12000.00050,E,3,18,1.03,-7.85,M,7.85,M,,*66
$GPRMC,000345,A,3000.01363,N,12000.00050,E,75.594,2.799,230721,0.000,E,A,V*5B
$GPGGA,000346,3000.03460,N,12000.00262,E,3,18,1.03,-7.85,M,7.85,M,,*60
$GPRMC,000346,A,3000.03460,N,12000.00262,E,75.594,7.255,230721,0.000,E,A,V*5D
$GPGGA,000347,3000.05535,N,12000.00661,E,3,18,1.03,-7.85,M,7.85,M,,*61
$GPRMC,000347,A,3000.05535,N,12000.00661,E,75.594,11.711,230721,0.000,E,A,V*6E
$GPGGA,000348,3000.07578,N,12000.01243,E,3,18,1.03,-7.85,M,7.85,M,,*60
$GPRMC,000348,A,3000.07578,N,12000.01243,E,75.594,16.168,230721,0.000,E,A,V*60
$GPGGA,000349,3000.09575,N,12000.02006,E,3,18,1.03,-7.85,M,7.85,M,,*62
$GPRMC,000349,A,3000.09575,N,12000.02006,E,75.594,20.624,230721,0.000,E,A,V*68
$GPGGA,000350,3000.11514,N,12000.02945,E,3,18,1.03,-7.85,M,7.85,M,,*6A
$GPRMC,000350,A,3000.11514,N,12000.02945,E,75.594,25.080,230721,0.000,E,A,V*6D
$GPGGA,000351,3000.13384,N,12000.04054,E,3,18,1.03,-7.85,M,7.85,M,,*69
$GPRMC,000351,A,3000.13384,N,12000.04054,E,75.594,29.537,230721,0.000,E,A,V*6B
$GPGGA,000352,3000.15173,N,12000.05327,E,3,18,1.03,-7.85,M,7.85,M,,*60
$GPRMC,000352,A,3000.15173,N,12000.05327,E,75.594,33.993,230721,0.000,E,A,V*6B
$GPGGA,000353,3000.16871,N,12000.06756,E,3,18,1.03,-7.85,M,7.85,M,,*68
$GPRMC,000353,A,3000.16871,N,12000.06756,E,75.594,38.450,230721,0.000,E,A,V*6A
$GPGGA,000354,3000.18466,N,12000.08331,E,3,18,1.03,-7.85,M,7.85,M,,*60
$GPRMC,000354,A,3000.18466,N,12000.08331,E,75.594,42.906,230721,0.000,E,A,V*61
$GPGGA,000355,3000.19951,N,12000.10045,E,3,18,1.03,-7.85,M,7.85,M,,*60
$GPRMC,000355,A,3000.19951,N,12000.10045,E,75.594,47.363,230721,0.000,E,A,V*6D
$GPGGA,000356,3000.21315,N,12000.11886,E,3,18,1.03,-7.85,M,7.85,M,,*64
$GPRMC,000356,A,3000.21315,N,12000.11886,E,75.594,51.819,230721,0.000,E,A,V*68
$GPGGA,000357,3000.22551,N,12000.13843,E,3,18,1.03,-7.85,M,7.85,M,,*6B
$GPRMC,000357,A,3000.22551,N,12000.13843,E,75.594,56.276,230721,0.000,E,A,V*63
$GPGGA,000358,3000.23650,N,12000.15905,E,3,18,1.03,-7.86,M,7.86,M,,*62
$GPRMC,000358,A,3000.23650,N,12000.15905,E,75.594,60.732,230721,0.000,E,A,V*6A
$GPGGA,000359,3000.24607,N,12000.18058,E,3,18,1.03,-7.86,M,7.86,M,,*6A
$GPRMC,000359,A,3000.24607,N,12000.18058,E,75.594,65.189,230721,0.000,E,A,V*61
$GPGGA,000400,3000.25415,N,12000.20291,E,3,18,1.03,-7.86,M,7.86,M,,*6D
$GPRMC,000400,A,3000.25415,N,12000.20291,E,75.594,69.645,230721,0.000,E,A,V*6D
$GPGGA,000401,3000.26070,N,12000.22588,E,3,18,1.03,-7.86,M,7.86,M,,*65
$GPRMC,000401,A,3000.26070,N,12000.22588,E,75.594,74.102,230721,0.000,E,A,V*6D
$GPGGA,000402,3000.26567,N,12000.24938,E,3,18,1.03,-7.86,M,7.86,M,,*64
$GPRMC,000402,A,3000.26567,N,12000.24938,E,75.594,78.558,230721,0.000,E,A,V*6B
$GPGGA,000403,3000.26904,N,12000.27324,E,3,18,1.03,-7.86,M,7.86,M,,*68
$GPRMC,000403,A,3000.26904,N,12000.27324,E,75.594,83.015,230721,0.000,E,A,V*6F
$GPGGA,000404,3000.27079,N,12000.29734,E,3,18,1.03,-7.86,M,7.86,M,,*66
$GPRMC,000404,A,3000.27079,N,12000.29734,E,75.594,87.471,230721,0.000,E,A,V*63
$GPGGA,000405,3000.27090,N,12000.32152,E,3,18,1.03,-7.86,M,7.86,M,,*6C
$GPRMC,000405,A,3000.27090,N,12000.32152,E,75.594,91.928,230721,0.000,E,A,V*6F
$GPGGA,000406,3000.26938,N,12000.34563,E,3,18,1.03,-7.86,M,7.86,M,,*65
$GPRMC,000406,A,3000.26938,N,12000.34563,E,75.594,96.384,230721,0.000,E,A,V*6D
$GPGGA,000407,3000.26623,N,12000.36954,E,3,18,1.03,-7.86,M,7.86,M,,*6B
$GPRMC,000407,A,3000.26623,N,12000.36954,E,75.594,100.841,230721,0.000,E,A,V*5F
$GPGGA,000408,3000.26147,N,12000.39309,E,3,18,1.03,-7.86,M,7.86,M,,*6C
$GPRMC,000408,A,3000.26147,N,12000.39309,E,75.594,105.297,230721,0.000,E,A,V*5C
$GPGGA,000409,3000.25513,N,12000.41614,E,3,18,1.03,-7.86,M,7.86,M,,*6D
$GPRMC,000409,A,3000.25513,N,12000.41614,E,75.594,109.754,230721,0.000,E,A,V*5B
$GPGGA,000410,3000.24726,N,12000.43857,E,3,18,1.03,-7.86,M,7.86,M,,*6B
$GPRMC,000410,A,3000.24726,N,12000.43857,E,75.594,114.210,230721,0.000,E,A,V*54
$GPGGA,000411,3000.23789,N,12000.46022,E,3,18,1.03,-7.86,M,7.86,M,,*67
$GPRMC,000411,A,3000.23789,N,12000.46022,E,75.594,118.667,230721,0.000,E,A,V*50
$GPGGA,000412,3000.22708,N,12000.48096,E,3,18,1.03,-7.86,M,7.86,M,,*6D
$GPRMC,000412,A,3000.22708,N,12000.48096,E,75.594,123.123,230721,0.000,E,A,V*55
$GPGGA,000413,3000.21491,N,12000.50068,E,3,18,1.03,-7.86,M,7.86,M,,*64
$GPRMC,000413,A,3000.21491,N,12000.50068,E,75.594,127.580,230721,0.000,E,A,V*55
$GPGGA,000414,3000.20144,N,12000.51926,E,3,18,1.03,-7.86,M,7.86,M,,*6D
$GPRMC,000414,A,3000.20144,N,12000.51926,E,75.594,132.036,230721,0.000,E,A,V*50
$GPGGA,000415,3000.18675,N,12000.53657,E,3,18,1.03,-7.86,M,7.86,M,,*69
$GPRMC,000415,A,3000.18675,N,12000.53657,E,75.594,136.493,230721,0.000,E,A,V*5B
$GPGGA,000416,3000.17094,N,12000.55253,E,3,18,1.03,-7.86,M,7.86,M,,*6A
$GPRMC,000416,A,3000.17094,N,12000.55253,E,75.594,140.949,230721,0.000,E,A,V*53
$GPGGA,000417,3000.15409,N,12000.56702,E,3,18,1.03,-7.86,M,7.86,M,,*6B
$GPRMC,000417,A,3000.15409,N,12000.56702,E,75.594,145.406,230721,0.000,E,A,V*51
$GPGGA,000418,3000.13632,N,12000.57996,E,3,18,1.03,-7.86,M,7.86,M,,*6A
$GPRMC,000418,A,3000.13632,N,12000.57996,E,75.594,149.862,230721,0.000,E,A,V*52
$GPGGA,000419,3000.11772,N,12000.59128,E,3,18,1.03,-7.86,M,7.86,M,,*6F
$GPRMC,000419,A,3000.11772,N,12000.59128,E,75.594,154.319,230721,0.000,E,A,V*5C
$GPGGA,000420,3000.09842,N,12000.60091,E,3,18,1.03,-7.86,M,7.86,M,,*69
$GPRMC,000420,A,3000.09842,N,12000.60091,E,75.594,158.775,230721,0.000,E,A,V*58
$GPGGA,000421,3000.07852,N,12000.60878,E,3,18,1.03,-7.86,M,7.86,M,,*68
$GPRMC,000421,A,3000.07852,N,12000.60878,E,75.594,163.231,230721,0.000,E,A,V*54
$GPGGA,000422,3000.05815,N,12000.61485,E,3,18,1.03,-7.86,M,7.86,M,,*65
$GPRMC,000422,A,3000.05815,N,12000.61485,E,75.594,167.688,230721,0.000,E,A,V*5B
$GPGGA,000423,3000.03744,N,12000.61909,E,3,18,1.03,-7.86,M,7.86,M,,*60
$GPRMC,000423,A,3000.03744,N,12000.61909,E,75.594,172.144,230721,0.000,E,A,V*5D
$GPGGA,000424,3000.01649,N,12000.62146,E,3,18,1.03,-7.86,M,7.86,M,,*69
$GPRMC,000424,A,3000.01649,N,12000.62146,E,75.594,176.601,230721,0.000,E,A,V*56
$GPGGA,000425,2959.99545,N,12000.62196,E,3,18,1.03,-7.86,M,7.86,M,,*6F
$GPRMC,000425,A,2959.99545,N,12000.62196,E,75.594,181.057,230721,0.000,E,A,V*5D
$GPGGA,000426,2959.97444,N,12000.62057,E,3,18,1.03,-7.86,M,7.86,M,,*6E
$GPRMC,000426,A,2959.97444,N,12000.62057,E,75.594,185.513,230721,0.000,E,A,V*5D
$GPGGA,000427,2959.95359,N,12000.61732,E,3,18,1.03,-7.86,M,7.86,M,,*61
$GPRMC,000427,A,2959.95359,N,12000.61732,E,75.594,189.969,230721,0.000,E,A,V*5F
$GPGGA,000428,2959.93302,N,12000.61221,E,3,18,1.03,-7.86,M,7.86,M,,*61
$GPRMC,000428,A,2959.93302,N,12000.61221,E,75.594,194.426,230721,0.000,E,A,V*55
$GPGGA,000429,2959.91286,N,12000.60529,E,3,18,1.03,-7.86,M,7.86,M,,*61
$GPRMC,000429,A,2959.91286,N,12000.60529,E,75.594,198.882,230721,0.000,E,A,V*5B
$GPGGA,000430,2959.89323,N,12000.59658,E,3,18,1.03,-7.86,M,7.86,M,,*61
$GPRMC,000430,A,2959.89323,N,12000.59658,E,75.594,203.338,230721,0.000,E,A,V*50
$GPGGA,000431,2959.87425,N,12000.58615,E,3,18,1.03,-7.86,M,7.86,M,,*67
$GPRMC,000431,A,2959.87425,N,12000.58615,E,75.594,207.795,230721,0.000,E,A,V*51
$GPGGA,000432,2959.85602,N,12000.57405,E,3,18,1.03,-7.86,M,7.86,M,,*6D
$GPRMC,000432,A,2959.85602,N,12000.57405,E,75.594,212.251,230721,0.000,E,A,V*52
$GPGGA,000433,2959.83868,N,12000.56037,E,3,18,1.03,-7.86,M,7.86,M,,*6C
$GPRMC,000433,A,2959.83868,N,12000.56037,E,75.594,216.707,230721,0.000,E,A,V*51
$GPGGA,000434,2959.82231,N,12000.54518,E,3,18,1.03,-7.86,M,7.86,M,,*66
$GPRMC,000434,A,2959.82231,N,12000.54518,E,75.594,221.163,230721,0.000,E,A,V*5B
$GPGGA,000435,2959.80701,N,12000.52857,E,3,18,1.03,-7.86,M,7.86,M,,*63
$GPRMC,000435,A,2959.80701,N,12000.52857,E,75.594,225.619,230721,0.000,E,A,V*50
$GPGGA,000436,2959.79289,N,12000.51065,E,3,18,1.03,-7.86,M,7.86,M,,*69
$GPRMC,000436,A,2959.79289,N,12000.51065,E,75.594,230.076,230721,0.000,E,A,V*51
$GPGGA,000437,2959.78002,N,12000.49152,E,3,18,1.03,-7.86,M,7.86,M,,*64
$GPRMC,000437,A,2959.78002,N,12000.49152,E,75.594,234.532,230721,0.000,E,A,V*5D
$GPGGA,000438,2959.76848,N,12000.47130,E,3,18,1.03,-7.86,M,7.86,M,,*69
$GPRMC,000438,A,2959.76848,N,12000.47130,E,75.594,238.988,230721,0.000,E,A,V*51
$GPGGA,000439,2959.75835,N,12000.45011,E,3,18,1.03,-7.86,M,7.86,M,,*61
$GPRMC,000439,A,2959.75835,N,12000.45011,E,75.594,243.444,230721,0.000,E,A,V*58
$GPGGA,000440,2959.74968,N,12000.42808,E,3,18,1.03,-7.86,M,7.86,M,,*60
$GPRMC,000440,A,2959.74968,N,12000.42808,E,75.594,247.900,230721,0.000,E,A,V*50
$GPGGA,000441,2959.74252,N,12000.40535,E,3,18,1.03,-7.86,M,7.86,M,,*62
$GPRMC,000441,A,2959.74252,N,12000.40535,E,75.594,252.356,230721,0.000,E,A,V*5F
$GPGGA,000442,2959.73693,N,12000.38204,E,3,18,1.03,-7.86,M,7.86,M,,*65
$GPRMC,000442,A,2959.73693,N,12000.38204,E,75.594,256.812,230721,0.000,E,A,V*57
$GPGGA,000443,2959.73293,N,12000.35831,E,3,18,1.03,-7.86,M,7.86,M,,*61
$GPRMC,000443,A,2959.73293,N,12000.35831,E,75.594,261.269,230721,0.000,E,A,V*51
$GPGGA,000444,2959.73054,N,12000.33429,E,3,18,1.03,-7.86,M,7.86,M,,*6C
$GPRMC,000444,A,2959.73054,N,12000.33429,E,75.594,265.725,230721,0.000,E,A,V*55
$GPGGA,000445,2959.72979,N,12000.31013,E,3,18,1.03,-7.86,M,7.86,M,,*65
$GPRMC,000445,A,2959.72979,N,12000.31013,E,75.594,270.181,230721,0.000,E,A,V*50
$GPGGA,000446,2959.73067,N,12000.28597,E,3,18,1.03,-7.86,M,7.86,M,,*60
$GPRMC,000446,A,2959.73067,N,12000.28597,E,75.594,274.637,230721,0.000,E,A,V*5B
$GPGGA,000447,2959.73319,N,12000.26197,E,3,18,1.03,-7.86,M,7.86,M,,*61
$GPRMC,000447,A,2959.73319,N,12000.26197,E,75.594,279.093,230721,0.000,E,A,V*5F
$GPGGA,000448,2959.73732,N,12000.23826,E,3,18,1.03,-7.86,M,7.86,M,,*65
$GPRMC,000448,A,2959.73732,N,12000.23826,E,75.594,283.549,230721,0.000,E,A,V*5C
$GPGGA,000449,2959.74304,N,12000.21500,E,3,18,1.03,-7.86,M,7.86,M,,*69
$GPRMC,000449,A,2959.74304,N,12000.21500,E,75.594,288.005,230721,0.000,E,A,V*56
$GPGGA,000450,2959.75032,N,12000.19231,E,3,18,1.03,-7.86,M,7.86,M,,*68
$GPRMC,000450,A,2959.75032,N,12000.19231,E,75.594,292.461,230721,0.000,E,A,V*5A
$GPGGA,000451,2959.75911,N,12000.17035,E,3,18,1.03,-7.86,M,7.86,M,,*69
$GPRMC,000451,A,2959.75911,N,12000.17035,E,75.594,296.918,230721,0.000,E,A,V*5C
$GPGGA,000452,2959.76936,N,12000.14923,E,3,18,1.03,-7.86,M,7.86,M,,*61
$GPRMC,000452,A,2959.76936,N,12000.14923,E,75.594,301.374,230721,0.000,E,A,V*5B
$GPGGA,000453,2959.78100,N,12000.12909,E,3,18,1.03,-7.86,M,7.86,M,,*6D
$GPRMC,000453,A,2959.78100,N,12000.12909,E,75.594,305.830,230721,0.000,E,A,V*58
$GPGGA,000454,2959.79397,N,12000.11006,E,3,18,1.03,-7.86,M,7.86,M,,*62
$GPRMC,000454,A,2959.79397,N,12000.11006,E,75.594,310.286,230721,0.000,E,A,V*54
$GPGGA,000455,2959.80819,N,12000.09224,E,3,18,1.03,-7.86,M,7.86,M,,*63
$GPRMC,000455,A,2959.80819,N,12000.09224,E,75.594,314.742,230721,0.000,E,A,V*5C
$GPGGA,000456,2959.82358,N,12000.07574,E,3,18,1.03,-7.86,M,7.86,M,,*60
$GPRMC,000456,A,2959.82358,N,12000.07574,E,75.594,319.198,230721,0.000,E,A,V*53
$GPGGA,000457,2959.84003,N,12000.06066,E,3,18,1.03,-7.86,M,7.86,M,,*6D
$GPRMC,000457,A,2959.84003,N,12000.06066,E,75.594,323.655,230721,0.000,E,A,V*51
$GPGGA,000458,2959.85745,N,12000.04710,E,3,18,1.03,-7.86,M,7.86,M,,*62
$GPRMC,000458,A,2959.85745,N,12000.04710,E,75.594,328.111,230721,0.000,E,A,V*52
$GPGGA,000459,2959.87574,N,12000.03514,E,3,18,1.03,-7.86,M,7.86,M,,*60
$GPRMC,000459,A,2959.87574,N,12000.03514,E,75.594,332.567,230721,0.000,E,A,V*5E
$GPGGA,000500,2959.89478,N,12000.02484,E,3,18,1.03,-7.86,M,7.86,M,,*67
$GPRMC,000500,A,2959.89478,N,12000.02484,E,75.594,337.023,230721,0.000,E,A,V*59
$GPGGA,000501,2959.91446,N,12000.01628,E,3,18,1.03,-7.86,M,7.86,M,,*65
$GPRMC,000501,A,2959.91446,N,12000.01628,E,75.594,341.480,230721,0.000,E,A,V*57
$GPGGA,000502,2959.93466,N,12000.00950,E,3,18,1.03,-7.86,M,7.86,M,,*67
$GPRMC,000502,A,2959.93466,N,12000.00950,E,75.594,345.936,230721,0.000,E,A,V*51
$GPGGA,000503,2959.95525,N,12000.00454,E,3,18,1.03,-7.86,M,7.86,M,,*6F
$GPRMC,000503,A,2959.95525,N,12000.00454,E,75.594,350.392,230721,0.000,E,A,V*59
$GPGGA,000504,2959.97612,N,12000.00143,E,3,18,1.03,-7.86,M,7.86,M,,*6E
$GPRMC,000504,A,2959.97612,N,12000.00143,E,75.594,354.848,230721,0.000,E,A,V*50
$GPGGA,000505,2959.99714,N,12000.00020,E,3,18,1.03,-7.86,M,7.86,M,,*62
$GPRMC,000505,A,2959.99714,N,12000.00020,E,75.594,359.305,230721,0.000,E,A,V*53
$GPGGA,000506,3000.01817,N,12000.00085,E,3,18,1.03,-7.85,M,7.85,M,,*67
$GPRMC,000506,A,3000.01817,N,12000.00085,E,75.594,3.761,230721,0.000,E,A,V*5C
$GPGGA,000507,3000.03910,N,12000.00337,E,3,18,1.03,-7.85,M,7.85,M,,*68
$GPRMC,000507,A,3000.03910,N,12000.00337,E,75.594,8.217,230721,0.000,E,A,V*5C
$GPGGA,000508,3000.05980,N,12000.00775,E,3,18,1.03,-7.85,M,7.85,M,,*6A
$GPRMC,000508,A,3000.05980,N,12000.00775,E,75.594,12.674,230721,0.000,E,A,V*64
$GPGGA,000509,3000.08013,N,12000.01397,E,3,18,1.03,-7.85,M,7.85,M,,*6C
$GPRMC,000509,A,3000.08013,N,12000.01397,E,75.594,17.130,230721,0.000,E,A,V*60
$GPGGA,000510,3000.09999,N,12000.02198,E,3,18,1.03,-7.85,M,7.85,M,,*60
$GPRMC,000510,A,3000.09999,N,12000.02198,E,75.594,21.587,230721,0.000,E,A,V*61
$GPGGA,000511,3000.11924,N,12000.03175,E,3,18,1.03,-7.85,M,7.85,M,,*6C
$GPRMC,000511,A,3000.11924,N,12000.03175,E,75.594,26.043,230721,0.000,E,A,V*67
$GPGGA,000512,3000.13777,N,12000.04320,E,3,18,1.03,-7.85,M,7.85,M,,*60
$GPRMC,000512,A,3000.13777,N,12000.04320,E,75.594,30.499,230721,0.000,E,A,V*6F
$GPGGA,000513,3000.15548,N,12000.05627,E,3,18,1.03,-7.85,M,7.85,M,,*6A
$GPRMC,000513,A,3000.15548,N,12000.05627,E,75.594,34.956,230721,0.000,E,A,V*6F
$GPGGA,000514,3000.17224,N,12000.07088,E,3,18,1.03,-7.85,M,7.85,M,,*63
$GPRMC,000514,A,3000.17224,N,12000.07088,E,75.594,39.412,230721,0.000,E,A,V*66
$GPGGA,000515,3000.18797,N,12000.08695,E,3,18,1.03,-7.85,M,7.85,M,,*65
$GPRMC,000515,A,3000.18797,N,12000.08695,E,75.594,43.869,230721,0.000,E,A,V*6D
$GPGGA,000516,3000.20256,N,12000.10437,E,3,18,1.03,-7.85,M,7.85,M,,*66
$GPRMC,000516,A,3000.20256,N,12000.10437,E,75.594,48.325,230721,0.000,E,A,V*66
$GPGGA,000517,3000.21593,N,12000.12304,E,3,18,1.03,-7.85,M,7.85,M,,*6D
$GPRMC,000517,A,3000.21593,N,12000.12304,E,75.594,52.782,230721,0.000,E,A,V*6F
$GPGGA,000518,3000.22800,N,12000.14284,E,3,18,1.03,-7.85,M,7.85,M,,*69
$GPRMC,000518,A,3000.22800,N,12000.14284,E,75.594,57.238,230721,0.000,E,A,V*6A
$GPGGA,000519,3000.23869,N,12000.16367,E,3,18,1.03,-7.86,M,7.86,M,,*68
$GPRMC,000519,A,3000.23869,N,12000.16367,E,75.594,61.695,230721,0.000,E,A,V*6D
$GPGGA,000520,3000.24794,N,12000.18539,E,3,18,1.03,-7.86,M,7.86,M,,*6B
$GPRMC,000520,A,3000.24794,N,12000.18539,E,75.594,66.151,230721,0.000,E,A,V*66
$GPGGA,000521,3000.25570,N,12000.20786,E,3,18,1.03,-7.86,M,7.86,M,,*6E
$GPRMC,000521,A,3000.25570,N,12000.20786,E,75.594,70.608,230721,0.000,E,A,V*6F
$GPGGA,000522,3000.26191,N,12000.23096,E,3,18,1.03,-7.86,M,7.86,M,,*60
$GPRMC,000522,A,3000.26191,N,12000.23096,E,75.594,75.064,230721,0.000,E,A,V*68
$GPGGA,000523,3000.26654,N,12000.25455,E,3,18,1.03,-7.86,M,7.86,M,,*62
$GPRMC,000523,A,3000.26654,N,12000.25455,E,75.594,79.521,230721,0.000,E,A,V*62
$GPGGA,000524,3000.26956,N,12000.27848,E,3,18,1.03,-7.86,M,7.86,M,,*6A
$GPRMC,000524,A,3000.26956,N,12000.27848,E,75.594,83.977,230721,0.000,E,A,V*60
$GPGGA,000525,3000.27095,N,12000.30260,E,3,18,1.03,-7.86,M,7.86,M,,*6A
$GPRMC,000525,A,3000.27095,N,12000.30260,E,75.594,88.434,230721,0.000,E,A,V*61
$GPGGA,000526,3000.27071,N,12000.32678,E,3,18,1.03,-7.86,M,7.86,M,,*6C
$GPRMC,000526,A,3000.27071,N,12000.32678,E,75.594,92.890,230721,0.000,E,A,V*6E
$GPGGA,000527,3000.26883,N,12000.35086,E,3,18,1.03,-7.86,M,7.86,M,,*69
$GPRMC,000527,A,3000.26883,N,12000.35086,E,75.594,97.347,230721,0.000,E,A,V*6F
$GPGGA,000528,3000.26533,N,12000.37470,E,3,18,1.03,-7.86,M,7.86,M,,*6F
$GPRMC,000528,A,3000.26533,N,12000.37470,E,75.594,101.803,230721,0.000,E,A,V*5C
$GPGGA,000529,3000.26023,N,12000.39816,E,3,18,1.03,-7.86,M,7.86,M,,*68
$GPRMC,000529,A,3000.26023,N,12000.39816,E,75.594,106.260,230721,0.000,E,A,V*53
$GPGGA,000530,3000.25356,N,12000.42109,E,3,18,1.03,-7.86,M,7.86,M,,*69
$GPRMC,000530,A,3000.25356,N,12000.42109,E,75.594,110.716,230721,0.000,E,A,V*51
$GPGGA,000531,3000.24536,N,12000.44336,E,3,18,1.03,-7.86,M,7.86,M,,*61
$GPRMC,000531,A,3000.24536,N,12000.44336,E,75.594,115.173,230721,0.000,E,A,V*59
$GPGGA,000532,3000.23567,N,12000.46482,E,3,18,1.03,-7.86,M,7.86,M,,*6B
$GPRMC,000532,A,3000.23567,N,12000.46482,E,75.594,119.630,230721,0.000,E,A,V*5F
$GPGGA,000533,3000.22457,N,12000.48536,E,3,18,1.03,-7.86,M,7.86,M,,*69
$GPRMC,000533,A,3000.22457,N,12000.48536,E,75.594,124.086,230721,0.000,E,A,V*58
$GPGGA,000534,3000.21211,N,12000.50484,E,3,18,1.03,-7.86,M,7.86,M,,*68
$GPRMC,000534,A,3000.21211,N,12000.50484,E,75.594,128.543,230721,0.000,E,A,V*59
$GPGGA,000535,3000.19837,N,12000.52315,E,3,18,1.03,-7.86,M,7.86,M,,*61
$GPRMC,000535,A,3000.19837,N,12000.52315,E,75.594,132.999,230721,0.000,E,A,V*50
$GPGGA,000536,3000.18343,N,12000.54018,E,3,18,1.03,-7.86,M,7.86,M,,*63
$GPRMC,000536,A,3000.18343,N,12000.54018,E,75.594,137.455,230721,0.000,E,A,V*5A
$GPGGA,000537,3000.16738,N,12000.55583,E,3,18,1.03,-7.86,M,7.86,M,,*62
$GPRMC,000537,A,3000.16738,N,12000.55583,E,75.594,141.912,230721,0.000,E,A,V*54
$GPGGA,000538,3000.15033,N,12000.56999,E,3,18,1.03,-7.86,M,7.86,M,,*66
$GPRMC,000538,A,3000.15033,N,12000.56999,E,75.594,146.368,230721,0.000,E,A,V*50
$GPGGA,000539,3000.13237,N,12000.58259,E,3,18,1.03,-7.86,M,7.86,M,,*6E
$GPRMC,000539,A,3000.13237,N,12000.58259,E,75.594,150.825,230721,0.000,E,A,V*5D
$GPGGA,000540,3000.11361,N,12000.59355,E,3,18,1.04,-7.86,M,7.86,M,,*6B
$GPRMC,000540,A,3000.11361,N,12000.59355,E,75.594,155.281,230721,0.000,E,A,V*5E
$GPGGA,000541,3000.09417,N,12000.60280,E,3,18,1.04,-7.86,M,7.86,M,,*66
$GPRMC,000541,A,3000.09417,N,12000.60280,E,75.594,159.738,230721,0.000,E,A,V*58
$GPGGA,000542,3000.07416,N,12000.61029,E,3,18,1.04,-7.86,M,7.86,M,,*6A
$GPRMC,000542,A,3000.07416,N,12000.61029,E,75.594,164.194,230721,0.000,E,A,V*5A
$GPGGA,000543,3000.05370,N,12000.61597,E,3,18,1.04,-7.86,M,7.86,M,,*6E
$GPRMC,000543,A,3000.05370,N,12000.61597,E,75.594,168.650,230721,0.000,E,A,V*5D
$GPGGA,000544,3000.03293,N,12000.61980,E,3,18,1.04,-7.86,M,7.86,M,,*69
$GPRMC,000544,A,3000.03293,N,12000.61980,E,75.594,173.107,230721,0.000,E,A,V*55
$GPGGA,000545,3000.01195,N,12000.62177,E,3,18,1.04,-7.86,M,7.86,M,,*6C
$GPRMC,000545,A,3000.01195,N,12000.62177,E,75.594,177.563,230721,0.000,E,A,V*52
$GPGGA,000546,2959.99091,N,12000.62186,E,3,18,1.04,-7.86,M,7.86,M,,*61
$GPRMC,000546,A,2959.99091,N,12000.62186,E,75.594,182.019,230721,0.000,E,A,V*5D
$GPGGA,000547,2959.96992,N,12000.62007,E,3,18,1.04,-7.86,M,7.86,M,,*6D
$GPRMC,000547,A,2959.96992,N,12000.62007,E,75.594,186.476,230721,0.000,E,A,V*58
$GPGGA,000548,2959.94912,N,12000.61642,E,3,18,1.04,-7.86,M,7.86,M,,*6C
$GPRMC,000548,A,2959.94912,N,12000.61642,E,75.594,190.932,230721,0.000,E,A,V*53
$GPGGA,000549,2959.92863,N,12000.61091,E,3,18,1.04,-7.86,M,7.86,M,,*64
$GPRMC,000549,A,2959.92863,N,12000.61091,E,75.594,195.388,230721,0.000,E,A,V*55
$GPGGA,000550,2959.90857,N,12000.60360,E,3,18,1.04,-7.86,M,7.86,M,,*65
$GPRMC,000550,A,2959.90857,N,12000.60360,E,75.594,199.845,230721,0.000,E,A,V*52
$GPGGA,000551,2959.88907,N,12000.59451,E,3,18,1.04,-7.86,M,7.86,M,,*66
$GPRMC,000551,A,2959.88907,N,12000.59451,E,75.594,204.301,230721,0.000,E,A,V*5D
$GPGGA,000552,2959.87024,N,12000.58372,E,3,18,1.04,-7.86,M,7.86,M,,*65
$GPRMC,000552,A,2959.87024,N,12000.58372,E,75.594,208.757,230721,0.000,E,A,V*55
$GPGGA,000553,2959.85220,N,12000.57127,E,3,18,1.04,-7.86,M,7.86,M,,*6D
$GPRMC,000553,A,2959.85220,N,12000.57127,E,75.594,213.213,230721,0.000,E,A,V*52
$GPGGA,000554,2959.83505,N,12000.55726,E,3,18,1.04,-7.86,M,7.86,M,,*69
$GPRMC,000554,A,2959.83505,N,12000.55726,E,75.594,217.670,230721,0.000,E,A,V*53
$GPGGA,000555,2959.81891,N,12000.54175,E,3,18,1.04,-7.86,M,7.86,M,,*6B
$GPRMC,000555,A,2959.81891,N,12000.54175,E,75.594,222.126,230721,0.000,E,A,V*53
$GPGGA,000556,2959.80386,N,12000.52485,E,3,18,1.04,-7.86,M,7.86,M,,*68
$GPRMC,000556,A,2959.80386,N,12000.52485,E,75.594,226.582,230721,0.000,E,A,V*5E
$GPGGA,000557,2959.79000,N,12000.50666,E,3,18,1.04,-7.86,M,7.86,M,,*6F
$GPRMC,000557,A,2959.79000,N,12000.50666,E,75.594,231.038,230721,0.000,E,A,V*5B
$GPGGA,000558,2959.77741,N,12000.48728,E,3,18,1.04,-7.86,M,7.86,M,,*6E
$GPRMC,000558,A,2959.77741,N,12000.48728,E,75.594,235.494,230721,0.000,E,A,V*5C
$GPGGA,000559,2959.76617,N,12000.46684,E,3,18,1.04,-7.86,M,7.86,M,,*65
$GPRMC,000559,A,2959.76617,N,12000.46684,E,75.594,239.950,230721,0.000,E,A,V*5E
$GPGGA,000600,2959.75635,N,12000.44546,E,3,18,1.04,-7.86,M,7.86,M,,*66
$GPRMC,000600,A,2959.75635,N,12000.44546,E,75.594,244.407,230721,0.000,E,A,V*58
$GPGGA,000601,2959.74800,N,12000.42327,E,3,18,1.04,-7.86,M,7.86,M,,*69
$GPRMC,000601,A,2959.74800,N,12000.42327,E,75.594,248.863,230721,0.000,E,A,V*55
$GPGGA,000602,2959.74118,N,12000.40040,E,3,18,1.04,-7.86,M,7.86,M,,*6A
$GPRMC,000602,A,2959.74118,N,12000.40040,E,75.594,253.319,230721,0.000,E,A,V*5A
$GPGGA,000603,2959.73593,N,12000.37699,E,3,18,1.04,-7.86,M,7.86,M,,*69
$GPRMC,000603,A,2959.73593,N,12000.37699,E,75.594,257.775,230721,0.000,E,A,V*53
$GPGGA,000604,2959.73228,N,12000.35318,E,3,18,1.04,-7.86,M,7.86,M,,*67
$GPRMC,000604,A,2959.73228,N,12000.35318,E,75.594,262.231,230721,0.000,E,A,V*5E
$GPGGA,000605,2959.73024,N,12000.32912,E,3,18,1.04,-7.86,M,7.86,M,,*6F
$GPRMC,000605,A,2959.73024,N,12000.32912,E,75.594,266.687,230721,0.000,E,A,V*5B
$GPGGA,000606,2959.72984,N,12000.30495,E,3,18,1.04,-7.86,M,7.86,M,,*6E
$GPRMC,000606,A,2959.72984,N,12000.30495,E,75.594,271.143,230721,0.000,E,A,V*53
$GPGGA,000607,2959.73108,N,12000.28081,E,3,18,1.04,-7.86,M,7.86,M,,*6A
$GPRMC,000607,A,2959.73108,N,12000.28081,E,75.594,275.599,230721,0.000,E,A,V*50
$GPGGA,000608,2959.73394,N,12000.25686,E,3,18,1.04,-7.86,M,7.86,M,,*6E
$GPRMC,000608,A,2959.73394,N,12000.25686,E,75.594,280.056,230721,0.000,E,A,V*58
$GPGGA,000609,2959.73842,N,12000.23324,E,3,18,1.04,-7.86,M,7.86,M,,*64
$GPRMC,000609,A,2959.73842,N,12000.23324,E,75.594,284.512,230721,0.000,E,A,V*53
$GPGGA,000610,2959.74448,N,12000.21009,E,3,18,1.04,-7.86,M,7.86,M,,*63
$GPRMC,000610,A,2959.74448,N,12000.21009,E,75.594,288.968,230721,0.000,E,A,V*59
$GPGGA,000611,2959.75209,N,12000.18755,E,3,18,1.04,-7.86,M,7.86,M,,*64
$GPRMC,000611,A,2959.75209,N,12000.18755,E,75.594,293.424,230721,0.000,E,A,V*51
$GPGGA,000612,2959.76120,N,12000.16575,E,3,18,1.04,-7.86,M,7.86,M,,*62
$GPRMC,000612,A,2959.76120,N,12000.16575,E,75.594,297.880,230721,0.000,E,A,V*51
$GPGGA,000613,2959.77176,N,12000.14484,E,3,18,1.04,-7.86,M,7.86,M,,*6C
$GPRMC,000613,A,2959.77176,N,12000.14484,E,75.594,302.336,230721,0.000,E,A,V*54
$GPGGA,000614,2959.78369,N,12000.12493,E,3,18,1.04,-7.86,M,7.86,M,,*68
$GPRMC,000614,A,2959.78369,N,12000.12493,E,75.594,306.792,230721,0.000,E,A,V*5E
$GPGGA,000615,2959.79694,N,12000.10615,E,3,18,1.04,-7.86,M,7.86,M,,*61
$GPRMC,000615,A,2959.79694,N,12000.10615,E,75.594,311.249,230721,0.000,E,A,V*52
$GPGGA,000616,2959.81142,N,12000.08860,E,3,18,1.04,-7.86,M,7.86,M,,*6C
$GPRMC,000616,A,2959.81142,N,12000.08860,E,75.594,315.705,230721,0.000,E,A,V*56
$GPGGA,000617,2959.82704,N,12000.07240,E,3,18,1.04,-7.86,M,7.86,M,,*6D
$GPRMC,000617,A,2959.82704,N,12000.07240,E,75.594,320.161,230721,0.000,E,A,V*55
$GPGGA,000618,2959.84371,N,12000.05765,E,3,18,1.04,-7.86,M,7.86,M,,*62
$GPRMC,000618,A,2959.84371,N,12000.05765,E,75.594,324.617,230721,0.000,E,A,V*58
$GPGGA,000619,2959.86133,N,12000.04443,E,3,18,1.04,-7.86,M,7.86,M,,*63
$GPRMC,000619,A,2959.86133,N,12000.04443,E,75.594,329.073,230721,0.000,E,A,V*50
$GPGGA,000620,2959.87979,N,12000.03282,E,3,18,1.04,-7.86,M,7.86,M,,*62
$GPRMC,000620,A,2959.87979,N,12000.03282,E,75.594,333.530,230721,0.000,E,A,V*58
$GPGGA,000621,2959.89898,N,12000.02289,E,3,18,1.04,-7.86,M,7.86,M,,*69
$GPRMC,000621,A,2959.89898,N,12000.02289,E,75.594,337.986,230721,0.000,E,A,V*56
$GPGGA,000622,2959.91878,N,12000.01471,E,3,18,1.04,-7.86,M,7.86,M,,*6F
$GPRMC,000622,A,2959.91878,N,12000.01471,E,75.594,342.442,230721,0.000,E,A,V*57
$GPGGA,000623,2959.93907,N,12000.00831,E,3,18,1.04,-7.86,M,7.86,M,,*6C
$GPRMC,000623,A,2959.93907,N,12000.00831,E,75.594,346.898,230721,0.000,E,A,V*5B
$GPGGA,000624,2959.95974,N,12000.00375,E,3,18,1.04,-7.86,M,7.86,M,,*62
$GPRMC,000624,A,2959.95974,N,12000.00375,E,75.594,351.355,230721,0.000,E,A,V*59
$GPGGA,000625,2959.98065,N,12000.00105,E,3,18,1.04,-7.86,M,7.86,M,,*62
$GPRMC,000625,A,2959.98065,N,12000.00105,E,75.594,355.811,230721,0.000,E,A,V*56
$GPGGA,000626,3000.00168,N,12000.00022,E,3,18,1.04,-7.86,M,7.86,M,,*6C
$GPRMC,000626,A,3000.00168,N,12000.00022,E,75.594,0.267,230721,0.000,E,A,V*50
$GPGGA,000627,3000.02271,N,12000.00128,E,3,18,1.04,-7.85,M,7.85,M,,*6F
$GPRMC,000627,A,3000.02271,N,12000.00128,E,75.594,4.724,230721,0.000,E,A,V*55
$GPGGA,000628,3000.04360,N,12000.00420,E,3,18,1.04,-7.85,M,7.85,M,,*6A
$GPRMC,000628,A,3000.04360,N,12000.00420,E,75.594,9.180,230721,0.000,E,A,V*55
$GPGGA,000629,3000.06422,N,12000.00899,E,3,18,1.04,-7.85,M,7.85,M,,*66
$GPRMC,000629,A,3000.06422,N,12000.00899,E,75.594,13.636,230721,0.000,E,A,V*68
$GPGGA,000630,3000.08447,N,12000.01559,E,3,18,1.04,-7.85,M,7.85,M,,*63
$GPRMC,000630,A,3000.08447,N,12000.01559,E,75.594,18.093,230721,0.000,E,A,V*6F
$GPGGA,000631,3000.10420,N,12000.02399,E,3,18,1.04,-7.85,M,7.85,M,,*63
$GPRMC,000631,A,3000.10420,N,12000.02399,E,75.594,22.549,230721,0.000,E,A,V*64
$GPGGA,000632,3000.12331,N,12000.03412,E,3,18,1.04,-7.85,M,7.85,M,,*60
$GPRMC,000632,A,3000.12331,N,12000.03412,E,75.594,27.006,230721,0.000,E,A,V*6C
$GPGGA,000633,3000.14167,N,12000.04593,E,3,18,1.04,-7.85,M,7.85,M,,*69
$GPRMC,000633,A,3000.14167,N,12000.04593,E,75.594,31.462,230721,0.000,E,A,V*64
$GPGGA,000634,3000.15918,N,12000.05934,E,3,18,1.04,-7.85,M,7.85,M,,*6F
$GPRMC,000634,A,3000.15918,N,12000.05934,E,75.594,35.918,230721,0.000,E,A,V*66
$GPGGA,000635,3000.17573,N,12000.07428,E,3,18,1.04,-7.85,M,7.85,M,,*6F
$GPRMC,000635,A,3000.17573,N,12000.07428,E,75.594,40.375,230721,0.000,E,A,V*65
$GPGGA,000636,3000.19122,N,12000.09064,E,3,18,1.04,-7.85,M,7.85,M,,*60
$GPRMC,000636,A,3000.19122,N,12000.09064,E,75.594,44.831,230721,0.000,E,A,V*65
$GPGGA,000637,3000.20556,N,12000.10834,E,3,18,1.04,-7.85,M,7.85,M,,*69
$GPRMC,000637,A,3000.20556,N,12000.10834,E,75.594,49.288,230721,0.000,E,A,V*69
$GPGGA,000638,3000.21865,N,12000.12727,E,3,18,1.04,-7.85,M,7.85,M,,*65
$GPRMC,000638,A,3000.21865,N,12000.12727,E,75.594,53.744,230721,0.000,E,A,V*6B
$GPGGA,000639,3000.23043,N,12000.14731,E,3,18,1.04,-7.85,M,7.85,M,,*6B
$GPRMC,000639,A,3000.23043,N,12000.14731,E,75.594,58.201,230721,0.000,E,A,V*6A
$GPGGA,000640,3000.24081,N,12000.16833,E,3,18,1.04,-7.86,M,7.86,M,,*63
$GPRMC,000640,A,3000.24081,N,12000.16833,E,75.594,62.657,230721,0.000,E,A,V*6C
$GPGGA,000641,3000.24975,N,12000.19023,E,3,18,1.04,-7.86,M,7.86,M,,*66
$GPRMC,000641,A,3000.24975,N,12000.19023,E,75.594,67.114,230721,0.000,E,A,V*6C
$GPGGA,000642,3000.25717,N,12000.21285,E,3,18,1.04,-7.86,M,7.86,M,,*6B
$GPRMC,000642,A,3000.25717,N,12000.21285,E,75.594,71.570,230721,0.000,E,A,V*60
$GPGGA,000643,3000.26304,N,12000.23607,E,3,18,1.04,-7.86,M,7.86,M,,*63
$GPRMC,000643,A,3000.26304,N,12000.23607,E,75.594,76.027,230721,0.000,E,A,V*68
$GPGGA,000644,3000.26733,N,12000.25974,E,3,18,1.04,-7.86,M,7.86,M,,*69
$GPRMC,000644,A,3000.26733,N,12000.25974,E,75.594,80.483,230721,0.000,E,A,V*61
$GPGGA,000645,3000.27000,N,12000.28372,E,3,18,1.04,-7.86,M,7.86,M,,*6F
$GPRMC,000645,A,3000.27000,N,12000.28372,E,75.594,84.940,230721,0.000,E,A,V*61
$GPGGA,000646,3000.27104,N,12000.30787,E,3,18,1.04,-7.86,M,7.86,M,,*6E
$GPRMC,000646,A,3000.27104,N,12000.30787,E,75.594,89.396,230721,0.000,E,A,V*6C
$GPGGA,000647,3000.27044,N,12000.33204,E,3,18,1.04,-7.86,M,7.86,M,,*67
$GPRMC,000647,A,3000.27044,N,12000.33204,E,75.594,93.853,230721,0.000,E,A,V*6C
$GPGGA,000648,3000.26821,N,12000.35608,E,3,18,1.04,-7.86,M,7.86,M,,*6C
$GPRMC,000648,A,3000.26821,N,12000.35608,E,75.594,98.310,230721,0.000,E,A,V*60
$GPGGA,000649,3000.26437,N,12000.37985,E,3,18,1.04,-7.86,M,7.86,M,,*6E
$GPRMC,000649,A,3000.26437,N,12000.37985,E,75.594,102.766,230721,0.000,E,A,V*55
$GPGGA,000650,3000.25892,N,12000.40321,E,3,18,1.04,-7.86,M,7.86,M,,*62
$GPRMC,000650,A,3000.25892,N,12000.40321,E,75.594,107.223,230721,0.000,E,A,V*58
$GPGGA,000651,3000.25192,N,12000.42600,E,3,18,1.04,-7.86,M,7.86,M,,*6E
$GPRMC,000651,A,3000.25192,N,12000.42600,E,75.594,111.679,230721,0.000,E,A,V*58
$GPGGA,000652,3000.24339,N,12000.44811,E,3,18,1.04,-7.86,M,7.86,M,,*67
$GPRMC,000652,A,3000.24339,N,12000.44811,E,75.594,116.136,230721,0.000,E,A,V*5A
$GPGGA,000653,3000.23339,N,12000.46939,E,3,18,1.04,-7.86,M,7.86,M,,*68
$GPRMC,000653,A,3000.23339,N,12000.46939,E,75.594,120.592,230721,0.000,E,A,V*5A
$GPGGA,000654,3000.22199,N,12000.48970,E,3,18,1.04,-7.86,M,7.86,M,,*65
$GPRMC,000654,A,3000.22199,N,12000.48970,E,75.594,125.049,230721,0.000,E,A,V*51
$GPGGA,000655,3000.20924,N,12000.50894,E,3,18,1.04,-7.86,M,7.86,M,,*6A
$GPRMC,000655,A,3000.20924,N,12000.50894,E,75.594,129.505,230721,0.000,E,A,V*5F
$GPGGA,000656,3000.19524,N,12000.52699,E,3,18,1.04,-7.86,M,7.86,M,,*6E
$GPRMC,000656,A,3000.19524,N,12000.52699,E,75.594,133.962,230721,0.000,E,A,V*5D
$GPGGA,000657,3000.18005,N,12000.54373,E,3,18,1.04,-7.86,M,7.86,M,,*6F
$GPRMC,000657,A,3000.18005,N,12000.54373,E,75.594,138.418,230721,0.000,E,A,V*57
$GPGGA,000658,3000.16378,N,12000.55906,E,3,18,1.04,-7.86,M,7.86,M,,*6E
$GPRMC,000658,A,3000.16378,N,12000.55906,E,75.594,142.875,230721,0.000,E,A,V*5C
$GPGGA,000659,3000.14652,N,12000.57289,E,3,18,1.04,-7.86,M,7.86,M,,*6E
$GPRMC,000659,A,3000.14652,N,12000.57289,E,75.594,147.331,230721,0.000,E,A,V*52
$GPGGA,000700,3000.12838,N,12000.58515,E,3,18,1.04,-7.86,M,7.86,M,,*6A
$GPRMC,000700,A,3000.12838,N,12000.58515,E,75.594,151.787,230721,0.000,E,A,V*58
$GPGGA,000701,3000.10947,N,12000.59574,E,3,18,1.04,-7.86,M,7.86,M,,*66
$GPRMC,000701,A,3000.10947,N,12000.59574,E,75.594,156.244,230721,0.000,E,A,V*59
$GPGGA,000702,3000.08989,N,12000.60461,E,3,18,1.04,-7.86,M,7.86,M,,*61
$GPRMC,000702,A,3000.08989,N,12000.60461,E,75.594,160.700,230721,0.000,E,A,V*5E
$GPGGA,000703,3000.06977,N,12000.61171,E,3,18,1.04,-7.86,M,7.86,M,,*6A
$GPRMC,000703,A,3000.06977,N,12000.61171,E,75.594,165.157,230721,0.000,E,A,V*54
$GPGGA,000704,3000.04924,N,12000.61700,E,3,18,1.04,-7.86,M,7.86,M,,*69
$GPRMC,000704,A,3000.04924,N,12000.61700,E,75.594,169.613,230721,0.000,E,A,V*5C
$GPGGA,000705,3000.02841,N,12000.62043,E,3,18,1.04,-7.86,M,7.86,M,,*6F
$GPRMC,000705,A,3000.02841,N,12000.62043,E,75.594,174.069,230721,0.000,E,A,V*5D
$GPGGA,000706,3000.00741,N,12000.62199,E,3,18,1.04,-7.86,M,7.86,M,,*67
$GPRMC,000706,A,3000.00741,N,12000.62199,E,75.594,178.526,230721,0.000,E,A,V*57
$GPGGA,000707,2959.98637,N,12000.62168,E,3,18,1.04,-7.86,M,7.86,M,,*6D
$GPRMC,000707,A,2959.98637,N,12000.62168,E,75.594,182.982,230721,0.000,E,A,V*5A
$GPGGA,000708,2959.96541,N,12000.61948,E,3,18,1.04,-7.86,M,7.86,M,,*67
$GPRMC,000708,A,2959.96541,N,12000.61948,E,75.594,187.438,230721,0.000,E,A,V*59
$GPGGA,000709,2959.94466,N,12000.61543,E,3,18,1.04,-7.86,M,7.86,M,,*67
$GPRMC,000709,A,2959.94466,N,12000.61543,E,75.594,191.895,230721,0.000,E,A,V*55
$GPGGA,000710,2959.92426,N,12000.60953,E,3,18,1.04,-7.86,M,7.86,M,,*61
$GPRMC,000710,A,2959.92426,N,12000.60953,E,75.594,196.351,230721,0.000,E,A,V*57
$GPGGA,000711,2959.90431,N,12000.60183,E,3,18,1.04,-7.86,M,7.86,M,,*61
$GPRMC,000711,A,2959.90431,N,12000.60183,E,75.594,200.807,230721,0.000,E,A,V*53
$GPGGA,000712,2959.88494,N,12000.59237,E,3,18,1.04,-7.86,M,7.86,M,,*62
$GPRMC,000712,A,2959.88494,N,12000.59237,E,75.594,205.263,230721,0.000,E,A,V*5D
$GPGGA,000713,2959.86627,N,12000.58121,E,3,18,1.04,-7.86,M,7.86,M,,*62
$GPRMC,000713,A,2959.86627,N,12000.58121,E,75.594,209.720,230721,0.000,E,A,V*53
$GPGGA,000714,2959.84842,N,12000.56842,E,3,18,1.04,-7.86,M,7.86,M,,*68
$GPRMC,000714,A,2959.84842,N,12000.56842,E,75.594,214.176,230721,0.000,E,A,V*50
$GPGGA,000715,2959.83148,N,12000.55407,E,3,18,1.04,-7.86,M,7.86,M,,*63
$GPRMC,000715,A,2959.83148,N,12000.55407,E,75.594,218.632,230721,0.000,E,A,V*50
$GPGGA,000716,2959.81556,N,12000.53826,E,3,18,1.04,-7.86,M,7.86,M,,*60
$GPRMC,000716,A,2959.81556,N,12000.53826,E,75.594,223.088,230721,0.000,E,A,V*5C
$GPGGA,000717,2959.80076,N,12000.52107,E,3,18,1.04,-7.86,M,7.86,M,,*6C
$GPRMC,000717,A,2959.80076,N,12000.52107,E,75.594,227.544,230721,0.000,E,A,V*51
$GPGGA,000718,2959.78717,N,12000.50261,E,3,18,1.04,-7.86,M,7.86,M,,*65
$GPRMC,000718,A,2959.78717,N,12000.50261,E,75.594,232.001,230721,0.000,E,A,V*58
$GPGGA,000719,2959.77487,N,12000.48300,E,3,18,1.04,-7.86,M,7.86,M,,*6E
$GPRMC,000719,A,2959.77487,N,12000.48300,E,75.594,236.457,230721,0.000,E,A,V*50
$GPGGA,000720,2959.76393,N,12000.46235,E,3,18,1.04,-7.86,M,7.86,M,,*6E
$GPRMC,000720,A,2959.76393,N,12000.46235,E,75.594,240.913,230721,0.000,E,A,V*5C
$GPGGA,000721,2959.75442,N,12000.44078,E,3,18,1.04,-7.86,M,7.86,M,,*6E
$GPRMC,000721,A,2959.75442,N,12000.44078,E,75.594,245.369,230721,0.000,E,A,V*5E
$GPGGA,000722,2959.74640,N,12000.41843,E,3,18,1.04,-7.86,M,7.86,M,,*69
$GPRMC,000722,A,2959.74640,N,12000.41843,E,75.594,249.825,230721,0.000,E,A,V*56
$GPGGA,000723,2959.73991,N,12000.39543,E,3,17,1.04,-7.86,M,7.86,M,,*61
$GPRMC,000723,A,2959.73991,N,12000.39543,E,75.594,254.281,230721,0.000,E,A,V*59
$GPGGA,000724,2959.73500,N,12000.37192,E,3,17,1.04,-7.86,M,7.86,M,,*64
$GPRMC,000724,A,2959.73500,N,12000.37192,E,75.594,258.737,230721,0.000,E,A,V*58
$GPGGA,000725,2959.73170,N,12000.34804,E,3,17,1.04,-7.86,M,7.86,M,,*63
$GPRMC,000725,A,2959.73170,N,12000.34804,E,75.594,263.194,230721,0.000,E,A,V*58
$GPGGA,000726,2959.73002,N,12000.32395,E,3,17,1.04,-7.86,M,7.86,M,,*61
$GPRMC,000726,A,2959.73002,N,12000.32395,E,75.594,267.650,230721,0.000,E,A,V*51
$GPGGA,000727,2959.72997,N,12000.29977,E,3,17,1.04,-7.86,M,7.86,M,,*68
$GPRMC,000727,A,2959.72997,N,12000.29977,E,75.594,272.106,230721,0.000,E,A,V*58
$GPGGA,000728,2959.73156,N,12000.27566,E,3,17,1.04,-7.86,M,7.86,M,,*61
$GPRMC,000728,A,2959.73156,N,12000.27566,E,75.594,276.562,230721,0.000,E,A,V*53
$GPGGA,000729,2959.73478,N,12000.25177,E,3,17,1.04,-7.86,M,7.86,M,,*6F
$GPRMC,000729,A,2959.73478,N,12000.25177,E,75.594,281.018,230721,0.000,E,A,V*5D
$GPGGA,000730,2959.73960,N,12000.22824,E,3,17,1.04,-7.86,M,7.86,M,,*6B
$GPRMC,000730,A,2959.73960,N,12000.22824,E,75.594,285.474,230721,0.000,E,A,V*53
$GPGGA,000731,2959.74600,N,12000.20521,E,3,17,1.04,-7.86,M,7.86,M,,*6E
$GPRMC,000731,A,2959.74600,N,12000.20521,E,75.594,289.930,230721,0.000,E,A,V*57
$GPGGA,000732,2959.75393,N,12000.18282,E,3,17,1.04,-7.86,M,7.86,M,,*66
$GPRMC,000732,A,2959.75393,N,12000.18282,E,75.594,294.387,230721,0.000,E,A,V*55
$GPGGA,000733,2959.76336,N,12000.16120,E,3,17,1.04,-7.86,M,7.86,M,,*6E
$GPRMC,000733,A,2959.76336,N,12000.16120,E,75.594,298.843,230721,0.000,E,A,V*52
$GPGGA,000734,2959.77422,N,12000.14049,E,3,17,1.04,-7.86,M,7.86,M,,*66
$GPRMC,000734,A,2959.77422,N,12000.14049,E,75.594,303.299,230721,0.000,E,A,V*54
$GPGGA,000735,2959.78645,N,12000.12082,E,3,17,1.04,-7.86,M,7.86,M,,*6A
$GPRMC,000735,A,2959.78645,N,12000.12082,E,75.594,307.755,230721,0.000,E,A,V*59
$GPGGA,000736,2959.79997,N,12000.10229,E,3,17,1.04,-7.86,M,7.86,M,,*69
$GPRMC,000736,A,2959.79997,N,12000.10229,E,75.594,312.211,230721,0.000,E,A,V*5B
$GPGGA,000737,2959.81470,N,12000.08503,E,3,17,1.04,-7.86,M,7.86,M,,*6D
$GPRMC,000737,A,2959.81470,N,12000.08503,E,75.594,316.667,230721,0.000,E,A,V*5E
$GPGGA,000738,2959.83056,N,12000.06914,E,3,17,1.04,-7.86,M,7.86,M,,*64
$GPRMC,000738,A,2959.83056,N,12000.06914,E,75.594,321.124,230721,0.000,E,A,V*53
$GPGGA,000739,2959.84744,N,12000.05470,E,3,17,1.04,-7.86,M,7.86,M,,*6A
$GPRMC,000739,A,2959.84744,N,12000.05470,E,75.594,325.580,230721,0.000,E,A,V*53
$GPGGA,000740,2959.86525,N,12000.04182,E,3,17,1.04,-7.86,M,7.86,M,,*6A
$GPRMC,000740,A,2959.86525,N,12000.04182,E,75.594,330.036,230721,0.000,E,A,V*5F
$GPGGA,000741,2959.88388,N,12000.03057,E,3,17,1.04,-7.86,M,7.86,M,,*6A
$GPRMC,000741,A,2959.88388,N,12000.03057,E,75.594,334.492,230721,0.000,E,A,V*51
$GPGGA,000742,2959.90321,N,12000.02102,E,3,17,1.04,-7.86,M,7.86,M,,*63
$GPRMC,000742,A,2959.90321,N,12000.02102,E,75.594,338.948,230721,0.000,E,A,V*5E
$GPGGA,000743,2959.92313,N,12000.01322,E,3,17,1.04,-7.86,M,7.86,M,,*62
$GPRMC,000743,A,2959.92313,N,12000.01322,E,75.594,343.405,230721,0.000,E,A,V*57
$GPGGA,000744,2959.94351,N,12000.00722,E,3,17,1.04,-7.86,M,7.86,M,,*60
$GPRMC,000744,A,2959.94351,N,12000.00722,E,75.594,347.861,230721,0.000,E,A,V*5F
$GPGGA,000745,2959.96424,N,12000.00306,E,3,17,1.04,-7.86,M,7.86,M,,*64
$GPRMC,000745,A,2959.96424,N,12000.00306,E,75.594,352.317,230721,0.000,E,A,V*55
$GPGGA,000746,2959.98519,N,12000.00076,E,3,17,1.04,-7.86,M,7.86,M,,*62
$GPRMC,000746,A,2959.98519,N,12000.00076,E,75.594,356.774,230721,0.000,E,A,V*56
$GPGGA,000747,3000.00623,N,12000.00034,E,3,17,1.04,-7.86,M,7.85,M,,*69
$GPRMC,000747,A,3000.00623,N,12000.00034,E,75.594,1.230,230721,0.000,E,A,V*5A
$GPGGA,000748,3000.02724,N,12000.00180,E,3,17,1.04,-7.85,M,7.85,M,,*6F
$GPRMC,000748,A,3000.02724,N,12000.00180,E,75.594,5.686,230721,0.000,E,A,V*52
$GPGGA,000749,3000.04808,N,12000.00512,E,3,17,1.04,-7.85,M,7.85,M,,*66
$GPRMC,000749,A,3000.04808,N,12000.00512,E,75.594,10.143,230721,0.000,E,A,V*61
$GPGGA,000750,3000.06863,N,12000.01030,E,3,17,1.04,-7.85,M,7.85,M,,*65
$GPRMC,000750,A,3000.06863,N,12000.01030,E,75.594,14.599,230721,0.000,E,A,V*65
$GPGGA,000751,3000.08878,N,12000.01730,E,3,17,1.04,-7.85,M,7.85,M,,*67
$GPRMC,000751,A,3000.08878,N,12000.01730,E,75.594,19.055,230721,0.000,E,A,V*6F
$GPGGA,000752,3000.10839,N,12000.02608,E,3,17,1.04,-7.85,M,7.85,M,,*61
$GPRMC,000752,A,3000.10839,N,12000.02608,E,75.594,23.512,230721,0.000,E,A,V*66
$GPGGA,000753,3000.12734,N,12000.03658,E,3,17,1.04,-7.85,M,7.85,M,,*64
$GPRMC,000753,A,3000.12734,N,12000.03658,E,75.594,27.968,230721,0.000,E,A,V*66
$GPGGA,000754,3000.14553,N,12000.04874,E,3,17,1.04,-7.85,M,7.85,M,,*61
$GPRMC,000754,A,3000.14553,N,12000.04874,E,75.594,32.425,230721,0.000,E,A,V*63
$GPGGA,000755,3000.16284,N,12000.06249,E,3,17,1.04,-7.85,M,7.85,M,,*69
$GPRMC,000755,A,3000.16284,N,12000.06249,E,75.594,36.881,230721,0.000,E,A,V*6D
$GPGGA,000756,3000.17917,N,12000.07774,E,3,17,1.04,-7.85,M,7.85,M,,*60
$GPRMC,000756,A,3000.17917,N,12000.07774,E,75.594,41.338,230721,0.000,E,A,V*6D
$GPGGA,000757,3000.19442,N,12000.09440,E,3,17,1.04,-7.85,M,7.85,M,,*68
$GPRMC,000757,A,3000.19442,N,12000.09440,E,75.594,45.794,230721,0.000,E,A,V*63
$GPGGA,000758,3000.20849,N,12000.11237,E,3,17,1.04,-7.85,M,7.85,M,,*65
$GPRMC,000758,A,3000.20849,N,12000.11237,E,75.594,50.250,230721,0.000,E,A,V*67
$GPGGA,000759,3000.22131,N,12000.13155,E,3,17,1.04,-7.85,M,7.85,M,,*65
$GPRMC,000759,A,3000.22131,N,12000.13155,E,75.594,54.707,230721,0.000,E,A,V*64
$GPGGA,000800,3000.23279,N,12000.15181,E,3,17,1.04,-7.85,M,7.85,M,,*67
$GPRMC,000800,A,3000.23279,N,12000.15181,E,75.594,59.163,230721,0.000,E,A,V*6F
$GPGGA,000801,3000.24287,N,12000.17304,E,3,17,1.04,-7.86,M,7.86,M,,*6D
$GPRMC,000801,A,3000.24287,N,12000.17304,E,75.594,63.620,230721,0.000,E,A,V*6C
$GPGGA,000802,3000.25148,N,12000.19510,E,3,17,1.04,-7.86,M,7.86,M,,*62
$GPRMC,000802,A,3000.25148,N,12000.19510,E,75.594,68.076,230721,0.000,E,A,V*6D
$GPGGA,000803,3000.25857,N,12000.21786,E,3,17,1.04,-7.86,M,7.86,M,,*62
$GPRMC,000803,A,3000.25857,N,12000.21786,E,75.594,72.533,230721,0.000,E,A,V*62
$GPGGA,000804,3000.26410,N,12000.24119,E,3,17,1.04,-7.86,M,7.86,M,,*6C
$GPRMC,000804,A,3000.26410,N,12000.24119,E,75.594,76.989,230721,0.000,E,A,V*65
$GPGGA,000805,3000.26804,N,12000.26494,E,3,17,1.04,-7.86,M,7.86,M,,*66
$GPRMC,000805,A,3000.26804,N,12000.26494,E,75.594,81.446,230721,0.000,E,A,V*69
$GPGGA,000806,3000.27036,N,12000.28897,E,3,17,1.04,-7.86,M,7.86,M,,*6C
$GPRMC,000806,A,3000.27036,N,12000.28897,E,75.594,85.903,230721,0.000,E,A,V*6B
$GPGGA,000807,3000.27105,N,12000.31314,E,3,17,1.04,-7.86,M,7.86,M,,*64
$GPRMC,000807,A,3000.27105,N,12000.31314,E,75.594,90.359,230721,0.000,E,A,V*62
$GPGGA,000808,3000.27010,N,12000.33729,E,3,17,1.04,-7.86,M,7.86,M,,*66
$GPRMC,000808,A,3000.27010,N,12000.33729,E,75.594,94.816,230721,0.000,E,A,V*64
$GPGGA,000809,3000.26752,N,12000.36129,E,3,17,1.04,-7.86,M,7.86,M,,*64
$GPRMC,000809,A,3000.26752,N,12000.36129,E,75.594,99.272,230721,0.000,E,A,V*63
$GPGGA,000810,3000.26332,N,12000.38498,E,3,17,1.04,-7.86,M,7.86,M,,*6F
$GPRMC,000810,A,3000.26332,N,12000.38498,E,75.594,103.729,230721,0.000,E,A,V*51
$GPGGA,000811,3000.25754,N,12000.40823,E,3,17,1.04,-7.86,M,7.86,M,,*6A
$GPRMC,000811,A,3000.25754,N,12000.40823,E,75.594,108.185,230721,0.000,E,A,V*5F
$GPGGA,000812,3000.25020,N,12000.43089,E,3,17,1.04,-7.86,M,7.86,M,,*66
$GPRMC,000812,A,3000.25020,N,12000.43089,E,75.594,112.642,230721,0.000,E,A,V*54
$GPGGA,000813,3000.24135,N,12000.45282,E,3,17,1.04,-7.86,M,7.86,M,,*6C
$GPRMC,000813,A,3000.24135,N,12000.45282,E,75.594,117.098,230721,0.000,E,A,V*5A
$GPGGA,000814,3000.23105,N,12000.47390,E,3,17,1.04,-7.86,M,7.86,M,,*6F
$GPRMC,000814,A,3000.23105,N,12000.47390,E,75.594,121.555,230721,0.000,E,A,V*58
$GPGGA,000815,3000.21935,N,12000.49400,E,3,17,1.04,-7.86,M,7.86,M,,*67
$GPRMC,000815,A,3000.21935,N,12000.49400,E,75.594,126.011,230721,0.000,E,A,V*52
$GPGGA,000816,3000.20632,N,12000.51299,E,3,17,1.05,-7.86,M,7.86,M,,*63
$GPRMC,000816,A,3000.20632,N,12000.51299,E,75.594,130.468,230721,0.000,E,A,V*5A
$GPGGA,000817,3000.19205,N,12000.53076,E,3,17,1.05,-7.86,M,7.86,M,,*69
$GPRMC,000817,A,3000.19205,N,12000.53076,E,75.594,134.924,230721,0.000,E,A,V*51
$GPGGA,000818,3000.17663,N,12000.54721,E,3,17,1.05,-7.86,M,7.86,M,,*6E
$GPRMC,000818,A,3000.17663,N,12000.54721,E,75.594,139.381,230721,0.000,E,A,V*5E
$GPGGA,000819,3000.16013,N,12000.56222,E,3,17,1.05,-7.86,M,7.86,M,,*6B
$GPRMC,000819,A,3000.16013,N,12000.56222,E,75.594,143.837,230721,0.000,E,A,V*50
$GPGGA,000820,3000.14268,N,12000.57572,E,3,17,1.05,-7.86,M,7.86,M,,*6E
$GPRMC,000820,A,3000.14268,N,12000.57572,E,75.594,148.294,230721,0.000,E,A,V*5D
$GPGGA,000821,3000.12436,N,12000.58762,E,3,17,1.05,-7.86,M,7.86,M,,*68
$GPRMC,000821,A,3000.12436,N,12000.58762,E,75.594,152.750,230721,0.000,E,A,V*5D
$GPGGA,000822,3000.10529,N,12000.59785,E,3,17,1.05,-7.86,M,7.86,M,,*6E
$GPRMC,000822,A,3000.10529,N,12000.59785,E,75.594,157.206,230721,0.000,E,A,V*58
$GPGGA,000823,3000.08559,N,12000.60634,E,3,17,1.05,-7.86,M,7.86,M,,*60
$GPRMC,000823,A,3000.08559,N,12000.60634,E,75.594,161.663,230721,0.000,E,A,V*54
$GPGGA,000824,3000.06537,N,12000.61305,E,3,17,1.05,-7.86,M,7.86,M,,*67
$GPRMC,000824,A,3000.06537,N,12000.61305,E,75.594,166.119,230721,0.000,E,A,V*5E
$GPGGA,000825,3000.04476,N,12000.61794,E,3,17,1.05,-7.86,M,7.86,M,,*6C
$GPRMC,000825,A,3000.04476,N,12000.61794,E,75.594,170.576,230721,0.000,E,A,V*5F
