$GPRMC,001253,A,3130.14018,N,12118.00000,E,9.719,0.000,200720,0.000,E,A,V*63

$GPRMC,001254,A,3130.14288,N,12118.00000,E,9.719,360.000,200720,0.000,E,A,V*6A

$GPRMC,001255,A,3130.14559,N,12118.00000,E,9.719,360.000,200720,0.000,E,A,V*60

$GPRMC,001256,A,3130.14829,N,12118.00000,E,9.719,0.000,200720,0.000,E,A,V*6C

$GPRMC,001257,A,3130.15100,N,12118.00000,E,9.719,0.000,200720,0.000,E,A,V*6E

$GPRMC,001258,A,3130.15370,N,12118.00000,E,9.719,0.000,200720,0.000,E,A,V*64

$GPRMC,001259,A,3130.15641,N,12118.00000,E,9.719,0.000,200720,0.000,E,A,V*62

$GPRMC,001300,A,3130.15912,N,12118.00000,E,9.719,360.000,200720,0.000,E,A,V*63

$GPRMC,001301,A,3130.16182,N,12118.00000,E,9.719,0.000,200720,0.000,E,A,V*65

$GPRMC,001302,A,3130.16453,N,12118.00000,E,9.719,360.000,200720,0.000,E,A,V*6A

$GPRMC,001303,A,3130.16723,N,12118.00000,E,9.719,0.000,200720,0.000,E,A,V*6A

$GPRMC,001304,A,3130.16994,N,12118.00000,E,9.719,0.000,200720,0.000,E,A,V*6F

$GPRMC,001305,A,3130.17264,N,12118.00000,E,9.719,0.000,200720,0.000,E,A,V*6B

$GPRMC,001306,A,3130.17535,N,12118.00000,E,9.719,360.000,200720,0.000,E,A,V*6E

$GPRMC,001307,A,3130.17806,N,12118.00000,E,9.719,360.000,200720,0.000,E,A,V*62

$GPRMC,001308,A,3130.18076,N,12118.00000,E,9.719,0.000,200720,0.000,E,A,V*68

$GPRMC,001309,A,3130.18347,N,12118.00000,E,9.719,0.000,200720,0.000,E,A,V*68

$GPRMC,001310,A,3130.18617,N,12118.00000,E,9.719,0.000,200720,0.000,E,A,V*60

$GPRMC,001311,A,3130.18888,N,12118.00000,E,9.719,0.000,200720,0.000,E,A,V*69

$GPRMC,001312,A,3130.19158,N,12118.00000,E,9.719,360.000,200720,0.000,E,A,V*6A

$GPRMC,001313,A,3130.19429,N,12118.00000,E,9.719,0.000,200720,0.000,E,A,V*6D

$GPRMC,001314,A,3130.19700,N,12118.00000,E,9.719,0.000,200720,0.000,E,A,V*62

$GPRMC,001315,A,3130.19970,N,12118.00000,E,9.719,0.000,200720,0.000,E,A,V*6A

$GPRMC,001316,A,3130.20241,N,12118.00000,E,9.719,0.000,200720,0.000,E,A,V*6A

$GPRMC,001317,A,3130.20511,N,12118.00000,E,9.719,0.000,200720,0.000,E,A,V*69

$GPRMC,001318,A,3130.20782,N,12118.00000,E,9.719,0.000,200720,0.000,E,A,V*6E

$GPRMC,001319,A,3130.21052,N,12118.00000,E,9.719,0.000,200720,0.000,E,A,V*64

$GPRMC,001320,A,3130.21323,N,12118.00000,E,9.719,360.000,200720,0.000,E,A,V*6E

$GPRMC,001321,A,3130.21593,N,12118.00000,E,9.719,0.000,200720,0.000,E,A,V*67

$GPRMC,001322,A,3130.21864,N,12118.00000,E,9.719,0.000,200720,0.000,E,A,V*61

$GPRMC,001323,A,3130.22135,N,12118.00000,E,9.719,360.000,200720,0.000,E,A,V*6B

$GPRMC,001324,A,3130.22405,N,12118.00000,E,9.719,360.000,200720,0.000,E,A,V*6A

$GPRMC,001325,A,3130.22676,N,12118.00000,E,9.719,360.000,200720,0.000,E,A,V*6D

$GPRMC,001326,A,3130.22946,N,12118.00000,E,9.719,0.000,200720,0.000,E,A,V*67

$GPRMC,001327,A,3130.23217,N,12118.00000,E,9.719,0.000,200720,0.000,E,A,V*68

$GPRMC,001328,A,3130.23487,N,12118.00000,E,9.719,0.000,200720,0.000,E,A,V*68

$GPRMC,001329,A,3130.23758,N,12118.00000,E,9.719,360.000,200720,0.000,E,A,V*6D

$GPRMC,001330,A,3130.24029,N,12118.00000,E,9.719,0.000,200720,0.000,E,A,V*66

$GPRMC,001331,A,3130.24299,N,12118.00000,E,9.719,360.000,200720,0.000,E,A,V*6B

$GPRMC,001332,A,3130.24570,N,12118.00000,E,9.719,0.000,200720,0.000,E,A,V*6D

$GPRMC,001333,A,3130.24840,N,12118.00000,E,9.719,0.000,200720,0.000,E,A,V*62

$GPRMC,001334,A,3130.25111,N,12118.00000,E,9.719,0.000,200720,0.000,E,A,V*69

$GPRMC,001335,A,3130.25381,N,12118.00000,E,9.719,360.000,200720,0.000,E,A,V*66

$GPRMC,001336,A,3130.25652,N,12118.00000,E,9.719,0.000,200720,0.000,E,A,V*6B

$GPRMC,001337,A,3130.25923,N,12118.00000,E,9.719,0.000,200720,0.000,E,A,V*63

$GPRMC,001338,A,3130.26193,N,12118.00000,E,9.719,0.000,200720,0.000,E,A,V*6C

$GPRMC,001339,A,3130.26464,N,12118.00000,E,9.719,0.000,200720,0.000,E,A,V*60

$GPRMC,001340,A,3130.26734,N,12118.00000,E,9.719,0.000,200720,0.000,E,A,V*68

$GPRMC,001341,A,3130.27005,N,12118.00000,E,9.719,0.000,200720,0.000,E,A,V*6D

$GPRMC,001342,A,3130.27275,N,12118.00000,E,9.719,360.000,200720,0.000,E,A,V*6E

$GPRMC,001343,A,3130.27546,N,12118.00000,E,9.719,0.000,200720,0.000,E,A,V*6D

$GPRMC,001344,A,3130.27816,N,12118.00000,E,9.719,0.000,200720,0.000,E,A,V*62

$GPRMC,001345,A,3130.28087,N,12118.00000,E,9.719,360.000,200720,0.000,E,A,V*69

$GPRMC,001346,A,3130.28358,N,12118.00000,E,9.719,360.000,200720,0.000,E,A,V*6B

$GPRMC,001347,A,3130.28628,N,12118.00000,E,9.719,0.000,200720,0.000,E,A,V*6D

$GPRMC,001348,A,3130.28899,N,12118.00000,E,9.719,0.000,200720,0.000,E,A,V*66

$GPRMC,001349,A,3130.29169,N,12118.00000,E,9.719,360.000,200720,0.000,E,A,V*65

$GPRMC,001350,A,3130.29440,N,12118.00000,E,9.719,0.000,200720,0.000,E,A,V*66

$GPRMC,001351,A,3130.29710,N,12118.00000,E,9.719,0.000,200720,0.000,E,A,V*61

$GPRMC,001352,A,3130.29981,N,12118.00000,E,9.719,360.000,200720,0.000,E,A,V*61

$GPRMC,001353,A,3130.30252,N,12118.00000,E,9.719,360.000,200720,0.000,E,A,V*6D

$GPRMC,001354,A,3130.30522,N,12118.00000,E,9.719,0.000,200720,0.000,E,A,V*6F

$GPRMC,001355,A,3130.30793,N,12118.00000,E,9.719,360.000,200720,0.000,E,A,V*63

$GPRMC,001356,A,3130.31063,N,12118.00000,E,9.719,0.000,200720,0.000,E,A,V*6C

$GPRMC,001357,A,3130.31334,N,12118.00000,E,9.719,0.000,200720,0.000,E,A,V*6C

$GPRMC,001358,A,3130.31604,N,12118.00000,E,9.719,0.000,200720,0.000,E,A,V*65

$GPRMC,001359,A,3130.31875,N,12118.00000,E,9.719,0.000,200720,0.000,E,A,V*6C

$GPRMC,001400,A,3130.32146,N,12118.00000,E,9.719,0.000,200720,0.000,E,A,V*6D

$GPRMC,001401,A,3130.32416,N,12118.00000,E,9.719,0.000,200720,0.000,E,A,V*6C

$GPRMC,001402,A,3130.32687,N,12118.00000,E,9.719,0.000,200720,0.000,E,A,V*65

$GPRMC,001403,A,3130.32957,N,12118.00000,E,9.719,0.000,200720,0.000,E,A,V*66

$GPRMC,001404,A,3130.33228,N,12118.00000,E,9.719,360.000,200720,0.000,E,A,V*66

$GPRMC,001405,A,3130.33498,N,12118.00000,E,9.719,0.000,200720,0.000,E,A,V*6F

$GPRMC,001406,A,3130.33769,N,12118.00000,E,9.719,360.000,200720,0.000,E,A,V*64

$GPRMC,001407,A,3130.34039,N,12118.00000,E,9.719,0.000,200720,0.000,E,A,V*65

$GPRMC,001408,A,3130.34310,N,12118.00000,E,9.719,0.000,200720,0.000,E,A,V*62

$GPRMC,001409,A,3130.34581,N,12118.00000,E,9.719,0.000,200720,0.000,E,A,V*6D

$GPRMC,001410,A,3130.34851,N,12118.00000,E,9.719,0.000,200720,0.000,E,A,V*65

$GPRMC,001411,A,3130.35122,N,12118.00000,E,9.719,0.000,200720,0.000,E,A,V*68

$GPRMC,001412,A,3130.35392,N,12118.00000,E,9.719,0.000,200720,0.000,E,A,V*62

$GPRMC,001413,A,3130.35663,N,12118.00000,E,9.719,0.000,200720,0.000,E,A,V*68

$GPRMC,001414,A,3130.35933,N,12118.00000,E,9.719,0.000,200720,0.000,E,A,V*65

$GPRMC,001415,A,3130.36204,N,12118.00000,E,9.719,0.000,200720,0.000,E,A,V*68

$GPRMC,001416,A,3130.36475,N,12118.00000,E,9.719,0.000,200720,0.000,E,A,V*6B

$GPRMC,001417,A,3130.36745,N,12118.00000,E,9.719,0.000,200720,0.000,E,A,V*6A

$GPRMC,001418,A,3130.37016,N,12118.00000,E,9.719,0.000,200720,0.000,E,A,V*65

$GPRMC,001419,A,3130.37286,N,12118.00000,E,9.719,360.000,200720,0.000,E,A,V*6A

$GPRMC,001420,A,3130.37557,N,12118.00000,E,9.719,0.000,200720,0.000,E,A,V*6E

$GPRMC,001421,A,3130.37827,N,12118.00000,E,9.719,0.000,200720,0.000,E,A,V*65

$GPRMC,001422,A,3130.38098,N,12118.00000,E,9.719,360.000,200720,0.000,E,A,V*60

$GPRMC,001423,A,3130.38369,N,12118.00000,E,9.719,0.000,200720,0.000,E,A,V*69

$GPRMC,001424,A,3130.38639,N,12118.00000,E,9.719,0.000,200720,0.000,E,A,V*6E

$GPRMC,001425,A,3130.38910,N,12118.00000,E,9.719,0.000,200720,0.000,E,A,V*6B

$GPRMC,001426,A,3130.39180,N,12118.00000,E,9.719,0.000,200720,0.000,E,A,V*68

$GPRMC,001427,A,3130.39451,N,12118.00000,E,9.719,360.000,200720,0.000,E,A,V*65

$GPRMC,001428,A,3130.39721,N,12118.00000,E,9.719,360.000,200720,0.000,E,A,V*6E

$GPRMC,001429,A,3130.39992,N,12118.00000,E,9.719,0.000,200720,0.000,E,A,V*6C

$GPRMC,001430,A,3130.40262,N,12118.00000,E,9.719,360.000,200720,0.000,E,A,V*6B

$GPRMC,001431,A,3130.40533,N,12118.00000,E,9.719,360.000,200720,0.000,E,A,V*69

$GPRMC,001432,A,3130.40804,N,12118.00000,E,9.719,360.000,200720,0.000,E,A,V*63

$GPRMC,001433,A,3130.41074,N,12118.00000,E,9.719,360.000,200720,0.000,E,A,V*6C

$GPRMC,001434,A,3130.41345,N,12118.00000,E,9.719,0.000,200720,0.000,E,A,V*6F

$GPRMC,001435,A,3130.41615,N,12118.00000,E,9.719,360.000,200720,0.000,E,A,V*6B

$GPRMC,001436,A,3130.41886,N,12118.00000,E,9.719,0.000,200720,0.000,E,A,V*69

$GPRMC,001437,A,3130.42156,N,12118.00000,E,9.719,0.000,200720,0.000,E,A,V*6F

$GPRMC,001438,A,3130.42427,N,12118.00000,E,9.719,0.000,200720,0.000,E,A,V*63

$GPRMC,001439,A,3130.42698,N,12118.00000,E,9.719,0.000,200720,0.000,E,A,V*64

$GPRMC,001440,A,3130.42968,N,12118.00000,E,9.719,0.000,200720,0.000,E,A,V*6A

$GPRMC,001441,A,3130.43239,N,12118.00000,E,9.719,0.000,200720,0.000,E,A,V*65

$GPRMC,001442,A,3130.43509,N,12118.00000,E,9.719,0.000,200720,0.000,E,A,V*62

$GPRMC,001443,A,3130.43780,N,12118.00000,E,9.719,0.000,200720,0.000,E,A,V*60

$GPRMC,001444,A,3130.44050,N,12118.00000,E,9.719,360.000,200720,0.000,E,A,V*6F

$GPRMC,001445,A,3130.44321,N,12118.00000,E,9.719,0.000,200720,0.000,E,A,V*6E

$GPRMC,001446,A,3130.44592,N,12118.00000,E,9.719,0.000,200720,0.000,E,A,V*63

$GPRMC,001447,A,3130.44862,N,12118.00000,E,9.719,0.000,200720,0.000,E,A,V*60

$GPRMC,001448,A,3130.45133,N,12118.00000,E,9.719,360.000,200720,0.000,E,A,V*66

$GPRMC,001449,A,3130.45403,N,12118.00000,E,9.719,0.000,200720,0.000,E,A,V*64

$GPRMC,001450,A,3130.45674,N,12118.00000,E,9.719,0.000,200720,0.000,E,A,V*6E

$GPRMC,001451,A,3130.45944,N,12118.00000,E,9.719,0.000,200720,0.000,E,A,V*63

$GPRMC,001452,A,3130.46215,N,12118.00000,E,9.719,360.000,200720,0.000,E,A,V*69

$GPRMC,001453,A,3130.46485,N,12118.00000,E,9.719,0.000,200720,0.000,E,A,V*62

$GPRMC,001454,A,3130.46756,N,12118.00000,E,9.719,0.000,200720,0.000,E,A,V*68

$GPRMC,001455,A,3130.47027,N,12118.00000,E,9.719,0.000,200720,0.000,E,A,V*69

$GPRMC,001456,A,3130.47297,N,12118.00000,E,9.719,0.000,200720,0.000,E,A,V*63

$GPRMC,001457,A,3130.47568,N,12118.00000,E,9.719,0.000,200720,0.000,E,A,V*65

$GPRMC,001458,A,3130.47838,N,12118.00000,E,9.719,0.000,200720,0.000,E,A,V*62

$GPRMC,001459,A,3130.48109,N,12118.00000,E,9.719,0.000,200720,0.000,E,A,V*67

$GPRMC,001500,A,3130.48379,N,12118.00000,E,9.719,0.000,200720,0.000,E,A,V*6F

$GPRMC,001501,A,3130.48650,N,12118.00000,E,9.719,0.000,200720,0.000,E,A,V*60

$GPRMC,001502,A,3130.48921,N,12118.00000,E,9.719,0.000,200720,0.000,E,A,V*6A

$GPRMC,001503,A,3130.49191,N,12118.00000,E,9.719,0.000,200720,0.000,E,A,V*69

$GPRMC,001504,A,3130.49462,N,12118.00000,E,9.719,0.000,200720,0.000,E,A,V*67

$GPRMC,001505,A,3130.49732,N,12118.00000,E,9.719,0.000,200720,0.000,E,A,V*60

$GPRMC,001506,A,3130.50003,N,12118.00000,E,9.719,0.000,200720,0.000,E,A,V*6E

$GPRMC,001507,A,3130.50273,N,12118.00000,E,9.719,0.000,200720,0.000,E,A,V*6A

$GPRMC,001508,A,3130.50544,N,12118.00000,E,9.719,0.000,200720,0.000,E,A,V*66

$GPRMC,001509,A,3130.50815,N,12118.00000,E,9.719,0.000,200720,0.000,E,A,V*6E

$GPRMC,001510,A,3130.51085,N,12118.00000,E,9.719,0.000,200720,0.000,E,A,V*66

$GPRMC,001511,A,3130.51356,N,12118.00000,E,9.719,0.000,200720,0.000,E,A,V*6A

$GPRMC,001512,A,3130.51626,N,12118.00000,E,9.719,360.000,200720,0.000,E,A,V*6E

$GPRMC,001513,A,3130.51897,N,12118.00000,E,9.719,0.000,200720,0.000,E,A,V*6E

$GPRMC,001514,A,3130.52167,N,12118.00000,E,9.719,0.000,200720,0.000,E,A,V*6C

$GPRMC,001515,A,3130.52438,N,12118.00000,E,9.719,0.000,200720,0.000,E,A,V*62

$GPRMC,001516,A,3130.52708,N,12118.00000,E,9.719,0.000,200720,0.000,E,A,V*61

$GPRMC,001517,A,3130.52979,N,12118.00000,E,9.719,0.000,200720,0.000,E,A,V*68

$GPRMC,001518,A,3130.53250,N,12118.00000,E,9.719,0.000,200720,0.000,E,A,V*66

$GPRMC,001519,A,3130.53520,N,12118.00000,E,9.719,0.000,200720,0.000,E,A,V*67

$GPRMC,001520,A,3130.53791,N,12118.00000,E,9.719,0.000,200720,0.000,E,A,V*65

$GPRMC,001521,A,3130.54061,N,12118.00000,E,9.719,0.000,200720,0.000,E,A,V*6B

$GPRMC,001522,A,3130.54332,N,12118.00000,E,9.719,0.000,200720,0.000,E,A,V*6D

$GPRMC,001523,A,3130.54602,N,12118.00000,E,9.719,360.000,200720,0.000,E,A,V*6F

$GPRMC,001524,A,3130.54873,N,12118.00000,E,9.719,0.000,200720,0.000,E,A,V*65

$GPRMC,001525,A,3130.55144,N,12118.00000,E,9.719,0.000,200720,0.000,E,A,V*68

$GPRMC,001526,A,3130.55414,N,12118.00000,E,9.719,0.000,200720,0.000,E,A,V*6B

$GPRMC,001527,A,3130.55685,N,12118.00000,E,9.719,360.000,200720,0.000,E,A,V*65

$GPRMC,001528,A,3130.55955,N,12118.00000,E,9.719,0.000,200720,0.000,E,A,V*6D

$GPRMC,001529,A,3130.56226,N,12118.00000,E,9.719,0.000,200720,0.000,E,A,V*60

$GPRMC,001530,A,3130.56496,N,12118.00000,E,9.719,0.000,200720,0.000,E,A,V*65

$GPRMC,001531,A,3130.56767,N,12118.00000,E,9.719,0.000,200720,0.000,E,A,V*69

$GPRMC,001532,A,3130.57037,N,12118.00000,E,9.719,0.000,200720,0.000,E,A,V*69

$GPRMC,001533,A,3130.57308,N,12118.00000,E,9.719,0.000,200720,0.000,E,A,V*67

$GPRMC,001534,A,3130.57579,N,12118.00000,E,9.719,0.000,200720,0.000,E,A,V*60

$GPRMC,001535,A,3130.57849,N,12118.00000,E,9.719,0.000,200720,0.000,E,A,V*6F

$GPRMC,001536,A,3130.58120,N,12118.00000,E,9.719,0.000,200720,0.000,E,A,V*65

$GPRMC,001537,A,3130.58390,N,12118.00000,E,9.719,360.000,200720,0.000,E,A,V*68

$GPRMC,001538,A,3130.58661,N,12118.00000,E,9.719,360.000,200720,0.000,E,A,V*6C

$GPRMC,001539,A,3130.58931,N,12118.00000,E,9.719,0.000,200720,0.000,E,A,V*62

$GPRMC,001540,A,3130.59202,N,12118.00000,E,9.719,360.000,200720,0.000,E,A,V*63

$GPRMC,001541,A,3130.59473,N,12118.00000,E,9.719,0.000,200720,0.000,E,A,V*67

$GPRMC,001542,A,3130.59743,N,12118.00000,E,9.719,0.000,200720,0.000,E,A,V*64

$GPRMC,001543,A,3130.60014,N,12118.00000,E,9.719,0.000,200720,0.000,E,A,V*6A

$GPRMC,001544,A,3130.60284,N,12118.00000,E,9.719,0.000,200720,0.000,E,A,V*66

$GPRMC,001545,A,3130.60555,N,12118.00000,E,9.719,0.000,200720,0.000,E,A,V*6C

$GPRMC,001546,A,3130.60825,N,12118.00000,E,9.719,0.000,200720,0.000,E,A,V*65

$GPRMC,001547,A,3130.61096,N,12118.00000,E,9.719,0.000,200720,0.000,E,A,V*65

$GPRMC,001548,A,3130.61367,N,12118.00000,E,9.719,0.000,200720,0.000,E,A,V*67

$GPRMC,001549,A,3130.61637,N,12118.00000,E,9.719,0.000,200720,0.000,E,A,V*66

$GPRMC,001550,A,3130.61908,N,12118.00000,E,9.719,0.000,200720,0.000,E,A,V*6D

$GPRMC,001551,A,3130.62178,N,12118.00000,E,9.719,0.000,200720,0.000,E,A,V*60

$GPRMC,001552,A,3130.62449,N,12118.00000,E,9.719,0.000,200720,0.000,E,A,V*64

$GPRMC,001553,A,3130.62719,N,12118.00000,E,9.719,0.000,200720,0.000,E,A,V*63

$GPRMC,001554,A,3130.62990,N,12118.00000,E,9.719,0.000,200720,0.000,E,A,V*6B

$GPRMC,001555,A,3130.63260,N,12118.00000,E,9.719,0.000,200720,0.000,E,A,V*6F

$GPRMC,001556,A,3130.63531,N,12118.00000,E,9.719,0.000,200720,0.000,E,A,V*6F

$GPRMC,001557,A,3130.63802,N,12118.00000,E,9.719,0.000,200720,0.000,E,A,V*63

$GPRMC,001558,A,3130.64072,N,12118.00000,E,9.719,0.000,200720,0.000,E,A,V*64

$GPRMC,001559,A,3130.64343,N,12118.00000,E,9.719,0.000,200720,0.000,E,A,V*64

$GPRMC,001600,A,3130.64613,N,12118.00000,E,9.719,0.000,200720,0.000,E,A,V*6B

$GPRMC,001601,A,3130.64884,N,12118.00000,E,9.719,0.000,200720,0.000,E,A,V*6A

$GPRMC,001602,A,3130.65154,N,12118.00000,E,9.719,0.000,200720,0.000,E,A,V*6C

$GPRMC,001603,A,3130.65425,N,12118.00000,E,9.719,0.000,200720,0.000,E,A,V*6E

$GPRMC,001604,A,3130.65696,N,12118.00000,E,9.719,0.000,200720,0.000,E,A,V*63

$GPRMC,001605,A,3130.65966,N,12118.00000,E,9.719,360.000,200720,0.000,E,A,V*67

$GPRMC,001606,A,3130.66237,N,12118.00000,E,9.719,360.000,200720,0.000,E,A,V*68

$GPRMC,001607,A,3130.66507,N,12118.00000,E,9.719,360.000,200720,0.000,E,A,V*6D

$GPRMC,001608,A,3130.66778,N,12118.00000,E,9.719,0.000,200720,0.000,E,A,V*6D

$GPRMC,001609,A,3130.67048,N,12118.00000,E,9.719,360.000,200720,0.000,E,A,V*6C

$GPRMC,001610,A,3130.67319,N,12118.00000,E,9.719,0.000,200720,0.000,E,A,V*66

$GPRMC,001611,A,3130.67590,N,12118.00000,E,9.719,360.000,200720,0.000,E,A,V*65

$GPRMC,001612,A,3130.67860,N,12118.00000,E,9.719,0.000,200720,0.000,E,A,V*61

$GPRMC,001613,A,3130.68131,N,12118.00000,E,9.719,0.000,200720,0.000,E,A,V*62

$GPRMC,001614,A,3130.68401,N,12118.00000,E,9.719,360.000,200720,0.000,E,A,V*66

$GPRMC,001615,A,3130.68672,N,12118.00000,E,9.719,360.000,200720,0.000,E,A,V*61

$GPRMC,001616,A,3130.68942,N,12118.00000,E,9.719,0.000,200720,0.000,E,A,V*6B

$GPRMC,001617,A,3130.69213,N,12118.00000,E,9.719,360.000,200720,0.000,E,A,V*61

$GPRMC,001618,A,3130.69483,N,12118.00000,E,9.719,360.000,200720,0.000,E,A,V*61

$GPRMC,001619,A,3130.69754,N,12118.00000,E,9.719,0.000,200720,0.000,E,A,V*6C

$GPRMC,001620,A,3130.70025,N,12118.00000,E,9.719,0.000,200720,0.000,E,A,V*6F

$GPRMC,001621,A,3130.70295,N,12118.00000,E,9.719,0.000,200720,0.000,E,A,V*67

$GPRMC,001622,A,3130.70566,N,12118.00000,E,9.719,360.000,200720,0.000,E,A,V*6A

$GPRMC,001623,A,3130.70836,N,12118.00000,E,9.719,0.000,200720,0.000,E,A,V*66

$GPRMC,001624,A,3130.71107,N,12118.00000,E,9.719,0.000,200720,0.000,E,A,V*6B

$GPRMC,001625,A,3130.71377,N,12118.00000,E,9.719,0.000,200720,0.000,E,A,V*6F

$GPRMC,001626,A,3130.71648,N,12118.00000,E,9.719,360.000,200720,0.000,E,A,V*60

$GPRMC,001627,A,3130.71919,N,12118.00000,E,9.719,0.000,200720,0.000,E,A,V*6F

$GPRMC,001628,A,3130.72189,N,12118.00000,E,9.719,0.000,200720,0.000,E,A,V*62

$GPRMC,001629,A,3130.72460,N,12118.00000,E,9.719,0.000,200720,0.000,E,A,V*61

$GPRMC,001630,A,3130.72730,N,12118.00000,E,9.719,0.000,200720,0.000,E,A,V*6F

$GPRMC,001631,A,3130.73001,N,12118.00000,E,9.719,360.000,200720,0.000,E,A,V*6F

$GPRMC,001632,A,3130.73271,N,12118.00000,E,9.719,0.000,200720,0.000,E,A,V*6C

$GPRMC,001633,A,3130.73542,N,12118.00000,E,9.719,0.000,200720,0.000,E,A,V*6A

$GPRMC,001634,A,3130.73813,N,12118.00000,E,9.719,0.000,200720,0.000,E,A,V*64

$GPRMC,001635,A,3130.74083,N,12118.00000,E,9.719,0.000,200720,0.000,E,A,V*63

$GPRMC,001636,A,3130.74354,N,12118.00000,E,9.719,0.000,200720,0.000,E,A,V*69

$GPRMC,001637,A,3130.74624,N,12118.00000,E,9.719,0.000,200720,0.000,E,A,V*6A

$GPRMC,001638,A,3130.74895,N,12118.00000,E,9.719,360.000,200720,0.000,E,A,V*64

$GPRMC,001639,A,3130.75165,N,12118.00000,E,9.719,0.000,200720,0.000,E,A,V*67

$GPRMC,001640,A,3130.75436,N,12118.00000,E,9.719,360.000,200720,0.000,E,A,V*6F

$GPRMC,001641,A,3130.75706,N,12118.00000,E,9.719,0.000,200720,0.000,E,A,V*6B

$GPRMC,001642,A,3130.75977,N,12118.00000,E,9.719,0.000,200720,0.000,E,A,V*60

$GPRMC,001643,A,3130.76248,N,12118.00000,E,9.719,0.000,200720,0.000,E,A,V*65

$GPRMC,001644,A,3130.76518,N,12118.00000,E,9.719,360.000,200720,0.000,E,A,V*65

$GPRMC,001645,A,3130.76789,N,12118.00000,E,9.719,0.000,200720,0.000,E,A,V*6B

$GPRMC,001646,A,3130.77059,N,12118.00000,E,9.719,0.000,200720,0.000,E,A,V*63

$GPRMC,001647,A,3130.77330,N,12118.00000,E,9.719,0.000,200720,0.000,E,A,V*6E

$GPRMC,001648,A,3130.77600,N,12118.00000,E,9.719,0.000,200720,0.000,E,A,V*67

$GPRMC,001649,A,3130.77871,N,12118.00000,E,9.719,0.000,200720,0.000,E,A,V*6E

$GPRMC,001650,A,3130.78142,N,12118.00000,E,9.719,0.000,200720,0.000,E,A,V*60

$GPRMC,001651,A,3130.78412,N,12118.00000,E,9.719,0.000,200720,0.000,E,A,V*61

$GPRMC,001652,A,3130.78683,N,12118.00000,E,9.719,0.000,200720,0.000,E,A,V*68

$GPRMC,001653,A,3130.78953,N,12118.00000,E,9.719,0.000,200720,0.000,E,A,V*6B

$GPRMC,001654,A,3130.79224,N,12118.00000,E,9.719,0.000,200720,0.000,E,A,V*66

$GPRMC,001655,A,3130.79494,N,12118.00000,E,9.719,0.000,200720,0.000,E,A,V*6A

$GPRMC,001656,A,3130.79765,N,12118.00000,E,9.719,0.000,200720,0.000,E,A,V*64

$GPRMC,001657,A,3130.80036,N,12118.00000,E,9.719,0.000,200720,0.000,E,A,V*62

$GPRMC,001658,A,3130.80306,N,12118.00000,E,9.719,0.000,200720,0.000,E,A,V*6D

$GPRMC,001659,A,3130.80577,N,12118.00000,E,9.719,0.000,200720,0.000,E,A,V*6C

$GPRMC,001700,A,3130.80847,N,12118.00000,E,9.719,0.000,200720,0.000,E,A,V*6F

$GPRMC,001701,A,3130.81118,N,12118.00000,E,9.719,360.000,200720,0.000,E,A,V*69

$GPRMC,001702,A,3130.81388,N,12118.00000,E,9.719,0.000,200720,0.000,E,A,V*64

$GPRMC,001703,A,3130.81659,N,12118.00000,E,9.719,0.000,200720,0.000,E,A,V*6C

$GPRMC,001704,A,3130.81929,N,12118.00000,E,9.719,0.000,200720,0.000,E,A,V*63

$GPRMC,001705,A,3130.82200,N,12118.00000,E,9.719,0.000,200720,0.000,E,A,V*61

$GPRMC,001706,A,3130.82471,N,12118.00000,E,9.719,0.000,200720,0.000,E,A,V*62

$GPRMC,001707,A,3130.82741,N,12118.00000,E,9.719,0.000,200720,0.000,E,A,V*63

$GPRMC,001708,A,3130.83012,N,12118.00000,E,9.719,0.000,200720,0.000,E,A,V*6C

$GPRMC,001709,A,3130.83282,N,12118.00000,E,9.719,0.000,200720,0.000,E,A,V*66

$GPRMC,001710,A,3130.83553,N,12118.00000,E,9.719,360.000,200720,0.000,E,A,V*60

$GPRMC,001711,A,3130.83823,N,12118.00000,E,9.719,360.000,200720,0.000,E,A,V*6B

$GPRMC,001712,A,3130.84094,N,12118.00000,E,9.719,0.000,200720,0.000,E,A,V*6E

$GPRMC,001713,A,3130.84365,N,12118.00000,E,9.719,360.000,200720,0.000,E,A,V*67

$GPRMC,001714,A,3130.84635,N,12118.00000,E,9.719,360.000,200720,0.000,E,A,V*60

$GPRMC,001715,A,3130.84906,N,12118.00000,E,9.719,0.000,200720,0.000,E,A,V*6B

$GPRMC,001716,A,3130.85176,N,12118.00000,E,9.719,360.000,200720,0.000,E,A,V*63

$GPRMC,001717,A,3130.85447,N,12118.00000,E,9.719,0.000,200720,0.000,E,A,V*60

$GPRMC,001718,A,3130.85717,N,12118.00000,E,9.719,0.000,200720,0.000,E,A,V*69

$GPRMC,001719,A,3130.85988,N,12118.00000,E,9.719,360.000,200720,0.000,E,A,V*65

$GPRMC,001720,A,3130.86258,N,12118.00000,E,9.719,360.000,200720,0.000,E,A,V*6A

$GPRMC,001721,A,3130.86529,N,12118.00000,E,9.719,0.000,200720,0.000,E,A,V*6F

$GPRMC,001722,A,3130.86800,N,12118.00000,E,9.719,0.000,200720,0.000,E,A,V*6A

$GPRMC,001723,A,3130.87070,N,12118.00000,E,9.719,360.000,200720,0.000,E,A,V*60

$GPRMC,001724,A,3130.87341,N,12118.00000,E,9.719,0.000,200720,0.000,E,A,V*63

$GPRMC,001725,A,3130.87611,N,12118.00000,E,9.719,0.000,200720,0.000,E,A,V*62

$GPRMC,001726,A,3130.87882,N,12118.00000,E,9.719,0.000,200720,0.000,E,A,V*65

$GPRMC,001727,A,3130.88152,N,12118.00000,E,9.719,0.000,200720,0.000,E,A,V*6F

$GPRMC,001728,A,3130.88423,N,12118.00000,E,9.719,0.000,200720,0.000,E,A,V*63

$GPRMC,001729,A,3130.88694,N,12118.00000,E,9.719,0.000,200720,0.000,E,A,V*6C

$GPRMC,001730,A,3130.88964,N,12118.00000,E,9.719,0.000,200720,0.000,E,A,V*64

$GPRMC,001731,A,3130.89235,N,12118.00000,E,9.719,360.000,200720,0.000,E,A,V*6E

$GPRMC,001732,A,3130.89505,N,12118.00000,E,9.719,0.000,200720,0.000,E,A,V*6C

$GPRMC,001733,A,3130.89776,N,12118.00000,E,9.719,0.000,200720,0.000,E,A,V*6B

$GPRMC,001734,A,3130.90046,N,12118.00000,E,9.719,0.000,200720,0.000,E,A,V*60

$GPRMC,001735,A,3130.90317,N,12118.00000,E,9.719,360.000,200720,0.000,E,A,V*63

$GPRMC,001736,A,3130.90588,N,12118.00000,E,9.719,0.000,200720,0.000,E,A,V*65

$GPRMC,001737,A,3130.90858,N,12118.00000,E,9.719,0.000,200720,0.000,E,A,V*64

$GPRMC,001738,A,3130.91129,N,12118.00000,E,9.719,0.000,200720,0.000,E,A,V*65

$GPRMC,001739,A,3130.91399,N,12118.00000,E,9.719,0.000,200720,0.000,E,A,V*6D

$GPRMC,001740,A,3130.91670,N,12118.00000,E,9.719,0.000,200720,0.000,E,A,V*61

$GPRMC,001741,A,3130.91940,N,12118.00000,E,9.719,0.000,200720,0.000,E,A,V*6C

$GPRMC,001742,A,3130.92211,N,12118.00000,E,9.719,0.000,200720,0.000,E,A,V*63

$GPRMC,001743,A,3130.92481,N,12118.00000,E,9.719,0.000,200720,0.000,E,A,V*6D

$GPRMC,001744,A,3130.92752,N,12118.00000,E,9.719,0.000,200720,0.000,E,A,V*67

$GPRMC,001745,A,3130.93023,N,12118.00000,E,9.719,0.000,200720,0.000,E,A,V*66

$GPRMC,001746,A,3130.93293,N,12118.00000,E,9.719,0.000,200720,0.000,E,A,V*6C

$GPRMC,001747,A,3130.93564,N,12118.00000,E,9.719,0.000,200720,0.000,E,A,V*62

$GPRMC,001748,A,3130.93834,N,12118.00000,E,9.719,0.000,200720,0.000,E,A,V*65

$GPRMC,001749,A,3130.94105,N,12118.00000,E,9.719,0.000,200720,0.000,E,A,V*68

$GPRMC,001750,A,3130.94375,N,12118.00000,E,9.719,0.000,200720,0.000,E,A,V*65

$GPRMC,001751,A,3130.94646,N,12118.00000,E,9.719,0.000,200720,0.000,E,A,V*61

$GPRMC,001752,A,3130.94917,N,12118.00000,E,9.719,0.000,200720,0.000,E,A,V*69

$GPRMC,001753,A,3130.95187,N,12118.00000,E,9.719,0.000,200720,0.000,E,A,V*68

$GPRMC,001754,A,3130.95458,N,12118.00000,E,9.719,0.000,200720,0.000,E,A,V*68

$GPRMC,001755,A,3130.95728,N,12118.00000,E,9.719,0.000,200720,0.000,E,A,V*6D

$GPRMC,001756,A,3130.95999,N,12118.00000,E,9.719,0.000,200720,0.000,E,A,V*6A

$GPRMC,001757,A,3130.96269,N,12118.00000,E,9.719,0.000,200720,0.000,E,A,V*6C

$GPRMC,001758,A,3130.96540,N,12118.00000,E,9.719,0.000,200720,0.000,E,A,V*6F

$GPRMC,001759,A,3130.96811,N,12118.00000,E,9.719,0.000,200720,0.000,E,A,V*67

$GPRMC,001800,A,3130.97081,N,12118.00000,E,9.719,0.000,200720,0.000,E,A,V*64

$GPRMC,001801,A,3130.97352,N,12118.00000,E,9.719,0.000,200720,0.000,E,A,V*68

$GPRMC,001802,A,3130.97622,N,12118.00000,E,9.719,0.000,200720,0.000,E,A,V*69

$GPRMC,001803,A,3130.97893,N,12118.00000,E,9.719,0.000,200720,0.000,E,A,V*6C

$GPRMC,001804,A,3130.98163,N,12118.00000,E,9.719,0.000,200720,0.000,E,A,V*62

$GPRMC,001805,A,3130.98434,N,12118.00000,E,9.719,0.000,200720,0.000,E,A,V*64

$GPRMC,001806,A,3130.98704,N,12118.00000,E,9.719,0.000,200720,0.000,E,A,V*67

$GPRMC,001807,A,3130.98975,N,12118.00000,E,9.719,360.000,200720,0.000,E,A,V*6B

$GPRMC,001808,A,3130.99246,N,12118.00000,E,9.719,0.000,200720,0.000,E,A,V*6B

$GPRMC,001809,A,3130.99516,N,12118.00000,E,9.719,0.000,200720,0.000,E,A,V*68

$GPRMC,001810,A,3130.99787,N,12118.00000,E,9.719,0.000,200720,0.000,E,A,V*6A

$GPRMC,001811,A,3131.00057,N,12118.00000,E,9.719,0.000,200720,0.000,E,A,V*60

$GPRMC,001812,A,3131.00328,N,12118.00000,E,9.719,0.000,200720,0.000,E,A,V*68

$GPRMC,001813,A,3131.00598,N,12118.00000,E,9.719,0.000,200720,0.000,E,A,V*64

$GPRMC,001814,A,3131.00869,N,12118.00000,E,9.719,0.000,200720,0.000,E,A,V*60

$GPRMC,001815,A,3131.01140,N,12118.00000,E,9.719,0.000,200720,0.000,E,A,V*62

$GPRMC,001816,A,3131.01410,N,12118.00000,E,9.719,0.000,200720,0.000,E,A,V*61

$GPRMC,001817,A,3131.01681,N,12118.00000,E,9.719,0.000,200720,0.000,E,A,V*6A

$GPRMC,001818,A,3131.01951,N,12118.00000,E,9.719,0.000,200720,0.000,E,A,V*67

$GPRMC,001819,A,3131.02222,N,12118.00000,E,9.719,0.000,200720,0.000,E,A,V*6A

$GPRMC,001820,A,3131.02492,N,12118.00000,E,9.719,360.000,200720,0.000,E,A,V*68

$GPRMC,001821,A,3131.02763,N,12118.00000,E,9.719,0.000,200720,0.000,E,A,V*61

$GPRMC,001822,A,3131.03034,N,12118.00000,E,9.719,360.000,200720,0.000,E,A,V*63

$GPRMC,001823,A,3131.03304,N,12118.00000,E,9.719,360.000,200720,0.000,E,A,V*62

$GPRMC,001824,A,3131.03575,N,12118.00000,E,9.719,0.000,200720,0.000,E,A,V*60

$GPRMC,001825,A,3131.03845,N,12118.00000,E,9.719,0.000,200720,0.000,E,A,V*6F

$GPRMC,001826,A,3131.04116,N,12118.00000,E,9.719,0.000,200720,0.000,E,A,V*64

$GPRMC,001827,A,3131.04386,N,12118.00000,E,9.719,0.000,200720,0.000,E,A,V*6E

$GPRMC,001828,A,3131.04657,N,12118.00000,E,9.719,0.000,200720,0.000,E,A,V*68

$GPRMC,001829,A,3131.04927,N,12118.00000,E,9.719,0.000,200720,0.000,E,A,V*61

$GPRMC,001830,A,3131.05198,N,12118.00000,E,9.719,0.000,200720,0.000,E,A,V*64

$GPRMC,001831,A,3131.05469,N,12118.00000,E,9.719,0.000,200720,0.000,E,A,V*6E

$GPRMC,001832,A,3131.05739,N,12118.00000,E,9.719,0.000,200720,0.000,E,A,V*6B

$GPRMC,001833,A,3131.06010,N,12118.00000,E,9.719,360.000,200720,0.000,E,A,V*60

$GPRMC,001834,A,3131.06280,N,12118.00000,E,9.719,0.000,200720,0.000,E,A,V*69

$GPRMC,001835,A,3131.06551,N,12118.00000,E,9.719,0.000,200720,0.000,E,A,V*63

$GPRMC,001836,A,3131.06821,N,12118.00000,E,9.719,360.000,200720,0.000,E,A,V*6F

$GPRMC,001837,A,3131.07092,N,12118.00000,E,9.719,360.000,200720,0.000,E,A,V*6F

$GPRMC,001838,A,3131.07363,N,12118.00000,E,9.719,0.000,200720,0.000,E,A,V*68

$GPRMC,001839,A,3131.07633,N,12118.00000,E,9.719,0.000,200720,0.000,E,A,V*69

$GPRMC,001840,A,3131.07904,N,12118.00000,E,9.719,0.000,200720,0.000,E,A,V*6C

$GPRMC,001841,A,3131.08174,N,12118.00000,E,9.719,0.000,200720,0.000,E,A,V*6D

$GPRMC,001842,A,3131.08445,N,12118.00000,E,9.719,0.000,200720,0.000,E,A,V*69

$GPRMC,001843,A,3131.08715,N,12118.00000,E,9.719,0.000,200720,0.000,E,A,V*6E

$GPRMC,001844,A,3131.08986,N,12118.00000,E,9.719,0.000,200720,0.000,E,A,V*6D

$GPRMC,001845,A,3131.09256,N,12118.00000,E,9.719,0.000,200720,0.000,E,A,V*6B

