$GNRMC,000709.00,A,3129.209466,N,12117.999985,E,9.729,0.00,200720,,,A,V*09
$GNGGA,000709.00,3129.209466,N,12117.999985,E,1,09,0.97,40.1,M,9.5,M,,*4D
$GNGSA,A,3,04,01,07,08,13,20,23,25,02,,,,1.68,0.97,1.37,1*0B
$GNGSA,A,3,,,,,,,,,,,,,1.68,0.97,1.37,4*00
$GPGSV,3,1,10,01,18,117,35,02,17,314,35,04,45,279,36,07
,64,205,36,0*60
$GPGSV,3,2,10,08,24,212,35,13,61,351,36,16,13,057,35,20,44,116,36,0*6B
$GPGSV,3,3,10,23,47,041,36,25,86,194,36,0*66
$BDGSV,1,1,00,0*74

$GNRMC,000710.00,A,3129.212166,N,12117.999998,E,9.715,0.05,200720,,,A,V*08
$GNGGA,000710.00,3129.212166,N,12117.999998,E,1,09,0.97,40.2,M,9.5,M,,*45
$GNGSA,A,3,04,01,07,08,13,20,23,25,02,,,,1.68,0.97,1.37,1*0B
$GNGSA,A,3,,,,,,,,,,,,,1.68,0.97,1.37,4*00
$GPGSV,3,1,10,01,18,117,35,02,17,314,35,04,45,279,36,07
,64,205,36,0*60
$GPGSV,3,2,10,08,24,212,35,13,61,351,36,16,13,057,35,20,44,116,36,0*6B
$GPGSV,3,3,10,23,47,041,36,25,86,194,36,0*66
$BDGSV,1,1,00,0*74

<????sim??????(SIM??:1)>
<????GSM????????(GSM:0)>
<????GPRS????????(GPRS:0)>
<????????????(SIGNAL:0)>
<????????????????(BER:0)>

<??????????????>

$GNRMC,000711.00,A,3129.214866,N,12118.000006,E,9.720,360.00,200720,,,A,V*08
$GNGGA,000711.00,3129.214866,N,12118.000006,E,1,09,0.97,40.2,M,9.5,M,,*43
$GNGSA,A,3,04,01,07,08,13,20,23,25,02,,,,1.68,0.97,1.37,1*0B
$GNGSA,A,3,,,,,,,,,,,,,1.68,0.97,1.37,4*00
$GPGSV,3,1,10,01,18,117,35,02,17,314,35,04,45,279,36,
07,64,205,36,0*60
$GPGSV,3,2,10,08,24,212,35,13,61,351,36,16,13,057,35,20,44,116,36,0*6B
$GPGSV,3,3,10,23,47,041,36,25,86,194,36,0*66
$BDGSV,1,1,00,0*74

$GNRMC,000712.00,A,3129.217569,N,12118.000014,E,9.726,0.01,200720,,,A,V*0B
$GNGGA,000712.00,3129.217569,N,12118.000014,E,1,09,0.97,40.2,M,9.5,M,,*42
$GNGSA,A,3,04,01,07,08,13,20,23,25,02,,,,1.68,0.97,1.37,1*0B
$GNGSA,A,3,,,,,,,,,,,,,1.68,0.97,1.37,4*00
$GPGSV,3,1,10,01,18,117,35,02,17,314,35,04,45,279,36,07
,64,205,36,0*60
$GPGSV,3,2,10,08,24,212,35,13,61,351,36,16,13,057,35,20,44,116,36,0*6B
$GPGSV,3,3,10,23,47,041,36,25,86,194,36,0*66
$BDGSV,1,1,00,0*74

$GNRMC,000713.00,A,3129.220265,N,12118.000020,E,9.708,0.02,200720,,,A,V*0D
$GNGGA,000713.00,3129.220265,N,12118.000020,E,1,09,0.97,40.2,M,9.5,M,,*4B
$GNGSA,A,3,04,01,07,08,13,20,23,25,02,,,,1.68,0.97,1.37,1*0B
$GNGSA,A,3,,,,,,,,,,,,,1.68,0.97,1.37,4*00
$GPGSV,3,1,10,01,18,117,35,02,17,314,35,04,45,279,36,07
,64,205,36,0*60
$GPGSV,3,2,10,08,24,212,35,13,61,351,36,16,13,057,35,20,44,116,36,0*6B
$GPGSV,3,3,10,23,47,041,36,25,86,194,36,0*66
$BDGSV,1,1,00,0*74

$GNRMC,000714.00,A,3129.222971,N,12118.000024,E,9.734,0.03,200720,,,A,V*0C
$GNGGA,000714.00,3129.222971,N,12118.000024,E,1,09,0.97,40.2,M,9.5,M,,*44
$GNGSA,A,3,04,01,07,08,13,20,23,25,02,,,,1.68,0.97,1.37,1*0B
$GNGSA,A,3,,,,,,,,,,,,,1.68,0.97,1.37,4*00
$GPGSV,3,1,10,01,18,117,35,02,17,314,35,04,45,279,36,07
,64,205,36,0*60
$GPGSV,3,2,10,08,24,212,35,13,61,351,36,16,13,057,35,20,44,116,36,0*6B
$GPGSV,3,3,10,23,47,041,36,25,86,194,36,0*66
$BDGSV,1,1,00,0*74

$GNRMC,000715.00,A,3129.225668,N,12118.000027,E,9.721,360.00,200720,,,A,V*0C
$GNGGA,000715.00,3129.225668,N,12118.000027,E,1,09,0.97,40.3,M,9.5,M,,*47
$GNGSA,A,3,04,01,07,08,13,20,23,25,02,,,,1.68,0.97,1.37,1*0B
$GNGSA,A,3,,,,,,,,,,,,,1.68,0.97,1.37,4*00
$GPGSV,3,1,10,01,18,117,35,02,17,314,35,04,45,279,36,
07,64,205,36,0*60
$GPGSV,3,2,10,08,24,212,35,13,61,351,36,16,13,057,35,20,44,116,36,0*6B
$GPGSV,3,3,10,23,47,041,36,25,86,194,36,0*66
$BDGSV,1,1,00,0*74

$GNRMC,000716.00,A,3129.228370,N,12118.000028,E,9.717,359.97,200720,,,A,V*00
$GNGGA,000716.00,3129.228370,N,12118.000028,E,1,09,0.97,40.3,M,9.5,M,,*4A
$GNGSA,A,3,04,01,07,08,13,20,23,25,02,,,,1.68,0.97,1.37,1*0B
$GNGSA,A,3,,,,,,,,,,,,,1.68,0.97,1.37,4*00
$GPGSV,3,1,10,01,18,117,35,02,17,314,35,04,45,279,36,
07,64,205,36,0*60
$GPGSV,3,2,10,08,24,212,35,13,61,351,36,16,13,057,35,20,44,116,36,0*6B
$GPGSV,3,3,10,23,47,041,36,25,86,194,36,0*66
$BDGSV,1,1,00,0*74

$GNRMC,000717.00,A,3129.231078,N,12118.000035,E,9.732,0.02,200720,,,A,V*0A
$GNGGA,000717.00,3129.231078,N,12118.000035,E,1,09,0.97,40.3,M,9.5,M,,*44
$GNGSA,A,3,04,01,07,08,13,20,23,25,02,,,,1.68,0.97,1.37,1*0B
$GNGSA,A,3,,,,,,,,,,,,,1.68,0.97,1.37,4*00
$GPGSV,3,1,10,01,18,117,35,02,17,314,35,04,45,279,36,07
,64,205,36,0*60
$GPGSV,3,2,10,08,24,212,35,13,61,351,36,16,13,057,35,20,44,116,36,0*6B
$GPGSV,3,3,10,23,47,041,36,25,86,194,36,0*66
$BDGSV,1,1,00,0*74

$GNRMC,000718.00,A,3129.233779,N,12118.000041,E,9.713,0.01,200720,,,A,V*02
$GNGGA,000718.00,3129.233779,N,12118.000041,E,1,09,0.97,40.3,M,9.5,M,,*4C
$GNGSA,A,3,04,01,07,08,13,20,23,25,02,,,,1.68,0.97,1.37,1*0B
$GNGSA,A,3,,,,,,,,,,,,,1.68,0.97,1.37,4*00
$GPGSV,3,1,10,01,18,117,35,02,17,314,35,04,45,279,36,07
,64,205,36,0*60
$GPGSV,3,2,10,08,24,212,35,13,61,351,36,16,13,057,35,20,44,116,36,0*6B
$GPGSV,3,3,10,23,47,041,36,25,86,194,36,0*66
$BDGSV,1,1,00,0*74

$GNRMC,000719.00,A,3129.236485,N,12118.000048,E,9.734,0.05,200720,,,A,V*0E
$GNGGA,000719.00,3129.236485,N,12118.000048,E,1,09,0.97,40.3,M,9.5,M,,*41
$GNGSA,A,3,04,01,07,08,13,20,23,25,02,,,,1.68,0.97,1.37,1*0B
$GNGSA,A,3,,,,,,,,,,,,,1.68,0.97,1.37,4*00
$GPGSV,3,1,10,01,18,117,35,02,17,314,35,04,45,279,36,07
,64,205,36,0*60
$GPGSV,3,2,10,08,24,212,35,13,61,351,36,16,13,057,34,20,44,116,36,0*6A
$GPGSV,3,3,10,23,47,041,36,25,86,194,36,0*66
$BDGSV,1,1,00,0*74

$GNRMC,000720.00,A,3129.239187,N,12118.000050,E,9.719,359.98,200720,,,A,V*01
$GNGGA,000720.00,3129.239187,N,12118.000050,E,1,09,0.97,40.3,M,9.5,M,,*4A
$GNGSA,A,3,04,01,07,08,13,20,23,25,02,,,,1.68,0.97,1.37,1*0B
$GNGSA,A,3,,,,,,,,,,,,,1.68,0.97,1.37,4*00
$GPGSV,3,1,10,01,18,117,35,02,17,314,35,04,45,279,36,
07,64,205,36,0*60
$GPGSV,3,2,10,08,24,212,35,13,61,351,36,16,13,057,35,20,44,116,36,0*6B
$GPGSV,3,3,10,23,47,041,36,25,86,194,36,0*66
$BDGSV,1,1,00,0*74

<??????????????>

$GNRMC,000721.00,A,3129.241888,N,12118.000054,E,9.722,359.98,200720,,,A,V*05
$GNGGA,000721.00,3129.241888,N,12118.000054,E,1,09,0.97,40.3,M,9.5,M,,*46
$GNGSA,A,3,04,01,07,08,13,20,23,25,02,,,,1.68,0.97,1.37,1*0B
$GNGSA,A,3,,,,,,,,,,,,,1.68,0.97,1.37,4*00
$GPGSV,3,1,10,01,18,117,35,02,17,314,35,04,45,279,36,
07,64,205,36,0*60
$GPGSV,3,2,10,08,24,212,35,13,61,351,36,16,13,057,35,20,44,116,36,0*6B
$GPGSV,3,3,10,23,47,041,36,25,86,194,36,0*66
$BDGSV,1,1,00,0*74

$GNRMC,000722.00,A,3129.244596,N,12118.000061,E,9.720,0.01,200720,,,A,V*0A
$GNGGA,000722.00,3129.244596,N,12118.000061,E,1,09,0.97,40.3,M,9.5,M,,*44
$GNGSA,A,3,04,01,07,08,13,20,23,25,02,,,,1.68,0.97,1.37,1*0B
$GNGSA,A,3,,,,,,,,,,,,,1.68,0.97,1.37,4*00
$GPGSV,3,1,10,01,18,117,35,02,17,314,35,04,45,279,36,07
,64,205,36,0*60
$GPGSV,3,2,10,08,24,212,35,13,61,351,36,16,13,057,35,20,44,116,36,0*6B
$GPGSV,3,3,10,23,47,041,36,25,86,194,36,0*66
$BDGSV,1,1,00,0*74

$GNRMC,000723.00,A,3129.247301,N,12118.000069,E,9.716,0.00,200720,,,A,V*0C
$GNGGA,000723.00,3129.247301,N,12118.000069,E,1,09,0.97,40.3,M,9.5,M,,*46
$GNGSA,A,3,04,01,07,08,13,20,23,25,02,,,,1.68,0.97,1.37,1*0B
$GNGSA,A,3,,,,,,,,,,,,,1.68,0.97,1.37,4*00
$GPGSV,3,1,10,01,18,117,35,02,17,314,35,04,45,279,36,07
,64,205,36,0*60
$GPGSV,3,2,10,08,24,212,35,13,61,351,36,16,13,057,35,20,44,116,36,0*6B
$GPGSV,3,3,10,23,47,041,36,25,86,194,36,0*66
$BDGSV,1,1,00,0*74

$GNRMC,000724.00,A,3129.250014,N,12118.000079,E,9.733,0.04,200720,,,A,V*08
$GNGGA,000724.00,3129.250014,N,12118.000079,E,1,09,0.97,40.3,M,9.5,M,,*41
$GNGSA,A,3,04,01,07,08,13,20,23,25,02,,,,1.68,0.97,1.37,1*0B
$GNGSA,A,3,,,,,,,,,,,,,1.68,0.97,1.37,4*00
$GPGSV,3,1,10,01,18,117,35,02,17,314,35,04,45,279,36,07
,64,205,36,0*60
$GPGSV,3,2,10,08,24,212,35,13,61,351,36,16,13,057,35,20,44,116,36,0*6B
$GPGSV,3,3,10,23,47,041,36,25,86,194,36,0*66
$BDGSV,1,1,00,0*74

$GNRMC,000725.00,A,3129.252724,N,12118.000086,E,9.723,0.01,200720,,,A,V*0B
$GNGGA,000725.00,3129.252724,N,12118.000086,E,1,09,0.97,40.3,M,9.5,M,,*46
$GNGSA,A,3,04,01,07,08,13,20,23,25,02,,,,1.68,0.97,1.37,1*0B
$GNGSA,A,3,,,,,,,,,,,,,1.68,0.97,1.37,4*00
$GPGSV,3,1,10,01,18,117,35,02,17,314,35,04,45,279,36,07
,64,205,36,0*60
$GPGSV,3,2,10,08,24,212,35,13,61,351,36,16,13,057,35,20,44,116,36,0*6B
$GPGSV,3,3,10,23,47,041,36,25,86,194,36,0*66
$BDGSV,1,1,00,0*74

$GNRMC,000726.00,A,3129.255439,N,12118.000097,E,9.724,0.01,200720,,,A,V*07
$GNGGA,000726.00,3129.255439,N,12118.000097,E,1,09,0.97,40.3,M,9.5,M,,*4D
$GNGSA,A,3,04,01,07,08,13,20,23,25,02,,,,1.68,0.97,1.37,1*0B
$GNGSA,A,3,,,,,,,,,,,,,1.68,0.97,1.37,4*00
$GPGSV,3,1,10,01,18,117,35,02,17,314,35,04,45,279,36,07
,64,205,36,0*60
$GPGSV,3,2,10,08,24,212,35,13,61,351,36,16,13,057,35,20,44,116,36,0*6B
$GPGSV,3,3,10,23,47,041,36,25,86,194,36,0*66
$BDGSV,1,1,00,0*74

$GNRMC,000727.00,A,3129.258152,N,12118.000106,E,9.723,0.01,200720,,,A,V*0D
$GNGGA,000727.00,3129.258152,N,12118.000106,E,1,09,0.97,40.3,M,9.5,M,,*40
$GNGSA,A,3,04,01,07,08,13,20,23,25,02,,,,1.68,0.97,1.37,1*0B
$GNGSA,A,3,,,,,,,,,,,,,1.68,0.97,1.37,4*00
$GPGSV,3,1,10,01,18,117,35,02,17,314,35,04,45,279,36,07
,64,205,36,0*60
$GPGSV,3,2,10,08,24,212,35,13,61,351,36,16,13,057,34,20,44,116,36,0*6A
$GPGSV,3,3,10,23,47,041,36,25,86,194,36,0*66
$BDGSV,1,1,00,0*74

$GNRMC,000728.00,A,3129.260865,N,12118.000113,E,9.724,0.04,200720,,,A,V*02
$GNGGA,000728.00,3129.260865,N,12118.000113,E,1,09,0.97,40.3,M,9.5,M,,*4D
$GNGSA,A,3,04,01,07,08,13,20,23,25,02,,,,1.68,0.97,1.37,1*0B
$GNGSA,A,3,,,,,,,,,,,,,1.68,0.97,1.37,4*00
$GPGSV,3,1,10,01,18,117,35,02,17,314,35,04,45,279,36,07
,64,205,36,0*60
$GPGSV,3,2,10,08,24,212,35,13,61,351,36,16,13,057,35,20,44,116,36,0*6B
$GPGSV,3,3,10,23,47,041,36,25,86,194,36,0*66
$BDGSV,1,1,00,0*74

$GNRMC,000729.00,A,3129.263580,N,12118.000114,E,9.718,359.97,200720,,,A,V*0B
$GNGGA,000729.00,3129.263580,N,12118.000114,E,1,09,0.97,40.3,M,9.5,M,,*4E
$GNGSA,A,3,04,01,07,08,13,20,23,25,02,,,,1.68,0.97,1.37,1*0B
$GNGSA,A,3,,,,,,,,,,,,,1.68,0.97,1.37,4*00
$GPGSV,3,1,10,01,18,117,35,02,17,314,35,04,45,279,36,
07,64,205,36,0*60
$GPGSV,3,2,10,08,24,212,35,13,61,351,36,16,13,057,35,20,44,116,36,0*6B
$GPGSV,3,3,10,23,47,041,36,25,86,194,36,0*66
$BDGSV,1,1,00,0*74

$GNRMC,000730.00,A,3129.266290,N,12118.000117,E,9.721,0.01,200720,,,A,V*09
$GNGGA,000730.00,3129.266290,N,12118.000117,E,1,09,0.97,40.3,M,9.5,M,,*46
$GNGSA,A,3,04,01,07,08,13,20,23,25,02,,,,1.68,0.97,1.37,1*0B
$GNGSA,A,3,,,,,,,,,,,,,1.68,0.97,1.37,4*00
$GPGSV,3,1,10,01,18,117,35,02,17,314,35,04,45,279,36,07
,64,205,36,0*60
$GPGSV,3,2,10,08,24,212,35,13,61,351,36,16,13,057,35,20,44,116,36,0*6B
$GPGSV,3,3,10,23,47,041,36,25,86,194,36,0*66
$BDGSV,1,1,00,0*74

<????sim??????(SIM??:1)>
<????GSM????????(GSM:0)>
<????GPRS????????(GPRS:0)>
<????????????(SIGNAL:0)>
<????????????????(BER:0)>

<??????????????>

$GNRMC,000731.00,A,3129.268999,N,12118.000119,E,9.723,0.03,200720,,,A,V*0A
$GNGGA,000731.00,3129.268999,N,12118.000119,E,1,09,0.97,40.3,M,9.5,M,,*45
$GNGSA,A,3,04,01,07,08,13,20,23,25,02,,,,1.68,0.97,1.37,1*0B
$GNGSA,A,3,,,,,,,,,,,,,1.68,0.97,1.37,4*00
$GPGSV,3,1,10,01,18,117,35,02,17,314,35,04,45,279,36,07
,64,205,36,0*60
$GPGSV,3,2,10,08,24,212,35,13,61,351,36,16,13,057,35,20,44,116,36,0*6B
$GPGSV,3,3,10,23,47,041,36,25,86,194,36,0*66
$BDGSV,1,1,00,0*74

$GNRMC,000732.00,A,3129.271709,N,12118.000118,E,9.726,0.00,200720,,,A,V*01
$GNGGA,000732.00,3129.271709,N,12118.000118,E,1,09,0.97,40.3,M,9.5,M,,*48
$GNGSA,A,3,04,01,07,08,13,20,23,25,02,,,,1.68,0.97,1.37,1*0B
$GNGSA,A,3,,,,,,,,,,,,,1.68,0.97,1.37,4*00
$GPGSV,3,1,10,01,18,117,35,02,17,314,35,04,45,279,36,07
,64,205,36,0*60
$GPGSV,3,2,10,08,24,212,35,13,61,351,36,16,13,057,35,20,44,116,36,0*6B
$GPGSV,3,3,10,23,47,041,36,25,86,194,36,0*66
$BDGSV,1,1,00,0*74

$GNRMC,000733.00,A,3129.274416,N,12118.000114,E,9.716,359.96,200720,,,A,V*07
$GNGGA,000733.00,3129.274416,N,12118.000114,E,1,09,0.97,40.3,M,9.5,M,,*4D
$GNGSA,A,3,04,01,07,08,13,20,23,25,02,,,,1.68,0.97,1.37,1*0B
$GNGSA,A,3,,,,,,,,,,,,,1.68,0.97,1.37,4*00
$GPGSV,3,1,10,01,18,117,35,02,17,314,35,04,45,279,36,
07,64,205,36,0*60
$GPGSV,3,2,10,08,24,212,35,13,61,351,36,16,13,057,35,20,44,116,36,0*6B
$GPGSV,3,3,10,23,47,041,36,25,86,194,36,0*66
$BDGSV,1,1,00,0*74

$GNRMC,000734.00,A,3129.277126,N,12118.000113,E,9.718,0.04,200720,,,A,V*08
$GNGGA,000734.00,3129.277126,N,12118.000113,E,1,09,0.97,40.3,M,9.5,M,,*48
$GNGSA,A,3,04,01,07,08,13,20,23,25,02,,,,1.68,0.97,1.37,1*0B
$GNGSA,A,3,,,,,,,,,,,,,1.68,0.97,1.37,4*00
$GPGSV,3,1,10,01,18,117,35,02,17,314,35,04,45,279,35,07
,64,205,36,0*63
$GPGSV,3,2,10,08,24,212,35,13,61,351,36,16,13,057,35,20,44,116,36,0*6B
$GPGSV,3,3,10,23,47,041,36,25,86,194,36,0*66
$BDGSV,1,1,00,0*74

$GNRMC,000735.00,A,3129.279834,N,12118.000105,E,9.725,359.97,200720,,,A,V*01
$GNGGA,000735.00,3129.279834,N,12118.000105,E,1,09,0.97,40.3,M,9.5,M,,*4A
$GNGSA,A,3,04,01,07,08,13,20,23,25,02,,,,1.68,0.97,1.37,1*0B
$GNGSA,A,3,,,,,,,,,,,,,1.68,0.97,1.37,4*00
$GPGSV,3,1,10,01,18,117,35,02,17,314,35,04,45,279,36,
07,64,205,36,0*60
$GPGSV,3,2,10,08,24,212,35,13,61,351,36,16,13,057,35,20,44,116,36,0*6B
$GPGSV,3,3,10,23,47,041,36,25,86,194,36,0*66
$BDGSV,1,1,00,0*74


GPS HPregnss> E1 15 00 00 00 00 07 54 D4 B5 31 00 00 00 1C 3E 0B 23 D6 00 00 00 00 


$GNRMC,000736.00,A,3129.282540,N,12118.000098,E,9.720,0.04,200720,,,A,V*0D
$GNGGA,000736.00,3129.282540,N,12118.000098,E,1,09,0.97,40.3,M,9.5,M,,*46
$GNGSA,A,3,04,01,07,08,13,20,23,25,02,,,,1.68,0.97,1.37,1*0B
$GNGSA,A,3,,,,,,,,,,,,,1.68,0.97,1.37,4*00
$GPGSV,3,1,10,01,18,117,35,02,17,314,35,04,45,279,36,07
,64,205,36,0*60
$GPGSV,3,2,10,08,24,212,35,13,61,352,36,16,13,057,35,20,44,116,36,0*68
$GPGSV,3,3,10,23,47,041,36,25,86,194,36,0*66
$BDGSV,1,1,00,0*74

$GNRMC,000737.00,A,3129.285241,N,12118.000088,E,9.712,359.99,200720,,,A,V*06
$GNGGA,000737.00,3129.285241,N,12118.000088,E,1,09,0.97,40.3,M,9.5,M,,*47
$GNGSA,A,3,04,01,07,08,13,20,23,25,02,,,,1.68,0.97,1.37,1*0B
$GNGSA,A,3,,,,,,,,,,,,,1.68,0.97,1.37,4*00
$GPGSV,3,1,10,01,18,117,35,02,17,314,35,04,45,279,36,
07,64,205,36,0*60
$GPGSV,3,2,10,08,24,212,35,13,61,352,36,16,13,057,35,20,44,116,36,0*68
$GPGSV,3,3,10,23,47,041,36,25,86,194,36,0*66
$BDGSV,1,1,00,0*74

$GNRMC,000738.00,A,3129.287944,N,12118.000076,E,9.725,359.94,200720,,,A,V*0D
$GNGGA,000738.00,3129.287944,N,12118.000076,E,1,09,0.97,40.3,M,9.5,M,,*45
$GNGSA,A,3,04,01,07,08,13,20,23,25,02,,,,1.68,0.97,1.37,1*0B
$GNGSA,A,3,,,,,,,,,,,,,1.68,0.97,1.37,4*00
$GPGSV,3,1,10,01,18,117,35,02,17,314,35,04,45,279,36,
07,64,205,36,0*60
$GPGSV,3,2,10,08,24,212,35,13,61,352,36,16,13,057,35,20,44,116,36,0*68
$GPGSV,3,3,10,23,47,041,36,25,86,194,36,0*66
$BDGSV,1,1,00,0*74

$GNRMC,000739.00,A,3129.290650,N,12118.000072,E,9.726,0.03,200720,,,A,V*06
$GNGGA,000739.00,3129.290650,N,12118.000072,E,1,09,0.97,40.3,M,9.5,M,,*4C
$GNGSA,A,3,04,01,07,08,13,20,23,25,02,,,,1.68,0.97,1.37,1*0B
$GNGSA,A,3,,,,,,,,,,,,,1.68,0.97,1.37,4*00
$GPGSV,3,1,10,01,18,117,35,02,17,314,35,04,45,279,36,07
,64,205,36,0*60
$GPGSV,3,2,10,08,24,212,35,13,61,352,36,16,13,057,35,20,44,116,36,0*68
$GPGSV,3,3,10,23,47,041,36,25,86,194,36,0*66
$BDGSV,1,1,00,0*74

$GNRMC,000740.00,A,3129.293350,N,12118.000070,E,9.707,359.96,200720,,,A,V*0C
$GNGGA,000740.00,3129.293350,N,12118.000070,E,1,09,0.97,40.3,M,9.5,M,,*46
$GNGSA,A,3,04,01,07,08,13,20,23,25,02,,,,1.68,0.97,1.37,1*0B
$GNGSA,A,3,,,,,,,,,,,,,1.68,0.97,1.37,4*00
$GPGSV,3,1,10,01,18,117,35,02,17,314,35,04,45,279,36,
07,64,205,36,0*60
$GPGSV,3,2,10,08,24,212,35,13,61,352,36,16,13,057,35,20,44,116,36,0*68
$GPGSV,3,3,10,23,47,041,36,25,86,194,36,0*66
$BDGSV,1,1,00,0*74

<??????????????>

$GNRMC,000741.00,A,3129.296062,N,12118.000075,E,9.729,0.04,200720,,,A,V*07
$GNGGA,000741.00,3129.296062,N,12118.000075,E,1,09,0.97,40.4,M,9.5,M,,*42
$GNGSA,A,3,04,01,07,08,13,20,23,25,02,,,,1.68,0.97,1.37,1*0B
$GNGSA,A,3,,,,,,,,,,,,,1.68,0.97,1.37,4*00
$GPGSV,3,1,10,01,18,117,35,02,17,314,35,04,45,279,36,07
,64,205,36,0*60
$GPGSV,3,2,10,08,24,212,35,13,61,352,36,16,13,057,35,20,44,116,36,0*68
$GPGSV,3,3,10,23,47,041,36,25,86,194,36,0*66
$BDGSV,1,1,00,0*74

$GNRMC,000742.00,A,3129.298771,N,12118.000082,E,9.718,0.01,200720,,,A,V*00
$GNGGA,000742.00,3129.298771,N,12118.000082,E,1,09,0.97,40.4,M,9.5,M,,*42
$GNGSA,A,3,04,01,07,08,13,20,23,25,02,,,,1.68,0.97,1.37,1*0B
$GNGSA,A,3,,,,,,,,,,,,,1.68,0.97,1.37,4*00
$GPGSV,3,1,10,01,18,117,35,02,17,314,35,04,45,279,35,07
,64,205,36,0*63
$GPGSV,3,2,10,08,24,212,35,13,61,352,36,16,13,057,35,20,44,116,36,0*68
$GPGSV,3,3,10,23,47,041,36,25,86,194,36,0*66
$BDGSV,1,1,00,0*74

$GNRMC,000743.00,A,3129.301478,N,12118.000090,E,9.720,0.02,200720,,,A,V*01
$GNGGA,000743.00,3129.301478,N,12118.000090,E,1,09,0.97,40.4,M,9.5,M,,*4B
$GNGSA,A,3,04,01,07,08,13,20,23,25,02,,,,1.68,0.97,1.37,1*0B
$GNGSA,A,3,,,,,,,,,,,,,1.68,0.97,1.37,4*00
$GPGSV,3,1,10,01,18,117,35,02,17,314,35,04,45,279,36,07
,64,205,36,0*60
$GPGSV,3,2,10,08,24,212,35,13,61,352,36,16,13,057,35,20,44,116,36,0*68
$GPGSV,3,3,10,23,47,041,36,25,86,194,36,0*66
$BDGSV,1,1,00,0*74

$GNRMC,000744.00,A,3129.304187,N,12118.000096,E,9.726,0.02,200720,,,A,V*06
$GNGGA,000744.00,3129.304187,N,12118.000096,E,1,09,0.97,40.3,M,9.5,M,,*4D
$GNGSA,A,3,04,01,07,08,13,20,23,25,02,,,,1.68,0.97,1.37,1*0B
$GNGSA,A,3,,,,,,,,,,,,,1.68,0.97,1.37,4*00
$GPGSV,3,1,10,01,18,117,35,02,17,314,35,04,45,279,36,07
,64,205,36,0*60
$GPGSV,3,2,10,08,24,212,35,13,61,352,36,16,13,057,35,20,44,116,36,0*68
$GPGSV,3,3,10,23,47,041,36,25,86,194,36,0*66
$BDGSV,1,1,00,0*74

$GNRMC,000745.00,A,3129.306895,N,12118.000097,E,9.720,359.96,200720,,,A,V*0A
$GNGGA,000745.00,3129.306895,N,12118.000097,E,1,09,0.97,40.4,M,9.5,M,,*42
$GNGSA,A,3,04,01,07,08,13,20,23,25,02,,,,1.68,0.97,1.37,1*0B
$GNGSA,A,3,,,,,,,,,,,,,1.68,0.97,1.37,4*00
$GPGSV,3,1,10,01,18,117,35,02,17,314,35,04,45,279,36,
07,64,205,36,0*60
$GPGSV,3,2,10,08,24,212,35,13,61,352,36,16,13,057,35,20,44,116,36,0*68
$GPGSV,3,3,10,23,47,041,36,25,86,194,36,0*66
$BDGSV,1,1,00,0*74

$GNRMC,000746.00,A,3129.309602,N,12118.000098,E,9.723,0.01,200720,,,A,V*0B
$GNGGA,000746.00,3129.309602,N,12118.000098,E,1,09,0.97,40.4,M,9.5,M,,*41
$GNGSA,A,3,04,01,07,08,13,20,23,25,02,,,,1.68,0.97,1.37,1*0B
$GNGSA,A,3,,,,,,,,,,,,,1.68,0.97,1.37,4*00
$GPGSV,3,1,10,01,18,117,35,02,17,314,35,04,45,279,36,07
,64,205,36,0*60
$GPGSV,3,2,10,08,24,212,35,13,61,352,36,16,13,057,35,20,44,116,36,0*68
$GPGSV,3,3,10,23,47,041,36,25,86,194,36,0*66
$BDGSV,1,1,00,0*74

$GNRMC,000747.00,A,3129.312310,N,12118.000099,E,9.723,360.00,200720,,,A,V*03
$GNGGA,000747.00,3129.312310,N,12118.000099,E,1,09,0.97,40.4,M,9.5,M,,*4D
$GNGSA,A,3,04,01,07,08,13,20,23,25,02,,,,1.68,0.97,1.37,1*0B
$GNGSA,A,3,,,,,,,,,,,,,1.68,0.97,1.37,4*00
$GPGSV,3,1,10,01,18,117,35,02,17,314,35,04,45,279,36,
07,64,205,36,0*60
$GPGSV,3,2,10,08,24,212,35,13,61,352,36,16,13,057,35,20,44,116,36,0*68
$GPGSV,3,3,10,23,47,041,36,25,86,194,36,0*66
$BDGSV,1,1,00,0*74

$GNRMC,000748.00,A,3129.315016,N,12118.000098,E,9.724,359.99,200720,,,A,V*02
$GNGGA,000748.00,3129.315016,N,12118.000098,E,1,09,0.97,40.3,M,9.5,M,,*46
$GNGSA,A,3,04,01,07,08,13,20,23,25,02,,,,1.68,0.97,1.37,1*0B
$GNGSA,A,3,,,,,,,,,,,,,1.68,0.97,1.37,4*00
$GPGSV,3,1,10,01,18,117,35,02,17,314,35,04,45,279,36,
07,64,205,36,0*60
$GPGSV,3,2,10,08,24,212,35,13,61,352,36,16,13,057,35,20,44,116,36,0*68
$GPGSV,3,3,10,23,47,041,36,25,86,194,36,0*66
$BDGSV,1,1,00,0*74

$GNRMC,000749.00,A,3129.317721,N,12118.000104,E,9.725,0.08,200720,,,A,V*00
$GNGGA,000749.00,3129.317721,N,12118.000104,E,1,09,0.97,40.3,M,9.5,M,,*42
$GNGSA,A,3,04,01,07,08,13,20,23,25,02,,,,1.68,0.97,1.37,1*0B
$GNGSA,A,3,,,,,,,,,,,,,1.68,0.97,1.37,4*00
$GPGSV,3,1,10,01,18,117,35,02,17,314,35,04,45,279,36,07
,64,205,36,0*60
$GPGSV,3,2,10,08,24,212,35,13,61,352,36,16,13,057,35,20,44,116,36,0*68
$GPGSV,3,3,10,23,47,041,36,25,86,194,36,0*66
$BDGSV,1,1,00,0*74

$GNRMC,000750.00,A,3129.320427,N,12118.000104,E,9.725,359.98,200720,,,A,V*0F
$GNGGA,000750.00,3129.320427,N,12118.000104,E,1,09,0.97,40.3,M,9.5,M,,*4B
$GNGSA,A,3,04,01,07,08,13,20,23,25,02,,,,1.68,0.97,1.37,1*0B
$GNGSA,A,3,,,,,,,,,,,,,1.68,0.97,1.37,4*00
$GPGSV,3,1,10,01,18,117,35,02,17,314,35,04,45,279,36,
07,64,205,36,0*60
$GPGSV,3,2,10,08,24,212,35,13,61,352,36,16,13,057,35,20,44,116,36,0*68
$GPGSV,3,3,10,23,47,041,36,25,86,194,36,0*66
$BDGSV,1,1,00,0*74

<????sim??????(SIM??:1)>
<????GSM????????(GSM:0)>
<????GPRS????????(GPRS:0)>
<????????????(SIGNAL:0)>
<????????????????(BER:0)>

<??????????????>

$GNRMC,000751.00,A,3129.323128,N,12118.000106,E,9.714,0.01,200720,,,A,V*08
$GNGGA,000751.00,3129.323128,N,12118.000106,E,1,09,0.97,40.3,M,9.5,M,,*41
$GNGSA,A,3,04,01,07,08,13,20,23,25,02,,,,1.68,0.97,1.37,1*0B
$GNGSA,A,3,,,,,,,,,,,,,1.68,0.97,1.37,4*00
$GPGSV,3,1,10,01,18,117,35,02,17,314,35,04,45,279,36,07
,64,205,36,0*60
$GPGSV,3,2,10,08,24,212,35,13,61,352,36,16,13,057,35,20,44,116,36,0*68
$GPGSV,3,3,10,23,47,041,36,25,86,194,36,0*66
$BDGSV,1,1,00,0*74

$GNRMC,000752.00,A,3129.325831,N,12118.000104,E,9.725,359.96,200720,,,A,V*0D
$GNGGA,000752.00,3129.325831,N,12118.000104,E,1,09,0.97,40.3,M,9.5,M,,*47
$GNGSA,A,3,04,01,07,08,13,20,23,25,02,,,,1.68,0.97,1.37,1*0B
$GNGSA,A,3,,,,,,,,,,,,,1.68,0.97,1.37,4*00
$GPGSV,3,1,10,01,18,117,35,02,17,314,35,04,45,279,36,
07,64,205,36,0*60
$GPGSV,3,2,10,08,24,212,35,13,61,352,36,16,13,057,35,20,44,116,36,0*68
$GPGSV,3,3,10,23,47,041,36,25,86,194,36,0*66
$BDGSV,1,1,00,0*74

$GNRMC,000753.00,A,3129.328532,N,12118.000108,E,9.722,0.05,200720,,,A,V*01
$GNGGA,000753.00,3129.328532,N,12118.000108,E,1,09,0.97,40.3,M,9.5,M,,*49
$GNGSA,A,3,04,01,07,08,13,20,23,25,02,,,,1.68,0.97,1.37,1*0B
$GNGSA,A,3,,,,,,,,,,,,,1.68,0.97,1.37,4*00
$GPGSV,3,1,10,01,18,117,35,02,17,314,35,04,45,279,36,07
,64,205,36,0*60
$GPGSV,3,2,10,08,24,212,35,13,61,352,36,16,13,057,35,20,44,116,36,0*68
$GPGSV,3,3,10,23,47,041,36,25,86,194,36,0*66
$BDGSV,1,1,00,0*74

$GNRMC,000754.00,A,3129.331238,N,12118.000108,E,9.730,0.00,200720,,,A,V*05
$GNGGA,000754.00,3129.331238,N,12118.000108,E,1,09,0.97,40.3,M,9.5,M,,*4B
$GNGSA,A,3,04,01,07,08,13,20,23,25,02,,,,1.68,0.97,1.37,1*0B
$GNGSA,A,3,,,,,,,,,,,,,1.68,0.97,1.37,4*00
$GPGSV,3,1,10,01,18,117,35,02,17,314,35,04,45,279,36,07
,64,205,36,0*60
$GPGSV,3,2,10,08,24,212,35,13,61,352,36,16,13,056,35,20,44,116,36,0*69
$GPGSV,3,3,10,23,47,041,36,25,86,194,36,0*66
$BDGSV,1,1,00,0*74

$GNRMC,000755.00,A,3129.333940,N,12118.000106,E,9.711,359.97,200720,,,A,V*0E
$GNGGA,000755.00,3129.333940,N,12118.000106,E,1,09,0.97,40.3,M,9.5,M,,*42
$GNGSA,A,3,04,01,07,08,13,20,23,25,02,,,,1.68,0.97,1.37,1*0B
$GNGSA,A,3,,,,,,,,,,,,,1.68,0.97,1.37,4*00
$GPGSV,3,1,10,01,18,117,35,02,17,314,35,04,45,279,36,
07,64,205,36,0*60
$GPGSV,3,2,10,08,24,212,35,13,61,352,36,16,13,056,35,20,44,116,36,0*69
$GPGSV,3,3,10,23,47,041,36,25,86,194,36,0*66
$BDGSV,1,1,00,0*74

$GNRMC,000756.00,A,3129.336648,N,12118.000107,E,9.729,0.03,200720,,,A,V*07
$GNGGA,000756.00,3129.336648,N,12118.000107,E,1,09,0.97,40.3,M,9.5,M,,*42
$GNGSA,A,3,04,01,07,08,13,20,23,25,02,,,,1.68,0.97,1.37,1*0B
$GNGSA,A,3,,,,,,,,,,,,,1.68,0.97,1.37,4*00
$GPGSV,3,1,10,01,18,117,35,02,17,314,35,04,45,279,36,07
,64,205,36,0*60
$GPGSV,3,2,10,08,24,212,35,13,61,352,36,16,13,056,35,20,44,116,36,0*69
$GPGSV,3,3,10,23,47,041,36,25,86,194,36,0*66
$BDGSV,1,1,00,0*74

$GNRMC,000757.00,A,3129.339348,N,12118.000103,E,9.716,359.98,200720,,,A,V*09
$GNGGA,000757.00,3129.339348,N,12118.000103,E,1,09,0.97,40.3,M,9.5,M,,*4D
$GNGSA,A,3,04,01,07,08,13,20,23,25,02,,,,1.68,0.97,1.37,1*0B
$GNGSA,A,3,,,,,,,,,,,,,1.68,0.97,1.37,4*00
$GPGSV,3,1,10,01,18,117,35,02,17,314,35,04,45,279,36,
07,64,205,36,0*60
$GPGSV,3,2,10,08,24,212,35,13,61,352,36,16,13,056,35,20,44,116,36,0*69
$GPGSV,3,3,10,23,47,041,36,25,86,194,36,0*66
$BDGSV,1,1,00,0*74

$GNRMC,000758.00,A,3129.342049,N,12118.000103,E,9.720,0.04,200720,,,A,V*07
$GNGGA,000758.00,3129.342049,N,12118.000103,E,1,09,0.97,40.3,M,9.5,M,,*4C
$GNGSA,A,3,04,01,07,08,13,20,23,25,02,,,,1.68,0.97,1.37,1*0B
$GNGSA,A,3,,,,,,,,,,,,,1.68,0.97,1.37,4*00
$GPGSV,3,1,10,01,18,117,35,02,17,314,35,04,45,279,36,07
,64,205,36,0*60
$GPGSV,3,2,10,08,24,212,35,13,61,352,36,16,13,056,35,20,44,116,36,0*69
$GPGSV,3,3,10,23,47,041,36,25,86,194,36,0*66
$BDGSV,1,1,00,0*74

$GNRMC,000759.00,A,3129.344751,N,12118.000096,E,9.727,359.98,200720,,,A,V*0E
$GNGGA,000759.00,3129.344751,N,12118.000096,E,1,09,0.97,40.3,M,9.5,M,,*48
$GNGSA,A,3,04,01,07,08,13,20,23,25,02,,,,1.68,0.97,1.37,1*0B
$GNGSA,A,3,,,,,,,,,,,,,1.68,0.97,1.37,4*00
$GPGSV,3,1,10,01,18,117,35,02,17,314,35,04,45,279,36,
07,64,205,36,0*60
$GPGSV,3,2,10,08,24,212,35,13,61,352,36,16,13,056,35,20,44,116,36,0*69
$GPGSV,3,3,10,23,47,041,36,25,86,194,36,0*66
$BDGSV,1,1,00,0*74

$GNRMC,000800.00,A,3129.347450,N,12118.000086,E,9.718,360.00,200720,,,A,V*0A
$GNGGA,000800.00,3129.347450,N,12118.000086,E,1,09,0.97,40.3,M,9.5,M,,*4B
$GNGSA,A,3,04,01,07,08,13,20,23,25,02,,,,1.68,0.97,1.37,1*0B
$GNGSA,A,3,,,,,,,,,,,,,1.68,0.97,1.37,4*00
$GPGSV,3,1,10,01,18,117,35,02,17,314,35,04,45,279,36,
07,64,205,36,0*60
$GPGSV,3,2,10,08,24,212,35,13,61,352,36,16,13,056,35,20,44,116,36,0*69
$GPGSV,3,3,10,23,47,041,36,25,86,194,36,0*66
$BDGSV,1,1,00,0*74

<??????????????>

$GNRMC,000801.00,A,3129.350151,N,12118.000077,E,9.714,359.97,200720,,,A,V*0F
$GNGGA,000801.00,3129.350151,N,12118.000077,E,1,09,0.97,40.3,M,9.5,M,,*46
$GNGSA,A,3,04,01,07,08,13,20,23,25,02,,,,1.68,0.97,1.37,1*0B
$GNGSA,A,3,,,,,,,,,,,,,1.68,0.97,1.37,4*00
$GPGSV,3,1,10,01,18,117,35,02,17,314,35,04,45,279,36,
07,64,205,36,0*60
$GPGSV,3,2,10,08,24,212,35,13,61,352,36,16,13,056,35,20,44,116,36,0*69
$GPGSV,3,3,10,23,47,041,36,25,87,193,36,0*60
$BDGSV,1,1,00,0*74

$GNRMC,000802.00,A,3129.352854,N,12118.000075,E,9.724,0.01,200720,,,A,V*03
$GNGGA,000802.00,3129.352854,N,12118.000075,E,1,09,0.97,40.3,M,9.5,M,,*49
$GNGSA,A,3,04,01,07,08,13,20,23,25,02,,,,1.68,0.97,1.37,1*0B
$GNGSA,A,3,,,,,,,,,,,,,1.68,0.97,1.37,4*00
$GPGSV,3,1,10,01,18,117,35,02,17,314,35,04,45,279,36,07
,64,205,36,0*60
$GPGSV,3,2,10,08,24,212,35,13,61,352,36,16,13,056,35,20,44,116,36,0*69
$GPGSV,3,3,10,23,47,041,36,25,87,193,36,0*60
$BDGSV,1,1,00,0*74

$GNRMC,000803.00,A,3129.355559,N,12118.000072,E,9.729,0.01,200720,,,A,V*0F
$GNGGA,000803.00,3129.355559,N,12118.000072,E,1,09,0.97,40.3,M,9.5,M,,*48
$GNGSA,A,3,04,01,07,08,13,20,23,25,02,,,,1.68,0.97,1.37,1*0B
$GNGSA,A,3,,,,,,,,,,,,,1.68,0.97,1.37,4*00
$GPGSV,3,1,10,01,18,117,35,02,17,314,35,04,45,279,36,07
,64,205,36,0*60
$GPGSV,3,2,10,08,24,212,35,13,61,352,36,16,13,056,35,20,44,116,36,0*69
$GPGSV,3,3,10,23,47,041,36,25,87,193,36,0*60
$BDGSV,1,1,00,0*74

$GNRMC,000804.00,A,3129.358258,N,12118.000072,E,9.716,0.05,200720,,,A,V*0B
$GNGGA,000804.00,3129.358258,N,12118.000072,E,1,09,0.97,40.3,M,9.5,M,,*44
$GNGSA,A,3,04,01,07,08,13,20,23,25,02,,,,1.68,0.97,1.37,1*0B
$GNGSA,A,3,,,,,,,,,,,,,1.68,0.97,1.37,4*00
$GPGSV,3,1,10,01,18,117,35,02,17,314,35,04,45,279,36,07
,64,205,36,0*60
$GPGSV,3,2,10,08,24,212,35,13,61,352,36,16,13,056,35,20,44,116,36,0*69
$GPGSV,3,3,10,23,47,041,36,25,87,193,36,0*60
$BDGSV,1,1,00,0*74

$GNRMC,000805.00,A,3129.360963,N,12118.000070,E,9.727,360.00,200720,,,A,V*02
$GNGGA,000805.00,3129.360963,N,12118.000070,E,1,09,0.97,40.2,M,9.5,M,,*4E
$GNGSA,A,3,04,01,07,08,13,20,23,25,02,,,,1.68,0.97,1.37,1*0B
$GNGSA,A,3,,,,,,,,,,,,,1.68,0.97,1.37,4*00
$GPGSV,3,1,10,01,18,117,35,02,17,314,35,04,45,279,36,
07,64,205,36,0*60
$GPGSV,3,2,10,08,24,212,35,13,61,352,36,16,13,056,35,20,44,116,36,0*69
$GPGSV,3,3,10,23,47,041,36,25,87,193,36,0*60
$BDGSV,1,1,00,0*74


GPS HPregnss> E1 15 00 00 00 00 07 54 E9 57 07 00 00 00 1C 3E 0B 21 8E 00 00 00 00 


$GNRMC,000806.00,A,3129.363665,N,12118.000068,E,9.720,359.99,200720,,,A,V*0F
$GNGGA,000806.00,3129.363665,N,12118.000068,E,1,09,0.97,40.2,M,9.5,M,,*4E
$GNGSA,A,3,04,01,07,08,13,20,23,25,02,,,,1.68,0.97,1.37,1*0B
$GNGSA,A,3,,,,,,,,,,,,,1.68,0.97,1.37,4*00
$GPGSV,3,1,10,01,18,117,35,02,17,314,35,04,45,279,36,
07,64,205,36,0*60
$GPGSV,3,2,10,08,24,212,35,13,61,352,36,16,13,056,35,20,44,116,36,0*69
$GPGSV,3,3,10,23,47,041,36,25,87,193,36,0*60
$BDGSV,1,1,00,0*74

$GNRMC,000807.00,A,3129.366365,N,12118.000064,E,9.715,0.00,200720,,,A,V*0B
$GNGGA,000807.00,3129.366365,N,12118.000064,E,1,09,0.97,40.2,M,9.5,M,,*43
$GNGSA,A,3,04,01,07,08,13,20,23,25,02,,,,1.68,0.97,1.37,1*0B
$GNGSA,A,3,,,,,,,,,,,,,1.68,0.97,1.37,4*00
$GPGSV,3,1,10,01,18,117,35,02,18,314,35,04,45,279,36,07
,64,205,36,0*6F
$GPGSV,3,2,10,08,24,212,35,13,61,352,36,16,13,056,35,20,44,116,36,0*69
$GPGSV,3,3,10,23,47,041,36,25,87,193,36,0*60
$BDGSV,1,1,00,0*74

$GNRMC,000808.00,A,3129.369069,N,12118.000060,E,9.729,359.99,200720,,,A,V*00
$GNGGA,000808.00,3129.369069,N,12118.000060,E,1,09,0.97,40.1,M,9.5,M,,*4B
$GNGSA,A,3,04,01,07,08,13,20,23,25,02,,,,1.68,0.97,1.37,1*0B
$GNGSA,A,3,,,,,,,,,,,,,1.68,0.97,1.37,4*00
$GPGSV,3,1,10,01,18,117,35,02,18,314,35,04,45,279,36,
07,64,205,36,0*6F
$GPGSV,3,2,10,08,24,212,35,13,61,352,36,16,13,056,35,20,44,116,36,0*69
$GPGSV,3,3,10,23,47,041,36,25,87,193,36,0*60
$BDGSV,1,1,00,0*74

$GNRMC,000809.00,A,3129.371771,N,12118.000055,E,9.713,0.01,200720,,,A,V*07
$GNGGA,000809.00,3129.371771,N,12118.000055,E,1,09,0.97,40.1,M,9.5,M,,*4B
$GNGSA,A,3,04,01,07,08,13,20,23,25,02,,,,1.68,0.97,1.37,1*0B
$GNGSA,A,3,,,,,,,,,,,,,1.68,0.97,1.37,4*00
$GPGSV,3,1,10,01,18,117,35,02,18,314,35,04,45,279,36,07
,64,205,36,0*6F
$GPGSV,3,2,10,08,24,212,35,13,61,352,36,16,13,056,35,20,44,116,36,0*69
$GPGSV,3,3,10,23,47,041,36,25,87,193,36,0*60
$BDGSV,1,1,00,0*74

$GNRMC,000810.00,A,3129.374479,N,12118.000051,E,9.722,0.01,200720,,,A,V*07
$GNGGA,000810.00,3129.374479,N,12118.000051,E,1,09,0.97,40.1,M,9.5,M,,*49
$GNGSA,A,3,04,01,07,08,13,20,23,25,02,,,,1.68,0.97,1.37,1*0B
$GNGSA,A,3,,,,,,,,,,,,,1.68,0.97,1.37,4*00
$GPGSV,3,1,10,01,18,117,35,02,18,314,35,04,45,279,36,07
,64,205,36,0*6F
$GPGSV,3,2,10,08,24,212,35,13,61,352,36,16,13,056,35,20,44,116,36,0*69
$GPGSV,3,3,10,23,47,041,36,25,87,193,36,0*60
$BDGSV,1,1,00,0*74

<????sim??????(SIM??:1)>
<????GSM????????(GSM:0)>
<????GPRS????????(GPRS:0)>
<????????????(SIGNAL:0)>
<????????????????(BER:0)>

<??????????????>

$GNRMC,000811.00,A,3129.377186,N,12118.000045,E,9.728,359.97,200720,,,A,V*0F
$GNGGA,000811.00,3129.377186,N,12118.000045,E,1,09,0.97,40.1,M,9.5,M,,*4B
$GNGSA,A,3,04,01,07,08,13,20,23,25,02,,,,1.68,0.97,1.37,1*0B
$GNGSA,A,3,,,,,,,,,,,,,1.68,0.97,1.37,4*00
$GPGSV,3,1,10,01,18,117,35,02,18,314,35,04,45,279,36,
07,64,205,36,0*6F
$GPGSV,3,2,10,08,24,212,35,13,61,352,36,16,13,056,35,20,44,116,36,0*69
$GPGSV,3,3,10,23,47,041,36,25,87,193,36,0*60
$BDGSV,1,1,00,0*74

$GNRMC,000812.00,A,3129.379893,N,12118.000040,E,9.725,359.99,200720,,,A,V*09
$GNGGA,000812.00,3129.379893,N,12118.000040,E,1,09,0.97,40.0,M,9.5,M,,*4F
$GNGSA,A,3,04,01,07,08,13,20,23,25,02,,,,1.68,0.97,1.37,1*0B
$GNGSA,A,3,,,,,,,,,,,,,1.68,0.97,1.37,4*00
$GPGSV,3,1,10,01,18,117,35,02,18,314,35,04,45,279,36,
07,64,205,36,0*6F
$GPGSV,3,2,10,08,24,212,35,13,61,352,36,16,13,056,35,20,44,116,36,0*69
$GPGSV,3,3,10,23,47,041,36,25,87,193,36,0*60
$BDGSV,1,1,00,0*74

$GNRMC,000813.00,A,3129.382599,N,12118.000044,E,9.721,0.07,200720,,,A,V*03
$GNGGA,000813.00,3129.382599,N,12118.000044,E,1,09,0.97,40.0,M,9.5,M,,*49
$GNGSA,A,3,04,01,07,08,13,20,23,25,02,,,,1.68,0.97,1.37,1*0B
$GNGSA,A,3,,,,,,,,,,,,,1.68,0.97,1.37,4*00
$GPGSV,3,1,10,01,18,117,35,02,18,314,35,04,45,279,36,07
,64,205,36,0*6F
$GPGSV,3,2,10,08,24,212,35,13,61,352,36,16,13,056,35,20,44,116,36,0*69
$GPGSV,3,3,10,23,47,041,36,25,87,193,36,0*60
$BDGSV,1,1,00,0*74

$GNRMC,000814.00,A,3129.385301,N,12118.000035,E,9.718,359.94,200720,,,A,V*0D
$GNGGA,000814.00,3129.385301,N,12118.000035,E,1,09,0.97,40.0,M,9.5,M,,*48
$GNGSA,A,3,04,01,07,08,13,20,23,25,02,,,,1.68,0.97,1.37,1*0B
$GNGSA,A,3,,,,,,,,,,,,,1.68,0.97,1.37,4*00
$GPGSV,3,1,10,01,18,117,35,02,18,314,35,04,45,279,36,
07,64,205,36,0*6F
$GPGSV,3,2,10,08,24,212,35,13,61,352,36,16,13,056,35,20,44,116,36,0*69
$GPGSV,3,3,10,23,47,041,36,25,87,193,36,0*60
$BDGSV,1,1,00,0*74

$GNRMC,000815.00,A,3129.388005,N,12118.000035,E,9.715,0.00,200720,,,A,V*09
$GNGGA,000815.00,3129.388005,N,12118.000035,E,1,09,0.97,40.0,M,9.5,M,,*43
$GNGSA,A,3,04,01,07,08,13,20,23,25,02,,,,1.68,0.97,1.37,1*0B
$GNGSA,A,3,,,,,,,,,,,,,1.68,0.97,1.37,4*00
$GPGSV,3,1,10,01,18,117,35,02,18,314,35,04,45,279,36,07
,64,205,36,0*6F
$GPGSV,3,2,10,08,24,212,35,13,61,352,36,16,13,056,35,20,44,116,36,0*69
$GPGSV,3,3,10,23,47,041,36,25,87,193,36,0*60
$BDGSV,1,1,00,0*74

$GNRMC,000816.00,A,3129.390709,N,12118.000031,E,9.727,0.02,200720,,,A,V*0F
$GNGGA,000816.00,3129.390709,N,12118.000031,E,1,09,0.97,40.0,M,9.5,M,,*46
$GNGSA,A,3,04,01,07,08,13,20,23,25,02,,,,1.68,0.97,1.37,1*0B
$GNGSA,A,3,,,,,,,,,,,,,1.68,0.97,1.37,4*00
$GPGSV,3,1,10,01,18,117,35,02,18,314,35,04,45,279,36,07
,64,205,36,0*6F
$GPGSV,3,2,10,08,24,212,35,13,61,352,36,16,13,056,35,20,43,117,36,0*6F
$GPGSV,3,3,10,23,47,041,36,25,87,193,36,0*60
$BDGSV,1,1,00,0*74

$GNRMC,000817.00,A,3129.393414,N,12118.000026,E,9.719,359.98,200720,,,A,V*05
$GNGGA,000817.00,3129.393414,N,12118.000026,E,1,09,0.97,39.9,M,9.5,M,,*4A
$GNGSA,A,3,04,01,07,08,13,20,23,25,02,,,,1.68,0.97,1.37,1*0B
$GNGSA,A,3,,,,,,,,,,,,,1.68,0.97,1.37,4*00
$GPGSV,3,1,10,01,18,117,35,02,18,314,35,04,45,279,36,
07,64,205,36,0*6F
$GPGSV,3,2,10,08,24,212,35,13,61,352,36,16,13,056,35,20,43,117,36,0*6F
$GPGSV,3,3,10,23,47,041,36,25,87,193,36,0*60
$BDGSV,1,1,00,0*74

$GNRMC,000818.00,A,3129.396117,N,12118.000019,E,9.717,359.99,200720,,,A,V*0A
$GNGGA,000818.00,3129.396117,N,12118.000019,E,1,09,0.97,39.9,M,9.5,M,,*4A
$GNGSA,A,3,04,01,07,08,13,20,23,25,02,,,,1.68,0.97,1.37,1*0B
$GNGSA,A,3,,,,,,,,,,,,,1.68,0.97,1.37,4*00
$GPGSV,3,1,10,01,18,117,35,02,18,314,35,04,45,279,36,
07,64,205,36,0*6F
$GPGSV,3,2,10,08,24,212,35,13,61,352,36,16,13,056,35,20,43,117,36,0*6F
$GPGSV,3,3,10,23,47,041,36,25,87,193,36,0*60
$BDGSV,1,1,00,0*74

$GNRMC,000819.00,A,3129.398818,N,12118.000017,E,9.726,0.05,200720,,,A,V*05
$GNGGA,000819.00,3129.398818,N,12118.000017,E,1,09,0.97,39.9,M,9.5,M,,*4D
$GNGSA,A,3,04,01,07,08,13,20,23,25,02,,,,1.68,0.97,1.37,1*0B
$GNGSA,A,3,,,,,,,,,,,,,1.68,0.97,1.37,4*00
$GPGSV,3,1,10,01,18,117,35,02,18,314,35,04,45,279,36,07
,64,205,36,0*6F
$GPGSV,3,2,10,08,24,212,35,13,61,352,36,16,13,056,35,20,43,117,36,0*6F
$GPGSV,3,3,10,23,46,041,36,25,87,193,36,0*61
$BDGSV,1,1,01,15,,,22,0*71

$GNRMC,000820.00,A,3129.401521,N,12118.000010,E,9.721,359.98,200720,,,A,V*04
$GNGGA,000820.00,3129.401521,N,12118.000010,E,1,09,0.97,39.9,M,9.5,M,,*40
$GNGSA,A,3,04,01,07,08,13,20,23,25,02,,,,1.68,0.97,1.37,1*0B
$GNGSA,A,3,,,,,,,,,,,,,1.68,0.97,1.37,4*00
$GPGSV,3,1,10,01,18,117,35,02,18,314,35,04,45,279,36,
07,64,205,36,0*6F
$GPGSV,3,2,10,08,24,212,35,13,61,352,36,16,13,056,35,20,43,117,36,0*6F
$GPGSV,3,3,10,23,46,041,36,25,87,193,36,0*61
$BDGSV,1,1,00,0*74

<??????????????>

$GNRMC,000821.00,A,3129.404226,N,12118.000005,E,9.727,0.01,200720,,,A,V*0D
$GNGGA,000821.00,3129.404226,N,12118.000005,E,1,09,0.97,39.9,M,9.5,M,,*40
$GNGSA,A,3,04,01,07,08,13,20,23,25,02,,,,1.68,0.97,1.37,1*0B
$GNGSA,A,3,,,,,,,,,,,,,1.68,0.97,1.37,4*00
$GPGSV,3,1,10,01,18,117,35,02,18,314,35,04,45,279,36,07
,64,205,36,0*6F
$GPGSV,3,2,10,08,24,212,35,13,61,352,36,16,13,056,35,20,43,117,36,0*6F
$GPGSV,3,3,10,23,46,041,36,25,87,193,37,0*60
$BDGSV,1,1,00,0*74

$GNRMC,000822.00,A,3129.406928,N,12117.999997,E,9.717,359.97,200720,,,A,V*0E
$GNGGA,000822.00,3129.406928,N,12117.999997,E,1,09,0.97,39.9,M,9.5,M,,*40
$GNGSA,A,3,04,01,07,08,13,20,23,25,02,,,,1.68,0.97,1.37,1*0B
$GNGSA,A,3,,,,,,,,,,,,,1.68,0.97,1.37,4*00
$GPGSV,3,1,10,01,18,117,35,02,18,314,35,04,45,279,36,
07,64,205,36,0*6F
$GPGSV,3,2,10,08,24,212,35,13,61,352,36,16,13,056,35,20,43,117,36,0*6F
$GPGSV,3,3,10,23,46,041,36,25,87,193,36,0*61
$BDGSV,1,1,00,0*74

$GNRMC,000823.00,A,3129.409636,N,12117.999992,E,9.728,0.04,200720,,,A,V*0C
$GNGGA,000823.00,3129.409636,N,12117.999992,E,1,09,0.97,39.9,M,9.5,M,,*4B
$GNGSA,A,3,04,01,07,08,13,20,23,25,02,,,,1.68,0.97,1.37,1*0B
$GNGSA,A,3,,,,,,,,,,,,,1.68,0.97,1.37,4*00
$GPGSV,3,1,10,01,18,117,35,02,18,314,35,04,45,279,36,07
,64,205,36,0*6F
$GPGSV,3,2,10,08,24,212,35,13,61,352,36,16,13,056,35,20,43,117,36,0*6F
$GPGSV,3,3,10,23,46,041,36,25,87,193,36,0*61
$BDGSV,1,1,00,0*74

$GNRMC,000824.00,A,3129.412342,N,12117.999991,E,9.722,0.01,200720,,,A,V*0B
$GNGGA,000824.00,3129.412342,N,12117.999991,E,1,09,0.97,39.9,M,9.5,M,,*43
$GNGSA,A,3,04,01,07,08,13,20,23,25,02,,,,1.68,0.97,1.37,1*0B
$GNGSA,A,3,,,,,,,,,,,,,1.68,0.97,1.37,4*00
$GPGSV,3,1,10,01,18,117,35,02,18,314,35,04,45,279,36,07
,64,205,36,0*6F
$GPGSV,3,2,10,08,24,212,35,13,61,352,36,16,13,056,35,20,43,117,36,0*6F
$GPGSV,3,3,10,23,46,041,36,25,87,193,36,0*61
$BDGSV,1,1,00,0*74

$GNRMC,000825.00,A,3129.415049,N,12117.999985,E,9.732,359.98,200720,,,A,V*0E
$GNGGA,000825.00,3129.415049,N,12117.999985,E,1,09,0.97,39.9,M,9.5,M,,*48
$GNGSA,A,3,04,01,07,08,13,20,23,25,02,,,,1.68,0.97,1.37,1*0B
$GNGSA,A,3,,,,,,,,,,,,,1.68,0.97,1.37,4*00
$GPGSV,3,1,10,01,18,118,35,02,18,314,35,04,45,279,36,
07,64,205,36,0*60
$GPGSV,3,2,10,08,24,212,35,13,61,352,36,16,13,056,35,20,43,117,36,0*6F
$GPGSV,3,3,10,23,46,041,36,25,87,193,36,0*61
$BDGSV,1,1,00,0*74

$GNRMC,000826.00,A,3129.417751,N,12117.999981,E,9.722,0.01,200720,,,A,V*0B
$GNGGA,000826.00,3129.417751,N,12117.999981,E,1,09,0.97,39.9,M,9.5,M,,*43
$GNGSA,A,3,04,01,07,08,13,20,23,25,02,,,,1.68,0.97,1.37,1*0B
$GNGSA,A,3,,,,,,,,,,,,,1.68,0.97,1.37,4*00
$GPGSV,3,1,10,01,18,118,35,02,18,314,35,04,45,279,36,07
,64,205,36,0*60
$GPGSV,3,2,10,08,24,212,35,13,61,352,36,16,13,056,35,20,43,117,36,0*6F
$GPGSV,3,3,10,23,46,041,36,25,87,193,36,0*61
$BDGSV,1,1,00,0*74

$GNRMC,000827.00,A,3129.420453,N,12117.999976,E,9.723,0.03,200720,,,A,V*04
$GNGGA,000827.00,3129.420453,N,12117.999976,E,1,09,0.97,39.9,M,9.5,M,,*4F
$GNGSA,A,3,04,01,07,08,13,20,23,25,02,,,,1.68,0.97,1.37,1*0B
$GNGSA,A,3,,,,,,,,,,,,,1.68,0.97,1.37,4*00
$GPGSV,3,1,10,01,18,118,35,02,18,314,35,04,45,278,36,07
,64,205,36,0*61
$GPGSV,3,2,10,08,24,212,35,13,61,352,36,16,13,056,35,20,43,117,36,0*6F
$GPGSV,3,3,10,23,46,041,36,25,87,193,36,0*61
$BDGSV,1,1,00,0*74

$GNRMC,000828.00,A,3129.423153,N,12117.999971,E,9.716,0.03,200720,,,A,V*0C
$GNGGA,000828.00,3129.423153,N,12117.999971,E,1,09,0.97,39.9,M,9.5,M,,*41
$GNGSA,A,3,04,01,07,08,13,20,23,25,02,,,,1.68,0.97,1.37,1*0B
$GNGSA,A,3,,,,,,,,,,,,,1.68,0.97,1.37,4*00
$GPGSV,3,1,10,01,18,118,35,02,18,314,35,04,45,278,36,07
,64,205,36,0*61
$GPGSV,3,2,10,08,24,212,35,13,61,352,36,16,13,056,35,20,43,117,36,0*6F
$GPGSV,3,3,10,23,46,041,36,25,87,193,36,0*61
$BDGSV,1,1,00,0*74

$GNRMC,000829.00,A,3129.425854,N,12117.999961,E,9.719,359.92,200720,,,A,V*0C
$GNGGA,000829.00,3129.425854,N,12117.999961,E,1,09,0.97,39.9,M,9.5,M,,*49
$GNGSA,A,3,04,01,07,08,13,20,23,25,02,,,,1.68,0.97,1.37,1*0B
$GNGSA,A,3,,,,,,,,,,,,,1.68,0.97,1.37,4*00
$GPGSV,3,1,10,01,18,118,35,02,18,314,35,04,45,278,36,
07,64,205,36,0*61
$GPGSV,3,2,10,08,24,212,35,13,61,352,36,16,13,056,35,20,43,117,36,0*6F
$GPGSV,3,3,10,23,46,041,36,25,87,193,36,0*61
$BDGSV,1,1,00,0*74

$GNRMC,000830.00,A,3129.428558,N,12117.999964,E,9.722,0.03,200720,,,A,V*02
$GNGGA,000830.00,3129.428558,N,12117.999964,E,1,09,0.97,39.9,M,9.5,M,,*48
$GNGSA,A,3,04,01,07,08,13,20,23,25,02,,,,1.68,0.97,1.37,1*0B
$GNGSA,A,3,,,,,,,,,,,,,1.68,0.97,1.37,4*00
$GPGSV,3,1,10,01,18,118,35,02,18,314,35,04,45,278,36,07
,64,205,36,0*61
$GPGSV,3,2,10,08,24,212,35,13,61,352,36,16,13,056,35,20,43,117,36,0*6F
$GPGSV,3,3,10,23,46,041,36,25,87,193,36,0*61
$BDGSV,1,1,00,0*74

<????sim??????(SIM??:1)>
<????GSM????????(GSM:0)>
<????GPRS????????(GPRS:0)>
<????????????(SIGNAL:0)>
<????????????????(BER:0)>

<??????????????>

$GNRMC,000831.00,A,3129.431259,N,12117.999962,E,9.716,359.99,200720,,,A,V*00
$GNGGA,000831.00,3129.431259,N,12117.999962,E,1,09,0.97,40.0,M,9.5,M,,*46
$GNGSA,A,3,04,01,07,08,13,20,23,25,02,,,,1.68,0.97,1.37,1*0B
$GNGSA,A,3,,,,,,,,,,,,,1.68,0.97,1.37,4*00
$GPGSV,3,1,10,01,18,118,35,02,18,314,35,04,45,278,36,
07,64,205,36,0*61
$GPGSV,3,2,10,08,24,212,35,13,61,352,36,16,13,056,35,20,43,117,36,0*6F
$GPGSV,3,3,10,23,46,041,36,25,87,193,36,0*61
$BDGSV,1,1,00,0*74

$GNRMC,000832.00,A,3129.433964,N,12117.999951,E,9.730,360.00,200720,,,A,V*0A
$GNGGA,000832.00,3129.433964,N,12117.999951,E,1,09,0.97,40.0,M,9.5,M,,*42
$GNGSA,A,3,04,01,07,08,13,20,23,25,02,,,,1.68,0.97,1.37,1*0B
$GNGSA,A,3,,,,,,,,,,,,,1.68,0.97,1.37,4*00
$GPGSV,3,1,10,01,18,118,35,02,18,314,35,04,45,278,36,
07,64,205,36,0*61
$GPGSV,3,2,10,08,24,212,35,13,61,352,36,16,13,056,35,20,43,117,36,0*6F
$GPGSV,3,3,10,23,46,041,36,25,87,193,36,0*61
$BDGSV,1,1,00,0*74

$GNRMC,000833.00,A,3129.436664,N,12117.999945,E,9.718,0.01,200720,,,A,V*0A
$GNGGA,000833.00,3129.436664,N,12117.999945,E,1,09,0.97,40.0,M,9.5,M,,*4C
$GNGSA,A,3,04,01,07,08,13,20,23,25,02,,,,1.68,0.97,1.37,1*0B
$GNGSA,A,3,,,,,,,,,,,,,1.68,0.97,1.37,4*00
$GPGSV,3,1,10,01,18,118,35,02,18,314,35,04,45,278,36,07
,64,205,36,0*61
$GPGSV,3,2,10,08,24,212,35,13,61,352,36,16,13,056,35,20,43,117,36,0*6F
$GPGSV,3,3,10,23,46,041,36,25,87,193,36,0*61
$BDGSV,1,1,00,0*74

$GNRMC,000834.00,A,3129.439365,N,12117.999942,E,9.717,0.03,200720,,,A,V*0C
$GNGGA,000834.00,3129.439365,N,12117.999942,E,1,09,0.97,40.0,M,9.5,M,,*47
$GNGSA,A,3,04,01,07,08,13,20,23,25,02,,,,1.68,0.97,1.37,1*0B
$GNGSA,A,3,,,,,,,,,,,,,1.68,0.97,1.37,4*00
$GPGSV,3,1,10,01,18,118,35,02,18,314,35,04,45,278,36,07
,64,205,36,0*61
$GPGSV,3,2,10,08,24,212,35,13,61,352,36,16,13,056,35,20,43,117,36,0*6F
$GPGSV,3,3,10,23,46,041,36,25,87,193,36,0*61
$BDGSV,1,1,00,0*74

$GNRMC,000835.00,A,3129.442073,N,12117.999936,E,9.725,359.96,200720,,,A,V*04
$GNGGA,000835.00,3129.442073,N,12117.999936,E,1,09,0.97,40.0,M,9.5,M,,*4D
$GNGSA,A,3,04,01,07,08,13,20,23,25,02,,,,1.68,0.97,1.37,1*0B
$GNGSA,A,3,,,,,,,,,,,,,1.68,0.97,1.37,4*00
$GPGSV,3,1,10,01,18,118,35,02,18,314,35,04,45,278,36,
07,64,205,36,0*61
$GPGSV,3,2,10,08,24,212,35,13,61,352,36,16,13,056,35,20,43,117,36,0*6F
$GPGSV,3,3,10,23,46,041,36,25,87,193,36,0*61
$BDGSV,1,1,00,0*74


GPS HPregnss> E1 15 00 00 00 00 07 54 FD F7 A0 00 00 00 1C 3E 0B 18 D5 00 00 00 00 


$GNRMC,000836.00,A,3129.444785,N,12117.999934,E,9.722,0.03,200720,,,A,V*09
$GNGGA,000836.00,3129.444785,N,12117.999934,E,1,09,0.97,40.0,M,9.5,M,,*44
$GNGSA,A,3,04,01,07,08,13,20,23,25,02,,,,1.68,0.97,1.37,1*0B
$GNGSA,A,3,,,,,,,,,,,,,1.68,0.97,1.37,4*00
$GPGSV,3,1,10,01,18,118,35,02,18,314,35,04,45,278,36,07
,64,205,36,0*61
$GPGSV,3,2,10,08,24,212,35,13,61,352,36,16,13,056,35,20,43,117,36,0*6F
$GPGSV,3,3,10,23,46,041,36,25,87,193,36,0*61
$BDGSV,1,1,00,0*74

$GNRMC,000837.00,A,3129.447499,N,12117.999930,E,9.720,359.96,200720,,,A,V*00
$GNGGA,000837.00,3129.447499,N,12117.999930,E,1,09,0.97,40.0,M,9.5,M,,*4C
$GNGSA,A,3,04,01,07,08,13,20,23,25,02,,,,1.68,0.97,1.37,1*0B
$GNGSA,A,3,,,,,,,,,,,,,1.68,0.97,1.37,4*00
$GPGSV,3,1,10,01,18,118,35,02,18,314,35,04,45,278,36,
07,64,205,36,0*61
$GPGSV,3,2,10,08,24,212,35,13,61,352,36,16,13,056,35,20,43,117,36,0*6F
$GPGSV,3,3,10,23,46,041,36,25,87,193,36,0*61
$BDGSV,1,1,00,0*74

$GNRMC,000838.00,A,3129.450208,N,12117.999930,E,9.707,359.99,200720,,,A,V*0D
$GNGGA,000838.00,3129.450208,N,12117.999930,E,1,09,0.97,40.0,M,9.5,M,,*4B
$GNGSA,A,3,04,01,07,08,13,20,23,25,02,,,,1.68,0.97,1.37,1*0B
$GNGSA,A,3,,,,,,,,,,,,,1.68,0.97,1.37,4*00
$GPGSV,3,1,10,01,18,118,35,02,18,314,35,04,45,278,36,
07,64,205,36,0*61
$GPGSV,3,2,10,08,24,212,35,13,61,352,36,16,13,056,35,20,43,117,36,0*6F
$GPGSV,3,3,10,23,46,041,36,25,87,193,36,0*61
$BDGSV,1,1,00,0*74

$GNRMC,000839.00,A,3129.452922,N,12117.999933,E,9.725,0.01,200720,,,A,V*00
$GNGGA,000839.00,3129.452922,N,12117.999933,E,1,09,0.97,40.0,M,9.5,M,,*48
$GNGSA,A,3,04,01,07,08,13,20,23,25,02,,,,1.68,0.97,1.37,1*0B
$GNGSA,A,3,,,,,,,,,,,,,1.68,0.97,1.37,4*00
$GPGSV,3,1,10,01,18,118,35,02,18,314,35,04,45,278,36,07
,64,205,36,0*61
$GPGSV,3,2,10,08,24,212,35,13,61,352,36,16,13,056,35,20,43,117,36,0*6F
$GPGSV,3,3,10,23,46,041,36,25,87,193,36,0*61
$BDGSV,1,1,00,0*74

$GNRMC,000840.00,A,3129.455631,N,12117.999937,E,9.719,0.05,200720,,,A,V*0B
$GNGGA,000840.00,3129.455631,N,12117.999937,E,1,09,0.97,40.0,M,9.5,M,,*48
$GNGSA,A,3,04,01,07,08,13,20,23,25,02,,,,1.68,0.97,1.37,1*0B
$GNGSA,A,3,,,,,,,,,,,,,1.68,0.97,1.37,4*00
$GPGSV,3,1,10,01,18,118,35,02,18,314,35,04,45,278,36,07
,64,205,36,0*61
$GPGSV,3,2,10,08,24,212,35,13,61,352,36,16,13,056,35,20,43,117,36,0*6F
$GPGSV,3,3,10,23,46,041,36,25,87,193,36,0*61
$BDGSV,1,1,00,0*74

$GNRMC,000841.00,A,3129.458343,N,12117.999935,E,9.721,359.97,200720,,,A,V*0A
$GNGGA,000841.00,3129.458343,N,12117.999935,E,1,09,0.97,40.0,M,9.5,M,,*46
$GNGSA,A,3,04,01,07,08,13,20,23,25,02,,,,1.68,0.97,1.37,1*0B
$GNGSA,A,3,,,,,,,,,,,,,1.68,0.97,1.37,4*00
$GPGSV,3,1,10,01,18,118,35,02,18,314,35,04,45,278,36,
07,64,205,36,0*61
$GPGSV,3,2,10,08,24,212,35,13,61,352,36,16,13,056,35,20,43,117,36,0*6F
$GPGSV,3,3,10,23,46,041,36,25,87,193,36,0*61
$BDGSV,1,1,00,0*74
<??????????????>

$GNRMC,000842.00,A,3129.461055,N,12117.999935,E,9.728,359.99,200720,,,A,V*00
$GNGGA,000842.00,3129.461055,N,12117.999935,E,1,09,0.97,40.0,M,9.5,M,,*4B
$GNGSA,A,3,04,01,07,08,13,20,23,25,02,,,,1.68,0.97,1.37,1*0B
$GNGSA,A,3,,,,,,,,,,,,,1.68,0.97,1.37,4*00
$GPGSV,3,1,10,01,18,118,35,02,18,314,35,04,45,278,36,
07,64,205,36,0*61
$GPGSV,3,2,10,08,24,212,35,13,61,352,36,16,13,056,35,20,43,117,36,0*6F
$GPGSV,3,3,10,23,46,041,36,25,87,193,36,0*61
$BDGSV,1,1,00,0*74

$GNRMC,000843.00,A,3129.463765,N,12117.999933,E,9.722,0.00,200720,,,A,V*04
$GNGGA,000843.00,3129.463765,N,12117.999933,E,1,09,0.97,40.0,M,9.5,M,,*4A
$GNGSA,A,3,04,01,07,08,13,20,23,25,02,,,,1.68,0.97,1.37,1*0B
$GNGSA,A,3,,,,,,,,,,,,,1.68,0.97,1.37,4*00
$GPGSV,3,1,10,01,18,118,35,02,18,314,35,04,45,278,36,07
,64,205,36,0*61
$GPGSV,3,2,10,08,24,212,35,13,61,352,36,16,13,056,35,20,43,117,36,0*6F
$GPGSV,3,3,10,23,46,041,36,25,87,193,36,0*61
$BDGSV,1,1,00,0*74

$GNRMC,000844.00,A,3129.466475,N,12117.999936,E,9.724,0.02,200720,,,A,V*05
$GNGGA,000844.00,3129.466475,N,12117.999936,E,1,09,0.97,40.0,M,9.5,M,,*4F
$GNGSA,A,3,04,01,07,08,13,20,23,25,02,,,,1.68,0.97,1.37,1*0B
$GNGSA,A,3,,,,,,,,,,,,,1.68,0.97,1.37,4*00
$GPGSV,3,1,10,01,18,118,35,02,18,314,35,04,45,278,36,07
,64,205,36,0*61
$GPGSV,3,2,10,08,24,212,35,13,61,352,36,16,13,056,35,20,43,117,36,0*6F
$GPGSV,3,3,10,23,46,041,36,25,87,193,36,0*61
$BDGSV,1,1,00,0*74

$GNRMC,000845.00,A,3129.469181,N,12117.999938,E,9.714,0.04,200720,,,A,V*0E
$GNGGA,000845.00,3129.469181,N,12117.999938,E,1,09,0.97,40.0,M,9.5,M,,*41
$GNGSA,A,3,04,01,07,08,13,20,23,25,02,,,,1.68,0.97,1.37,1*0B
$GNGSA,A,3,,,,,,,,,,,,,1.68,0.97,1.37,4*00
$GPGSV,3,1,10,01,18,118,35,02,18,314,35,04,45,278,36,07
,64,205,36,0*61
$GPGSV,3,2,10,08,24,212,35,13,61,352,36,16,13,056,35,20,43,117,36,0*6F
$GPGSV,3,3,10,23,46,041,36,25,87,193,36,0*61
$BDGSV,1,1,00,0*74

$GNRMC,000846.00,A,3129.471891,N,12117.999939,E,9.728,359.99,200720,,,A,V*09
$GNGGA,000846.00,3129.471891,N,12117.999939,E,1,09,0.97,40.0,M,9.5,M,,*42
$GNGSA,A,3,04,01,07,08,13,20,23,25,02,,,,1.68,0.97,1.37,1*0B
$GNGSA,A,3,,,,,,,,,,,,,1.68,0.97,1.37,4*00
$GPGSV,3,1,10,01,18,118,35,02,18,314,35,04,45,278,36,
07,64,205,36,0*61
$GPGSV,3,2,10,08,24,212,35,13,61,352,36,16,13,056,35,20,43,117,36,0*6F
$GPGSV,3,3,10,23,46,041,36,25,87,193,36,0*61
$BDGSV,1,1,00,0*74

$GNRMC,000847.00,A,3129.474599,N,12117.999942,E,9.713,359.99,200720,,,A,V*0C
$GNGGA,000847.00,3129.474599,N,12117.999942,E,1,09,0.97,40.0,M,9.5,M,,*4F
$GNGSA,A,3,04,01,07,08,13,20,23,25,02,,,,1.68,0.97,1.37,1*0B
$GNGSA,A,3,,,,,,,,,,,,,1.68,0.97,1.37,4*00
$GPGSV,3,1,10,01,18,118,35,02,18,314,35,04,45,278,36,
07,64,206,36,0*62
$GPGSV,3,2,10,08,24,212,35,13,61,352,36,16,13,056,35,20,43,117,36,0*6F
$GPGSV,3,3,10,23,46,041,36,25,87,193,36,0*61
$BDGSV,1,1,00,0*74

$GNRMC,000848.00,A,3129.477310,N,12117.999947,E,9.722,0.01,200720,,,A,V*0E
$GNGGA,000848.00,3129.477310,N,12117.999947,E,1,09,0.97,40.0,M,9.5,M,,*41
$GNGSA,A,3,04,01,07,08,13,20,23,25,02,,,,1.68,0.97,1.37,1*0B
$GNGSA,A,3,,,,,,,,,,,,,1.68,0.97,1.37,4*00
$GPGSV,3,1,10,01,18,118,35,02,18,314,35,04,45,278,36,07
,64,206,36,0*62
$GPGSV,3,2,10,08,24,212,35,13,61,352,36,16,13,056,35,20,43,117,36,0*6F
$GPGSV,3,3,10,23,46,041,36,25,87,193,36,0*61
$BDGSV,1,1,00,0*74

$GNRMC,000849.00,A,3129.480022,N,12117.999955,E,9.727,0.03,200720,,,A,V*01
$GNGGA,000849.00,3129.480022,N,12117.999955,E,1,09,0.97,40.0,M,9.5,M,,*49
$GNGSA,A,3,04,01,07,08,13,20,23,25,02,,,,1.68,0.97,1.37,1*0B
$GNGSA,A,3,,,,,,,,,,,,,1.68,0.97,1.37,4*00
$GPGSV,3,1,10,01,18,118,35,02,18,314,35,04,45,278,36,07
,64,206,36,0*62
$GPGSV,3,2,10,08,24,212,35,13,61,353,36,16,13,056,35,20,43,117,36,0*6E
$GPGSV,3,3,10,23,46,041,36,25,87,193,36,0*61
$BDGSV,1,1,00,0*74

$GNRMC,000850.00,A,3129.482728,N,12117.999959,E,9.719,359.98,200720,,,A,V*0A
$GNGGA,000850.00,3129.482728,N,12117.999959,E,1,09,0.97,40.0,M,9.5,M,,*42
$GNGSA,A,3,04,01,07,08,13,20,23,25,02,,,,1.68,0.97,1.37,1*0B
$GNGSA,A,3,,,,,,,,,,,,,1.68,0.97,1.37,4*00
$GPGSV,3,1,10,01,18,118,35,02,18,314,35,04,45,278,36,
07,64,206,36,0*62
$GPGSV,3,2,10,08,24,212,35,13,61,353,36,16,13,056,35,20,43,117,36,0*6E
$GPGSV,3,3,10,23,46,041,36,25,87,193,36,0*61
$BDGSV,1,1,00,0*74

<????sim??????(SIM??:1)>
<????GSM????????(GSM:0)>
<????GPRS????????(GPRS:0)>
<????????????(SIGNAL:0)>
<????????????????(BER:0)>

<??????????????>

$GNRMC,000851.00,A,3129.485439,N,12117.999968,E,9.718,0.02,200720,,,A,V*00
$GNGGA,000851.00,3129.485439,N,12117.999968,E,1,09,0.97,40.0,M,9.5,M,,*45
$GNGSA,A,3,04,01,07,08,13,20,23,25,02,,,,1.68,0.97,1.37,1*0B
$GNGSA,A,3,,,,,,,,,,,,,1.68,0.97,1.37,4*00
$GPGSV,3,1,10,01,18,118,35,02,18,314,35,04,45,278,36,07
,64,206,36,0*62
$GPGSV,3,2,10,08,24,212,35,13,61,353,36,16,13,056,35,20,43,117,36,0*6E
$GPGSV,3,3,10,23,46,041,36,25,87,193,36,0*61
$BDGSV,1,1,00,0*74

$GNRMC,000852.00,A,3129.488148,N,12117.999974,E,9.721,359.99,200720,,,A,V*07
$GNGGA,000852.00,3129.488148,N,12117.999974,E,1,09,0.97,40.1,M,9.5,M,,*44
$GNGSA,A,3,04,01,07,08,13,20,23,25,02,,,,1.68,0.97,1.37,1*0B
$GNGSA,A,3,,,,,,,,,,,,,1.68,0.97,1.37,4*00
$GPGSV,3,1,10,01,18,118,35,02,18,314,35,04,45,278,36,
07,64,206,36,0*62
$GPGSV,3,2,10,08,24,212,35,13,61,353,36,16,13,056,35,20,43,117,36,0*6E
$GPGSV,3,3,10,23,46,041,36,25,87,193,36,0*61
$BDGSV,1,1,00,0*74

$GNRMC,000853.00,A,3129.490854,N,12117.999982,E,9.725,359.99,200720,,,A,V*06
$GNGGA,000853.00,3129.490854,N,12117.999982,E,1,09,0.97,40.1,M,9.5,M,,*41
$GNGSA,A,3,04,01,07,08,13,20,23,25,02,,,,1.68,0.97,1.37,1*0B
$GNGSA,A,3,,,,,,,,,,,,,1.68,0.97,1.37,4*00
$GPGSV,3,1,10,01,18,118,35,02,18,314,35,04,45,278,36,
07,64,206,36,0*62
$GPGSV,3,2,10,08,24,212,35,13,61,353,36,16,13,056,35,20,43,117,36,0*6E
$GPGSV,3,3,10,23,46,041,36,25,87,193,36,0*61
$BDGSV,1,1,00,0*74

$GNRMC,000854.00,A,3129.493560,N,12117.999994,E,9.726,0.04,200720,,,A,V*07
$GNGGA,000854.00,3129.493560,N,12117.999994,E,1,09,0.97,40.1,M,9.5,M,,*48
$GNGSA,A,3,04,01,07,08,13,20,23,25,02,,,,1.68,0.97,1.37,1*0B
$GNGSA,A,3,,,,,,,,,,,,,1.68,0.97,1.37,4*00
$GPGSV,3,1,10,01,18,118,35,02,18,314,35,04,45,278,36,07
,64,206,36,0*62
$GPGSV,3,2,10,08,24,212,35,13,61,353,36,16,13,056,35,20,43,117,36,0*6E
$GPGSV,3,3,10,23,46,041,36,25,87,193,36,0*61
$BDGSV,1,1,00,0*74

$GNRMC,000855.00,A,3129.496262,N,12118.000000,E,9.715,359.97,200720,,,A,V*01
$GNGGA,000855.00,3129.496262,N,12118.000000,E,1,09,0.97,40.1,M,9.5,M,,*4B
$GNGSA,A,3,04,01,07,08,13,20,23,25,02,,,,1.68,0.97,1.37,1*0B
$GNGSA,A,3,,,,,,,,,,,,,1.68,0.97,1.37,4*00
$GPGSV,3,1,10,01,18,118,35,02,18,314,35,04,45,278,36,
07,64,206,36,0*62
$GPGSV,3,2,10,08,24,212,35,13,61,353,36,16,13,056,35,20,43,117,36,0*6E
$GPGSV,3,3,10,23,46,041,36,25,87,193,36,0*61
$BDGSV,1,1,00,0*74

$GNRMC,000856.00,A,3129.498970,N,12118.000011,E,9.729,0.03,200720,,,A,V*09
$GNGGA,000856.00,3129.498970,N,12118.000011,E,1,09,0.97,40.1,M,9.5,M,,*4E
$GNGSA,A,3,04,01,07,08,13,20,23,25,02,,,,1.68,0.97,1.37,1*0B
$GNGSA,A,3,,,,,,,,,,,,,1.68,0.97,1.37,4*00
$GPGSV,3,1,10,01,18,118,35,02,18,314,35,04,45,278,36,07
,64,206,36,0*62
$GPGSV,3,2,10,08,24,212,35,13,61,353,36,16,13,056,35,20,43,117,36,0*6E
$GPGSV,3,3,10,23,46,041,36,25,87,193,36,0*61
$BDGSV,1,1,00,0*74

$GNRMC,000857.00,A,3129.501674,N,12118.000018,E,9.718,360.00,200720,,,A,V*0F
$GNGGA,000857.00,3129.501674,N,12118.000018,E,1,09,0.97,40.1,M,9.5,M,,*4C
$GNGSA,A,3,04,01,07,08,13,20,23,25,02,,,,1.68,0.97,1.37,1*0B
$GNGSA,A,3,,,,,,,,,,,,,1.68,0.97,1.37,4*00
$GPGSV,3,1,10,01,18,118,35,02,18,314,35,04,45,278,36,
07,64,206,36,0*62
$GPGSV,3,2,10,08,24,212,35,13,61,353,36,16,13,056,35,20,43,117,36,0*6E
$GPGSV,3,3,10,23,46,042,36,25,87,193,36,0*62
$BDGSV,1,1,00,0*74

$GNRMC,000858.00,A,3129.504383,N,12118.000026,E,9.731,0.02,200720,,,A,V*09
$GNGGA,000858.00,3129.504383,N,12118.000026,E,1,09,0.97,40.1,M,9.5,M,,*46
$GNGSA,A,3,04,01,07,08,13,20,23,25,02,,,,1.68,0.97,1.37,1*0B
$GNGSA,A,3,,,,,,,,,,,,,1.68,0.97,1.37,4*00
$GPGSV,3,1,10,01,18,118,35,02,18,314,35,04,45,278,36,07
,64,206,36,0*62
$GPGSV,3,2,10,08,24,212,35,13,61,353,36,16,13,056,35,20,43,117,36,0*6E
$GPGSV,3,3,10,23,46,042,36,25,87,193,36,0*62
$BDGSV,1,1,00,0*74

$GNRMC,000859.00,A,3129.507086,N,12118.000031,E,9.713,0.00,200720,,,A,V*09
$GNGGA,000859.00,3129.507086,N,12118.000031,E,1,09,0.97,40.1,M,9.5,M,,*44
$GNGSA,A,3,04,01,07,08,13,20,23,25,02,,,,1.68,0.97,1.37,1*0B
$GNGSA,A,3,,,,,,,,,,,,,1.68,0.97,1.37,4*00
$GPGSV,3,1,10,01,18,118,35,02,18,314,35,04,45,278,36,07
,64,206,36,0*62
$GPGSV,3,2,10,08,24,212,35,13,61,353,36,16,13,056,35,20,43,117,36,0*6E
$GPGSV,3,3,10,23,46,042,36,25,87,193,36,0*62
$BDGSV,1,1,00,0*74

$GNRMC,000900.00,A,3129.509790,N,12118.000039,E,9.718,0.01,200720,,,A,V*08
$GNGGA,000900.00,3129.509790,N,12118.000039,E,1,09,0.97,40.1,M,9.5,M,,*4F
$GNGSA,A,3,04,01,07,08,13,20,23,25,02,,,,1.68,0.97,1.37,1*0B
$GNGSA,A,3,,,,,,,,,,,,,1.68,0.97,1.37,4*00
$GPGSV,3,1,10,01,18,118,35,02,18,314,35,04,45,278,36,07
,64,206,36,0*62
$GPGSV,3,2,10,08,24,212,35,13,61,353,36,16,13,056,35,20,43,117,36,0*6E
$GPGSV,3,3,10,23,46,042,36,25,87,193,36,0*62
$BDGSV,1,1,00,0*74

$GNRMC,000901.00,A,3129.512495,N,12118.000046,E,9.726,360.00,200720,,,A,V*04
$GNGGA,000901.00,3129.512495,N,12118.000046,E,1,09,0.97,40.1,M,9.5,M,,*4A
$GNGSA,A,3,04,01,07,08,13,20,23,25,02,,,,1.68,0.97,1.37,1*0B
$GNGSA,A,3,,,,,,,,,,,,,1.68,0.97,1.37,4*00
$GPGSV,3,1,10,01,18,118,35,02,18,314,35,04,45,278,36,
07,64,206,36,0*62
$GPGSV,3,2,10,08,24,212,35,13,61,353,36,16,13,056,35,20,43,117,36,0*6E
$GPGSV,3,3,10,23,46,042,36,25,87,193,36,0*62
$BDGSV,1,1,00,0*74
<??????????????>

$GNRMC,000902.00,A,3129.515195,N,12118.000053,E,9.718,0.04,200720,,,A,V*0D
$GNGGA,000902.00,3129.515195,N,12118.000053,E,1,09,0.97,40.0,M,9.5,M,,*4E
$GNGSA,A,3,04,01,07,08,13,20,23,25,02,,,,1.68,0.97,1.37,1*0B
$GNGSA,A,3,,,,,,,,,,,,,1.68,0.97,1.37,4*00
$GPGSV,3,1,10,01,18,118,35,02,18,314,35,04,45,278,36,07
,64,206,36,0*62
$GPGSV,3,2,10,08,24,212,35,13,61,353,36,16,13,056,35,20,43,117,36,0*6E
$GPGSV,3,3,10,23,46,042,36,25,87,193,36,0*62
$BDGSV,1,1,00,0*74

$GNRMC,000903.00,A,3129.517894,N,12118.000056,E,9.720,359.99,200720,,,A,V*03
$GNGGA,000903.00,3129.517894,N,12118.000056,E,1,09,0.97,40.0,M,9.5,M,,*40
$GNGSA,A,3,04,01,07,08,13,20,23,25,02,,,,1.68,0.97,1.38,1*04
$GNGSA,A,3,,,,,,,,,,,,,1.68,0.97,1.38,4*0F
$GPGSV,3,1,10,01,18,118,35,02,18,314,35,04,45,278,36,
07,64,206,36,0*62
$GPGSV,3,2,10,08,24,212,35,13,61,353,36,16,13,056,35,20,43,117,36,0*6E
$GPGSV,3,3,10,23,46,042,36,25,87,193,36,0*62
$BDGSV,1,1,00,0*74

$GNRMC,000904.00,A,3129.520595,N,12118.000064,E,9.730,0.05,200720,,,A,V*06
$GNGGA,000904.00,3129.520595,N,12118.000064,E,1,09,0.97,40.1,M,9.5,M,,*4F
$GNGSA,A,3,04,01,07,08,13,20,23,25,02,,,,1.68,0.97,1.38,1*04
$GNGSA,A,3,,,,,,,,,,,,,1.68,0.97,1.38,4*0F
$GPGSV,3,1,10,01,18,118,35,02,18,314,35,04,45,278,36,07
,64,206,36,0*62
$GPGSV,3,2,10,08,24,212,35,13,61,353,36,16,13,056,35,20,43,117,36,0*6E
$GPGSV,3,3,10,23,46,042,36,25,87,193,36,0*62
$BDGSV,1,1,00,0*74

$GNRMC,000905.00,A,3129.523296,N,12118.000070,E,9.727,359.99,200720,,,A,V*09
$GNGGA,000905.00,3129.523296,N,12118.000070,E,1,09,0.97,40.1,M,9.5,M,,*4C
$GNGSA,A,3,04,01,07,08,13,20,23,25,02,,,,1.68,0.97,1.38,1*04
$GNGSA,A,3,,,,,,,,,,,,,1.68,0.97,1.38,4*0F
$GPGSV,3,1,10,01,18,118,35,02,18,314,35,04,45,278,36,
07,64,206,36,0*62
$GPGSV,3,2,10,08,24,212,35,13,61,353,36,16,13,056,35,20,43,117,36,0*6E
$GPGSV,3,3,10,23,46,042,36,25,87,193,36,0*62
$BDGSV,1,1,00,0*74

GPS HPregnss> E1 15 00 00 00 00 07 55 12 9F 95 00 00 00 1C 3E 0B 21 8E 00 00 00 00 


$GNRMC,000906.00,A,3129.525998,N,12118.000076,E,9.719,359.97,200720,,,A,V*0C
$GNGGA,000906.00,3129.525998,N,12118.000076,E,1,09,0.97,40.1,M,9.5,M,,*4A
$GNGSA,A,3,04,01,07,08,13,20,23,25,02,,,,1.68,0.97,1.38,1*04
$GNGSA,A,3,,,,,,,,,,,,,1.68,0.97,1.38,4*0F
$GPGSV,3,1,10,01,18,118,35,02,18,314,35,04,45,278,36,
07,65,206,36,0*63
$GPGSV,3,2,10,08,24,212,35,13,61,353,36,16,13,056,35,20,43,117,36,0*6E
$GPGSV,3,3,10,23,46,042,36,25,87,193,36,0*62
$BDGSV,1,1,00,0*74

$GNRMC,000907.00,A,3129.528702,N,12118.000086,E,9.726,0.03,200720,,,A,V*0C
$GNGGA,000907.00,3129.528702,N,12118.000086,E,1,09,0.97,40.1,M,9.5,M,,*44
$GNGSA,A,3,04,01,07,08,13,20,23,25,02,,,,1.68,0.97,1.38,1*04
$GNGSA,A,3,,,,,,,,,,,,,1.68,0.97,1.38,4*0F
$GPGSV,3,1,10,01,18,118,35,02,18,314,35,04,45,278,36,07
,65,206,36,0*63
$GPGSV,3,2,10,08,24,212,35,13,61,353,36,16,13,056,35,20,43,117,36,0*6E
$GPGSV,3,3,10,23,46,042,36,25,87,193,36,0*62
$BDGSV,1,1,00,0*74

$GNRMC,000908.00,A,3129.531404,N,12118.000084,E,9.710,359.95,200720,,,A,V*09
$GNGGA,000908.00,3129.531404,N,12118.000084,E,1,09,0.97,40.1,M,9.5,M,,*44
$GNGSA,A,3,04,01,07,08,13,20,23,25,02,,,,1.68,0.97,1.38,1*04
$GNGSA,A,3,,,,,,,,,,,,,1.68,0.97,1.38,4*0F
$GPGSV,3,1,10,01,18,118,35,02,18,314,35,04,45,278,36,
07,65,206,36,0*63
$GPGSV,3,2,10,08,24,212,35,13,61,353,36,16,13,056,35,20,43,117,36,0*6E
$GPGSV,3,3,10,23,46,042,36,25,87,193,36,0*62
$BDGSV,1,1,00,0*74

$GNRMC,000909.00,A,3129.534112,N,12118.000089,E,9.716,0.03,200720,,,A,V*04
$GNGGA,000909.00,3129.534112,N,12118.000089,E,1,09,0.97,40.1,M,9.5,M,,*4F
$GNGSA,A,3,04,01,07,08,13,20,23,25,02,,,,1.68,0.97,1.38,1*04
$GNGSA,A,3,,,,,,,,,,,,,1.68,0.97,1.38,4*0F
$GPGSV,3,1,10,01,18,118,35,02,18,314,35,04,45,278,36,07
,65,206,36,0*63
$GPGSV,3,2,10,08,24,212,35,13,61,353,36,16,13,056,35,20,43,117,36,0*6E
$GPGSV,3,3,10,23,46,042,36,25,87,193,36,0*62
$BDGSV,1,1,00,0*74

$GNRMC,000910.00,A,3129.536823,N,12118.000090,E,9.725,0.00,200720,,,A,V*0E
$GNGGA,000910.00,3129.536823,N,12118.000090,E,1,09,0.97,40.1,M,9.5,M,,*46
$GNGSA,A,3,04,01,07,08,13,20,23,25,02,,,,1.68,0.97,1.38,1*04
$GNGSA,A,3,,,,,,,,,,,,,1.68,0.97,1.38,4*0F
$GPGSV,3,1,10,01,18,118,35,02,18,314,35,04,45,278,36,07
,65,206,36,0*63
$GPGSV,3,2,10,08,24,212,35,13,61,353,36,16,13,056,35,20,43,117,36,0*6E
$GPGSV,3,3,10,23,46,042,36,25,87,193,36,0*62
$BDGSV,1,1,00,0*74

$GNRMC,000911.00,A,3129.539537,N,12118.000093,E,9.722,0.01,200720,,,A,V*0D
$GNGGA,000911.00,3129.539537,N,12118.000093,E,1,09,0.97,40.1,M,9.5,M,,*43
$GNGSA,A,3,04,01,07,08,13,20,23,25,02,,,,1.68,0.97,1.38,1*04
$GNGSA,A,3,,,,,,,,,,,,,1.68,0.97,1.38,4*0F
$GPGSV,3,1,10,01,18,118,35,02,18,314,35,04,45,278,36,07
,65,206,36,0*63
$GPGSV,3,2,10,08,24,212,35,13,61,353,36,16,13,056,35,20,43,117,36,0*6E
$GPGSV,3,3,10,23,46,042,36,25,87,193,36,0*62
$BDGSV,1,1,00,0*74

<????sim??????(SIM??:1)>
<????GSM????????(GSM:0)>
<????GPRS????????(GPRS:0)>
<????????????(SIGNAL:0)>
<????????????????(BER:0)>

<??????????????>

$GNRMC,000912.00,A,3129.542249,N,12118.000098,E,9.723,0.02,200720,,,A,V*05
$GNGGA,000912.00,3129.542249,N,12118.000098,E,1,09,0.97,40.1,M,9.5,M,,*49
$GNGSA,A,3,04,01,07,08,13,20,23,25,02,,,,1.68,0.97,1.38,1*04
$GNGSA,A,3,,,,,,,,,,,,,1.68,0.97,1.38,4*0F
$GPGSV,3,1,10,01,18,118,35,02,18,314,35,04,45,278,36,07
,65,206,36,0*63
$GPGSV,3,2,10,08,24,212,35,13,61,353,36,16,13,056,35,20,43,117,36,0*6E
$GPGSV,3,3,10,23,46,042,36,25,87,193,36,0*62
$BDGSV,1,1,00,0*74

$GNRMC,000913.00,A,3129.544957,N,12118.000103,E,9.729,0.02,200720,,,A,V*0F
$GNGGA,000913.00,3129.544957,N,12118.000103,E,1,09,0.97,40.1,M,9.5,M,,*49
$GNGSA,A,3,04,01,07,08,13,20,23,25,02,,,,1.68,0.97,1.38,1*04
$GNGSA,A,3,,,,,,,,,,,,,1.68,0.97,1.38,4*0F
$GPGSV,3,1,10,01,18,118,35,02,18,314,35,04,45,278,36,07
,65,206,36,0*63
$GPGSV,3,2,10,08,24,212,35,13,61,353,36,16,13,056,35,20,43,117,36,0*6E
$GPGSV,3,3,10,23,46,042,36,25,87,193,36,0*62
$BDGSV,1,1,00,0*74

$GNRMC,000914.00,A,3129.547666,N,12118.000105,E,9.723,0.01,200720,,,A,V*09
$GNGGA,000914.00,3129.547666,N,12118.000105,E,1,09,0.97,40.1,M,9.5,M,,*46
$GNGSA,A,3,04,01,07,08,13,20,23,25,02,,,,1.68,0.97,1.38,1*04
$GNGSA,A,3,,,,,,,,,,,,,1.68,0.97,1.38,4*0F
$GPGSV,3,1,10,01,18,118,35,02,18,314,35,04,45,278,36,07
,65,206,36,0*63
$GPGSV,3,2,10,08,24,212,35,13,61,353,36,16,13,056,35,20,43,117,36,0*6E
$GPGSV,3,3,10,23,46,042,36,25,87,193,36,0*62
$BDGSV,1,1,00,0*74

$GNRMC,000915.00,A,3129.550375,N,12118.000107,E,9.720,0.02,200720,,,A,V*0B
$GNGGA,000915.00,3129.550375,N,12118.000107,E,1,09,0.97,40.1,M,9.5,M,,*44
$GNGSA,A,3,04,01,07,08,13,20,23,25,02,,,,1.68,0.97,1.38,1*04
$GNGSA,A,3,,,,,,,,,,,,,1.68,0.97,1.38,4*0F
$GPGSV,3,1,10,01,18,118,35,02,18,314,35,04,45,278,36,07
