$GPRMC,001859,A,3131.13044,N,12118.00000,E,9.719,360.000,200720,0.000,E,A,V*69

$GPRMC,001900,A,3131.13315,N,12118.00000,E,9.719,0.000,200720,0.000,E,A,V*66

$GPRMC,001901,A,3131.13586,N,12118.00000,E,9.719,0.000,200720,0.000,E,A,V*6B

$GPRMC,001902,A,3131.13856,N,12118.00000,E,9.719,0.000,200720,0.000,E,A,V*68

$GPRMC,001903,A,3131.14127,N,12118.00000,E,9.719,0.000,200720,0.000,E,A,V*61

$GPRMC,001904,A,3131.14397,N,12118.00000,E,9.719,360.000,200720,0.000,E,A,V*6A

$GPRMC,001905,A,3131.14668,N,12118.00000,E,9.719,0.000,200720,0.000,E,A,V*6B

$GPRMC,001906,A,3131.14938,N,12118.00000,E,9.719,0.000,200720,0.000,E,A,V*62

$GPRMC,001907,A,3131.15209,N,12118.00000,E,9.719,0.000,200720,0.000,E,A,V*6B

$GPRMC,001908,A,3131.15479,N,12118.00000,E,9.719,0.000,200720,0.000,E,A,V*65

$GPRMC,001909,A,3131.15750,N,12118.00000,E,9.719,360.000,200720,0.000,E,A,V*69

$GPRMC,001910,A,3131.16021,N,12118.00000,E,9.719,0.000,200720,0.000,E,A,V*66

$GPRMC,001911,A,3131.16291,N,12118.00000,E,9.719,0.000,200720,0.000,E,A,V*6E

$GPRMC,001912,A,3131.16562,N,12118.00000,E,9.719,360.000,200720,0.000,E,A,V*63

$GPRMC,001913,A,3131.16832,N,12118.00000,E,9.719,0.000,200720,0.000,E,A,V*6F

$GPRMC,001914,A,3131.17103,N,12118.00000,E,9.719,0.000,200720,0.000,E,A,V*62

$GPRMC,001915,A,3131.17373,N,12118.00000,E,9.719,0.000,200720,0.000,E,A,V*66

$GPRMC,001916,A,3131.17644,N,12118.00000,E,9.719,360.000,200720,0.000,E,A,V*61

$GPRMC,001917,A,3131.17915,N,12118.00000,E,9.719,360.000,200720,0.000,E,A,V*6B

$GPRMC,001918,A,3131.18185,N,12118.00000,E,9.719,0.000,200720,0.000,E,A,V*6F

$GPRMC,001919,A,3131.18456,N,12118.00000,E,9.719,0.000,200720,0.000,E,A,V*65

$GPRMC,001920,A,3131.18726,N,12118.00000,E,9.719,360.000,200720,0.000,E,A,V*6E

$GPRMC,001921,A,3131.18997,N,12118.00000,E,9.719,0.000,200720,0.000,E,A,V*6E

$GPRMC,001922,A,3131.19267,N,12118.00000,E,9.719,0.000,200720,0.000,E,A,V*68

$GPRMC,001923,A,3131.19538,N,12118.00000,E,9.719,0.000,200720,0.000,E,A,V*64

$GPRMC,001924,A,3131.19808,N,12118.00000,E,9.719,0.000,200720,0.000,E,A,V*6D

$GPRMC,001925,A,3131.20079,N,12118.00000,E,9.719,360.000,200720,0.000,E,A,V*6D

$GPRMC,001926,A,3131.20350,N,12118.00000,E,9.719,0.000,200720,0.000,E,A,V*63

$GPRMC,001927,A,3131.20620,N,12118.00000,E,9.719,0.000,200720,0.000,E,A,V*60

$GPRMC,001928,A,3131.20891,N,12118.00000,E,9.719,360.000,200720,0.000,E,A,V*6E

$GPRMC,001929,A,3131.21161,N,12118.00000,E,9.719,0.000,200720,0.000,E,A,V*6D

$GPRMC,001930,A,3131.21432,N,12118.00000,E,9.719,0.000,200720,0.000,E,A,V*66

$GPRMC,001931,A,3131.21702,N,12118.00000,E,9.719,360.000,200720,0.000,E,A,V*62

$GPRMC,001932,A,3131.21973,N,12118.00000,E,9.719,0.000,200720,0.000,E,A,V*6C

$GPRMC,001933,A,3131.22244,N,12118.00000,E,9.719,0.000,200720,0.000,E,A,V*61

$GPRMC,001934,A,3131.22514,N,12118.00000,E,9.719,0.000,200720,0.000,E,A,V*64

$GPRMC,001935,A,3131.22785,N,12118.00000,E,9.719,360.000,200720,0.000,E,A,V*6A

$GPRMC,001936,A,3131.23055,N,12118.00000,E,9.719,0.000,200720,0.000,E,A,V*67

$GPRMC,001937,A,3131.23326,N,12118.00000,E,9.719,360.000,200720,0.000,E,A,V*64

$GPRMC,001938,A,3131.23596,N,12118.00000,E,9.719,0.000,200720,0.000,E,A,V*63

$GPRMC,001939,A,3131.23867,N,12118.00000,E,9.719,0.000,200720,0.000,E,A,V*61

$GPRMC,001940,A,3131.24138,N,12118.00000,E,9.719,0.000,200720,0.000,E,A,V*6B

$GPRMC,001941,A,3131.24408,N,12118.00000,E,9.719,0.000,200720,0.000,E,A,V*6C

$GPRMC,001942,A,3131.24679,N,12118.00000,E,9.719,0.000,200720,0.000,E,A,V*6B

$GPRMC,001943,A,3131.24949,N,12118.00000,E,9.719,0.000,200720,0.000,E,A,V*66

$GPRMC,001944,A,3131.25220,N,12118.00000,E,9.719,360.000,200720,0.000,E,A,V*61

$GPRMC,001945,A,3131.25490,N,12118.00000,E,9.719,0.000,200720,0.000,E,A,V*68

$GPRMC,001946,A,3131.25761,N,12118.00000,E,9.719,0.000,200720,0.000,E,A,V*66

$GPRMC,001947,A,3131.26031,N,12118.00000,E,9.719,0.000,200720,0.000,E,A,V*66

$GPRMC,001948,A,3131.26302,N,12118.00000,E,9.719,360.000,200720,0.000,E,A,V*6F

$GPRMC,001949,A,3131.26573,N,12118.00000,E,9.719,0.000,200720,0.000,E,A,V*6B

$GPRMC,001950,A,3131.26843,N,12118.00000,E,9.719,0.000,200720,0.000,E,A,V*6D

$GPRMC,001951,A,3131.27114,N,12118.00000,E,9.719,360.000,200720,0.000,E,A,V*63

$GPRMC,001952,A,3131.27384,N,12118.00000,E,9.719,0.000,200720,0.000,E,A,V*6E

$GPRMC,001953,A,3131.27655,N,12118.00000,E,9.719,0.000,200720,0.000,E,A,V*66

$GPRMC,001954,A,3131.27925,N,12118.00000,E,9.719,0.000,200720,0.000,E,A,V*69

$GPRMC,001955,A,3131.28196,N,12118.00000,E,9.719,0.000,200720,0.000,E,A,V*67

$GPRMC,001956,A,3131.28467,N,12118.00000,E,9.719,0.000,200720,0.000,E,A,V*6F

$GPRMC,001957,A,3131.28737,N,12118.00000,E,9.719,0.000,200720,0.000,E,A,V*68

$GPRMC,001958,A,3131.29008,N,12118.00000,E,9.719,0.000,200720,0.000,E,A,V*6D

$GPRMC,001959,A,3131.29278,N,12118.00000,E,9.719,360.000,200720,0.000,E,A,V*6C

$GPRMC,002000,A,3131.29549,N,12118.00000,E,9.719,360.000,200720,0.000,E,A,V*6F

$GPRMC,002001,A,3131.29819,N,12118.00000,E,9.719,360.000,200720,0.000,E,A,V*66

$GPRMC,002002,A,3131.30090,N,12118.00000,E,9.719,0.000,200720,0.000,E,A,V*61

$GPRMC,002003,A,3131.30361,N,12118.00000,E,9.719,0.000,200720,0.000,E,A,V*6D

$GPRMC,002004,A,3131.30631,N,12118.00000,E,9.719,0.000,200720,0.000,E,A,V*6A

$GPRMC,002005,A,3131.30902,N,12118.00000,E,9.719,0.000,200720,0.000,E,A,V*64

$GPRMC,002006,A,3131.31172,N,12118.00000,E,9.719,0.000,200720,0.000,E,A,V*69

$GPRMC,002007,A,3131.31443,N,12118.00000,E,9.719,0.000,200720,0.000,E,A,V*6F

$GPRMC,002008,A,3131.31713,N,12118.00000,E,9.719,0.000,200720,0.000,E,A,V*66

$GPRMC,002009,A,3131.31984,N,12118.00000,E,9.719,360.000,200720,0.000,E,A,V*62

$GPRMC,002010,A,3131.32254,N,12118.00000,E,9.719,0.000,200720,0.000,E,A,V*6A

$GPRMC,002011,A,3131.32525,N,12118.00000,E,9.719,0.000,200720,0.000,E,A,V*6A

$GPRMC,002012,A,3131.32796,N,12118.00000,E,9.719,0.000,200720,0.000,E,A,V*63

$GPRMC,002013,A,3131.33066,N,12118.00000,E,9.719,0.000,200720,0.000,E,A,V*6B

$GPRMC,002014,A,3131.33337,N,12118.00000,E,9.719,0.000,200720,0.000,E,A,V*6B

$GPRMC,002015,A,3131.33607,N,12118.00000,E,9.719,0.000,200720,0.000,E,A,V*6C

$GPRMC,002016,A,3131.33878,N,12118.00000,E,9.719,360.000,200720,0.000,E,A,V*6C

$GPRMC,002017,A,3131.34148,N,12118.00000,E,9.719,0.000,200720,0.000,E,A,V*65

$GPRMC,002018,A,3131.34419,N,12118.00000,E,9.719,360.000,200720,0.000,E,A,V*6E

$GPRMC,002019,A,3131.34690,N,12118.00000,E,9.719,360.000,200720,0.000,E,A,V*6C

$GPRMC,002020,A,3131.34960,N,12118.00000,E,9.719,0.000,200720,0.000,E,A,V*63

$GPRMC,002021,A,3131.35231,N,12118.00000,E,9.719,360.000,200720,0.000,E,A,V*69

$GPRMC,002022,A,3131.35501,N,12118.00000,E,9.719,0.000,200720,0.000,E,A,V*6B

$GPRMC,002023,A,3131.35772,N,12118.00000,E,9.719,0.000,200720,0.000,E,A,V*6C

$GPRMC,002024,A,3131.36042,N,12118.00000,E,9.719,0.000,200720,0.000,E,A,V*6C

$GPRMC,002025,A,3131.36313,N,12118.00000,E,9.719,0.000,200720,0.000,E,A,V*6A

$GPRMC,002026,A,3131.36583,N,12118.00000,E,9.719,360.000,200720,0.000,E,A,V*63

$GPRMC,002027,A,3131.36854,N,12118.00000,E,9.719,0.000,200720,0.000,E,A,V*60

$GPRMC,002028,A,3131.37125,N,12118.00000,E,9.719,360.000,200720,0.000,E,A,V*64

$GPRMC,002029,A,3131.37395,N,12118.00000,E,9.719,0.000,200720,0.000,E,A,V*69

$GPRMC,002030,A,3131.37666,N,12118.00000,E,9.719,0.000,200720,0.000,E,A,V*68

$GPRMC,002031,A,3131.37936,N,12118.00000,E,9.719,0.000,200720,0.000,E,A,V*63

$GPRMC,002032,A,3131.38207,N,12118.00000,E,9.719,0.000,200720,0.000,E,A,V*66

$GPRMC,002033,A,3131.38477,N,12118.00000,E,9.719,360.000,200720,0.000,E,A,V*63

$GPRMC,002034,A,3131.38748,N,12118.00000,E,9.719,0.000,200720,0.000,E,A,V*6E

$GPRMC,002035,A,3131.39019,N,12118.00000,E,9.719,0.000,200720,0.000,E,A,V*6D

$GPRMC,002036,A,3131.39289,N,12118.00000,E,9.719,0.000,200720,0.000,E,A,V*65

$GPRMC,002037,A,3131.39560,N,12118.00000,E,9.719,0.000,200720,0.000,E,A,V*64

$GPRMC,002038,A,3131.39830,N,12118.00000,E,9.719,360.000,200720,0.000,E,A,V*66

$GPRMC,002039,A,3131.40101,N,12118.00000,E,9.719,0.000,200720,0.000,E,A,V*67

$GPRMC,002040,A,3131.40371,N,12118.00000,E,9.719,0.000,200720,0.000,E,A,V*6C

$GPRMC,002041,A,3131.40642,N,12118.00000,E,9.719,360.000,200720,0.000,E,A,V*6D

$GPRMC,002042,A,3131.40913,N,12118.00000,E,9.719,360.000,200720,0.000,E,A,V*65

$GPRMC,002043,A,3131.41183,N,12118.00000,E,9.719,360.000,200720,0.000,E,A,V*64

$GPRMC,002044,A,3131.41454,N,12118.00000,E,9.719,0.000,200720,0.000,E,A,V*69

$GPRMC,002045,A,3131.41724,N,12118.00000,E,9.719,0.000,200720,0.000,E,A,V*6C

$GPRMC,002046,A,3131.41995,N,12118.00000,E,9.719,360.000,200720,0.000,E,A,V*6E

$GPRMC,002047,A,3131.42265,N,12118.00000,E,9.719,0.000,200720,0.000,E,A,V*6D

$GPRMC,002048,A,3131.42536,N,12118.00000,E,9.719,0.000,200720,0.000,E,A,V*63

$GPRMC,002049,A,3131.42806,N,12118.00000,E,9.719,0.000,200720,0.000,E,A,V*6C

$GPRMC,002050,A,3131.43077,N,12118.00000,E,9.719,0.000,200720,0.000,E,A,V*6B

$GPRMC,002051,A,3131.43348,N,12118.00000,E,9.719,0.000,200720,0.000,E,A,V*65

$GPRMC,002052,A,3131.43618,N,12118.00000,E,9.719,360.000,200720,0.000,E,A,V*63

$GPRMC,002053,A,3131.43889,N,12118.00000,E,9.719,0.000,200720,0.000,E,A,V*61

$GPRMC,002054,A,3131.44159,N,12118.00000,E,9.719,360.000,200720,0.000,E,A,V*60

$GPRMC,002055,A,3131.44430,N,12118.00000,E,9.719,0.000,200720,0.000,E,A,V*6E

$GPRMC,002056,A,3131.44700,N,12118.00000,E,9.719,360.000,200720,0.000,E,A,V*68

$GPRMC,002057,A,3131.44971,N,12118.00000,E,9.719,0.000,200720,0.000,E,A,V*64

$GPRMC,002058,A,3131.45242,N,12118.00000,E,9.719,0.000,200720,0.000,E,A,V*61

$GPRMC,002059,A,3131.45512,N,12118.00000,E,9.719,360.000,200720,0.000,E,A,V*67

$GPRMC,002100,A,3131.45783,N,12118.00000,E,9.719,360.000,200720,0.000,E,A,V*60

$GPRMC,002101,A,3131.46053,N,12118.00000,E,9.719,0.000,200720,0.000,E,A,V*6D

$GPRMC,002102,A,3131.46324,N,12118.00000,E,9.719,0.000,200720,0.000,E,A,V*6D

$GPRMC,002103,A,3131.46594,N,12118.00000,E,9.719,0.000,200720,0.000,E,A,V*61

$GPRMC,002104,A,3131.46865,N,12118.00000,E,9.719,0.000,200720,0.000,E,A,V*65

$GPRMC,002105,A,3131.47135,N,12118.00000,E,9.719,0.000,200720,0.000,E,A,V*69

$GPRMC,002106,A,3131.47406,N,12118.00000,E,9.719,0.000,200720,0.000,E,A,V*6F

$GPRMC,002107,A,3131.47677,N,12118.00000,E,9.719,360.000,200720,0.000,E,A,V*6F

$GPRMC,002108,A,3131.47947,N,12118.00000,E,9.719,0.000,200720,0.000,E,A,V*69

$GPRMC,002109,A,3131.48218,N,12118.00000,E,9.719,0.000,200720,0.000,E,A,V*66

$GPRMC,002110,A,3131.48488,N,12118.00000,E,9.719,0.000,200720,0.000,E,A,V*61

$GPRMC,002111,A,3131.48759,N,12118.00000,E,9.719,0.000,200720,0.000,E,A,V*6F

$GPRMC,002112,A,3131.49029,N,12118.00000,E,9.719,0.000,200720,0.000,E,A,V*6D

$GPRMC,002113,A,3131.49300,N,12118.00000,E,9.719,0.000,200720,0.000,E,A,V*64

$GPRMC,002114,A,3131.49571,N,12118.00000,E,9.719,0.000,200720,0.000,E,A,V*63

$GPRMC,002115,A,3131.49841,N,12118.00000,E,9.719,360.000,200720,0.000,E,A,V*69

$GPRMC,002116,A,3131.50112,N,12118.00000,E,9.719,0.000,200720,0.000,E,A,V*68

$GPRMC,002117,A,3131.50382,N,12118.00000,E,9.719,0.000,200720,0.000,E,A,V*62

$GPRMC,002118,A,3131.50653,N,12118.00000,E,9.719,0.000,200720,0.000,E,A,V*64

$GPRMC,002119,A,3131.50923,N,12118.00000,E,9.719,0.000,200720,0.000,E,A,V*6D

$GPRMC,002120,A,3131.51194,N,12118.00000,E,9.719,0.000,200720,0.000,E,A,V*62

$GPRMC,002121,A,3131.51465,N,12118.00000,E,9.719,0.000,200720,0.000,E,A,V*68

$GPRMC,002122,A,3131.51735,N,12118.00000,E,9.719,0.000,200720,0.000,E,A,V*6D

$GPRMC,002123,A,3131.52006,N,12118.00000,E,9.719,0.000,200720,0.000,E,A,V*68

$GPRMC,002124,A,3131.52276,N,12118.00000,E,9.719,360.000,200720,0.000,E,A,V*6F

$GPRMC,002125,A,3131.52547,N,12118.00000,E,9.719,0.000,200720,0.000,E,A,V*6E

$GPRMC,002126,A,3131.52817,N,12118.00000,E,9.719,0.000,200720,0.000,E,A,V*65

$GPRMC,002127,A,3131.53088,N,12118.00000,E,9.719,0.000,200720,0.000,E,A,V*6B

$GPRMC,002128,A,3131.53358,N,12118.00000,E,9.719,0.000,200720,0.000,E,A,V*6A

$GPRMC,002129,A,3131.53629,N,12118.00000,E,9.719,0.000,200720,0.000,E,A,V*68

$GPRMC,002130,A,3131.53900,N,12118.00000,E,9.719,0.000,200720,0.000,E,A,V*64

$GPRMC,002131,A,3131.54170,N,12118.00000,E,9.719,360.000,200720,0.000,E,A,V*68

$GPRMC,002132,A,3131.54441,N,12118.00000,E,9.719,360.000,200720,0.000,E,A,V*6C

$GPRMC,002133,A,3131.54711,N,12118.00000,E,9.719,0.000,200720,0.000,E,A,V*6E

$GPRMC,002134,A,3131.54982,N,12118.00000,E,9.719,0.000,200720,0.000,E,A,V*6D

$GPRMC,002135,A,3131.55252,N,12118.00000,E,9.719,360.000,200720,0.000,E,A,V*6E

$GPRMC,002136,A,3131.55523,N,12118.00000,E,9.719,0.000,200720,0.000,E,A,V*69

$GPRMC,002137,A,3131.55794,N,12118.00000,E,9.719,0.000,200720,0.000,E,A,V*66

$GPRMC,002138,A,3131.56064,N,12118.00000,E,9.719,0.000,200720,0.000,E,A,V*62

$GPRMC,002139,A,3131.56335,N,12118.00000,E,9.719,360.000,200720,0.000,E,A,V*61

$GPRMC,002140,A,3131.56605,N,12118.00000,E,9.719,360.000,200720,0.000,E,A,V*69

$GPRMC,002141,A,3131.56876,N,12118.00000,E,9.719,360.000,200720,0.000,E,A,V*62

$GPRMC,002142,A,3131.57146,N,12118.00000,E,9.719,0.000,200720,0.000,E,A,V*6F

$GPRMC,002143,A,3131.57417,N,12118.00000,E,9.719,0.000,200720,0.000,E,A,V*6F

$GPRMC,002144,A,3131.57688,N,12118.00000,E,9.719,360.000,200720,0.000,E,A,V*69

$GPRMC,002145,A,3131.57958,N,12118.00000,E,9.719,360.000,200720,0.000,E,A,V*6A

$GPRMC,002146,A,3131.58229,N,12118.00000,E,9.719,0.000,200720,0.000,E,A,V*6E

$GPRMC,002147,A,3131.58499,N,12118.00000,E,9.719,0.000,200720,0.000,E,A,V*62

$GPRMC,002148,A,3131.58770,N,12118.00000,E,9.719,360.000,200720,0.000,E,A,V*6C

$GPRMC,002149,A,3131.59040,N,12118.00000,E,9.719,0.000,200720,0.000,E,A,V*6D

$GPRMC,002150,A,3131.59311,N,12118.00000,E,9.719,0.000,200720,0.000,E,A,V*62

$GPRMC,002151,A,3131.59581,N,12118.00000,E,9.719,0.000,200720,0.000,E,A,V*6C

$GPRMC,002152,A,3131.59852,N,12118.00000,E,9.719,360.000,200720,0.000,E,A,V*69

$GPRMC,002153,A,3131.60123,N,12118.00000,E,9.719,0.000,200720,0.000,E,A,V*68

$GPRMC,002154,A,3131.60393,N,12118.00000,E,9.719,0.000,200720,0.000,E,A,V*66

$GPRMC,002155,A,3131.60664,N,12118.00000,E,9.719,0.000,200720,0.000,E,A,V*6A

$GPRMC,002156,A,3131.60934,N,12118.00000,E,9.719,360.000,200720,0.000,E,A,V*66

$GPRMC,002157,A,3131.61205,N,12118.00000,E,9.719,0.000,200720,0.000,E,A,V*6A

$GPRMC,002158,A,3131.61475,N,12118.00000,E,9.719,0.000,200720,0.000,E,A,V*64

$GPRMC,002159,A,3131.61746,N,12118.00000,E,9.719,360.000,200720,0.000,E,A,V*63

$GPRMC,002200,A,3131.62017,N,12118.00000,E,9.719,360.000,200720,0.000,E,A,V*6C

$GPRMC,002201,A,3131.62287,N,12118.00000,E,9.719,0.000,200720,0.000,E,A,V*63

$GPRMC,002202,A,3131.62558,N,12118.00000,E,9.719,0.000,200720,0.000,E,A,V*65

$GPRMC,002203,A,3131.62828,N,12118.00000,E,9.719,0.000,200720,0.000,E,A,V*6E

$GPRMC,002204,A,3131.63099,N,12118.00000,E,9.719,0.000,200720,0.000,E,A,V*6A

$GPRMC,002205,A,3131.63369,N,12118.00000,E,9.719,360.000,200720,0.000,E,A,V*62

$GPRMC,002206,A,3131.63640,N,12118.00000,E,9.719,360.000,200720,0.000,E,A,V*6F

$GPRMC,002207,A,3131.63910,N,12118.00000,E,9.719,0.000,200720,0.000,E,A,V*61

$GPRMC,002208,A,3131.64181,N,12118.00000,E,9.719,0.000,200720,0.000,E,A,V*69

$GPRMC,002209,A,3131.64452,N,12118.00000,E,9.719,0.000,200720,0.000,E,A,V*63

$GPRMC,002210,A,3131.64722,N,12118.00000,E,9.719,360.000,200720,0.000,E,A,V*6A

$GPRMC,002211,A,3131.64993,N,12118.00000,E,9.719,360.000,200720,0.000,E,A,V*6F

$GPRMC,002212,A,3131.65263,N,12118.00000,E,9.719,0.000,200720,0.000,E,A,V*6C

$GPRMC,002213,A,3131.65534,N,12118.00000,E,9.719,0.000,200720,0.000,E,A,V*68

$GPRMC,002214,A,3131.65804,N,12118.00000,E,9.719,360.000,200720,0.000,E,A,V*64

$GPRMC,002215,A,3131.66075,N,12118.00000,E,9.719,0.000,200720,0.000,E,A,V*6D

$GPRMC,002216,A,3131.66346,N,12118.00000,E,9.719,0.000,200720,0.000,E,A,V*6D

$GPRMC,002217,A,3131.66616,N,12118.00000,E,9.719,0.000,200720,0.000,E,A,V*6C

$GPRMC,002218,A,3131.66887,N,12118.00000,E,9.719,360.000,200720,0.000,E,A,V*60

$GPRMC,002219,A,3131.67157,N,12118.00000,E,9.719,0.000,200720,0.000,E,A,V*61

$GPRMC,002220,A,3131.67428,N,12118.00000,E,9.719,0.000,200720,0.000,E,A,V*66

$GPRMC,002221,A,3131.67698,N,12118.00000,E,9.719,0.000,200720,0.000,E,A,V*6E

$GPRMC,002222,A,3131.67969,N,12118.00000,E,9.719,0.000,200720,0.000,E,A,V*6C

$GPRMC,002223,A,3131.68240,N,12118.00000,E,9.719,0.000,200720,0.000,E,A,V*62

$GPRMC,002224,A,3131.68510,N,12118.00000,E,9.719,0.000,200720,0.000,E,A,V*67

$GPRMC,002225,A,3131.68781,N,12118.00000,E,9.719,0.000,200720,0.000,E,A,V*6C

$GPRMC,002226,A,3131.69051,N,12118.00000,E,9.719,0.000,200720,0.000,E,A,V*64

$GPRMC,002227,A,3131.69322,N,12118.00000,E,9.719,0.000,200720,0.000,E,A,V*62

$GPRMC,002228,A,3131.69592,N,12118.00000,E,9.719,0.000,200720,0.000,E,A,V*60

$GPRMC,002229,A,3131.69863,N,12118.00000,E,9.719,0.000,200720,0.000,E,A,V*62

$GPRMC,002230,A,3131.70133,N,12118.00000,E,9.719,0.000,200720,0.000,E,A,V*6E

$GPRMC,002231,A,3131.70404,N,12118.00000,E,9.719,0.000,200720,0.000,E,A,V*6E

$GPRMC,002232,A,3131.70675,N,12118.00000,E,9.719,0.000,200720,0.000,E,A,V*69

$GPRMC,002233,A,3131.70945,N,12118.00000,E,9.719,0.000,200720,0.000,E,A,V*64

$GPRMC,002234,A,3131.71216,N,12118.00000,E,9.719,360.000,200720,0.000,E,A,V*6A

$GPRMC,002235,A,3131.71486,N,12118.00000,E,9.719,0.000,200720,0.000,E,A,V*61

$GPRMC,002236,A,3131.71757,N,12118.00000,E,9.719,0.000,200720,0.000,E,A,V*6D

$GPRMC,002237,A,3131.72027,N,12118.00000,E,9.719,360.000,200720,0.000,E,A,V*6A

$GPRMC,002238,A,3131.72298,N,12118.00000,E,9.719,0.000,200720,0.000,E,A,V*66

$GPRMC,002239,A,3131.72569,N,12118.00000,E,9.719,0.000,200720,0.000,E,A,V*6E

$GPRMC,002240,A,3131.72839,N,12118.00000,E,9.719,360.000,200720,0.000,E,A,V*6D

$GPRMC,002241,A,3131.73110,N,12118.00000,E,9.719,360.000,200720,0.000,E,A,V*6F

$GPRMC,002242,A,3131.73380,N,12118.00000,E,9.719,0.000,200720,0.000,E,A,V*62

$GPRMC,002243,A,3131.73651,N,12118.00000,E,9.719,0.000,200720,0.000,E,A,V*6A

$GPRMC,002244,A,3131.73921,N,12118.00000,E,9.719,360.000,200720,0.000,E,A,V*60

$GPRMC,002245,A,3131.74192,N,12118.00000,E,9.719,0.000,200720,0.000,E,A,V*63

$GPRMC,002246,A,3131.74462,N,12118.00000,E,9.719,0.000,200720,0.000,E,A,V*6A

$GPRMC,002247,A,3131.74733,N,12118.00000,E,9.719,0.000,200720,0.000,E,A,V*6C

$GPRMC,002248,A,3131.75004,N,12118.00000,E,9.719,360.000,200720,0.000,E,A,V*64

$GPRMC,002249,A,3131.75274,N,12118.00000,E,9.719,0.000,200720,0.000,E,A,V*65

$GPRMC,002250,A,3131.75545,N,12118.00000,E,9.719,0.000,200720,0.000,E,A,V*68

$GPRMC,002251,A,3131.75815,N,12118.00000,E,9.719,0.000,200720,0.000,E,A,V*61

$GPRMC,002252,A,3131.76086,N,12118.00000,E,9.719,0.000,200720,0.000,E,A,V*63

$GPRMC,002253,A,3131.76356,N,12118.00000,E,9.719,0.000,200720,0.000,E,A,V*6C

$GPRMC,002254,A,3131.76627,N,12118.00000,E,9.719,360.000,200720,0.000,E,A,V*6D

$GPRMC,002255,A,3131.76898,N,12118.00000,E,9.719,0.000,200720,0.000,E,A,V*63

$GPRMC,002256,A,3131.77168,N,12118.00000,E,9.719,0.000,200720,0.000,E,A,V*67

$GPRMC,002257,A,3131.77439,N,12118.00000,E,9.719,0.000,200720,0.000,E,A,V*67

$GPRMC,002258,A,3131.77709,N,12118.00000,E,9.719,0.000,200720,0.000,E,A,V*68

$GPRMC,002259,A,3131.77980,N,12118.00000,E,9.719,0.000,200720,0.000,E,A,V*66

$GPRMC,002300,A,3131.78250,N,12118.00000,E,9.719,0.000,200720,0.000,E,A,V*62

$GPRMC,002301,A,3131.78521,N,12118.00000,E,9.719,0.000,200720,0.000,E,A,V*62

$GPRMC,002302,A,3131.78792,N,12118.00000,E,9.719,0.000,200720,0.000,E,A,V*6B

$GPRMC,002303,A,3131.79062,N,12118.00000,E,9.719,0.000,200720,0.000,E,A,V*63

$GPRMC,002304,A,3131.79333,N,12118.00000,E,9.719,360.000,200720,0.000,E,A,V*66

$GPRMC,002305,A,3131.79603,N,12118.00000,E,9.719,0.000,200720,0.000,E,A,V*64

$GPRMC,002306,A,3131.79874,N,12118.00000,E,9.719,0.000,200720,0.000,E,A,V*69

$GPRMC,002307,A,3131.80144,N,12118.00000,E,9.719,0.000,200720,0.000,E,A,V*64

$GPRMC,002308,A,3131.80415,N,12118.00000,E,9.719,360.000,200720,0.000,E,A,V*6F

$GPRMC,002309,A,3131.80685,N,12118.00000,E,9.719,360.000,200720,0.000,E,A,V*65

$GPRMC,002310,A,3131.80956,N,12118.00000,E,9.719,0.000,200720,0.000,E,A,V*69

$GPRMC,002311,A,3131.81227,N,12118.00000,E,9.719,0.000,200720,0.000,E,A,V*64

$GPRMC,002312,A,3131.81497,N,12118.00000,E,9.719,0.000,200720,0.000,E,A,V*6A

$GPRMC,002313,A,3131.81768,N,12118.00000,E,9.719,360.000,200720,0.000,E,A,V*6D

$GPRMC,002314,A,3131.82038,N,12118.00000,E,9.719,0.000,200720,0.000,E,A,V*6E

$GPRMC,002315,A,3131.82309,N,12118.00000,E,9.719,360.000,200720,0.000,E,A,V*6B

$GPRMC,002316,A,3131.82579,N,12118.00000,E,9.719,0.000,200720,0.000,E,A,V*6C

$GPRMC,002317,A,3131.82850,N,12118.00000,E,9.719,0.000,200720,0.000,E,A,V*6B

$GPRMC,002318,A,3131.83121,N,12118.00000,E,9.719,360.000,200720,0.000,E,A,V*6F

$GPRMC,002319,A,3131.83391,N,12118.00000,E,9.719,0.000,200720,0.000,E,A,V*62

$GPRMC,002320,A,3131.83662,N,12118.00000,E,9.719,0.000,200720,0.000,E,A,V*61

$GPRMC,002321,A,3131.83932,N,12118.00000,E,9.719,0.000,200720,0.000,E,A,V*6A

$GPRMC,002322,A,3131.84203,N,12118.00000,E,9.719,0.000,200720,0.000,E,A,V*67

$GPRMC,002323,A,3131.84473,N,12118.00000,E,9.719,0.000,200720,0.000,E,A,V*67

$GPRMC,002324,A,3131.84744,N,12118.00000,E,9.719,0.000,200720,0.000,E,A,V*67

$GPRMC,002325,A,3131.85014,N,12118.00000,E,9.719,360.000,200720,0.000,E,A,V*60

$GPRMC,002326,A,3131.85285,N,12118.00000,E,9.719,0.000,200720,0.000,E,A,V*6C

$GPRMC,002327,A,3131.85556,N,12118.00000,E,9.719,0.000,200720,0.000,E,A,V*64

$GPRMC,002328,A,3131.85826,N,12118.00000,E,9.719,0.000,200720,0.000,E,A,V*61

$GPRMC,002329,A,3131.86097,N,12118.00000,E,9.719,0.000,200720,0.000,E,A,V*61

$GPRMC,002330,A,3131.86367,N,12118.00000,E,9.719,0.000,200720,0.000,E,A,V*65

$GPRMC,002331,A,3131.86638,N,12118.00000,E,9.719,360.000,200720,0.000,E,A,V*6E

$GPRMC,002332,A,3131.86908,N,12118.00000,E,9.719,0.000,200720,0.000,E,A,V*64

$GPRMC,002333,A,3131.87179,N,12118.00000,E,9.719,0.000,200720,0.000,E,A,V*6A

$GPRMC,002334,A,3131.87450,N,12118.00000,E,9.719,0.000,200720,0.000,E,A,V*63

$GPRMC,002335,A,3131.87720,N,12118.00000,E,9.719,0.000,200720,0.000,E,A,V*66

$GPRMC,002336,A,3131.87991,N,12118.00000,E,9.719,0.000,200720,0.000,E,A,V*61

$GPRMC,002337,A,3131.88261,N,12118.00000,E,9.719,360.000,200720,0.000,E,A,V*6E

$GPRMC,002338,A,3131.88532,N,12118.00000,E,9.719,0.000,200720,0.000,E,A,V*65

$GPRMC,002339,A,3131.88802,N,12118.00000,E,9.719,0.000,200720,0.000,E,A,V*6A

$GPRMC,002340,A,3131.89073,N,12118.00000,E,9.719,0.000,200720,0.000,E,A,V*6B

$GPRMC,002341,A,3131.89344,N,12118.00000,E,9.719,360.000,200720,0.000,E,A,V*68

$GPRMC,002342,A,3131.89614,N,12118.00000,E,9.719,0.000,200720,0.000,E,A,V*6E

$GPRMC,002343,A,3131.89885,N,12118.00000,E,9.719,0.000,200720,0.000,E,A,V*69

$GPRMC,002344,A,3131.90155,N,12118.00000,E,9.719,360.000,200720,0.000,E,A,V*67

$GPRMC,002345,A,3131.90426,N,12118.00000,E,9.719,360.000,200720,0.000,E,A,V*67

$GPRMC,002346,A,3131.90696,N,12118.00000,E,9.719,0.000,200720,0.000,E,A,V*68

$GPRMC,002347,A,3131.90967,N,12118.00000,E,9.719,0.000,200720,0.000,E,A,V*68

$GPRMC,002348,A,3131.91237,N,12118.00000,E,9.719,0.000,200720,0.000,E,A,V*68

$GPRMC,002349,A,3131.91508,N,12118.00000,E,9.719,360.000,200720,0.000,E,A,V*67

$GPRMC,002350,A,3131.91779,N,12118.00000,E,9.719,0.000,200720,0.000,E,A,V*6E

$GPRMC,002351,A,3131.92049,N,12118.00000,E,9.719,360.000,200720,0.000,E,A,V*6D

$GPRMC,002352,A,3131.92320,N,12118.00000,E,9.719,0.000,200720,0.000,E,A,V*67

$GPRMC,002353,A,3131.92590,N,12118.00000,E,9.719,0.000,200720,0.000,E,A,V*6B

$GPRMC,002354,A,3131.92861,N,12118.00000,E,9.719,360.000,200720,0.000,E,A,V*6A

$GPRMC,002355,A,3131.93131,N,12118.00000,E,9.719,360.000,200720,0.000,E,A,V*66

$GPRMC,002356,A,3131.93402,N,12118.00000,E,9.719,0.000,200720,0.000,E,A,V*65

$GPRMC,002357,A,3131.93673,N,12118.00000,E,9.719,0.000,200720,0.000,E,A,V*60

$GPRMC,002358,A,3131.93943,N,12118.00000,E,9.719,360.000,200720,0.000,E,A,V*66

$GPRMC,002359,A,3131.94214,N,12118.00000,E,9.719,0.000,200720,0.000,E,A,V*6C

$GPRMC,002400,A,3131.94484,N,12118.00000,E,9.719,0.000,200720,0.000,E,A,V*68

$GPRMC,002401,A,3131.94755,N,12118.00000,E,9.719,0.000,200720,0.000,E,A,V*66

$GPRMC,002402,A,3131.95025,N,12118.00000,E,9.719,360.000,200720,0.000,E,A,V*61

$GPRMC,002403,A,3131.95296,N,12118.00000,E,9.719,0.000,200720,0.000,E,A,V*6F

$GPRMC,002404,A,3131.95566,N,12118.00000,E,9.719,0.000,200720,0.000,E,A,V*60

$GPRMC,002405,A,3131.95837,N,12118.00000,E,9.719,0.000,200720,0.000,E,A,V*68

$GPRMC,002406,A,3131.96108,N,12118.00000,E,9.719,360.000,200720,0.000,E,A,V*68

$GPRMC,002407,A,3131.96378,N,12118.00000,E,9.719,0.000,200720,0.000,E,A,V*69

$GPRMC,002408,A,3131.96649,N,12118.00000,E,9.719,0.000,200720,0.000,E,A,V*61

$GPRMC,002409,A,3131.96919,N,12118.00000,E,9.719,0.000,200720,0.000,E,A,V*6A

$GPRMC,002410,A,3131.97190,N,12118.00000,E,9.719,360.000,200720,0.000,E,A,V*6F

$GPRMC,002411,A,3131.97460,N,12118.00000,E,9.719,360.000,200720,0.000,E,A,V*64

$GPRMC,002412,A,3131.97731,N,12118.00000,E,9.719,360.000,200720,0.000,E,A,V*60

$GPRMC,002413,A,3131.98002,N,12118.00000,E,9.719,360.000,200720,0.000,E,A,V*69

$GPRMC,002414,A,3131.98272,N,12118.00000,E,9.719,360.000,200720,0.000,E,A,V*6B

$GPRMC,002415,A,3131.98543,N,12118.00000,E,9.719,0.000,200720,0.000,E,A,V*6A

$GPRMC,002416,A,3131.98813,N,12118.00000,E,9.719,360.000,200720,0.000,E,A,V*64

$GPRMC,002417,A,3131.99084,N,12118.00000,E,9.719,0.000,200720,0.000,E,A,V*67

$GPRMC,002418,A,3131.99354,N,12118.00000,E,9.719,360.000,200720,0.000,E,A,V*63

$GPRMC,002419,A,3131.99625,N,12118.00000,E,9.719,0.000,200720,0.000,E,A,V*64

$GPRMC,002420,A,3131.99895,N,12118.00000,E,9.719,0.000,200720,0.000,E,A,V*6B

$GPRMC,002421,A,3132.00166,N,12118.00000,E,9.719,0.000,200720,0.000,E,A,V*6C

$GPRMC,002422,A,3132.00437,N,12118.00000,E,9.719,0.000,200720,0.000,E,A,V*6E

$GPRMC,002423,A,3132.00707,N,12118.00000,E,9.719,360.000,200720,0.000,E,A,V*6A

$GPRMC,002424,A,3132.00978,N,12118.00000,E,9.719,360.000,200720,0.000,E,A,V*6B

$GPRMC,002425,A,3132.01248,N,12118.00000,E,9.719,0.000,200720,0.000,E,A,V*66

$GPRMC,002426,A,3132.01519,N,12118.00000,E,9.719,0.000,200720,0.000,E,A,V*66

$GPRMC,002427,A,3132.01789,N,12118.00000,E,9.719,360.000,200720,0.000,E,A,V*69

$GPRMC,002428,A,3132.02060,N,12118.00000,E,9.719,0.000,200720,0.000,E,A,V*60

$GPRMC,002429,A,3132.02331,N,12118.00000,E,9.719,0.000,200720,0.000,E,A,V*66

$GPRMC,002430,A,3132.02601,N,12118.00000,E,9.719,0.000,200720,0.000,E,A,V*68

$GPRMC,002431,A,3132.02872,N,12118.00000,E,9.719,0.000,200720,0.000,E,A,V*63

$GPRMC,002432,A,3132.03142,N,12118.00000,E,9.719,360.000,200720,0.000,E,A,V*6E

$GPRMC,002433,A,3132.03413,N,12118.00000,E,9.719,0.000,200720,0.000,E,A,V*6B

$GPRMC,002434,A,3132.03683,N,12118.00000,E,9.719,0.000,200720,0.000,E,A,V*67

$GPRMC,002435,A,3132.03954,N,12118.00000,E,9.719,360.000,200720,0.000,E,A,V*66

$GPRMC,002436,A,3132.04225,N,12118.00000,E,9.719,0.000,200720,0.000,E,A,V*6A

$GPRMC,002437,A,3132.04495,N,12118.00000,E,9.719,360.000,200720,0.000,E,A,V*63

$GPRMC,002438,A,3132.04766,N,12118.00000,E,9.719,0.000,200720,0.000,E,A,V*66

$GPRMC,002439,A,3132.05036,N,12118.00000,E,9.719,360.000,200720,0.000,E,A,V*61

$GPRMC,002440,A,3132.05307,N,12118.00000,E,9.719,0.000,200720,0.000,E,A,V*6B

$GPRMC,002441,A,3132.05577,N,12118.00000,E,9.719,360.000,200720,0.000,E,A,V*6E

$GPRMC,002442,A,3132.05848,N,12118.00000,E,9.719,360.000,200720,0.000,E,A,V*6C

$GPRMC,002443,A,3132.06118,N,12118.00000,E,9.719,360.000,200720,0.000,E,A,V*62

$GPRMC,002444,A,3132.06389,N,12118.00000,E,9.719,0.000,200720,0.000,E,A,V*6A

$GPRMC,002445,A,3132.06660,N,12118.00000,E,9.719,360.000,200720,0.000,E,A,V*6C

$GPRMC,002446,A,3132.06930,N,12118.00000,E,9.719,0.000,200720,0.000,E,A,V*60

$GPRMC,002447,A,3132.07201,N,12118.00000,E,9.719,0.000,200720,0.000,E,A,V*69

$GPRMC,002448,A,3132.07471,N,12118.00000,E,9.719,0.000,200720,0.000,E,A,V*67

$GPRMC,002449,A,3132.07742,N,12118.00000,E,9.719,0.000,200720,0.000,E,A,V*65

$GPRMC,002450,A,3132.08012,N,12118.00000,E,9.719,360.000,200720,0.000,E,A,V*65

$GPRMC,002451,A,3132.08283,N,12118.00000,E,9.719,0.000,200720,0.000,E,A,V*6B

$GPRMC,002452,A,3132.08554,N,12118.00000,E,9.719,0.000,200720,0.000,E,A,V*65

