$GNRMC,002503.00,A,3132.115253,N,12117.999982,E,9.720,0.00,200720,,,A,V*09
$GNGGA,002503.00,3132.115253,N,12117.999982,E,1,08,1.09,40.5,M,9.5,M,,*47
$GNGSA,A,3,07,20,13,08,25,04,23,02,,,,,2.13,1.09,1.83,1*0C
$GNGSA,A,3,,,,,,,,,,,,,2.13,1.09,1.83,4*06
$GPGSV,3,1,11,01,13,123,35,02,22,308,35,04,44,267,36,07,7
2,212,36,0*69
$GPGSV,3,2,11,08,31,215,35,13,59,007,36,16,11,050,35,20,37,124,36,0*62
$GPGSV,3,3,11,23,42,049,36,25,85,022,36,27,04,222,,0*56
$BDGSV,1,1,00,0*74

$GNRMC,002504.00,A,3132.117956,N,12117.999983,E,9.719,0.02,200720,,,A,V*0B
$GNGGA,002504.00,3132.117956,N,12117.999983,E,1,08,1.09,40.5,M,9.5,M,,*4D
$GNGSA,A,3,07,20,13,08,25,04,23,02,,,,,2.13,1.09,1.83,1*0C
$GNGSA,A,3,,,,,,,,,,,,,2.13,1.09,1.83,4*06
$GPGSV,3,1,11,01,13,123,35,02,22,308,35,04,44,267,36,07,7
2,212,36,0*69
$GPGSV,3,2,11,08,31,215,35,13,59,007,36,16,11,050,35,20,37,124,36,0*62
$GPGSV,3,3,11,23,42,049,36,25,85,022,36,27,04,222,,0*56
$BDGSV,1,1,00,0*74

$GNRMC,002505.00,A,3132.120657,N,12117.999988,E,9.719,0.03,200720,,,A,V*0A
$GNGGA,002505.00,3132.120657,N,12117.999988,E,1,08,1.09,40.4,M,9.5,M,,*4C
$GNGSA,A,3,07,20,13,08,25,04,23,02,,,,,2.13,1.09,1.83,1*0C
$GNGSA,A,3,,,,,,,,,,,,,2.13,1.09,1.83,4*06
$GPGSV,3,1,11,01,13,123,35,02,22,308,35,04,44,267,36,07,7
2,212,36,0*69
$GPGSV,3,2,11,08,31,215,35,13,59,007,36,16,11,050,35,20,37,124,36,0*62
$GPGSV,3,3,11,23,42,049,36,25,85,022,36,27,04,222,,0*56
$BDGSV,1,1,00,0*74


GPS HPregnss> E1 15 00 00 00 00 07 57 A7 2A 9B 00 00 00 1C 3E 0B 1C 38 00 00 00 00 


$GNRMC,002506.00,A,3132.123361,N,12117.999987,E,9.727,359.98,200720,,,A,V*05
$GNGGA,002506.00,3132.123361,N,12117.999987,E,1,08,1.09,40.5,M,9.5,M,,*42
$GNGSA,A,3,07,20,13,08,25,04,23,02,,,,,2.13,1.09,1.83,1*0C
$GNGSA,A,3,,,,,,,,,,,,,2.13,1.09,1.83,4*06
$GPGSV,3,1,11,01,13,123,35,02,22,308,35,04,44,267,36,07
,72,212,36,0*69
$GPGSV,3,2,11,08,31,215,35,13,59,007,36,16,11,050,35,20,37,124,36,0*62
$GPGSV,3,3,11,23,42,049,36,25,85,022,36,27,04,222,,0*56
$BDGSV,1,1,00,0*74

$GNRMC,002507.00,A,3132.126061,N,12117.999985,E,9.720,359.92,200720,,,A,V*0D
$GNGGA,002507.00,3132.126061,N,12117.999985,E,1,08,1.09,40.5,M,9.5,M,,*47
$GNGSA,A,3,07,20,13,08,25,04,23,02,,,,,2.13,1.09,1.83,1*0C
$GNGSA,A,3,,,,,,,,,,,,,2.13,1.09,1.83,4*06
$GPGSV,3,1,11,01,13,123,35,02,22,308,35,04,44,267,36,07
,72,212,36,0*69
$GPGSV,3,2,11,08,31,215,35,13,59,007,36,16,11,050,35,20,37,124,36,0*62
$GPGSV,3,3,11,23,42,049,36,25,85,022,36,27,04,222,,0*56
$BDGSV,1,1,00,0*74

<??????????????>

$GNRMC,002508.00,A,3132.128765,N,12117.999985,E,9.729,359.84,200720,,,A,V*01
$GNGGA,002508.00,3132.128765,N,12117.999985,E,1,08,1.09,40.5,M,9.5,M,,*45
$GNGSA,A,3,07,20,13,08,25,04,23,02,,,,,2.13,1.09,1.83,1*0C
$GNGSA,A,3,,,,,,,,,,,,,2.13,1.09,1.83,4*06
$GPGSV,3,1,11,01,12,123,35,02,22,308,35,04,44,267,36,07
,72,212,36,0*68
$GPGSV,3,2,11,08,31,215,35,13,59,007,36,16,11,050,35,20,37,124,36,0*62
$GPGSV,3,3,11,23,42,049,36,25,85,022,36,27,04,222,,0*56
$BDGSV,1,1,00,0*74

$GNRMC,002509.00,A,3132.131466,N,12117.999987,E,9.710,359.93,200720,,,A,V*06
$GNGGA,002509.00,3132.131466,N,12117.999987,E,1,08,1.09,40.5,M,9.5,M,,*4E
$GNGSA,A,3,07,20,13,08,25,04,23,02,,,,,2.13,1.09,1.83,1*0C
$GNGSA,A,3,,,,,,,,,,,,,2.13,1.09,1.83,4*06
$GPGSV,3,1,11,01,12,123,35,02,22,308,35,04,44,267,36,07
,72,212,36,0*68
$GPGSV,3,2,11,08,31,215,35,13,59,007,36,16,11,050,35,20,37,124,36,0*62
$GPGSV,3,3,11,23,42,049,36,25,85,022,36,27,04,222,,0*56
$BDGSV,1,1,00,0*74

$GNRMC,002510.00,A,3132.134175,N,12117.999990,E,9.731,0.04,200720,,,A,V*08
$GNGGA,002510.00,3132.134175,N,12117.999990,E,1,08,1.09,40.5,M,9.5,M,,*42
$GNGSA,A,3,07,20,13,08,25,04,23,02,,,,,2.13,1.09,1.83,1*0C
$GNGSA,A,3,,,,,,,,,,,,,2.13,1.09,1.83,4*06
$GPGSV,3,1,11,01,12,123,35,02,22,308,35,04,44,267,36,07,7
2,212,36,0*68
$GPGSV,3,2,11,08,31,215,35,13,59,007,36,16,11,050,34,20,37,124,36,0*63
$GPGSV,3,3,11,23,42,049,36,25,85,022,36,27,04,222,,0*56
$BDGSV,1,1,00,0*74

$GNRMC,002511.00,A,3132.136880,N,12117.999994,E,9.715,0.13,200720,,,A,V*0C
$GNGGA,002511.00,3132.136880,N,12117.999994,E,1,08,1.09,40.4,M,9.5,M,,*47
$GNGSA,A,3,07,20,13,08,25,04,23,02,,,,,2.13,1.09,1.83,1*0C
$GNGSA,A,3,,,,,,,,,,,,,2.13,1.09,1.83,4*06
$GPGSV,3,1,11,01,12,123,35,02,22,308,35,04,44,267,36,07,7
2,212,36,0*68
$GPGSV,3,2,11,08,31,215,35,13,59,007,36,16,11,050,35,20,37,124,36,0*62
$GPGSV,3,3,11,23,42,049,36,25,85,022,36,27,04,222,,0*56
$BDGSV,1,1,00,0*74

$GNRMC,002512.00,A,3132.139588,N,12118.000000,E,9.719,0.16,200720,,,A,V*0E
$GNGGA,002512.00,3132.139588,N,12118.000000,E,1,08,1.09,40.4,M,9.5,M,,*4C
$GNGSA,A,3,07,20,13,08,25,04,23,02,,,,,2.13,1.09,1.83,1*0C
$GNGSA,A,3,,,,,,,,,,,,,2.13,1.09,1.83,4*06
$GPGSV,3,1,11,01,12,123,35,02,22,308,35,04,44,267,36,07,7
2,212,36,0*68
$GPGSV,3,2,11,08,31,215,35,13,59,007,36,16,11,050,35,20,37,124,36,0*62
$GPGSV,3,3,11,23,42,049,36,25,85,022,36,27,04,222,,0*56
$BDGSV,1,1,00,0*74

$GNRMC,002513.00,A,3132.142293,N,12118.000009,E,9.716,0.15,200720,,,A,V*0B
$GNGGA,002513.00,3132.142293,N,12118.000009,E,1,08,1.09,40.4,M,9.5,M,,*45
$GNGSA,A,3,07,20,13,08,25,04,23,02,,,,,2.13,1.09,1.83,1*0C
$GNGSA,A,3,,,,,,,,,,,,,2.13,1.09,1.83,4*06
$GPGSV,3,1,11,01,12,123,35,02,22,308,35,04,44,267,36,07,7
2,212,36,0*68
$GPGSV,3,2,11,08,31,215,35,13,59,007,36,16,11,050,35,20,37,124,36,0*62
$GPGSV,3,3,11,23,42,049,36,25,85,022,36,27,04,222,,0*56
$BDGSV,1,1,00,0*74

$GNRMC,002514.00,A,3132.144999,N,12118.000014,E,9.725,0.07,200720,,,A,V*04
$GNGGA,002514.00,3132.144999,N,12118.000014,E,1,08,1.09,40.4,M,9.5,M,,*49
$GNGSA,A,3,07,20,13,08,25,04,23,02,,,,,2.13,1.09,1.83,1*0C
$GNGSA,A,3,,,,,,,,,,,,,2.13,1.09,1.83,4*06
$GPGSV,3,1,11,01,12,123,35,02,22,308,35,04,44,267,36,07,7
3,212,36,0*69
$GPGSV,3,2,11,08,31,215,35,13,59,007,36,16,11,050,35,20,37,124,36,0*62
$GPGSV,3,3,11,23,42,049,36,25,85,022,36,27,04,222,,0*56
$BDGSV,1,1,00,0*74

$GNRMC,002515.00,A,3132.147698,N,12118.000023,E,9.711,0.06,200720,,,A,V*0A
$GNGGA,002515.00,3132.147698,N,12118.000023,E,1,08,1.09,40.4,M,9.5,M,,*41
$GNGSA,A,3,07,20,13,08,25,04,23,02,,,,,2.13,1.09,1.83,1*0C
$GNGSA,A,3,,,,,,,,,,,,,2.13,1.09,1.83,4*06
$GPGSV,3,1,11,01,12,123,35,02,22,308,35,04,44,267,36,07,7
3,212,36,0*69
$GPGSV,3,2,11,08,31,215,35,13,59,007,36,16,11,050,35,20,37,124,36,0*62
$GPGSV,3,3,11,23,42,049,36,25,85,022,36,27,04,222,,0*56
$BDGSV,1,1,00,0*74

$GNRMC,002516.00,A,3132.150399,N,12118.000030,E,9.718,0.07,200720,,,A,V*01
$GNGGA,002516.00,3132.150399,N,12118.000030,E,1,08,1.09,40.4,M,9.5,M,,*42
$GNGSA,A,3,07,20,13,08,25,04,23,02,,,,,2.13,1.09,1.83,1*0C
$GNGSA,A,3,,,,,,,,,,,,,2.13,1.09,1.83,4*06
$GPGSV,3,1,11,01,12,123,35,02,22,308,35,04,44,267,36,07,7
3,212,36,0*69
$GPGSV,3,2,11,08,31,215,35,13,59,007,36,16,11,050,35,20,37,124,36,0*62
$GPGSV,3,3,11,23,42,049,36,25,85,022,36,27,04,222,,0*56
$BDGSV,1,1,00,0*74

$GNRMC,002517.00,A,3132.153106,N,12118.000034,E,9.731,0.09,200720,,,A,V*06
$GNGGA,002517.00,3132.153106,N,12118.000034,E,1,08,1.09,40.3,M,9.5,M,,*47
$GNGSA,A,3,07,20,13,08,25,04,23,02,,,,,2.13,1.09,1.83,1*0C
$GNGSA,A,3,,,,,,,,,,,,,2.13,1.09,1.83,4*06
$GPGSV,3,1,11,01,12,123,35,02,22,308,35,04,44,267,36,07,7
3,212,36,0*69
$GPGSV,3,2,11,08,31,215,35,13,59,007,36,16,11,050,35,20,37,124,36,0*62
$GPGSV,3,3,11,23,42,049,36,25,85,022,36,27,04,222,,0*56
$BDGSV,1,1,00,0*74

<????sim??????(SIM??:1)>
<????GSM????????(GSM:0)>
<????GPRS????????(GPRS:0)>
<????????????(SIGNAL:0)>
<????????????????(BER:0)>

<??????????????>

$GNRMC,002518.00,A,3132.155813,N,12118.000030,E,9.718,359.91,200720,,,A,V*03
$GNGGA,002518.00,3132.155813,N,12118.000030,E,1,08,1.09,40.4,M,9.5,M,,*40
$GNGSA,A,3,07,20,13,08,25,04,23,02,,,,,2.13,1.09,1.83,1*0C
$GNGSA,A,3,,,,,,,,,,,,,2.13,1.09,1.83,4*06
$GPGSV,3,1,11,01,12,123,35,02,22,308,35,04,44,267,36,07
,73,212,36,0*69
$GPGSV,3,2,11,08,31,215,35,13,59,007,36,16,11,050,35,20,37,124,36,0*62
$GPGSV,3,3,11,23,42,049,36,25,85,022,36,27,04,222,,0*56
$BDGSV,1,1,00,0*74

$GNRMC,002519.00,A,3132.158525,N,12118.000029,E,9.724,359.87,200720,,,A,V*07
$GNGGA,002519.00,3132.158525,N,12118.000029,E,1,08,1.09,40.4,M,9.5,M,,*4C
$GNGSA,A,3,07,20,13,08,25,04,23,02,,,,,2.13,1.09,1.83,1*0C
$GNGSA,A,3,,,,,,,,,,,,,2.13,1.09,1.83,4*06
$GPGSV,3,1,11,01,12,123,35,02,22,308,35,04,44,267,36,07
,73,212,36,0*69
$GPGSV,3,2,11,08,31,215,35,13,59,007,36,16,11,050,35,20,37,124,36,0*62
$GPGSV,3,3,11,23,42,049,36,25,85,022,36,27,04,222,,0*56
$BDGSV,1,1,00,0*74

$GNRMC,002520.00,A,3132.161238,N,12118.000026,E,9.729,359.92,200720,,,A,V*0A
$GNGGA,002520.00,3132.161238,N,12118.000026,E,1,08,1.09,40.4,M,9.5,M,,*48
$GNGSA,A,3,07,20,13,08,25,04,23,02,,,,,2.13,1.09,1.83,1*0C
$GNGSA,A,3,,,,,,,,,,,,,2.13,1.09,1.83,4*06
$GPGSV,3,1,11,01,12,123,35,02,22,308,35,04,44,267,36,07
,73,212,36,0*69
$GPGSV,3,2,11,08,31,215,35,13,59,007,36,16,11,050,35,20,37,124,36,0*62
$GPGSV,3,3,11,23,42,049,36,25,85,022,36,27,04,222,,0*56
$BDGSV,1,1,00,0*74

$GNRMC,002521.00,A,3132.163952,N,12118.000029,E,9.722,0.07,200720,,,A,V*09
$GNGGA,002521.00,3132.163952,N,12118.000029,E,1,08,1.09,40.4,M,9.5,M,,*43
$GNGSA,A,3,07,20,13,08,25,04,23,02,,,,,2.13,1.09,1.83,1*0C
$GNGSA,A,3,,,,,,,,,,,,,2.13,1.09,1.83,4*06
$GPGSV,3,1,11,01,12,123,35,02,22,308,35,04,44,267,36,07,7
3,212,36,0*69
$GPGSV,3,2,11,08,31,215,35,13,59,007,36,16,11,050,35,20,37,124,36,0*62
$GPGSV,3,3,11,23,42,049,36,25,85,022,36,27,04,222,,0*56
$BDGSV,1,1,00,0*74

$GNRMC,002522.00,A,3132.166663,N,12118.000029,E,9.717,0.05,200720,,,A,V*06
$GNGGA,002522.00,3132.166663,N,12118.000029,E,1,08,1.09,40.3,M,9.5,M,,*4F
$GNGSA,A,3,07,20,13,08,25,04,23,02,,,,,2.13,1.09,1.83,1*0C
$GNGSA,A,3,,,,,,,,,,,,,2.13,1.09,1.83,4*06
$GPGSV,3,1,11,01,12,123,35,02,22,308,35,04,44,267,36,07,7
3,212,36,0*69
$GPGSV,3,2,11,08,31,215,35,13,59,007,36,16,11,050,35,20,37,124,36,0*62
$GPGSV,3,3,11,23,42,049,36,25,85,022,36,27,04,222,,0*56
$BDGSV,1,1,00,0*74

$GNRMC,002523.00,A,3132.169375,N,12118.000025,E,9.718,0.01,200720,,,A,V*0D
$GNGGA,002523.00,3132.169375,N,12118.000025,E,1,08,1.09,40.4,M,9.5,M,,*48
$GNGSA,A,3,07,20,13,08,25,04,23,02,,,,,2.13,1.09,1.83,1*0C
$GNGSA,A,3,,,,,,,,,,,,,2.13,1.09,1.83,4*06
$GPGSV,3,1,11,01,12,123,35,02,22,308,35,04,44,267,36,07,7
3,212,36,0*69
$GPGSV,3,2,11,08,31,215,35,13,59,007,36,16,11,050,35,20,37,124,36,0*62
$GPGSV,3,3,11,23,42,049,36,25,85,022,36,27,04,222,,0*56
$BDGSV,1,1,00,0*74

$GNRMC,002524.00,A,3132.172086,N,12118.000024,E,9.728,0.06,200720,,,A,V*0A
$GNGGA,002524.00,3132.172086,N,12118.000024,E,1,08,1.09,40.4,M,9.5,M,,*4B
$GNGSA,A,3,07,20,13,08,25,04,23,02,,,,,2.13,1.09,1.83,1*0C
$GNGSA,A,3,,,,,,,,,,,,,2.13,1.09,1.83,4*06
$GPGSV,3,1,11,01,12,123,35,02,22,308,35,04,44,267,36,07,7
3,212,36,0*69
$GPGSV,3,2,11,08,31,215,35,13,59,007,36,16,11,050,35,20,37,124,36,0*62
$GPGSV,3,3,11,23,42,049,36,25,85,022,36,27,04,222,,0*56
$BDGSV,1,1,00,0*74

$GNRMC,002525.00,A,3132.174795,N,12118.000024,E,9.713,0.05,200720,,,A,V*03
$GNGGA,002525.00,3132.174795,N,12118.000024,E,1,08,1.09,40.4,M,9.5,M,,*49
$GNGSA,A,3,07,20,13,08,25,04,23,02,,,,,2.13,1.09,1.83,1*0C
$GNGSA,A,3,,,,,,,,,,,,,2.13,1.09,1.83,4*06
$GPGSV,3,1,11,01,12,123,35,02,22,308,35,04,44,267,36,07,7
3,212,36,0*69
$GPGSV,3,2,11,08,31,215,35,13,59,007,36,16,11,050,35,20,37,124,36,0*62
$GPGSV,3,3,11,23,42,050,36,25,85,022,36,27,04,222,,0*5E
$BDGSV,1,1,00,0*74

$GNRMC,002526.00,A,3132.177504,N,12118.000026,E,9.719,0.03,200720,,,A,V*07
$GNGGA,002526.00,3132.177504,N,12118.000026,E,1,08,1.09,40.4,M,9.5,M,,*41
$GNGSA,A,3,07,20,13,08,25,04,23,02,,,,,2.13,1.09,1.83,1*0C
$GNGSA,A,3,,,,,,,,,,,,,2.13,1.09,1.83,4*06
$GPGSV,3,1,11,01,12,123,35,02,22,308,35,04,44,267,36,07,7
3,212,36,0*69
$GPGSV,3,2,11,08,31,215,35,13,59,007,36,16,11,050,35,20,37,124,36,0*62
$GPGSV,3,3,11,23,42,050,36,25,85,022,36,27,04,222,,0*5E
$BDGSV,1,1,00,0*74

$GNRMC,002527.00,A,3132.180214,N,12118.000026,E,9.727,0.02,200720,,,A,V*04
$GNGGA,002527.00,3132.180214,N,12118.000026,E,1,08,1.09,40.4,M,9.5,M,,*4E
$GNGSA,A,3,07,20,13,08,25,04,23,02,,,,,2.13,1.09,1.83,1*0C
$GNGSA,A,3,,,,,,,,,,,,,2.13,1.09,1.83,4*06
$GPGSV,3,1,11,01,12,123,35,02,22,308,35,04,44,267,36,07,7
3,212,36,0*69
$GPGSV,3,2,11,08,31,215,35,13,59,007,36,16,11,050,35,20,37,124,36,0*62
$GPGSV,3,3,11,23,42,050,36,25,85,022,36,27,04,222,,0*5E
$BDGSV,1,1,00,0*74

$GNRMC,002528.00,A,3132.182920,N,12118.000033,E,9.715,0.06,200720,,,A,V*04
$GNGGA,002528.00,3132.182920,N,12118.000033,E,1,08,1.09,40.4,M,9.5,M,,*4B
$GNGSA,A,3,07,20,13,08,25,04,23,02,,,,,2.13,1.09,1.83,1*0C
$GNGSA,A,3,,,,,,,,,,,,,2.13,1.09,1.83,4*06
$GPGSV,3,1,11,01,12,123,35,02,22,308,35,04,44,267,36,07,7
3,212,36,0*69
$GPGSV,3,2,11,08,31,215,35,13,59,007,36,16,11,050,35,20,37,124,36,0*62
$GPGSV,3,3,11,23,42,050,36,25,85,022,36,27,04,222,,0*5E
$BDGSV,1,1,00,0*74
<??????????????>

$GNRMC,002529.00,A,3132.185628,N,12118.000037,E,9.731,0.03,200720,,,A,V*02
$GNGGA,002529.00,3132.185628,N,12118.000037,E,1,08,1.09,40.4,M,9.5,M,,*4E
$GNGSA,A,3,07,20,13,08,25,04,23,02,,,,,2.13,1.09,1.83,1*0C
$GNGSA,A,3,,,,,,,,,,,,,2.13,1.09,1.83,4*06
$GPGSV,3,1,11,01,12,123,35,02,22,308,35,04,44,267,36,07,7
3,212,36,0*69
$GPGSV,3,2,11,08,31,215,35,13,59,007,36,16,11,050,35,20,37,124,36,0*62
$GPGSV,3,3,11,23,42,050,36,25,85,022,36,27,04,223,,0*5F
$BDGSV,1,1,00,0*74

$GNRMC,002530.00,A,3132.188331,N,12118.000038,E,9.709,0.04,200720,,,A,V*09
$GNGGA,002530.00,3132.188331,N,12118.000038,E,1,08,1.09,40.4,M,9.5,M,,*49
$GNGSA,A,3,07,20,13,08,25,04,23,02,,,,,2.13,1.09,1.83,1*0C
$GNGSA,A,3,,,,,,,,,,,,,2.13,1.09,1.83,4*06
$GPGSV,3,1,11,01,12,123,35,02,22,308,35,04,44,267,36,07,7
3,212,36,0*69
$GPGSV,3,2,11,08,31,215,35,13,59,007,36,16,11,050,35,20,37,124,36,0*62
$GPGSV,3,3,11,23,42,050,36,25,85,022,36,27,04,223,,0*5F
$BDGSV,1,1,00,0*74

$GNRMC,002531.00,A,3132.191036,N,12118.000041,E,9.724,0.11,200720,,,A,V*01
$GNGGA,002531.00,3132.191036,N,12118.000041,E,1,08,1.09,40.5,M,9.5,M,,*4B
$GNGSA,A,3,07,20,13,08,25,04,23,02,,,,,2.13,1.09,1.83,1*0C
$GNGSA,A,3,,,,,,,,,,,,,2.13,1.09,1.83,4*06
$GPGSV,3,1,11,01,12,123,35,02,22,308,35,04,44,267,36,07,7
3,212,36,0*69
$GPGSV,3,2,11,08,31,215,35,13,59,007,36,16,11,050,35,20,37,124,36,0*62
$GPGSV,3,3,11,23,42,050,36,25,85,022,36,27,04,223,,0*5F
$BDGSV,1,1,00,0*74

$GNRMC,002532.00,A,3132.193744,N,12118.000039,E,9.720,0.03,200720,,,A,V*0A
$GNGGA,002532.00,3132.193744,N,12118.000039,E,1,08,1.09,40.5,M,9.5,M,,*47
$GNGSA,A,3,07,20,13,08,25,04,23,02,,,,,2.13,1.09,1.83,1*0C
$GNGSA,A,3,,,,,,,,,,,,,2.13,1.09,1.83,4*06
$GPGSV,3,1,11,01,12,123,35,02,22,308,35,04,44,267,36,07,7
3,212,36,0*69
$GPGSV,3,2,11,08,31,215,35,13,59,007,36,16,11,050,34,20,37,124,36,0*63
$GPGSV,3,3,11,23,42,050,36,25,85,022,36,27,04,223,,0*5F
$BDGSV,1,1,00,0*74

$GNRMC,002533.00,A,3132.196450,N,12118.000037,E,9.716,0.03,200720,,,A,V*03
$GNGGA,002533.00,3132.196450,N,12118.000037,E,1,08,1.09,40.5,M,9.5,M,,*4B
$GNGSA,A,3,07,20,13,08,25,04,23,02,,,,,2.13,1.09,1.83,1*0C
$GNGSA,A,3,,,,,,,,,,,,,2.13,1.09,1.83,4*06
$GPGSV,3,1,11,01,12,123,35,02,22,308,35,04,44,267,36,07,7
3,212,36,0*69
$GPGSV,3,2,11,08,31,215,35,13,59,007,36,16,11,050,35,20,37,124,36,0*62
$GPGSV,3,3,11,23,42,050,36,25,85,022,36,27,04,223,,0*5F
$BDGSV,1,1,00,0*74

$GNRMC,002534.00,A,3132.199160,N,12118.000039,E,9.725,0.02,200720,,,A,V*02
$GNGGA,002534.00,3132.199160,N,12118.000039,E,1,08,1.09,40.5,M,9.5,M,,*4B
$GNGSA,A,3,07,20,13,08,25,04,23,02,,,,,2.13,1.09,1.83,1*0C
$GNGSA,A,3,,,,,,,,,,,,,2.13,1.09,1.83,4*06
$GPGSV,3,1,11,01,12,123,35,02,22,308,35,04,44,267,36,07,7
3,212,36,0*69
$GPGSV,3,2,11,08,31,215,35,13,59,007,36,16,11,050,35,20,37,124,36,0*62
$GPGSV,3,3,11,23,42,050,36,25,85,022,36,27,04,223,,0*5F
$BDGSV,1,1,00,0*74

$GNRMC,002535.00,A,3132.201866,N,12118.000034,E,9.718,0.01,200720,,,A,V*0E
$GNGGA,002535.00,3132.201866,N,12118.000034,E,1,08,1.09,40.5,M,9.5,M,,*4A
$GNGSA,A,3,07,20,13,08,25,04,23,02,,,,,2.13,1.09,1.83,1*0C
$GNGSA,A,3,,,,,,,,,,,,,2.13,1.09,1.83,4*06
$GPGSV,3,1,11,01,12,123,35,02,22,308,35,04,44,267,36,07,7
3,212,36,0*69
$GPGSV,3,2,11,08,31,215,35,13,59,007,36,16,11,050,35,20,37,124,36,0*62
$GPGSV,3,3,11,23,42,050,36,25,85,022,36,27,04,223,,0*5F
$BDGSV,1,1,00,0*74

$GNRMC,002536.00,A,3132.204576,N,12118.000028,E,9.732,359.99,200720,,,A,V*0F
$GNGGA,002536.00,3132.204576,N,12118.000028,E,1,08,1.09,40.5,M,9.5,M,,*4D
$GNGSA,A,3,07,20,13,08,25,04,23,02,,,,,2.13,1.09,1.83,1*0C
$GNGSA,A,3,,,,,,,,,,,,,2.13,1.09,1.83,4*06
$GPGSV,3,1,11,01,12,123,35,02,22,308,35,04,44,267,36,07
,73,212,36,0*69
$GPGSV,3,2,11,08,31,215,35,13,59,007,36,16,11,050,35,20,37,124,36,0*62
$GPGSV,3,3,11,23,42,050,36,25,85,022,36,27,04,223,,0*5F
$BDGSV,1,1,00,0*74

GPS HPregnss> E1 15 00 00 00 00 07 57 BC 82 15 00 00 00 1C 3E 0B 1E D2 00 00 00 00 


$GNRMC,002537.00,A,3132.207283,N,12118.000027,E,9.719,359.97,200720,,,A,V*08
$GNGGA,002537.00,3132.207283,N,12118.000027,E,1,08,1.09,40.5,M,9.5,M,,*4D
$GNGSA,A,3,07,20,13,08,25,04,23,02,,,,,2.13,1.09,1.83,1*0C
$GNGSA,A,3,,,,,,,,,,,,,2.13,1.09,1.83,4*06
$GPGSV,3,1,11,01,12,123,35,02,22,308,35,04,44,267,36,07
,73,212,36,0*69
$GPGSV,3,2,11,08,31,215,35,13,59,007,36,16,11,050,35,20,37,124,36,0*62
$GPGSV,3,3,11,23,42,050,36,25,85,022,36,27,04,223,,0*5F
$BDGSV,1,1,00,0*74

$GNRMC,002538.00,A,3132.209988,N,12118.000018,E,9.727,359.77,200720,,,A,V*06
$GNGGA,002538.00,3132.209988,N,12118.000018,E,1,08,1.09,40.5,M,9.5,M,,*40
$GNGSA,A,3,07,20,13,08,25,04,23,02,,,,,2.13,1.09,1.83,1*0C
$GNGSA,A,3,,,,,,,,,,,,,2.13,1.09,1.83,4*06
$GPGSV,3,1,11,01,12,123,35,02,22,308,35,04,44,267,36,07
,73,212,36,0*69
$GPGSV,3,2,11,08,31,215,35,13,59,007,36,16,11,050,35,20,37,124,36,0*62
$GPGSV,3,3,11,23,42,050,36,25,85,022,36,27,04,223,,0*5F
$BDGSV,1,1,00,0*74
<????sim??????(SIM??:1)>
<????GSM????????(GSM:0)>
<????GPRS????????(GPRS:0)>
<????????????(SIGNAL:0)>
<????????????????(BER:0)>

<??????????????>

$GNRMC,002539.00,A,3132.212697,N,12118.000017,E,9.726,359.84,200720,,,A,V*0E
$GNGGA,002539.00,3132.212697,N,12118.000017,E,1,08,1.09,40.6,M,9.5,M,,*46
$GNGSA,A,3,07,20,13,08,25,04,23,02,,,,,2.13,1.09,1.83,1*0C
$GNGSA,A,3,,,,,,,,,,,,,2.13,1.09,1.83,4*06
$GPGSV,3,1,11,01,12,123,35,02,22,308,35,04,44,267,36,07
,73,212,36,0*69
$GPGSV,3,2,11,08,31,215,35,13,59,007,36,16,11,050,35,20,37,124,36,0*62
$GPGSV,3,3,11,23,42,050,36,25,85,022,36,27,04,223,,0*5F
$BDGSV,1,1,00,0*74

$GNRMC,002540.00,A,3132.215408,N,12118.000013,E,9.726,359.86,200720,,,A,V*05
$GNGGA,002540.00,3132.215408,N,12118.000013,E,1,08,1.09,40.6,M,9.5,M,,*4F
$GNGSA,A,3,07,20,13,08,25,04,23,02,,,,,2.13,1.09,1.83,1*0C
$GNGSA,A,3,,,,,,,,,,,,,2.13,1.09,1.83,4*06
$GPGSV,3,1,11,01,12,123,35,02,22,308,35,04,44,267,36,07
,73,212,36,0*69
$GPGSV,3,2,11,08,31,215,35,13,59,007,36,16,11,050,35,20,37,124,36,0*62
$GPGSV,3,3,11,23,42,050,36,25,85,022,36,27,04,223,,0*5F
$BDGSV,1,1,00,0*74

$GNRMC,002541.00,A,3132.218115,N,12118.000007,E,9.716,359.89,200720,,,A,V*09
$GNGGA,002541.00,3132.218115,N,12118.000007,E,1,08,1.09,40.6,M,9.5,M,,*4F
$GNGSA,A,3,07,20,13,08,25,04,23,02,,,,,2.13,1.09,1.83,1*0C
$GNGSA,A,3,,,,,,,,,,,,,2.13,1.09,1.83,4*06
$GPGSV,3,1,11,01,12,123,35,02,22,308,35,04,44,267,36,07
,73,213,36,0*68
$GPGSV,3,2,11,08,31,215,35,13,59,007,36,16,11,050,35,20,37,124,36,0*62
$GPGSV,3,3,11,23,42,050,36,25,85,022,36,27,04,223,,0*5F
$BDGSV,1,1,00,0*74

$GNRMC,002542.00,A,3132.220825,N,12118.000001,E,9.720,359.84,200720,,,A,V*05
$GNGGA,002542.00,3132.220825,N,12118.000001,E,1,08,1.09,40.6,M,9.5,M,,*4B
$GNGSA,A,3,07,20,13,08,25,04,23,02,,,,,2.13,1.09,1.83,1*0C
$GNGSA,A,3,,,,,,,,,,,,,2.13,1.09,1.83,4*06
$GPGSV,3,1,11,01,12,123,35,02,22,308,35,04,44,267,36,07
,73,213,36,0*68
$GPGSV,3,2,11,08,32,215,35,13,59,007,36,16,11,050,35,20,37,124,36,0*61
$GPGSV,3,3,11,23,42,050,36,25,85,022,36,27,04,223,,0*5F
$BDGSV,1,1,00,0*74

$GNRMC,002543.00,A,3132.223533,N,12117.999995,E,9.721,359.96,200720,,,A,V*0D
$GNGGA,002543.00,3132.223533,N,12117.999995,E,1,08,1.09,40.6,M,9.5,M,,*41
$GNGSA,A,3,07,20,13,08,25,04,23,02,,,,,2.13,1.09,1.83,1*0C
$GNGSA,A,3,,,,,,,,,,,,,2.13,1.09,1.83,4*06
$GPGSV,3,1,11,01,12,123,35,02,22,308,35,04,44,267,36,07
,73,213,36,0*68
$GPGSV,3,2,11,08,32,215,35,13,59,008,36,16,11,050,35,20,37,124,36,0*6E
$GPGSV,3,3,11,23,42,050,36,25,85,022,36,27,04,223,,0*5F
$BDGSV,1,1,00,0*74

$GNRMC,002544.00,A,3132.226244,N,12117.999987,E,9.724,0.03,200720,,,A,V*0D
$GNGGA,002544.00,3132.226244,N,12117.999987,E,1,08,1.09,40.7,M,9.5,M,,*46
$GNGSA,A,3,07,20,13,08,25,04,23,02,,,,,2.13,1.09,1.83,1*0C
$GNGSA,A,3,,,,,,,,,,,,,2.13,1.09,1.83,4*06
$GPGSV,3,1,11,01,12,123,35,02,22,308,35,04,44,267,36,07,7
3,213,36,0*68
$GPGSV,3,2,11,08,32,215,35,13,59,008,36,16,11,050,35,20,37,124,36,0*6E
$GPGSV,3,3,11,23,42,050,36,25,85,022,36,27,04,223,,0*5F
$BDGSV,1,1,00,0*74

$GNRMC,002545.00,A,3132.228948,N,12117.999976,E,9.709,0.04,200720,,,A,V*03
$GNGGA,002545.00,3132.228948,N,12117.999976,E,1,08,1.09,40.7,M,9.5,M,,*40
$GNGSA,A,3,07,20,13,08,25,04,23,02,,,,,2.13,1.09,1.83,1*0C
$GNGSA,A,3,,,,,,,,,,,,,2.13,1.09,1.83,4*06
$GPGSV,3,1,11,01,12,123,35,02,22,308,35,04,44,267,36,07,7
3,213,36,0*68
$GPGSV,3,2,11,08,32,215,35,13,59,008,36,16,11,049,35,20,37,124,36,0*66
$GPGSV,3,3,11,23,42,050,36,25,85,022,36,27,04,223,,0*5F
$BDGSV,1,1,00,0*74

$GNRMC,002546.00,A,3132.231658,N,12117.999971,E,9.725,0.11,200720,,,A,V*0B
$GNGGA,002546.00,3132.231658,N,12117.999971,E,1,08,1.09,40.7,M,9.5,M,,*42
$GNGSA,A,3,07,20,13,08,25,04,23,02,,,,,2.13,1.09,1.83,1*0C
$GNGSA,A,3,,,,,,,,,,,,,2.13,1.09,1.83,4*06
$GPGSV,3,1,11,01,12,123,35,02,22,308,35,04,44,267,36,07,7
3,213,36,0*68
$GPGSV,3,2,11,08,32,215,35,13,59,008,36,16,11,049,35,20,37,124,36,0*66
$GPGSV,3,3,11,23,42,050,36,25,85,022,36,27,04,223,,0*5F
$BDGSV,1,1,00,0*74

$GNRMC,002547.00,A,3132.234365,N,12117.999970,E,9.733,0.09,200720,,,A,V*0B
$GNGGA,002547.00,3132.234365,N,12117.999970,E,1,08,1.09,40.6,M,9.5,M,,*4D
$GNGSA,A,3,07,20,13,08,25,04,23,02,,,,,2.13,1.09,1.83,1*0C
$GNGSA,A,3,,,,,,,,,,,,,2.13,1.09,1.83,4*06
$GPGSV,3,1,11,01,12,123,35,02,22,308,35,04,44,267,36,07,7
3,213,36,0*68
$GPGSV,3,2,11,08,32,215,35,13,59,008,36,16,11,049,35,20,37,124,36,0*66
$GPGSV,3,3,11,23,42,050,36,25,85,022,36,27,04,223,,0*5F
$BDGSV,1,1,00,0*74

$GNRMC,002548.00,A,3132.237064,N,12117.999965,E,9.706,0.07,200720,,,A,V*09
$GNGGA,002548.00,3132.237064,N,12117.999965,E,1,08,1.09,40.7,M,9.5,M,,*46
$GNGSA,A,3,07,20,13,08,25,04,23,02,,,,,2.13,1.09,1.83,1*0C
$GNGSA,A,3,,,,,,,,,,,,,2.13,1.09,1.83,4*06
$GPGSV,3,1,11,01,12,123,35,02,22,308,35,04,44,267,36,07,7
3,213,36,0*68
$GPGSV,3,2,11,08,32,215,35,13,59,008,36,16,11,049,34,20,37,124,36,0*67
$GPGSV,3,3,11,23,42,050,36,25,85,022,36,27,04,223,,0*5F
$BDGSV,1,1,00,0*74
<??????????????>

$GNRMC,002549.00,A,3132.239771,N,12117.999960,E,9.720,0.06,200720,,,A,V*05
$GNGGA,002549.00,3132.239771,N,12117.999960,E,1,08,1.09,40.7,M,9.5,M,,*4F
$GNGSA,A,3,07,20,13,08,25,04,23,02,,,,,2.13,1.09,1.83,1*0C
$GNGSA,A,3,,,,,,,,,,,,,2.13,1.09,1.83,4*06
$GPGSV,3,1,11,01,12,123,35,02,22,308,35,04,44,267,36,07,7
3,213,36,0*68
$GPGSV,3,2,11,08,32,215,35,13,59,008,36,16,11,049,35,20,37,124,36,0*66
$GPGSV,3,3,11,23,42,050,36,25,85,022,36,27,04,223,,0*5F
$BDGSV,1,1,00,0*74

$GNRMC,002550.00,A,3132.242473,N,12117.999955,E,9.719,0.07,200720,,,A,V*0D
$GNGGA,002550.00,3132.242473,N,12117.999955,E,1,08,1.09,40.7,M,9.5,M,,*4C
$GNGSA,A,3,07,20,13,08,25,04,23,02,,,,,2.13,1.09,1.83,1*0C
$GNGSA,A,3,,,,,,,,,,,,,2.13,1.09,1.83,4*06
$GPGSV,3,1,11,01,12,123,35,02,22,308,35,04,44,267,36,07,7
3,213,36,0*68
$GPGSV,3,2,11,08,32,215,35,13,59,008,36,16,11,049,35,20,37,124,36,0*66
$GPGSV,3,3,11,23,42,050,36,25,85,022,36,27,04,223,,0*5F
$BDGSV,1,1,00,0*74

$GNRMC,002551.00,A,3132.245176,N,12117.999951,E,9.719,0.11,200720,,,A,V*08
$GNGGA,002551.00,3132.245176,N,12117.999951,E,1,08,1.09,40.7,M,9.5,M,,*4E
$GNGSA,A,3,07,20,13,08,25,04,23,02,,,,,2.13,1.09,1.83,1*0C
$GNGSA,A,3,,,,,,,,,,,,,2.13,1.09,1.83,4*06
$GPGSV,3,1,11,01,12,123,35,02,22,308,35,04,44,267,36,07,7
3,213,36,0*68
$GPGSV,3,2,11,08,32,215,35,13,59,008,36,16,11,049,35,20,37,124,36,0*66
$GPGSV,3,3,11,23,42,050,36,25,85,022,36,27,04,223,,0*5F
$BDGSV,1,1,00,0*74

$GNRMC,002552.00,A,3132.247877,N,12117.999943,E,9.724,0.03,200720,,,A,V*0F
$GNGGA,002552.00,3132.247877,N,12117.999943,E,1,08,1.09,40.7,M,9.5,M,,*44
$GNGSA,A,3,07,20,13,08,25,04,23,02,,,,,2.13,1.09,1.83,1*0C
$GNGSA,A,3,,,,,,,,,,,,,2.13,1.09,1.83,4*06
$GPGSV,3,1,11,01,12,123,35,02,22,308,35,04,44,267,35,07,7
3,213,36,0*6B
$GPGSV,3,2,11,08,32,215,35,13,59,008,36,16,11,049,35,20,37,124,36,0*66
$GPGSV,3,3,11,23,42,050,36,25,85,022,36,27,04,223,,0*5F
$BDGSV,1,1,00,0*74

$GNRMC,002553.00,A,3132.250577,N,12117.999943,E,9.722,0.12,200720,,,A,V*03
$GNGGA,002553.00,3132.250577,N,12117.999943,E,1,08,1.09,40.7,M,9.5,M,,*4E
$GNGSA,A,3,07,20,13,08,25,04,23,02,,,,,2.13,1.09,1.83,1*0C
$GNGSA,A,3,,,,,,,,,,,,,2.13,1.09,1.83,4*06
$GPGSV,3,1,11,01,12,123,35,02,22,308,35,04,44,267,36,07,7
3,213,36,0*68
$GPGSV,3,2,11,08,32,215,35,13,59,008,36,16,11,049,35,20,37,124,36,0*66
$GPGSV,3,3,11,23,42,050,36,25,85,022,36,27,04,223,,0*5F
$BDGSV,1,1,00,0*74

$GNRMC,002554.00,A,3132.253275,N,12117.999937,E,9.715,0.03,200720,,,A,V*05
$GNGGA,002554.00,3132.253275,N,12117.999937,E,1,08,1.09,40.7,M,9.5,M,,*4C
$GNGSA,A,3,07,20,13,08,25,04,23,02,,,,,2.13,1.09,1.83,1*0C
$GNGSA,A,3,,,,,,,,,,,,,2.13,1.09,1.83,4*06
$GPGSV,3,1,11,01,12,123,35,02,22,308,35,04,44,267,35,07,7
3,213,36,0*6B
$GPGSV,3,2,11,08,32,215,35,13,59,008,36,16,11,049,35,20,37,124,36,0*66
$GPGSV,3,3,11,23,42,050,36,25,84,022,36,27,04,223,,0*5E
$BDGSV,1,1,00,0*74

$GNRMC,002555.00,A,3132.255980,N,12117.999933,E,9.727,0.03,200720,,,A,V*06
$GNGGA,002555.00,3132.255980,N,12117.999933,E,1,08,1.09,40.7,M,9.5,M,,*4E
$GNGSA,A,3,07,20,13,08,25,04,23,02,,,,,2.13,1.09,1.83,1*0C
$GNGSA,A,3,,,,,,,,,,,,,2.13,1.09,1.83,4*06
$GPGSV,3,1,11,01,12,123,35,02,22,308,34,04,44,267,36,07,7
3,213,36,0*69
$GPGSV,3,2,11,08,32,215,35,13,59,008,36,16,11,049,35,20,37,124,36,0*66
$GPGSV,3,3,11,23,42,050,36,25,84,022,36,27,04,223,,0*5E
$BDGSV,1,1,00,0*74

$GNRMC,002556.00,A,3132.258681,N,12117.999931,E,9.714,0.02,200720,,,A,V*05
$GNGGA,002556.00,3132.258681,N,12117.999931,E,1,08,1.09,40.7,M,9.5,M,,*4C
$GNGSA,A,3,07,20,13,08,25,04,23,02,,,,,2.13,1.09,1.83,1*0C
$GNGSA,A,3,,,,,,,,,,,,,2.13,1.09,1.83,4*06
$GPGSV,3,1,11,01,12,123,35,02,22,308,35,04,44,267,36,07,7
3,213,36,0*68
$GPGSV,3,2,11,08,32,215,35,13,59,008,36,16,11,049,35,20,37,124,36,0*66
$GPGSV,3,3,11,23,42,050,36,25,84,022,36,27,04,223,,0*5E
$BDGSV,1,1,00,0*74

$GNRMC,002557.00,A,3132.261389,N,12117.999925,E,9.734,359.95,200720,,,A,V*05
$GNGGA,002557.00,3132.261389,N,12117.999925,E,1,08,1.09,40.6,M,9.5,M,,*4E
$GNGSA,A,3,07,20,13,08,25,04,23,02,,,,,2.13,1.09,1.83,1*0C
$GNGSA,A,3,,,,,,,,,,,,,2.13,1.09,1.83,4*06
$GPGSV,3,1,11,01,12,123,35,02,22,308,35,04,44,267,36,07
,73,213,36,0*68
$GPGSV,3,2,11,08,32,215,35,13,59,008,36,16,11,049,35,20,37,124,36,0*66
$GPGSV,3,3,11,23,42,050,36,25,84,022,36,27,04,223,,0*5E
$BDGSV,1,1,00,0*74

$GNRMC,002558.00,A,3132.264090,N,12117.999926,E,9.710,0.05,200720,,,A,V*07
$GNGGA,002558.00,3132.264090,N,12117.999926,E,1,08,1.09,40.6,M,9.5,M,,*4C
$GNGSA,A,3,07,20,13,08,25,04,23,02,,,,,2.13,1.09,1.83,1*0C
$GNGSA,A,3,,,,,,,,,,,,,2.13,1.09,1.83,4*06
$GPGSV,3,1,11,01,12,123,35,02,22,308,35,04,44,267,36,07,7
3,213,36,0*68
$GPGSV,3,2,11,08,32,215,35,13,59,008,36,16,11,049,35,20,37,124,36,0*66
$GPGSV,3,3,11,23,42,050,36,25,84,022,36,27,04,223,,0*5E
$BDGSV,1,1,00,0*74
<????sim??????(SIM??:1)>
<????GSM????????(GSM:0)>
<????GPRS????????(GPRS:0)>
<????????????(SIGNAL:0)>
<????????????????(BER:0)>

<??????????????>

$GNRMC,002559.00,A,3132.266794,N,12117.999926,E,9.721,0.00,200720,,,A,V*00
$GNGGA,002559.00,3132.266794,N,12117.999926,E,1,08,1.09,40.6,M,9.5,M,,*4C
$GNGSA,A,3,07,20,13,08,25,04,23,02,,,,,2.13,1.09,1.83,1*0C
$GNGSA,A,3,,,,,,,,,,,,,2.13,1.09,1.83,4*06
$GPGSV,3,1,11,01,12,123,35,02,22,308,35,04,44,267,36,07,7
3,213,36,0*68
$GPGSV,3,2,11,08,32,215,35,13,59,008,36,16,11,049,35,20,37,124,36,0*66
$GPGSV,3,3,11,23,42,050,36,25,84,022,36,27,04,223,,0*5E
$BDGSV,1,1,00,0*74

$GNRMC,002600.00,A,3132.269496,N,12117.999929,E,9.726,359.97,200720,,,A,V*08
$GNGGA,002600.00,3132.269496,N,12117.999929,E,1,08,1.09,40.6,M,9.5,M,,*42
$GNGSA,A,3,07,20,13,08,25,04,23,02,,,,,2.13,1.09,1.83,1*0C
$GNGSA,A,3,,,,,,,,,,,,,2.13,1.09,1.83,4*06
$GPGSV,3,1,11,01,12,123,35,02,22,308,35,04,44,267,36,07
,73,213,36,0*68
$GPGSV,3,2,11,08,32,215,35,13,59,008,36,16,11,049,35,20,37,124,36,0*66
$GPGSV,3,3,11,23,42,050,36,25,84,022,37,27,04,223,,0*5F
$BDGSV,1,1,00,0*74

$GNRMC,002601.00,A,3132.272202,N,12117.999928,E,9.731,359.85,200720,,,A,V*0C
$GNGGA,002601.00,3132.272202,N,12117.999928,E,1,08,1.09,40.6,M,9.5,M,,*43
$GNGSA,A,3,07,20,13,08,25,04,23,02,,,,,2.13,1.09,1.83,1*0C
$GNGSA,A,3,,,,,,,,,,,,,2.13,1.09,1.83,4*06
$GPGSV,3,1,11,01,12,123,35,02,22,308,35,04,44,267,36,07
,73,213,36,0*68
$GPGSV,3,2,11,08,32,215,35,13,59,008,36,16,11,049,35,20,37,124,36,0*66
$GPGSV,3,3,11,23,42,050,36,25,84,022,36,27,04,223,,0*5E
$BDGSV,1,1,00,0*74

$GNRMC,002602.00,A,3132.274902,N,12117.999938,E,9.718,359.89,200720,,,A,V*04
$GNGGA,002602.00,3132.274902,N,12117.999938,E,1,08,1.09,40.6,M,9.5,M,,*4C
$GNGSA,A,3,07,20,13,08,25,04,23,02,,,,,2.13,1.09,1.83,1*0C
$GNGSA,A,3,,,,,,,,,,,,,2.13,1.09,1.83,4*06
$GPGSV,3,1,11,01,12,123,35,02,22,308,35,04,44,267,36,07
,73,213,36,0*68
$GPGSV,3,2,11,08,32,215,35,13,59,008,36,16,11,049,34,20,37,124,36,0*67
$GPGSV,3,3,11,23,42,050,36,25,84,022,36,27,04,223,,0*5E
$BDGSV,1,1,00,0*74

$GNRMC,002603.00,A,3132.277604,N,12117.999943,E,9.721,359.89,200720,,,A,V*09
$GNGGA,002603.00,3132.277604,N,12117.999943,E,1,08,1.09,40.6,M,9.5,M,,*4B
$GNGSA,A,3,07,20,13,08,25,04,23,02,,,,,2.13,1.09,1.83,1*0C
$GNGSA,A,3,,,,,,,,,,,,,2.13,1.09,1.83,4*06
$GPGSV,3,1,11,01,12,123,35,02,22,308,35,04,44,267,36,07
,73,213,36,0*68
$GPGSV,3,2,11,08,32,215,35,13,59,008,36,16,11,049,35,20,37,124,36,0*66
$GPGSV,3,3,11,23,42,050,36,25,84,022,36,27,04,223,,0*5E
$BDGSV,1,1,00,0*74

$GNRMC,002604.00,A,3132.280303,N,12117.999946,E,9.713,0.01,200720,,,A,V*0F
$GNGGA,002604.00,3132.280303,N,12117.999946,E,1,08,1.09,40.6,M,9.5,M,,*43
$GNGSA,A,3,07,20,13,08,25,04,23,02,,,,,2.13,1.09,1.83,1*0C
$GNGSA,A,3,,,,,,,,,,,,,2.13,1.09,1.83,4*06
$GPGSV,3,1,11,01,12,123,35,02,22,308,35,04,44,267,36,07,7
3,213,36,0*68
$GPGSV,3,2,11,08,32,215,35,13,59,008,36,16,11,049,35,20,37,124,36,0*66
$GPGSV,3,3,11,23,42,050,36,25,84,022,36,27,04,223,,0*5E
$BDGSV,1,1,00,0*74

$GNRMC,002605.00,A,3132.283001,N,12117.999947,E,9.719,0.06,200720,,,A,V*00
$GNGGA,002605.00,3132.283001,N,12117.999947,E,1,08,1.09,40.6,M,9.5,M,,*41
$GNGSA,A,3,07,20,13,08,25,04,23,02,,,,,2.13,1.09,1.83,1*0C
$GNGSA,A,3,,,,,,,,,,,,,2.13,1.09,1.83,4*06
$GPGSV,3,1,11,01,12,123,35,02,22,308,35,04,44,267,36,07,7
3,213,36,0*68
$GPGSV,3,2,11,08,32,215,35,13,59,008,36,16,11,049,35,20,37,124,36,0*66
$GPGSV,3,3,11,23,42,050,36,25,84,022,36,27,04,223,,0*5E
$BDGSV,1,1,00,0*74

$GNRMC,002606.00,A,3132.285699,N,12117.999948,E,9.724,0.08,200720,,,A,V*0D
$GNGGA,002606.00,3132.285699,N,12117.999948,E,1,08,1.09,40.6,M,9.5,M,,*4C
$GNGSA,A,3,07,20,13,08,25,04,23,02,,,,,2.13,1.09,1.83,1*0C
$GNGSA,A,3,,,,,,,,,,,,,2.13,1.09,1.83,4*06
$GPGSV,3,1,11,01,12,123,35,02,22,308,35,04,44,266,36,07,7
3,213,36,0*69
$GPGSV,3,2,11,08,32,215,35,13,59,008,36,16,11,049,35,20,37,124,36,0*66
$GPGSV,3,3,11,23,42,050,36,25,84,022,36,27,04,223,,0*5E
$BDGSV,1,1,00,0*74


GPS HPregnss> E1 15 00 00 00 00 07 57 D1 23 87 00 00 00 1C 3E 0B 19 9D 00 00 00 00 


$GNRMC,002607.00,A,3132.288399,N,12117.999946,E,9.720,0.07,200720,,,A,V*01
$GNGGA,002607.00,3132.288399,N,12117.999946,E,1,08,1.09,40.6,M,9.5,M,,*4B
$GNGSA,A,3,07,20,13,08,25,04,23,02,,,,,2.13,1.09,1.83,1*0C
$GNGSA,A,3,,,,,,,,,,,,,2.13,1.09,1.83,4*06
$GPGSV,3,1,11,01,12,123,35,02,22,308,35,04,44,266,36,07,7
3,213,36,0*69
$GPGSV,3,2,11,08,32,215,35,13,59,008,36,16,11,049,35,20,37,124,36,0*66
$GPGSV,3,3,11,23,42,050,36,25,84,022,36,27,04,223,,0*5E
$BDGSV,1,1,00,0*74

$GNRMC,002608.00,A,3132.291103,N,12117.999948,E,9.719,0.04,200720,,,A,V*00
$GNGGA,002608.00,3132.291103,N,12117.999948,E,1,08,1.09,40.7,M,9.5,M,,*42
$GNGSA,A,3,07,20,13,08,25,04,23,02,,,,,2.13,1.09,1.83,1*0C
$GNGSA,A,3,,,,,,,,,,,,,2.13,1.09,1.83,4*06
$GPGSV,3,1,11,01,12,123,35,02,22,308,35,04,44,266,36,07,7
3,213,36,0*69
$GPGSV,3,2,11,08,32,215,35,13,59,008,36,16,11,049,35,20,37,124,36,0*66
$GPGSV,3,3,11,23,42,050,36,25,84,022,36,27,04,223,,0*5E
$BDGSV,1,1,00,0*74

<??????????????>

$GNRMC,002609.00,A,3132.293809,N,12117.999948,E,9.723,0.05,200720,,,A,V*08
$GNGGA,002609.00,3132.293809,N,12117.999948,E,1,08,1.09,40.7,M,9.5,M,,*42
$GNGSA,A,3,07,20,13,08,25,04,23,02,,,,,2.13,1.09,1.83,1*0C
$GNGSA,A,3,,,,,,,,,,,,,2.13,1.09,1.83,4*06
$GPGSV,3,1,11,01,12,123,35,02,22,308,35,04,44,266,36,07,7
3,213,36,0*69
$GPGSV,3,2,11,08,32,215,35,13,59,008,36,16,11,049,35,20,37,124,36,0*66
$GPGSV,3,3,11,23,42,050,36,25,84,022,36,27,04,223,,0*5E
$BDGSV,1,1,00,0*74

$GNRMC,002610.00,A,3132.296513,N,12117.999948,E,9.715,0.04,200720,,,A,V*07
$GNGGA,002610.00,3132.296513,N,12117.999948,E,1,08,1.09,40.7,M,9.5,M,,*49
$GNGSA,A,3,07,20,13,08,25,04,23,02,,,,,2.13,1.09,1.83,1*0C
$GNGSA,A,3,,,,,,,,,,,,,2.13,1.09,1.83,4*06
$GPGSV,3,1,11,01,12,123,35,02,22,308,35,04,44,266,36,07,7
3,213,36,0*69
$GPGSV,3,2,11,08,32,215,35,13,59,008,36,16,11,049,35,20,37,124,36,0*66
$GPGSV,3,3,11,23,42,050,36,25,84,022,36,27,04,223,,0*5E
$BDGSV,1,1,00,0*74

$GNRMC,002611.00,A,3132.299216,N,12117.999944,E,9.722,0.02,200720,,,A,V*05
$GNGGA,002611.00,3132.299216,N,12117.999944,E,1,08,1.09,40.7,M,9.5,M,,*49
$GNGSA,A,3,07,20,13,08,25,04,23,02,,,,,2.13,1.09,1.83,1*0C
$GNGSA,A,3,,,,,,,,,,,,,2.13,1.09,1.83,4*06
$GPGSV,3,1,11,01,12,123,35,02,22,308,35,04,44,266,36,07,7
3,213,36,0*69
$GPGSV,3,2,11,08,32,215,35,13,59,008,36,16,11,049,35,20,37,124,36,0*66
$GPGSV,3,3,11,23,42,050,36,25,84,022,36,27,04,223,,0*5E
$BDGSV,1,1,00,0*74

$GNRMC,002612.00,A,3132.301922,N,12117.999938,E,9.727,0.05,200720,,,A,V*03
$GNGGA,002612.00,3132.301922,N,12117.999938,E,1,08,1.09,40.7,M,9.5,M,,*4D
$GNGSA,A,3,07,20,13,08,25,04,23,02,,,,,2.13,1.09,1.83,1*0C
$GNGSA,A,3,,,,,,,,,,,,,2.13,1.09,1.83,4*06
$GPGSV,3,1,11,01,12,123,35,02,22,308,35,04,44,266,36,07,7
3,213,36,0*69
$GPGSV,3,2,11,08,32,215,35,13,59,008,36,16,11,049,35,20,37,124,36,0*66
$GPGSV,3,3,11,23,42,050,36,25,84,022,36,27,04,223,,0*5E
$BDGSV,1,1,00,0*74

$GNRMC,002613.00,A,3132.304620,N,12117.999939,E,9.703,0.10,200720,,,A,V*09
$GNGGA,002613.00,3132.304620,N,12117.999939,E,1,08,1.09,40.7,M,9.5,M,,*45
$GNGSA,A,3,07,20,13,08,25,04,23,02,,,,,2.13,1.09,1.83,1*0C
$GNGSA,A,3,,,,,,,,,,,,,2.13,1.09,1.83,4*06
$GPGSV,3,1,11,01,12,123,35,02,22,308,35,04,44,266,36,07,7
3,213,36,0*69
$GPGSV,3,2,11,08,32,215,35,13,59,008,36,16,11,049,35,20,37,124,36,0*66
$GPGSV,3,3,11,23,42,050,36,25,84,022,36,27,04,223,,0*5E
$BDGSV,1,1,00,0*74

$GNRMC,002614.00,A,3132.307328,N,12117.999940,E,9.735,0.02,200720,,,A,V*08
$GNGGA,002614.00,3132.307328,N,12117.999940,E,1,08,1.09,40.7,M,9.5,M,,*42
$GNGSA,A,3,07,20,13,08,25,04,23,02,,,,,2.13,1.09,1.83,1*0C
$GNGSA,A,3,,,,,,,,,,,,,2.13,1.09,1.83,4*06
$GPGSV,3,1,11,01,12,123,35,02,22,308,35,04,44,266,36,07,7
3,213,36,0*69
$GPGSV,3,2,11,08,32,215,35,13,59,008,36,16,11,049,35,20,37,124,36,0*66
$GPGSV,3,3,11,23,42,050,36,25,84,022,36,27,04,223,,0*5E
$BDGSV,1,1,00,0*74

$GNRMC,002615.00,A,3132.310030,N,12117.999943,E,9.717,0.11,200720,,,A,V*04
$GNGGA,002615.00,3132.310030,N,12117.999943,E,1,08,1.09,40.7,M,9.5,M,,*4C
$GNGSA,A,3,07,20,13,08,25,04,23,02,,,,,2.13,1.09,1.83,1*0C
$GNGSA,A,3,,,,,,,,,,,,,2.13,1.09,1.83,4*06
$GPGSV,3,1,11,01,12,123,35,02,22,308,35,04,44,266,36,07,7
3,213,36,0*69
$GPGSV,3,2,11,08,32,215,35,13,59,008,36,16,11,049,35,20,37,124,36,0*66
$GPGSV,3,3,11,23,42,050,36,25,84,022,36,27,04,223,,0*5E
$BDGSV,1,1,00,0*74

$GNRMC,002616.00,A,3132.312731,N,12117.999939,E,9.715,0.01,200720,,,A,V*0D
$GNGGA,002616.00,3132.312731,N,12117.999939,E,1,08,1.09,40.7,M,9.5,M,,*46
$GNGSA,A,3,07,20,13,08,25,04,23,02,,,,,2.13,1.09,1.83,1*0C
$GNGSA,A,3,,,,,,,,,,,,,2.13,1.09,1.83,4*06
$GPGSV,3,1,11,01,12,123,35,02,22,308,35,04,44,266,36,07,7
3,213,36,0*69
$GPGSV,3,2,11,08,32,215,35,13,59,008,36,16,11,049,35,20,37,124,36,0*66
$GPGSV,3,3,11,23,42,050,36,25,84,022,36,27,04,223,,0*5E
$BDGSV,1,1,00,0*74

$GNRMC,002617.00,A,3132.315437,N,12117.999940,E,9.727,0.10,200720,,,A,V*01
$GNGGA,002617.00,3132.315437,N,12117.999940,E,1,08,1.09,40.7,M,9.5,M,,*4B
$GNGSA,A,3,07,20,13,08,25,04,23,02,,,,,2.13,1.09,1.83,1*0C
$GNGSA,A,3,,,,,,,,,,,,,2.13,1.09,1.83,4*06
$GPGSV,3,1,11,01,12,123,35,02,22,308,35,04,44,266,36,07,7
3,213,36,0*69
$GPGSV,3,2,11,08,32,215,35,13,59,008,36,16,11,049,35,20,37,125,36,0*67
$GPGSV,3,3,11,23,42,050,36,25,84,022,36,27,04,223,,0*5E
$BDGSV,1,1,00,0*74

$GNRMC,002618.00,A,3132.318141,N,12117.999935,E,9.722,0.07,200720,,,A,V*06
$GNGGA,002618.00,3132.318141,N,12117.999935,E,1,08,1.09,40.6,M,9.5,M,,*4E
$GNGSA,A,3,07,20,13,08,25,04,23,02,,,,,2.13,1.09,1.83,1*0C
$GNGSA,A,3,,,,,,,,,,,,,2.13,1.09,1.83,4*06
$GPGSV,3,1,11,01,12,123,35,02,22,308,35,04,44,266,36,07,7
3,213,36,0*69
$GPGSV,3,2,11,08,32,215,35,13,59,008,36,16,11,049,35,20,37,125,36,0*67
$GPGSV,3,3,11,23,42,050,36,25,84,022,36,27,04,223,,0*5E
$BDGSV,1,1,00,0*74

<????sim??????(SIM??:1)>
<????GSM????????(GSM:0)>
<????GPRS????????(GPRS:0)>
<????????????(SIGNAL:0)>
<????????????????(BER:0)>

<??????????????>

$GNRMC,002619.00,A,3132.320838,N,12117.999929,E,9.715,359.98,200720,,,A,V*0B
$GNGGA,002619.00,3132.320838,N,12117.999929,E,1,08,1.09,40.7,M,9.5,M,,*4F
$GNGSA,A,3,07,20,13,08,25,04,23,02,,,,,2.13,1.09,1.83,1*0C
$GNGSA,A,3,,,,,,,,,,,,,2.13,1.09,1.83,4*06
$GPGSV,3,1,11,01,12,123,35,02,22,308,35,04,44,266,36,07
,73,213,36,0*69
$GPGSV,3,2,11,08,32,215,35,13,59,008,36,16,11,049,35,20,37,125,36,0*67
$GPGSV,3,3,11,23,42,050,36,25,84,022,36,27,04,223,,0*5E
$BDGSV,1,1,00,0*74

$GNRMC,002620.00,A,3132.323535,N,12117.999925,E,9.720,359.96,200720,,,A,V*06
$GNGGA,002620.00,3132.323535,N,12117.999925,E,1,08,1.09,40.7,M,9.5,M,,*4A
$GNGSA,A,3,07,20,13,08,25,04,23,02,,,,,2.13,1.09,1.83,1*0C
$GNGSA,A,3,,,,,,,,,,,,,2.13,1.09,1.83,4*06
$GPGSV,3,1,11,01,12,123,35,02,22,308,35,04,44,266,36,07
,73,213,36,0*69
$GPGSV,3,2,11,08,32,215,35,13,59,008,36,16,11,049,35,20,37,125,36,0*67
$GPGSV,3,3,11,23,42,050,36,25,84,022,36,27,04,223,,0*5E
$BDGSV,1,1,00,0*74

$GNRMC,002621.00,A,3132.326236,N,12117.999920,E,9.724,359.95,200720,,,A,V*04
$GNGGA,002621.00,3132.326236,N,12117.999920,E,1,08,1.09,40.7,M,9.5,M,,*4F
$GNGSA,A,3,07,20,13,08,25,04,23,02,,,,,2.13,1.09,1.83,1*0C
$GNGSA,A,3,,,,,,,,,,,,,2.13,1.09,1.83,4*06
$GPGSV,3,1,11,01,12,123,35,02,22,308,35,04,44,266,36,07
,73,213,36,0*69
$GPGSV,3,2,11,08,32,215,35,13,59,008,36,16,11,049,35,20,37,125,36,0*67
$GPGSV,3,3,11,23,42,050,36,25,84,022,36,27,04,223,,0*5E
$BDGSV,1,1,00,0*74

$GNRMC,002622.00,A,3132.328940,N,12117.999914,E,9.727,359.80,200720,,,A,V*03
$GNGGA,002622.00,3132.328940,N,12117.999914,E,1,08,1.09,40.6,M,9.5,M,,*4E
$GNGSA,A,3,07,20,13,08,25,04,23,02,,,,,2.13,1.09,1.83,1*0C
$GNGSA,A,3,,,,,,,,,,,,,2.13,1.09,1.83,4*06
$GPGSV,3,1,11,01,12,123,35,02,22,308,35,04,44,266,36,07
,73,213,36,0*69
$GPGSV,3,2,11,08,32,215,35,13,59,008,36,16,11,049,35,20,37,125,36,0*67
$GPGSV,3,3,11,23,42,050,36,25,84,022,36,27,04,223,,0*5E
$BDGSV,1,1,00,0*74

$GNRMC,002623.00,A,3132.331644,N,12117.999916,E,9.718,359.85,200720,,,A,V*0A
$GNGGA,002623.00,3132.331644,N,12117.999916,E,1,08,1.09,40.6,M,9.5,M,,*4E
$GNGSA,A,3,07,20,13,08,25,04,23,02,,,,,2.13,1.09,1.83,1*0C
$GNGSA,A,3,,,,,,,,,,,,,2.13,1.09,1.83,4*06
$GPGSV,3,1,11,01,12,123,35,02,22,308,35,04,44,266,36,07
,73,213,36,0*69
$GPGSV,3,2,11,08,32,215,35,13,59,008,36,16,11,049,35,20,37,125,36,0*67
$GPGSV,3,3,11,23,42,050,36,25,84,022,36,27,04,223,,0*5E
$BDGSV,1,1,00,0*74

$GNRMC,002624.00,A,3132.334353,N,12117.999917,E,9.725,359.97,200720,,,A,V*07
$GNGGA,002624.00,3132.334353,N,12117.999917,E,1,08,1.09,40.6,M,9.5,M,,*4E
$GNGSA,A,3,07,20,13,08,25,04,23,02,,,,,2.13,1.09,1.83,1*0C
$GNGSA,A,3,,,,,,,,,,,,,2.13,1.09,1.83,4*06
$GPGSV,3,1,11,01,12,123,35,02,22,308,35,04,44,266,36,07
,73,213,36,0*69
$GPGSV,3,2,11,08,32,215,35,13,59,008,36,16,11,049,35,20,37,125,36,0*67
$GPGSV,3,3,11,23,42,050,36,25,84,022,36,27,04,223,,0*5E
$BDGSV,1,1,00,0*74

$GNRMC,002625.00,A,3132.337056,N,12117.999914,E,9.715,0.09,200720,,,A,V*0B
$GNGGA,002625.00,3132.337056,N,12117.999914,E,1,08,1.09,40.6,M,9.5,M,,*49
$GNGSA,A,3,07,20,13,08,25,04,23,02,,,,,2.13,1.09,1.83,1*0C
$GNGSA,A,3,,,,,,,,,,,,,2.13,1.09,1.83,4*06
$GPGSV,3,1,11,01,12,123,35,02,22,308,35,04,44,266,35,07,7
3,213,36,0*6A
$GPGSV,3,2,11,08,32,215,35,13,59,008,36,16,11,049,35,20,37,125,36,0*67
$GPGSV,3,3,11,23,42,050,36,25,84,022,36,27,04,223,,0*5E
$BDGSV,1,1,00,0*74

$GNRMC,002626.00,A,3132.339761,N,12117.999907,E,9.724,0.08,200720,,,A,V*04
$GNGGA,002626.00,3132.339761,N,12117.999907,E,1,08,1.09,40.6,M,9.5,M,,*45
$GNGSA,A,3,07,20,13,08,25,04,23,02,,,,,2.13,1.09,1.83,1*0C
$GNGSA,A,3,,,,,,,,,,,,,2.13,1.09,1.83,4*06
$GPGSV,3,1,11,01,12,123,35,02,22,308,35,04,44,266,36,07,7
3,213,36,0*69
$GPGSV,3,2,11,08,32,215,35,13,59,008,36,16,11,049,35,20,37,125,36,0*67
$GPGSV,3,3,11,23,42,050,36,25,84,022,36,27,04,223,,0*5E
$BDGSV,1,1,00,0*74

$GNRMC,002627.00,A,3132.342461,N,12117.999898,E,9.717,0.04,200720,,,A,V*01
$GNGGA,002627.00,3132.342461,N,12117.999898,E,1,08,1.09,40.6,M,9.5,M,,*4C
$GNGSA,A,3,07,20,13,08,25,04,23,02,,,,,2.13,1.09,1.83,1*0C
$GNGSA,A,3,,,,,,,,,,,,,2.13,1.09,1.83,4*06
$GPGSV,3,1,11,01,12,123,35,02,22,308,35,04,44,266,36,07,7
3,213,36,0*69
$GPGSV,3,2,11,08,32,215,35,13,59,008,36,16,11,049,35,20,37,125,36,0*67
$GPGSV,3,3,11,23,42,050,36,25,84,022,36,27,04,223,,0*5E
$BDGSV,1,1,00,0*74

$GNRMC,002628.00,A,3132.345163,N,12117.999891,E,9.726,0.08,200720,,,A,V*09
$GNGGA,002628.00,3132.345163,N,12117.999891,E,1,08,1.09,40.6,M,9.5,M,,*4A
$GNGSA,A,3,07,20,13,08,25,04,23,02,,,,,2.13,1.09,1.83,1*0C
$GNGSA,A,3,,,,,,,,,,,,,2.13,1.09,1.83,4*06
$GPGSV,3,1,11,01,12,123,35,02,22,308,35,04,44,266,36,07,7
3,213,36,0*69
$GPGSV,3,2,11,08,32,215,35,13,59,008,36,16,11,049,35,20,37,125,36,0*67
$GPGSV,3,3,11,23,42,050,36,25,84,022,36,27,04,223,,0*5E
$BDGSV,1,1,00,0*74

<??????????????>

$GNRMC,002629.00,A,3132.347857,N,12117.999888,E,9.708,0.08,200720,,,A,V*00
$GNGGA,002629.00,3132.347857,N,12117.999888,E,1,08,1.09,40.6,M,9.5,M,,*4F
$GNGSA,A,3,07,20,13,08,25,04,23,02,,,,,2.13,1.09,1.83,1*0C
$GNGSA,A,3,,,,,,,,,,,,,2.13,1.09,1.83,4*06
$GPGSV,3,1,11,01,12,123,35,02,22,308,35,04,44,266,36,07,7
3,213,36,0*69
$GPGSV,3,2,11,08,32,215,35,13,59,008,36,16,11,049,35,20,37,125,36,0*67
$GPGSV,3,3,11,23,42,050,36,25,84,022,36,27,04,223,,0*5E
$BDGSV,1,1,00,0*74

$GNRMC,002630.00,A,3132.350559,N,12117.999882,E,9.731,0.04,200720,,,A,V*01
$GNGGA,002630.00,3132.350559,N,12117.999882,E,1,08,1.09,40.6,M,9.5,M,,*48
$GNGSA,A,3,07,20,13,08,25,04,23,02,,,,,2.13,1.09,1.83,1*0C
$GNGSA,A,3,,,,,,,,,,,,,2.13,1.09,1.83,4*06
$GPGSV,3,1,11,01,12,123,35,02,22,308,35,04,44,266,36,07,7
3,213,36,0*69
$GPGSV,3,2,11,08,32,215,35,13,59,008,36,16,11,049,35,20,37,125,36,0*67
$GPGSV,3,3,11,23,42,050,36,25,84,022,36,27,04,223,,0*5E
$BDGSV,1,1,00,0*74

$GNRMC,002631.00,A,3132.353255,N,12117.999880,E,9.707,0.04,200720,,,A,V*0F
$GNGGA,002631.00,3132.353255,N,12117.999880,E,1,08,1.09,40.6,M,9.5,M,,*43
$GNGSA,A,3,07,20,13,08,25,04,23,02,,,,,2.13,1.09,1.83,1*0C
$GNGSA,A,3,,,,,,,,,,,,,2.13,1.09,1.83,4*06
$GPGSV,3,1,11,01,12,123,35,02,22,308,35,04,44,266,36,07,7
3,213,36,0*69
$GPGSV,3,2,11,08,32,215,35,13,59,008,36,16,11,049,35,20,37,125,36,0*67
$GPGSV,3,3,11,23,42,050,36,25,84,022,36,27,04,223,,0*5E
$BDGSV,1,1,00,0*74

$GNRMC,002632.00,A,3132.355960,N,12117.999878,E,9.724,0.03,200720,,,A,V*06
$GNGGA,002632.00,3132.355960,N,12117.999878,E,1,08,1.09,40.7,M,9.5,M,,*4D
$GNGSA,A,3,07,20,13,08,25,04,23,02,,,,,2.13,1.09,1.83,1*0C
$GNGSA,A,3,,,,,,,,,,,,,2.13,1.09,1.83,4*06
$GPGSV,3,1,11,01,12,123,35,02,22,308,35,04,44,266,36,07,7
3,213,36,0*69
$GPGSV,3,2,11,08,32,215,35,13,59,008,36,16,11,049,35,20,37,125,36,0*67
$GPGSV,3,3,11,23,42,050,36,25,84,022,36,27,04,223,,0*5E
$BDGSV,1,1,00,0*74

$GNRMC,002633.00,A,3132.358663,N,12117.999882,E,9.722,0.04,200720,,,A,V*02
$GNGGA,002633.00,3132.358663,N,12117.999882,E,1,08,1.09,40.7,M,9.5,M,,*48
$GNGSA,A,3,07,20,13,08,25,04,23,02,,,,,2.13,1.09,1.83,1*0C
$GNGSA,A,3,,,,,,,,,,,,,2.13,1.09,1.83,4*06
$GPGSV,3,1,11,01,12,123,35,02,22,308,35,04,44,266,35,07,7
3,213,36,0*6A
$GPGSV,3,2,11,08,32,215,35,13,59,008,36,16,11,049,35,20,37,125,36,0*67
$GPGSV,3,3,11,23,42,050,36,25,84,022,36,27,04,223,,0*5E
$BDGSV,1,1,00,0*74

$GNRMC,002634.00,A,3132.361370,N,12117.999883,E,9.724,0.03,200720,,,A,V*08
$GNGGA,002634.00,3132.361370,N,12117.999883,E,1,08,1.09,40.7,M,9.5,M,,*43
$GNGSA,A,3,07,20,13,08,25,04,23,02,,,,,2.13,1.09,1.83,1*0C
$GNGSA,A,3,,,,,,,,,,,,,2.13,1.09,1.83,4*06
$GPGSV,3,1,11,01,12,123,35,02,22,308,35,04,44,266,36,07,7
3,213,36,0*69
$GPGSV,3,2,11,08,32,215,35,13,59,008,36,16,11,049,35,20,37,125,36,0*67
$GPGSV,3,3,11,23,42,050,36,25,84,022,36,27,04,223,,0*5E
$BDGSV,1,1,00,0*74

$GNRMC,002635.00,A,3132.364077,N,12117.999881,E,9.720,0.03,200720,,,A,V*0E
$GNGGA,002635.00,3132.364077,N,12117.999881,E,1,08,1.09,40.7,M,9.5,M,,*41
$GNGSA,A,3,07,20,13,08,25,04,23,02,,,,,2.13,1.09,1.83,1*0C
$GNGSA,A,3,,,,,,,,,,,,,2.13,1.09,1.83,4*06
$GPGSV,3,1,11,01,12,123,35,02,22,308,35,04,44,266,36,07,7
3,213,36,0*69
$GPGSV,3,2,11,08,32,215,35,13,59,008,36,16,11,049,35,20,37,125,36,0*67
$GPGSV,3,3,11,23,42,050,36,25,84,022,36,27,04,223,,0*5E
$BDGSV,1,1,00,0*74


GPS HPregnss> E1 15 00 00 00 00 07 57 E5 12 43 00 00 00 1C 3E 0B 15 40 00 00 00 00 


$GNRMC,002636.00,A,3132.366785,N,12117.999879,E,9.728,0.04,200720,,,A,V*0D
$GNGGA,002636.00,3132.366785,N,12117.999879,E,1,08,1.09,40.7,M,9.5,M,,*4D
$GNGSA,A,3,07,20,13,08,25,04,23,02,,,,,2.13,1.09,1.83,1*0C
$GNGSA,A,3,,,,,,,,,,,,,2.13,1.09,1.83,4*06
$GPGSV,3,1,11,01,12,123,35,02,22,308,35,04,44,266,36,07,7
3,213,36,0*69
$GPGSV,3,2,11,08,32,215,35,13,59,008,36,16,11,049,35,20,37,125,36,0*67
$GPGSV,3,3,11,23,42,050,36,25,84,022,36,27,04,223,,0*5E
$BDGSV,1,1,00,0*74

$GNRMC,002637.00,A,3132.369494,N,12117.999875,E,9.723,0.04,200720,,,A,V*07
$GNGGA,002637.00,3132.369494,N,12117.999875,E,1,08,1.09,40.7,M,9.5,M,,*4C
$GNGSA,A,3,07,20,13,08,25,04,23,02,,,,,2.13,1.09,1.83,1*0C
$GNGSA,A,3,,,,,,,,,,,,,2.13,1.09,1.83,4*06
$GPGSV,3,1,11,01,12,123,35,02,22,308,35,04,44,266,36,07,7
3,213,36,0*69
$GPGSV,3,2,11,08,32,215,35,13,59,008,36,16,11,049,35,20,37,125,36,0*67
$GPGSV,3,3,11,23,42,050,36,25,84,022,36,27,04,223,,0*5E
$BDGSV,1,1,00,0*74

$GNRMC,002638.00,A,3132.372201,N,12117.999872,E,9.717,0.03,200720,,,A,V*0F
$GNGGA,002638.00,3132.372201,N,12117.999872,E,1,08,1.09,40.7,M,9.5,M,,*44
$GNGSA,A,3,07,20,13,08,25,04,23,02,,,,,2.13,1.09,1.83,1*0C
$GNGSA,A,3,,,,,,,,,,,,,2.13,1.09,1.83,4*06
$GPGSV,3,1,11,01,12,123,35,02,22,308,35,04,44,266,36,07,7
3,213,36,0*69
$GPGSV,3,2,11,08,32,215,35,13,59,008,36,16,11,049,35,20,37,125,36,0*67
$GPGSV,3,3,11,23,42,050,36,25,84,022,36,27,04,223,,0*5E
$BDGSV,1,1,00,0*74

<????GSM????>
<assertion failed:file(dal_gsm_drv.c), line(164), rsttype(2), errid(-1)>

<????sim??????(SIM??:1)>
<????GSM????????(GSM:0)>
<????GPRS????????(GPRS:0)>
<????????????(SIGNAL:0)>
<????????????????(BER:0)>

<??????????????>

 
                                                
                                                    
                                                     
                                                 
                                                     
                                                   
                                          
<DAL_TTS_InitDrv>
<DAL_InitGsmDrv>
YX_QXWZ_InitLink
<DAL_GPRS_Apply(1)>
<??????????????>
<YX_InstallVectorDetect s_vector[0].handler:0xf02903e9, tag:0>
<VtStatusClear[id :0]

??????????(491)=????(452)+????(39)+????(0)

No.0:time14 07 14 08 1A 26 ,file(dal_gsm_drv.c),line(164),errid(ffffffff),mem_peak(
76032)
No.1:time14 07 14 08 0F 0D ,file(dal_gsm_drv.c),line(164),errid(ffffffff),mem_peak(76032)
No.2:time14 07 14 08 03 30 ,file(dal_gsm_drv.c),line(164),errid(ffffffff),mem_peak(76032)
No.3:time14 07 14 08 14 17 ,file(dal_gsm_drv.c),line(164),errid(ffffffff),mem_peak(76032)
No.4:time14 07 14 08 08 3A ,fil
e(dal_gsm_drv.c),line(164),errid(ffffffff),mem_peak(76032)
No.5:time14 07 14 08 06 28 ,file(dal_gsm_drv.c),line(164),errid(ffffffff),mem_peak(76032)
No.6:time14 07 14 08 00 2F ,file(dal_gsm_drv.c),line(164),errid(ffffffff),mem_peak(76032)
No.7:time14 07 06 0F 16 34 ,file(YX_ResetCnt.c),line(305),errid(fff0),
mem_peak(71424)
No.8:time14 07 06 0F 16 34 ,file(dal_gsm_drv.c),line(164),errid(ffffffff),mem_peak(76032)
No.9:time14 07 06 0F 0B 1C ,file(dal_gsm_drv.c),line(164),errid(ffffffff),mem_peak(76032)
????????????????????:172
<gps_main_begin!!>

????????!!!!!!!!!!!!!!

<---VTRTRG id:[0], isnight:[0], curvector:[0], limit:[100], pre:[95]>

<---VTRTRG id:[0], isnight:[0], curvector:[0], limit:[100], pre:[95]>

<Hdl_MSG_GSMCORE_PSReady>

$GNRMC,,V,,,,,,,,,,N,V*37
$GNGGA,,,,,,0,00,99.9,,,,,,*6F
$GNGSA,A,1,,,,,,,,,,,,,99.9,99.9,99.9,1*0A
$GNGSA,A,1,,,,,,,,,,,,,99.9,99.9,99.9,4*0F
$GPGSV,1,1,00,0*65
$BDGSV,1,1,00,0*74

<---VTRTRG id:[0], isnight:[0], curvector:[0], limit:[100], pre:[95]>

$GNRMC,,V,,,,,,,,,,N,V*37
$GNGGA,,,,,,0,00,99.9,,,,,,*6F
$GNGSA,A,1,,,,,,,,,,,,,99.9,99.9,99.9,1*0A
$GNGSA,A,1,,,,,,,,,,,,,99.9,99.9,99.9,4*0F
$GPGSV,1,1,00,0*65
$BDGSV,1,1,00,0*74

$GNRMC,,V,,,,,,,,,,N,V*37
$GNGGA,,,,,,0,00,99.9,,,,,,*6F
$GNGSA,A,1,,,,,,,,,,,,,99.9,99.9,99.9,1*0A
$GNGSA,A,1,,,,,,,,,,,,,99.9,99.9,99.9,4*0F
$GPGSV,1,1,01,04,,,37,0*64
$BDGSV,1,1,00,0*74

<---VTRTRG id:[0], isnight:[0], curvector:[0], limit:[100], pre:[95]>

$GNRMC,,V,,,,,,,,,,N,V*37
$GNGGA,,,,,,0,00,99.9,,,,,,*6F
$GNGSA,A,1,,,,,,,,,,,,,99.9,99.9,99.9,1*0A
$GNGSA,A,1,,,,,,,,,,,,,99.9,99.9,99.9,4*0F
$GPGSV,1,1,04,04,,,31,07,,,37,08,,,35,13,,,37,0*6C
$BDGSV,1,1,00,0*74

$GNRMC,,V,,,,,,,,,,N,V*37
$GNGGA,,,,,,0,00,99.9,,,,,,*6F
$GNGSA,A,1,,,,,,,,,,,,,99.9,99.9,99.9,1*0A
$GNGSA,A,1,,,,,,,,,,,,,99.9,99.9,99.9,4*0F
$GPGSV,2,1,06,04,,,36,07,,,37,08,,,35,13,,,37,0*6A
$GPGSV,2,2,06,23,,,36,25,,,36,0*65
$BDGSV,1,1,00,0*74

<??????????????>
<---VTRTRG id:[0], isnight:[0], curvector:[0], limit:[100], pre:[95]>

$GNRMC,,V,,,,,,,,,,N,V*37
$GNGGA,,,,,,0,00,99.9,,,,,,*6F
$GNGSA,A,1,,,,,,,,,,,,,99.9,99.9,99.9,1*0A
$GNGSA,A,1,,,,,,,,,,,,,99.9,99.9,99.9,4*0F
$GPGSV,2,1,06,04,,,36,07,,,37,08,,,36,13,,,37,0*69
$GPGSV,2,2,06,23,,,36,25,,,37,0*64
$BDGSV,1,1,00,0*74

$GNRMC,,V,,,,,,,,,,N,V*37
$GNGGA,,,,,,0,00,99.9,,,,,,*6F
$GNGSA,A,1,,,,,,,,,,,,,99.9,99.9,99.9,1*0A
$GNGSA,A,1,,,,,,,,,,,,,99.9,99.9,99.9,4*0F
$GPGSV,2,1,06,04,,,36,07,,,37,08,,,35,13,,,37,0*6A
$GPGSV,2,2,06,23,,,36,25,,,37,0*64
$BDGSV,1,1,00,0*74

$GNRMC,,V,,,,,,,,,,N,V*37
$GNGGA,,,,,,0,00,99.9,,,,,,*6F
$GNGSA,A,1,,,,,,,,,,,,,99.9,99.9,99.9,1*0A
$GNGSA,A,1,,,,,,,,,,,,,99.9,99.9,99.9,4*0F
$GPGSV,1,1,00,0*65
$BDGSV,1,1,00,0*74
????????!!!!!!!!!!!!!!

$GNRMC,,V,,,,,,,,,,N,V*37
$GNGGA,,,,,,0,00,99.9,,,,,,*6F
$GNGSA,A,1,,,,,,,,,,,,,99.9,99.9,99.9,1*0A
$GNGSA,A,1,,,,,,,,,,,,,99.9,99.9,99.9,4*0F
$GPGSV,1,1,00,0*65
$BDGSV,1,1,00,0*74

$GNRMC,,V,,,,,,,,,,N,V*37
$GNGGA,,,,,,0,00,99.9,,,,,,*6F
$GNGSA,A,1,,,,,,,,,,,,,99.9,99.9,99.9,1*0A
$GNGSA,A,1,,,,,,,,,,,,,99.9,99.9,99.9,4*0F
$GPGSV,1,1,04,04,,,36,07,,,32,13,,,31,25,,,32,0*60
$BDGSV,1,1,00,0*74

$GNRMC,,V,,,,,,,,,,N,V*37
$GNGGA,,,,,,0,00,99.9,,,,,,*6F
$GNGSA,A,1,,,,,,,,,,,,,99.9,99.9,99.9,1*0A
$GNGSA,A,1,,,,,,,,,,,,,99.9,99.9,99.9,4*0F
$GPGSV,1,1,04,04,,,35,07,,,36,13,,,36,25,,,36,0*64
$BDGSV,1,1,00,0*74

$GNRMC,,V,,,,,,,,,,N,V*37
$GNGGA,,,,,,0,00,99.9,,,,,,*6F
$GNGSA,A,1,,,,,,,,,,,,,99.9,99.9,99.9,1*0A
$GNGSA,A,1,,,,,,,,,,,,,99.9,99.9,99.9,4*0F
$GPGSV,1,1,04,04,,,35,07,,,36,13,,,36,25,,,36,0*64
$BDGSV,1,1,00,0*74

$GNRMC,,V,,,,,,,,,,N,V*37
$GNGGA,,,,,,0,00,99.9,,,,,,*6F
$GNGSA,A,1,,,,,,,,,,,,,99.9,99.9,99.9,1*0A
$GNGSA,A,1,,,,,,,,,,,,,99.9,99.9,99.9,4*0F
$GPGSV,1,1,04,04,,,35,07,,,36,13,,,36,25,,,36,0*64
$BDGSV,1,1,00,0*74

$GNRMC,,V,,,,,,,,,,N,V*37
$GNGGA,,,,,,0,00,99.9,,,,,,*6F
$GNGSA,A,1,,,,,,,,,,,,,99.9,99.9,99.9,1*0A
$GNGSA,A,1,,,,,,,,,,,,,99.9,99.9,99.9,4*0F
$GPGSV,1,1,04,04,,,36,07,,,36,13,,,36,25,,,36,0*67
$BDGSV,1,1,00,0*74

$GNRMC,,V,,,,,,,,,,N,V*37
$GNGGA,,,,,,0,00,99.9,,,,,,*6F
$GNGSA,A,1,,,,,,,,,,,,,99.9,99.9,99.9,1*0A
$GNGSA,A,1,,,,,,,,,,,,,99.9,99.9,99.9,4*0F
$GPGSV,2,1,06,04,,,35,07,,,36,13,,,36,20,,,35,0*63
$GPGSV,2,2,06,23,,,36,25,,,36,0*65
$BDGSV,1,1,00,0*74

$GNRMC,002759.77,V,,,,,,,,,,N,V*10
$GNGGA,002759.77,,,,,0,00,99.9,,,,,,*48
$GNGSA,A,1,,,,,,,,,,,,,99.9,99.9,99.9,1*0A
$GNGSA,A,1,,,,,,,,,,,,,99.9,99.9,99.9,4*0F
$GPGSV,2,1,06,04,,,35,07,,,36,13,,,36,20,,,35,0*63
$GPGSV,2,2,06,23,,,36,25,,,36,0*65
$BDGSV,1,1,00,0*74

<????sim??????(SIM??:1)>
<??????sim??>
<????GSM????????(GSM:5)>
<????GPRS????????(GPRS:0)>
<????????????(SIGNAL:0)>
<????????????????(BER:0)>

<??????????????>
<detect SIM card>

$GNRMC,002800.00,V,,,,,,,,,,N,V*13
$GNGGA,002800.00,,,,,0,00,99.9,,,,,,*4B
$GNGSA,A,1,,,,,,,,,,,,,99.9,99.9,99.9,1*0A
$GNGSA,A,1,,,,,,,,,,,,,99.9,99.9,99.9,4*0F
$GPGSV,2,1,08,01,,,35,04,,,35,07,,,36,08,,,34,0*66
$GPGSV,2,2,08,13,,,36,20,,,35,23,,,35,25,,,36,0*6B
$BDGSV,1,1,00,0*74

$GNRMC,002801.00,V,,,,,,,,,,N,V*12
$GNGGA,002801.00,,,,,0,00,99.9,,,,,,*4A
$GNGSA,A,1,,,,,,,,,,,,,99.9,99.9,99.9,1*0A
$GNGSA,A,1,,,,,,,,,,,,,99.9,99.9,99.9,4*0F
$GPGSV,2,1,08,01,,,35,04,,,35,07,,,36,08,,,34,0*66
$GPGSV,2,2,08,13,,,36,20,,,35,23,,,36,25,,,36,0*68
$BDGSV,1,1,00,0*74

$GNRMC,002802.00,V,,,,,,,,,,N,V*11
$GNGGA,002802.00,,,,,0,00,99.9,,,,,,*49
$GNGSA,A,1,,,,,,,,,,,,,99.9,99.9,99.9,1*0A
$GNGSA,A,1,,,,,,,,,,,,,99.9,99.9,99.9,4*0F
$GPGSV,2,1,08,01,,,35,04,,,35,07,,,36,08,,,35,0*67
$GPGSV,2,2,08,13,,,36,20,,,35,23,,,35,25,,,36,0*6B
$BDGSV,1,1,00,0*74

$GNRMC,002803.00,V,,,,,,,,,,N,V*10
$GNGGA,002803.00,,,,,0,00,99.9,,,,,,*48
$GNGSA,A,1,,,,,,,,,,,,,99.9,99.9,99.9,1*0A
$GNGSA,A,1,,,,,,,,,,,,,99.9,99.9,99.9,4*0F
$GPGSV,2,1,08,01,,,35,04,,,35,07,,,36,08,,,35,0*67
$GPGSV,2,2,08,13,,,36,20,,,35,23,,,36,25,,,36,0*68
$BDGSV,1,1,00,0*74

$GNRMC,002804.00,V,,,,,,,,,,N,V*17
$GNGGA,002804.00,,,,,0,00,99.9,,,,,,*4F
$GNGSA,A,1,,,,,,,,,,,,,99.9,99.9,99.9,1*0A
$GNGSA,A,1,,,,,,,,,,,,,99.9,99.9,99.9,4*0F
$GPGSV,2,1,08,01,,,35,04,,,35,07,,,36,08,,,35,0*67
$GPGSV,2,2,08,13,,,36,20,,,35,23,,,35,25,,,36,0*6B
$BDGSV,1,1,00,0*74

$GNRMC,002805.00,V,,,,,,,,,,N,V*16
$GNGGA,002805.00,,,,,0,00,99.9,,,,,,*4E
$GNGSA,A,1,,,,,,,,,,,,,99.9,99.9,99.9,1*0A
$GNGSA,A,1,,,,,,,,,,,,,99.9,99.9,99.9,4*0F
$GPGSV,2,1,08,01,,,35,04,,,36,07,,,36,08,,,35,0*64
$GPGSV,2,2,08,13,,,36,20,,,35,23,,,36,25,,,36,0*68
$BDGSV,1,1,00,0*74

$GNRMC,002806.00,V,,,,,,,,,,N,V*15
$GNGGA,002806.00,,,,,0,00,99.9,,,,,,*4D
$GNGSA,A,1,,,,,,,,,,,,,99.9,99.9,99.9,1*0A
$GNGSA,A,1,,,,,,,,,,,,,99.9,99.9,99.9,4*0F
$GPGSV,2,1,08,01,,,35,04,,,36,07,,,36,08,,,35,0*64
$GPGSV,2,2,08,13,,,36,20,,,35,23,,,35,25,,,36,0*6B
$BDGSV,1,1,00,0*74

$GNRMC,002807.00,V,,,,,,,,,,N,V*14
$GNGGA,002807.00,,,,,0,00,99.9,,,,,,*4C
$GNGSA,A,1,,,,,,,,,,,,,99.9,99.9,99.9,1*0A
$GNGSA,A,1,,,,,,,,,,,,,99.9,99.9,99.9,4*0F
$GPGSV,2,1,08,01,,,35,04,,,35,07,,,36,08,,,35,0*67
$GPGSV,2,2,08,13,,,36,20,,,35,23,,,36,25,,,36,0*68
$BDGSV,1,1,00,0*74

$GNRMC,002808.00,V,,,,,,,,,,N,V*1B
$GNGGA,002808.00,,,,,0,00,99.9,,,,,,*43
$GNGSA,A,1,,,,,,,,,,,,,99.9,99.9,99.9,1*0A
$GNGSA,A,1,,,,,,,,,,,,,99.9,99.9,99.9,4*0F
$GPGSV,2,1,08,01,,,35,04,,,35,07,,,36,08,,,35,0*67
$GPGSV,2,2,08,13,,,36,20,,,35,23,,,36,25,,,36,0*68
$BDGSV,1,1,00,0*74

$GNRMC,002809.00,V,,,,,,,,,,N,V*1A
$GNGGA,002809.00,,,,,0,00,99.9,,,,,,*42
$GNGSA,A,1,,,,,,,,,,,,,99.9,99.9,99.9,1*0A
$GNGSA,A,1,,,,,,,,,,,,,99.9,99.9,99.9,4*0F
$GPGSV,2,1,08,01,,,35,04,,,35,07,,,36,08,,,35,0*67
$GPGSV,2,2,08,13,,,36,20,,,36,23,,,36,25,,,36,0*6B
$BDGSV,1,1,00,0*74

<??????????????>

$GNRMC,002810.00,V,,,,,,,,,,N,V*12
$GNGGA,002810.00,,,,,0,00,99.9,,,,,,*4A
$GNGSA,A,1,,,,,,,,,,,,,99.9,99.9,99.9,1*0A
$GNGSA,A,1,,,,,,,,,,,,,99.9,99.9,99.9,4*0F
$GPGSV,2,1,08,01,,,35,04,,,35,07,,,36,08,,,35,0*67
$GPGSV,2,2,08,13,,,36,20,,,36,23,,,36,25,,,36,0*6B
$BDGSV,1,1,00,0*74

$GNRMC,002811.00,V,,,,,,,,,,N,V*13
$GNGGA,002811.00,,,,,0,00,99.9,,,,,,*4B
$GNGSA,A,1,,,,,,,,,,,,,99.9,99.9,99.9,1*0A
$GNGSA,A,1,,,,,,,,,,,,,99.9,99.9,99.9,4*0F
$GPGSV,3,1,09,01,,,35,04,,,35,07,,,36,08,,,35,0*67
$GPGSV,3,2,09,13,,,36,16,,,34,20,,,36,23,,,35,0*6A
$GPGSV,3,3,09,25,,,36,0*6E
$BDGSV,1,1,00,0*74

$GNRMC,002812.00,V,,,,,,,,,,N,V*10
$GNGGA,002812.00,,,,,0,00,99.9,,,,,,*48
$GNGSA,A,1,,,,,,,,,,,,,99.9,99.9,99.9,1*0A
$GNGSA,A,1,,,,,,,,,,,,,99.9,99.9,99.9,4*0F
$GPGSV,3,1,09,01,,,35,04,,,35,07,,,36,08,,,35,0*67
$GPGSV,3,2,09,13,,,36,16,,,34,20,,,36,23,,,35,0*6A
$GPGSV,3,3,09,25,,,36,0*6E
$BDGSV,1,1,00,0*74

$GNRMC,002813.00,V,,,,,,,,,,N,V*11
$GNGGA,002813.00,,,,,0,00,99.9,,,,,,*49
$GNGSA,A,1,,,,,,,,,,,,,99.9,99.9,99.9,1*0A
$GNGSA,A,1,,,,,,,,,,,,,99.9,99.9,99.9,4*0F
$GPGSV,3,1,09,01,,,35,04,,,35,07,,,36,08,,,35,0*67
$GPGSV,3,2,09,13,,,36,16,,,34,20,,,36,23,,,36,0*69
$GPGSV,3,3,09,25,,,36,0*6E
$BDGSV,1,1,00,0*74

$GNRMC,002814.00,V,,,,,,,200720,,,N,V*11
$GNGGA,002814.00,,,,,0,00,99.9,,,,,,*4E
$GNGSA,A,1,,,,,,,,,,,,,99.9,99.9,99.9,1*0A
$GNGSA,A,1,,,,,,,,,,,,,99.9,99.9,99.9,4*0F
$GPGSV,3,1,09,01,,,35,04,,,35,07,,,36,08,,,35,0*67
$GPGSV,3,2,09,13,,,36,16,,,35,20,,,35,23,,,36,0*6B
$GPGSV,3,3,09,25,,,36,0*6E
$BDGSV,1,1,00,0*74

$GNRMC,002815.00,V,,,,,,,200720,,,N,V*10
$GNGGA,002815.00,,,,,0,00,99.9,,,,,,*4F
$GNGSA,A,1,,,,,,,,,,,,,99.9,99.9,99.9,1*0A
$GNGSA,A,1,,,,,,,,,,,,,99.9,99.9,99.9,4*0F
$GPGSV,3,1,09,01,,,35,04,,,36,07,,,36,08,,,35,0*64
$GPGSV,3,2,09,13,,,36,16,,,35,20,,,36,23,,,36,0*68
$GPGSV,3,3,09,25,,,36,0*6E
$BDGSV,1,1,00,0*74

$GNRMC,002816.00,V,,,,,,,200720,,,N,V*13
$GNGGA,002816.00,,,,,0,00,99.9,,,,,,*4C
$GNGSA,A,1,,,,,,,,,,,,,99.9,99.9,99.9,1*0A
$GNGSA,A,1,,,,,,,,,,,,,99.9,99.9,99.9,4*0F
$GPGSV,3,1,09,01,,,35,04,,,35,07,,,36,08,,,35,0*67
$GPGSV,3,2,09,13,,,36,16,,,35,20,,,36,23,,,36,0*68
$GPGSV,3,3,09,25,,,36,0*6E
$BDGSV,1,1,00,0*74

$GNRMC,002817.00,V,,,,,,,200720,,,N,V*12
$GNGGA,002817.00,,,,,0,00,99.9,,,,,,*4D
$GNGSA,A,1,,,,,,,,,,,,,99.9,99.9,99.9,1*0A
$GNGSA,A,1,,,,,,,,,,,,,99.9,99.9,99.9,4*0F
$GPGSV,3,1,09,01,,,35,04,,,36,07,,,36,08,,,35,0*64
$GPGSV,3,2,09,13,,,36,16,,,35,20,,,36,23,,,36,0*68
$GPGSV,3,3,09,25,,,36,0*6E
$BDGSV,1,1,00,0*74

$GNRMC,002818.00,V,,,,,,,200720,,,N,V*1D
$GNGGA,002818.00,,,,,0,00,99.9,,,,,,*42
$GNGSA,A,1,,,,,,,,,,,,,99.9,99.9,99.9,1*0A
$GNGSA,A,1,,,,,,,,,,,,,99.9,99.9,99.9,4*0F
$GPGSV,3,1,09,01,,,35,04,,,36,07,,,36,08,,,35,0*64
$GPGSV,3,2,09,13,,,36,16,,,35,20,,,36,23,,,36,0*68
$GPGSV,3,3,09,25,,,36,0*6E
$BDGSV,1,1,00,0*74

$GNRMC,002819.00,V,,,,,,,200720,,,N,V*1C
$GNGGA,002819.00,,,,,0,00,99.9,,,,,,*43
$GNGSA,A,1,,,,,,,,,,,,,99.9,99.9,99.9,1*0A
$GNGSA,A,1,,,,,,,,,,,,,99.9,99.9,99.9,4*0F
$GPGSV,3,1,09,01,,,35,04,,,35,07,,,36,08,,,35,0*67
$GPGSV,3,2,09,13,,,36,16,,,34,20,,,36,23,,,36,0*69
$GPGSV,3,3,09,25,,,36,0*6E
$BDGSV,1,1,00,0*74

<????sim??????(SIM??:1)>
<????GSM????????(GSM:5)>
<????GPRS????????(GPRS:0)>
<????????????(SIGNAL:0)>
<????????????????(BER:0)>

<??????????????>

$GNRMC,002820.00,V,,,,,,,200720,,,N,V*16
$GNGGA,002820.00,,,,,0,00,99.9,,,,,,*49
$GNGSA,A,1,,,,,,,,,,,,,99.9,99.9,99.9,1*0A
$GNGSA,A,1,,,,,,,,,,,,,99.9,99.9,99.9,4*0F
$GPGSV,3,1,09,01,,,35,04,,,35,07,,,36,08,,,35,0*67
$GPGSV,3,2,09,13,,,36,16,,,34,20,,,36,23,,,36,0*69
$GPGSV,3,3,09,25,,,36,0*6E
$BDGSV,1,1,00,0*74

$GNRMC,002821.00,V,,,,,,,200720,,,N,V*17
$GNGGA,002821.00,,,,,0,00,99.9,,,,,,*48
$GNGSA,A,1,,,,,,,,,,,,,99.9,99.9,99.9,1*0A
