$GPRMC,000712,A,3129.21755,N,12118.00000,E,9.719,0.000,200720,0.000,E,A,V*62

$GPRMC,000713,A,3129.22025,N,12118.00000,E,9.719,0.000,200720,0.000,E,A,V*60

$GPRMC,000714,A,3129.22296,N,12118.00000,E,9.719,360.000,200720,0.000,E,A,V*68

$GPRMC,000715,A,3129.22567,N,12118.00000,E,9.719,0.000,200720,0.000,E,A,V*65

$GPRMC,000716,A,3129.22837,N,12118.00000,E,9.719,0.000,200720,0.000,E,A,V*6E

$GPRMC,000717,A,3129.23108,N,12118.00000,E,9.719,360.000,200720,0.000,E,A,V*6E

$GPRMC,000718,A,3129.23378,N,12118.00000,E,9.719,0.000,200720,0.000,E,A,V*61

$GPRMC,000719,A,3129.23649,N,12118.00000,E,9.719,0.000,200720,0.000,E,A,V*67

$GPRMC,000720,A,3129.23919,N,12118.00000,E,9.719,0.000,200720,0.000,E,A,V*67

$GPRMC,000721,A,3129.24190,N,12118.00000,E,9.719,0.000,200720,0.000,E,A,V*68

$GPRMC,000722,A,3129.24460,N,12118.00000,E,9.719,0.000,200720,0.000,E,A,V*61

$GPRMC,000723,A,3129.24731,N,12118.00000,E,9.719,0.000,200720,0.000,E,A,V*67

$GPRMC,000724,A,3129.25002,N,12118.00000,E,9.719,360.000,200720,0.000,E,A,V*63

$GPRMC,000725,A,3129.25272,N,12118.00000,E,9.719,0.000,200720,0.000,E,A,V*62

$GPRMC,000726,A,3129.25543,N,12118.00000,E,9.719,0.000,200720,0.000,E,A,V*64

$GPRMC,000727,A,3129.25813,N,12118.00000,E,9.719,0.000,200720,0.000,E,A,V*6D

$GPRMC,000728,A,3129.26084,N,12118.00000,E,9.719,0.000,200720,0.000,E,A,V*67

$GPRMC,000729,A,3129.26354,N,12118.00000,E,9.719,360.000,200720,0.000,E,A,V*6D

$GPRMC,000730,A,3129.26625,N,12118.00000,E,9.719,0.000,200720,0.000,E,A,V*63

$GPRMC,000731,A,3129.26896,N,12118.00000,E,9.719,0.000,200720,0.000,E,A,V*64

$GPRMC,000732,A,3129.27166,N,12118.00000,E,9.719,360.000,200720,0.000,E,A,V*65

$GPRMC,000733,A,3129.27437,N,12118.00000,E,9.719,0.000,200720,0.000,E,A,V*60

$GPRMC,000734,A,3129.27707,N,12118.00000,E,9.719,360.000,200720,0.000,E,A,V*62

$GPRMC,000735,A,3129.27978,N,12118.00000,E,9.719,0.000,200720,0.000,E,A,V*60

$GPRMC,000736,A,3129.28248,N,12118.00000,E,9.719,360.000,200720,0.000,E,A,V*61

$GPRMC,000737,A,3129.28519,N,12118.00000,E,9.719,360.000,200720,0.000,E,A,V*63

$GPRMC,000738,A,3129.28790,N,12118.00000,E,9.719,0.000,200720,0.000,E,A,V*6A

$GPRMC,000739,A,3129.29060,N,12118.00000,E,9.719,0.000,200720,0.000,E,A,V*62

$GPRMC,000740,A,3129.29331,N,12118.00000,E,9.719,0.000,200720,0.000,E,A,V*6B

$GPRMC,000741,A,3129.29601,N,12118.00000,E,9.719,0.000,200720,0.000,E,A,V*6C

$GPRMC,000742,A,3129.29872,N,12118.00000,E,9.719,0.000,200720,0.000,E,A,V*65

$GPRMC,000743,A,3129.30142,N,12118.00000,E,9.719,360.000,200720,0.000,E,A,V*63

$GPRMC,000744,A,3129.30413,N,12118.00000,E,9.719,0.000,200720,0.000,E,A,V*60

$GPRMC,000745,A,3129.30683,N,12118.00000,E,9.719,0.000,200720,0.000,E,A,V*6A

$GPRMC,000746,A,3129.30954,N,12118.00000,E,9.719,0.000,200720,0.000,E,A,V*6C

$GPRMC,000747,A,3129.31225,N,12118.00000,E,9.719,0.000,200720,0.000,E,A,V*61

$GPRMC,000748,A,3129.31495,N,12118.00000,E,9.719,360.000,200720,0.000,E,A,V*66

$GPRMC,000749,A,3129.31766,N,12118.00000,E,9.719,0.000,200720,0.000,E,A,V*6D

$GPRMC,000750,A,3129.32036,N,12118.00000,E,9.719,0.000,200720,0.000,E,A,V*64

$GPRMC,000751,A,3129.32307,N,12118.00000,E,9.719,360.000,200720,0.000,E,A,V*61

$GPRMC,000752,A,3129.32577,N,12118.00000,E,9.719,0.000,200720,0.000,E,A,V*66

$GPRMC,000753,A,3129.32848,N,12118.00000,E,9.719,360.000,200720,0.000,E,A,V*63

$GPRMC,000754,A,3129.33119,N,12118.00000,E,9.719,0.000,200720,0.000,E,A,V*6D

$GPRMC,000755,A,3129.33389,N,12118.00000,E,9.719,0.000,200720,0.000,E,A,V*67

$GPRMC,000756,A,3129.33660,N,12118.00000,E,9.719,0.000,200720,0.000,E,A,V*66

$GPRMC,000757,A,3129.33930,N,12118.00000,E,9.719,0.000,200720,0.000,E,A,V*6D

$GPRMC,000758,A,3129.34201,N,12118.00000,E,9.719,0.000,200720,0.000,E,A,V*6C

$GPRMC,000759,A,3129.34471,N,12118.00000,E,9.719,360.000,200720,0.000,E,A,V*69

$GPRMC,000800,A,3129.34742,N,12118.00000,E,9.719,0.000,200720,0.000,E,A,V*6C

$GPRMC,000801,A,3129.35013,N,12118.00000,E,9.719,0.000,200720,0.000,E,A,V*6F

$GPRMC,000802,A,3129.35283,N,12118.00000,E,9.719,0.000,200720,0.000,E,A,V*67

$GPRMC,000803,A,3129.35554,N,12118.00000,E,9.719,360.000,200720,0.000,E,A,V*6E

$GPRMC,000804,A,3129.35824,N,12118.00000,E,9.719,0.000,200720,0.000,E,A,V*66

$GPRMC,000805,A,3129.36095,N,12118.00000,E,9.719,360.000,200720,0.000,E,A,V*63

$GPRMC,000806,A,3129.36365,N,12118.00000,E,9.719,0.000,200720,0.000,E,A,V*69

$GPRMC,000807,A,3129.36636,N,12118.00000,E,9.719,360.000,200720,0.000,E,A,V*6E

$GPRMC,000808,A,3129.36906,N,12118.00000,E,9.719,360.000,200720,0.000,E,A,V*6D

$GPRMC,000809,A,3129.37177,N,12118.00000,E,9.719,0.000,200720,0.000,E,A,V*66

$GPRMC,000810,A,3129.37448,N,12118.00000,E,9.719,360.000,200720,0.000,E,A,V*62

$GPRMC,000811,A,3129.37718,N,12118.00000,E,9.719,360.000,200720,0.000,E,A,V*65

$GPRMC,000812,A,3129.37989,N,12118.00000,E,9.719,0.000,200720,0.000,E,A,V*65

$GPRMC,000813,A,3129.38259,N,12118.00000,E,9.719,0.000,200720,0.000,E,A,V*6D

$GPRMC,000814,A,3129.38530,N,12118.00000,E,9.719,0.000,200720,0.000,E,A,V*62

$GPRMC,000815,A,3129.38800,N,12118.00000,E,9.719,0.000,200720,0.000,E,A,V*6D

$GPRMC,000816,A,3129.39071,N,12118.00000,E,9.719,0.000,200720,0.000,E,A,V*61

$GPRMC,000817,A,3129.39342,N,12118.00000,E,9.719,0.000,200720,0.000,E,A,V*63

$GPRMC,000818,A,3129.39612,N,12118.00000,E,9.719,360.000,200720,0.000,E,A,V*69

$GPRMC,000819,A,3129.39883,N,12118.00000,E,9.719,0.000,200720,0.000,E,A,V*6B

$GPRMC,000820,A,3129.40153,N,12118.00000,E,9.719,0.000,200720,0.000,E,A,V*6B

$GPRMC,000821,A,3129.40424,N,12118.00000,E,9.719,0.000,200720,0.000,E,A,V*6F

$GPRMC,000822,A,3129.40694,N,12118.00000,E,9.719,0.000,200720,0.000,E,A,V*65

$GPRMC,000823,A,3129.40965,N,12118.00000,E,9.719,360.000,200720,0.000,E,A,V*60

$GPRMC,000824,A,3129.41236,N,12118.00000,E,9.719,0.000,200720,0.000,E,A,V*6E

$GPRMC,000825,A,3129.41506,N,12118.00000,E,9.719,0.000,200720,0.000,E,A,V*6B

$GPRMC,000826,A,3129.41777,N,12118.00000,E,9.719,0.000,200720,0.000,E,A,V*6C

$GPRMC,000827,A,3129.42047,N,12118.00000,E,9.719,360.000,200720,0.000,E,A,V*6F

$GPRMC,000828,A,3129.42318,N,12118.00000,E,9.719,360.000,200720,0.000,E,A,V*69

$GPRMC,000829,A,3129.42588,N,12118.00000,E,9.719,360.000,200720,0.000,E,A,V*67

$GPRMC,000830,A,3129.42859,N,12118.00000,E,9.719,360.000,200720,0.000,E,A,V*6E

$GPRMC,000831,A,3129.43130,N,12118.00000,E,9.719,0.000,200720,0.000,E,A,V*6D

$GPRMC,000832,A,3129.43400,N,12118.00000,E,9.719,0.000,200720,0.000,E,A,V*68

$GPRMC,000833,A,3129.43671,N,12118.00000,E,9.719,0.000,200720,0.000,E,A,V*6D

$GPRMC,000834,A,3129.43941,N,12118.00000,E,9.719,0.000,200720,0.000,E,A,V*66

$GPRMC,000835,A,3129.44212,N,12118.00000,E,9.719,360.000,200720,0.000,E,A,V*68

$GPRMC,000836,A,3129.44482,N,12118.00000,E,9.719,0.000,200720,0.000,E,A,V*61

$GPRMC,000837,A,3129.44753,N,12118.00000,E,9.719,0.000,200720,0.000,E,A,V*6F

$GPRMC,000838,A,3129.45023,N,12118.00000,E,9.719,0.000,200720,0.000,E,A,V*61

$GPRMC,000839,A,3129.45294,N,12118.00000,E,9.719,0.000,200720,0.000,E,A,V*6E

$GPRMC,000840,A,3129.45565,N,12118.00000,E,9.719,360.000,200720,0.000,E,A,V*6C

$GPRMC,000841,A,3129.45835,N,12118.00000,E,9.719,360.000,200720,0.000,E,A,V*65

$GPRMC,000842,A,3129.46106,N,12118.00000,E,9.719,0.000,200720,0.000,E,A,V*69

$GPRMC,000843,A,3129.46376,N,12118.00000,E,9.719,360.000,200720,0.000,E,A,V*68

$GPRMC,000844,A,3129.46647,N,12118.00000,E,9.719,0.000,200720,0.000,E,A,V*6D

$GPRMC,000845,A,3129.46917,N,12118.00000,E,9.719,0.000,200720,0.000,E,A,V*66

$GPRMC,000846,A,3129.47188,N,12118.00000,E,9.719,0.000,200720,0.000,E,A,V*6A

$GPRMC,000847,A,3129.47459,N,12118.00000,E,9.719,360.000,200720,0.000,E,A,V*67

$GPRMC,000848,A,3129.47729,N,12118.00000,E,9.719,0.000,200720,0.000,E,A,V*69

$GPRMC,000849,A,3129.48000,N,12118.00000,E,9.719,0.000,200720,0.000,E,A,V*6B

$GPRMC,000850,A,3129.48270,N,12118.00000,E,9.719,0.000,200720,0.000,E,A,V*66

$GPRMC,000851,A,3129.48541,N,12118.00000,E,9.719,360.000,200720,0.000,E,A,V*67

$GPRMC,000852,A,3129.48811,N,12118.00000,E,9.719,0.000,200720,0.000,E,A,V*69

$GPRMC,000853,A,3129.49082,N,12118.00000,E,9.719,0.000,200720,0.000,E,A,V*6B

$GPRMC,000854,A,3129.49353,N,12118.00000,E,9.719,360.000,200720,0.000,E,A,V*66

$GPRMC,000855,A,3129.49623,N,12118.00000,E,9.719,0.000,200720,0.000,E,A,V*60

$GPRMC,000856,A,3129.49894,N,12118.00000,E,9.719,0.000,200720,0.000,E,A,V*61

$GPRMC,000857,A,3129.50164,N,12118.00000,E,9.719,360.000,200720,0.000,E,A,V*6B

$GPRMC,000858,A,3129.50435,N,12118.00000,E,9.719,360.000,200720,0.000,E,A,V*65

$GPRMC,000859,A,3129.50705,N,12118.00000,E,9.719,0.000,200720,0.000,E,A,V*61

$GPRMC,000900,A,3129.50976,N,12118.00000,E,9.719,0.000,200720,0.000,E,A,V*66

$GPRMC,000901,A,3129.51246,N,12118.00000,E,9.719,360.000,200720,0.000,E,A,V*6B

$GPRMC,000902,A,3129.51517,N,12118.00000,E,9.719,0.000,200720,0.000,E,A,V*6E

$GPRMC,000903,A,3129.51788,N,12118.00000,E,9.719,0.000,200720,0.000,E,A,V*6B

$GPRMC,000904,A,3129.52058,N,12118.00000,E,9.719,0.000,200720,0.000,E,A,V*65

$GPRMC,000905,A,3129.52329,N,12118.00000,E,9.719,0.000,200720,0.000,E,A,V*61

$GPRMC,000906,A,3129.52599,N,12118.00000,E,9.719,0.000,200720,0.000,E,A,V*6F

$GPRMC,000907,A,3129.52870,N,12118.00000,E,9.719,0.000,200720,0.000,E,A,V*64

$GPRMC,000908,A,3129.53140,N,12118.00000,E,9.719,360.000,200720,0.000,E,A,V*65

$GPRMC,000909,A,3129.53411,N,12118.00000,E,9.719,360.000,200720,0.000,E,A,V*65

$GPRMC,000910,A,3129.53682,N,12118.00000,E,9.719,360.000,200720,0.000,E,A,V*65

$GPRMC,000911,A,3129.53952,N,12118.00000,E,9.719,0.000,200720,0.000,E,A,V*63

$GPRMC,000912,A,3129.54223,N,12118.00000,E,9.719,360.000,200720,0.000,E,A,V*6F

$GPRMC,000913,A,3129.54493,N,12118.00000,E,9.719,0.000,200720,0.000,E,A,V*66

$GPRMC,000914,A,3129.54764,N,12118.00000,E,9.719,0.000,200720,0.000,E,A,V*6A

$GPRMC,000915,A,3129.55034,N,12118.00000,E,9.719,360.000,200720,0.000,E,A,V*6D

$GPRMC,000916,A,3129.55305,N,12118.00000,E,9.719,0.000,200720,0.000,E,A,V*6A

$GPRMC,000917,A,3129.55576,N,12118.00000,E,9.719,0.000,200720,0.000,E,A,V*69

$GPRMC,000918,A,3129.55846,N,12118.00000,E,9.719,0.000,200720,0.000,E,A,V*68

$GPRMC,000919,A,3129.56117,N,12118.00000,E,9.719,360.000,200720,0.000,E,A,V*62

$GPRMC,000920,A,3129.56387,N,12118.00000,E,9.719,0.000,200720,0.000,E,A,V*66

$GPRMC,000921,A,3129.56658,N,12118.00000,E,9.719,0.000,200720,0.000,E,A,V*60

$GPRMC,000922,A,3129.56928,N,12118.00000,E,9.719,0.000,200720,0.000,E,A,V*6B

$GPRMC,000923,A,3129.57199,N,12118.00000,E,9.719,0.000,200720,0.000,E,A,V*69

$GPRMC,000924,A,3129.57469,N,12118.00000,E,9.719,0.000,200720,0.000,E,A,V*64

$GPRMC,000925,A,3129.57740,N,12118.00000,E,9.719,0.000,200720,0.000,E,A,V*6D

$GPRMC,000926,A,3129.58011,N,12118.00000,E,9.719,360.000,200720,0.000,E,A,V*67

$GPRMC,000927,A,3129.58281,N,12118.00000,E,9.719,0.000,200720,0.000,E,A,V*68

$GPRMC,000928,A,3129.58552,N,12118.00000,E,9.719,0.000,200720,0.000,E,A,V*6E

$GPRMC,000929,A,3129.58822,N,12118.00000,E,9.719,360.000,200720,0.000,E,A,V*60

$GPRMC,000930,A,3129.59093,N,12118.00000,E,9.719,360.000,200720,0.000,E,A,V*6B

$GPRMC,000931,A,3129.59363,N,12118.00000,E,9.719,0.000,200720,0.000,E,A,V*63

$GPRMC,000932,A,3129.59634,N,12118.00000,E,9.719,0.000,200720,0.000,E,A,V*67

$GPRMC,000933,A,3129.59905,N,12118.00000,E,9.719,0.000,200720,0.000,E,A,V*6B

$GPRMC,000934,A,3129.60175,N,12118.00000,E,9.719,360.000,200720,0.000,E,A,V*6C

$GPRMC,000935,A,3129.60446,N,12118.00000,E,9.719,360.000,200720,0.000,E,A,V*68

$GPRMC,000936,A,3129.60716,N,12118.00000,E,9.719,0.000,200720,0.000,E,A,V*68

$GPRMC,000937,A,3129.60987,N,12118.00000,E,9.719,0.000,200720,0.000,E,A,V*6F

$GPRMC,000938,A,3129.61257,N,12118.00000,E,9.719,0.000,200720,0.000,E,A,V*67

$GPRMC,000939,A,3129.61528,N,12118.00000,E,9.719,0.000,200720,0.000,E,A,V*69

$GPRMC,000940,A,3129.61799,N,12118.00000,E,9.719,360.000,200720,0.000,E,A,V*6A

$GPRMC,000941,A,3129.62069,N,12118.00000,E,9.719,360.000,200720,0.000,E,A,V*60

$GPRMC,000942,A,3129.62340,N,12118.00000,E,9.719,0.000,200720,0.000,E,A,V*6E

$GPRMC,000943,A,3129.62610,N,12118.00000,E,9.719,0.000,200720,0.000,E,A,V*6F

$GPRMC,000944,A,3129.62881,N,12118.00000,E,9.719,0.000,200720,0.000,E,A,V*6E

$GPRMC,000945,A,3129.63151,N,12118.00000,E,9.719,0.000,200720,0.000,E,A,V*6A

$GPRMC,000946,A,3129.63422,N,12118.00000,E,9.719,0.000,200720,0.000,E,A,V*68

$GPRMC,000947,A,3129.63693,N,12118.00000,E,9.719,0.000,200720,0.000,E,A,V*61

$GPRMC,000948,A,3129.63963,N,12118.00000,E,9.719,360.000,200720,0.000,E,A,V*6B

$GPRMC,000949,A,3129.64234,N,12118.00000,E,9.719,0.000,200720,0.000,E,A,V*61

$GPRMC,000950,A,3129.64504,N,12118.00000,E,9.719,0.000,200720,0.000,E,A,V*6D

$GPRMC,000951,A,3129.64775,N,12118.00000,E,9.719,0.000,200720,0.000,E,A,V*68

$GPRMC,000952,A,3129.65045,N,12118.00000,E,9.719,360.000,200720,0.000,E,A,V*6B

$GPRMC,000953,A,3129.65316,N,12118.00000,E,9.719,0.000,200720,0.000,E,A,V*6A

$GPRMC,000954,A,3129.65586,N,12118.00000,E,9.719,0.000,200720,0.000,E,A,V*62

$GPRMC,000955,A,3129.65857,N,12118.00000,E,9.719,0.000,200720,0.000,E,A,V*62

$GPRMC,000956,A,3129.66128,N,12118.00000,E,9.719,0.000,200720,0.000,E,A,V*63

$GPRMC,000957,A,3129.66398,N,12118.00000,E,9.719,0.000,200720,0.000,E,A,V*6B

$GPRMC,000958,A,3129.66669,N,12118.00000,E,9.719,360.000,200720,0.000,E,A,V*6A

$GPRMC,000959,A,3129.66939,N,12118.00000,E,9.719,360.000,200720,0.000,E,A,V*61

$GPRMC,001000,A,3129.67210,N,12118.00000,E,9.719,0.000,200720,0.000,E,A,V*61

$GPRMC,001001,A,3129.67480,N,12118.00000,E,9.719,0.000,200720,0.000,E,A,V*6F

$GPRMC,001002,A,3129.67751,N,12118.00000,E,9.719,0.000,200720,0.000,E,A,V*63

$GPRMC,001003,A,3129.68022,N,12118.00000,E,9.719,0.000,200720,0.000,E,A,V*6E

$GPRMC,001004,A,3129.68292,N,12118.00000,E,9.719,0.000,200720,0.000,E,A,V*60

$GPRMC,001005,A,3129.68563,N,12118.00000,E,9.719,0.000,200720,0.000,E,A,V*68

$GPRMC,001006,A,3129.68833,N,12118.00000,E,9.719,0.000,200720,0.000,E,A,V*63

$GPRMC,001007,A,3129.69104,N,12118.00000,E,9.719,0.000,200720,0.000,E,A,V*6E

$GPRMC,001008,A,3129.69374,N,12118.00000,E,9.719,0.000,200720,0.000,E,A,V*64

$GPRMC,001009,A,3129.69645,N,12118.00000,E,9.719,360.000,200720,0.000,E,A,V*67

$GPRMC,001010,A,3129.69916,N,12118.00000,E,9.719,0.000,200720,0.000,E,A,V*63

$GPRMC,001011,A,3129.70186,N,12118.00000,E,9.719,360.000,200720,0.000,E,A,V*6E

$GPRMC,001012,A,3129.70457,N,12118.00000,E,9.719,0.000,200720,0.000,E,A,V*61

$GPRMC,001013,A,3129.70727,N,12118.00000,E,9.719,0.000,200720,0.000,E,A,V*64

$GPRMC,001014,A,3129.70998,N,12118.00000,E,9.719,0.000,200720,0.000,E,A,V*69

$GPRMC,001015,A,3129.71268,N,12118.00000,E,9.719,0.000,200720,0.000,E,A,V*6D

$GPRMC,001016,A,3129.71539,N,12118.00000,E,9.719,0.000,200720,0.000,E,A,V*6D

$GPRMC,001017,A,3129.71809,N,12118.00000,E,9.719,360.000,200720,0.000,E,A,V*67

$GPRMC,001018,A,3129.72080,N,12118.00000,E,9.719,0.000,200720,0.000,E,A,V*67

$GPRMC,001019,A,3129.72351,N,12118.00000,E,9.719,0.000,200720,0.000,E,A,V*69

$GPRMC,001020,A,3129.72621,N,12118.00000,E,9.719,0.000,200720,0.000,E,A,V*61

$GPRMC,001021,A,3129.72892,N,12118.00000,E,9.719,0.000,200720,0.000,E,A,V*66

$GPRMC,001022,A,3129.73162,N,12118.00000,E,9.719,0.000,200720,0.000,E,A,V*62

$GPRMC,001023,A,3129.73433,N,12118.00000,E,9.719,0.000,200720,0.000,E,A,V*62

$GPRMC,001024,A,3129.73703,N,12118.00000,E,9.719,0.000,200720,0.000,E,A,V*65

$GPRMC,001025,A,3129.73974,N,12118.00000,E,9.719,0.000,200720,0.000,E,A,V*6A

$GPRMC,001026,A,3129.74245,N,12118.00000,E,9.719,0.000,200720,0.000,E,A,V*67

$GPRMC,001027,A,3129.74515,N,12118.00000,E,9.719,360.000,200720,0.000,E,A,V*61

$GPRMC,001028,A,3129.74786,N,12118.00000,E,9.719,0.000,200720,0.000,E,A,V*63

$GPRMC,001029,A,3129.75056,N,12118.00000,E,9.719,0.000,200720,0.000,E,A,V*69

$GPRMC,001030,A,3129.75327,N,12118.00000,E,9.719,0.000,200720,0.000,E,A,V*64

$GPRMC,001031,A,3129.75597,N,12118.00000,E,9.719,360.000,200720,0.000,E,A,V*6D

$GPRMC,001032,A,3129.75868,N,12118.00000,E,9.719,0.000,200720,0.000,E,A,V*66

$GPRMC,001033,A,3129.76139,N,12118.00000,E,9.719,0.000,200720,0.000,E,A,V*69

$GPRMC,001034,A,3129.76409,N,12118.00000,E,9.719,0.000,200720,0.000,E,A,V*68

$GPRMC,001035,A,3129.76680,N,12118.00000,E,9.719,0.000,200720,0.000,E,A,V*6A

$GPRMC,001036,A,3129.76950,N,12118.00000,E,9.719,360.000,200720,0.000,E,A,V*6E

$GPRMC,001037,A,3129.77221,N,12118.00000,E,9.719,0.000,200720,0.000,E,A,V*66

$GPRMC,001038,A,3129.77491,N,12118.00000,E,9.719,0.000,200720,0.000,E,A,V*64

$GPRMC,001039,A,3129.77762,N,12118.00000,E,9.719,0.000,200720,0.000,E,A,V*6A

$GPRMC,001040,A,3129.78032,N,12118.00000,E,9.719,360.000,200720,0.000,E,A,V*6C

$GPRMC,001041,A,3129.78303,N,12118.00000,E,9.719,360.000,200720,0.000,E,A,V*6C

$GPRMC,001042,A,3129.78574,N,12118.00000,E,9.719,0.000,200720,0.000,E,A,V*6C

$GPRMC,001043,A,3129.78844,N,12118.00000,E,9.719,0.000,200720,0.000,E,A,V*63

$GPRMC,001044,A,3129.79115,N,12118.00000,E,9.719,0.000,200720,0.000,E,A,V*68

$GPRMC,001045,A,3129.79385,N,12118.00000,E,9.719,0.000,200720,0.000,E,A,V*62

$GPRMC,001046,A,3129.79656,N,12118.00000,E,9.719,0.000,200720,0.000,E,A,V*6A

$GPRMC,001047,A,3129.79926,N,12118.00000,E,9.719,0.000,200720,0.000,E,A,V*63

$GPRMC,001048,A,3129.80197,N,12118.00000,E,9.719,360.000,200720,0.000,E,A,V*6D

$GPRMC,001049,A,3129.80468,N,12118.00000,E,9.719,360.000,200720,0.000,E,A,V*69

$GPRMC,001050,A,3129.80738,N,12118.00000,E,9.719,360.000,200720,0.000,E,A,V*67

$GPRMC,001051,A,3129.81009,N,12118.00000,E,9.719,360.000,200720,0.000,E,A,V*62

$GPRMC,001052,A,3129.81279,N,12118.00000,E,9.719,0.000,200720,0.000,E,A,V*61

$GPRMC,001053,A,3129.81550,N,12118.00000,E,9.719,0.000,200720,0.000,E,A,V*6C

$GPRMC,001054,A,3129.81820,N,12118.00000,E,9.719,0.000,200720,0.000,E,A,V*61

$GPRMC,001055,A,3129.82091,N,12118.00000,E,9.719,0.000,200720,0.000,E,A,V*61

$GPRMC,001056,A,3129.82362,N,12118.00000,E,9.719,0.000,200720,0.000,E,A,V*6D

$GPRMC,001057,A,3129.82632,N,12118.00000,E,9.719,360.000,200720,0.000,E,A,V*69

$GPRMC,001058,A,3129.82903,N,12118.00000,E,9.719,360.000,200720,0.000,E,A,V*6B

$GPRMC,001059,A,3129.83173,N,12118.00000,E,9.719,0.000,200720,0.000,E,A,V*61

$GPRMC,001100,A,3129.83444,N,12118.00000,E,9.719,0.000,200720,0.000,E,A,V*6D

$GPRMC,001101,A,3129.83714,N,12118.00000,E,9.719,0.000,200720,0.000,E,A,V*6A

$GPRMC,001102,A,3129.83985,N,12118.00000,E,9.719,0.000,200720,0.000,E,A,V*6F

$GPRMC,001103,A,3129.84255,N,12118.00000,E,9.719,0.000,200720,0.000,E,A,V*6F

$GPRMC,001104,A,3129.84526,N,12118.00000,E,9.719,360.000,200720,0.000,E,A,V*6E

$GPRMC,001105,A,3129.84797,N,12118.00000,E,9.719,0.000,200720,0.000,E,A,V*62

$GPRMC,001106,A,3129.85067,N,12118.00000,E,9.719,0.000,200720,0.000,E,A,V*68

$GPRMC,001107,A,3129.85338,N,12118.00000,E,9.719,0.000,200720,0.000,E,A,V*60

$GPRMC,001108,A,3129.85608,N,12118.00000,E,9.719,0.000,200720,0.000,E,A,V*69

$GPRMC,001109,A,3129.85879,N,12118.00000,E,9.719,0.000,200720,0.000,E,A,V*60

$GPRMC,001110,A,3129.86149,N,12118.00000,E,9.719,0.000,200720,0.000,E,A,V*61

$GPRMC,001111,A,3129.86420,N,12118.00000,E,9.719,0.000,200720,0.000,E,A,V*6A

$GPRMC,001112,A,3129.86691,N,12118.00000,E,9.719,0.000,200720,0.000,E,A,V*61

$GPRMC,001113,A,3129.86961,N,12118.00000,E,9.719,0.000,200720,0.000,E,A,V*60

$GPRMC,001114,A,3129.87232,N,12118.00000,E,9.719,360.000,200720,0.000,E,A,V*6E

$GPRMC,001115,A,3129.87502,N,12118.00000,E,9.719,0.000,200720,0.000,E,A,V*6E

$GPRMC,001116,A,3129.87773,N,12118.00000,E,9.719,0.000,200720,0.000,E,A,V*69

$GPRMC,001117,A,3129.88043,N,12118.00000,E,9.719,0.000,200720,0.000,E,A,V*63

$GPRMC,001118,A,3129.88314,N,12118.00000,E,9.719,0.000,200720,0.000,E,A,V*6D

$GPRMC,001119,A,3129.88585,N,12118.00000,E,9.719,0.000,200720,0.000,E,A,V*62

$GPRMC,001120,A,3129.88855,N,12118.00000,E,9.719,360.000,200720,0.000,E,A,V*6D

$GPRMC,001121,A,3129.89126,N,12118.00000,E,9.719,0.000,200720,0.000,E,A,V*65

$GPRMC,001122,A,3129.89396,N,12118.00000,E,9.719,0.000,200720,0.000,E,A,V*6F

$GPRMC,001123,A,3129.89667,N,12118.00000,E,9.719,0.000,200720,0.000,E,A,V*65

$GPRMC,001124,A,3129.89937,N,12118.00000,E,9.719,360.000,200720,0.000,E,A,V*6D

$GPRMC,001125,A,3129.90208,N,12118.00000,E,9.719,0.000,200720,0.000,E,A,V*66

$GPRMC,001126,A,3129.90478,N,12118.00000,E,9.719,0.000,200720,0.000,E,A,V*64

$GPRMC,001127,A,3129.90749,N,12118.00000,E,9.719,0.000,200720,0.000,E,A,V*64

$GPRMC,001128,A,3129.91020,N,12118.00000,E,9.719,0.000,200720,0.000,E,A,V*62

$GPRMC,001129,A,3129.91290,N,12118.00000,E,9.719,0.000,200720,0.000,E,A,V*6A

$GPRMC,001130,A,3129.91561,N,12118.00000,E,9.719,360.000,200720,0.000,E,A,V*6E

$GPRMC,001131,A,3129.91831,N,12118.00000,E,9.719,0.000,200720,0.000,E,A,V*62

$GPRMC,001132,A,3129.92102,N,12118.00000,E,9.719,0.000,200720,0.000,E,A,V*6B

$GPRMC,001133,A,3129.92372,N,12118.00000,E,9.719,360.000,200720,0.000,E,A,V*6A

$GPRMC,001134,A,3129.92643,N,12118.00000,E,9.719,0.000,200720,0.000,E,A,V*6F

$GPRMC,001135,A,3129.92914,N,12118.00000,E,9.719,0.000,200720,0.000,E,A,V*63

$GPRMC,001136,A,3129.93184,N,12118.00000,E,9.719,0.000,200720,0.000,E,A,V*60

$GPRMC,001137,A,3129.93455,N,12118.00000,E,9.719,0.000,200720,0.000,E,A,V*68

$GPRMC,001138,A,3129.93725,N,12118.00000,E,9.719,360.000,200720,0.000,E,A,V*66

$GPRMC,001139,A,3129.93996,N,12118.00000,E,9.719,0.000,200720,0.000,E,A,V*64

$GPRMC,001140,A,3129.94266,N,12118.00000,E,9.719,360.000,200720,0.000,E,A,V*6C

$GPRMC,001141,A,3129.94537,N,12118.00000,E,9.719,0.000,200720,0.000,E,A,V*6B

$GPRMC,001142,A,3129.94808,N,12118.00000,E,9.719,360.000,200720,0.000,E,A,V*6C

$GPRMC,001143,A,3129.95078,N,12118.00000,E,9.719,0.000,200720,0.000,E,A,V*66

$GPRMC,001144,A,3129.95349,N,12118.00000,E,9.719,0.000,200720,0.000,E,A,V*60

$GPRMC,001145,A,3129.95619,N,12118.00000,E,9.719,0.000,200720,0.000,E,A,V*61

$GPRMC,001146,A,3129.95890,N,12118.00000,E,9.719,360.000,200720,0.000,E,A,V*68

$GPRMC,001147,A,3129.96160,N,12118.00000,E,9.719,0.000,200720,0.000,E,A,V*69

$GPRMC,001148,A,3129.96431,N,12118.00000,E,9.719,0.000,200720,0.000,E,A,V*67

$GPRMC,001149,A,3129.96701,N,12118.00000,E,9.719,0.000,200720,0.000,E,A,V*66

$GPRMC,001150,A,3129.96972,N,12118.00000,E,9.719,360.000,200720,0.000,E,A,V*61

$GPRMC,001151,A,3129.97243,N,12118.00000,E,9.719,0.000,200720,0.000,E,A,V*6D

$GPRMC,001152,A,3129.97513,N,12118.00000,E,9.719,360.000,200720,0.000,E,A,V*69

$GPRMC,001153,A,3129.97784,N,12118.00000,E,9.719,360.000,200720,0.000,E,A,V*64

$GPRMC,001154,A,3129.98054,N,12118.00000,E,9.719,0.000,200720,0.000,E,A,V*63

$GPRMC,001155,A,3129.98325,N,12118.00000,E,9.719,0.000,200720,0.000,E,A,V*67

$GPRMC,001156,A,3129.98595,N,12118.00000,E,9.719,0.000,200720,0.000,E,A,V*69

$GPRMC,001157,A,3129.98866,N,12118.00000,E,9.719,0.000,200720,0.000,E,A,V*69

$GPRMC,001158,A,3129.99137,N,12118.00000,E,9.719,360.000,200720,0.000,E,A,V*6F

$GPRMC,001159,A,3129.99407,N,12118.00000,E,9.719,0.000,200720,0.000,E,A,V*6D

$GPRMC,001200,A,3129.99678,N,12118.00000,E,9.719,0.000,200720,0.000,E,A,V*68

$GPRMC,001201,A,3129.99948,N,12118.00000,E,9.719,0.000,200720,0.000,E,A,V*65

$GPRMC,001202,A,3130.00219,N,12118.00000,E,9.719,0.000,200720,0.000,E,A,V*61

$GPRMC,001203,A,3130.00489,N,12118.00000,E,9.719,360.000,200720,0.000,E,A,V*6A

$GPRMC,001204,A,3130.00760,N,12118.00000,E,9.719,360.000,200720,0.000,E,A,V*69

$GPRMC,001205,A,3130.01031,N,12118.00000,E,9.719,0.000,200720,0.000,E,A,V*6F

$GPRMC,001206,A,3130.01301,N,12118.00000,E,9.719,0.000,200720,0.000,E,A,V*6C

$GPRMC,001207,A,3130.01572,N,12118.00000,E,9.719,0.000,200720,0.000,E,A,V*6F

$GPRMC,001208,A,3130.01842,N,12118.00000,E,9.719,0.000,200720,0.000,E,A,V*6E

$GPRMC,001209,A,3130.02113,N,12118.00000,E,9.719,0.000,200720,0.000,E,A,V*61

$GPRMC,001210,A,3130.02383,N,12118.00000,E,9.719,360.000,200720,0.000,E,A,V*67

$GPRMC,001211,A,3130.02654,N,12118.00000,E,9.719,0.000,200720,0.000,E,A,V*6C

$GPRMC,001212,A,3130.02924,N,12118.00000,E,9.719,0.000,200720,0.000,E,A,V*67

$GPRMC,001213,A,3130.03195,N,12118.00000,E,9.719,0.000,200720,0.000,E,A,V*65

$GPRMC,001214,A,3130.03466,N,12118.00000,E,9.719,0.000,200720,0.000,E,A,V*6B

$GPRMC,001215,A,3130.03736,N,12118.00000,E,9.719,0.000,200720,0.000,E,A,V*6C

$GPRMC,001216,A,3130.04007,N,12118.00000,E,9.719,360.000,200720,0.000,E,A,V*68

$GPRMC,001217,A,3130.04277,N,12118.00000,E,9.719,0.000,200720,0.000,E,A,V*69

$GPRMC,001218,A,3130.04548,N,12118.00000,E,9.719,360.000,200720,0.000,E,A,V*68

$GPRMC,001219,A,3130.04818,N,12118.00000,E,9.719,0.000,200720,0.000,E,A,V*64

$GPRMC,001220,A,3130.05089,N,12118.00000,E,9.719,0.000,200720,0.000,E,A,V*6F

$GPRMC,001221,A,3130.05360,N,12118.00000,E,9.719,0.000,200720,0.000,E,A,V*6A

$GPRMC,001222,A,3130.05630,N,12118.00000,E,9.719,0.000,200720,0.000,E,A,V*69

$GPRMC,001223,A,3130.05901,N,12118.00000,E,9.719,0.000,200720,0.000,E,A,V*65

$GPRMC,001224,A,3130.06171,N,12118.00000,E,9.719,0.000,200720,0.000,E,A,V*6E

$GPRMC,001225,A,3130.06442,N,12118.00000,E,9.719,0.000,200720,0.000,E,A,V*6A

$GPRMC,001226,A,3130.06712,N,12118.00000,E,9.719,360.000,200720,0.000,E,A,V*6A

$GPRMC,001227,A,3130.06983,N,12118.00000,E,9.719,0.000,200720,0.000,E,A,V*68

$GPRMC,001228,A,3130.07254,N,12118.00000,E,9.719,360.000,200720,0.000,E,A,V*62

$GPRMC,001229,A,3130.07524,N,12118.00000,E,9.719,0.000,200720,0.000,E,A,V*66

$GPRMC,001230,A,3130.07795,N,12118.00000,E,9.719,0.000,200720,0.000,E,A,V*66

$GPRMC,001231,A,3130.08065,N,12118.00000,E,9.719,360.000,200720,0.000,E,A,V*65

$GPRMC,001232,A,3130.08336,N,12118.00000,E,9.719,360.000,200720,0.000,E,A,V*63

$GPRMC,001233,A,3130.08606,N,12118.00000,E,9.719,0.000,200720,0.000,E,A,V*61

$GPRMC,001234,A,3130.08877,N,12118.00000,E,9.719,0.000,200720,0.000,E,A,V*6E

$GPRMC,001235,A,3130.09147,N,12118.00000,E,9.719,0.000,200720,0.000,E,A,V*64

$GPRMC,001236,A,3130.09418,N,12118.00000,E,9.719,0.000,200720,0.000,E,A,V*68

$GPRMC,001237,A,3130.09689,N,12118.00000,E,9.719,0.000,200720,0.000,E,A,V*63

$GPRMC,001238,A,3130.09959,N,12118.00000,E,9.719,0.000,200720,0.000,E,A,V*6E

$GPRMC,001239,A,3130.10230,N,12118.00000,E,9.719,0.000,200720,0.000,E,A,V*63

$GPRMC,001240,A,3130.10500,N,12118.00000,E,9.719,0.000,200720,0.000,E,A,V*69

