$GNRMC,001250.00,A,3130.132081,N,12117.999959,E,9.718,0.04,200720,,,A,V*08
$GNGGA,001250.00,3130.132081,N,12117.999959,E,1,09,0.97,40.1,M,9.5,M,,*4A
$GNGSA,A,3,04,01,07,08,13,20,23,25,02,,,,1.69,0.97,1.38,1*05
$GNGSA,A,3,,,,,,,,,,,,,1.69,0.97,1.38,4*0E
$GPGSV,3,1,10,01,17,119,35,02,19,313,35,04,45,275,36,07
,66,207,36,0*64
$GPGSV,3,2,10,08,26,213,35,13,61,356,36,16,13,054,35,20,42,119,36,0*65
$GPGSV,3,3,10,23,45,043,36,25,89,186,36,0*6A
$BDGSV,1,1,00,0*74

$GNRMC,001251.00,A,3130.134792,N,12117.999960,E,9.725,359.99,200720,,,A,V*05
$GNGGA,001251.00,3130.134792,N,12117.999960,E,1,09,0.97,40.1,M,9.5,M,,*42
$GNGSA,A,3,04,01,07,08,13,20,23,25,02,,,,1.69,0.97,1.38,1*05
$GNGSA,A,3,,,,,,,,,,,,,1.69,0.97,1.38,4*0E
$GPGSV,3,1,10,01,17,119,35,02,19,313,35,04,45,275,36,
07,66,207,36,0*64
$GPGSV,3,2,10,08,26,213,35,13,61,356,36,16,13,054,35,20,42,119,36,0*65
$GPGSV,3,3,10,23,45,043,36,25,89,186,36,0*6A
$BDGSV,1,1,00,0*74

$GNRMC,001252.00,A,3130.137500,N,12117.999959,E,9.712,359.97,200720,,,A,V*0C
$GNGGA,001252.00,3130.137500,N,12117.999959,E,1,09,0.97,40.1,M,9.5,M,,*41
$GNGSA,A,3,04,01,07,08,13,20,23,25,02,,,,1.69,0.97,1.38,1*05
$GNGSA,A,3,,,,,,,,,,,,,1.69,0.97,1.38,4*0E
$GPGSV,3,1,10,01,17,119,35,02,19,313,35,04,45,275,36,
07,66,207,36,0*64
$GPGSV,3,2,10,08,26,213,35,13,61,356,36,16,13,054,35,20,42,119,36,0*65
$GPGSV,3,3,10,23,45,043,36,25,89,184,36,0*68
$BDGSV,1,1,00,0*74

<????sim??????(SIM??:1)>
<????GSM????????(GSM:4)>
<????GPRS????????(GPRS:0)>
<????????????(SIGNAL:0)>
<????????????????(BER:0)>

<??????????????>

$GNRMC,001253.00,A,3130.140211,N,12117.999966,E,9.736,0.05,200720,,,A,V*04
$GNGGA,001253.00,3130.140211,N,12117.999966,E,1,09,0.97,40.1,M,9.5,M,,*4B
$GNGSA,A,3,04,01,07,08,13,20,23,25,02,,,,1.69,0.97,1.38,1*05
$GNGSA,A,3,,,,,,,,,,,,,1.69,0.97,1.38,4*0E
$GPGSV,3,1,10,01,17,119,35,02,19,313,35,04,45,275,36,07
,66,207,36,0*64
$GPGSV,3,2,10,08,26,213,35,13,61,356,36,16,13,054,35,20,42,119,36,0*65
$GPGSV,3,3,10,23,45,043,36,25,89,184,36,0*68
$BDGSV,1,1,00,0*74

$GNRMC,001254.00,A,3130.142920,N,12117.999968,E,9.719,0.00,200720,,,A,V*0E
$GNGGA,001254.00,3130.142920,N,12117.999968,E,1,09,0.97,40.1,M,9.5,M,,*49
$GNGSA,A,3,04,01,07,08,13,20,23,25,02,,,,1.69,0.97,1.38,1*05
$GNGSA,A,3,,,,,,,,,,,,,1.69,0.97,1.38,4*0E
$GPGSV,3,1,10,01,17,119,35,02,19,313,35,04,45,275,36,07
,66,207,36,0*64
$GPGSV,3,2,10,08,26,213,35,13,61,356,36,16,13,054,35,20,42,119,36,0*65
$GPGSV,3,3,10,23,45,043,36,25,89,184,36,0*68
$BDGSV,1,1,00,0*74

$GNRMC,001255.00,A,3130.145627,N,12117.999973,E,9.723,0.02,200720,,,A,V*01
$GNGGA,001255.00,3130.145627,N,12117.999973,E,1,09,0.97,40.1,M,9.5,M,,*4D
$GNGSA,A,3,04,01,07,08,13,20,23,25,02,,,,1.69,0.97,1.38,1*05
$GNGSA,A,3,,,,,,,,,,,,,1.69,0.97,1.38,4*0E
$GPGSV,3,1,10,01,17,119,35,02,19,313,35,04,45,275,36,07
,66,207,36,0*64
$GPGSV,3,2,10,08,26,213,35,13,61,356,36,16,13,054,35,20,42,119,36,0*65
$GPGSV,3,3,10,23,45,043,36,25,89,184,36,0*68
$BDGSV,1,1,00,0*74

$GNRMC,001256.00,A,3130.148331,N,12117.999980,E,9.728,360.00,200720,,,A,V*0D
$GNGGA,001256.00,3130.148331,N,12117.999980,E,1,09,0.97,40.1,M,9.5,M,,*4D
$GNGSA,A,3,04,01,07,08,13,20,23,25,02,,,,1.69,0.97,1.38,1*05
$GNGSA,A,3,,,,,,,,,,,,,1.69,0.97,1.38,4*0E
$GPGSV,3,1,10,01,17,119,35,02,19,313,35,04,45,275,36,
07,66,207,36,0*64
$GPGSV,3,2,10,08,26,213,35,13,61,356,36,16,13,054,35,20,42,119,36,0*65
$GPGSV,3,3,10,23,45,043,36,25,89,184,36,0*68
$BDGSV,1,1,00,0*74

$GNRMC,001257.00,A,3130.151036,N,12117.999985,E,9.721,359.99,200720,,,A,V*06
$GNGGA,001257.00,3130.151036,N,12117.999985,E,1,09,0.97,40.1,M,9.5,M,,*45
$GNGSA,A,3,04,01,07,08,13,20,23,25,02,,,,1.69,0.97,1.38,1*05
$GNGSA,A,3,,,,,,,,,,,,,1.69,0.97,1.38,4*0E
$GPGSV,3,1,10,01,17,119,35,02,19,313,35,04,45,275,36,
07,66,207,36,0*64
$GPGSV,3,2,10,08,26,213,35,13,61,356,36,16,13,054,34,20,42,119,36,0*64
$GPGSV,3,3,10,23,45,043,36,25,89,184,36,0*68
$BDGSV,1,1,00,0*74

$GNRMC,001258.00,A,3130.153739,N,12117.999989,E,9.713,0.04,200720,,,A,V*05
$GNGGA,001258.00,3130.153739,N,12117.999989,E,1,09,0.97,40.1,M,9.5,M,,*4C
$GNGSA,A,3,04,01,07,08,13,20,23,25,02,,,,1.69,0.97,1.38,1*05
$GNGSA,A,3,,,,,,,,,,,,,1.69,0.97,1.38,4*0E
$GPGSV,3,1,10,01,17,119,35,02,19,313,35,04,45,275,36,07
,66,207,36,0*64
$GPGSV,3,2,10,08,26,213,35,13,61,356,36,16,13,054,35,20,42,119,36,0*65
$GPGSV,3,3,10,23,45,043,36,25,89,184,36,0*68
$BDGSV,1,1,00,0*74

$GNRMC,001259.00,A,3130.156437,N,12117.999984,E,9.717,359.94,200720,,,A,V*03
$GNGGA,001259.00,3130.156437,N,12117.999984,E,1,09,0.97,40.1,M,9.5,M,,*48
$GNGSA,A,3,04,01,07,08,13,20,23,25,02,,,,1.69,0.97,1.38,1*05
$GNGSA,A,3,,,,,,,,,,,,,1.69,0.97,1.38,4*0E
$GPGSV,3,1,10,01,17,119,35,02,19,313,35,04,45,275,36,
07,66,207,36,0*64
$GPGSV,3,2,10,08,26,213,35,13,61,356,36,16,13,054,35,20,42,119,36,0*65
$GPGSV,3,3,10,23,45,043,36,25,89,184,36,0*68
$BDGSV,1,1,00,0*74

$GNRMC,001300.00,A,3130.159136,N,12117.999986,E,9.718,0.01,200720,,,A,V*0B
$GNGGA,001300.00,3130.159136,N,12117.999986,E,1,09,0.97,40.1,M,9.5,M,,*4C
$GNGSA,A,3,04,01,07,08,13,20,23,25,02,,,,1.69,0.97,1.38,1*05
$GNGSA,A,3,,,,,,,,,,,,,1.69,0.97,1.38,4*0E
$GPGSV,3,1,10,01,16,119,35,02,19,313,35,04,45,275,36,07
,66,207,36,0*65
$GPGSV,3,2,10,08,26,213,35,13,61,356,36,16,13,054,35,20,42,119,36,0*65
$GPGSV,3,3,10,23,45,043,36,25,89,184,36,0*68
$BDGSV,1,1,00,0*74

$GNRMC,001301.00,A,3130.161833,N,12117.999990,E,9.720,0.05,200720,,,A,V*05
$GNGGA,001301.00,3130.161833,N,12117.999990,E,1,09,0.97,40.1,M,9.5,M,,*4D
$GNGSA,A,3,04,01,07,08,13,20,23,25,02,,,,1.69,0.97,1.38,1*05
$GNGSA,A,3,,,,,,,,,,,,,1.69,0.97,1.38,4*0E
$GPGSV,3,1,10,01,16,119,35,02,19,313,35,04,45,275,36,07
,66,207,36,0*65
$GPGSV,3,2,10,08,26,213,35,13,61,356,36,16,13,054,35,20,42,119,36,0*65
$GPGSV,3,3,10,23,45,043,36,25,89,184,36,0*68
$BDGSV,1,1,00,0*74

$GNRMC,001302.00,A,3130.164534,N,12117.999987,E,9.728,359.99,200720,,,A,V*0D
$GNGGA,001302.00,3130.164534,N,12117.999987,E,1,09,0.97,40.1,M,9.5,M,,*47
$GNGSA,A,3,04,01,07,08,13,20,23,25,02,,,,1.69,0.97,1.38,1*05
$GNGSA,A,3,,,,,,,,,,,,,1.69,0.97,1.38,4*0E
$GPGSV,3,1,10,01,16,119,35,02,19,313,35,04,45,275,36,
07,66,207,36,0*65
$GPGSV,3,2,10,08,26,213,35,13,61,356,36,16,13,054,35,20,42,119,36,0*65
$GPGSV,3,3,10,23,45,043,36,25,89,184,36,0*68
$BDGSV,1,1,00,0*74

<??????????????>

$GNRMC,001303.00,A,3130.167239,N,12117.999986,E,9.722,359.96,200720,,,A,V*01
$GNGGA,001303.00,3130.167239,N,12117.999986,E,1,09,0.97,40.1,M,9.5,M,,*4E
$GNGSA,A,3,04,01,07,08,13,20,23,25,02,,,,1.69,0.97,1.38,1*05
$GNGSA,A,3,,,,,,,,,,,,,1.69,0.97,1.38,4*0E
$GPGSV,3,1,10,01,16,119,35,02,19,313,35,04,45,275,36,
07,66,207,36,0*65
$GPGSV,3,2,10,08,26,213,35,13,61,356,36,16,13,054,35,20,42,119,36,0*65
$GPGSV,3,3,10,23,45,043,36,25,89,184,36,0*68
$BDGSV,1,1,00,0*74

$GNRMC,001304.00,A,3130.169944,N,12117.999991,E,9.714,0.02,200720,,,A,V*08
$GNGGA,001304.00,3130.169944,N,12117.999991,E,1,09,0.97,40.1,M,9.5,M,,*40
$GNGSA,A,3,04,01,07,08,13,20,23,25,02,,,,1.69,0.97,1.38,1*05
$GNGSA,A,3,,,,,,,,,,,,,1.69,0.97,1.38,4*0E
$GPGSV,3,1,10,01,16,119,35,02,19,313,35,04,45,275,36,07
,66,207,36,0*65
$GPGSV,3,2,10,08,26,213,35,13,61,356,36,16,13,054,35,20,42,119,36,0*65
$GPGSV,3,3,10,23,45,043,36,25,89,184,36,0*68
$BDGSV,1,1,00,0*74

$GNRMC,001305.00,A,3130.172652,N,12117.999995,E,9.727,0.04,200720,,,A,V*09
$GNGGA,001305.00,3130.172652,N,12117.999995,E,1,09,0.97,40.1,M,9.5,M,,*47
$GNGSA,A,3,04,01,07,08,13,20,23,25,02,,,,1.69,0.97,1.38,1*05
$GNGSA,A,3,,,,,,,,,,,,,1.69,0.97,1.38,4*0E
$GPGSV,3,1,10,01,16,119,35,02,19,313,35,04,45,275,36,07
,66,207,36,0*65
$GPGSV,3,2,10,08,26,213,35,13,61,356,36,16,13,054,35,20,42,119,36,0*65
$GPGSV,3,3,10,23,45,043,36,25,89,184,36,0*68
$BDGSV,1,1,00,0*74


GPS HPregnss> E1 15 00 00 00 00 07 55 B7 C3 5D 00 00 00 1C 3E 0B 1C AC 00 00 00 00 


$GNRMC,001306.00,A,3130.175358,N,12117.999996,E,9.716,359.96,200720,,,A,V*07
$GNGGA,001306.00,3130.175358,N,12117.999996,E,1,09,0.97,40.2,M,9.5,M,,*4C
$GNGSA,A,3,04,01,07,08,13,20,23,25,02,,,,1.69,0.97,1.38,1*05
$GNGSA,A,3,,,,,,,,,,,,,1.69,0.97,1.38,4*0E
$GPGSV,3,1,10,01,16,119,35,02,19,313,35,04,45,275,36,
07,67,207,36,0*64
$GPGSV,3,2,10,08,26,213,35,13,61,356,36,16,13,054,35,20,42,119,36,0*65
$GPGSV,3,3,10,23,45,043,36,25,89,184,36,0*68
$BDGSV,1,1,00,0*74

$GNRMC,001307.00,A,3130.178070,N,12118.000001,E,9.728,0.04,200720,,,A,V*0A
$GNGGA,001307.00,3130.178070,N,12118.000001,E,1,09,0.97,40.2,M,9.5,M,,*48
$GNGSA,A,3,04,01,07,08,13,20,23,25,02,,,,1.69,0.97,1.38,1*05
$GNGSA,A,3,,,,,,,,,,,,,1.69,0.97,1.38,4*0E
$GPGSV,3,1,10,01,16,119,35,02,19,313,35,04,45,275,36,07
,67,207,36,0*64
$GPGSV,3,2,10,08,26,213,35,13,61,356,36,16,13,054,35,20,42,119,36,0*65
$GPGSV,3,3,10,23,45,043,36,25,89,184,36,0*68
$BDGSV,1,1,00,0*74

$GNRMC,001308.00,A,3130.180780,N,12117.999995,E,9.720,359.99,200720,,,A,V*0B
$GNGGA,001308.00,3130.180780,N,12117.999995,E,1,09,0.97,40.2,M,9.5,M,,*4A
$GNGSA,A,3,04,01,07,08,13,20,23,25,02,,,,1.69,0.97,1.38,1*05
$GNGSA,A,3,,,,,,,,,,,,,1.69,0.97,1.38,4*0E
$GPGSV,3,1,10,01,16,119,35,02,19,313,35,04,45,275,36,
07,67,207,36,0*64
$GPGSV,3,2,10,08,26,213,35,13,61,357,36,16,13,054,35,20,42,119,36,0*64
$GPGSV,3,3,10,23,45,043,36,25,89,184,36,0*68
$BDGSV,1,1,00,0*74

$GNRMC,001309.00,A,3130.183489,N,12117.999994,E,9.716,0.03,200720,,,A,V*0B
$GNGGA,001309.00,3130.183489,N,12117.999994,E,1,09,0.97,40.2,M,9.5,M,,*43
$GNGSA,A,3,04,01,07,08,13,20,23,25,02,,,,1.69,0.97,1.38,1*05
$GNGSA,A,3,,,,,,,,,,,,,1.69,0.97,1.38,4*0E
$GPGSV,3,1,10,01,16,119,35,02,19,313,35,04,45,275,36,07
,67,207,36,0*64
$GPGSV,3,2,10,08,26,213,35,13,61,357,36,16,13,054,35,20,42,119,36,0*64
$GPGSV,3,3,10,23,45,043,36,25,89,184,36,0*68
$BDGSV,1,1,00,0*74

$GNRMC,001310.00,A,3130.186201,N,12117.999989,E,9.721,359.98,200720,,,A,V*05
$GNGGA,001310.00,3130.186201,N,12117.999989,E,1,09,0.97,40.2,M,9.5,M,,*44
$GNGSA,A,3,04,01,07,08,13,20,23,25,02,,,,1.69,0.97,1.38,1*05
$GNGSA,A,3,,,,,,,,,,,,,1.69,0.97,1.38,4*0E
$GPGSV,3,1,10,01,16,119,35,02,19,313,35,04,45,275,36,
07,67,207,36,0*64
$GPGSV,3,2,10,08,26,213,35,13,61,357,36,16,13,054,35,20,42,119,36,0*64
$GPGSV,3,3,10,23,45,043,36,25,89,184,36,0*68
$BDGSV,1,1,00,0*74

$GNRMC,001311.00,A,3130.188911,N,12117.999988,E,9.713,0.01,200720,,,A,V*0F
$GNGGA,001311.00,3130.188911,N,12117.999988,E,1,09,0.97,40.2,M,9.5,M,,*40
$GNGSA,A,3,04,01,07,08,13,20,23,25,02,,,,1.69,0.97,1.38,1*05
$GNGSA,A,3,,,,,,,,,,,,,1.69,0.97,1.38,4*0E
$GPGSV,3,1,10,01,16,119,35,02,19,313,35,04,45,275,36,07
,67,207,36,0*64
$GPGSV,3,2,10,08,26,213,35,13,61,357,36,16,13,054,35,20,42,119,36,0*64
$GPGSV,3,3,10,23,45,043,36,25,89,184,36,0*68
$BDGSV,1,1,00,0*74

$GNRMC,001312.00,A,3130.191621,N,12117.999985,E,9.723,0.00,200720,,,A,V*07
$GNGGA,001312.00,3130.191621,N,12117.999985,E,1,09,0.97,40.2,M,9.5,M,,*4A
$GNGSA,A,3,04,01,07,08,13,20,23,25,02,,,,1.69,0.97,1.38,1*05
$GNGSA,A,3,,,,,,,,,,,,,1.69,0.97,1.38,4*0E
$GPGSV,3,1,10,01,16,119,35,02,19,313,35,04,45,275,36,07
,67,207,36,0*64
$GPGSV,3,2,10,08,26,213,35,13,61,357,36,16,13,054,35,20,42,119,36,0*64
$GPGSV,3,3,10,23,45,043,36,25,89,184,36,0*68
$BDGSV,1,1,00,0*74

<????sim??????(SIM??:1)>
<????GSM????????(GSM:0)>
<????GPRS????????(GPRS:0)>
<????????????(SIGNAL:0)>
<????????????????(BER:0)>

<??????????????>

$GNRMC,001313.00,A,3130.194333,N,12117.999983,E,9.720,0.01,200720,,,A,V*01
$GNGGA,001313.00,3130.194333,N,12117.999983,E,1,09,0.97,40.2,M,9.5,M,,*4E
$GNGSA,A,3,04,01,07,08,13,20,23,25,02,,,,1.69,0.97,1.38,1*05
$GNGSA,A,3,,,,,,,,,,,,,1.69,0.97,1.38,4*0E
$GPGSV,3,1,10,01,16,119,35,02,19,313,35,04,45,275,36,07
,67,207,36,0*64
$GPGSV,3,2,10,08,26,213,35,13,61,357,36,16,13,054,35,20,42,119,36,0*64
$GPGSV,3,3,10,23,45,043,36,25,89,184,36,0*68
$BDGSV,1,1,00,0*74

$GNRMC,001314.00,A,3130.197041,N,12117.999974,E,9.726,359.96,200720,,,A,V*0C
$GNGGA,001314.00,3130.197041,N,12117.999974,E,1,09,0.97,40.2,M,9.5,M,,*44
$GNGSA,A,3,04,01,07,08,13,20,23,25,02,,,,1.69,0.97,1.38,1*05
$GNGSA,A,3,,,,,,,,,,,,,1.69,0.97,1.38,4*0E
$GPGSV,3,1,10,01,16,119,35,02,19,313,35,04,45,275,36,
07,67,207,36,0*64
$GPGSV,3,2,10,08,26,213,35,13,61,357,36,16,13,054,35,20,42,119,36,0*64
$GPGSV,3,3,10,23,45,043,36,25,89,184,36,0*68
$BDGSV,1,1,00,0*74

$GNRMC,001315.00,A,3130.199747,N,12117.999972,E,9.720,0.02,200720,,,A,V*00
$GNGGA,001315.00,3130.199747,N,12117.999972,E,1,09,0.97,40.2,M,9.5,M,,*4C
$GNGSA,A,3,04,01,07,08,13,20,23,25,02,,,,1.69,0.97,1.38,1*05
$GNGSA,A,3,,,,,,,,,,,,,1.69,0.97,1.38,4*0E
$GPGSV,3,1,10,01,16,119,35,02,19,313,35,04,45,275,36,07
,67,207,36,0*64
$GPGSV,3,2,10,08,26,213,35,13,61,357,36,16,13,054,35,20,42,119,36,0*64
$GPGSV,3,3,10,23,45,043,36,25,89,184,36,0*68
$BDGSV,1,1,00,0*74

$GNRMC,001316.00,A,3130.202451,N,12117.999973,E,9.724,0.04,200720,,,A,V*05
$GNGGA,001316.00,3130.202451,N,12117.999973,E,1,09,0.97,40.2,M,9.5,M,,*4B
$GNGSA,A,3,04,01,07,08,13,20,23,25,02,,,,1.69,0.97,1.38,1*05
$GNGSA,A,3,,,,,,,,,,,,,1.69,0.97,1.38,4*0E
$GPGSV,3,1,10,01,16,119,35,02,19,313,35,04,45,275,36,07
,67,207,36,0*64
$GPGSV,3,2,10,08,26,213,35,13,61,357,36,16,13,054,35,20,42,119,36,0*64
$GPGSV,3,3,10,23,45,044,36,25,89,184,36,0*6F
$BDGSV,1,1,00,0*74

$GNRMC,001317.00,A,3130.205159,N,12117.999976,E,9.722,0.02,200720,,,A,V*0B
$GNGGA,001317.00,3130.205159,N,12117.999976,E,1,09,0.97,40.2,M,9.5,M,,*45
$GNGSA,A,3,04,01,07,08,13,20,23,25,02,,,,1.69,0.97,1.38,1*05
$GNGSA,A,3,,,,,,,,,,,,,1.69,0.97,1.38,4*0E
$GPGSV,3,1,10,01,16,119,35,02,19,313,35,04,45,275,36,07
,67,207,36,0*64
$GPGSV,3,2,10,08,26,213,35,13,61,357,36,16,13,054,35,20,42,119,36,0*64
$GPGSV,3,3,10,23,45,044,36,25,89,184,36,0*6F
$BDGSV,1,1,00,0*74

$GNRMC,001318.00,A,3130.207866,N,12117.999976,E,9.724,359.99,200720,,,A,V*08
$GNGGA,001318.00,3130.207866,N,12117.999976,E,1,09,0.97,40.3,M,9.5,M,,*4C
$GNGSA,A,3,04,01,07,08,13,20,23,25,02,,,,1.69,0.97,1.38,1*05
$GNGSA,A,3,,,,,,,,,,,,,1.69,0.97,1.38,4*0E
$GPGSV,3,1,10,01,16,119,35,02,19,313,35,04,45,275,36,
07,67,207,36,0*64
$GPGSV,3,2,10,08,26,213,35,13,61,357,36,16,13,054,35,20,42,119,36,0*64
$GPGSV,3,3,10,23,45,044,36,25,89,180,36,0*6B
$BDGSV,1,1,00,0*74

$GNRMC,001319.00,A,3130.210570,N,12117.999972,E,9.716,359.94,200720,,,A,V*0D
$GNGGA,001319.00,3130.210570,N,12117.999972,E,1,09,0.97,40.3,M,9.5,M,,*45
$GNGSA,A,3,04,01,07,08,13,20,23,25,02,,,,1.69,0.97,1.38,1*05
$GNGSA,A,3,,,,,,,,,,,,,1.69,0.97,1.38,4*0E
$GPGSV,3,1,10,01,16,119,35,02,19,313,35,04,45,275,36,
07,67,207,36,0*64
$GPGSV,3,2,10,08,26,213,35,13,61,357,36,16,13,054,35,20,42,119,36,0*64
$GPGSV,3,3,10,23,45,044,36,25,89,180,36,0*6B
$BDGSV,1,1,00,0*74

$GNRMC,001320.00,A,3130.213276,N,12117.999977,E,9.723,0.04,200720,,,A,V*00
$GNGGA,001320.00,3130.213276,N,12117.999977,E,1,09,0.97,40.3,M,9.5,M,,*48
$GNGSA,A,3,04,01,07,08,13,20,23,25,02,,,,1.69,0.97,1.38,1*05
$GNGSA,A,3,,,,,,,,,,,,,1.69,0.97,1.38,4*0E
$GPGSV,3,1,10,01,16,119,35,02,19,313,35,04,45,275,36,07
,67,207,36,0*64
$GPGSV,3,2,10,08,26,213,35,13,61,357,36,16,13,054,35,20,42,119,36,0*64
$GPGSV,3,3,10,23,45,044,36,25,89,180,36,0*6B
$BDGSV,1,1,00,0*74

$GNRMC,001321.00,A,3130.215979,N,12117.999978,E,9.709,0.01,200720,,,A,V*01
$GNGGA,001321.00,3130.215979,N,12117.999978,E,1,09,0.97,40.3,M,9.5,M,,*44
$GNGSA,A,3,04,01,07,08,13,20,23,25,02,,,,1.69,0.97,1.38,1*05
$GNGSA,A,3,,,,,,,,,,,,,1.69,0.97,1.38,4*0E
$GPGSV,3,1,10,01,16,119,35,02,19,313,35,04,45,275,36,07
,67,207,36,0*64
$GPGSV,3,2,10,08,26,213,35,13,61,357,36,16,13,054,35,20,42,119,36,0*64
$GPGSV,3,3,10,23,45,044,36,25,89,180,36,0*6B
$BDGSV,1,1,00,0*74

$GNRMC,001322.00,A,3130.218687,N,12117.999976,E,9.726,0.02,200720,,,A,V*01
$GNGGA,001322.00,3130.218687,N,12117.999976,E,1,09,0.97,40.3,M,9.5,M,,*4A
$GNGSA,A,3,04,01,07,08,13,20,23,25,02,,,,1.69,0.97,1.38,1*05
$GNGSA,A,3,,,,,,,,,,,,,1.69,0.97,1.38,4*0E
$GPGSV,3,1,10,01,16,119,35,02,19,313,35,04,45,275,36,07
,67,207,36,0*64
$GPGSV,3,2,10,08,26,213,35,13,61,357,36,16,13,054,35,20,42,119,36,0*64
$GPGSV,3,3,10,23,45,044,36,25,89,180,36,0*6B
$BDGSV,1,1,00,0*74

<??????????????>

$GNRMC,001323.00,A,3130.221392,N,12117.999970,E,9.721,359.98,200720,,,A,V*06
$GNGGA,001323.00,3130.221392,N,12117.999970,E,1,09,0.97,40.3,M,9.5,M,,*46
$GNGSA,A,3,04,01,07,08,13,20,23,25,02,,,,1.69,0.97,1.38,1*05
$GNGSA,A,3,,,,,,,,,,,,,1.69,0.97,1.38,4*0E
$GPGSV,3,1,10,01,16,119,35,02,19,313,35,04,45,275,36,
07,67,207,36,0*64
$GPGSV,3,2,10,08,26,213,35,13,61,357,36,16,13,054,35,20,42,119,36,0*64
$GPGSV,3,3,10,23,45,044,36,25,89,180,36,0*6B
$BDGSV,1,1,00,0*74

$GNRMC,001324.00,A,3130.224096,N,12117.999964,E,9.723,0.00,200720,,,A,V*0A
$GNGGA,001324.00,3130.224096,N,12117.999964,E,1,09,0.97,40.3,M,9.5,M,,*46
$GNGSA,A,3,04,01,07,08,13,20,23,25,02,,,,1.69,0.97,1.38,1*05
$GNGSA,A,3,,,,,,,,,,,,,1.69,0.97,1.38,4*0E
$GPGSV,3,1,10,01,16,119,35,02,19,313,35,04,45,275,36,07
,67,207,36,0*64
$GPGSV,3,2,10,08,26,213,35,13,61,357,36,16,13,054,34,20,42,119,36,0*65
$GPGSV,3,3,10,23,45,044,36,25,89,180,36,0*6B
$BDGSV,1,1,00,0*74

$GNRMC,001325.00,A,3130.226803,N,12117.999961,E,9.728,0.01,200720,,,A,V*02
$GNGGA,001325.00,3130.226803,N,12117.999961,E,1,09,0.97,40.3,M,9.5,M,,*44
$GNGSA,A,3,04,01,07,08,13,20,23,25,02,,,,1.69,0.97,1.38,1*05
$GNGSA,A,3,,,,,,,,,,,,,1.69,0.97,1.38,4*0E
$GPGSV,3,1,10,01,16,119,35,02,19,313,35,04,45,275,36,07
,67,207,36,0*64
$GPGSV,3,2,10,08,26,213,35,13,61,357,36,16,13,054,35,20,42,119,36,0*64
$GPGSV,3,3,10,23,45,044,36,25,89,180,36,0*6B
$BDGSV,1,1,00,0*74

$GNRMC,001326.00,A,3130.229510,N,12117.999960,E,9.718,0.02,200720,,,A,V*00
$GNGGA,001326.00,3130.229510,N,12117.999960,E,1,09,0.97,40.3,M,9.5,M,,*46
$GNGSA,A,3,04,01,07,08,13,20,23,25,02,,,,1.69,0.97,1.38,1*05
$GNGSA,A,3,,,,,,,,,,,,,1.69,0.97,1.38,4*0E
$GPGSV,3,1,10,01,16,119,35,02,19,313,35,04,45,275,36,07
,67,207,36,0*64
$GPGSV,3,2,10,08,26,213,35,13,61,357,36,16,13,054,35,20,42,119,36,0*64
$GPGSV,3,3,10,23,45,044,36,25,89,180,36,0*6B
$BDGSV,1,1,00,0*74

$GNRMC,001327.00,A,3130.232218,N,12117.999956,E,9.725,359.99,200720,,,A,V*02
$GNGGA,001327.00,3130.232218,N,12117.999956,E,1,09,0.97,40.3,M,9.5,M,,*47
$GNGSA,A,3,04,01,07,08,13,20,23,25,02,,,,1.69,0.97,1.38,1*05
$GNGSA,A,3,,,,,,,,,,,,,1.69,0.97,1.38,4*0E
$GPGSV,3,1,10,01,16,119,35,02,19,313,35,04,45,275,36,
07,67,207,36,0*64
$GPGSV,3,2,10,08,26,213,35,13,61,357,36,16,13,054,35,20,42,119,36,0*64
$GPGSV,3,3,10,23,45,044,36,25,89,180,36,0*6B
$BDGSV,1,1,00,0*74

$GNRMC,001328.00,A,3130.234928,N,12117.999952,E,9.727,360.00,200720,,,A,V*0F
$GNGGA,001328.00,3130.234928,N,12117.999952,E,1,09,0.97,40.3,M,9.5,M,,*42
$GNGSA,A,3,04,01,07,08,13,20,23,25,02,,,,1.69,0.97,1.38,1*05
$GNGSA,A,3,,,,,,,,,,,,,1.69,0.97,1.38,4*0E
$GPGSV,3,1,10,01,16,119,35,02,19,312,35,04,45,275,36,
07,67,207,36,0*65
$GPGSV,3,2,10,08,26,213,35,13,61,357,36,16,13,054,35,20,42,119,36,0*64
$GPGSV,3,3,10,23,45,044,36,25,89,180,36,0*6B
$BDGSV,1,1,00,0*74

$GNRMC,001329.00,A,3130.237634,N,12117.999945,E,9.715,359.99,200720,,,A,V*02
$GNGGA,001329.00,3130.237634,N,12117.999945,E,1,09,0.97,40.3,M,9.5,M,,*44
$GNGSA,A,3,04,01,07,08,13,20,23,25,02,,,,1.69,0.97,1.38,1*05
$GNGSA,A,3,,,,,,,,,,,,,1.69,0.97,1.38,4*0E
$GPGSV,3,1,10,01,16,119,35,02,19,312,35,04,45,275,36,
07,67,207,36,0*65
$GPGSV,3,2,10,08,26,213,35,13,61,357,36,16,13,054,35,20,42,119,36,0*64
$GPGSV,3,3,10,23,45,044,36,25,89,180,36,0*6B
$BDGSV,1,1,00,0*74

$GNRMC,001330.00,A,3130.240342,N,12117.999939,E,9.716,0.00,200720,,,A,V*09
$GNGGA,001330.00,3130.240342,N,12117.999939,E,1,09,0.97,40.3,M,9.5,M,,*43
$GNGSA,A,3,04,01,07,08,13,20,23,25,02,,,,1.69,0.97,1.38,1*05
$GNGSA,A,3,,,,,,,,,,,,,1.69,0.97,1.38,4*0E
$GPGSV,3,1,10,01,16,119,35,02,19,312,35,04,45,275,36,07
,67,207,36,0*65
$GPGSV,3,2,10,08,26,213,35,13,61,357,36,16,13,054,35,20,42,119,36,0*64
$GPGSV,3,3,10,23,45,044,36,25,89,180,36,0*6B
$BDGSV,1,1,00,0*74

$GNRMC,001331.00,A,3130.243048,N,12117.999931,E,9.718,360.00,200720,,,A,V*01
$GNGGA,001331.00,3130.243048,N,12117.999931,E,1,09,0.97,40.3,M,9.5,M,,*40
$GNGSA,A,3,04,01,07,08,13,20,23,25,02,,,,1.69,0.97,1.38,1*05
$GNGSA,A,3,,,,,,,,,,,,,1.69,0.97,1.38,4*0E
$GPGSV,3,1,10,01,16,119,35,02,19,312,35,04,45,275,36,
07,67,207,36,0*65
$GPGSV,3,2,10,08,26,213,35,13,61,357,36,16,13,054,35,20,42,119,36,0*64
$GPGSV,3,3,10,23,45,044,36,25,89,180,36,0*6B
$BDGSV,1,1,00,0*74

$GNRMC,001332.00,A,3130.245759,N,12117.999925,E,9.721,360.00,200720,,,A,V*0C
$GNGGA,001332.00,3130.245759,N,12117.999925,E,1,09,0.97,40.3,M,9.5,M,,*47
$GNGSA,A,3,04,01,07,08,13,20,23,25,02,,,,1.69,0.97,1.38,1*05
$GNGSA,A,3,,,,,,,,,,,,,1.69,0.97,1.38,4*0E
$GPGSV,3,1,10,01,16,119,35,02,19,312,35,04,45,275,36,
07,67,207,36,0*65
$GPGSV,3,2,10,08,26,213,35,13,61,357,36,16,13,054,35,20,42,119,36,0*64
$GPGSV,3,3,10,23,45,044,36,25,89,180,36,0*6B
$BDGSV,1,1,00,0*74

<????sim??????(SIM??:1)>
<????GSM????????(GSM:0)>
<????GPRS????????(GPRS:0)>
<????????????(SIGNAL:0)>
<????????????????(BER:0)>

<??????????????>

$GNRMC,001333.00,A,3130.248474,N,12117.999919,E,9.710,359.97,200720,,,A,V*05
$GNGGA,001333.00,3130.248474,N,12117.999919,E,1,09,0.97,40.3,M,9.5,M,,*48
$GNGSA,A,3,04,01,07,08,13,20,23,25,02,,,,1.69,0.97,1.38,1*05
$GNGSA,A,3,,,,,,,,,,,,,1.69,0.97,1.38,4*0E
$GPGSV,3,1,10,01,16,119,35,02,19,312,35,04,45,275,36,
07,67,207,36,0*65
$GPGSV,3,2,10,08,26,213,35,13,61,357,36,16,13,054,35,20,42,119,36,0*64
$GPGSV,3,3,10,23,45,044,36,25,89,180,36,0*6B
$BDGSV,1,1,00,0*74

$GNRMC,001334.00,A,3130.251186,N,12117.999916,E,9.714,0.03,200720,,,A,V*0B
$GNGGA,001334.00,3130.251186,N,12117.999916,E,1,09,0.97,40.3,M,9.5,M,,*40
$GNGSA,A,3,04,01,07,08,13,20,23,25,02,,,,1.69,0.97,1.38,1*05
$GNGSA,A,3,,,,,,,,,,,,,1.69,0.97,1.38,4*0E
$GPGSV,3,1,10,01,16,119,35,02,19,312,35,04,45,275,36,07
,67,207,36,0*65
$GPGSV,3,2,10,08,26,213,35,13,61,357,36,16,13,054,35,20,42,119,36,0*64
$GPGSV,3,3,10,23,45,044,36,25,89,180,36,0*6B
$BDGSV,1,1,00,0*74

$GNRMC,001335.00,A,3130.253891,N,12117.999909,E,9.710,360.00,200720,,,A,V*0B
$GNGGA,001335.00,3130.253891,N,12117.999909,E,1,09,0.97,40.3,M,9.5,M,,*42
$GNGSA,A,3,04,01,07,08,13,20,23,25,02,,,,1.69,0.97,1.38,1*05
$GNGSA,A,3,,,,,,,,,,,,,1.69,0.97,1.38,4*0E
$GPGSV,3,1,10,01,16,119,35,02,19,312,35,04,45,275,36,
07,67,207,36,0*65
$GPGSV,3,2,10,08,26,213,35,13,61,357,36,16,13,054,35,20,42,119,36,0*64
$GPGSV,3,3,10,23,45,044,36,25,89,180,36,0*6B
$BDGSV,1,1,00,0*74


GPS HPregnss> E1 15 00 00 00 00 07 55 CC 6C 5C 00 00 00 1C 3E 0B 17 13 00 00 00 00 


$GNRMC,001336.00,A,3130.256601,N,12117.999903,E,9.731,360.00,200720,,,A,V*03
$GNGGA,001336.00,3130.256601,N,12117.999903,E,1,09,0.97,40.3,M,9.5,M,,*49
$GNGSA,A,3,04,01,07,08,13,20,23,25,02,,,,1.69,0.97,1.38,1*05
$GNGSA,A,3,,,,,,,,,,,,,1.69,0.97,1.38,4*0E
$GPGSV,3,1,10,01,16,119,35,02,19,312,35,04,45,275,36,
07,67,207,36,0*65
$GPGSV,3,2,10,08,26,213,35,13,61,357,36,16,13,054,35,20,42,119,36,0*64
$GPGSV,3,3,10,23,45,044,36,25,89,180,36,0*6B
$BDGSV,1,1,00,0*74

$GNRMC,001337.00,A,3130.259308,N,12117.999901,E,9.720,360.00,200720,,,A,V*03
$GNGGA,001337.00,3130.259308,N,12117.999901,E,1,09,0.97,40.4,M,9.5,M,,*4E
$GNGSA,A,3,04,01,07,08,13,20,23,25,02,,,,1.69,0.97,1.38,1*05
$GNGSA,A,3,,,,,,,,,,,,,1.69,0.97,1.38,4*0E
$GPGSV,3,1,10,01,16,119,35,02,19,312,35,04,45,275,36,
07,67,207,36,0*65
$GPGSV,3,2,10,08,26,213,35,13,61,357,36,16,13,054,35,20,42,119,36,0*64
$GPGSV,3,3,10,23,45,044,36,25,89,180,36,0*6B
$BDGSV,1,1,00,0*74

$GNRMC,001338.00,A,3130.262022,N,12117.999903,E,9.733,0.05,200720,,,A,V*0F
$GNGGA,001338.00,3130.262022,N,12117.999903,E,1,09,0.97,40.4,M,9.5,M,,*40
$GNGSA,A,3,04,01,07,08,13,20,23,25,02,,,,1.69,0.97,1.39,1*04
$GNGSA,A,3,,,,,,,,,,,,,1.69,0.97,1.39,4*0F
$GPGSV,3,1,10,01,16,119,35,02,19,312,35,04,45,275,36,07
,67,207,36,0*65
$GPGSV,3,2,10,08,26,213,35,13,61,357,36,16,13,054,35,20,42,119,36,0*64
$GPGSV,3,3,10,23,45,044,36,25,89,180,36,0*6B
$BDGSV,1,1,00,0*74

$GNRMC,001339.00,A,3130.264727,N,12117.999904,E,9.719,0.01,200720,,,A,V*01
$GNGGA,001339.00,3130.264727,N,12117.999904,E,1,09,0.97,40.4,M,9.5,M,,*42
$GNGSA,A,3,04,01,07,08,13,20,23,25,02,,,,1.69,0.97,1.39,1*04
$GNGSA,A,3,,,,,,,,,,,,,1.69,0.97,1.39,4*0F
$GPGSV,3,1,10,01,16,119,35,02,19,312,35,04,45,275,36,07
,67,207,36,0*65
$GPGSV,3,2,10,08,26,213,35,13,61,357,36,16,13,054,35,20,42,119,36,0*64
$GPGSV,3,3,10,23,45,044,36,25,89,180,36,0*6B
$BDGSV,1,1,00,0*74

$GNRMC,001340.00,A,3130.267433,N,12117.999903,E,9.723,359.97,200720,,,A,V*04
$GNGGA,001340.00,3130.267433,N,12117.999903,E,1,09,0.97,40.4,M,9.5,M,,*4E
$GNGSA,A,3,04,01,07,08,13,20,23,25,02,,,,1.69,0.97,1.39,1*04
$GNGSA,A,3,,,,,,,,,,,,,1.69,0.97,1.39,4*0F
$GPGSV,3,1,10,01,16,119,35,02,19,312,35,04,45,275,36,
07,67,207,36,0*65
$GPGSV,3,2,10,08,26,213,35,13,61,357,36,16,13,054,35,20,42,119,36,0*64
$GPGSV,3,3,10,23,45,044,36,25,89,180,36,0*6B
$BDGSV,1,1,00,0*74

$GNRMC,001341.00,A,3130.270140,N,12117.999904,E,9.725,0.02,200720,,,A,V*00
$GNGGA,001341.00,3130.270140,N,12117.999904,E,1,09,0.97,40.4,M,9.5,M,,*4F
$GNGSA,A,3,04,01,07,08,13,20,23,25,02,,,,1.69,0.97,1.39,1*04
$GNGSA,A,3,,,,,,,,,,,,,1.69,0.97,1.39,4*0F
$GPGSV,3,1,10,01,16,119,35,02,19,312,35,04,45,275,35,07
,67,207,36,0*66
$GPGSV,3,2,10,08,26,213,35,13,61,357,36,16,13,054,35,20,42,119,36,0*64
$GPGSV,3,3,10,23,45,044,36,25,89,180,36,0*6B
$BDGSV,1,1,00,0*74

$GNRMC,001342.00,A,3130.272845,N,12117.999905,E,9.717,359.98,200720,,,A,V*01
$GNGGA,001342.00,3130.272845,N,12117.999905,E,1,09,0.97,40.4,M,9.5,M,,*43
$GNGSA,A,3,04,01,07,08,13,20,23,25,02,,,,1.69,0.97,1.39,1*04
$GNGSA,A,3,,,,,,,,,,,,,1.69,0.97,1.39,4*0F
$GPGSV,3,1,10,01,16,119,35,02,19,312,35,04,45,275,36,
07,67,207,36,0*65
$GPGSV,3,2,10,08,26,213,35,13,61,357,36,16,13,054,35,20,42,119,36,0*64
$GPGSV,3,3,10,23,45,044,36,25,89,180,36,0*6B
$BDGSV,1,1,00,0*74

<??????????????>

$GNRMC,001343.00,A,3130.275552,N,12117.999908,E,9.731,0.01,200720,,,A,V*0A
$GNGGA,001343.00,3130.275552,N,12117.999908,E,1,09,0.97,40.4,M,9.5,M,,*43
$GNGSA,A,3,04,01,07,08,13,20,23,25,02,,,,1.69,0.97,1.39,1*04
$GNGSA,A,3,,,,,,,,,,,,,1.69,0.97,1.39,4*0F
$GPGSV,3,1,10,01,16,119,35,02,19,312,35,04,45,275,36,07
,67,207,36,0*65
$GPGSV,3,2,10,08,26,213,35,13,61,357,36,16,13,054,35,20,42,119,36,0*64
$GPGSV,3,3,10,23,45,044,36,25,89,180,36,0*6B
$BDGSV,1,1,00,0*74

$GNRMC,001344.00,A,3130.278256,N,12117.999911,E,9.720,0.03,200720,,,A,V*09
$GNGGA,001344.00,3130.278256,N,12117.999911,E,1,09,0.97,40.4,M,9.5,M,,*42
$GNGSA,A,3,04,01,07,08,13,20,23,25,02,,,,1.69,0.97,1.39,1*04
$GNGSA,A,3,,,,,,,,,,,,,1.69,0.97,1.39,4*0F
$GPGSV,3,1,10,01,16,119,35,02,19,312,35,04,45,275,36,07
,67,207,36,0*65
$GPGSV,3,2,10,08,26,213,35,13,61,357,36,16,13,054,35,20,42,119,36,0*64
$GPGSV,3,3,10,23,45,044,36,25,89,180,36,0*6B
$BDGSV,1,1,00,0*74

$GNRMC,001345.00,A,3130.280966,N,12117.999914,E,9.740,0.00,200720,,,A,V*07
$GNGGA,001345.00,3130.280966,N,12117.999914,E,1,09,0.97,40.5,M,9.5,M,,*48
$GNGSA,A,3,04,01,07,08,13,20,23,25,02,,,,1.69,0.97,1.39,1*04
$GNGSA,A,3,,,,,,,,,,,,,1.69,0.97,1.39,4*0F
$GPGSV,3,1,10,01,16,119,35,02,19,312,35,04,45,275,36,07
,67,207,36,0*65
$GPGSV,3,2,10,08,26,213,35,13,61,357,36,16,13,054,35,20,42,119,36,0*64
$GPGSV,3,3,10,23,45,044,36,25,89,172,36,0*66
$BDGSV,1,1,00,0*74

$GNRMC,001346.00,A,3130.283672,N,12117.999915,E,9.718,359.99,200720,,,A,V*0E
$GNGGA,001346.00,3130.283672,N,12117.999915,E,1,09,0.97,40.5,M,9.5,M,,*43
$GNGSA,A,3,04,01,07,08,13,20,23,25,02,,,,1.69,0.97,1.39,1*04
$GNGSA,A,3,,,,,,,,,,,,,1.69,0.97,1.39,4*0F
$GPGSV,3,1,10,01,16,119,35,02,19,312,35,04,45,275,36,
07,67,207,36,0*65
$GPGSV,3,2,10,08,26,213,35,13,61,357,36,16,13,054,35,20,42,119,36,0*64
$GPGSV,3,3,10,23,45,044,36,25,89,172,36,0*66
$BDGSV,1,1,00,0*74

$GNRMC,001347.00,A,3130.286381,N,12117.999918,E,9.724,0.01,200720,,,A,V*0F
$GNGGA,001347.00,3130.286381,N,12117.999918,E,1,09,0.97,40.5,M,9.5,M,,*43
$GNGSA,A,3,04,01,07,08,13,20,23,25,02,,,,1.69,0.97,1.39,1*04
$GNGSA,A,3,,,,,,,,,,,,,1.69,0.97,1.39,4*0F
$GPGSV,3,1,11,01,16,119,35,02,19,312,35,04,45,275,36,07
,67,207,36,0*64
$GPGSV,3,2,11,08,26,213,35,13,61,357,36,16,13,054,35,20,42,119,36,0*65
$GPGSV,3,3,11,23,45,044,36,25,89,172,36,27,00,221,,0*53
$BDGSV,1,1,00,0*74

$GNRMC,001348.00,A,3130.289090,N,12117.999922,E,9.722,0.00,200720,,,A,V*02
$GNGGA,001348.00,3130.289090,N,12117.999922,E,1,09,0.97,40.5,M,9.5,M,,*49
$GNGSA,A,3,04,01,07,08,13,20,23,25,02,,,,1.69,0.97,1.39,1*04
$GNGSA,A,3,,,,,,,,,,,,,1.69,0.97,1.39,4*0F
$GPGSV,3,1,11,01,16,119,35,02,19,312,35,04,45,275,36,07
,67,207,36,0*64
$GPGSV,3,2,11,08,26,213,35,13,61,357,36,16,13,054,35,20,42,119,36,0*65
$GPGSV,3,3,11,23,45,044,36,25,89,172,36,27,00,221,,0*53
$BDGSV,1,1,00,0*74

$GNRMC,001349.00,A,3130.291801,N,12117.999929,E,9.725,0.01,200720,,,A,V*07
$GNGGA,001349.00,3130.291801,N,12117.999929,E,1,09,0.97,40.6,M,9.5,M,,*49
$GNGSA,A,3,04,01,07,08,13,20,23,25,02,,,,1.69,0.97,1.39,1*04
$GNGSA,A,3,,,,,,,,,,,,,1.69,0.97,1.39,4*0F
$GPGSV,3,1,11,01,16,119,35,02,19,312,35,04,45,275,36,07
,67,207,36,0*64
$GPGSV,3,2,11,08,26,213,35,13,61,357,36,16,13,054,35,20,42,119,36,0*65
$GPGSV,3,3,11,23,45,044,36,25,89,172,36,27,00,221,,0*53
$BDGSV,1,1,00,0*74

$GNRMC,001350.00,A,3130.294511,N,12117.999937,E,9.724,0.01,200720,,,A,V*08
$GNGGA,001350.00,3130.294511,N,12117.999937,E,1,09,0.97,40.6,M,9.5,M,,*47
$GNGSA,A,3,04,01,07,08,13,20,23,25,02,,,,1.69,0.97,1.39,1*04
$GNGSA,A,3,,,,,,,,,,,,,1.69,0.97,1.39,4*0F
$GPGSV,3,1,11,01,16,119,35,02,19,312,35,04,45,275,36,07
,67,207,36,0*64
$GPGSV,3,2,11,08,26,213,35,13,61,357,36,16,13,054,35,20,42,119,36,0*65
$GPGSV,3,3,11,23,45,044,36,25,89,172,36,27,00,221,,0*53
$BDGSV,1,1,00,0*74

$GNRMC,001351.00,A,3130.297219,N,12117.999944,E,9.723,0.00,200720,,,A,V*07
$GNGGA,001351.00,3130.297219,N,12117.999944,E,1,09,0.97,40.6,M,9.5,M,,*4E
$GNGSA,A,3,04,01,07,08,13,20,23,25,02,,,,1.69,0.97,1.39,1*04
$GNGSA,A,3,,,,,,,,,,,,,1.69,0.97,1.39,4*0F
$GPGSV,3,1,11,01,16,119,35,02,19,312,35,04,45,275,36,07
,67,207,36,0*64
$GPGSV,3,2,11,08,26,213,35,13,61,357,36,16,13,054,35,20,42,119,36,0*65
$GPGSV,3,3,11,23,45,044,36,25,89,172,37,27,00,221,,0*52
$BDGSV,1,1,00,0*74

$GNRMC,001352.00,A,3130.299926,N,12117.999950,E,9.714,0.02,200720,,,A,V*0E
$GNGGA,001352.00,3130.299926,N,12117.999950,E,1,09,0.97,40.6,M,9.5,M,,*41
$GNGSA,A,3,04,01,07,08,13,20,23,25,02,,,,1.69,0.97,1.39,1*04
$GNGSA,A,3,,,,,,,,,,,,,1.69,0.97,1.39,4*0F
$GPGSV,3,1,11,01,16,119,35,02,19,312,35,04,45,275,36,07
,67,207,36,0*64
$GPGSV,3,2,11,08,26,213,35,13,61,357,36,16,13,054,35,20,42,119,36,0*65
$GPGSV,3,3,11,23,45,044,36,25,89,172,37,27,00,221,,0*52
$BDGSV,1,1,00,0*74

$GNRMC,001353.00,A,3130.302631,N,12117.999958,E,9.695,359.99,200720,,,A,V*08
$GNGGA,001353.00,3130.302631,N,12117.999958,E,1,09,0.97,40.6,M,9.5,M,,*42
$GNGSA,A,3,04,01,07,08,13,20,23,25,02,,,,1.69,0.97,1.39,1*04
$GNGSA,A,3,,,,,,,,,,,,,1.69,0.97,1.39,4*0F
$GPGSV,3,1,11,01,16,119,35,02,19,312,35,04,45,275,36,
07,67,207,36,0*64
$GPGSV,3,2,11,08,26,213,35,13,61,357,36,16,13,054,35,20,42,119,36,0*65
$GPGSV,3,3,11,23,45,044,36,25,89,172,36,27,00,221,,0*53
$BDGSV,1,1,00,0*74
<????sim??????(SIM??:1)>
<????GSM????????(GSM:0)>
<????GPRS????????(GPRS:0)>
<????????????(SIGNAL:0)>
<????????????????(BER:0)>

<??????????????>

$GNRMC,001354.00,A,3130.305345,N,12117.999972,E,9.712,0.05,200720,,,A,V*02
$GNGGA,001354.00,3130.305345,N,12117.999972,E,1,09,0.97,40.6,M,9.5,M,,*4C
$GNGSA,A,3,04,01,07,08,13,20,23,25,02,,,,1.69,0.97,1.39,1*04
$GNGSA,A,3,,,,,,,,,,,,,1.69,0.97,1.39,4*0F
$GPGSV,3,1,11,01,16,119,35,02,19,312,35,04,45,275,36,07
,67,207,36,0*64
$GPGSV,3,2,11,08,26,213,35,13,61,357,36,16,13,054,35,20,42,119,36,0*65
$GPGSV,3,3,11,23,45,044,36,25,89,172,36,27,00,221,,0*53
$BDGSV,1,1,00,0*74

$GNRMC,001355.00,A,3130.308059,N,12117.999979,E,9.714,359.95,200720,,,A,V*0B
$GNGGA,001355.00,3130.308059,N,12117.999979,E,1,09,0.97,40.6,M,9.5,M,,*45
$GNGSA,A,3,04,01,07,08,13,20,23,25,02,,,,1.69,0.97,1.39,1*04
$GNGSA,A,3,,,,,,,,,,,,,1.69,0.97,1.39,4*0F
$GPGSV,3,1,11,01,16,119,35,02,19,312,35,04,45,275,36,
07,67,207,36,0*64
$GPGSV,3,2,11,08,26,213,35,13,61,357,36,16,13,054,35,20,42,119,36,0*65
$GPGSV,3,3,11,23,45,044,36,25,89,172,36,27,00,221,,0*53
$BDGSV,1,1,00,0*74

$GNRMC,001356.00,A,3130.310771,N,12117.999991,E,9.726,0.04,200720,,,A,V*0C
$GNGGA,001356.00,3130.310771,N,12117.999991,E,1,09,0.97,40.6,M,9.5,M,,*44
$GNGSA,A,3,04,01,07,08,13,20,23,25,02,,,,1.69,0.97,1.39,1*04
$GNGSA,A,3,,,,,,,,,,,,,1.69,0.97,1.39,4*0F
$GPGSV,3,1,11,01,16,119,35,02,19,312,35,04,45,275,36,07
,67,207,36,0*64
$GPGSV,3,2,11,08,26,213,35,13,61,357,36,16,13,054,35,20,42,119,36,0*65
$GPGSV,3,3,11,23,45,044,36,25,89,172,36,27,00,221,,0*53
$BDGSV,1,1,00,0*74

$GNRMC,001357.00,A,3130.313480,N,12118.000000,E,9.727,0.03,200720,,,A,V*02
$GNGGA,001357.00,3130.313480,N,12118.000000,E,1,09,0.97,40.6,M,9.5,M,,*4C
$GNGSA,A,3,04,01,07,08,13,20,23,25,02,,,,1.69,0.97,1.39,1*04
$GNGSA,A,3,,,,,,,,,,,,,1.69,0.97,1.39,4*0F
$GPGSV,3,1,11,01,16,119,35,02,19,312,35,04,45,275,36,07
,67,207,36,0*64
$GPGSV,3,2,11,08,26,213,35,13,61,357,36,16,13,054,35,20,42,119,36,0*65
$GPGSV,3,3,11,23,45,044,36,25,89,172,36,27,00,221,,0*53
$BDGSV,1,1,00,0*74

$GNRMC,001358.00,A,3130.316184,N,12118.000004,E,9.719,359.98,200720,,,A,V*0D
$GNGGA,001358.00,3130.316184,N,12118.000004,E,1,09,0.97,40.6,M,9.5,M,,*43
$GNGSA,A,3,04,01,07,08,13,20,23,25,02,,,,1.69,0.97,1.39,1*04
$GNGSA,A,3,,,,,,,,,,,,,1.69,0.97,1.39,4*0F
$GPGSV,3,1,11,01,16,119,35,02,19,312,35,04,45,275,36,
07,67,207,36,0*64
$GPGSV,3,2,11,08,26,213,35,13,61,357,36,16,13,054,35,20,42,119,36,0*65
$GPGSV,3,3,11,23,45,044,36,25,89,172,36,27,00,221,,0*53
$BDGSV,1,1,00,0*74

$GNRMC,001359.00,A,3130.318895,N,12118.000012,E,9.738,0.01,200720,,,A,V*00
$GNGGA,001359.00,3130.318895,N,12118.000012,E,1,09,0.97,40.6,M,9.5,M,,*42
$GNGSA,A,3,04,01,07,08,13,20,23,25,02,,,,1.69,0.97,1.39,1*04
$GNGSA,A,3,,,,,,,,,,,,,1.69,0.97,1.39,4*0F
$GPGSV,3,1,11,01,16,119,35,02,19,312,35,04,45,275,36,07
,67,207,36,0*64
$GPGSV,3,2,11,08,26,213,35,13,61,357,36,16,13,054,35,20,42,119,36,0*65
$GPGSV,3,3,11,23,45,044,36,25,89,172,36,27,00,221,,0*53
$BDGSV,1,1,00,0*74

$GNRMC,001400.00,A,3130.321603,N,12118.000019,E,9.731,0.01,200720,,,A,V*02
$GNGGA,001400.00,3130.321603,N,12118.000019,E,1,09,0.97,40.6,M,9.5,M,,*49
$GNGSA,A,3,04,01,07,08,13,20,23,25,02,,,,1.69,0.97,1.39,1*04
$GNGSA,A,3,,,,,,,,,,,,,1.69,0.97,1.39,4*0F
$GPGSV,3,1,11,01,16,119,35,02,19,312,35,04,45,275,36,07
,67,207,36,0*64
$GPGSV,3,2,11,08,26,213,35,13,61,357,36,16,13,054,35,20,42,119,36,0*65
$GPGSV,3,3,11,23,45,044,36,25,89,172,36,27,00,221,,0*53
$BDGSV,1,1,00,0*74

$GNRMC,001401.00,A,3130.324312,N,12118.000026,E,9.732,0.01,200720,,,A,V*0C
$GNGGA,001401.00,3130.324312,N,12118.000026,E,1,09,0.97,40.6,M,9.5,M,,*44
$GNGSA,A,3,04,01,07,08,13,20,23,25,02,,,,1.69,0.97,1.39,1*04
$GNGSA,A,3,,,,,,,,,,,,,1.69,0.97,1.39,4*0F
$GPGSV,3,1,11,01,16,119,35,02,19,312,35,04,45,275,36,07
,67,207,36,0*64
$GPGSV,3,2,11,08,26,213,35,13,61,357,36,16,13,054,35,20,42,119,36,0*65
$GPGSV,3,3,11,23,45,044,36,25,89,172,36,27,00,221,,0*53
$BDGSV,1,1,00,0*74

$GNRMC,001402.00,A,3130.327018,N,12118.000033,E,9.712,359.99,200720,,,A,V*0D
$GNGGA,001402.00,3130.327018,N,12118.000033,E,1,09,0.97,40.6,M,9.5,M,,*49
$GNGSA,A,3,04,01,07,08,13,20,23,25,02,,,,1.69,0.97,1.39,1*04
$GNGSA,A,3,,,,,,,,,,,,,1.69,0.97,1.39,4*0F
$GPGSV,3,1,11,01,16,119,35,02,19,312,35,04,45,275,36,
07,67,207,36,0*64
$GPGSV,3,2,11,08,27,213,35,13,61,357,36,16,13,054,35,20,42,119,36,0*64
$GPGSV,3,3,11,23,45,044,36,25,89,172,36,27,00,221,,0*53
$BDGSV,1,1,00,0*74

$GNRMC,001403.00,A,3130.329729,N,12118.000042,E,9.729,0.03,200720,,,A,V*05
$GNGGA,001403.00,3130.329729,N,12118.000042,E,1,09,0.97,40.6,M,9.5,M,,*45
$GNGSA,A,3,04,01,07,08,13,20,23,25,02,,,,1.69,0.97,1.39,1*04
$GNGSA,A,3,,,,,,,,,,,,,1.69,0.97,1.39,4*0F
$GPGSV,3,1,11,01,16,119,35,02,19,312,35,04,45,275,36,07
,67,207,36,0*64
$GPGSV,3,2,11,08,27,213,35,13,61,358,36,16,13,054,35,20,42,119,36,0*6B
$GPGSV,3,3,11,23,45,044,36,25,89,172,36,27,00,221,,0*53
$BDGSV,1,1,00,0*74
<??????????????>

$GNRMC,001404.00,A,3130.332433,N,12118.000047,E,9.720,360.00,200720,,,A,V*0A
$GNGGA,001404.00,3130.332433,N,12118.000047,E,1,09,0.97,40.6,M,9.5,M,,*45
$GNGSA,A,3,04,01,07,08,13,20,23,25,02,,,,1.69,0.97,1.39,1*04
$GNGSA,A,3,,,,,,,,,,,,,1.69,0.97,1.39,4*0F
$GPGSV,3,1,11,01,16,119,35,02,19,312,35,04,45,275,36,
07,67,207,36,0*64
$GPGSV,3,2,11,08,27,213,35,13,61,358,36,16,13,054,35,20,42,119,36,0*6B
$GPGSV,3,3,11,23,45,044,36,25,89,172,36,27,00,221,,0*53
$BDGSV,1,1,00,0*74

$GNRMC,001405.00,A,3130.335140,N,12118.000052,E,9.729,359.99,200720,,,A,V*0A
$GNGGA,001405.00,3130.335140,N,12118.000052,E,1,09,0.97,40.6,M,9.5,M,,*46
$GNGSA,A,3,04,01,07,08,13,20,23,25,02,,,,1.69,0.97,1.39,1*04
$GNGSA,A,3,,,,,,,,,,,,,1.69,0.97,1.39,4*0F
$GPGSV,3,1,11,01,16,119,35,02,19,312,35,04,45,275,36,
07,67,207,36,0*64
$GPGSV,3,2,11,08,27,213,35,13,61,358,36,16,13,054,35,20,42,119,36,0*6B
$GPGSV,3,3,11,23,45,044,36,25,89,172,36,27,00,221,,0*53
$BDGSV,1,1,00,0*74

$GNRMC,001406.00,A,3130.337847,N,12118.000060,E,9.729,0.02,200720,,,A,V*09
$GNGGA,001406.00,3130.337847,N,12118.000060,E,1,09,0.97,40.6,M,9.5,M,,*48
$GNGSA,A,3,04,01,07,08,13,20,23,25,02,,,,1.69,0.97,1.39,1*04
$GNGSA,A,3,,,,,,,,,,,,,1.69,0.97,1.39,4*0F
$GPGSV,3,1,11,01,16,119,35,02,19,312,35,04,45,275,36,07
,67,207,36,0*64
$GPGSV,3,2,11,08,27,213,35,13,61,358,36,16,13,054,35,20,42,119,36,0*6B
$GPGSV,3,3,11,23,45,044,36,25,89,172,36,27,00,221,,0*53
$BDGSV,1,1,00,0*74

GPS HPregnss> E1 15 00 00 00 00 07 55 E1 C6 3F 00 00 00 1C 3E 0B 20 E8 00 00 00 00 


$GNRMC,001407.00,A,3130.340555,N,12118.000069,E,9.721,0.03,200720,,,A,V*06
$GNGGA,001407.00,3130.340555,N,12118.000069,E,1,09,0.97,40.6,M,9.5,M,,*4E
$GNGSA,A,3,04,01,07,08,13,20,23,25,02,,,,1.69,0.97,1.39,1*04
$GNGSA,A,3,,,,,,,,,,,,,1.69,0.97,1.39,4*0F
$GPGSV,3,1,11,01,16,119,35,02,19,312,35,04,45,275,36,07
,67,207,36,0*64
$GPGSV,3,2,11,08,27,213,35,13,61,358,36,16,13,054,35,20,42,119,36,0*6B
$GPGSV,3,3,11,23,45,044,36,25,89,172,36,27,00,221,,0*53
$BDGSV,1,1,00,0*74

$GNRMC,001408.00,A,3130.343262,N,12118.000081,E,9.721,0.02,200720,,,A,V*0E
$GNGGA,001408.00,3130.343262,N,12118.000081,E,1,09,0.97,40.6,M,9.5,M,,*47
$GNGSA,A,3,04,01,07,08,13,20,23,25,02,,,,1.69,0.97,1.39,1*04
$GNGSA,A,3,,,,,,,,,,,,,1.69,0.97,1.39,4*0F
$GPGSV,3,1,11,01,16,119,35,02,19,312,35,04,45,275,36,07
,67,207,36,0*64
$GPGSV,3,2,11,08,27,213,35,13,61,358,36,16,13,054,35,20,41,119,36,0*68
$GPGSV,3,3,11,23,45,044,36,25,89,172,36,27,00,221,,0*53
$BDGSV,1,1,00,0*74

$GNRMC,001409.00,A,3130.345970,N,12118.000091,E,9.714,0.03,200720,,,A,V*07
$GNGGA,001409.00,3130.345970,N,12118.000091,E,1,09,0.97,40.6,M,9.5,M,,*49
$GNGSA,A,3,04,01,07,08,13,20,23,25,02,,,,1.69,0.97,1.39,1*04
$GNGSA,A,3,,,,,,,,,,,,,1.69,0.97,1.39,4*0F
$GPGSV,3,1,11,01,16,119,35,02,19,312,35,04,45,275,36,07
,67,207,36,0*64
$GPGSV,3,2,11,08,27,213,35,13,61,358,36,16,13,054,35,20,41,119,36,0*68
$GPGSV,3,3,11,23,45,044,36,25,89,172,36,27,00,221,,0*53
$BDGSV,1,1,00,0*74

$GNRMC,001410.00,A,3130.348678,N,12118.000092,E,9.720,359.96,200720,,,A,V*02
$GNGGA,001410.00,3130.348678,N,12118.000092,E,1,09,0.97,40.6,M,9.5,M,,*48
$GNGSA,A,3,04,01,07,08,13,20,23,25,02,,,,1.69,0.97,1.39,1*04
$GNGSA,A,3,,,,,,,,,,,,,1.69,0.97,1.39,4*0F
$GPGSV,3,1,11,01,16,119,35,02,19,312,35,04,45,275,36,
07,67,207,36,0*64
$GPGSV,3,2,11,08,27,213,35,13,61,358,36,16,13,054,35,20,41,119,36,0*68
$GPGSV,3,3,11,23,45,044,36,25,89,172,36,27,00,221,,0*53
$BDGSV,1,1,00,0*74

$GNRMC,001411.00,A,3130.351389,N,12118.000097,E,9.723,0.02,200720,,,A,V*04
$GNGGA,001411.00,3130.351389,N,12118.000097,E,1,09,0.97,40.6,M,9.5,M,,*4F
$GNGSA,A,3,04,01,07,08,13,20,23,25,02,,,,1.69,0.97,1.39,1*04
$GNGSA,A,3,,,,,,,,,,,,,1.69,0.97,1.39,4*0F
$GPGSV,3,1,11,01,16,119,35,02,19,312,35,04,45,275,36,07
,67,207,36,0*64
$GPGSV,3,2,11,08,27,213,35,13,61,358,36,16,13,054,35,20,41,119,36,0*68
$GPGSV,3,3,11,23,45,044,36,25,89,172,36,27,00,221,,0*53
$BDGSV,1,1,00,0*74

$GNRMC,001412.00,A,3130.354095,N,12118.000099,E,9.717,0.01,200720,,,A,V*06
$GNGGA,001412.00,3130.354095,N,12118.000099,E,1,09,0.97,40.6,M,9.5,M,,*49
$GNGSA,A,3,04,01,07,08,13,20,23,25,02,,,,1.69,0.97,1.39,1*04
$GNGSA,A,3,,,,,,,,,,,,,1.69,0.97,1.39,4*0F
$GPGSV,3,1,11,01,16,119,35,02,19,312,35,04,45,275,36,07
,67,207,36,0*64
$GPGSV,3,2,11,08,27,213,35,13,61,358,36,16,13,054,35,20,41,119,36,0*68
$GPGSV,3,3,11,23,45,044,36,25,89,172,36,27,00,221,,0*53
$BDGSV,1,1,00,0*74

$GNRMC,001413.00,A,3130.356800,N,12118.000101,E,9.700,359.99,200720,,,A,V*09
$GNGGA,001413.00,3130.356800,N,12118.000101,E,1,09,0.97,40.6,M,9.5,M,,*4E
$GNGSA,A,3,04,01,07,08,13,20,23,25,02,,,,1.69,0.97,1.39,1*04
$GNGSA,A,3,,,,,,,,,,,,,1.69,0.97,1.39,4*0F
$GPGSV,3,1,11,01,16,119,35,02,19,312,35,04,45,275,36,
07,67,207,36,0*64
$GPGSV,3,2,11,08,27,213,35,13,61,358,36,16,13,054,35,20,41,119,36,0*68
$GPGSV,3,3,11,23,45,044,36,25,90,153,36,27,00,221,,0*58
$BDGSV,1,1,00,0*74

<????sim??????(SIM??:1)>
<????GSM????????(GSM:0)>
<????GPRS????????(GPRS:0)>
<????????????(SIGNAL:0)>
<????????????????(BER:0)>

<??????????????>

$GNRMC,001414.00,A,3130.359507,N,12118.000101,E,9.705,0.01,200720,,,A,V*00
$GNGGA,001414.00,3130.359507,N,12118.000101,E,1,09,0.97,40.6,M,9.5,M,,*4C
$GNGSA,A,3,04,01,07,08,13,20,23,25,02,,,,1.69,0.97,1.39,1*04
$GNGSA,A,3,,,,,,,,,,,,,1.69,0.97,1.39,4*0F
$GPGSV,3,1,11,01,16,119,35,02,19,312,35,04,45,275,36,07
,67,207,36,0*64
$GPGSV,3,2,11,08,27,213,35,13,61,358,36,16,13,054,35,20,41,119,36,0*68
$GPGSV,3,3,11,23,45,044,36,25,90,153,36,27,00,221,,0*58
$BDGSV,1,1,00,0*74

$GNRMC,001415.00,A,3130.362213,N,12118.000098,E,9.696,359.99,200720,,,A,V*0F
$GNGGA,001415.00,3130.362213,N,12118.000098,E,1,09,0.97,40.6,M,9.5,M,,*46
$GNGSA,A,3,04,01,07,08,13,20,23,25,02,,,,1.69,0.97,1.39,1*04
$GNGSA,A,3,,,,,,,,,,,,,1.69,0.97,1.39,4*0F
$GPGSV,3,1,11,01,16,119,35,02,19,312,35,04,45,275,36,
07,67,207,36,0*64
$GPGSV,3,2,11,08,27,213,35,13,61,358,36,16,13,054,35,20,41,119,36,0*68
$GPGSV,3,3,11,23,45,044,36,25,90,153,36,27,00,221,,0*58
$BDGSV,1,1,00,0*74

$GNRMC,001416.00,A,3130.364923,N,12118.000098,E,9.722,0.02,200720,,,A,V*01
$GNGGA,001416.00,3130.364923,N,12118.000098,E,1,09,0.97,40.6,M,9.5,M,,*4B
$GNGSA,A,3,04,01,07,08,13,20,23,25,02,,,,1.69,0.97,1.39,1*04
$GNGSA,A,3,,,,,,,,,,,,,1.69,0.97,1.39,4*0F
$GPGSV,3,1,11,01,16,119,35,02,19,312,35,04,45,275,36,07
,67,207,36,0*64
$GPGSV,3,2,11,08,27,213,35,13,61,358,36,16,13,054,35,20,41,119,36,0*68
$GPGSV,3,3,11,23,45,044,36,25,90,153,36,27,00,221,,0*58
$BDGSV,1,1,00,0*74

$GNRMC,001417.00,A,3130.367633,N,12118.000100,E,9.724,360.00,200720,,,A,V*0C
$GNGGA,001417.00,3130.367633,N,12118.000100,E,1,09,0.97,40.6,M,9.5,M,,*47
$GNGSA,A,3,04,01,07,08,13,20,23,25,02,,,,1.69,0.97,1.39,1*04
$GNGSA,A,3,,,,,,,,,,,,,1.69,0.97,1.39,4*0F
$GPGSV,3,1,11,01,16,119,35,02,19,312,35,04,45,275,36,
07,67,207,36,0*64
$GPGSV,3,2,11,08,27,213,35,13,61,358,36,16,13,054,35,20,41,119,36,0*68
$GPGSV,3,3,11,23,45,044,36,25,90,153,36,27,00,221,,0*58
$BDGSV,1,1,00,0*74

$GNRMC,001418.00,A,3130.370341,N,12118.000100,E,9.719,0.02,200720,,,A,V*0C
$GNGGA,001418.00,3130.370341,N,12118.000100,E,1,09,0.97,40.6,M,9.5,M,,*4E
$GNGSA,A,3,04,01,07,08,13,20,23,25,02,,,,1.69,0.97,1.39,1*04
$GNGSA,A,3,,,,,,,,,,,,,1.69,0.97,1.39,4*0F
$GPGSV,3,1,11,01,16,119,35,02,19,312,35,04,45,275,36,07
,67,207,36,0*64
$GPGSV,3,2,11,08,27,213,35,13,61,358,36,16,13,054,35,20,41,119,36,0*68
$GPGSV,3,3,11,23,45,044,36,25,90,153,36,27,00,221,,0*58
$BDGSV,1,1,00,0*74

$GNRMC,001419.00,A,3130.373052,N,12118.000098,E,9.736,360.00,200720,,,A,V*05
$GNGGA,001419.00,3130.373052,N,12118.000098,E,1,09,0.97,40.6,M,9.5,M,,*4D
$GNGSA,A,3,04,01,07,08,13,20,23,25,02,,,,1.69,0.97,1.39,1*04
$GNGSA,A,3,,,,,,,,,,,,,1.69,0.97,1.39,4*0F
$GPGSV,3,1,11,01,16,119,35,02,19,312,35,04,45,275,36,
07,67,207,36,0*64
$GPGSV,3,2,11,08,27,213,35,13,61,358,36,16,13,054,35,20,41,119,36,0*68
$GPGSV,3,3,11,23,45,044,36,25,90,153,36,27,00,221,,0*58
$BDGSV,1,1,00,0*74

$GNRMC,001420.00,A,3130.375756,N,12118.000097,E,9.723,0.02,200720,,,A,V*06
$GNGGA,001420.00,3130.375756,N,12118.000097,E,1,09,0.97,40.6,M,9.5,M,,*4D
$GNGSA,A,3,04,01,07,08,13,20,23,25,02,,,,1.69,0.97,1.39,1*04
$GNGSA,A,3,,,,,,,,,,,,,1.69,0.97,1.39,4*0F
$GPGSV,3,1,11,01,16,119,35,02,19,312,35,04,45,275,36,07
,67,207,36,0*64
$GPGSV,3,2,11,08,27,213,35,13,61,358,36,16,13,054,35,20,41,119,36,0*68
$GPGSV,3,3,11,23,45,044,36,25,90,153,36,27,00,221,,0*58
$BDGSV,1,1,00,0*74

$GNRMC,001421.00,A,3130.378459,N,12118.000092,E,9.730,359.98,200720,,,A,V*0D
$GNGGA,001421.00,3130.378459,N,12118.000092,E,1,09,0.97,40.5,M,9.5,M,,*4B
$GNGSA,A,3,04,01,07,08,13,20,23,25,02,,,,1.69,0.97,1.39,1*04
$GNGSA,A,3,,,,,,,,,,,,,1.69,0.97,1.39,4*0F
$GPGSV,3,1,11,01,16,119,35,02,19,312,35,04,45,275,36,
07,67,207,36,0*64
$GPGSV,3,2,11,08,27,213,35,13,61,358,36,16,13,054,35,20,41,119,36,0*68
$GPGSV,3,3,11,23,45,044,36,25,90,153,36,27,00,221,,0*58
$BDGSV,1,1,00,0*74

$GNRMC,001422.00,A,3130.381163,N,12118.000090,E,9.730,359.99,200720,,,A,V*07
$GNGGA,001422.00,3130.381163,N,12118.000090,E,1,09,0.97,40.5,M,9.5,M,,*40
$GNGSA,A,3,04,01,07,08,13,20,23,25,02,,,,1.69,0.97,1.39,1*04
$GNGSA,A,3,,,,,,,,,,,,,1.69,0.97,1.39,4*0F
$GPGSV,3,1,11,01,16,119,35,02,19,312,35,04,45,275,36,
07,67,207,36,0*64
$GPGSV,3,2,11,08,27,213,35,13,61,358,36,16,13,054,35,20,41,119,36,0*68
$GPGSV,3,3,11,23,45,044,36,25,90,153,36,27,00,221,,0*58
$BDGSV,1,1,00,0*74

$GNRMC,001423.00,A,3130.383867,N,12118.000088,E,9.721,0.01,200720,,,A,V*0E
$GNGGA,001423.00,3130.383867,N,12118.000088,E,1,09,0.97,40.5,M,9.5,M,,*47
$GNGSA,A,3,04,01,07,08,13,20,23,25,02,,,,1.69,0.97,1.39,1*04
$GNGSA,A,3,,,,,,,,,,,,,1.69,0.97,1.39,4*0F
$GPGSV,3,1,11,01,16,119,35,02,19,312,35,04,45,275,36,07
,67,207,36,0*64
$GPGSV,3,2,11,08,27,213,35,13,61,358,36,16,13,054,35,20,41,119,36,0*68
$GPGSV,3,3,11,23,45,044,36,25,90,153,36,27,00,221,,0*58
$BDGSV,1,1,00,0*74

<??????????????>

$GNRMC,001424.00,A,3130.386576,N,12118.000088,E,9.735,0.02,200720,,,A,V*07
$GNGGA,001424.00,3130.386576,N,12118.000088,E,1,09,0.97,40.5,M,9.5,M,,*48
$GNGSA,A,3,04,01,07,08,13,20,23,25,02,,,,1.69,0.97,1.39,1*04
$GNGSA,A,3,,,,,,,,,,,,,1.69,0.97,1.39,4*0F
$GPGSV,3,1,11,01,16,120,35,02,19,312,35,04,45,275,36,07
,67,207,36,0*6E
$GPGSV,3,2,11,08,27,213,35,13,61,358,36,16,13,054,35,20,41,119,36,0*68
$GPGSV,3,3,11,23,45,044,36,25,90,153,36,27,00,221,,0*58
$BDGSV,1,1,00,0*74

$GNRMC,001425.00,A,3130.389277,N,12118.000082,E,9.723,359.96,200720,,,A,V*00
$GNGGA,001425.00,3130.389277,N,12118.000082,E,1,09,0.97,40.4,M,9.5,M,,*4B
$GNGSA,A,3,04,01,07,08,13,20,23,25,02,,,,1.69,0.97,1.39,1*04
$GNGSA,A,3,,,,,,,,,,,,,1.69,0.97,1.39,4*0F
$GPGSV,3,1,11,01,16,120,35,02,19,312,35,04,45,275,36,
07,67,207,36,0*6E
$GPGSV,3,2,11,08,27,213,35,13,61,358,36,16,13,054,35,20,41,119,36,0*68
$GPGSV,3,3,11,23,45,044,36,25,90,153,36,27,00,221,,0*58
$BDGSV,1,1,00,0*74

$GNRMC,001426.00,A,3130.391977,N,12118.000083,E,9.719,0.07,200720,,,A,V*0E
$GNGGA,001426.00,3130.391977,N,12118.000083,E,1,09,0.97,40.4,M,9.5,M,,*4B
$GNGSA,A,3,04,01,07,08,13,20,23,25,02,,,,1.69,0.97,1.39,1*04
$GNGSA,A,3,,,,,,,,,,,,,1.69,0.97,1.39,4*0F
$GPGSV,3,1,11,01,16,120,35,02,19,312,35,04,45,275,36,07
,67,207,36,0*6E
$GPGSV,3,2,11,08,27,213,35,13,61,358,36,16,13,054,35,20,41,119,36,0*68
$GPGSV,3,3,11,23,45,044,36,25,90,153,36,27,00,221,,0*58
$BDGSV,1,1,00,0*74

$GNRMC,001427.00,A,3130.394674,N,12118.000079,E,9.719,359.96,200720,,,A,V*04
$GNGGA,001427.00,3130.394674,N,12118.000079,E,1,09,0.97,40.4,M,9.5,M,,*46
$GNGSA,A,3,04,01,07,08,13,20,23,25,02,,,,1.69,0.97,1.39,1*04
$GNGSA,A,3,,,,,,,,,,,,,1.69,0.97,1.39,4*0F
$GPGSV,3,1,11,01,16,120,35,02,19,312,35,04,45,274,36,
07,67,207,36,0*6F
$GPGSV,3,2,11,08,27,213,35,13,61,358,36,16,13,054,35,20,41,119,36,0*68
$GPGSV,3,3,11,23,45,044,36,25,90,153,36,27,00,221,,0*58
$BDGSV,1,1,00,0*74

$GNRMC,001428.00,A,3130.397374,N,12118.000078,E,9.723,0.03,200720,,,A,V*06
$GNGGA,001428.00,3130.397374,N,12118.000078,E,1,09,0.97,40.4,M,9.5,M,,*4E
$GNGSA,A,3,04,01,07,08,13,20,23,25,02,,,,1.69,0.97,1.39,1*04
$GNGSA,A,3,,,,,,,,,,,,,1.69,0.97,1.39,4*0F
$GPGSV,3,1,11,01,16,120,35,02,19,312,35,04,45,274,36,07
,67,207,36,0*6F
$GPGSV,3,2,11,08,27,213,35,13,61,358,36,16,13,054,35,20,41,119,36,0*68
$GPGSV,3,3,11,23,45,044,36,25,90,153,36,27,00,221,,0*58
$BDGSV,1,1,00,0*74

$GNRMC,001429.00,A,3130.400073,N,12118.000075,E,9.720,0.01,200720,,,A,V*06
$GNGGA,001429.00,3130.400073,N,12118.000075,E,1,09,0.97,40.4,M,9.5,M,,*4F
$GNGSA,A,3,04,01,07,08,13,20,23,25,02,,,,1.69,0.97,1.39,1*04
$GNGSA,A,3,,,,,,,,,,,,,1.69,0.97,1.39,4*0F
$GPGSV,3,1,11,01,16,120,35,02,19,312,35,04,45,274,36,07
,67,207,36,0*6F
$GPGSV,3,2,11,08,27,213,35,13,61,358,36,16,13,054,35,20,41,119,36,0*68
$GPGSV,3,3,11,23,45,044,36,25,90,153,36,27,00,221,,0*58
$BDGSV,1,1,00,0*74

$GNRMC,001430.00,A,3130.402775,N,12118.000071,E,9.720,0.00,200720,,,A,V*08
$GNGGA,001430.00,3130.402775,N,12118.000071,E,1,09,0.97,40.4,M,9.5,M,,*40
$GNGSA,A,3,04,01,07,08,13,20,23,25,02,,,,1.69,0.97,1.39,1*04
$GNGSA,A,3,,,,,,,,,,,,,1.69,0.97,1.39,4*0F
$GPGSV,3,1,11,01,16,120,35,02,19,312,35,04,45,274,36,07
,67,207,36,0*6F
$GPGSV,3,2,11,08,27,213,35,13,61,358,36,16,13,054,35,20,41,119,36,0*68
$GPGSV,3,3,11,23,45,044,36,25,90,153,36,27,00,221,,0*58
$BDGSV,1,1,00,0*74

$GNRMC,001431.00,A,3130.405474,N,12118.000070,E,9.710,0.00,200720,,,A,V*0E
$GNGGA,001431.00,3130.405474,N,12118.000070,E,1,09,0.97,40.3,M,9.5,M,,*42
$GNGSA,A,3,04,01,07,08,13,20,23,25,02,,,,1.69,0.97,1.39,1*04
$GNGSA,A,3,,,,,,,,,,,,,1.69,0.97,1.39,4*0F
$GPGSV,3,1,11,01,16,120,35,02,19,312,35,04,45,274,36,07
,67,207,36,0*6F
$GPGSV,3,2,11,08,27,213,35,13,61,358,36,16,13,054,35,20,41,119,36,0*68
$GPGSV,3,3,11,23,45,044,36,25,90,153,36,27,00,221,,0*58
$BDGSV,1,1,00,0*74

$GNRMC,001432.00,A,3130.408176,N,12118.000065,E,9.726,359.97,200720,,,A,V*07
$GNGGA,001432.00,3130.408176,N,12118.000065,E,1,09,0.97,40.3,M,9.5,M,,*4F
$GNGSA,A,3,04,01,07,08,13,20,23,25,02,,,,1.69,0.97,1.39,1*04
$GNGSA,A,3,,,,,,,,,,,,,1.69,0.97,1.39,4*0F
$GPGSV,3,1,11,01,16,120,35,02,19,312,35,04,45,274,36,
07,67,207,36,0*6F
$GPGSV,3,2,11,08,27,213,35,13,61,358,36,16,13,054,35,20,41,119,36,0*68
$GPGSV,3,3,11,23,45,044,36,25,90,153,36,27,00,221,,0*58
$BDGSV,1,1,00,0*74

$GNRMC,001433.00,A,3130.410875,N,12118.000062,E,9.714,0.01,200720,,,A,V*03
$GNGGA,001433.00,3130.410875,N,12118.000062,E,1,09,0.97,40.3,M,9.5,M,,*4A
$GNGSA,A,3,04,01,07,08,13,20,23,25,02,,,,1.69,0.97,1.39,1*04
$GNGSA,A,3,,,,,,,,,,,,,1.69,0.97,1.39,4*0F
$GPGSV,3,1,11,01,16,120,35,02,19,312,35,04,45,274,36,07
,67,207,36,0*6F
$GPGSV,3,2,11,08,27,213,35,13,61,358,36,16,13,054,35,20,41,119,36,0*68
$GPGSV,3,3,11,23,45,044,36,25,90,153,36,27,00,221,,0*58
$BDGSV,1,1,00,0*74

<????sim??????(SIM??:1)>
<????GSM????????(GSM:0)>
<????GPRS????????(GPRS:0)>
<????????????(SIGNAL:0)>
<????????????????(BER:0)>

<??????????????>

$GNRMC,001434.00,A,3130.413579,N,12118.000062,E,9.718,0.03,200720,,,A,V*08
$GNGGA,001434.00,3130.413579,N,12118.000062,E,1,09,0.97,40.3,M,9.5,M,,*4F
$GNGSA,A,3,04,01,07,08,13,20,23,25,02,,,,1.69,0.97,1.39,1*04
$GNGSA,A,3,,,,,,,,,,,,,1.69,0.97,1.39,4*0F
$GPGSV,3,1,11,01,16,120,35,02,19,312,35,04,45,274,36,07
,67,207,36,0*6F
$GPGSV,3,2,11,08,27,213,35,13,61,358,36,16,13,054,35,20,41,119,36,0*68
$GPGSV,3,3,11,23,45,044,36,25,90,153,37,27,00,221,,0*59
$BDGSV,1,1,00,0*74

$GNRMC,001435.00,A,3130.416279,N,12118.000056,E,9.708,359.99,200720,,,A,V*01
$GNGGA,001435.00,3130.416279,N,12118.000056,E,1,09,0.97,40.3,M,9.5,M,,*4B
$GNGSA,A,3,04,01,07,08,13,20,23,25,02,,,,1.69,0.97,1.39,1*04
$GNGSA,A,3,,,,,,,,,,,,,1.69,0.97,1.39,4*0F
$GPGSV,3,1,11,01,16,120,35,02,19,312,35,04,45,274,36,
07,67,207,36,0*6F
$GPGSV,3,2,11,08,27,213,35,13,61,358,36,16,13,054,35,20,41,119,36,0*68
$GPGSV,3,3,11,23,45,044,36,25,90,153,36,27,00,221,,0*58
$BDGSV,1,1,00,0*74

$GNRMC,001436.00,A,3130.418978,N,12118.000050,E,9.695,0.00,200720,,,A,V*0A
$GNGGA,001436.00,3130.418978,N,12118.000050,E,1,09,0.97,40.3,M,9.5,M,,*4A
$GNGSA,A,3,04,01,07,08,13,20,23,25,02,,,,1.69,0.97,1.39,1*04
$GNGSA,A,3,,,,,,,,,,,,,1.69,0.97,1.39,4*0F
$GPGSV,3,1,11,01,16,120,35,02,19,312,35,04,45,274,36,07
,67,207,36,0*6F
$GPGSV,3,2,11,08,27,213,35,13,61,358,36,16,13,054,35,20,41,119,36,0*68
$GPGSV,3,3,11,23,45,044,36,25,90,153,36,27,00,221,,0*58
$BDGSV,1,1,00,0*74


GPS HPregnss> E1 15 00 00 00 00 07 55 F6 68 36 00 00 00 1C 3E 0B 20 41 00 00 00 00 


$GNRMC,001437.00,A,3130.421677,N,12118.000042,E,9.703,359.98,200720,,,A,V*02
$GNGGA,001437.00,3130.421677,N,12118.000042,E,1,09,0.97,40.3,M,9.5,M,,*42
$GNGSA,A,3,04,01,07,08,13,20,23,25,02,,,,1.69,0.97,1.39,1*04
$GNGSA,A,3,,,,,,,,,,,,,1.69,0.97,1.39,4*0F
$GPGSV,3,1,11,01,16,120,35,02,19,312,35,04,45,274,36,
07,67,207,36,0*6F
$GPGSV,3,2,11,08,27,213,35,13,61,358,36,16,13,054,35,20,41,119,36,0*68
$GPGSV,3,3,11,23,45,044,36,25,90,153,36,27,00,221,,0*58
$BDGSV,1,1,00,0*74

$GNRMC,001438.00,A,3130.424377,N,12118.000040,E,9.720,0.02,200720,,,A,V*02
$GNGGA,001438.00,3130.424377,N,12118.000040,E,1,09,0.97,40.3,M,9.5,M,,*4F
$GNGSA,A,3,04,01,07,08,13,20,23,25,02,,,,1.69,0.97,1.39,1*04
$GNGSA,A,3,,,,,,,,,,,,,1.69,0.97,1.39,4*0F
$GPGSV,3,1,11,01,16,120,35,02,19,312,35,04,45,274,36,07
,67,207,36,0*6F
$GPGSV,3,2,11,08,27,213,35,13,61,358,36,16,13,054,35,20,41,120,36,0*62
$GPGSV,3,3,11,23,45,044,36,25,90,153,36,27,00,221,,0*58
$BDGSV,1,1,00,0*74

$GNRMC,001439.00,A,3130.427077,N,12118.000036,E,9.727,359.99,200720,,,A,V*08
$GNGGA,001439.00,3130.427077,N,12118.000036,E,1,09,0.97,40.3,M,9.5,M,,*4F
$GNGSA,A,3,04,01,07,08,13,20,23,25,02,,,,1.69,0.97,1.39,1*04
$GNGSA,A,3,,,,,,,,,,,,,1.69,0.97,1.39,4*0F
$GPGSV,3,1,11,01,16,120,35,02,19,312,35,04,45,274,36,
07,67,207,36,0*6F
$GPGSV,3,2,11,08,27,213,35,13,61,358,36,16,13,054,35,20,41,120,36,0*62
$GPGSV,3,3,11,23,45,044,36,25,90,153,36,27,00,221,,0*58
$BDGSV,1,1,00,0*74

$GNRMC,001440.00,A,3130.429783,N,12118.000037,E,9.732,0.03,200720,,,A,V*0D
$GNGGA,001440.00,3130.429783,N,12118.000037,E,1,09,0.97,40.3,M,9.5,M,,*42
$GNGSA,A,3,04,01,07,08,13,20,23,25,02,,,,1.70,0.97,1.39,1*0C
$GNGSA,A,3,,,,,,,,,,,,,1.70,0.97,1.39,4*07
$GPGSV,3,1,11,01,16,120,35,02,19,312,35,04,45,274,36,07
,67,207,36,0*6F
$GPGSV,3,2,11,08,27,213,35,13,61,358,36,16,13,054,35,20,41,120,36,0*62
$GPGSV,3,3,11,23,45,044,36,25,90,153,36,27,00,221,,0*58
$BDGSV,1,1,00,0*74

$GNRMC,001441.00,A,3130.432485,N,12118.000036,E,9.728,359.99,200720,,,A,V*05
$GNGGA,001441.00,3130.432485,N,12118.000036,E,1,09,0.97,40.3,M,9.5,M,,*4D
$GNGSA,A,3,04,01,07,08,13,20,23,25,02,,,,1.70,0.97,1.39,1*0C
$GNGSA,A,3,,,,,,,,,,,,,1.70,0.97,1.39,4*07
$GPGSV,3,1,11,01,16,120,35,02,19,312,35,04,45,274,36,
07,67,207,36,0*6F
$GPGSV,3,2,11,08,27,213,35,13,61,358,36,16,13,054,35,20,41,120,36,0*62
$GPGSV,3,3,11,23,45,044,36,25,90,153,36,27,00,221,,0*58
$BDGSV,1,1,00,0*74

$GNRMC,001442.00,A,3130.435186,N,12118.000032,E,9.724,359.98,200720,,,A,V*0E
$GNGGA,001442.00,3130.435186,N,12118.000032,E,1,09,0.97,40.3,M,9.5,M,,*4B
$GNGSA,A,3,04,01,07,08,13,20,23,25,02,,,,1.70,0.97,1.39,1*0C
$GNGSA,A,3,,,,,,,,,,,,,1.70,0.97,1.39,4*07
$GPGSV,3,1,11,01,16,120,35,02,19,312,35,04,45,274,36,
07,67,207,36,0*6F
$GPGSV,3,2,11,08,27,213,35,13,61,358,36,16,13,054,35,20,41,120,36,0*62
$GPGSV,3,3,11,23,45,044,36,25,90,153,36,27,00,221,,0*58
$BDGSV,1,1,00,0*74

$GNRMC,001443.00,A,3130.437887,N,12118.000031,E,9.721,0.01,200720,,,A,V*0C
$GNGGA,001443.00,3130.437887,N,12118.000031,E,1,09,0.97,40.3,M,9.5,M,,*43
$GNGSA,A,3,04,01,07,08,13,20,23,25,02,,,,1.70,0.97,1.39,1*0C
$GNGSA,A,3,,,,,,,,,,,,,1.70,0.97,1.39,4*07
$GPGSV,3,1,11,01,16,120,35,02,19,312,35,04,45,274,36,07
,67,207,36,0*6F
$GPGSV,3,2,11,08,27,213,35,13,61,358,36,16,13,054,35,20,41,120,36,0*62
$GPGSV,3,3,11,23,45,044,36,25,90,103,36,27,00,221,,0*5D
$BDGSV,1,1,00,0*74

<??????????????>

$GNRMC,001444.00,A,3130.440590,N,12118.000031,E,9.727,360.00,200720,,,A,V*02
$GNGGA,001444.00,3130.440590,N,12118.000031,E,1,09,0.97,40.4,M,9.5,M,,*48
$GNGSA,A,3,04,01,07,08,13,20,23,25,02,,,,1.70,0.97,1.39,1*0C
$GNGSA,A,3,,,,,,,,,,,,,1.70,0.97,1.39,4*07
$GPGSV,3,1,11,01,16,120,35,02,19,312,35,04,45,274,36,
07,67,207,36,0*6F
$GPGSV,3,2,11,08,27,213,35,13,61,358,36,16,13,054,35,20,41,120,36,0*62
$GPGSV,3,3,11,23,45,044,36,25,90,103,36,27,00,221,,0*5D
$BDGSV,1,1,00,0*74

$GNRMC,001445.00,A,3130.443295,N,12118.000031,E,9.734,0.02,200720,,,A,V*07
$GNGGA,001445.00,3130.443295,N,12118.000031,E,1,09,0.97,40.4,M,9.5,M,,*48
$GNGSA,A,3,04,01,07,08,13,20,23,25,02,,,,1.70,0.97,1.39,1*0C
$GNGSA,A,3,,,,,,,,,,,,,1.70,0.97,1.39,4*07
$GPGSV,3,1,11,01,16,120,35,02,19,312,35,04,45,274,36,07
,67,207,36,0*6F
$GPGSV,3,2,11,08,27,213,35,13,61,358,36,16,13,054,35,20,41,120,36,0*62
$GPGSV,3,3,11,23,45,044,36,25,90,103,36,27,00,221,,0*5D
$BDGSV,1,1,00,0*74

$GNRMC,001446.00,A,3130.445994,N,12118.000029,E,9.716,359.98,200720,,,A,V*0D
$GNGGA,001446.00,3130.445994,N,12118.000029,E,1,09,0.97,40.4,M,9.5,M,,*4E
$GNGSA,A,3,04,01,07,08,13,20,23,25,02,,,,1.70,0.97,1.39,1*0C
$GNGSA,A,3,,,,,,,,,,,,,1.70,0.97,1.39,4*07
$GPGSV,3,1,11,01,16,120,35,02,19,312,35,04,45,274,36,
07,67,207,36,0*6F
$GPGSV,3,2,11,08,27,213,35,13,61,358,36,16,13,054,35,20,41,120,36,0*62
$GPGSV,3,3,11,23,45,044,36,25,90,103,36,27,00,221,,0*5D
$BDGSV,1,1,00,0*74

$GNRMC,001447.00,A,3130.448699,N,12118.000034,E,9.736,0.03,200720,,,A,V*00
$GNGGA,001447.00,3130.448699,N,12118.000034,E,1,09,0.97,40.4,M,9.5,M,,*4C
$GNGSA,A,3,04,01,07,08,13,20,23,25,02,,,,1.70,0.97,1.39,1*0C
$GNGSA,A,3,,,,,,,,,,,,,1.70,0.97,1.39,4*07
$GPGSV,3,1,11,01,16,120,35,02,19,312,35,04,45,274,36,07
,67,207,36,0*6F
$GPGSV,3,2,11,08,27,213,35,13,61,358,36,16,13,054,35,20,41,120,36,0*62
$GPGSV,3,3,11,23,45,044,36,25,90,103,36,27,00,221,,0*5D
$BDGSV,1,1,00,0*74

$GNRMC,001448.00,A,3130.451400,N,12118.000032,E,9.726,359.99,200720,,,A,V*0E
$GNGGA,001448.00,3130.451400,N,12118.000032,E,1,09,0.97,40.4,M,9.5,M,,*4F
$GNGSA,A,3,04,01,07,08,13,20,23,25,02,,,,1.70,0.97,1.39,1*0C
$GNGSA,A,3,,,,,,,,,,,,,1.70,0.97,1.39,4*07
$GPGSV,3,1,11,01,16,120,35,02,19,312,35,04,45,274,36,
07,67,207,36,0*6F
$GPGSV,3,2,11,08,27,213,35,13,61,358,36,16,13,054,35,20,41,120,36,0*62
$GPGSV,3,3,11,23,45,044,36,25,90,103,36,27,00,221,,0*5D
$BDGSV,1,1,00,0*74

$GNRMC,001449.00,A,3130.454097,N,12118.000033,E,9.717,359.99,200720,,,A,V*03
$GNGGA,001449.00,3130.454097,N,12118.000033,E,1,09,0.97,40.4,M,9.5,M,,*40
$GNGSA,A,3,04,01,07,08,13,20,23,25,02,,,,1.70,0.97,1.39,1*0C
$GNGSA,A,3,,,,,,,,,,,,,1.70,0.97,1.39,4*07
$GPGSV,3,1,11,01,16,120,35,02,19,312,35,04,45,274,36,
07,67,207,36,0*6F
$GPGSV,3,2,11,08,27,213,35,13,61,358,36,16,13,054,35,20,41,120,36,0*62
$GPGSV,3,3,11,23,45,044,36,25,90,103,36,27,00,221,,0*5D
$BDGSV,1,1,00,0*74

$GNRMC,001450.00,A,3130.456796,N,12118.000036,E,9.723,0.05,200720,,,A,V*07
$GNGGA,001450.00,3130.456796,N,12118.000036,E,1,09,0.97,40.4,M,9.5,M,,*49
$GNGSA,A,3,04,01,07,08,13,20,23,25,02,,,,1.70,0.97,1.39,1*0C
$GNGSA,A,3,,,,,,,,,,,,,1.70,0.97,1.39,4*07
$GPGSV,3,1,11,01,16,120,35,02,19,312,35,04,45,274,36,07
,67,207,36,0*6F
$GPGSV,3,2,11,08,27,213,35,13,61,358,36,16,13,054,34,20,41,120,36,0*63
$GPGSV,3,3,11,23,45,044,36,25,90,103,36,27,00,221,,0*5D
$BDGSV,1,1,00,0*74

$GNRMC,001451.00,A,3130.459495,N,12118.000031,E,9.721,359.95,200720,,,A,V*0A
$GNGGA,001451.00,3130.459495,N,12118.000031,E,1,09,0.97,40.4,M,9.5,M,,*40
$GNGSA,A,3,04,01,07,08,13,20,23,25,02,,,,1.70,0.97,1.39,1*0C
$GNGSA,A,3,,,,,,,,,,,,,1.70,0.97,1.39,4*07
$GPGSV,3,1,11,01,16,120,35,02,19,312,35,04,45,274,36,
07,67,207,36,0*6F
$GPGSV,3,2,11,08,27,213,35,13,61,358,36,16,13,054,35,20,41,120,36,0*62
$GPGSV,3,3,11,23,45,044,36,25,90,103,36,27,00,221,,0*5D
$BDGSV,1,1,00,0*74

$GNRMC,001452.00,A,3130.462196,N,12118.000032,E,9.717,0.04,200720,,,A,V*06
$GNGGA,001452.00,3130.462196,N,12118.000032,E,1,09,0.97,40.4,M,9.5,M,,*4E
$GNGSA,A,3,04,01,07,08,13,20,23,25,02,,,,1.70,0.97,1.39,1*0C
$GNGSA,A,3,,,,,,,,,,,,,1.70,0.97,1.39,4*07
$GPGSV,3,1,11,01,16,120,35,02,19,312,35,04,45,274,36,07
