$GNRMC,001857.00,A,3131.125063,N,12117.999892,E,9.722,0.03,200720,,,A,V*06
$GNGGA,001857.00,3131.125063,N,12117.999892,E,1,08,1.10,40.4,M,9.5,M,,*40
$GNGSA,A,3,07,20,13,08,25,04,23,02,,,,,2.11,1.10,1.80,1*05
$GNGSA,A,3,,,,,,,,,,,,,2.11,1.10,1.80,4*0F
$GPGSV,3,1,10,01,15,121,35,02,20,311,35,04,45,271,36,07,6
9,209,36,0*60
$GPGSV,3,2,10,08,29,214,35,13,60,002,36,16,12,052,35,20,40,121,36,0*60
$GPGSV,3,3,10,23,44,046,36,25,88,025,36,0*67
$BDGSV,1,1,00,0*74

$GNRMC,001858.00,A,3131.127764,N,12117.999889,E,9.718,359.99,200720,,,A,V*04
$GNGGA,001858.00,3131.127764,N,12117.999889,E,1,08,1.10,40.4,M,9.5,M,,*47
$GNGSA,A,3,07,20,13,08,25,04,23,02,,,,,2.11,1.10,1.80,1*05
$GNGSA,A,3,,,,,,,,,,,,,2.11,1.10,1.80,4*0F
$GPGSV,3,1,10,01,15,121,35,02,20,310,35,04,45,271,36,07
,69,209,36,0*61
$GPGSV,3,2,10,08,29,214,35,13,60,002,36,16,12,052,35,20,40,121,36,0*60
$GPGSV,3,3,10,23,44,046,36,25,88,025,36,0*67
$BDGSV,1,1,00,0*74

$GNRMC,001859.00,A,3131.130463,N,12117.999885,E,9.715,360.00,200720,,,A,V*0C
$GNGGA,001859.00,3131.130463,N,12117.999885,E,1,08,1.10,40.4,M,9.5,M,,*48
$GNGSA,A,3,07,20,13,08,25,04,23,02,,,,,2.11,1.10,1.80,1*05
$GNGSA,A,3,,,,,,,,,,,,,2.11,1.10,1.80,4*0F
$GPGSV,3,1,10,01,15,121,35,02,20,310,35,04,45,271,36,07
,69,209,36,0*61
$GPGSV,3,2,10,08,29,214,35,13,60,002,36,16,12,052,35,20,40,121,36,0*60
$GPGSV,3,3,10,23,44,046,36,25,88,025,36,0*67
$BDGSV,1,1,00,0*74

$GNRMC,001900.00,A,3131.133164,N,12117.999886,E,9.716,360.00,200720,,,A,V*00
$GNGGA,001900.00,3131.133164,N,12117.999886,E,1,08,1.10,40.4,M,9.5,M,,*47
$GNGSA,A,3,07,20,13,08,25,04,23,02,,,,,2.11,1.10,1.80,1*05
$GNGSA,A,3,,,,,,,,,,,,,2.11,1.10,1.80,4*0F
$GPGSV,3,1,10,01,15,121,35,02,20,310,35,04,45,271,36,07
,70,209,36,0*69
$GPGSV,3,2,10,08,29,214,35,13,60,002,36,16,12,052,35,20,40,121,36,0*60
$GPGSV,3,3,10,23,44,046,36,25,88,025,36,0*67
$BDGSV,1,1,00,0*74

$GNRMC,001901.00,A,3131.135875,N,12117.999891,E,9.736,359.99,200720,,,A,V*00
$GNGGA,001901.00,3131.135875,N,12117.999891,E,1,08,1.10,40.4,M,9.5,M,,*4F
$GNGSA,A,3,07,20,13,08,25,04,23,02,,,,,2.11,1.10,1.80,1*05
$GNGSA,A,3,,,,,,,,,,,,,2.11,1.10,1.80,4*0F
$GPGSV,3,1,10,01,15,121,35,02,20,310,35,04,45,271,36,07,70,209,36,0*69
$GPGSV,3,2,10,08,29,214,35,13,60,002,36,16,12,052,35,20,40,121,36,0*60
$GPGSV,3,3,10,23,44,046,36,25,88,025,36,0*67
$BDGSV,1,1,00,0*74

$GNRMC,001902.00,A,3131.138580,N,12117.999896,E,9.711,0.02,200720,,,A,V*06
$GNGGA,001902.00,3131.138580,N,12117.999896,E,1,08,1.10,40.3,M,9.5,M,,*46
$GNGSA,A,3,07,20,13,08,25,04,23,02,,,,,2.11,1.10,1.80,1*05
$GNGSA,A,3,,,,,,,,,,,,,2.11,1.10,1.80,4*0F
$GPGSV,3,1,10,01,15,121,35,02,20,310,35,04,45,271,36,07,7
0,209,36,0*69
$GPGSV,3,2,10,08,29,214,35,13,60,002,36,16,12,052,35,20,40,121,36,0*60
$GPGSV,3,3,10,23,44,046,36,25,88,025,36,0*67
$BDGSV,1,1,00,0*74

$GNRMC,001903.00,A,3131.141291,N,12117.999903,E,9.724,0.05,200720,,,A,V*02
$GNGGA,001903.00,3131.141291,N,12117.999903,E,1,08,1.10,40.3,M,9.5,M,,*43
$GNGSA,A,3,07,20,13,08,25,04,23,02,,,,,2.11,1.10,1.80,1*05
$GNGSA,A,3,,,,,,,,,,,,,2.11,1.10,1.80,4*0F
$GPGSV,3,1,10,01,15,121,35,02,20,310,35,04,45,271,36,07,7
0,209,36,0*69
$GPGSV,3,2,10,08,29,214,35,13,60,002,36,16,12,052,35,20,40,121,36,0*60
$GPGSV,3,3,10,23,44,046,36,25,88,025,36,0*67
$BDGSV,1,1,00,0*74

$GNRMC,001904.00,A,3131.144000,N,12117.999901,E,9.723,0.03,200720,,,A,V*09
$GNGGA,001904.00,3131.144000,N,12117.999901,E,1,08,1.10,40.3,M,9.5,M,,*49
$GNGSA,A,3,07,20,13,08,25,04,23,02,,,,,2.11,1.10,1.80,1*05
$GNGSA,A,3,,,,,,,,,,,,,2.11,1.10,1.80,4*0F
$GPGSV,3,1,10,01,15,121,35,02,20,310,35,04,45,271,36,07,7
0,209,36,0*69
$GPGSV,3,2,10,08,29,214,35,13,60,002,36,16,12,052,35,20,40,121,36,0*60
$GPGSV,3,3,10,23,44,046,36,25,88,025,36,0*67
$BDGSV,1,1,00,0*74

$GNRMC,001905.00,A,3131.146710,N,12117.999902,E,9.713,0.03,200720,,,A,V*0C
$GNGGA,001905.00,3131.146710,N,12117.999902,E,1,08,1.10,40.3,M,9.5,M,,*4F
$GNGSA,A,3,07,20,13,08,25,04,23,02,,,,,2.11,1.10,1.80,1*05
$GNGSA,A,3,,,,,,,,,,,,,2.11,1.10,1.80,4*0F
$GPGSV,3,1,10,01,15,121,35,02,20,310,35,04,45,271,36,07,7
0,209,36,0*69
$GPGSV,3,2,10,08,29,214,35,13,60,002,36,16,12,052,34,20,40,121,36,0*61
$GPGSV,3,3,10,23,44,046,36,25,88,025,36,0*67
$BDGSV,1,1,00,0*74

<??????????????>

GPS HPregnss> E1 15 00 00 00 00 07 56 AF 7A 99 00 00 00 1C 3E 0B 16 9E 00 00 00 00 


$GNRMC,001906.00,A,3131.149425,N,12117.999896,E,9.726,359.97,200720,,,A,V*0D
$GNGGA,001906.00,3131.149425,N,12117.999896,E,1,08,1.10,40.3,M,9.5,M,,*4A
$GNGSA,A,3,07,20,13,08,25,04,23,02,,,,,2.11,1.10,1.80,1*05
$GNGSA,A,3,,,,,,,,,,,,,2.11,1.10,1.80,4*0F
$GPGSV,3,1,10,01,15,121,35,02,20,310,35,04,45,271,36,07
,70,209,36,0*69
$GPGSV,3,2,10,08,29,214,35,13,60,002,36,16,12,052,35,20,40,121,36,0*60
$GPGSV,3,3,10,23,44,046,36,25,88,025,36,0*67
$BDGSV,1,1,00,0*74

$GNRMC,001907.00,A,3131.152140,N,12117.999893,E,9.723,0.01,200720,,,A,V*00
$GNGGA,001907.00,3131.152140,N,12117.999893,E,1,08,1.10,40.3,M,9.5,M,,*42
$GNGSA,A,3,07,20,13,08,25,04,23,02,,,,,2.11,1.10,1.80,1*05
$GNGSA,A,3,,,,,,,,,,,,,2.11,1.10,1.80,4*0F
$GPGSV,3,1,10,01,15,121,35,02,20,310,35,04,45,271,36,07,7
0,209,36,0*69
$GPGSV,3,2,10,08,29,214,35,13,60,002,36,16,12,052,35,20,40,122,36,0*63
$GPGSV,3,3,10,23,44,046,36,25,88,025,36,0*67
$BDGSV,1,1,00,0*74

$GNRMC,001908.00,A,3131.154861,N,12117.999887,E,9.733,359.99,200720,,,A,V*09
$GNGGA,001908.00,3131.154861,N,12117.999887,E,1,08,1.10,40.3,M,9.5,M,,*44
$GNGSA,A,3,07,20,13,08,25,04,23,02,,,,,2.11,1.10,1.80,1*05
$GNGSA,A,3,,,,,,,,,,,,,2.11,1.10,1.80,4*0F
$GPGSV,3,1,10,01,15,121,35,02,20,310,35,04,45,271,36,07
,70,209,36,0*69
$GPGSV,3,2,10,08,29,214,35,13,60,002,36,16,12,052,35,20,40,122,36,0*63
$GPGSV,3,3,10,23,44,047,36,25,88,025,36,0*66
$BDGSV,1,1,00,0*74

$GNRMC,001909.00,A,3131.157578,N,12117.999881,E,9.719,359.99,200720,,,A,V*00
$GNGGA,001909.00,3131.157578,N,12117.999881,E,1,08,1.10,40.3,M,9.5,M,,*45
$GNGSA,A,3,07,20,13,08,25,04,23,02,,,,,2.11,1.10,1.80,1*05
$GNGSA,A,3,,,,,,,,,,,,,2.11,1.10,1.80,4*0F
$GPGSV,3,1,10,01,15,121,35,02,20,310,35,04,45,271,36,07
,70,209,36,0*69
$GPGSV,3,2,10,08,29,214,35,13,60,002,36,16,12,052,35,20,40,122,36,0*63
$GPGSV,3,3,10,23,44,047,36,25,88,025,36,0*66
$BDGSV,1,1,00,0*74

$GNRMC,001910.00,A,3131.160298,N,12117.999877,E,9.724,0.00,200720,,,A,V*0D
$GNGGA,001910.00,3131.160298,N,12117.999877,E,1,08,1.10,40.3,M,9.5,M,,*49
$GNGSA,A,3,07,20,13,08,25,04,23,02,,,,,2.11,1.10,1.80,1*05
$GNGSA,A,3,,,,,,,,,,,,,2.11,1.10,1.80,4*0F
$GPGSV,3,1,10,01,15,121,35,02,20,310,35,04,45,271,36,07,7
0,209,36,0*69
$GPGSV,3,2,10,08,29,214,35,13,60,002,36,16,12,052,35,20,40,122,36,0*63
$GPGSV,3,3,10,23,44,047,36,25,88,025,36,0*66
$BDGSV,1,1,00,0*74

$GNRMC,001911.00,A,3131.163009,N,12117.999883,E,9.706,0.07,200720,,,A,V*09
$GNGGA,001911.00,3131.163009,N,12117.999883,E,1,08,1.10,40.3,M,9.5,M,,*4A
$GNGSA,A,3,07,20,13,08,25,04,23,02,,,,,2.11,1.10,1.80,1*05
$GNGSA,A,3,,,,,,,,,,,,,2.11,1.10,1.80,4*0F
$GPGSV,3,1,10,01,15,121,35,02,20,310,35,04,45,271,36,07,7
0,209,36,0*69
$GPGSV,3,2,10,08,29,214,35,13,60,002,36,16,12,052,35,20,40,122,36,0*63
$GPGSV,3,3,10,23,44,047,36,25,88,025,36,0*66
$BDGSV,1,1,00,0*74

$GNRMC,001912.00,A,3131.165723,N,12117.999892,E,9.727,0.04,200720,,,A,V*03
$GNGGA,001912.00,3131.165723,N,12117.999892,E,1,08,1.10,40.3,M,9.5,M,,*40
$GNGSA,A,3,07,20,13,08,25,04,23,02,,,,,2.11,1.10,1.81,1*04
$GNGSA,A,3,,,,,,,,,,,,,2.11,1.10,1.81,4*0E
$GPGSV,3,1,10,01,15,121,35,02,20,310,35,04,45,271,36,07,7
0,209,36,0*69
$GPGSV,3,2,10,08,29,214,35,13,60,002,36,16,12,052,35,20,40,122,36,0*63
$GPGSV,3,3,10,23,44,047,36,25,88,025,36,0*66
$BDGSV,1,1,00,0*74

$GNRMC,001913.00,A,3131.168439,N,12117.999895,E,9.730,360.00,200720,,,A,V*07
$GNGGA,001913.00,3131.168439,N,12117.999895,E,1,08,1.10,40.4,M,9.5,M,,*44
$GNGSA,A,3,07,20,13,08,25,04,23,02,,,,,2.11,1.10,1.81,1*04
$GNGSA,A,3,,,,,,,,,,,,,2.11,1.10,1.81,4*0E
$GPGSV,3,1,10,01,15,121,35,02,20,310,35,04,45,271,36,07
,70,209,36,0*69
$GPGSV,3,2,10,08,29,214,35,13,60,002,36,16,12,052,35,20,40,122,36,0*63
$GPGSV,3,3,10,23,44,047,36,25,88,025,36,0*66
$BDGSV,1,1,00,0*74

$GNRMC,001914.00,A,3131.171153,N,12117.999904,E,9.718,0.12,200720,,,A,V*04
$GNGGA,001914.00,3131.171153,N,12117.999904,E,1,08,1.10,40.4,M,9.5,M,,*4B
$GNGSA,A,3,07,20,13,08,25,04,23,02,,,,,2.11,1.10,1.81,1*04
$GNGSA,A,3,,,,,,,,,,,,,2.11,1.10,1.81,4*0E
$GPGSV,3,1,10,01,14,121,35,02,20,310,35,04,45,271,36,07,7
0,209,36,0*68
$GPGSV,3,2,10,08,29,214,35,13,60,002,36,16,12,052,35,20,40,122,36,0*63
$GPGSV,3,3,10,23,44,047,36,25,88,025,36,0*66
$BDGSV,1,1,00,0*74

$GNRMC,001915.00,A,3131.173864,N,12117.999910,E,9.709,0.08,200720,,,A,V*04
$GNGGA,001915.00,3131.173864,N,12117.999910,E,1,08,1.10,40.4,M,9.5,M,,*40
$GNGSA,A,3,07,20,13,08,25,04,23,02,,,,,2.11,1.10,1.81,1*04
$GNGSA,A,3,,,,,,,,,,,,,2.11,1.10,1.81,4*0E
$GPGSV,3,1,10,01,14,121,35,02,20,310,35,04,45,271,36,07,7
0,209,36,0*68
$GPGSV,3,2,10,08,29,214,35,13,60,002,36,16,12,052,35,20,40,122,36,0*63
$GPGSV,3,3,10,23,44,047,36,25,88,025,36,0*66
$BDGSV,1,1,00,0*74

<????sim??????(SIM??:1)>
<????GSM????????(GSM:0)>
<????GPRS????????(GPRS:0)>
<????????????(SIGNAL:0)>
<????????????????(BER:0)>

<??????????????>

$GNRMC,001916.00,A,3131.176581,N,12117.999913,E,9.736,359.99,200720,,,A,V*0C
$GNGGA,001916.00,3131.176581,N,12117.999913,E,1,08,1.10,40.4,M,9.5,M,,*43
$GNGSA,A,3,07,20,13,08,25,04,23,02,,,,,2.11,1.10,1.81,1*04
$GNGSA,A,3,,,,,,,,,,,,,2.11,1.10,1.81,4*0E
$GPGSV,3,1,10,01,14,121,35,02,20,310,35,04,45,271,36,07
,70,209,36,0*68
$GPGSV,3,2,10,08,29,214,35,13,60,002,36,16,12,052,35,20,40,122,36,0*63
$GPGSV,3,3,10,23,44,047,36,25,88,025,36,0*66
$BDGSV,1,1,00,0*74

$GNRMC,001917.00,A,3131.179298,N,12117.999922,E,9.726,0.06,200720,,,A,V*07
$GNGGA,001917.00,3131.179298,N,12117.999922,E,1,08,1.10,40.4,M,9.5,M,,*40
$GNGSA,A,3,07,20,13,08,25,04,23,02,,,,,2.11,1.10,1.81,1*04
$GNGSA,A,3,,,,,,,,,,,,,2.11,1.10,1.81,4*0E
$GPGSV,3,1,10,01,14,121,35,02,20,310,35,04,45,271,36,07,7
0,209,36,0*68
$GPGSV,3,2,10,08,29,214,35,13,60,002,36,16,12,052,35,20,40,122,36,0*63
$GPGSV,3,3,10,23,44,047,36,25,88,025,36,0*66
$BDGSV,1,1,00,0*74

$GNRMC,001918.00,A,3131.182011,N,12117.999926,E,9.714,0.10,200720,,,A,V*0D
$GNGGA,001918.00,3131.182011,N,12117.999926,E,1,08,1.10,40.4,M,9.5,M,,*4C
$GNGSA,A,3,07,20,13,08,25,04,23,02,,,,,2.11,1.10,1.81,1*04
$GNGSA,A,3,,,,,,,,,,,,,2.11,1.10,1.81,4*0E
$GPGSV,3,1,10,01,14,121,35,02,20,310,35,04,45,271,36,07,7
0,209,36,0*68
$GPGSV,3,2,10,08,29,214,35,13,60,002,36,16,12,052,35,20,40,122,36,0*63
$GPGSV,3,3,10,23,44,047,36,25,88,025,36,0*66
$BDGSV,1,1,00,0*74

$GNRMC,001919.00,A,3131.184723,N,12117.999925,E,9.718,0.04,200720,,,A,V*06
$GNGGA,001919.00,3131.184723,N,12117.999925,E,1,08,1.10,40.4,M,9.5,M,,*4E
$GNGSA,A,3,07,20,13,08,25,04,23,02,,,,,2.11,1.10,1.81,1*04
$GNGSA,A,3,,,,,,,,,,,,,2.11,1.10,1.81,4*0E
$GPGSV,3,1,10,01,14,121,35,02,20,310,35,04,45,271,36,07,7
0,209,36,0*68
$GPGSV,3,2,10,08,29,214,35,13,60,002,36,16,12,052,35,20,40,122,36,0*63
$GPGSV,3,3,10,23,44,047,36,25,88,025,36,0*66
$BDGSV,1,1,00,0*74

$GNRMC,001920.00,A,3131.187433,N,12117.999924,E,9.721,0.07,200720,,,A,V*05
$GNGGA,001920.00,3131.187433,N,12117.999924,E,1,08,1.10,40.4,M,9.5,M,,*44
$GNGSA,A,3,07,20,13,08,25,04,23,02,,,,,2.11,1.10,1.81,1*04
$GNGSA,A,3,,,,,,,,,,,,,2.11,1.10,1.81,4*0E
$GPGSV,3,1,10,01,14,121,35,02,20,310,35,04,45,271,36,07,7
0,209,36,0*68
$GPGSV,3,2,10,08,29,214,35,13,60,002,36,16,12,052,35,20,40,122,36,0*63
$GPGSV,3,3,10,23,44,047,36,25,88,025,36,0*66
$BDGSV,1,1,00,0*74

$GNRMC,001921.00,A,3131.190144,N,12117.999917,E,9.715,0.02,200720,,,A,V*05
$GNGGA,001921.00,3131.190144,N,12117.999917,E,1,08,1.10,40.4,M,9.5,M,,*46
$GNGSA,A,3,07,20,13,08,25,04,23,02,,,,,2.11,1.10,1.81,1*04
$GNGSA,A,3,,,,,,,,,,,,,2.11,1.10,1.81,4*0E
$GPGSV,3,1,10,01,14,121,35,02,20,310,35,04,45,271,36,07,7
0,209,36,0*68
$GPGSV,3,2,10,08,29,214,35,13,60,002,36,16,12,052,35,20,40,122,36,0*63
$GPGSV,3,3,10,23,44,047,36,25,88,025,36,0*66
$BDGSV,1,1,00,0*74

$GNRMC,001922.00,A,3131.192856,N,12117.999913,E,9.725,0.03,200720,,,A,V*08
$GNGGA,001922.00,3131.192856,N,12117.999913,E,1,08,1.10,40.5,M,9.5,M,,*48
$GNGSA,A,3,07,20,13,08,25,04,23,02,,,,,2.11,1.10,1.81,1*04
$GNGSA,A,3,,,,,,,,,,,,,2.11,1.10,1.81,4*0E
$GPGSV,3,1,10,01,14,121,35,02,20,310,35,04,45,271,36,07,7
0,209,36,0*68
$GPGSV,3,2,10,08,29,214,35,13,60,002,36,16,12,052,35,20,40,122,36,0*63
$GPGSV,3,3,10,23,44,047,36,25,88,025,36,0*66
$BDGSV,1,1,00,0*74

$GNRMC,001923.00,A,3131.195563,N,12117.999911,E,9.717,0.02,200720,,,A,V*07
$GNGGA,001923.00,3131.195563,N,12117.999911,E,1,08,1.10,40.5,M,9.5,M,,*47
$GNGSA,A,3,07,20,13,08,25,04,23,02,,,,,2.11,1.10,1.81,1*04
$GNGSA,A,3,,,,,,,,,,,,,2.11,1.10,1.81,4*0E
$GPGSV,3,1,10,01,14,121,35,02,20,310,35,04,45,271,36,07,7
0,209,36,0*68
$GPGSV,3,2,10,08,29,214,35,13,60,002,36,16,12,052,35,20,40,122,36,0*63
$GPGSV,3,3,10,23,44,047,36,25,88,025,36,0*66
$BDGSV,1,1,00,0*74

$GNRMC,001924.00,A,3131.198275,N,12117.999907,E,9.724,359.99,200720,,,A,V*07
$GNGGA,001924.00,3131.198275,N,12117.999907,E,1,08,1.10,40.5,M,9.5,M,,*4A
$GNGSA,A,3,07,20,13,08,25,04,23,02,,,,,2.11,1.10,1.81,1*04
$GNGSA,A,3,,,,,,,,,,,,,2.11,1.10,1.81,4*0E
$GPGSV,3,1,10,01,14,121,35,02,20,310,35,04,45,271,36,07
,70,209,36,0*68
$GPGSV,3,2,10,08,29,214,35,13,60,002,36,16,12,052,35,20,40,122,36,0*63
$GPGSV,3,3,10,23,44,047,36,25,88,025,36,0*66
$BDGSV,1,1,00,0*74

$GNRMC,001925.00,A,3131.200984,N,12117.999911,E,9.724,0.04,200720,,,A,V*0D
$GNGGA,001925.00,3131.200984,N,12117.999911,E,1,08,1.10,40.5,M,9.5,M,,*4B
$GNGSA,A,3,07,20,13,08,25,04,23,02,,,,,2.11,1.10,1.81,1*04
$GNGSA,A,3,,,,,,,,,,,,,2.11,1.10,1.81,4*0E
$GPGSV,3,1,10,01,14,121,35,02,20,310,35,04,45,271,36,07,7
0,209,36,0*68
$GPGSV,3,2,10,08,29,214,35,13,60,002,36,16,12,052,35,20,39,122,36,0*6D
$GPGSV,3,3,10,23,44,047,36,25,88,025,36,0*66
$BDGSV,1,1,00,0*74

<??????????????>

$GNRMC,001926.00,A,3131.203684,N,12117.999916,E,9.713,0.06,200720,,,A,V*03
$GNGGA,001926.00,3131.203684,N,12117.999916,E,1,08,1.10,40.4,M,9.5,M,,*42
$GNGSA,A,3,07,20,13,08,25,04,23,02,,,,,2.11,1.10,1.81,1*04
$GNGSA,A,3,,,,,,,,,,,,,2.11,1.10,1.81,4*0E
$GPGSV,3,1,10,01,14,121,35,02,20,310,35,04,45,271,36,07,7
0,209,36,0*68
$GPGSV,3,2,10,08,29,214,35,13,60,002,36,16,12,052,35,20,39,122,36,0*6D
$GPGSV,3,3,10,23,43,047,36,25,88,025,36,0*61
$BDGSV,1,1,00,0*74

$GNRMC,001927.00,A,3131.206390,N,12117.999917,E,9.727,0.02,200720,,,A,V*05
$GNGGA,001927.00,3131.206390,N,12117.999917,E,1,08,1.10,40.4,M,9.5,M,,*47
$GNGSA,A,3,07,20,13,08,25,04,23,02,,,,,2.11,1.10,1.81,1*04
$GNGSA,A,3,,,,,,,,,,,,,2.11,1.10,1.81,4*0E
$GPGSV,3,1,10,01,14,121,35,02,20,310,35,04,45,271,36,07,7
0,209,36,0*68
$GPGSV,3,2,10,08,29,214,35,13,60,002,36,16,12,052,35,20,39,122,36,0*6D
$GPGSV,3,3,10,23,43,047,36,25,88,025,36,0*61
$BDGSV,1,1,00,0*74

$GNRMC,001928.00,A,3131.209091,N,12117.999918,E,9.723,359.96,200720,,,A,V*0E
$GNGGA,001928.00,3131.209091,N,12117.999918,E,1,08,1.10,40.4,M,9.5,M,,*4A
$GNGSA,A,3,07,20,13,08,25,04,23,02,,,,,2.11,1.10,1.81,1*04
$GNGSA,A,3,,,,,,,,,,,,,2.11,1.10,1.81,4*0E
$GPGSV,3,1,10,01,14,121,35,02,20,310,35,04,45,271,36,07
,70,209,36,0*68
$GPGSV,3,2,10,08,29,214,35,13,60,002,36,16,12,052,35,20,39,122,36,0*6D
$GPGSV,3,3,10,23,43,047,36,25,88,025,36,0*61
$BDGSV,1,1,00,0*74

$GNRMC,001929.00,A,3131.211791,N,12117.999924,E,9.722,0.03,200720,,,A,V*0C
$GNGGA,001929.00,3131.211791,N,12117.999924,E,1,08,1.10,40.4,M,9.5,M,,*4A
$GNGSA,A,3,07,20,13,08,25,04,23,02,,,,,2.11,1.10,1.81,1*04
$GNGSA,A,3,,,,,,,,,,,,,2.11,1.10,1.81,4*0E
$GPGSV,3,1,10,01,14,121,35,02,20,310,35,04,45,271,36,07,7
0,209,36,0*68
$GPGSV,3,2,10,08,29,214,35,13,60,002,36,16,12,052,35,20,39,122,36,0*6D
$GPGSV,3,3,10,23,43,047,36,25,88,025,36,0*61
$BDGSV,1,1,00,0*74

$GNRMC,001930.00,A,3131.214491,N,12117.999929,E,9.715,359.96,200720,,,A,V*08
$GNGGA,001930.00,3131.214491,N,12117.999929,E,1,08,1.10,40.4,M,9.5,M,,*49
$GNGSA,A,3,07,20,13,08,25,04,23,02,,,,,2.11,1.10,1.81,1*04
$GNGSA,A,3,,,,,,,,,,,,,2.11,1.10,1.81,4*0E
$GPGSV,3,1,10,01,14,121,35,02,20,310,35,04,45,271,36,07
,70,209,36,0*68
$GPGSV,3,2,10,08,29,214,35,13,60,002,36,16,12,052,35,20,39,122,36,0*6D
$GPGSV,3,3,10,23,43,047,36,25,88,025,36,0*61
$BDGSV,1,1,00,0*74

$GNRMC,001931.00,A,3131.217193,N,12117.999938,E,9.727,0.04,200720,,,A,V*08
$GNGGA,001931.00,3131.217193,N,12117.999938,E,1,08,1.10,40.4,M,9.5,M,,*4C
$GNGSA,A,3,07,20,13,08,25,04,23,02,,,,,2.11,1.10,1.81,1*04
$GNGSA,A,3,,,,,,,,,,,,,2.11,1.10,1.81,4*0E
$GPGSV,3,1,10,01,14,121,35,02,20,310,35,04,45,271,36,07,7
0,209,36,0*68
$GPGSV,3,2,10,08,29,214,35,13,60,002,36,16,12,052,35,20,39,122,36,0*6D
$GPGSV,3,3,10,23,43,047,36,25,88,025,36,0*61
$BDGSV,1,1,00,0*74

$GNRMC,001932.00,A,3131.219893,N,12117.999944,E,9.715,0.03,200720,,,A,V*01
$GNGGA,001932.00,3131.219893,N,12117.999944,E,1,08,1.10,40.3,M,9.5,M,,*44
$GNGSA,A,3,07,20,13,08,25,04,23,02,,,,,2.11,1.10,1.81,1*04
$GNGSA,A,3,,,,,,,,,,,,,2.11,1.10,1.81,4*0E
$GPGSV,3,1,10,01,14,121,35,02,20,310,35,04,45,271,36,07,7
0,209,36,0*68
$GPGSV,3,2,10,08,29,214,35,13,60,002,36,16,12,052,35,20,39,122,36,0*6D
$GPGSV,3,3,10,23,43,047,36,25,88,025,36,0*61
$BDGSV,1,1,00,0*74

$GNRMC,001933.00,A,3131.222591,N,12117.999954,E,9.722,0.07,200720,,,A,V*06
$GNGGA,001933.00,3131.222591,N,12117.999954,E,1,08,1.10,40.3,M,9.5,M,,*43
$GNGSA,A,3,07,20,13,08,25,04,23,02,,,,,2.11,1.10,1.81,1*04
$GNGSA,A,3,,,,,,,,,,,,,2.11,1.10,1.81,4*0E
$GPGSV,3,1,10,01,14,121,35,02,20,310,35,04,45,271,36,07,7
0,209,36,0*68
$GPGSV,3,2,10,08,29,214,35,13,60,002,36,16,12,052,35,20,39,122,36,0*6D
$GPGSV,3,3,10,23,43,047,36,25,88,025,36,0*61
$BDGSV,1,1,00,0*74

$GNRMC,001934.00,A,3131.225289,N,12117.999963,E,9.718,0.06,200720,,,A,V*04
$GNGGA,001934.00,3131.225289,N,12117.999963,E,1,08,1.10,40.3,M,9.5,M,,*49
$GNGSA,A,3,07,20,13,08,25,04,23,02,,,,,2.11,1.10,1.81,1*04
$GNGSA,A,3,,,,,,,,,,,,,2.11,1.10,1.81,4*0E
$GPGSV,3,1,10,01,14,121,35,02,20,310,35,04,45,271,36,07,7
0,209,36,0*68
$GPGSV,3,2,10,08,29,214,35,13,60,002,36,16,12,052,34,20,39,122,36,0*6C
$GPGSV,3,3,10,23,43,047,36,25,88,025,36,0*61
$BDGSV,1,1,00,0*74

$GNRMC,001935.00,A,3131.227991,N,12117.999962,E,9.727,359.93,200720,,,A,V*0B
$GNGGA,001935.00,3131.227991,N,12117.999962,E,1,08,1.10,40.2,M,9.5,M,,*48
$GNGSA,A,3,07,20,13,08,25,04,23,02,,,,,2.11,1.10,1.81,1*04
$GNGSA,A,3,,,,,,,,,,,,,2.11,1.10,1.81,4*0E
$GPGSV,3,1,10,01,14,121,35,02,20,310,35,04,45,271,36,07
,70,210,36,0*60
$GPGSV,3,2,10,08,29,214,35,13,60,002,36,16,12,052,35,20,39,122,36,0*6D
$GPGSV,3,3,10,23,43,047,36,25,88,025,36,0*61
$BDGSV,1,1,00,0*74

<????sim??????(SIM??:1)>
<????GSM????????(GSM:0)>
<????GPRS????????(GPRS:0)>
<????????????(SIGNAL:0)>
<????????????????(BER:0)>

<??????????????>

GPS HPregnss> E1 15 00 00 00 00 07 56 C4 26 54 00 00 00 1C 3E 0B 1A 86 00 00 00 00 


$GNRMC,001936.00,A,3131.230690,N,12117.999969,E,9.722,0.04,200720,,,A,V*0F
$GNGGA,001936.00,3131.230690,N,12117.999969,E,1,08,1.10,40.2,M,9.5,M,,*48
$GNGSA,A,3,07,20,13,08,25,04,23,02,,,,,2.11,1.10,1.81,1*04
$GNGSA,A,3,,,,,,,,,,,,,2.11,1.10,1.81,4*0E
$GPGSV,3,1,10,01,14,121,35,02,20,310,35,04,45,271,36,07,7
0,210,36,0*60
$GPGSV,3,2,10,08,29,214,35,13,60,002,36,16,12,052,35,20,39,122,36,0*6D
$GPGSV,3,3,10,23,43,047,36,25,88,025,36,0*61
$BDGSV,1,1,00,0*74

$GNRMC,001937.00,A,3131.233385,N,12117.999976,E,9.714,0.07,200720,,,A,V*04
$GNGGA,001937.00,3131.233385,N,12117.999976,E,1,08,1.10,40.2,M,9.5,M,,*45
$GNGSA,A,3,07,20,13,08,25,04,23,02,,,,,2.11,1.10,1.81,1*04
$GNGSA,A,3,,,,,,,,,,,,,2.11,1.10,1.81,4*0E
$GPGSV,3,1,10,01,14,121,35,02,20,310,35,04,45,271,36,07,7
0,210,36,0*60
$GPGSV,3,2,10,08,29,214,35,13,60,003,36,16,12,052,35,20,39,122,36,0*6C
$GPGSV,3,3,10,23,43,047,36,25,88,025,36,0*61
$BDGSV,1,1,00,0*74

$GNRMC,001938.00,A,3131.236085,N,12117.999982,E,9.721,0.00,200720,,,A,V*07
$GNGGA,001938.00,3131.236085,N,12117.999982,E,1,08,1.10,40.2,M,9.5,M,,*47
$GNGSA,A,3,07,20,13,08,25,04,23,02,,,,,2.11,1.10,1.81,1*04
$GNGSA,A,3,,,,,,,,,,,,,2.11,1.10,1.81,4*0E
$GPGSV,3,1,10,01,14,121,35,02,20,310,35,04,45,271,36,07,7
0,210,36,0*60
$GPGSV,3,2,10,08,29,214,35,13,60,003,36,16,12,052,35,20,39,122,36,0*6C
$GPGSV,3,3,10,23,43,047,36,25,88,025,36,0*61
$BDGSV,1,1,00,0*74

$GNRMC,001939.00,A,3131.238789,N,12117.999985,E,9.731,359.94,200720,,,A,V*07
$GNGGA,001939.00,3131.238789,N,12117.999985,E,1,08,1.10,40.2,M,9.5,M,,*44
$GNGSA,A,3,07,20,13,08,25,04,23,02,,,,,2.11,1.10,1.81,1*04
$GNGSA,A,3,,,,,,,,,,,,,2.11,1.10,1.81,4*0E
$GPGSV,3,1,10,01,14,121,35,02,20,310,35,04,45,271,36,07
,70,210,36,0*60
$GPGSV,3,2,10,08,29,214,35,13,60,003,36,16,12,052,35,20,39,122,36,0*6C
$GPGSV,3,3,10,23,43,047,36,25,88,025,36,0*61
$BDGSV,1,1,00,0*74

$GNRMC,001940.00,A,3131.241488,N,12117.999990,E,9.717,0.06,200720,,,A,V*01
$GNGGA,001940.00,3131.241488,N,12117.999990,E,1,08,1.10,40.2,M,9.5,M,,*42
$GNGSA,A,3,07,20,13,08,25,04,23,02,,,,,2.11,1.10,1.81,1*04
$GNGSA,A,3,,,,,,,,,,,,,2.11,1.10,1.81,4*0E
$GPGSV,3,1,10,01,14,121,35,02,20,310,35,04,45,271,36,07,7
0,210,36,0*60
$GPGSV,3,2,10,08,29,214,35,13,60,003,36,16,12,052,35,20,39,122,36,0*6C
$GPGSV,3,3,10,23,43,047,36,25,88,025,36,0*61
$BDGSV,1,1,00,0*74

$GNRMC,001941.00,A,3131.244186,N,12117.999985,E,9.714,359.96,200720,,,A,V*0F
$GNGGA,001941.00,3131.244186,N,12117.999985,E,1,08,1.10,40.1,M,9.5,M,,*4A
$GNGSA,A,3,07,20,13,08,25,04,23,02,,,,,2.11,1.10,1.81,1*04
$GNGSA,A,3,,,,,,,,,,,,,2.11,1.10,1.81,4*0E
$GPGSV,3,1,10,01,14,121,35,02,20,310,35,04,45,271,36,07
,70,210,36,0*60
$GPGSV,3,2,10,08,29,214,35,13,60,003,36,16,12,052,35,20,39,122,36,0*6C
$GPGSV,3,3,10,23,43,047,36,25,88,025,36,0*61
$BDGSV,1,1,00,0*74

$GNRMC,001942.00,A,3131.246889,N,12117.999984,E,9.723,359.97,200720,,,A,V*0C
$GNGGA,001942.00,3131.246889,N,12117.999984,E,1,08,1.10,40.1,M,9.5,M,,*4C
$GNGSA,A,3,07,20,13,08,25,04,23,02,,,,,2.11,1.10,1.81,1*04
$GNGSA,A,3,,,,,,,,,,,,,2.11,1.10,1.81,4*0E
$GPGSV,3,1,10,01,14,121,35,02,20,310,35,04,45,271,36,07
,70,210,36,0*60
$GPGSV,3,2,10,08,29,214,35,13,60,003,36,16,12,052,35,20,39,122,36,0*6C
$GPGSV,3,3,10,23,43,047,36,25,88,025,36,0*61
$BDGSV,1,1,00,0*74

$GNRMC,001943.00,A,3131.249590,N,12117.999990,E,9.717,0.02,200720,,,A,V*06
$GNGGA,001943.00,3131.249590,N,12117.999990,E,1,08,1.10,40.1,M,9.5,M,,*42
$GNGSA,A,3,07,20,13,08,25,04,23,02,,,,,2.11,1.10,1.81,1*04
$GNGSA,A,3,,,,,,,,,,,,,2.11,1.10,1.81,4*0E
$GPGSV,3,1,10,01,14,121,35,02,20,310,35,04,45,271,36,07,7
0,210,36,0*60
$GPGSV,3,2,10,08,29,214,35,13,60,003,36,16,12,052,35,20,39,122,36,0*6C
$GPGSV,3,3,10,23,43,047,36,25,88,025,36,0*61
$BDGSV,1,1,00,0*74

$GNRMC,001944.00,A,3131.252297,N,12117.999991,E,9.726,0.00,200720,,,A,V*0A
$GNGGA,001944.00,3131.252297,N,12117.999991,E,1,08,1.10,40.1,M,9.5,M,,*4E
$GNGSA,A,3,07,20,13,08,25,04,23,02,,,,,2.11,1.10,1.81,1*04
$GNGSA,A,3,,,,,,,,,,,,,2.11,1.10,1.81,4*0E
$GPGSV,3,1,10,01,14,121,35,02,20,310,35,04,45,271,36,07,7
0,210,36,0*60
$GPGSV,3,2,10,08,29,214,35,13,60,003,36,16,12,052,35,20,39,122,36,0*6C
$GPGSV,3,3,10,23,43,047,36,25,88,025,36,0*61
$BDGSV,1,1,00,0*74

$GNRMC,001945.00,A,3131.255003,N,12117.999996,E,9.718,0.07,200720,,,A,V*0E
$GNGGA,001945.00,3131.255003,N,12117.999996,E,1,08,1.10,40.1,M,9.5,M,,*40
$GNGSA,A,3,07,20,13,08,25,04,23,02,,,,,2.11,1.10,1.81,1*04
$GNGSA,A,3,,,,,,,,,,,,,2.11,1.10,1.81,4*0E
$GPGSV,3,1,10,01,14,121,35,02,20,310,35,04,45,271,36,07,7
0,210,36,0*60
$GPGSV,3,2,10,08,29,214,35,13,60,003,36,16,12,052,35,20,39,122,36,0*6C
$GPGSV,3,3,10,23,43,047,36,25,87,024,36,0*6F
$BDGSV,1,1,00,0*74

<??????????????>

$GNRMC,001946.00,A,3131.257706,N,12117.999996,E,9.718,0.06,200720,,,A,V*0C
$GNGGA,001946.00,3131.257706,N,12117.999996,E,1,08,1.10,40.1,M,9.5,M,,*43
$GNGSA,A,3,07,20,13,08,25,04,23,02,,,,,2.11,1.10,1.81,1*04
$GNGSA,A,3,,,,,,,,,,,,,2.11,1.10,1.81,4*0E
$GPGSV,3,1,10,01,14,121,35,02,20,310,35,04,45,271,36,07,7
0,210,36,0*60
$GPGSV,3,2,10,08,29,214,35,13,60,003,36,16,12,052,35,20,39,122,36,0*6C
$GPGSV,3,3,10,23,43,047,36,25,87,024,36,0*6F
$BDGSV,1,1,00,0*74

$GNRMC,001947.00,A,3131.260411,N,12117.999996,E,9.720,0.05,200720,,,A,V*04
$GNGGA,001947.00,3131.260411,N,12117.999996,E,1,08,1.10,40.1,M,9.5,M,,*43
$GNGSA,A,3,07,20,13,08,25,04,23,02,,,,,2.11,1.10,1.81,1*04
$GNGSA,A,3,,,,,,,,,,,,,2.11,1.10,1.81,4*0E
$GPGSV,3,1,10,01,14,121,35,02,20,310,35,04,45,271,36,07,7
0,210,36,0*60
$GPGSV,3,2,10,08,29,214,35,13,60,003,36,16,12,052,35,20,39,122,36,0*6C
$GPGSV,3,3,10,23,43,047,36,25,87,024,36,0*6F
$BDGSV,1,1,00,0*74

$GNRMC,001948.00,A,3131.263121,N,12117.999989,E,9.720,360.00,200720,,,A,V*00
$GNGGA,001948.00,3131.263121,N,12117.999989,E,1,08,1.10,40.1,M,9.5,M,,*47
$GNGSA,A,3,07,20,13,08,25,04,23,02,,,,,2.11,1.10,1.81,1*04
$GNGSA,A,3,,,,,,,,,,,,,2.11,1.10,1.81,4*0E
$GPGSV,3,1,10,01,14,121,35,02,20,310,35,04,45,271,36,07
,70,210,36,0*60
$GPGSV,3,2,10,08,29,214,35,13,60,003,36,16,12,052,35,20,39,122,36,0*6C
$GPGSV,3,3,10,23,43,047,36,25,87,024,36,0*6F
$BDGSV,1,1,00,0*74

$GNRMC,001949.00,A,3131.265834,N,12117.999981,E,9.728,0.00,200720,,,A,V*0F
$GNGGA,001949.00,3131.265834,N,12117.999981,E,1,08,1.10,40.1,M,9.5,M,,*45
$GNGSA,A,3,07,20,13,08,25,04,23,02,,,,,2.11,1.10,1.81,1*04
$GNGSA,A,3,,,,,,,,,,,,,2.11,1.10,1.81,4*0E
$GPGSV,3,1,10,01,14,121,35,02,20,310,35,04,45,271,36,07,7
0,210,36,0*60
$GPGSV,3,2,10,08,29,214,35,13,60,003,36,16,12,052,35,20,39,122,36,0*6C
$GPGSV,3,3,10,23,43,047,36,25,87,024,36,0*6F
$BDGSV,1,1,00,0*74

$GNRMC,001950.00,A,3131.268543,N,12117.999975,E,9.712,0.05,200720,,,A,V*00
$GNGGA,001950.00,3131.268543,N,12117.999975,E,1,08,1.10,40.1,M,9.5,M,,*46
$GNGSA,A,3,07,20,13,08,25,04,23,02,,,,,2.11,1.10,1.81,1*04
$GNGSA,A,3,,,,,,,,,,,,,2.11,1.10,1.81,4*0E
$GPGSV,3,1,10,01,14,121,35,02,20,310,35,04,45,271,36,07,7
0,210,36,0*60
$GPGSV,3,2,10,08,29,214,35,13,60,003,36,16,12,052,35,20,39,122,36,0*6C
$GPGSV,3,3,10,23,43,047,36,25,87,024,36,0*6F
$BDGSV,1,1,00,0*74

$GNRMC,001951.00,A,3131.271255,N,12117.999973,E,9.723,0.11,200720,,,A,V*08
$GNGGA,001951.00,3131.271255,N,12117.999973,E,1,08,1.10,40.2,M,9.5,M,,*4A
$GNGSA,A,3,07,20,13,08,25,04,23,02,,,,,2.11,1.10,1.81,1*04
$GNGSA,A,3,,,,,,,,,,,,,2.11,1.10,1.81,4*0E
$GPGSV,3,1,10,01,14,121,35,02,20,310,35,04,45,271,36,07,7
0,210,36,0*60
$GPGSV,3,2,10,08,29,214,35,13,60,003,36,16,12,052,35,20,39,122,36,0*6C
$GPGSV,3,3,10,23,43,047,36,25,87,024,36,0*6F
$BDGSV,1,1,00,0*74

$GNRMC,001952.00,A,3131.273963,N,12117.999967,E,9.721,359.99,200720,,,A,V*0F
$GNGGA,001952.00,3131.273963,N,12117.999967,E,1,08,1.10,40.2,M,9.5,M,,*40
$GNGSA,A,3,07,20,13,08,25,04,23,02,,,,,2.11,1.10,1.81,1*04
$GNGSA,A,3,,,,,,,,,,,,,2.11,1.10,1.81,4*0E
$GPGSV,3,1,10,01,14,121,35,02,20,310,35,04,45,270,36,07
,70,210,36,0*61
$GPGSV,3,2,10,08,29,214,35,13,60,003,36,16,12,052,35,20,39,122,36,0*6C
$GPGSV,3,3,10,23,43,047,36,25,87,024,36,0*6F
$BDGSV,1,1,00,0*74

$GNRMC,001953.00,A,3131.276673,N,12117.999963,E,9.729,0.03,200720,,,A,V*05
$GNGGA,001953.00,3131.276673,N,12117.999963,E,1,08,1.10,40.2,M,9.5,M,,*4E
$GNGSA,A,3,07,20,13,08,25,04,23,02,,,,,2.11,1.10,1.81,1*04
$GNGSA,A,3,,,,,,,,,,,,,2.11,1.10,1.81,4*0E
$GPGSV,3,1,10,01,14,121,35,02,20,310,35,04,45,270,36,07,7
0,210,36,0*61
$GPGSV,3,2,10,08,29,214,35,13,60,003,36,16,12,052,35,20,39,122,36,0*6C
$GPGSV,3,3,10,23,43,047,36,25,87,024,36,0*6F
$BDGSV,1,1,00,0*74

$GNRMC,001954.00,A,3131.279374,N,12117.999957,E,9.713,0.03,200720,,,A,V*01
$GNGGA,001954.00,3131.279374,N,12117.999957,E,1,08,1.10,40.2,M,9.5,M,,*43
$GNGSA,A,3,07,20,13,08,25,04,23,02,,,,,2.11,1.10,1.81,1*04
$GNGSA,A,3,,,,,,,,,,,,,2.11,1.10,1.81,4*0E
$GPGSV,3,1,10,01,14,121,35,02,20,310,35,04,45,270,36,07,7
0,210,36,0*61
$GPGSV,3,2,10,08,29,214,35,13,60,003,36,16,12,052,35,20,39,122,36,0*6C
$GPGSV,3,3,10,23,43,047,36,25,87,024,36,0*6F
$BDGSV,1,1,00,0*74

$GNRMC,001955.00,A,3131.282081,N,12117.999960,E,9.721,0.08,200720,,,A,V*03
$GNGGA,001955.00,3131.282081,N,12117.999960,E,1,08,1.10,40.3,M,9.5,M,,*4A
$GNGSA,A,3,07,20,13,08,25,04,23,02,,,,,2.11,1.10,1.81,1*04
$GNGSA,A,3,,,,,,,,,,,,,2.11,1.10,1.81,4*0E
$GPGSV,3,1,10,01,14,121,35,02,20,310,35,04,45,270,36,07,7
0,210,36,0*61
$GPGSV,3,2,10,08,29,214,35,13,60,003,36,16,12,052,35,20,39,122,36,0*6C
$GPGSV,3,3,10,23,43,047,36,25,87,024,36,0*6F
$BDGSV,1,1,00,0*74

<????sim??????(SIM??:1)>
<????GSM????????(GSM:0)>
<????GPRS????????(GPRS:0)>
<????????????(SIGNAL:0)>
<????????????????(BER:0)>

<??????????????>

$GNRMC,001956.00,A,3131.284790,N,12117.999963,E,9.720,0.03,200720,,,A,V*08
$GNGGA,001956.00,3131.284790,N,12117.999963,E,1,08,1.10,40.3,M,9.5,M,,*4B
$GNGSA,A,3,07,20,13,08,25,04,23,02,,,,,2.11,1.10,1.81,1*04
$GNGSA,A,3,,,,,,,,,,,,,2.11,1.10,1.81,4*0E
$GPGSV,3,1,10,01,14,121,35,02,20,310,35,04,45,270,35,07,7
0,210,36,0*62
$GPGSV,3,2,10,08,29,214,35,13,60,003,36,16,12,052,35,20,39,122,36,0*6C
$GPGSV,3,3,10,23,43,047,36,25,87,024,36,0*6F
$BDGSV,1,1,00,0*74

$GNRMC,001957.00,A,3131.287501,N,12117.999956,E,9.717,359.99,200720,,,A,V*0E
$GNGGA,001957.00,3131.287501,N,12117.999956,E,1,08,1.10,40.3,M,9.5,M,,*45
$GNGSA,A,3,07,20,13,08,25,04,23,02,,,,,2.11,1.10,1.81,1*04
$GNGSA,A,3,,,,,,,,,,,,,2.11,1.10,1.81,4*0E
$GPGSV,3,1,10,01,14,121,35,02,20,310,35,04,45,270,36,07
,70,210,36,0*61
$GPGSV,3,2,10,08,29,214,35,13,60,003,36,16,12,052,35,20,39,122,36,0*6C
$GPGSV,3,3,10,23,43,047,36,25,87,024,36,0*6F
$BDGSV,1,1,00,0*74

$GNRMC,001958.00,A,3131.290208,N,12117.999953,E,9.717,0.09,200720,,,A,V*0A
$GNGGA,001958.00,3131.290208,N,12117.999953,E,1,08,1.10,40.4,M,9.5,M,,*40
$GNGSA,A,3,07,20,13,08,25,04,23,02,,,,,2.11,1.10,1.81,1*04
$GNGSA,A,3,,,,,,,,,,,,,2.11,1.10,1.81,4*0E
$GPGSV,3,1,10,01,14,121,35,02,20,310,35,04,45,270,36,07,7
0,210,36,0*61
$GPGSV,3,2,10,08,29,214,35,13,60,003,36,16,12,052,35,20,39,122,36,0*6C
$GPGSV,3,3,10,23,43,047,36,25,87,024,36,0*6F
$BDGSV,1,1,00,0*74

$GNRMC,001959.00,A,3131.292916,N,12117.999948,E,9.729,359.99,200720,,,A,V*0C
$GNGGA,001959.00,3131.292916,N,12117.999948,E,1,08,1.10,40.4,M,9.5,M,,*4D
$GNGSA,A,3,07,20,13,08,25,04,23,02,,,,,2.12,1.10,1.81,1*07
$GNGSA,A,3,,,,,,,,,,,,,2.12,1.10,1.81,4*0D
$GPGSV,3,1,10,01,14,121,35,02,20,310,35,04,45,270,36,07
,70,210,36,0*61
$GPGSV,3,2,10,08,29,214,35,13,60,003,36,16,12,052,35,20,39,122,36,0*6C
$GPGSV,3,3,10,23,43,047,36,25,87,024,36,0*6F
$BDGSV,1,1,00,0*74

$GNRMC,002000.00,A,3131.295621,N,12117.999950,E,9.719,0.06,200720,,,A,V*05
$GNGGA,002000.00,3131.295621,N,12117.999950,E,1,08,1.10,40.4,M,9.5,M,,*4E
$GNGSA,A,3,07,20,13,08,25,04,23,02,,,,,2.12,1.10,1.81,1*07
$GNGSA,A,3,,,,,,,,,,,,,2.12,1.10,1.81,4*0D
$GPGSV,3,1,10,01,14,121,35,02,20,310,35,04,45,270,36,07,7
0,210,36,0*61
$GPGSV,3,2,10,08,29,214,35,13,60,003,36,16,12,052,35,20,39,122,36,0*6C
$GPGSV,3,3,10,23,43,047,36,25,87,024,36,0*6F
$BDGSV,1,1,00,0*74

$GNRMC,002001.00,A,3131.298323,N,12117.999958,E,9.713,0.08,200720,,,A,V*02
$GNGGA,002001.00,3131.298323,N,12117.999958,E,1,08,1.10,40.4,M,9.5,M,,*4D
$GNGSA,A,3,07,20,13,08,25,04,23,02,,,,,2.12,1.10,1.81,1*07
$GNGSA,A,3,,,,,,,,,,,,,2.12,1.10,1.81,4*0D
$GPGSV,3,1,10,01,14,121,35,02,20,310,35,04,45,270,36,07,7
0,210,36,0*61
$GPGSV,3,2,10,08,29,214,35,13,60,003,36,16,12,052,34,20,39,122,36,0*6D
$GPGSV,3,3,10,23,43,047,36,25,87,024,36,0*6F
$BDGSV,1,1,00,0*74

$GNRMC,002002.00,A,3131.301030,N,12117.999970,E,9.736,0.05,200720,,,A,V*01
$GNGGA,002002.00,3131.301030,N,12117.999970,E,1,08,1.10,40.4,M,9.5,M,,*44
$GNGSA,A,3,07,20,13,08,25,04,23,02,,,,,2.12,1.10,1.81,1*07
$GNGSA,A,3,,,,,,,,,,,,,2.12,1.10,1.81,4*0D
$GPGSV,3,1,10,01,14,121,35,02,20,310,35,04,45,270,36,07,7
0,210,36,0*61
$GPGSV,3,2,10,08,29,214,35,13,60,003,36,16,12,052,35,20,39,122,36,0*6C
$GPGSV,3,3,10,23,43,047,36,25,87,024,36,0*6F
$BDGSV,1,1,00,0*74

$GNRMC,002003.00,A,3131.303730,N,12117.999974,E,9.716,0.03,200720,,,A,V*05
$GNGGA,002003.00,3131.303730,N,12117.999974,E,1,08,1.10,40.4,M,9.5,M,,*44
$GNGSA,A,3,07,20,13,08,25,04,23,02,,,,,2.12,1.10,1.81,1*07
$GNGSA,A,3,,,,,,,,,,,,,2.12,1.10,1.81,4*0D
$GPGSV,3,1,10,01,14,121,35,02,20,310,35,04,45,270,36,07,7
0,210,36,0*61
$GPGSV,3,2,10,08,29,214,35,13,60,003,36,16,12,052,35,20,39,122,36,0*6C
$GPGSV,3,3,10,23,43,047,36,25,87,024,36,0*6F
$BDGSV,1,1,00,0*74

$GNRMC,002004.00,A,3131.306427,N,12117.999977,E,9.715,0.07,200720,,,A,V*06
$GNGGA,002004.00,3131.306427,N,12117.999977,E,1,08,1.10,40.4,M,9.5,M,,*40
$GNGSA,A,3,07,20,13,08,25,04,23,02,,,,,2.12,1.10,1.81,1*07
$GNGSA,A,3,,,,,,,,,,,,,2.12,1.10,1.81,4*0D
$GPGSV,3,1,10,01,14,121,35,02,20,310,35,04,45,270,36,07,7
0,210,36,0*61
$GPGSV,3,2,10,08,29,214,35,13,60,003,36,16,12,052,35,20,39,122,36,0*6C
$GPGSV,3,3,10,23,43,047,36,25,87,024,36,0*6F
$BDGSV,1,1,00,0*74

$GNRMC,002005.00,A,3131.309123,N,12117.999969,E,9.717,359.99,200720,,,A,V*0C
$GNGGA,002005.00,3131.309123,N,12117.999969,E,1,08,1.10,40.5,M,9.5,M,,*41
$GNGSA,A,3,07,20,13,08,25,04,23,02,,,,,2.12,1.10,1.81,1*07
$GNGSA,A,3,,,,,,,,,,,,,2.12,1.10,1.81,4*0D
$GPGSV,3,1,10,01,14,121,35,02,20,310,35,04,45,270,36,07
,70,210,36,0*61
$GPGSV,3,2,10,08,29,214,35,13,60,003,36,16,12,052,35,20,39,122,36,0*6C
$GPGSV,3,3,10,23,43,047,36,25,87,024,36,0*6F
$BDGSV,1,1,00,0*74

<??????????????>

GPS HPregnss> E1 15 00 00 00 00 07 56 D8 C8 5C 00 00 00 1C 3E 0B 1A FB 00 00 00 00 


$GNRMC,002006.00,A,3131.311821,N,12117.999967,E,9.723,0.03,200720,,,A,V*08
$GNGGA,002006.00,3131.311821,N,12117.999967,E,1,08,1.10,40.5,M,9.5,M,,*4E
$GNGSA,A,3,07,20,13,08,25,04,23,02,,,,,2.12,1.10,1.81,1*07
$GNGSA,A,3,,,,,,,,,,,,,2.12,1.10,1.81,4*0D
$GPGSV,3,1,10,01,14,121,35,02,20,310,35,04,45,270,36,07,7
0,210,36,0*61
$GPGSV,3,2,10,08,29,214,35,13,60,003,36,16,12,052,35,20,39,122,36,0*6C
$GPGSV,3,3,10,23,43,047,36,25,87,024,36,0*6F
$BDGSV,1,1,00,0*74

$GNRMC,002007.00,A,3131.314521,N,12117.999962,E,9.721,0.02,200720,,,A,V*07
$GNGGA,002007.00,3131.314521,N,12117.999962,E,1,08,1.10,40.5,M,9.5,M,,*42
$GNGSA,A,3,07,20,13,08,25,04,23,02,,,,,2.12,1.10,1.81,1*07
$GNGSA,A,3,,,,,,,,,,,,,2.12,1.10,1.81,4*0D
$GPGSV,3,1,10,01,14,121,35,02,20,310,35,04,45,270,36,07,7
0,210,36,0*61
$GPGSV,3,2,10,08,29,214,35,13,60,003,36,16,12,052,35,20,39,122,36,0*6C
$GPGSV,3,3,10,23,43,047,36,25,87,024,36,0*6F
$BDGSV,1,1,00,0*74

$GNRMC,002008.00,A,3131.317227,N,12117.999955,E,9.729,0.04,200720,,,A,V*00
$GNGGA,002008.00,3131.317227,N,12117.999955,E,1,08,1.10,40.5,M,9.5,M,,*4B
$GNGSA,A,3,07,20,13,08,25,04,23,02,,,,,2.12,1.10,1.81,1*07
$GNGSA,A,3,,,,,,,,,,,,,2.12,1.10,1.81,4*0D
$GPGSV,3,1,10,01,14,121,35,02,20,310,35,04,45,270,36,07,7
0,210,36,0*61
$GPGSV,3,2,10,08,29,214,35,13,60,003,36,16,12,052,35,20,39,122,36,0*6C
$GPGSV,3,3,10,23,43,047,36,25,87,024,36,0*6F
$BDGSV,1,1,00,0*74

$GNRMC,002009.00,A,3131.319927,N,12117.999948,E,9.707,0.04,200720,,,A,V*04
$GNGGA,002009.00,3131.319927,N,12117.999948,E,1,08,1.10,40.5,M,9.5,M,,*43
$GNGSA,A,3,07,20,13,08,25,04,23,02,,,,,2.12,1.10,1.81,1*07
$GNGSA,A,3,,,,,,,,,,,,,2.12,1.10,1.81,4*0D
$GPGSV,3,1,10,01,14,121,35,02,21,310,35,04,45,270,36,07,7
0,210,36,0*60
$GPGSV,3,2,10,08,29,214,35,13,60,003,36,16,12,052,35,20,39,122,36,0*6C
$GPGSV,3,3,10,23,43,047,36,25,87,024,36,0*6F
$BDGSV,1,1,00,0*74

$GNRMC,002010.00,A,3131.322624,N,12117.999943,E,9.715,0.02,200720,,,A,V*06
$GNGGA,002010.00,3131.322624,N,12117.999943,E,1,08,1.10,40.5,M,9.5,M,,*44
$GNGSA,A,3,07,20,13,08,25,04,23,02,,,,,2.12,1.10,1.81,1*07
$GNGSA,A,3,,,,,,,,,,,,,2.12,1.10,1.81,4*0D
$GPGSV,3,1,10,01,14,121,35,02,21,310,35,04,45,270,36,07,7
0,210,36,0*60
$GPGSV,3,2,10,08,29,214,35,13,60,003,36,16,12,052,35,20,39,122,36,0*6C
$GPGSV,3,3,10,23,43,047,36,25,87,024,36,0*6F
$BDGSV,1,1,00,0*74

$GNRMC,002011.00,A,3131.325328,N,12117.999941,E,9.726,360.00,200720,,,A,V*0C
$GNGGA,002011.00,3131.325328,N,12117.999941,E,1,08,1.10,40.5,M,9.5,M,,*49
$GNGSA,A,3,07,20,13,08,25,04,23,02,,,,,2.12,1.10,1.81,1*07
$GNGSA,A,3,,,,,,,,,,,,,2.12,1.10,1.81,4*0D
$GPGSV,3,1,10,01,14,121,35,02,21,310,35,04,45,270,36,07
,70,210,36,0*60
$GPGSV,3,2,10,08,29,214,35,13,60,003,36,16,12,052,35,20,39,122,36,0*6C
$GPGSV,3,3,10,23,43,047,36,25,87,024,36,0*6F
$BDGSV,1,1,00,0*74

$GNRMC,002012.00,A,3131.328027,N,12117.999936,E,9.723,359.96,200720,,,A,V*0E
$GNGGA,002012.00,3131.328027,N,12117.999936,E,1,08,1.10,40.5,M,9.5,M,,*4B
$GNGSA,A,3,07,20,13,08,25,04,23,02,,,,,2.12,1.10,1.81,1*07
$GNGSA,A,3,,,,,,,,,,,,,2.12,1.10,1.81,4*0D
$GPGSV,3,1,10,01,14,121,35,02,21,310,35,04,45,270,36,07
,70,210,36,0*60
$GPGSV,3,2,10,08,29,214,35,13,60,003,36,16,12,052,35,20,39,122,36,0*6C
$GPGSV,3,3,10,23,43,047,36,25,87,024,36,0*6F
$BDGSV,1,1,00,0*74

$GNRMC,002013.00,A,3131.330724,N,12117.999937,E,9.721,0.02,200720,,,A,V*03
$GNGGA,002013.00,3131.330724,N,12117.999937,E,1,08,1.10,40.5,M,9.5,M,,*46
$GNGSA,A,3,07,20,13,08,25,04,23,02,,,,,2.12,1.10,1.81,1*07
$GNGSA,A,3,,,,,,,,,,,,,2.12,1.10,1.81,4*0D
$GPGSV,3,1,10,01,14,121,35,02,21,310,35,04,45,270,36,07,7
0,210,36,0*60
$GPGSV,3,2,10,08,29,214,35,13,60,003,36,16,12,052,35,20,39,122,36,0*6C
$GPGSV,3,3,10,23,43,047,36,25,87,024,36,0*6F
$BDGSV,1,1,00,0*74

$GNRMC,002014.00,A,3131.333420,N,12117.999933,E,9.719,360.00,200720,,,A,V*08
$GNGGA,002014.00,3131.333420,N,12117.999933,E,1,08,1.10,40.5,M,9.5,M,,*41
$GNGSA,A,3,07,20,13,08,25,04,23,02,,,,,2.12,1.10,1.81,1*07
$GNGSA,A,3,,,,,,,,,,,,,2.12,1.10,1.81,4*0D
$GPGSV,3,1,10,01,14,121,35,02,21,310,35,04,45,270,35,07
,70,210,36,0*63
$GPGSV,3,2,10,08,29,214,35,13,60,003,36,16,12,052,35,20,39,122,36,0*6C
$GPGSV,3,3,10,23,43,047,36,25,87,024,36,0*6F
$BDGSV,1,1,00,0*74

$GNRMC,002015.00,A,3131.336118,N,12117.999928,E,9.724,0.02,200720,,,A,V*01
$GNGGA,002015.00,3131.336118,N,12117.999928,E,1,08,1.10,40.6,M,9.5,M,,*42
$GNGSA,A,3,07,20,13,08,25,04,23,02,,,,,2.12,1.10,1.81,1*07
$GNGSA,A,3,,,,,,,,,,,,,2.12,1.10,1.81,4*0D
$GPGSV,3,1,10,01,14,121,35,02,21,310,35,04,45,270,36,07,7
0,210,36,0*60
$GPGSV,3,2,10,08,29,214,35,13,60,003,36,16,12,051,35,20,39,122,36,0*6F
$GPGSV,3,3,10,23,43,047,36,25,87,024,36,0*6F
$BDGSV,1,1,00,0*74

$GNRMC,002016.00,A,3131.338817,N,12117.999918,E,9.716,359.98,200720,,,A,V*04
$GNGGA,002016.00,3131.338817,N,12117.999918,E,1,08,1.10,40.6,M,9.5,M,,*4A
$GNGSA,A,3,07,20,13,08,25,04,23,02,,,,,2.12,1.10,1.81,1*07
$GNGSA,A,3,,,,,,,,,,,,,2.12,1.10,1.81,4*0D
$GPGSV,3,1,10,01,14,121,35,02,21,310,35,04,45,270,36,07
,70,210,36,0*60
$GPGSV,3,2,10,08,29,214,35,13,60,003,36,16,12,051,35,20,39,122,36,0*6F
$GPGSV,3,3,10,23,43,047,36,25,87,024,36,0*6F
$BDGSV,1,1,00,0*74
<????sim??????(SIM??:1)>
<????GSM????????(GSM:0)>
<????GPRS????????(GPRS:0)>
<????????????(SIGNAL:0)>
<????????????????(BER:0)>

<??????????????>

$GNRMC,002017.00,A,3131.341519,N,12117.999915,E,9.727,0.01,200720,,,A,V*08
$GNGGA,002017.00,3131.341519,N,12117.999915,E,1,08,1.10,40.6,M,9.5,M,,*4B
$GNGSA,A,3,07,20,13,08,25,04,23,02,,,,,2.12,1.10,1.81,1*07
$GNGSA,A,3,,,,,,,,,,,,,2.12,1.10,1.81,4*0D
$GPGSV,3,1,10,01,14,121,35,02,21,310,35,04,45,270,36,07,7
0,210,36,0*60
$GPGSV,3,2,10,08,29,214,35,13,60,003,36,16,12,051,35,20,39,122,36,0*6F
$GPGSV,3,3,10,23,43,047,36,25,87,024,36,0*6F
$BDGSV,1,1,00,0*74

$GNRMC,002018.00,A,3131.344221,N,12117.999911,E,9.716,0.06,200720,,,A,V*0F
$GNGGA,002018.00,3131.344221,N,12117.999911,E,1,08,1.10,40.6,M,9.5,M,,*49
$GNGSA,A,3,07,20,13,08,25,04,23,02,,,,,2.12,1.10,1.81,1*07
$GNGSA,A,3,,,,,,,,,,,,,2.12,1.10,1.81,4*0D
$GPGSV,3,1,10,01,14,121,35,02,21,310,35,04,45,270,36,07,7
0,210,36,0*60
$GPGSV,3,2,10,08,29,214,35,13,60,003,36,16,12,051,34,20,39,122,36,0*6E
$GPGSV,3,3,10,23,43,047,36,25,87,024,36,0*6F
$BDGSV,1,1,00,0*74

$GNRMC,002019.00,A,3131.346920,N,12117.999908,E,9.716,0.03,200720,,,A,V*0B
$GNGGA,002019.00,3131.346920,N,12117.999908,E,1,08,1.10,40.6,M,9.5,M,,*48
$GNGSA,A,3,07,20,13,08,25,04,23,02,,,,,2.12,1.10,1.81,1*07
$GNGSA,A,3,,,,,,,,,,,,,2.12,1.10,1.81,4*0D
$GPGSV,3,1,10,01,14,121,35,02,21,310,35,04,45,270,36,07,7
0,210,36,0*60
$GPGSV,3,2,10,08,29,214,35,13,60,003,36,16,12,051,35,20,39,122,36,0*6F
$GPGSV,3,3,10,23,43,047,36,25,87,024,36,0*6F
$BDGSV,1,1,00,0*74

$GNRMC,002020.00,A,3131.349619,N,12117.999912,E,9.723,0.07,200720,,,A,V*02
$GNGGA,002020.00,3131.349619,N,12117.999912,E,1,08,1.10,40.6,M,9.5,M,,*43
$GNGSA,A,3,07,20,13,08,25,04,23,02,,,,,2.12,1.10,1.81,1*07
$GNGSA,A,3,,,,,,,,,,,,,2.12,1.10,1.81,4*0D
$GPGSV,3,1,10,01,14,121,35,02,21,310,35,04,45,270,36,07,7
0,210,36,0*60
$GPGSV,3,2,10,08,29,214,35,13,60,003,36,16,12,051,35,20,39,122,36,0*6F
$GPGSV,3,3,10,23,43,047,36,25,87,024,36,0*6F
$BDGSV,1,1,00,0*74

$GNRMC,002021.00,A,3131.352321,N,12117.999909,E,9.721,0.03,200720,,,A,V*0B
$GNGGA,002021.00,3131.352321,N,12117.999909,E,1,08,1.10,40.6,M,9.5,M,,*4C
$GNGSA,A,3,07,20,13,08,25,04,23,02,,,,,2.12,1.10,1.81,1*07
$GNGSA,A,3,,,,,,,,,,,,,2.12,1.10,1.81,4*0D
$GPGSV,3,1,10,01,14,121,35,02,21,310,35,04,45,270,36,07,7
0,210,36,0*60
$GPGSV,3,2,10,08,29,214,35,13,60,003,36,16,12,051,35,20,39,122,36,0*6F
$GPGSV,3,3,10,23,43,047,36,25,87,024,36,0*6F
$BDGSV,1,1,00,0*74

$GNRMC,002022.00,A,3131.355019,N,12117.999904,E,9.716,0.02,200720,,,A,V*0F
$GNGGA,002022.00,3131.355019,N,12117.999904,E,1,08,1.10,40.6,M,9.5,M,,*4D
$GNGSA,A,3,07,20,13,08,25,04,23,02,,,,,2.12,1.10,1.81,1*07
$GNGSA,A,3,,,,,,,,,,,,,2.12,1.10,1.81,4*0D
$GPGSV,3,1,10,01,14,121,35,02,21,310,35,04,45,270,36,07,7
0,210,36,0*60
$GPGSV,3,2,10,08,29,214,35,13,60,003,36,16,12,051,35,20,39,122,36,0*6F
$GPGSV,3,3,10,23,43,047,36,25,87,024,36,0*6F
$BDGSV,1,1,00,0*74

$GNRMC,002023.00,A,3131.357721,N,12117.999901,E,9.722,0.03,200720,,,A,V*03
$GNGGA,002023.00,3131.357721,N,12117.999901,E,1,08,1.10,40.6,M,9.5,M,,*47
$GNGSA,A,3,07,20,13,08,25,04,23,02,,,,,2.12,1.10,1.81,1*07
$GNGSA,A,3,,,,,,,,,,,,,2.12,1.10,1.81,4*0D
$GPGSV,3,1,10,01,14,121,35,02,21,310,35,04,45,270,36,07,7
0,210,36,0*60
$GPGSV,3,2,10,08,29,214,35,13,60,003,36,16,12,051,35,20,39,122,36,0*6F
$GPGSV,3,3,10,23,43,047,36,25,87,024,36,0*6F
$BDGSV,1,1,00,0*74

$GNRMC,002024.00,A,3131.360425,N,12117.999908,E,9.721,0.08,200720,,,A,V*06
$GNGGA,002024.00,3131.360425,N,12117.999908,E,1,08,1.10,40.6,M,9.5,M,,*4A
$GNGSA,A,3,07,20,13,08,25,04,23,02,,,,,2.12,1.10,1.81,1*07
$GNGSA,A,3,,,,,,,,,,,,,2.12,1.10,1.81,4*0D
$GPGSV,3,1,10,01,14,121,35,02,21,310,35,04,45,270,36,07,7
0,210,36,0*60
$GPGSV,3,2,10,08,29,214,35,13,60,003,36,16,12,051,35,20,39,122,36,0*6F
$GPGSV,3,3,10,23,43,047,36,25,87,024,36,0*6F
$BDGSV,1,1,00,0*74

$GNRMC,002025.00,A,3131.363130,N,12117.999907,E,9.727,0.04,200720,,,A,V*00
$GNGGA,002025.00,3131.363130,N,12117.999907,E,1,08,1.10,40.6,M,9.5,M,,*46
$GNGSA,A,3,07,20,13,08,25,04,23,02,,,,,2.12,1.10,1.81,1*07
$GNGSA,A,3,,,,,,,,,,,,,2.12,1.10,1.81,4*0D
$GPGSV,3,1,10,01,14,121,35,02,21,310,35,04,45,270,36,07,7
0,210,36,0*60
$GPGSV,3,2,10,08,29,214,35,13,60,003,36,16,12,051,35,20,39,122,36,0*6F
$GPGSV,3,3,10,23,43,047,36,25,87,024,36,0*6F
$BDGSV,1,1,00,0*74

$GNRMC,002026.00,A,3131.365831,N,12117.999910,E,9.709,0.01,200720,,,A,V*02
$GNGGA,002026.00,3131.365831,N,12117.999910,E,1,08,1.10,40.6,M,9.5,M,,*4D
$GNGSA,A,3,07,20,13,08,25,04,23,02,,,,,2.12,1.10,1.81,1*07
$GNGSA,A,3,,,,,,,,,,,,,2.12,1.10,1.81,4*0D
$GPGSV,3,1,10,01,14,121,35,02,21,310,35,04,45,270,36,07,7
0,210,36,0*60
$GPGSV,3,2,10,08,29,214,35,13,60,003,36,16,12,051,35,20,39,122,36,0*6F
$GPGSV,3,3,10,23,43,047,36,25,87,024,36,0*6F
$BDGSV,1,1,00,0*74
<??????????????>

$GNRMC,002027.00,A,3131.368538,N,12117.999911,E,9.724,0.02,200720,,,A,V*07
$GNGGA,002027.00,3131.368538,N,12117.999911,E,1,08,1.10,40.6,M,9.5,M,,*44
$GNGSA,A,3,07,20,13,08,25,04,23,02,,,,,2.12,1.10,1.81,1*07
$GNGSA,A,3,,,,,,,,,,,,,2.12,1.10,1.81,4*0D
$GPGSV,3,1,10,01,14,121,35,02,21,310,35,04,45,270,36,07,7
0,210,36,0*60
$GPGSV,3,2,10,08,29,214,35,13,60,003,36,16,12,051,35,20,39,122,36,0*6F
$GPGSV,3,3,10,23,43,047,36,25,87,024,36,0*6F
$BDGSV,1,1,00,0*74

$GNRMC,002028.00,A,3131.371243,N,12117.999912,E,9.714,0.04,200720,,,A,V*0D
$GNGGA,002028.00,3131.371243,N,12117.999912,E,1,08,1.10,40.6,M,9.5,M,,*4B
$GNGSA,A,3,07,20,13,08,25,04,23,02,,,,,2.12,1.10,1.81,1*07
$GNGSA,A,3,,,,,,,,,,,,,2.12,1.10,1.81,4*0D
$GPGSV,3,1,10,01,14,121,35,02,21,310,35,04,45,270,36,07,7
0,210,36,0*60
$GPGSV,3,2,10,08,29,214,35,13,60,003,36,16,12,051,35,20,39,122,36,0*6F
$GPGSV,3,3,10,23,43,047,36,25,87,024,36,0*6F
$BDGSV,1,1,00,0*74

$GNRMC,002029.00,A,3131.373956,N,12117.999908,E,9.737,359.97,200720,,,A,V*0E
$GNGGA,002029.00,3131.373956,N,12117.999908,E,1,08,1.10,40.6,M,9.5,M,,*4C
$GNGSA,A,3,07,20,13,08,25,04,23,02,,,,,2.12,1.10,1.81,1*07
$GNGSA,A,3,,,,,,,,,,,,,2.12,1.10,1.81,4*0D
$GPGSV,3,1,10,01,14,121,35,02,21,310,35,04,45,270,36,07
,70,210,36,0*60
$GPGSV,3,2,10,08,29,214,35,13,60,003,36,16,12,051,35,20,39,122,36,0*6F
$GPGSV,3,3,10,23,43,047,36,25,87,024,36,0*6F
$BDGSV,1,1,00,0*74

$GNRMC,002030.00,A,3131.376665,N,12117.999908,E,9.717,359.99,200720,,,A,V*00
$GNGGA,002030.00,3131.376665,N,12117.999908,E,1,08,1.10,40.6,M,9.5,M,,*4E
$GNGSA,A,3,07,20,13,08,25,04,23,02,,,,,2.12,1.10,1.81,1*07
$GNGSA,A,3,,,,,,,,,,,,,2.12,1.10,1.81,4*0D
$GPGSV,3,1,10,01,14,121,35,02,21,310,35,04,45,270,35,07
,70,210,36,0*63
$GPGSV,3,2,10,08,29,214,35,13,60,003,36,16,12,051,35,20,39,122,36,0*6F
$GPGSV,3,3,10,23,43,047,36,25,87,024,36,0*6F
$BDGSV,1,1,00,0*74

$GNRMC,002031.00,A,3131.379368,N,12117.999910,E,9.717,359.99,200720,,,A,V*0F
$GNGGA,002031.00,3131.379368,N,12117.999910,E,1,08,1.10,40.6,M,9.5,M,,*41
$GNGSA,A,3,07,20,13,08,25,04,23,02,,,,,2.12,1.10,1.81,1*07
$GNGSA,A,3,,,,,,,,,,,,,2.12,1.10,1.81,4*0D
$GPGSV,3,1,10,01,14,121,35,02,21,310,35,04,45,270,35,07
,70,210,36,0*63
$GPGSV,3,2,10,08,29,214,35,13,60,003,36,16,12,051,35,20,39,122,36,0*6F
$GPGSV,3,3,10,23,43,047,36,25,87,024,36,0*6F
$BDGSV,1,1,00,0*74

$GNRMC,002032.00,A,3131.382070,N,12117.999914,E,9.719,0.03,200720,,,A,V*04
$GNGGA,002032.00,3131.382070,N,12117.999914,E,1,08,1.10,40.6,M,9.5,M,,*48
$GNGSA,A,3,07,20,13,08,25,04,23,02,,,,,2.12,1.10,1.81,1*07
$GNGSA,A,3,,,,,,,,,,,,,2.12,1.10,1.81,4*0D
$GPGSV,3,1,10,01,14,121,35,02,21,310,35,04,45,270,36,07,7
0,210,36,0*60
$GPGSV,3,2,10,08,29,214,35,13,60,003,36,16,12,051,35,20,39,122,36,0*6F
$GPGSV,3,3,10,23,43,047,36,25,87,024,36,0*6F
$BDGSV,1,1,00,0*74

$GNRMC,002033.00,A,3131.384773,N,12117.999918,E,9.727,0.04,200720,,,A,V*01
$GNGGA,002033.00,3131.384773,N,12117.999918,E,1,08,1.10,40.6,M,9.5,M,,*47
$GNGSA,A,3,07,20,13,08,25,04,23,02,,,,,2.12,1.10,1.81,1*07
$GNGSA,A,3,,,,,,,,,,,,,2.12,1.10,1.81,4*0D
$GPGSV,3,1,10,01,14,121,35,02,21,310,35,04,45,270,36,07,7
0,210,36,0*60
$GPGSV,3,2,10,08,29,214,35,13,60,003,36,16,12,051,35,20,39,122,36,0*6F
$GPGSV,3,3,10,23,43,047,36,25,87,024,36,0*6F
$BDGSV,1,1,00,0*74

$GNRMC,002034.00,A,3131.387478,N,12117.999922,E,9.715,0.06,200720,,,A,V*07
$GNGGA,002034.00,3131.387478,N,12117.999922,E,1,08,1.10,40.5,M,9.5,M,,*41
$GNGSA,A,3,07,20,13,08,25,04,23,02,,,,,2.12,1.10,1.81,1*07
$GNGSA,A,3,,,,,,,,,,,,,2.12,1.10,1.81,4*0D
$GPGSV,3,1,10,01,14,121,35,02,21,310,35,04,45,270,36,07,7
0,210,36,0*60
$GPGSV,3,2,10,08,29,214,35,13,60,003,36,16,12,051,35,20,39,122,36,0*6F
$GPGSV,3,3,10,23,43,047,36,25,87,024,36,0*6F
$BDGSV,1,1,00,0*74

$GNRMC,002035.00,A,3131.390185,N,12117.999931,E,9.726,0.04,200720,,,A,V*07
$GNGGA,002035.00,3131.390185,N,12117.999931,E,1,08,1.10,40.5,M,9.5,M,,*43
$GNGSA,A,3,07,20,13,08,25,04,23,02,,,,,2.12,1.10,1.81,1*07
$GNGSA,A,3,,,,,,,,,,,,,2.12,1.10,1.81,4*0D
$GPGSV,3,1,10,01,14,121,35,02,21,310,35,04,45,270,36,07,7
0,210,36,0*60
$GPGSV,3,2,10,08,29,214,35,13,60,003,36,16,12,051,35,20,39,122,36,0*6F
$GPGSV,3,3,10,23,43,047,36,25,87,024,36,0*6F
$BDGSV,1,1,00,0*74


GPS HPregnss> E1 15 00 00 00 00 07 56 ED 65 D6 00 00 00 1C 3E 0B 18 82 00 00 00 00 


$GNRMC,002036.00,A,3131.392891,N,12117.999937,E,9.720,359.98,200720,,,A,V*00
$GNGGA,002036.00,3131.392891,N,12117.999937,E,1,08,1.10,40.5,M,9.5,M,,*48
$GNGSA,A,3,07,20,13,08,25,04,23,02,,,,,2.12,1.10,1.81,1*07
$GNGSA,A,3,,,,,,,,,,,,,2.12,1.10,1.81,4*0D
$GPGSV,3,1,10,01,14,121,35,02,21,310,35,04,45,270,36,07
,70,210,36,0*60
$GPGSV,3,2,10,08,29,214,35,13,60,003,36,16,12,051,35,20,39,122,36,0*6F
$GPGSV,3,3,10,23,43,047,36,25,87,024,36,0*6F
$BDGSV,1,1,00,0*74

<????sim??????(SIM??:1)>
<????GSM????????(GSM:0)>
<????GPRS????????(GPRS:0)>
<????????????(SIGNAL:0)>
<????????????????(BER:0)>

<??????????????>

$GNRMC,002037.00,A,3131.395598,N,12117.999942,E,9.720,0.04,200720,,,A,V*0A
$GNGGA,002037.00,3131.395598,N,12117.999942,E,1,08,1.10,40.5,M,9.5,M,,*48
$GNGSA,A,3,07,20,13,08,25,04,23,02,,,,,2.12,1.10,1.81,1*07
$GNGSA,A,3,,,,,,,,,,,,,2.12,1.10,1.81,4*0D
$GPGSV,3,1,10,01,14,121,35,02,21,310,35,04,45,270,36,07,7
0,210,36,0*60
$GPGSV,3,2,10,08,29,214,35,13,60,003,36,16,12,051,35,20,39,122,36,0*6F
$GPGSV,3,3,10,23,43,047,36,25,87,024,36,0*6F
$BDGSV,1,1,00,0*74

$GNRMC,002038.00,A,3131.398306,N,12117.999947,E,9.723,0.05,200720,,,A,V*0E
$GNGGA,002038.00,3131.398306,N,12117.999947,E,1,08,1.10,40.5,M,9.5,M,,*4E
$GNGSA,A,3,07,20,13,08,25,04,23,02,,,,,2.12,1.10,1.81,1*07
$GNGSA,A,3,,,,,,,,,,,,,2.12,1.10,1.81,4*0D
$GPGSV,3,1,10,01,14,121,35,02,21,310,35,04,45,270,36,07,7
0,210,36,0*60
$GPGSV,3,2,10,08,29,214,35,13,60,003,36,16,12,051,35,20,39,122,36,0*6F
$GPGSV,3,3,10,23,43,047,36,25,87,024,36,0*6F
$BDGSV,1,1,00,0*74

$GNRMC,002039.00,A,3131.401012,N,12117.999945,E,9.715,0.00,200720,,,A,V*0C
$GNGGA,002039.00,3131.401012,N,12117.999945,E,1,08,1.10,40.5,M,9.5,M,,*4C
$GNGSA,A,3,07,20,13,08,25,04,23,02,,,,,2.12,1.10,1.81,1*07
$GNGSA,A,3,,,,,,,,,,,,,2.12,1.10,1.81,4*0D
$GPGSV,3,1,10,01,14,121,35,02,21,310,35,04,45,270,36,07,7
0,210,36,0*60
$GPGSV,3,2,10,08,29,214,35,13,60,003,36,16,12,051,35,20,39,122,36,0*6F
$GPGSV,3,3,10,23,43,047,36,25,87,024,36,0*6F
$BDGSV,1,1,00,0*74

$GNRMC,002040.00,A,3131.403722,N,12117.999948,E,9.723,0.01,200720,,,A,V*0D
$GNGGA,002040.00,3131.403722,N,12117.999948,E,1,08,1.10,40.5,M,9.5,M,,*49
$GNGSA,A,3,07,20,13,08,25,04,23,02,,,,,2.12,1.10,1.81,1*07
$GNGSA,A,3,,,,,,,,,,,,,2.12,1.10,1.81,4*0D
$GPGSV,3,1,10,01,14,121,35,02,21,310,35,04,45,270,36,07,7
0,210,36,0*60
$GPGSV,3,2,10,08,29,214,35,13,60,003,36,16,12,051,35,20,39,122,36,0*6F
$GPGSV,3,3,10,23,43,047,36,25,87,024,36,0*6F
$BDGSV,1,1,00,0*74

$GNRMC,002041.00,A,3131.406431,N,12117.999954,E,9.719,359.99,200720,,,A,V*02
$GNGGA,002041.00,3131.406431,N,12117.999954,E,1,08,1.10,40.5,M,9.5,M,,*41
$GNGSA,A,3,07,20,13,08,25,04,23,02,,,,,2.12,1.10,1.81,1*07
$GNGSA,A,3,,,,,,,,,,,,,2.12,1.10,1.81,4*0D
$GPGSV,3,1,10,01,14,121,35,02,21,310,35,04,45,270,36,07
,70,210,36,0*60
$GPGSV,3,2,10,08,29,214,35,13,60,003,36,16,12,051,35,20,39,122,36,0*6F
$GPGSV,3,3,10,23,43,047,36,25,87,024,36,0*6F
$BDGSV,1,1,00,0*74

$GNRMC,002042.00,A,3131.409140,N,12117.999958,E,9.724,360.00,200720,,,A,V*05
$GNGGA,002042.00,3131.409140,N,12117.999958,E,1,08,1.10,40.5,M,9.5,M,,*42
$GNGSA,A,3,07,20,13,08,25,04,23,02,,,,,2.12,1.10,1.81,1*07
$GNGSA,A,3,,,,,,,,,,,,,2.12,1.10,1.81,4*0D
$GPGSV,3,1,10,01,14,121,35,02,21,310,35,04,45,270,36,07
,70,210,36,0*60
$GPGSV,3,2,10,08,29,214,35,13,60,003,36,16,12,051,35,20,39,122,36,0*6F
$GPGSV,3,3,10,23,43,047,36,25,87,024,36,0*6F
$BDGSV,1,1,00,0*74

$GNRMC,002043.00,A,3131.411852,N,12117.999959,E,9.730,0.02,200720,,,A,V*04
$GNGGA,002043.00,3131.411852,N,12117.999959,E,1,08,1.10,40.5,M,9.5,M,,*41
$GNGSA,A,3,07,20,13,08,25,04,23,02,,,,,2.12,1.10,1.81,1*07
$GNGSA,A,3,,,,,,,,,,,,,2.12,1.10,1.81,4*0D
$GPGSV,3,1,10,01,14,121,35,02,21,310,35,04,45,270,36,07,7
0,210,36,0*60
$GPGSV,3,2,10,08,29,214,35,13,60,003,36,16,12,051,35,20,39,122,36,0*6F
$GPGSV,3,3,10,23,43,047,36,25,87,024,36,0*6F
$BDGSV,1,1,00,0*74

$GNRMC,002044.00,A,3131.414559,N,12117.999957,E,9.714,0.00,200720,,,A,V*0A
$GNGGA,002044.00,3131.414559,N,12117.999957,E,1,08,1.10,40.5,M,9.5,M,,*4B
$GNGSA,A,3,07,20,13,08,25,04,23,02,,,,,2.12,1.10,1.81,1*07
$GNGSA,A,3,,,,,,,,,,,,,2.12,1.10,1.81,4*0D
$GPGSV,3,1,10,01,14,121,35,02,21,310,35,04,45,270,36,07,7
0,210,36,0*60
$GPGSV,3,2,10,08,29,214,35,13,60,003,36,16,12,051,35,20,39,122,36,0*6F
$GPGSV,3,3,10,23,43,047,36,25,87,024,36,0*6F
$BDGSV,1,1,00,0*74

$GNRMC,002045.00,A,3131.417270,N,12117.999958,E,9.720,0.00,200720,,,A,V*0C
$GNGGA,002045.00,3131.417270,N,12117.999958,E,1,08,1.10,40.6,M,9.5,M,,*49
$GNGSA,A,3,07,20,13,08,25,04,23,02,,,,,2.12,1.10,1.81,1*07
$GNGSA,A,3,,,,,,,,,,,,,2.12,1.10,1.81,4*0D
$GPGSV,3,1,10,01,14,121,35,02,21,310,35,04,45,270,36,07,7
0,210,36,0*60
$GPGSV,3,2,10,08,29,214,35,13,60,003,36,16,12,051,35,20,39,122,36,0*6F
$GPGSV,3,3,10,23,43,047,36,25,87,024,36,0*6F
$BDGSV,1,1,00,0*74

$GNRMC,002046.00,A,3131.419981,N,12117.999963,E,9.716,0.04,200720,,,A,V*0D
$GNGGA,002046.00,3131.419981,N,12117.999963,E,1,08,1.10,40.6,M,9.5,M,,*49
$GNGSA,A,3,07,20,13,08,25,04,23,02,,,,,2.12,1.10,1.81,1*07
$GNGSA,A,3,,,,,,,,,,,,,2.12,1.10,1.81,4*0D
$GPGSV,3,1,10,01,14,122,35,02,21,310,35,04,45,270,36,07,7
0,210,36,0*63
$GPGSV,3,2,10,08,29,214,35,13,60,003,36,16,12,051,35,20,39,122,36,0*6F
$GPGSV,3,3,10,23,43,047,36,25,87,024,36,0*6F
$BDGSV,1,1,00,0*74

<??????????????>

$GNRMC,002047.00,A,3131.422692,N,12117.999963,E,9.725,359.93,200720,,,A,V*08
$GNGGA,002047.00,3131.422692,N,12117.999963,E,1,08,1.10,40.6,M,9.5,M,,*4D
$GNGSA,A,3,07,20,13,08,25,04,23,02,,,,,2.12,1.10,1.81,1*07
$GNGSA,A,3,,,,,,,,,,,,,2.12,1.10,1.81,4*0D
$GPGSV,3,1,10,01,14,122,35,02,21,310,35,04,45,270,35,07
,70,210,36,0*60
$GPGSV,3,2,10,08,29,214,35,13,60,003,36,16,12,051,35,20,39,122,36,0*6F
$GPGSV,3,3,10,23,43,047,36,25,87,024,36,0*6F
$BDGSV,1,1,00,0*74

$GNRMC,002048.00,A,3131.425402,N,12117.999968,E,9.732,359.98,200720,,,A,V*0D
$GNGGA,002048.00,3131.425402,N,12117.999968,E,1,08,1.10,40.6,M,9.5,M,,*45
$GNGSA,A,3,07,20,13,08,25,04,23,02,,,,,2.12,1.10,1.81,1*07
$GNGSA,A,3,,,,,,,,,,,,,2.12,1.10,1.81,4*0D
$GPGSV,3,1,10,01,14,122,35,02,21,310,35,04,45,270,36,07
,70,210,36,0*63
$GPGSV,3,2,10,08,29,214,35,13,60,003,36,16,12,051,35,20,39,122,36,0*6F
$GPGSV,3,3,10,23,43,047,36,25,87,024,36,0*6F
$BDGSV,1,1,00,0*74

$GNRMC,002049.00,A,3131.428106,N,12117.999975,E,9.716,0.01,200720,,,A,V*05
$GNGGA,002049.00,3131.428106,N,12117.999975,E,1,08,1.10,40.6,M,9.5,M,,*44
$GNGSA,A,3,07,20,13,08,25,04,23,02,,,,,2.12,1.10,1.81,1*07
$GNGSA,A,3,,,,,,,,,,,,,2.12,1.10,1.81,4*0D
$GPGSV,3,1,10,01,14,122,35,02,21,310,35,04,45,270,36,07,7
0,210,36,0*63
$GPGSV,3,2,10,08,29,214,35,13,60,003,36,16,12,051,35,20,39,122,36,0*6F
$GPGSV,3,3,10,23,43,047,36,25,87,024,36,0*6F
$BDGSV,1,1,00,0*74

$GNRMC,002050.00,A,3131.430811,N,12117.999985,E,9.717,0.06,200720,,,A,V*02
$GNGGA,002050.00,3131.430811,N,12117.999985,E,1,08,1.10,40.5,M,9.5,M,,*46
$GNGSA,A,3,07,20,13,08,25,04,23,02,,,,,2.12,1.10,1.81,1*07
$GNGSA,A,3,,,,,,,,,,,,,2.12,1.10,1.81,4*0D
$GPGSV,3,1,10,01,14,122,35,02,21,310,35,04,45,270,36,07,7
0,210,36,0*63
$GPGSV,3,2,10,08,29,214,35,13,60,003,36,16,12,051,35,20,39,122,36,0*6F
$GPGSV,3,3,10,23,43,047,36,25,87,024,36,0*6F
$BDGSV,1,1,00,0*74

$GNRMC,002051.00,A,3131.433519,N,12117.999996,E,9.724,0.07,200720,,,A,V*06
$GNGGA,002051.00,3131.433519,N,12117.999996,E,1,08,1.10,40.5,M,9.5,M,,*43
$GNGSA,A,3,07,20,13,08,25,04,23,02,,,,,2.12,1.10,1.81,1*07
$GNGSA,A,3,,,,,,,,,,,,,2.12,1.10,1.81,4*0D
$GPGSV,3,1,10,01,14,122,35,02,21,310,35,04,45,270,36,07,7
0,210,36,0*63
$GPGSV,3,2,10,08,29,214,35,13,60,004,36,16,12,051,35,20,39,122,36,0*68
$GPGSV,3,3,10,23,43,047,36,25,87,024,36,0*6F
$BDGSV,1,1,00,0*74

$GNRMC,002052.00,A,3131.436219,N,12118.000004,E,9.708,0.07,200720,,,A,V*0D
$GNGGA,002052.00,3131.436219,N,12118.000004,E,1,08,1.10,40.5,M,9.5,M,,*46
$GNGSA,A,3,07,20,13,08,25,04,23,02,,,,,2.12,1.10,1.81,1*07
$GNGSA,A,3,,,,,,,,,,,,,2.12,1.10,1.81,4*0D
$GPGSV,3,1,10,01,14,122,35,02,21,310,35,04,45,270,36,07,7
0,210,36,0*63
$GPGSV,3,2,10,08,29,214,35,13,60,004,36,16,12,051,35,20,39,122,36,0*68
$GPGSV,3,3,10,23,43,047,36,25,87,024,36,0*6F
$BDGSV,1,1,00,0*74

$GNRMC,002053.00,A,3131.438922,N,12118.000015,E,9.726,0.07,200720,,,A,V*0D
$GNGGA,002053.00,3131.438922,N,12118.000015,E,1,08,1.10,40.5,M,9.5,M,,*4A
$GNGSA,A,3,07,20,13,08,25,04,23,02,,,,,2.12,1.10,1.81,1*07
$GNGSA,A,3,,,,,,,,,,,,,2.12,1.10,1.81,4*0D
$GPGSV,3,1,10,01,14,122,35,02,21,310,35,04,45,270,36,07,7
0,210,36,0*63
$GPGSV,3,2,10,08,29,214,35,13,60,004,36,16,12,051,35,20,39,122,36,0*68
$GPGSV,3,3,10,23,43,047,36,25,87,024,36,0*6F
$BDGSV,1,1,00,0*74

$GNRMC,002054.00,A,3131.441625,N,12118.000031,E,9.719,0.10,200720,,,A,V*00
$GNGGA,002054.00,3131.441625,N,12118.000031,E,1,08,1.10,40.5,M,9.5,M,,*4D
$GNGSA,A,3,07,20,13,08,25,04,23,02,,,,,2.12,1.10,1.81,1*07
$GNGSA,A,3,,,,,,,,,,,,,2.12,1.10,1.81,4*0D
$GPGSV,3,1,10,01,14,122,35,02,21,310,35,04,45,270,36,07,7
0,210,36,0*63
$GPGSV,3,2,10,08,29,214,35,13,60,004,36,16,12,051,35,20,39,122,36,0*68
$GPGSV,3,3,10,23,43,047,36,25,87,024,36,0*6F
$BDGSV,1,1,00,0*74

$GNRMC,002055.00,A,3131.444329,N,12118.000040,E,9.719,0.05,200720,,,A,V*0F
$GNGGA,002055.00,3131.444329,N,12118.000040,E,1,08,1.10,40.5,M,9.5,M,,*46
$GNGSA,A,3,07,20,13,08,25,04,23,02,,,,,2.12,1.10,1.81,1*07
$GNGSA,A,3,,,,,,,,,,,,,2.12,1.10,1.81,4*0D
$GPGSV,3,1,10,01,14,122,35,02,21,310,35,04,45,270,36,07,7
0,210,36,0*63
$GPGSV,3,2,10,08,29,214,35,13,60,004,36,16,12,051,35,20,39,122,36,0*68
$GPGSV,3,3,10,23,43,047,36,25,87,024,36,0*6F
$BDGSV,1,1,00,0*74

$GNRMC,002056.00,A,3131.447037,N,12118.000049,E,9.732,0.04,200720,,,A,V*02
$GNGGA,002056.00,3131.447037,N,12118.000049,E,1,08,1.10,40.4,M,9.5,M,,*42
$GNGSA,A,3,07,20,13,08,25,04,23,02,,,,,2.12,1.10,1.81,1*07
$GNGSA,A,3,,,,,,,,,,,,,2.12,1.10,1.81,4*0D
$GPGSV,3,1,10,01,14,122,35,02,21,310,35,04,45,270,36,07,7
0,210,36,0*63
$GPGSV,3,2,10,08,29,214,35,13,60,004,36,16,12,051,35,20,39,122,36,0*68
$GPGSV,3,3,10,23,43,047,36,25,87,024,36,0*6F
$BDGSV,1,1,00,0*74

<????sim??????(SIM??:1)>
<????GSM????????(GSM:0)>
<????GPRS????????(GPRS:0)>
<????????????(SIGNAL:0)>
<????????????????(BER:0)>

<??????????????>

$GNRMC,002057.00,A,3131.449739,N,12118.000054,E,9.712,0.06,200720,,,A,V*08
$GNGGA,002057.00,3131.449739,N,12118.000054,E,1,08,1.10,40.4,M,9.5,M,,*48
$GNGSA,A,3,07,20,13,08,25,04,23,02,,,,,2.12,1.10,1.81,1*07
$GNGSA,A,3,,,,,,,,,,,,,2.12,1.10,1.81,4*0D
$GPGSV,3,1,10,01,14,122,35,02,21,310,35,04,45,270,36,07,7
0,210,36,0*63
$GPGSV,3,2,10,08,29,214,35,13,60,004,36,16,12,051,35,20,39,122,36,0*68
$GPGSV,3,3,10,23,43,047,36,25,87,024,36,0*6F
$BDGSV,1,1,00,0*74

$GNRMC,002058.00,A,3131.452445,N,12118.000053,E,9.728,0.03,200720,,,A,V*0E
$GNGGA,002058.00,3131.452445,N,12118.000053,E,1,08,1.10,40.3,M,9.5,M,,*45
$GNGSA,A,3,07,20,13,08,25,04,23,02,,,,,2.12,1.10,1.81,1*07
$GNGSA,A,3,,,,,,,,,,,,,2.12,1.10,1.81,4*0D
$GPGSV,3,1,10,01,14,122,35,02,21,310,35,04,45,270,36,07,7
0,210,36,0*63
$GPGSV,3,2,10,08,29,214,35,13,60,004,36,16,12,051,35,20,39,122,36,0*68
$GPGSV,3,3,10,23,43,047,36,25,87,024,36,0*6F
$BDGSV,1,1,00,0*74

$GNRMC,002059.00,A,3131.455145,N,12118.000051,E,9.706,0.05,200720,,,A,V*05
$GNGGA,002059.00,3131.455145,N,12118.000051,E,1,08,1.10,40.3,M,9.5,M,,*44
$GNGSA,A,3,07,20,13,08,25,04,23,02,,,,,2.12,1.10,1.81,1*07
$GNGSA,A,3,,,,,,,,,,,,,2.12,1.10,1.81,4*0D
$GPGSV,3,1,10,01,14,122,35,02,21,310,35,04,45,270,36,07,7
0,210,36,0*63
$GPGSV,3,2,10,08,29,214,35,13,60,004,36,16,12,051,35,20,39,122,36,0*68
$GPGSV,3,3,10,23,43,047,36,25,87,024,36,0*6F
$BDGSV,1,1,00,0*74

$GNRMC,002100.00,A,3131.457850,N,12118.000053,E,9.720,0.05,200720,,,A,V*01
$GNGGA,002100.00,3131.457850,N,12118.000053,E,1,08,1.10,40.3,M,9.5,M,,*44
$GNGSA,A,3,07,20,13,08,25,04,23,02,,,,,2.12,1.10,1.81,1*07
$GNGSA,A,3,,,,,,,,,,,,,2.12,1.10,1.81,4*0D
$GPGSV,3,1,10,01,14,122,35,02,21,310,35,04,45,270,36,07,7
0,210,36,0*63
$GPGSV,3,2,10,08,29,214,35,13,60,004,36,16,12,051,35,20,39,122,36,0*68
$GPGSV,3,3,10,23,43,048,36,25,87,024,36,0*60
$BDGSV,1,1,00,0*74

$GNRMC,002101.00,A,3131.460557,N,12118.000056,E,9.723,0.05,200720,,,A,V*08
$GNGGA,002101.00,3131.460557,N,12118.000056,E,1,08,1.10,40.2,M,9.5,M,,*4F
$GNGSA,A,3,07,20,13,08,25,04,23,02,,,,,2.12,1.10,1.81,1*07
$GNGSA,A,3,,,,,,,,,,,,,2.12,1.10,1.81,4*0D
$GPGSV,3,1,10,01,14,122,35,02,21,310,35,04,45,270,36,07,7
0,210,36,0*63
$GPGSV,3,2,10,08,29,214,35,13,60,004,36,16,12,051,35,20,39,122,36,0*68
$GPGSV,3,3,10,23,43,048,36,25,87,023,36,0*67
$BDGSV,1,1,00,0*74

$GNRMC,002102.00,A,3131.463260,N,12118.000062,E,9.721,0.04,200720,,,A,V*0F
$GNGGA,002102.00,3131.463260,N,12118.000062,E,1,08,1.10,40.2,M,9.5,M,,*4B
$GNGSA,A,3,07,20,13,08,25,04,23,02,,,,,2.12,1.10,1.81,1*07
$GNGSA,A,3,,,,,,,,,,,,,2.12,1.10,1.81,4*0D
$GPGSV,3,1,10,01,14,122,35,02,21,310,35,04,45,270,36,07,7
0,210,36,0*63
$GPGSV,3,2,10,08,29,214,35,13,60,004,36,16,12,051,35,20,39,122,36,0*68
$GPGSV,3,3,10,23,43,048,36,25,87,023,36,0*67
$BDGSV,1,1,00,0*74

$GNRMC,002103.00,A,3131.465963,N,12118.000071,E,9.722,0.05,200720,,,A,V*00
$GNGGA,002103.00,3131.465963,N,12118.000071,E,1,08,1.10,40.2,M,9.5,M,,*46
$GNGSA,A,3,07,20,13,08,25,04,23,02,,,,,2.12,1.10,1.81,1*07
$GNGSA,A,3,,,,,,,,,,,,,2.12,1.10,1.81,4*0D
$GPGSV,3,1,10,01,14,122,35,02,21,310,35,04,45,270,36,07,7
0,210,36,0*63
$GPGSV,3,2,10,08,29,214,35,13,60,004,36,16,12,051,35,20,39,122,36,0*68
$GPGSV,3,3,10,23,43,048,36,25,87,023,36,0*67
$BDGSV,1,1,00,0*74

$GNRMC,002104.00,A,3131.468664,N,12118.000076,E,9.719,0.05,200720,,,A,V*0D
$GNGGA,002104.00,3131.468664,N,12118.000076,E,1,08,1.10,40.1,M,9.5,M,,*40
$GNGSA,A,3,07,20,13,08,25,04,23,02,,,,,2.12,1.10,1.81,1*07
$GNGSA,A,3,,,,,,,,,,,,,2.12,1.10,1.81,4*0D
$GPGSV,3,1,10,01,14,122,35,02,21,310,35,04,45,270,36,07,7
