$GPRMC,002505,A,3132.12071,N,12118.00000,E,9.719,0.000,200720,0.000,E,A,V*6F

$GPRMC,002506,A,3132.12341,N,12118.00000,E,9.719,0.000,200720,0.000,E,A,V*6C

$GPRMC,002507,A,3132.12612,N,12118.00000,E,9.719,0.000,200720,0.000,E,A,V*6E

$GPRMC,002508,A,3132.12883,N,12118.00000,E,9.719,0.000,200720,0.000,E,A,V*67

$GPRMC,002509,A,3132.13153,N,12118.00000,E,9.719,0.000,200720,0.000,E,A,V*63

$GPRMC,002510,A,3132.13424,N,12118.00000,E,9.719,0.000,200720,0.000,E,A,V*6E

$GPRMC,002511,A,3132.13694,N,12118.00000,E,9.719,0.000,200720,0.000,E,A,V*66

$GPRMC,002512,A,3132.13965,N,12118.00000,E,9.719,360.000,200720,0.000,E,A,V*61

$GPRMC,002513,A,3132.14235,N,12118.00000,E,9.719,0.000,200720,0.000,E,A,V*6C

$GPRMC,002514,A,3132.14506,N,12118.00000,E,9.719,0.000,200720,0.000,E,A,V*6C

$GPRMC,002515,A,3132.14777,N,12118.00000,E,9.719,0.000,200720,0.000,E,A,V*69

$GPRMC,002516,A,3132.15047,N,12118.00000,E,9.719,0.000,200720,0.000,E,A,V*6F

$GPRMC,002517,A,3132.15318,N,12118.00000,E,9.719,0.000,200720,0.000,E,A,V*67

$GPRMC,002518,A,3132.15588,N,12118.00000,E,9.719,0.000,200720,0.000,E,A,V*67

$GPRMC,002519,A,3132.15859,N,12118.00000,E,9.719,0.000,200720,0.000,E,A,V*67

$GPRMC,002520,A,3132.16129,N,12118.00000,E,9.719,0.000,200720,0.000,E,A,V*60

$GPRMC,002521,A,3132.16400,N,12118.00000,E,9.719,360.000,200720,0.000,E,A,V*6A

$GPRMC,002522,A,3132.16670,N,12118.00000,E,9.719,0.000,200720,0.000,E,A,V*69

$GPRMC,002523,A,3132.16941,N,12118.00000,E,9.719,360.000,200720,0.000,E,A,V*60

$GPRMC,002524,A,3132.17212,N,12118.00000,E,9.719,0.000,200720,0.000,E,A,V*6E

$GPRMC,002525,A,3132.17482,N,12118.00000,E,9.719,360.000,200720,0.000,E,A,V*65

$GPRMC,002526,A,3132.17753,N,12118.00000,E,9.719,0.000,200720,0.000,E,A,V*6C

$GPRMC,002527,A,3132.18023,N,12118.00000,E,9.719,360.000,200720,0.000,E,A,V*67

$GPRMC,002528,A,3132.18294,N,12118.00000,E,9.719,0.000,200720,0.000,E,A,V*63

$GPRMC,002529,A,3132.18564,N,12118.00000,E,9.719,0.000,200720,0.000,E,A,V*6A

$GPRMC,002530,A,3132.18835,N,12118.00000,E,9.719,0.000,200720,0.000,E,A,V*6B

$GPRMC,002531,A,3132.19106,N,12118.00000,E,9.719,0.000,200720,0.000,E,A,V*62

$GPRMC,002532,A,3132.19376,N,12118.00000,E,9.719,0.000,200720,0.000,E,A,V*64

$GPRMC,002533,A,3132.19647,N,12118.00000,E,9.719,0.000,200720,0.000,E,A,V*62

$GPRMC,002534,A,3132.19917,N,12118.00000,E,9.719,0.000,200720,0.000,E,A,V*6F

$GPRMC,002535,A,3132.20188,N,12118.00000,E,9.719,0.000,200720,0.000,E,A,V*6A

$GPRMC,002536,A,3132.20458,N,12118.00000,E,9.719,0.000,200720,0.000,E,A,V*61

$GPRMC,002537,A,3132.20729,N,12118.00000,E,9.719,0.000,200720,0.000,E,A,V*65

$GPRMC,002538,A,3132.20999,N,12118.00000,E,9.719,0.000,200720,0.000,E,A,V*6F

$GPRMC,002539,A,3132.21270,N,12118.00000,E,9.719,0.000,200720,0.000,E,A,V*63

$GPRMC,002540,A,3132.21541,N,12118.00000,E,9.719,0.000,200720,0.000,E,A,V*68

$GPRMC,002541,A,3132.21811,N,12118.00000,E,9.719,360.000,200720,0.000,E,A,V*64

$GPRMC,002542,A,3132.22082,N,12118.00000,E,9.719,360.000,200720,0.000,E,A,V*66

$GPRMC,002543,A,3132.22352,N,12118.00000,E,9.719,0.000,200720,0.000,E,A,V*6C

$GPRMC,002544,A,3132.22623,N,12118.00000,E,9.719,0.000,200720,0.000,E,A,V*68

$GPRMC,002545,A,3132.22893,N,12118.00000,E,9.719,0.000,200720,0.000,E,A,V*6C

$GPRMC,002546,A,3132.23164,N,12118.00000,E,9.719,360.000,200720,0.000,E,A,V*6A

$GPRMC,002547,A,3132.23435,N,12118.00000,E,9.719,0.000,200720,0.000,E,A,V*6F

$GPRMC,002548,A,3132.23705,N,12118.00000,E,9.719,0.000,200720,0.000,E,A,V*60

$GPRMC,002549,A,3132.23976,N,12118.00000,E,9.719,0.000,200720,0.000,E,A,V*6B

$GPRMC,002550,A,3132.24246,N,12118.00000,E,9.719,360.000,200720,0.000,E,A,V*69

$GPRMC,002551,A,3132.24517,N,12118.00000,E,9.719,0.000,200720,0.000,E,A,V*6E

$GPRMC,002552,A,3132.24787,N,12118.00000,E,9.719,0.000,200720,0.000,E,A,V*66

$GPRMC,002553,A,3132.25058,N,12118.00000,E,9.719,360.000,200720,0.000,E,A,V*66

$GPRMC,002554,A,3132.25328,N,12118.00000,E,9.719,0.000,200720,0.000,E,A,V*60

$GPRMC,002555,A,3132.25599,N,12118.00000,E,9.719,0.000,200720,0.000,E,A,V*6D

$GPRMC,002556,A,3132.25870,N,12118.00000,E,9.719,0.000,200720,0.000,E,A,V*64

$GPRMC,002557,A,3132.26140,N,12118.00000,E,9.719,360.000,200720,0.000,E,A,V*69

$GPRMC,002558,A,3132.26411,N,12118.00000,E,9.719,0.000,200720,0.000,E,A,V*62

$GPRMC,002559,A,3132.26681,N,12118.00000,E,9.719,0.000,200720,0.000,E,A,V*68

$GPRMC,002600,A,3132.26952,N,12118.00000,E,9.719,0.000,200720,0.000,E,A,V*66

$GPRMC,002601,A,3132.27222,N,12118.00000,E,9.719,0.000,200720,0.000,E,A,V*6A

$GPRMC,002602,A,3132.27493,N,12118.00000,E,9.719,360.000,200720,0.000,E,A,V*60

$GPRMC,002603,A,3132.27764,N,12118.00000,E,9.719,0.000,200720,0.000,E,A,V*6F

$GPRMC,002604,A,3132.28034,N,12118.00000,E,9.719,0.000,200720,0.000,E,A,V*65

$GPRMC,002605,A,3132.28305,N,12118.00000,E,9.719,0.000,200720,0.000,E,A,V*65

$GPRMC,002606,A,3132.28575,N,12118.00000,E,9.719,0.000,200720,0.000,E,A,V*67

$GPRMC,002607,A,3132.28846,N,12118.00000,E,9.719,0.000,200720,0.000,E,A,V*6B

$GPRMC,002608,A,3132.29116,N,12118.00000,E,9.719,0.000,200720,0.000,E,A,V*69

$GPRMC,002609,A,3132.29387,N,12118.00000,E,9.719,360.000,200720,0.000,E,A,V*67

$GPRMC,002610,A,3132.29657,N,12118.00000,E,9.719,0.000,200720,0.000,E,A,V*62

$GPRMC,002611,A,3132.29928,N,12118.00000,E,9.719,0.000,200720,0.000,E,A,V*64

$GPRMC,002612,A,3132.30199,N,12118.00000,E,9.719,360.000,200720,0.000,E,A,V*68

$GPRMC,002613,A,3132.30469,N,12118.00000,E,9.719,0.000,200720,0.000,E,A,V*66

$GPRMC,002614,A,3132.30740,N,12118.00000,E,9.719,0.000,200720,0.000,E,A,V*69

$GPRMC,002615,A,3132.31010,N,12118.00000,E,9.719,0.000,200720,0.000,E,A,V*6B

$GPRMC,002616,A,3132.31281,N,12118.00000,E,9.719,360.000,200720,0.000,E,A,V*67

$GPRMC,002617,A,3132.31551,N,12118.00000,E,9.719,0.000,200720,0.000,E,A,V*69

$GPRMC,002618,A,3132.31822,N,12118.00000,E,9.719,360.000,200720,0.000,E,A,V*6A

$GPRMC,002619,A,3132.32093,N,12118.00000,E,9.719,0.000,200720,0.000,E,A,V*6F

$GPRMC,002620,A,3132.32363,N,12118.00000,E,9.719,360.000,200720,0.000,E,A,V*6C

$GPRMC,002621,A,3132.32634,N,12118.00000,E,9.719,360.000,200720,0.000,E,A,V*6A

$GPRMC,002622,A,3132.32904,N,12118.00000,E,9.719,0.000,200720,0.000,E,A,V*60

$GPRMC,002623,A,3132.33175,N,12118.00000,E,9.719,0.000,200720,0.000,E,A,V*6E

$GPRMC,002624,A,3132.33445,N,12118.00000,E,9.719,0.000,200720,0.000,E,A,V*6F

$GPRMC,002625,A,3132.33716,N,12118.00000,E,9.719,360.000,200720,0.000,E,A,V*6E

$GPRMC,002626,A,3132.33987,N,12118.00000,E,9.719,0.000,200720,0.000,E,A,V*6E

$GPRMC,002627,A,3132.34257,N,12118.00000,E,9.719,0.000,200720,0.000,E,A,V*6E

$GPRMC,002628,A,3132.34528,N,12118.00000,E,9.719,0.000,200720,0.000,E,A,V*6E

$GPRMC,002629,A,3132.34798,N,12118.00000,E,9.719,0.000,200720,0.000,E,A,V*66

$GPRMC,002630,A,3132.35069,N,12118.00000,E,9.719,0.000,200720,0.000,E,A,V*66

$GPRMC,002631,A,3132.35339,N,12118.00000,E,9.719,0.000,200720,0.000,E,A,V*61

$GPRMC,002632,A,3132.35610,N,12118.00000,E,9.719,0.000,200720,0.000,E,A,V*6C

$GPRMC,002633,A,3132.35880,N,12118.00000,E,9.719,0.000,200720,0.000,E,A,V*6A

$GPRMC,002634,A,3132.36151,N,12118.00000,E,9.719,0.000,200720,0.000,E,A,V*6B

$GPRMC,002635,A,3132.36422,N,12118.00000,E,9.719,360.000,200720,0.000,E,A,V*6E

$GPRMC,002636,A,3132.36692,N,12118.00000,E,9.719,0.000,200720,0.000,E,A,V*61

$GPRMC,002637,A,3132.36963,N,12118.00000,E,9.719,0.000,200720,0.000,E,A,V*61

$GPRMC,002638,A,3132.37233,N,12118.00000,E,9.719,0.000,200720,0.000,E,A,V*61

$GPRMC,002639,A,3132.37504,N,12118.00000,E,9.719,360.000,200720,0.000,E,A,V*66

$GPRMC,002640,A,3132.37774,N,12118.00000,E,9.719,0.000,200720,0.000,E,A,V*68

$GPRMC,002641,A,3132.38045,N,12118.00000,E,9.719,0.000,200720,0.000,E,A,V*63

$GPRMC,002642,A,3132.38316,N,12118.00000,E,9.719,0.000,200720,0.000,E,A,V*65

$GPRMC,002643,A,3132.38586,N,12118.00000,E,9.719,360.000,200720,0.000,E,A,V*6E

$GPRMC,002644,A,3132.38857,N,12118.00000,E,9.719,0.000,200720,0.000,E,A,V*6D

$GPRMC,002645,A,3132.39127,N,12118.00000,E,9.719,0.000,200720,0.000,E,A,V*63

$GPRMC,002646,A,3132.39398,N,12118.00000,E,9.719,0.000,200720,0.000,E,A,V*66

$GPRMC,002647,A,3132.39668,N,12118.00000,E,9.719,0.000,200720,0.000,E,A,V*6D

$GPRMC,002648,A,3132.39939,N,12118.00000,E,9.719,0.000,200720,0.000,E,A,V*69

$GPRMC,002649,A,3132.40209,N,12118.00000,E,9.719,0.000,200720,0.000,E,A,V*6E

$GPRMC,002650,A,3132.40480,N,12118.00000,E,9.719,360.000,200720,0.000,E,A,V*64

$GPRMC,002651,A,3132.40751,N,12118.00000,E,9.719,360.000,200720,0.000,E,A,V*6A

$GPRMC,002652,A,3132.41021,N,12118.00000,E,9.719,0.000,200720,0.000,E,A,V*6D

$GPRMC,002653,A,3132.41292,N,12118.00000,E,9.719,0.000,200720,0.000,E,A,V*66

$GPRMC,002654,A,3132.41562,N,12118.00000,E,9.719,0.000,200720,0.000,E,A,V*69

$GPRMC,002655,A,3132.41833,N,12118.00000,E,9.719,0.000,200720,0.000,E,A,V*61

$GPRMC,002656,A,3132.42103,N,12118.00000,E,9.719,0.000,200720,0.000,E,A,V*6B

$GPRMC,002657,A,3132.42374,N,12118.00000,E,9.719,360.000,200720,0.000,E,A,V*6D

$GPRMC,002658,A,3132.42645,N,12118.00000,E,9.719,0.000,200720,0.000,E,A,V*60

$GPRMC,002659,A,3132.42915,N,12118.00000,E,9.719,0.000,200720,0.000,E,A,V*6B

$GPRMC,002700,A,3132.43186,N,12118.00000,E,9.719,0.000,200720,0.000,E,A,V*65

$GPRMC,002701,A,3132.43456,N,12118.00000,E,9.719,360.000,200720,0.000,E,A,V*69

$GPRMC,002702,A,3132.43727,N,12118.00000,E,9.719,360.000,200720,0.000,E,A,V*6F

$GPRMC,002703,A,3132.43997,N,12118.00000,E,9.719,0.000,200720,0.000,E,A,V*6E

$GPRMC,002704,A,3132.44268,N,12118.00000,E,9.719,360.000,200720,0.000,E,A,V*60

$GPRMC,002705,A,3132.44539,N,12118.00000,E,9.719,0.000,200720,0.000,E,A,V*67

$GPRMC,002706,A,3132.44809,N,12118.00000,E,9.719,360.000,200720,0.000,E,A,V*6F

$GPRMC,002707,A,3132.45080,N,12118.00000,E,9.719,0.000,200720,0.000,E,A,V*63

$GPRMC,002708,A,3132.45350,N,12118.00000,E,9.719,360.000,200720,0.000,E,A,V*67

$GPRMC,002709,A,3132.45621,N,12118.00000,E,9.719,0.000,200720,0.000,E,A,V*60

$GPRMC,002710,A,3132.45891,N,12118.00000,E,9.719,0.000,200720,0.000,E,A,V*6D

$GPRMC,002711,A,3132.46162,N,12118.00000,E,9.719,0.000,200720,0.000,E,A,V*6A

$GPRMC,002712,A,3132.46432,N,12118.00000,E,9.719,360.000,200720,0.000,E,A,V*6C

$GPRMC,002713,A,3132.46703,N,12118.00000,E,9.719,360.000,200720,0.000,E,A,V*6C

$GPRMC,002714,A,3132.46974,N,12118.00000,E,9.719,0.000,200720,0.000,E,A,V*60

$GPRMC,002715,A,3132.47244,N,12118.00000,E,9.719,0.000,200720,0.000,E,A,V*68

$GPRMC,002716,A,3132.47515,N,12118.00000,E,9.719,360.000,200720,0.000,E,A,V*6D

$GPRMC,002717,A,3132.47785,N,12118.00000,E,9.719,360.000,200720,0.000,E,A,V*67

$GPRMC,002718,A,3132.48056,N,12118.00000,E,9.719,0.000,200720,0.000,E,A,V*6B

$GPRMC,002719,A,3132.48326,N,12118.00000,E,9.719,0.000,200720,0.000,E,A,V*6E

$GPRMC,002720,A,3132.48597,N,12118.00000,E,9.719,0.000,200720,0.000,E,A,V*68

$GPRMC,002721,A,3132.48868,N,12118.00000,E,9.719,0.000,200720,0.000,E,A,V*64

$GPRMC,002722,A,3132.49138,N,12118.00000,E,9.719,0.000,200720,0.000,E,A,V*6A

$GPRMC,002723,A,3132.49409,N,12118.00000,E,9.719,0.000,200720,0.000,E,A,V*6C

$GPRMC,002724,A,3132.49679,N,12118.00000,E,9.719,360.000,200720,0.000,E,A,V*6B

$GPRMC,002725,A,3132.49950,N,12118.00000,E,9.719,360.000,200720,0.000,E,A,V*6E

$GPRMC,002726,A,3132.50220,N,12118.00000,E,9.719,0.000,200720,0.000,E,A,V*6C

$GPRMC,002727,A,3132.50491,N,12118.00000,E,9.719,0.000,200720,0.000,E,A,V*61

$GPRMC,002728,A,3132.50761,N,12118.00000,E,9.719,0.000,200720,0.000,E,A,V*62

$GPRMC,002729,A,3132.51032,N,12118.00000,E,9.719,360.000,200720,0.000,E,A,V*66

$GPRMC,002730,A,3132.51303,N,12118.00000,E,9.719,360.000,200720,0.000,E,A,V*6F

$GPRMC,002731,A,3132.51573,N,12118.00000,E,9.719,0.000,200720,0.000,E,A,V*6A

$GPRMC,002732,A,3132.51844,N,12118.00000,E,9.719,0.000,200720,0.000,E,A,V*60

$GPRMC,002733,A,3132.52114,N,12118.00000,E,9.719,0.000,200720,0.000,E,A,V*6E

$GPRMC,002734,A,3132.52385,N,12118.00000,E,9.719,0.000,200720,0.000,E,A,V*63

$GPRMC,002735,A,3132.52655,N,12118.00000,E,9.719,0.000,200720,0.000,E,A,V*6A

$GPRMC,002736,A,3132.52926,N,12118.00000,E,9.719,360.000,200720,0.000,E,A,V*67

$GPRMC,002737,A,3132.53197,N,12118.00000,E,9.719,0.000,200720,0.000,E,A,V*60

$GPRMC,002738,A,3132.53467,N,12118.00000,E,9.719,0.000,200720,0.000,E,A,V*65

$GPRMC,002739,A,3132.53738,N,12118.00000,E,9.719,360.000,200720,0.000,E,A,V*68

$GPRMC,002740,A,3132.54008,N,12118.00000,E,9.719,360.000,200720,0.000,E,A,V*65

$GPRMC,002741,A,3132.54279,N,12118.00000,E,9.719,0.000,200720,0.000,E,A,V*65

$GPRMC,002742,A,3132.54549,N,12118.00000,E,9.719,0.000,200720,0.000,E,A,V*62

$GPRMC,002743,A,3132.54820,N,12118.00000,E,9.719,360.000,200720,0.000,E,A,V*64

$GPRMC,002744,A,3132.55090,N,12118.00000,E,9.719,0.000,200720,0.000,E,A,V*64

$GPRMC,002745,A,3132.55361,N,12118.00000,E,9.719,0.000,200720,0.000,E,A,V*68

$GPRMC,002746,A,3132.55632,N,12118.00000,E,9.719,0.000,200720,0.000,E,A,V*68

$GPRMC,002747,A,3132.55902,N,12118.00000,E,9.719,0.000,200720,0.000,E,A,V*65

$GPRMC,002748,A,3132.56173,N,12118.00000,E,9.719,0.000,200720,0.000,E,A,V*67

$GPRMC,002749,A,3132.56443,N,12118.00000,E,9.719,0.000,200720,0.000,E,A,V*60

$GPRMC,002750,A,3132.56714,N,12118.00000,E,9.719,0.000,200720,0.000,E,A,V*69

$GPRMC,002751,A,3132.56984,N,12118.00000,E,9.719,360.000,200720,0.000,E,A,V*6A

$GPRMC,002752,A,3132.57255,N,12118.00000,E,9.719,0.000,200720,0.000,E,A,V*6A

$GPRMC,002753,A,3132.57526,N,12118.00000,E,9.719,0.000,200720,0.000,E,A,V*68

$GPRMC,002754,A,3132.57796,N,12118.00000,E,9.719,360.000,200720,0.000,E,A,V*63

$GPRMC,002755,A,3132.58067,N,12118.00000,E,9.719,0.000,200720,0.000,E,A,V*61

$GPRMC,002756,A,3132.58337,N,12118.00000,E,9.719,360.000,200720,0.000,E,A,V*61

$GPRMC,002757,A,3132.58608,N,12118.00000,E,9.719,0.000,200720,0.000,E,A,V*6C

$GPRMC,002758,A,3132.58878,N,12118.00000,E,9.719,0.000,200720,0.000,E,A,V*6A

$GPRMC,002759,A,3132.59149,N,12118.00000,E,9.719,0.000,200720,0.000,E,A,V*61

$GPRMC,002800,A,3132.59419,N,12118.00000,E,9.719,0.000,200720,0.000,E,A,V*62

$GPRMC,002801,A,3132.59690,N,12118.00000,E,9.719,0.000,200720,0.000,E,A,V*60

$GPRMC,002802,A,3132.59961,N,12118.00000,E,9.719,0.000,200720,0.000,E,A,V*62

$GPRMC,002803,A,3132.60231,N,12118.00000,E,9.719,0.000,200720,0.000,E,A,V*67

$GPRMC,002804,A,3132.60502,N,12118.00000,E,9.719,0.000,200720,0.000,E,A,V*67

$GPRMC,002805,A,3132.60772,N,12118.00000,E,9.719,0.000,200720,0.000,E,A,V*63

$GPRMC,002806,A,3132.61043,N,12118.00000,E,9.719,0.000,200720,0.000,E,A,V*64

$GPRMC,002807,A,3132.61313,N,12118.00000,E,9.719,360.000,200720,0.000,E,A,V*66

$GPRMC,002808,A,3132.61584,N,12118.00000,E,9.719,0.000,200720,0.000,E,A,V*64

$GPRMC,002809,A,3132.61855,N,12118.00000,E,9.719,360.000,200720,0.000,E,A,V*61

$GPRMC,002810,A,3132.62125,N,12118.00000,E,9.719,0.000,200720,0.000,E,A,V*61

$GPRMC,002811,A,3132.62396,N,12118.00000,E,9.719,0.000,200720,0.000,E,A,V*6A

$GPRMC,002812,A,3132.62666,N,12118.00000,E,9.719,0.000,200720,0.000,E,A,V*63

$GPRMC,002813,A,3132.62937,N,12118.00000,E,9.719,360.000,200720,0.000,E,A,V*6C

$GPRMC,002814,A,3132.63207,N,12118.00000,E,9.719,360.000,200720,0.000,E,A,V*62

$GPRMC,002815,A,3132.63478,N,12118.00000,E,9.719,0.000,200720,0.000,E,A,V*68

$GPRMC,002816,A,3132.63749,N,12118.00000,E,9.719,0.000,200720,0.000,E,A,V*6A

$GPRMC,002817,A,3132.64019,N,12118.00000,E,9.719,0.000,200720,0.000,E,A,V*6E

$GPRMC,002818,A,3132.64290,N,12118.00000,E,9.719,360.000,200720,0.000,E,A,V*67

$GPRMC,002819,A,3132.64560,N,12118.00000,E,9.719,0.000,200720,0.000,E,A,V*6B

$GPRMC,002820,A,3132.64831,N,12118.00000,E,9.719,0.000,200720,0.000,E,A,V*68

$GPRMC,002821,A,3132.65101,N,12118.00000,E,9.719,0.000,200720,0.000,E,A,V*62

$GPRMC,002822,A,3132.65372,N,12118.00000,E,9.719,0.000,200720,0.000,E,A,V*67

$GPRMC,002823,A,3132.65642,N,12118.00000,E,9.719,360.000,200720,0.000,E,A,V*65

$GPRMC,002824,A,3132.65913,N,12118.00000,E,9.719,0.000,200720,0.000,E,A,V*6C

$GPRMC,002825,A,3132.66184,N,12118.00000,E,9.719,0.000,200720,0.000,E,A,V*68

$GPRMC,002826,A,3132.66454,N,12118.00000,E,9.719,0.000,200720,0.000,E,A,V*63

$GPRMC,002827,A,3132.66725,N,12118.00000,E,9.719,360.000,200720,0.000,E,A,V*62

$GPRMC,002828,A,3132.66995,N,12118.00000,E,9.719,0.000,200720,0.000,E,A,V*6D

$GPRMC,002829,A,3132.67266,N,12118.00000,E,9.719,360.000,200720,0.000,E,A,V*6F

$GPRMC,002830,A,3132.67536,N,12118.00000,E,9.719,0.000,200720,0.000,E,A,V*60

$GPRMC,002831,A,3132.67807,N,12118.00000,E,9.719,360.000,200720,0.000,E,A,V*6B

$GPRMC,002832,A,3132.68078,N,12118.00000,E,9.719,360.000,200720,0.000,E,A,V*67

$GPRMC,002833,A,3132.68348,N,12118.00000,E,9.719,360.000,200720,0.000,E,A,V*66

$GPRMC,002834,A,3132.68619,N,12118.00000,E,9.719,0.000,200720,0.000,E,A,V*65

$GPRMC,002835,A,3132.68889,N,12118.00000,E,9.719,360.000,200720,0.000,E,A,V*66

$GPRMC,002836,A,3132.69160,N,12118.00000,E,9.719,0.000,200720,0.000,E,A,V*6F

$GPRMC,002837,A,3132.69430,N,12118.00000,E,9.719,0.000,200720,0.000,E,A,V*6E

$GPRMC,002838,A,3132.69701,N,12118.00000,E,9.719,360.000,200720,0.000,E,A,V*65

$GPRMC,002839,A,3132.69971,N,12118.00000,E,9.719,0.000,200720,0.000,E,A,V*68

$GPRMC,002840,A,3132.70242,N,12118.00000,E,9.719,0.000,200720,0.000,E,A,V*65

$GPRMC,002841,A,3132.70513,N,12118.00000,E,9.719,0.000,200720,0.000,E,A,V*67

$GPRMC,002842,A,3132.70783,N,12118.00000,E,9.719,360.000,200720,0.000,E,A,V*6A

$GPRMC,002843,A,3132.71054,N,12118.00000,E,9.719,0.000,200720,0.000,E,A,V*62

$GPRMC,002844,A,3132.71324,N,12118.00000,E,9.719,360.000,200720,0.000,E,A,V*64

$GPRMC,002845,A,3132.71595,N,12118.00000,E,9.719,360.000,200720,0.000,E,A,V*69

$GPRMC,002846,A,3132.71865,N,12118.00000,E,9.719,0.000,200720,0.000,E,A,V*6D

$GPRMC,002847,A,3132.72136,N,12118.00000,E,9.719,0.000,200720,0.000,E,A,V*60

$GPRMC,002848,A,3132.72407,N,12118.00000,E,9.719,0.000,200720,0.000,E,A,V*68

$GPRMC,002849,A,3132.72677,N,12118.00000,E,9.719,0.000,200720,0.000,E,A,V*6C

$GPRMC,002850,A,3132.72948,N,12118.00000,E,9.719,0.000,200720,0.000,E,A,V*67

$GPRMC,002851,A,3132.73218,N,12118.00000,E,9.719,0.000,200720,0.000,E,A,V*69

$GPRMC,002852,A,3132.73489,N,12118.00000,E,9.719,360.000,200720,0.000,E,A,V*61

$GPRMC,002853,A,3132.73759,N,12118.00000,E,9.719,0.000,200720,0.000,E,A,V*6B

$GPRMC,002854,A,3132.74030,N,12118.00000,E,9.719,0.000,200720,0.000,E,A,V*63

$GPRMC,002855,A,3132.74300,N,12118.00000,E,9.719,360.000,200720,0.000,E,A,V*67

$GPRMC,002856,A,3132.74571,N,12118.00000,E,9.719,360.000,200720,0.000,E,A,V*64

$GPRMC,002857,A,3132.74842,N,12118.00000,E,9.719,0.000,200720,0.000,E,A,V*6D

$GPRMC,002858,A,3132.75112,N,12118.00000,E,9.719,0.000,200720,0.000,E,A,V*6F

$GPRMC,002859,A,3132.75383,N,12118.00000,E,9.719,0.000,200720,0.000,E,A,V*64

$GPRMC,002900,A,3132.75653,N,12118.00000,E,9.719,0.000,200720,0.000,E,A,V*61

$GPRMC,002901,A,3132.75924,N,12118.00000,E,9.719,360.000,200720,0.000,E,A,V*6A

$GPRMC,002902,A,3132.76194,N,12118.00000,E,9.719,0.000,200720,0.000,E,A,V*6C

$GPRMC,002903,A,3132.76465,N,12118.00000,E,9.719,0.000,200720,0.000,E,A,V*66

$GPRMC,002904,A,3132.76736,N,12118.00000,E,9.719,0.000,200720,0.000,E,A,V*64

$GPRMC,002905,A,3132.77006,N,12118.00000,E,9.719,0.000,200720,0.000,E,A,V*60

$GPRMC,002906,A,3132.77277,N,12118.00000,E,9.719,0.000,200720,0.000,E,A,V*67

$GPRMC,002907,A,3132.77547,N,12118.00000,E,9.719,360.000,200720,0.000,E,A,V*67

$GPRMC,002908,A,3132.77818,N,12118.00000,E,9.719,0.000,200720,0.000,E,A,V*6A

$GPRMC,002909,A,3132.78088,N,12118.00000,E,9.719,360.000,200720,0.000,E,A,V*60

$GPRMC,002910,A,3132.78359,N,12118.00000,E,9.719,0.000,200720,0.000,E,A,V*62

$GPRMC,002911,A,3132.78629,N,12118.00000,E,9.719,0.000,200720,0.000,E,A,V*61

$GPRMC,002912,A,3132.78900,N,12118.00000,E,9.719,0.000,200720,0.000,E,A,V*66

$GPRMC,002913,A,3132.79171,N,12118.00000,E,9.719,360.000,200720,0.000,E,A,V*6D

$GPRMC,002914,A,3132.79441,N,12118.00000,E,9.719,0.000,200720,0.000,E,A,V*69

$GPRMC,002915,A,3132.79712,N,12118.00000,E,9.719,360.000,200720,0.000,E,A,V*68

$GPRMC,002916,A,3132.79982,N,12118.00000,E,9.719,360.000,200720,0.000,E,A,V*6C

$GPRMC,002917,A,3132.80253,N,12118.00000,E,9.719,0.000,200720,0.000,E,A,V*69

$GPRMC,002918,A,3132.80523,N,12118.00000,E,9.719,360.000,200720,0.000,E,A,V*63

$GPRMC,002919,A,3132.80794,N,12118.00000,E,9.719,360.000,200720,0.000,E,A,V*6C

$GPRMC,002920,A,3132.81065,N,12118.00000,E,9.719,0.000,200720,0.000,E,A,V*6B

$GPRMC,002921,A,3132.81335,N,12118.00000,E,9.719,360.000,200720,0.000,E,A,V*69

$GPRMC,002922,A,3132.81606,N,12118.00000,E,9.719,0.000,200720,0.000,E,A,V*6A

$GPRMC,002923,A,3132.81876,N,12118.00000,E,9.719,0.000,200720,0.000,E,A,V*62

$GPRMC,002924,A,3132.82147,N,12118.00000,E,9.719,0.000,200720,0.000,E,A,V*6D

$GPRMC,002925,A,3132.82417,N,12118.00000,E,9.719,0.000,200720,0.000,E,A,V*6C

$GPRMC,002926,A,3132.82688,N,12118.00000,E,9.719,0.000,200720,0.000,E,A,V*6B

$GPRMC,002927,A,3132.82959,N,12118.00000,E,9.719,0.000,200720,0.000,E,A,V*69

$GPRMC,002928,A,3132.83229,N,12118.00000,E,9.719,0.000,200720,0.000,E,A,V*6B

$GPRMC,002929,A,3132.83500,N,12118.00000,E,9.719,0.000,200720,0.000,E,A,V*66

$GPRMC,002930,A,3132.83770,N,12118.00000,E,9.719,0.000,200720,0.000,E,A,V*6B

$GPRMC,002931,A,3132.84041,N,12118.00000,E,9.719,0.000,200720,0.000,E,A,V*68

$GPRMC,002932,A,3132.84311,N,12118.00000,E,9.719,360.000,200720,0.000,E,A,V*68

$GPRMC,002933,A,3132.84582,N,12118.00000,E,9.719,0.000,200720,0.000,E,A,V*60

$GPRMC,002934,A,3132.84852,N,12118.00000,E,9.719,0.000,200720,0.000,E,A,V*67

$GPRMC,002935,A,3132.85123,N,12118.00000,E,9.719,0.000,200720,0.000,E,A,V*68

$GPRMC,002936,A,3132.85394,N,12118.00000,E,9.719,0.000,200720,0.000,E,A,V*65

$GPRMC,002937,A,3132.85664,N,12118.00000,E,9.719,0.000,200720,0.000,E,A,V*6E

$GPRMC,002938,A,3132.85935,N,12118.00000,E,9.719,0.000,200720,0.000,E,A,V*6A

$GPRMC,002939,A,3132.86205,N,12118.00000,E,9.719,360.000,200720,0.000,E,A,V*65

$GPRMC,002940,A,3132.86476,N,12118.00000,E,9.719,0.000,200720,0.000,E,A,V*6C

$GPRMC,002941,A,3132.86746,N,12118.00000,E,9.719,0.000,200720,0.000,E,A,V*6D

$GPRMC,002942,A,3132.87017,N,12118.00000,E,9.719,360.000,200720,0.000,E,A,V*69

$GPRMC,002943,A,3132.87288,N,12118.00000,E,9.719,0.000,200720,0.000,E,A,V*69

$GPRMC,002944,A,3132.87558,N,12118.00000,E,9.719,0.000,200720,0.000,E,A,V*64

$GPRMC,002945,A,3132.87829,N,12118.00000,E,9.719,360.000,200720,0.000,E,A,V*6B

$GPRMC,002946,A,3132.88099,N,12118.00000,E,9.719,360.000,200720,0.000,E,A,V*64

$GPRMC,002947,A,3132.88370,N,12118.00000,E,9.719,0.000,200720,0.000,E,A,V*64

$GPRMC,002948,A,3132.88640,N,12118.00000,E,9.719,360.000,200720,0.000,E,A,V*68

$GPRMC,002949,A,3132.88911,N,12118.00000,E,9.719,0.000,200720,0.000,E,A,V*67

$GPRMC,002950,A,3132.89181,N,12118.00000,E,9.719,0.000,200720,0.000,E,A,V*6F

$GPRMC,002951,A,3132.89452,N,12118.00000,E,9.719,0.000,200720,0.000,E,A,V*65

$GPRMC,002952,A,3132.89723,N,12118.00000,E,9.719,0.000,200720,0.000,E,A,V*63

$GPRMC,002953,A,3132.89993,N,12118.00000,E,9.719,0.000,200720,0.000,E,A,V*67

$GPRMC,002954,A,3132.90264,N,12118.00000,E,9.719,0.000,200720,0.000,E,A,V*6B

$GPRMC,002955,A,3132.90534,N,12118.00000,E,9.719,0.000,200720,0.000,E,A,V*68

$GPRMC,002956,A,3132.90805,N,12118.00000,E,9.719,0.000,200720,0.000,E,A,V*64

$GPRMC,002957,A,3132.91075,N,12118.00000,E,9.719,360.000,200720,0.000,E,A,V*6E

$GPRMC,002958,A,3132.91346,N,12118.00000,E,9.719,0.000,200720,0.000,E,A,V*67

$GPRMC,002959,A,3132.91617,N,12118.00000,E,9.719,0.000,200720,0.000,E,A,V*67

$GPRMC,003000,A,3132.91887,N,12118.00000,E,9.719,0.000,200720,0.000,E,A,V*64

$GPRMC,003001,A,3132.92158,N,12118.00000,E,9.719,0.000,200720,0.000,E,A,V*6D

$GPRMC,003002,A,3132.92428,N,12118.00000,E,9.719,360.000,200720,0.000,E,A,V*69

$GPRMC,003003,A,3132.92699,N,12118.00000,E,9.719,360.000,200720,0.000,E,A,V*60

$GPRMC,003004,A,3132.92969,N,12118.00000,E,9.719,0.000,200720,0.000,E,A,V*62

$GPRMC,003005,A,3132.93240,N,12118.00000,E,9.719,360.000,200720,0.000,E,A,V*67

$GPRMC,003006,A,3132.93510,N,12118.00000,E,9.719,0.000,200720,0.000,E,A,V*63

$GPRMC,003007,A,3132.93781,N,12118.00000,E,9.719,0.000,200720,0.000,E,A,V*68

$GPRMC,003008,A,3132.94052,N,12118.00000,E,9.719,360.000,200720,0.000,E,A,V*6C

$GPRMC,003009,A,3132.94322,N,12118.00000,E,9.719,0.000,200720,0.000,E,A,V*6C

$GPRMC,003010,A,3132.94593,N,12118.00000,E,9.719,360.000,200720,0.000,E,A,V*6D

$GPRMC,003011,A,3132.94863,N,12118.00000,E,9.719,360.000,200720,0.000,E,A,V*6E

$GPRMC,003012,A,3132.95134,N,12118.00000,E,9.719,0.000,200720,0.000,E,A,V*62

$GPRMC,003013,A,3132.95404,N,12118.00000,E,9.719,0.000,200720,0.000,E,A,V*65

$GPRMC,003014,A,3132.95675,N,12118.00000,E,9.719,0.000,200720,0.000,E,A,V*66

$GPRMC,003015,A,3132.95946,N,12118.00000,E,9.719,360.000,200720,0.000,E,A,V*6D

$GPRMC,003016,A,3132.96216,N,12118.00000,E,9.719,0.000,200720,0.000,E,A,V*66

$GPRMC,003017,A,3132.96487,N,12118.00000,E,9.719,360.000,200720,0.000,E,A,V*6C

$GPRMC,003018,A,3132.96757,N,12118.00000,E,9.719,0.000,200720,0.000,E,A,V*68

$GPRMC,003019,A,3132.97028,N,12118.00000,E,9.719,0.000,200720,0.000,E,A,V*67

$GPRMC,003020,A,3132.97298,N,12118.00000,E,9.719,0.000,200720,0.000,E,A,V*64

$GPRMC,003021,A,3132.97569,N,12118.00000,E,9.719,0.000,200720,0.000,E,A,V*6C

$GPRMC,003022,A,3132.97839,N,12118.00000,E,9.719,0.000,200720,0.000,E,A,V*67

$GPRMC,003023,A,3132.98110,N,12118.00000,E,9.719,0.000,200720,0.000,E,A,V*6B

$GPRMC,003024,A,3132.98381,N,12118.00000,E,9.719,0.000,200720,0.000,E,A,V*66

$GPRMC,003025,A,3132.98651,N,12118.00000,E,9.719,360.000,200720,0.000,E,A,V*6A

$GPRMC,003026,A,3132.98922,N,12118.00000,E,9.719,0.000,200720,0.000,E,A,V*67

$GPRMC,003027,A,3132.99192,N,12118.00000,E,9.719,0.000,200720,0.000,E,A,V*64

$GPRMC,003028,A,3132.99463,N,12118.00000,E,9.719,0.000,200720,0.000,E,A,V*60

$GPRMC,003029,A,3132.99733,N,12118.00000,E,9.719,0.000,200720,0.000,E,A,V*67

$GPRMC,003030,A,3133.00004,N,12118.00000,E,9.719,360.000,200720,0.000,E,A,V*68

$GPRMC,003031,A,3133.00275,N,12118.00000,E,9.719,0.000,200720,0.000,E,A,V*68

$GPRMC,003032,A,3133.00545,N,12118.00000,E,9.719,0.000,200720,0.000,E,A,V*6F

$GPRMC,003033,A,3133.00816,N,12118.00000,E,9.719,360.000,200720,0.000,E,A,V*60

$GPRMC,003034,A,3133.01086,N,12118.00000,E,9.719,0.000,200720,0.000,E,A,V*62

$GPRMC,003035,A,3133.01357,N,12118.00000,E,9.719,360.000,200720,0.000,E,A,V*69

$GPRMC,003036,A,3133.01627,N,12118.00000,E,9.719,0.000,200720,0.000,E,A,V*6D

$GPRMC,003037,A,3133.01898,N,12118.00000,E,9.719,0.000,200720,0.000,E,A,V*66

$GPRMC,003038,A,3133.02168,N,12118.00000,E,9.719,0.000,200720,0.000,E,A,V*6C

$GPRMC,003039,A,3133.02439,N,12118.00000,E,9.719,0.000,200720,0.000,E,A,V*6C

$GPRMC,003040,A,3133.02710,N,12118.00000,E,9.719,0.000,200720,0.000,E,A,V*6A

$GPRMC,003041,A,3133.02980,N,12118.00000,E,9.719,0.000,200720,0.000,E,A,V*6C

$GPRMC,003042,A,3133.03251,N,12118.00000,E,9.719,0.000,200720,0.000,E,A,V*69

$GPRMC,003043,A,3133.03521,N,12118.00000,E,9.719,0.000,200720,0.000,E,A,V*68

$GPRMC,003044,A,3133.03792,N,12118.00000,E,9.719,0.000,200720,0.000,E,A,V*65

$GPRMC,003045,A,3133.04062,N,12118.00000,E,9.719,0.000,200720,0.000,E,A,V*6B

$GPRMC,003046,A,3133.04333,N,12118.00000,E,9.719,0.000,200720,0.000,E,A,V*6F

$GPRMC,003047,A,3133.04604,N,12118.00000,E,9.719,0.000,200720,0.000,E,A,V*6F

$GPRMC,003048,A,3133.04874,N,12118.00000,E,9.719,0.000,200720,0.000,E,A,V*69

$GPRMC,003049,A,3133.05145,N,12118.00000,E,9.719,0.000,200720,0.000,E,A,V*62

$GPRMC,003050,A,3133.05415,N,12118.00000,E,9.719,0.000,200720,0.000,E,A,V*6A

$GPRMC,003051,A,3133.05686,N,12118.00000,E,9.719,0.000,200720,0.000,E,A,V*63

$GPRMC,003052,A,3133.05956,N,12118.00000,E,9.719,360.000,200720,0.000,E,A,V*67

$GPRMC,003053,A,3133.06227,N,12118.00000,E,9.719,0.000,200720,0.000,E,A,V*6D

$GPRMC,003054,A,3133.06498,N,12118.00000,E,9.719,0.000,200720,0.000,E,A,V*68

$GPRMC,003055,A,3133.06768,N,12118.00000,E,9.719,360.000,200720,0.000,E,A,V*60

$GPRMC,003056,A,3133.07039,N,12118.00000,E,9.719,0.000,200720,0.000,E,A,V*64

$GPRMC,003057,A,3133.07309,N,12118.00000,E,9.719,0.000,200720,0.000,E,A,V*65

$GPRMC,003058,A,3133.07580,N,12118.00000,E,9.719,360.000,200720,0.000,E,A,V*68

$GPRMC,003059,A,3133.07850,N,12118.00000,E,9.719,360.000,200720,0.000,E,A,V*69

$GPRMC,003100,A,3133.08121,N,12118.00000,E,9.719,360.000,200720,0.000,E,A,V*64

$GPRMC,003101,A,3133.08391,N,12118.00000,E,9.719,0.000,200720,0.000,E,A,V*69

$GPRMC,003102,A,3133.08662,N,12118.00000,E,9.719,0.000,200720,0.000,E,A,V*63

$GPRMC,003103,A,3133.08933,N,12118.00000,E,9.719,0.000,200720,0.000,E,A,V*69

$GPRMC,003104,A,3133.09203,N,12118.00000,E,9.719,0.000,200720,0.000,E,A,V*67

$GPRMC,003105,A,3133.09474,N,12118.00000,E,9.719,0.000,200720,0.000,E,A,V*60

$GPRMC,003106,A,3133.09744,N,12118.00000,E,9.719,360.000,200720,0.000,E,A,V*66

$GPRMC,003107,A,3133.10015,N,12118.00000,E,9.719,0.000,200720,0.000,E,A,V*69

$GPRMC,003108,A,3133.10285,N,12118.00000,E,9.719,0.000,200720,0.000,E,A,V*6D

$GPRMC,003109,A,3133.10556,N,12118.00000,E,9.719,360.000,200720,0.000,E,A,V*60

$GPRMC,003110,A,3133.10827,N,12118.00000,E,9.719,0.000,200720,0.000,E,A,V*66

$GPRMC,003111,A,3133.11097,N,12118.00000,E,9.719,360.000,200720,0.000,E,A,V*60

$GPRMC,003112,A,3133.11368,N,12118.00000,E,9.719,0.000,200720,0.000,E,A,V*65

$GPRMC,003113,A,3133.11638,N,12118.00000,E,9.719,0.000,200720,0.000,E,A,V*64

$GPRMC,003114,A,3133.11909,N,12118.00000,E,9.719,360.000,200720,0.000,E,A,V*6B

$GPRMC,003115,A,3133.12179,N,12118.00000,E,9.719,0.000,200720,0.000,E,A,V*63

$GPRMC,003116,A,3133.12450,N,12118.00000,E,9.719,0.000,200720,0.000,E,A,V*6E

$GPRMC,003117,A,3133.12720,N,12118.00000,E,9.719,0.000,200720,0.000,E,A,V*6B

$GPRMC,003118,A,3133.12991,N,12118.00000,E,9.719,0.000,200720,0.000,E,A,V*60

$GPRMC,003119,A,3133.13262,N,12118.00000,E,9.719,0.000,200720,0.000,E,A,V*67

$GPRMC,003120,A,3133.13532,N,12118.00000,E,9.719,360.000,200720,0.000,E,A,V*6A

$GPRMC,003121,A,3133.13803,N,12118.00000,E,9.719,0.000,200720,0.000,E,A,V*61

$GPRMC,003122,A,3133.14073,N,12118.00000,E,9.719,0.000,200720,0.000,E,A,V*6A

$GPRMC,003123,A,3133.14344,N,12118.00000,E,9.719,0.000,200720,0.000,E,A,V*6C

$GPRMC,003124,A,3133.14614,N,12118.00000,E,9.719,360.000,200720,0.000,E,A,V*6E

$GPRMC,003125,A,3133.14885,N,12118.00000,E,9.719,0.000,200720,0.000,E,A,V*6C

$GPRMC,003126,A,3133.15156,N,12118.00000,E,9.719,0.000,200720,0.000,E,A,V*69

$GPRMC,003127,A,3133.15426,N,12118.00000,E,9.719,0.000,200720,0.000,E,A,V*6A

$GPRMC,003128,A,3133.15697,N,12118.00000,E,9.719,0.000,200720,0.000,E,A,V*6D

$GPRMC,003129,A,3133.15967,N,12118.00000,E,9.719,0.000,200720,0.000,E,A,V*6C

$GPRMC,003130,A,3133.16238,N,12118.00000,E,9.719,0.000,200720,0.000,E,A,V*66

$GPRMC,003131,A,3133.16508,N,12118.00000,E,9.719,360.000,200720,0.000,E,A,V*66

$GPRMC,003132,A,3133.16779,N,12118.00000,E,9.719,360.000,200720,0.000,E,A,V*61

$GPRMC,003133,A,3133.17049,N,12118.00000,E,9.719,0.000,200720,0.000,E,A,V*60

$GPRMC,003134,A,3133.17320,N,12118.00000,E,9.719,0.000,200720,0.000,E,A,V*6B

$GPRMC,003135,A,3133.17591,N,12118.00000,E,9.719,0.000,200720,0.000,E,A,V*66

$GPRMC,003136,A,3133.17861,N,12118.00000,E,9.719,0.000,200720,0.000,E,A,V*67

$GPRMC,003137,A,3133.18132,N,12118.00000,E,9.719,360.000,200720,0.000,E,A,V*63

$GPRMC,003138,A,3133.18402,N,12118.00000,E,9.719,0.000,200720,0.000,E,A,V*6F

$GPRMC,003139,A,3133.18673,N,12118.00000,E,9.719,0.000,200720,0.000,E,A,V*6A

$GPRMC,003140,A,3133.18943,N,12118.00000,E,9.719,0.000,200720,0.000,E,A,V*68

$GPRMC,003141,A,3133.19214,N,12118.00000,E,9.719,0.000,200720,0.000,E,A,V*61

$GPRMC,003142,A,3133.19485,N,12118.00000,E,9.719,0.000,200720,0.000,E,A,V*6C

$GPRMC,003143,A,3133.19755,N,12118.00000,E,9.719,360.000,200720,0.000,E,A,V*66

$GPRMC,003144,A,3133.20026,N,12118.00000,E,9.719,0.000,200720,0.000,E,A,V*6D

$GPRMC,003145,A,3133.20296,N,12118.00000,E,9.719,0.000,200720,0.000,E,A,V*65

$GPRMC,003146,A,3133.20567,N,12118.00000,E,9.719,360.000,200720,0.000,E,A,V*6A

$GPRMC,003147,A,3133.20837,N,12118.00000,E,9.719,0.000,200720,0.000,E,A,V*66

$GPRMC,003148,A,3133.21108,N,12118.00000,E,9.719,0.000,200720,0.000,E,A,V*6D

$GPRMC,003149,A,3133.21378,N,12118.00000,E,9.719,0.000,200720,0.000,E,A,V*69

$GPRMC,003150,A,3133.21649,N,12118.00000,E,9.719,360.000,200720,0.000,E,A,V*63

$GPRMC,003151,A,3133.21920,N,12118.00000,E,9.719,0.000,200720,0.000,E,A,V*67

$GPRMC,003152,A,3133.22190,N,12118.00000,E,9.719,0.000,200720,0.000,E,A,V*64

$GPRMC,003153,A,3133.22461,N,12118.00000,E,9.719,0.000,200720,0.000,E,A,V*6E

$GPRMC,003154,A,3133.22731,N,12118.00000,E,9.719,360.000,200720,0.000,E,A,V*6A

$GPRMC,003155,A,3133.23002,N,12118.00000,E,9.719,360.000,200720,0.000,E,A,V*6D

$GPRMC,003156,A,3133.23272,N,12118.00000,E,9.719,0.000,200720,0.000,E,A,V*6E

$GPRMC,003157,A,3133.23543,N,12118.00000,E,9.719,0.000,200720,0.000,E,A,V*6A

$GPRMC,003158,A,3133.23814,N,12118.00000,E,9.719,360.000,200720,0.000,E,A,V*6F

$GPRMC,003159,A,3133.24084,N,12118.00000,E,9.719,0.000,200720,0.000,E,A,V*6D

$GPRMC,003200,A,3133.24355,N,12118.00000,E,9.719,360.000,200720,0.000,E,A,V*68

$GPRMC,003201,A,3133.24625,N,12118.00000,E,9.719,0.000,200720,0.000,E,A,V*6E

$GPRMC,003202,A,3133.24896,N,12118.00000,E,9.719,360.000,200720,0.000,E,A,V*6E

$GPRMC,003203,A,3133.25166,N,12118.00000,E,9.719,0.000,200720,0.000,E,A,V*6D

$GPRMC,003204,A,3133.25437,N,12118.00000,E,9.719,360.000,200720,0.000,E,A,V*6E

$GPRMC,003205,A,3133.25707,N,12118.00000,E,9.719,0.000,200720,0.000,E,A,V*6A

$GPRMC,003206,A,3133.25978,N,12118.00000,E,9.719,0.000,200720,0.000,E,A,V*6F

$GPRMC,003207,A,3133.26249,N,12118.00000,E,9.719,0.000,200720,0.000,E,A,V*64

$GPRMC,003208,A,3133.26519,N,12118.00000,E,9.719,360.000,200720,0.000,E,A,V*6C

$GPRMC,003209,A,3133.26790,N,12118.00000,E,9.719,0.000,200720,0.000,E,A,V*6B

$GPRMC,003210,A,3133.27060,N,12118.00000,E,9.719,360.000,200720,0.000,E,A,V*6F

$GPRMC,003211,A,3133.27331,N,12118.00000,E,9.719,0.000,200720,0.000,E,A,V*6C

$GPRMC,003212,A,3133.27601,N,12118.00000,E,9.719,0.000,200720,0.000,E,A,V*69

$GPRMC,003213,A,3133.27872,N,12118.00000,E,9.719,0.000,200720,0.000,E,A,V*62

$GPRMC,003214,A,3133.28143,N,12118.00000,E,9.719,0.000,200720,0.000,E,A,V*61

$GPRMC,003215,A,3133.28413,N,12118.00000,E,9.719,0.000,200720,0.000,E,A,V*60

$GPRMC,003216,A,3133.28684,N,12118.00000,E,9.719,360.000,200720,0.000,E,A,V*6A

$GPRMC,003217,A,3133.28954,N,12118.00000,E,9.719,0.000,200720,0.000,E,A,V*6C

$GPRMC,003218,A,3133.29225,N,12118.00000,E,9.719,360.000,200720,0.000,E,A,V*6A

$GPRMC,003219,A,3133.29495,N,12118.00000,E,9.719,360.000,200720,0.000,E,A,V*66

$GPRMC,003220,A,3133.29766,N,12118.00000,E,9.719,0.000,200720,0.000,E,A,V*66

$GPRMC,003221,A,3133.30036,N,12118.00000,E,9.719,0.000,200720,0.000,E,A,V*6D

$GPRMC,003222,A,3133.30307,N,12118.00000,E,9.719,360.000,200720,0.000,E,A,V*6A

$GPRMC,003223,A,3133.30578,N,12118.00000,E,9.719,0.000,200720,0.000,E,A,V*60

$GPRMC,003224,A,3133.30848,N,12118.00000,E,9.719,0.000,200720,0.000,E,A,V*69

$GPRMC,003225,A,3133.31119,N,12118.00000,E,9.719,360.000,200720,0.000,E,A,V*61

$GPRMC,003226,A,3133.31389,N,12118.00000,E,9.719,0.000,200720,0.000,E,A,V*6C

$GPRMC,003227,A,3133.31660,N,12118.00000,E,9.719,0.000,200720,0.000,E,A,V*6F

$GPRMC,003228,A,3133.31930,N,12118.00000,E,9.719,360.000,200720,0.000,E,A,V*6F

$GPRMC,003229,A,3133.32201,N,12118.00000,E,9.719,0.000,200720,0.000,E,A,V*61

$GPRMC,003230,A,3133.32472,N,12118.00000,E,9.719,360.000,200720,0.000,E,A,V*6E

$GPRMC,003231,A,3133.32742,N,12118.00000,E,9.719,0.000,200720,0.000,E,A,V*6A

$GPRMC,003232,A,3133.33013,N,12118.00000,E,9.719,360.000,200720,0.000,E,A,V*6E

$GPRMC,003233,A,3133.33283,N,12118.00000,E,9.719,0.000,200720,0.000,E,A,V*61

$GPRMC,003234,A,3133.33554,N,12118.00000,E,9.719,0.000,200720,0.000,E,A,V*6B

$GPRMC,003235,A,3133.33824,N,12118.00000,E,9.719,360.000,200720,0.000,E,A,V*65

$GPRMC,003236,A,3133.34095,N,12118.00000,E,9.719,0.000,200720,0.000,E,A,V*66

$GPRMC,003237,A,3133.34365,N,12118.00000,E,9.719,360.000,200720,0.000,E,A,V*6E

$GPRMC,003238,A,3133.34636,N,12118.00000,E,9.719,0.000,200720,0.000,E,A,V*67

$GPRMC,003239,A,3133.34907,N,12118.00000,E,9.719,0.000,200720,0.000,E,A,V*6B

$GPRMC,003240,A,3133.35177,N,12118.00000,E,9.719,360.000,200720,0.000,E,A,V*6E

$GPRMC,003241,A,3133.35448,N,12118.00000,E,9.719,0.000,200720,0.000,E,A,V*63

$GPRMC,003242,A,3133.35718,N,12118.00000,E,9.719,360.000,200720,0.000,E,A,V*63

$GPRMC,003243,A,3133.35989,N,12118.00000,E,9.719,0.000,200720,0.000,E,A,V*61

$GPRMC,003244,A,3133.36259,N,12118.00000,E,9.719,0.000,200720,0.000,E,A,V*63

$GPRMC,003245,A,3133.36530,N,12118.00000,E,9.719,360.000,200720,0.000,E,A,V*6F

$GPRMC,003246,A,3133.36801,N,12118.00000,E,9.719,0.000,200720,0.000,E,A,V*66

$GPRMC,003247,A,3133.37071,N,12118.00000,E,9.719,0.000,200720,0.000,E,A,V*69

$GPRMC,003248,A,3133.37342,N,12118.00000,E,9.719,360.000,200720,0.000,E,A,V*60

$GPRMC,003249,A,3133.37612,N,12118.00000,E,9.719,0.000,200720,0.000,E,A,V*64

$GPRMC,003250,A,3133.37883,N,12118.00000,E,9.719,0.000,200720,0.000,E,A,V*6A

$GPRMC,003251,A,3133.38153,N,12118.00000,E,9.719,360.000,200720,0.000,E,A,V*65

$GPRMC,003252,A,3133.38424,N,12118.00000,E,9.719,0.000,200720,0.000,E,A,V*66

$GPRMC,003253,A,3133.38694,N,12118.00000,E,9.719,0.000,200720,0.000,E,A,V*6E

$GPRMC,003254,A,3133.38965,N,12118.00000,E,9.719,0.000,200720,0.000,E,A,V*68

$GPRMC,003255,A,3133.39236,N,12118.00000,E,9.719,0.000,200720,0.000,E,A,V*65

$GPRMC,003256,A,3133.39506,N,12118.00000,E,9.719,0.000,200720,0.000,E,A,V*62

$GPRMC,003257,A,3133.39777,N,12118.00000,E,9.719,360.000,200720,0.000,E,A,V*62

$GPRMC,003258,A,3133.40047,N,12118.00000,E,9.719,0.000,200720,0.000,E,A,V*62

$GPRMC,003259,A,3133.40318,N,12118.00000,E,9.719,360.000,200720,0.000,E,A,V*6F

$GPRMC,003300,A,3133.40588,N,12118.00000,E,9.719,0.000,200720,0.000,E,A,V*68

$GPRMC,003301,A,3133.40859,N,12118.00000,E,9.719,0.000,200720,0.000,E,A,V*68

$GPRMC,003302,A,3133.41130,N,12118.00000,E,9.719,360.000,200720,0.000,E,A,V*69

$GPRMC,003303,A,3133.41400,N,12118.00000,E,9.719,0.000,200720,0.000,E,A,V*6B

$GPRMC,003304,A,3133.41671,N,12118.00000,E,9.719,0.000,200720,0.000,E,A,V*68

$GPRMC,003305,A,3133.41941,N,12118.00000,E,9.719,0.000,200720,0.000,E,A,V*65

$GPRMC,003306,A,3133.42212,N,12118.00000,E,9.719,0.000,200720,0.000,E,A,V*68

$GPRMC,003307,A,3133.42482,N,12118.00000,E,9.719,0.000,200720,0.000,E,A,V*66

$GPRMC,003308,A,3133.42753,N,12118.00000,E,9.719,360.000,200720,0.000,E,A,V*63

$GPRMC,003309,A,3133.43024,N,12118.00000,E,9.719,0.000,200720,0.000,E,A,V*61

$GPRMC,003310,A,3133.43294,N,12118.00000,E,9.719,0.000,200720,0.000,E,A,V*60

$GPRMC,003311,A,3133.43565,N,12118.00000,E,9.719,360.000,200720,0.000,E,A,V*6D

$GPRMC,003312,A,3133.43835,N,12118.00000,E,9.719,0.000,200720,0.000,E,A,V*63

$GPRMC,003313,A,3133.44106,N,12118.00000,E,9.719,0.000,200720,0.000,E,A,V*6C

$GPRMC,003314,A,3133.44376,N,12118.00000,E,9.719,0.000,200720,0.000,E,A,V*6E

$GPRMC,003315,A,3133.44647,N,12118.00000,E,9.719,0.000,200720,0.000,E,A,V*68

$GPRMC,003316,A,3133.44917,N,12118.00000,E,9.719,0.000,200720,0.000,E,A,V*61

$GPRMC,003317,A,3133.45188,N,12118.00000,E,9.719,0.000,200720,0.000,E,A,V*6F

$GPRMC,003318,A,3133.45459,N,12118.00000,E,9.719,360.000,200720,0.000,E,A,V*6C

$GPRMC,003319,A,3133.45729,N,12118.00000,E,9.719,0.000,200720,0.000,E,A,V*6C

$GPRMC,003320,A,3133.46000,N,12118.00000,E,9.719,360.000,200720,0.000,E,A,V*6C

$GPRMC,003321,A,3133.46270,N,12118.00000,E,9.719,0.000,200720,0.000,E,A,V*6D

$GPRMC,003322,A,3133.46541,N,12118.00000,E,9.719,0.000,200720,0.000,E,A,V*6B

$GPRMC,003323,A,3133.46811,N,12118.00000,E,9.719,0.000,200720,0.000,E,A,V*62

$GPRMC,003324,A,3133.47082,N,12118.00000,E,9.719,360.000,200720,0.000,E,A,V*63

$GPRMC,003325,A,3133.47353,N,12118.00000,E,9.719,360.000,200720,0.000,E,A,V*6D

$GPRMC,003326,A,3133.47623,N,12118.00000,E,9.719,0.000,200720,0.000,E,A,V*69

$GPRMC,003327,A,3133.47894,N,12118.00000,E,9.719,0.000,200720,0.000,E,A,V*6A

$GPRMC,003328,A,3133.48164,N,12118.00000,E,9.719,0.000,200720,0.000,E,A,V*6C

$GPRMC,003329,A,3133.48435,N,12118.00000,E,9.719,0.000,200720,0.000,E,A,V*6C

$GPRMC,003330,A,3133.48705,N,12118.00000,E,9.719,0.000,200720,0.000,E,A,V*64

$GPRMC,003331,A,3133.48976,N,12118.00000,E,9.719,0.000,200720,0.000,E,A,V*6F

$GPRMC,003332,A,3133.49246,N,12118.00000,E,9.719,360.000,200720,0.000,E,A,V*60

$GPRMC,003333,A,3133.49517,N,12118.00000,E,9.719,0.000,200720,0.000,E,A,V*67

$GPRMC,003334,A,3133.49788,N,12118.00000,E,9.719,360.000,200720,0.000,E,A,V*61

$GPRMC,003335,A,3133.50058,N,12118.00000,E,9.719,0.000,200720,0.000,E,A,V*67

$GPRMC,003336,A,3133.50329,N,12118.00000,E,9.719,0.000,200720,0.000,E,A,V*61

$GPRMC,003337,A,3133.50599,N,12118.00000,E,9.719,360.000,200720,0.000,E,A,V*68

$GPRMC,003338,A,3133.50870,N,12118.00000,E,9.719,0.000,200720,0.000,E,A,V*68

$GPRMC,003339,A,3133.51140,N,12118.00000,E,9.719,0.000,200720,0.000,E,A,V*62

$GPRMC,003340,A,3133.51411,N,12118.00000,E,9.719,0.000,200720,0.000,E,A,V*6D

$GPRMC,003341,A,3133.51682,N,12118.00000,E,9.719,0.000,200720,0.000,E,A,V*64

$GPRMC,003342,A,3133.51952,N,12118.00000,E,9.719,360.000,200720,0.000,E,A,V*60

$GPRMC,003343,A,3133.52223,N,12118.00000,E,9.719,0.000,200720,0.000,E,A,V*6A

$GPRMC,003344,A,3133.52493,N,12118.00000,E,9.719,0.000,200720,0.000,E,A,V*60

$GPRMC,003345,A,3133.52764,N,12118.00000,E,9.719,0.000,200720,0.000,E,A,V*6A

$GPRMC,003346,A,3133.53034,N,12118.00000,E,9.719,360.000,200720,0.000,E,A,V*6F

$GPRMC,003347,A,3133.53305,N,12118.00000,E,9.719,0.000,200720,0.000,E,A,V*6A

$GPRMC,003348,A,3133.53575,N,12118.00000,E,9.719,0.000,200720,0.000,E,A,V*64

$GPRMC,003349,A,3133.53846,N,12118.00000,E,9.719,0.000,200720,0.000,E,A,V*68

$GPRMC,003350,A,3133.54117,N,12118.00000,E,9.719,0.000,200720,0.000,E,A,V*6A

$GPRMC,003351,A,3133.54387,N,12118.00000,E,9.719,360.000,200720,0.000,E,A,V*65

$GPRMC,003352,A,3133.54658,N,12118.00000,E,9.719,360.000,200720,0.000,E,A,V*61

$GPRMC,003353,A,3133.54928,N,12118.00000,E,9.719,0.000,200720,0.000,E,A,V*6D

$GPRMC,003354,A,3133.55199,N,12118.00000,E,9.719,0.000,200720,0.000,E,A,V*69

$GPRMC,003355,A,3133.55469,N,12118.00000,E,9.719,0.000,200720,0.000,E,A,V*62

$GPRMC,003356,A,3133.55740,N,12118.00000,E,9.719,0.000,200720,0.000,E,A,V*69

$GPRMC,003357,A,3133.56011,N,12118.00000,E,9.719,0.000,200720,0.000,E,A,V*68

$GPRMC,003358,A,3133.56281,N,12118.00000,E,9.719,0.000,200720,0.000,E,A,V*6C

$GPRMC,003359,A,3133.56552,N,12118.00000,E,9.719,360.000,200720,0.000,E,A,V*61

$GPRMC,003400,A,3133.56822,N,12118.00000,E,9.719,0.000,200720,0.000,E,A,V*65

$GPRMC,003401,A,3133.57093,N,12118.00000,E,9.719,360.000,200720,0.000,E,A,V*62

$GPRMC,003402,A,3133.57363,N,12118.00000,E,9.719,0.000,200720,0.000,E,A,V*68

$GPRMC,003403,A,3133.57634,N,12118.00000,E,9.719,0.000,200720,0.000,E,A,V*6E

$GPRMC,003404,A,3133.57904,N,12118.00000,E,9.719,0.000,200720,0.000,E,A,V*65

$GPRMC,003405,A,3133.58175,N,12118.00000,E,9.719,0.000,200720,0.000,E,A,V*65

$GPRMC,003406,A,3133.58446,N,12118.00000,E,9.719,0.000,200720,0.000,E,A,V*63

$GPRMC,003407,A,3133.58716,N,12118.00000,E,9.719,0.000,200720,0.000,E,A,V*64

$GPRMC,003408,A,3133.58987,N,12118.00000,E,9.719,0.000,200720,0.000,E,A,V*6D

$GPRMC,003409,A,3133.59257,N,12118.00000,E,9.719,360.000,200720,0.000,E,A,V*6E

$GPRMC,003410,A,3133.59528,N,12118.00000,E,9.719,360.000,200720,0.000,E,A,V*69

$GPRMC,003411,A,3133.59798,N,12118.00000,E,9.719,0.000,200720,0.000,E,A,V*64

$GPRMC,003412,A,3133.60069,N,12118.00000,E,9.719,0.000,200720,0.000,E,A,V*64

$GPRMC,003413,A,3133.60340,N,12118.00000,E,9.719,360.000,200720,0.000,E,A,V*68

$GPRMC,003414,A,3133.60610,N,12118.00000,E,9.719,0.000,200720,0.000,E,A,V*6A

$GPRMC,003415,A,3133.60881,N,12118.00000,E,9.719,0.000,200720,0.000,E,A,V*6D

$GPRMC,003416,A,3133.61151,N,12118.00000,E,9.719,0.000,200720,0.000,E,A,V*6B

$GPRMC,003417,A,3133.61422,N,12118.00000,E,9.719,0.000,200720,0.000,E,A,V*6B

$GPRMC,003418,A,3133.61692,N,12118.00000,E,9.719,0.000,200720,0.000,E,A,V*6D

$GPRMC,003419,A,3133.61963,N,12118.00000,E,9.719,360.000,200720,0.000,E,A,V*68

$GPRMC,003420,A,3133.62233,N,12118.00000,E,9.719,0.000,200720,0.000,E,A,V*6A

$GPRMC,003421,A,3133.62504,N,12118.00000,E,9.719,0.000,200720,0.000,E,A,V*68

$GPRMC,003422,A,3133.62775,N,12118.00000,E,9.719,360.000,200720,0.000,E,A,V*6A

$GPRMC,003423,A,3133.63045,N,12118.00000,E,9.719,0.000,200720,0.000,E,A,V*6B

$GPRMC,003424,A,3133.63316,N,12118.00000,E,9.719,0.000,200720,0.000,E,A,V*69

$GPRMC,003425,A,3133.63586,N,12118.00000,E,9.719,0.000,200720,0.000,E,A,V*67

$GPRMC,003426,A,3133.63857,N,12118.00000,E,9.719,0.000,200720,0.000,E,A,V*65

$GPRMC,003427,A,3133.64127,N,12118.00000,E,9.719,0.000,200720,0.000,E,A,V*6D

$GPRMC,003428,A,3133.64398,N,12118.00000,E,9.719,360.000,200720,0.000,E,A,V*61

$GPRMC,003429,A,3133.64669,N,12118.00000,E,9.719,0.000,200720,0.000,E,A,V*6E

$GPRMC,003430,A,3133.64939,N,12118.00000,E,9.719,0.000,200720,0.000,E,A,V*6C

$GPRMC,003431,A,3133.65210,N,12118.00000,E,9.719,0.000,200720,0.000,E,A,V*6C

$GPRMC,003432,A,3133.65480,N,12118.00000,E,9.719,0.000,200720,0.000,E,A,V*60

$GPRMC,003433,A,3133.65751,N,12118.00000,E,9.719,360.000,200720,0.000,E,A,V*6B

$GPRMC,003434,A,3133.66021,N,12118.00000,E,9.719,0.000,200720,0.000,E,A,V*6A

$GPRMC,003435,A,3133.66292,N,12118.00000,E,9.719,360.000,200720,0.000,E,A,V*64

$GPRMC,003436,A,3133.66562,N,12118.00000,E,9.719,0.000,200720,0.000,E,A,V*6A

$GPRMC,003437,A,3133.66833,N,12118.00000,E,9.719,360.000,200720,0.000,E,A,V*67

$GPRMC,003438,A,3133.67104,N,12118.00000,E,9.719,0.000,200720,0.000,E,A,V*61

$GPRMC,003439,A,3133.67374,N,12118.00000,E,9.719,0.000,200720,0.000,E,A,V*65

$GPRMC,003440,A,3133.67645,N,12118.00000,E,9.719,0.000,200720,0.000,E,A,V*6C

$GPRMC,003441,A,3133.67915,N,12118.00000,E,9.719,0.000,200720,0.000,E,A,V*67

$GPRMC,003442,A,3133.68186,N,12118.00000,E,9.719,0.000,200720,0.000,E,A,V*69

$GPRMC,003443,A,3133.68456,N,12118.00000,E,9.719,360.000,200720,0.000,E,A,V*65

$GPRMC,003444,A,3133.68727,N,12118.00000,E,9.719,0.000,200720,0.000,E,A,V*62

$GPRMC,003445,A,3133.68998,N,12118.00000,E,9.719,0.000,200720,0.000,E,A,V*69

$GPRMC,003446,A,3133.69268,N,12118.00000,E,9.719,0.000,200720,0.000,E,A,V*6F

$GPRMC,003447,A,3133.69539,N,12118.00000,E,9.719,0.000,200720,0.000,E,A,V*6D

$GPRMC,003448,A,3133.69809,N,12118.00000,E,9.719,0.000,200720,0.000,E,A,V*6C

$GPRMC,003449,A,3133.70080,N,12118.00000,E,9.719,0.000,200720,0.000,E,A,V*6C

$GPRMC,003450,A,3133.70350,N,12118.00000,E,9.719,0.000,200720,0.000,E,A,V*6A

$GPRMC,003451,A,3133.70621,N,12118.00000,E,9.719,0.000,200720,0.000,E,A,V*68

$GPRMC,003452,A,3133.70891,N,12118.00000,E,9.719,360.000,200720,0.000,E,A,V*6B

$GPRMC,003453,A,3133.71162,N,12118.00000,E,9.719,0.000,200720,0.000,E,A,V*6B

$GPRMC,003454,A,3133.71433,N,12118.00000,E,9.719,360.000,200720,0.000,E,A,V*68

$GPRMC,003455,A,3133.71703,N,12118.00000,E,9.719,0.000,200720,0.000,E,A,V*6C

$GPRMC,003456,A,3133.71974,N,12118.00000,E,9.719,360.000,200720,0.000,E,A,V*64

$GPRMC,003457,A,3133.72244,N,12118.00000,E,9.719,0.000,200720,0.000,E,A,V*6B

$GPRMC,003458,A,3133.72515,N,12118.00000,E,9.719,0.000,200720,0.000,E,A,V*67

$GPRMC,003459,A,3133.72785,N,12118.00000,E,9.719,0.000,200720,0.000,E,A,V*6D

$GPRMC,003500,A,3133.73056,N,12118.00000,E,9.719,0.000,200720,0.000,E,A,V*68

$GPRMC,003501,A,3133.73327,N,12118.00000,E,9.719,0.000,200720,0.000,E,A,V*6C

$GPRMC,003502,A,3133.73597,N,12118.00000,E,9.719,0.000,200720,0.000,E,A,V*62

$GPRMC,003503,A,3133.73868,N,12118.00000,E,9.719,360.000,200720,0.000,E,A,V*6B

$GPRMC,003504,A,3133.74138,N,12118.00000,E,9.719,0.000,200720,0.000,E,A,V*62

$GPRMC,003505,A,3133.74409,N,12118.00000,E,9.719,0.000,200720,0.000,E,A,V*64

$GPRMC,003506,A,3133.74679,N,12118.00000,E,9.719,0.000,200720,0.000,E,A,V*62

$GPRMC,003507,A,3133.74950,N,12118.00000,E,9.719,0.000,200720,0.000,E,A,V*67

$GPRMC,003508,A,3133.75220,N,12118.00000,E,9.719,0.000,200720,0.000,E,A,V*65

$GPRMC,003509,A,3133.75491,N,12118.00000,E,9.719,360.000,200720,0.000,E,A,V*6D

$GPRMC,003510,A,3133.75762,N,12118.00000,E,9.719,0.000,200720,0.000,E,A,V*6F

$GPRMC,003511,A,3133.76032,N,12118.00000,E,9.719,0.000,200720,0.000,E,A,V*6F

$GPRMC,003512,A,3133.76303,N,12118.00000,E,9.719,0.000,200720,0.000,E,A,V*6D

$GPRMC,003513,A,3133.76573,N,12118.00000,E,9.719,0.000,200720,0.000,E,A,V*6D

$GPRMC,003514,A,3133.76844,N,12118.00000,E,9.719,0.000,200720,0.000,E,A,V*63

$GPRMC,003515,A,3133.77114,N,12118.00000,E,9.719,360.000,200720,0.000,E,A,V*6A

$GPRMC,003516,A,3133.77385,N,12118.00000,E,9.719,360.000,200720,0.000,E,A,V*63

$GPRMC,003517,A,3133.77656,N,12118.00000,E,9.719,0.000,200720,0.000,E,A,V*6C

$GPRMC,003518,A,3133.77926,N,12118.00000,E,9.719,360.000,200720,0.000,E,A,V*6E

$GPRMC,003519,A,3133.78197,N,12118.00000,E,9.719,0.000,200720,0.000,E,A,V*67

$GPRMC,003520,A,3133.78467,N,12118.00000,E,9.719,360.000,200720,0.000,E,A,V*62

$GPRMC,003521,A,3133.78738,N,12118.00000,E,9.719,0.000,200720,0.000,E,A,V*6F

$GPRMC,003522,A,3133.79008,N,12118.00000,E,9.719,0.000,200720,0.000,E,A,V*69

$GPRMC,003523,A,3133.79279,N,12118.00000,E,9.719,0.000,200720,0.000,E,A,V*6C

$GPRMC,003524,A,3133.79549,N,12118.00000,E,9.719,0.000,200720,0.000,E,A,V*6F

$GPRMC,003525,A,3133.79820,N,12118.00000,E,9.719,0.000,200720,0.000,E,A,V*6C

$GPRMC,003526,A,3133.80091,N,12118.00000,E,9.719,360.000,200720,0.000,E,A,V*6E

$GPRMC,003527,A,3133.80361,N,12118.00000,E,9.719,0.000,200720,0.000,E,A,V*66

$GPRMC,003528,A,3133.80632,N,12118.00000,E,9.719,360.000,200720,0.000,E,A,V*6F

$GPRMC,003529,A,3133.80902,N,12118.00000,E,9.719,0.000,200720,0.000,E,A,V*67

$GPRMC,003530,A,3133.81173,N,12118.00000,E,9.719,0.000,200720,0.000,E,A,V*60

$GPRMC,003531,A,3133.81443,N,12118.00000,E,9.719,0.000,200720,0.000,E,A,V*67

$GPRMC,003532,A,3133.81714,N,12118.00000,E,9.719,0.000,200720,0.000,E,A,V*65

$GPRMC,003533,A,3133.81985,N,12118.00000,E,9.719,360.000,200720,0.000,E,A,V*67

$GPRMC,003534,A,3133.82255,N,12118.00000,E,9.719,360.000,200720,0.000,E,A,V*65

$GPRMC,003535,A,3133.82526,N,12118.00000,E,9.719,0.000,200720,0.000,E,A,V*62

$GPRMC,003536,A,3133.82796,N,12118.00000,E,9.719,0.000,200720,0.000,E,A,V*68

$GPRMC,003537,A,3133.83067,N,12118.00000,E,9.719,0.000,200720,0.000,E,A,V*61

$GPRMC,003538,A,3133.83337,N,12118.00000,E,9.719,360.000,200720,0.000,E,A,V*6D

$GPRMC,003539,A,3133.83608,N,12118.00000,E,9.719,0.000,200720,0.000,E,A,V*60

$GPRMC,003540,A,3133.83878,N,12118.00000,E,9.719,360.000,200720,0.000,E,A,V*62

$GPRMC,003541,A,3133.84149,N,12118.00000,E,9.719,360.000,200720,0.000,E,A,V*6F

$GPRMC,003542,A,3133.84420,N,12118.00000,E,9.719,0.000,200720,0.000,E,A,V*63

$GPRMC,003543,A,3133.84690,N,12118.00000,E,9.719,0.000,200720,0.000,E,A,V*6B

$GPRMC,003544,A,3133.84961,N,12118.00000,E,9.719,0.000,200720,0.000,E,A,V*6D

$GPRMC,003545,A,3133.85231,N,12118.00000,E,9.719,0.000,200720,0.000,E,A,V*63

$GPRMC,003546,A,3133.85502,N,12118.00000,E,9.719,0.000,200720,0.000,E,A,V*67

$GPRMC,003547,A,3133.85772,N,12118.00000,E,9.719,360.000,200720,0.000,E,A,V*66

$GPRMC,003548,A,3133.86043,N,12118.00000,E,9.719,0.000,200720,0.000,E,A,V*6A

$GPRMC,003549,A,3133.86314,N,12118.00000,E,9.719,360.000,200720,0.000,E,A,V*6F

$GPRMC,003550,A,3133.86584,N,12118.00000,E,9.719,0.000,200720,0.000,E,A,V*6D

$GPRMC,003551,A,3133.86855,N,12118.00000,E,9.719,0.000,200720,0.000,E,A,V*6D

$GPRMC,003552,A,3133.87125,N,12118.00000,E,9.719,0.000,200720,0.000,E,A,V*61

$GPRMC,003553,A,3133.87396,N,12118.00000,E,9.719,360.000,200720,0.000,E,A,V*6F

$GPRMC,003554,A,3133.87666,N,12118.00000,E,9.719,0.000,200720,0.000,E,A,V*67

$GPRMC,003555,A,3133.87937,N,12118.00000,E,9.719,360.000,200720,0.000,E,A,V*68

$GPRMC,003556,A,3133.88207,N,12118.00000,E,9.719,0.000,200720,0.000,E,A,V*69

$GPRMC,003557,A,3133.88478,N,12118.00000,E,9.719,0.000,200720,0.000,E,A,V*66

$GPRMC,003558,A,3133.88749,N,12118.00000,E,9.719,0.000,200720,0.000,E,A,V*68

$GPRMC,003559,A,3133.89019,N,12118.00000,E,9.719,0.000,200720,0.000,E,A,V*6A

$GPRMC,003600,A,3133.89290,N,12118.00000,E,9.719,0.000,200720,0.000,E,A,V*66

$GPRMC,003601,A,3133.89560,N,12118.00000,E,9.719,360.000,200720,0.000,E,A,V*6A

$GPRMC,003602,A,3133.89831,N,12118.00000,E,9.719,0.000,200720,0.000,E,A,V*65

$GPRMC,003603,A,3133.90101,N,12118.00000,E,9.719,360.000,200720,0.000,E,A,V*63

$GPRMC,003604,A,3133.90372,N,12118.00000,E,9.719,360.000,200720,0.000,E,A,V*62

$GPRMC,003605,A,3133.90643,N,12118.00000,E,9.719,0.000,200720,0.000,E,A,V*61

$GPRMC,003606,A,3133.90913,N,12118.00000,E,9.719,0.000,200720,0.000,E,A,V*68

$GPRMC,003607,A,3133.91184,N,12118.00000,E,9.719,0.000,200720,0.000,E,A,V*6E

$GPRMC,003608,A,3133.91454,N,12118.00000,E,9.719,0.000,200720,0.000,E,A,V*69

$GPRMC,003609,A,3133.91725,N,12118.00000,E,9.719,360.000,200720,0.000,E,A,V*68

$GPRMC,003610,A,3133.91995,N,12118.00000,E,9.719,0.000,200720,0.000,E,A,V*60

$GPRMC,003611,A,3133.92266,N,12118.00000,E,9.719,360.000,200720,0.000,E,A,V*60

$GPRMC,003612,A,3133.92536,N,12118.00000,E,9.719,0.000,200720,0.000,E,A,V*64

$GPRMC,003613,A,3133.92807,N,12118.00000,E,9.719,360.000,200720,0.000,E,A,V*6F

$GPRMC,003614,A,3133.93078,N,12118.00000,E,9.719,0.000,200720,0.000,E,A,V*6C

$GPRMC,003615,A,3133.93348,N,12118.00000,E,9.719,0.000,200720,0.000,E,A,V*6D

$GPRMC,003616,A,3133.93619,N,12118.00000,E,9.719,360.000,200720,0.000,E,A,V*6A

$GPRMC,003617,A,3133.93889,N,12118.00000,E,9.719,360.000,200720,0.000,E,A,V*6C

$GPRMC,003618,A,3133.94160,N,12118.00000,E,9.719,0.000,200720,0.000,E,A,V*6F

$GPRMC,003619,A,3133.94430,N,12118.00000,E,9.719,0.000,200720,0.000,E,A,V*6E

$GPRMC,003620,A,3133.94701,N,12118.00000,E,9.719,0.000,200720,0.000,E,A,V*65

$GPRMC,003621,A,3133.94972,N,12118.00000,E,9.719,0.000,200720,0.000,E,A,V*6E

$GPRMC,003622,A,3133.95242,N,12118.00000,E,9.719,0.000,200720,0.000,E,A,V*64

$GPRMC,003623,A,3133.95513,N,12118.00000,E,9.719,0.000,200720,0.000,E,A,V*66

$GPRMC,003624,A,3133.95783,N,12118.00000,E,9.719,0.000,200720,0.000,E,A,V*6A

$GPRMC,003625,A,3133.96054,N,12118.00000,E,9.719,0.000,200720,0.000,E,A,V*65

$GPRMC,003626,A,3133.96324,N,12118.00000,E,9.719,0.000,200720,0.000,E,A,V*62

$GPRMC,003627,A,3133.96595,N,12118.00000,E,9.719,0.000,200720,0.000,E,A,V*6F

$GPRMC,003628,A,3133.96865,N,12118.00000,E,9.719,0.000,200720,0.000,E,A,V*62

$GPRMC,003629,A,3133.97136,N,12118.00000,E,9.719,0.000,200720,0.000,E,A,V*6D

$GPRMC,003630,A,3133.97407,N,12118.00000,E,9.719,0.000,200720,0.000,E,A,V*62

$GPRMC,003631,A,3133.97677,N,12118.00000,E,9.719,0.000,200720,0.000,E,A,V*66

$GPRMC,003632,A,3133.97948,N,12118.00000,E,9.719,360.000,200720,0.000,E,A,V*63

$GPRMC,003633,A,3133.98218,N,12118.00000,E,9.719,360.000,200720,0.000,E,A,V*63

$GPRMC,003634,A,3133.98489,N,12118.00000,E,9.719,0.000,200720,0.000,E,A,V*6F

$GPRMC,003635,A,3133.98759,N,12118.00000,E,9.719,0.000,200720,0.000,E,A,V*60

$GPRMC,003636,A,3133.99030,N,12118.00000,E,9.719,0.000,200720,0.000,E,A,V*6A

$GPRMC,003637,A,3133.99301,N,12118.00000,E,9.719,0.000,200720,0.000,E,A,V*6A

$GPRMC,003638,A,3133.99571,N,12118.00000,E,9.719,0.000,200720,0.000,E,A,V*64

$GPRMC,003639,A,3133.99842,N,12118.00000,E,9.719,360.000,200720,0.000,E,A,V*6D

$GPRMC,003640,A,3134.00112,N,12118.00000,E,9.719,0.000,200720,0.000,E,A,V*6D

$GPRMC,003641,A,3134.00383,N,12118.00000,E,9.719,0.000,200720,0.000,E,A,V*66

$GPRMC,003642,A,3134.00653,N,12118.00000,E,9.719,0.000,200720,0.000,E,A,V*6D

$GPRMC,003643,A,3134.00924,N,12118.00000,E,9.719,0.000,200720,0.000,E,A,V*63

$GPRMC,003644,A,3134.01194,N,12118.00000,E,9.719,0.000,200720,0.000,E,A,V*66

$GPRMC,003645,A,3134.01465,N,12118.00000,E,9.719,0.000,200720,0.000,E,A,V*6C

$GPRMC,003646,A,3134.01736,N,12118.00000,E,9.719,0.000,200720,0.000,E,A,V*6A

$GPRMC,003647,A,3134.02006,N,12118.00000,E,9.719,0.000,200720,0.000,E,A,V*6C

$GPRMC,003648,A,3134.02277,N,12118.00000,E,9.719,0.000,200720,0.000,E,A,V*67

$GPRMC,003649,A,3134.02547,N,12118.00000,E,9.719,360.000,200720,0.000,E,A,V*67

$GPRMC,003650,A,3134.02818,N,12118.00000,E,9.719,0.000,200720,0.000,E,A,V*6D

$GPRMC,003651,A,3134.03088,N,12118.00000,E,9.719,0.000,200720,0.000,E,A,V*6C

$GPRMC,003652,A,3134.03359,N,12118.00000,E,9.719,0.000,200720,0.000,E,A,V*60

$GPRMC,003653,A,3134.03630,N,12118.00000,E,9.719,0.000,200720,0.000,E,A,V*6B

$GPRMC,003654,A,3134.03900,N,12118.00000,E,9.719,0.000,200720,0.000,E,A,V*60

$GPRMC,003655,A,3134.04171,N,12118.00000,E,9.719,0.000,200720,0.000,E,A,V*68

$GPRMC,003656,A,3134.04441,N,12118.00000,E,9.719,0.000,200720,0.000,E,A,V*6D

$GPRMC,003657,A,3134.04712,N,12118.00000,E,9.719,0.000,200720,0.000,E,A,V*69

$GPRMC,003658,A,3134.04982,N,12118.00000,E,9.719,0.000,200720,0.000,E,A,V*61

$GPRMC,003659,A,3134.05253,N,12118.00000,E,9.719,0.000,200720,0.000,E,A,V*66

$GPRMC,003700,A,3134.05523,N,12118.00000,E,9.719,360.000,200720,0.000,E,A,V*6E

$GPRMC,003701,A,3134.05794,N,12118.00000,E,9.719,0.000,200720,0.000,E,A,V*64

$GPRMC,003702,A,3134.06065,N,12118.00000,E,9.719,360.000,200720,0.000,E,A,V*68

$GPRMC,003703,A,3134.06335,N,12118.00000,E,9.719,360.000,200720,0.000,E,A,V*6F

$GPRMC,003704,A,3134.06606,N,12118.00000,E,9.719,360.000,200720,0.000,E,A,V*6D

$GPRMC,003705,A,3134.06876,N,12118.00000,E,9.719,0.000,200720,0.000,E,A,V*60

$GPRMC,003706,A,3134.07147,N,12118.00000,E,9.719,360.000,200720,0.000,E,A,V*6C

$GPRMC,003707,A,3134.07417,N,12118.00000,E,9.719,0.000,200720,0.000,E,A,V*68

$GPRMC,003708,A,3134.07688,N,12118.00000,E,9.719,0.000,200720,0.000,E,A,V*63

$GPRMC,003709,A,3134.07959,N,12118.00000,E,9.719,0.000,200720,0.000,E,A,V*61

