$GNRMC,000102.00,A,3128.216476,N,12117.999820,E,9.707,359.94,200720,,,A,V*0A
$GNGGA,000102.00,3128.216476,N,12117.999820,E,1,09,0.96,40.6,M,9.5,M,,*46
$GNGSA,A,3,07,04,20,01,13,23,25,02,08,,,,1.66,0.96,1.35,1*06
$GNGSA,A,3,,,,,,,,,,,,,1.66,0.96,1.35,4*0D
$GPGSV,3,1,10,01,20,115,35,02,16,316,35,04,44,283,36,
07,61,203,36,0*6D
$GPGSV,3,2,10,08,21,211,35,13,62,345,36,16,13,059,35,20,46,113,36,0*62
$GPGSV,3,3,10,23,48,037,36,25,83,195,36,0*6C
$BDGSV,1,1,00,0*74

$GNRMC,000103.00,A,3128.219183,N,12117.999814,E,9.725,0.01,200720,,,A,V*0F
$GNGGA,000103.00,3128.219183,N,12117.999814,E,1,09,0.96,40.6,M,9.5,M,,*40
$GNGSA,A,3,07,04,20,01,13,23,25,02,08,,,,1.66,0.96,1.35,1*06
$GNGSA,A,3,,,,,,,,,,,,,1.66,0.96,1.35,4*0D
$GPGSV,3,1,10,01,20,115,35,02,16,316,35,04,44,283,36,07
,61,203,36,0*6D
$GPGSV,3,2,10,08,21,211,35,13,62,345,36,16,13,059,35,20,46,113,36,0*62
$GPGSV,3,3,10,23,48,037,36,25,83,195,36,0*6C
$BDGSV,1,1,00,0*74

$GNRMC,000104.00,A,3128.221890,N,12117.999805,E,9.723,359.98,200720,,,A,V*01
$GNGGA,000104.00,3128.221890,N,12117.999805,E,1,09,0.96,40.6,M,9.5,M,,*47
$GNGSA,A,3,07,04,20,01,13,23,25,02,08,,,,1.66,0.96,1.35,1*06
$GNGSA,A,3,,,,,,,,,,,,,1.66,0.96,1.35,4*0D
$GPGSV,3,1,10,01,20,115,35,02,16,316,35,04,44,283,36,
07,61,203,36,0*6D
$GPGSV,3,2,10,08,21,211,35,13,62,345,36,16,13,059,35,20,46,113,36,0*62
$GPGSV,3,3,10,23,48,037,36,25,83,195,36,0*6C
$BDGSV,1,1,00,0*74

$GNRMC,000105.00,A,3128.224602,N,12117.999793,E,9.728,359.98,200720,,,A,V*0B
$GNGGA,000105.00,3128.224602,N,12117.999793,E,1,09,0.96,40.6,M,9.5,M,,*46
$GNGSA,A,3,07,04,20,01,13,23,25,02,08,,,,1.66,0.96,1.35,1*06
$GNGSA,A,3,,,,,,,,,,,,,1.66,0.96,1.35,4*0D
$GPGSV,3,1,10,01,20,115,35,02,16,316,35,04,44,283,36,
07,61,203,36,0*6D
$GPGSV,3,2,10,08,21,211,35,13,62,345,36,16,13,059,35,20,46,113,36,0*62
$GPGSV,3,3,10,23,48,037,36,25,83,195,36,0*6C
$BDGSV,1,1,00,0*74

$GNRMC,000106.00,A,3128.227309,N,12117.999786,E,9.709,0.01,200720,,,A,V*0D
$GNGGA,000106.00,3128.227309,N,12117.999786,E,1,09,0.96,40.6,M,9.5,M,,*4C
$GNGSA,A,3,07,04,20,01,13,23,25,02,08,,,,1.66,0.96,1.35,1*06
$GNGSA,A,3,,,,,,,,,,,,,1.66,0.96,1.35,4*0D
$GPGSV,3,1,10,01,20,115,35,02,16,316,35,04,44,283,36,07
,61,203,36,0*6D
$GPGSV,3,2,10,08,21,211,35,13,62,345,36,16,13,059,35,20,46,113,36,0*62
$GPGSV,3,3,10,23,48,037,36,25,83,195,36,0*6C
$BDGSV,1,1,00,0*74

$GNRMC,000107.00,A,3128.230023,N,12117.999779,E,9.726,359.98,200720,,,A,V*03
$GNGGA,000107.00,3128.230023,N,12117.999779,E,1,09,0.96,40.6,M,9.5,M,,*40
$GNGSA,A,3,07,04,20,01,13,23,25,02,08,,,,1.66,0.96,1.35,1*06
$GNGSA,A,3,,,,,,,,,,,,,1.66,0.96,1.35,4*0D
$GPGSV,3,1,10,01,20,115,35,02,16,316,35,04,44,283,36,
07,61,203,36,0*6D
$GPGSV,3,2,10,08,21,211,35,13,62,345,36,16,13,059,35,20,46,113,36,0*62
$GPGSV,3,3,10,23,48,037,36,25,83,195,36,0*6C
$BDGSV,1,1,00,0*74

<????sim??????(SIM??:1)>
<????GSM????????(GSM:0)>
<????GPRS????????(GPRS:0)>
<????????????(SIGNAL:0)>
<????????????????(BER:0)>

<??????????????>

$GNRMC,000108.00,A,3128.232729,N,12117.999773,E,9.721,359.98,200720,,,A,V*0E
$GNGGA,000108.00,3128.232729,N,12117.999773,E,1,09,0.96,40.6,M,9.5,M,,*4A
$GNGSA,A,3,07,04,20,01,13,23,25,02,08,,,,1.66,0.96,1.35,1*06
$GNGSA,A,3,,,,,,,,,,,,,1.66,0.96,1.35,4*0D
$GPGSV,3,1,10,01,20,115,35,02,16,316,35,04,44,283,36,
07,61,203,36,0*6D
$GPGSV,3,2,10,08,21,211,35,13,62,345,36,16,13,059,35,20,46,113,36,0*62
$GPGSV,3,3,10,23,48,037,36,25,83,195,36,0*6C
$BDGSV,1,1,00,0*74

$GNRMC,000109.00,A,3128.235432,N,12117.999771,E,9.715,0.02,200720,,,A,V*08
$GNGGA,000109.00,3128.235432,N,12117.999771,E,1,09,0.96,40.6,M,9.5,M,,*47
$GNGSA,A,3,07,04,20,01,13,23,25,02,08,,,,1.66,0.96,1.35,1*06
$GNGSA,A,3,,,,,,,,,,,,,1.66,0.96,1.35,4*0D
$GPGSV,3,1,10,01,20,115,35,02,16,316,35,04,44,283,36,07
,61,203,36,0*6D
$GPGSV,3,2,10,08,21,211,35,13,62,345,36,16,13,059,35,20,46,113,36,0*62
$GPGSV,3,3,10,23,48,037,36,25,83,195,36,0*6C
$BDGSV,1,1,00,0*74

$GNRMC,000110.00,A,3128.238140,N,12117.999769,E,9.732,0.03,200720,,,A,V*00
$GNGGA,000110.00,3128.238140,N,12117.999769,E,1,09,0.96,40.6,M,9.5,M,,*4B
$GNGSA,A,3,07,04,20,01,13,23,25,02,08,,,,1.66,0.96,1.35,1*06
$GNGSA,A,3,,,,,,,,,,,,,1.66,0.96,1.35,4*0D
$GPGSV,3,1,10,01,20,115,35,02,16,316,35,04,44,283,36,07
,61,203,36,0*6D
$GPGSV,3,2,10,08,21,211,35,13,62,345,36,16,13,059,35,20,46,113,36,0*62
$GPGSV,3,3,10,23,48,037,36,25,83,195,36,0*6C
$BDGSV,1,1,00,0*74

$GNRMC,000111.00,A,3128.240850,N,12117.999765,E,9.721,0.01,200720,,,A,V*0A
$GNGGA,000111.00,3128.240850,N,12117.999765,E,1,09,0.96,40.7,M,9.5,M,,*40
$GNGSA,A,3,07,04,20,01,13,23,25,02,08,,,,1.66,0.96,1.35,1*06
$GNGSA,A,3,,,,,,,,,,,,,1.66,0.96,1.35,4*0D
$GPGSV,3,1,10,01,20,115,35,02,16,316,35,04,44,283,36,07
,61,203,36,0*6D
$GPGSV,3,2,10,08,21,211,35,13,62,345,36,16,13,059,35,20,46,113,36,0*62
$GPGSV,3,3,10,23,48,037,36,25,83,195,36,0*6C
$BDGSV,1,1,00,0*74

$GNRMC,000112.00,A,3128.243553,N,12117.999760,E,9.710,359.97,200720,,,A,V*03
$GNGGA,000112.00,3128.243553,N,12117.999760,E,1,09,0.96,40.7,M,9.5,M,,*4B
$GNGSA,A,3,07,04,20,01,13,23,25,02,08,,,,1.66,0.96,1.35,1*06
$GNGSA,A,3,,,,,,,,,,,,,1.66,0.96,1.35,4*0D
$GPGSV,3,1,10,01,20,115,35,02,16,316,35,04,44,283,36,
07,61,203,36,0*6D
$GPGSV,3,2,10,08,21,211,35,13,62,345,36,16,13,059,35,20,46,113,36,0*62
$GPGSV,3,3,10,23,48,037,36,25,83,195,36,0*6C
$BDGSV,1,1,00,0*74

$GNRMC,000113.00,A,3128.246258,N,12117.999758,E,9.723,360.00,200720,,,A,V*04
$GNGGA,000113.00,3128.246258,N,12117.999758,E,1,09,0.96,40.7,M,9.5,M,,*48
$GNGSA,A,3,07,04,20,01,13,23,25,02,08,,,,1.66,0.96,1.35,1*06
$GNGSA,A,3,,,,,,,,,,,,,1.66,0.96,1.35,4*0D
$GPGSV,3,1,10,01,20,115,35,02,16,316,35,04,44,283,36,
07,61,203,36,0*6D
$GPGSV,3,2,10,08,21,211,35,13,62,345,36,16,13,059,35,20,46,113,36,0*62
$GPGSV,3,3,10,23,48,037,36,25,83,195,36,0*6C
$BDGSV,1,1,00,0*74

$GNRMC,000114.00,A,3128.248963,N,12117.999762,E,9.727,0.07,200720,,,A,V*01
$GNGGA,000114.00,3128.248963,N,12117.999762,E,1,09,0.96,40.7,M,9.5,M,,*4B
$GNGSA,A,3,07,04,20,01,13,23,25,02,08,,,,1.66,0.96,1.35,1*06
$GNGSA,A,3,,,,,,,,,,,,,1.66,0.96,1.35,4*0D
$GPGSV,3,1,10,01,20,115,35,02,16,316,35,04,44,283,36,07
,61,203,36,0*6D
$GPGSV,3,2,10,08,21,211,35,13,62,345,36,16,13,059,35,20,46,113,36,0*62
$GPGSV,3,3,10,23,48,037,36,25,83,195,36,0*6C
$BDGSV,1,1,00,0*74

$GNRMC,000115.00,A,3128.251667,N,12117.999760,E,9.722,359.97,200720,,,A,V*02
$GNGGA,000115.00,3128.251667,N,12117.999760,E,1,09,0.96,40.7,M,9.5,M,,*4B
$GNGSA,A,3,07,04,20,01,13,23,25,02,08,,,,1.66,0.96,1.35,1*06
$GNGSA,A,3,,,,,,,,,,,,,1.66,0.96,1.35,4*0D
$GPGSV,3,1,10,01,20,115,35,02,16,316,35,04,44,283,36,
07,61,203,36,0*6D
$GPGSV,3,2,10,08,21,211,35,13,62,345,36,16,13,059,35,20,46,113,36,0*62
$GPGSV,3,3,10,23,48,037,36,25,83,195,36,0*6C
$BDGSV,1,1,00,0*74

$GNRMC,000116.00,A,3128.254370,N,12117.999763,E,9.725,0.03,200720,,,A,V*01
$GNGGA,000116.00,3128.254370,N,12117.999763,E,1,09,0.96,40.7,M,9.5,M,,*4D
$GNGSA,A,3,07,04,20,01,13,23,25,02,08,,,,1.66,0.96,1.35,1*06
$GNGSA,A,3,,,,,,,,,,,,,1.66,0.96,1.35,4*0D
$GPGSV,3,1,10,01,20,115,35,02,16,316,35,04,44,283,36,07
,61,203,36,0*6D
$GPGSV,3,2,10,08,21,211,35,13,62,345,36,16,13,059,35,20,46,113,36,0*62
$GPGSV,3,3,10,23,48,037,36,25,83,195,36,0*6C
$BDGSV,1,1,00,0*74

$GNRMC,000117.00,A,3128.257071,N,12117.999767,E,9.710,0.01,200720,,,A,V*01
$GNGGA,000117.00,3128.257071,N,12117.999767,E,1,09,0.96,40.7,M,9.5,M,,*49
$GNGSA,A,3,07,04,20,01,13,23,25,02,08,,,,1.66,0.96,1.35,1*06
$GNGSA,A,3,,,,,,,,,,,,,1.66,0.96,1.35,4*0D
$GPGSV,3,1,10,01,20,115,35,02,16,316,35,04,44,283,36,07
,61,203,36,0*6D
$GPGSV,3,2,10,08,21,211,35,13,62,345,36,16,13,059,35,20,46,113,36,0*62
$GPGSV,3,3,10,23,48,037,36,25,83,195,36,0*6C
$BDGSV,1,1,00,0*74

<??????????????>

$GNRMC,000118.00,A,3128.259772,N,12117.999768,E,9.731,360.00,200720,,,A,V*0C
$GNGGA,000118.00,3128.259772,N,12117.999768,E,1,09,0.96,40.7,M,9.5,M,,*43
$GNGSA,A,3,07,04,20,01,13,23,25,02,08,,,,1.66,0.96,1.35,1*06
$GNGSA,A,3,,,,,,,,,,,,,1.66,0.96,1.35,4*0D
$GPGSV,3,1,10,01,20,115,35,02,16,316,35,04,44,283,36,
07,61,203,36,0*6D
$GPGSV,3,2,10,08,21,211,35,13,62,345,36,16,13,059,35,20,46,113,36,0*62
$GPGSV,3,3,10,23,48,037,36,25,83,195,36,0*6C
$BDGSV,1,1,00,0*74

$GNRMC,000119.00,A,3128.262474,N,12117.999770,E,9.723,0.02,200720,,,A,V*0D
$GNGGA,000119.00,3128.262474,N,12117.999770,E,1,09,0.96,40.7,M,9.5,M,,*46
$GNGSA,A,3,07,04,20,01,13,23,25,02,08,,,,1.66,0.96,1.35,1*06
$GNGSA,A,3,,,,,,,,,,,,,1.66,0.96,1.35,4*0D
$GPGSV,3,1,10,01,20,115,35,02,16,316,35,04,44,283,36,07
,61,203,36,0*6D
$GPGSV,3,2,10,08,21,211,35,13,62,345,36,16,13,059,35,20,46,113,36,0*62
$GPGSV,3,3,10,23,48,037,36,25,83,195,36,0*6C
$BDGSV,1,1,00,0*74

$GNRMC,000120.00,A,3128.265176,N,12117.999769,E,9.718,0.03,200720,,,A,V*06
$GNGGA,000120.00,3128.265176,N,12117.999769,E,1,09,0.96,40.7,M,9.5,M,,*44
$GNGSA,A,3,07,04,20,01,13,23,25,02,08,,,,1.66,0.96,1.35,1*06
$GNGSA,A,3,,,,,,,,,,,,,1.66,0.96,1.35,4*0D
$GPGSV,3,1,10,01,20,115,35,02,16,316,35,04,44,283,36,07,61,203,36,0*6D
$GPGSV,3,2,10,08,21,211,35,13,62,345,36,16,13,059,35,20,46,113,36,0*62
$GPGSV,3,3,10,23,48,037,36,25,83,195,36,0*6C
$BDGSV,1,1,00,0*74

$GNRMC,000121.00,A,3128.267877,N,12117.999767,E,9.725,359.98,200720,,,A,V*00
$GNGGA,000121.00,3128.267877,N,12117.999767,E,1,09,0.96,40.7,M,9.5,M,,*41
$GNGSA,A,3,07,04,20,01,13,23,25,02,08,,,,1.66,0.96,1.35,1*06
$GNGSA,A,3,,,,,,,,,,,,,1.66,0.96,1.35,4*0D
$GPGSV,3,1,10,01,20,115,35,02,16,316,35,04,44,283,36,
07,61,203,36,0*6D
$GPGSV,3,2,10,08,21,211,35,13,62,346,36,16,13,059,35,20,46,113,36,0*61
$GPGSV,3,3,10,23,48,037,36,25,83,195,36,0*6C
$BDGSV,1,1,00,0*74

$GNRMC,000122.00,A,3128.270577,N,12117.999768,E,9.719,0.01,200720,,,A,V*07
$GNGGA,000122.00,3128.270577,N,12117.999768,E,1,09,0.96,40.7,M,9.5,M,,*46
$GNGSA,A,3,07,04,20,01,13,23,25,02,08,,,,1.66,0.96,1.35,1*06
$GNGSA,A,3,,,,,,,,,,,,,1.66,0.96,1.35,4*0D
$GPGSV,3,1,10,01,20,115,35,02,16,316,35,04,44,283,36,07
,61,203,36,0*6D
$GPGSV,3,2,10,08,21,211,35,13,62,346,36,16,13,059,35,20,46,113,36,0*61
$GPGSV,3,3,10,23,48,037,36,25,83,195,36,0*6C
$BDGSV,1,1,00,0*74

$GNRMC,000123.00,A,3128.273276,N,12117.999768,E,9.710,359.99,200720,,,A,V*04
$GNGGA,000123.00,3128.273276,N,12117.999768,E,1,09,0.96,40.7,M,9.5,M,,*42
$GNGSA,A,3,07,04,20,01,13,23,25,02,08,,,,1.66,0.96,1.35,1*06
$GNGSA,A,3,,,,,,,,,,,,,1.66,0.96,1.35,4*0D
$GPGSV,3,1,10,01,20,115,35,02,16,316,35,04,44,283,36,
07,61,203,36,0*6D
$GPGSV,3,2,10,08,21,211,35,13,62,346,36,16,13,059,35,20,46,113,36,0*61
$GPGSV,3,3,10,23,48,037,36,25,83,195,36,0*6C
$BDGSV,1,1,00,0*74

$GNRMC,000124.00,A,3128.275982,N,12117.999771,E,9.733,0.04,200720,,,A,V*07
$GNGGA,000124.00,3128.275982,N,12117.999771,E,1,09,0.96,40.7,M,9.5,M,,*4B
$GNGSA,A,3,07,04,20,01,13,23,25,02,08,,,,1.66,0.96,1.35,1*06
$GNGSA,A,3,,,,,,,,,,,,,1.66,0.96,1.35,4*0D
$GPGSV,3,1,10,01,20,115,35,02,16,316,35,04,44,283,36,07
,61,203,36,0*6D
$GPGSV,3,2,10,08,21,211,35,13,62,346,36,16,13,059,35,20,46,113,36,0*61
$GPGSV,3,3,10,23,48,038,36,25,83,195,36,0*63
$BDGSV,1,1,00,0*74

$GNRMC,000125.00,A,3128.278685,N,12117.999768,E,9.710,359.97,200720,,,A,V*0F
$GNGGA,000125.00,3128.278685,N,12117.999768,E,1,09,0.96,40.7,M,9.5,M,,*47
$GNGSA,A,3,07,04,20,01,13,23,25,02,08,,,,1.66,0.96,1.35,1*06
$GNGSA,A,3,,,,,,,,,,,,,1.66,0.96,1.35,4*0D
$GPGSV,3,1,10,01,20,115,35,02,16,316,35,04,44,283,36,
07,61,203,36,0*6D
$GPGSV,3,2,10,08,21,211,35,13,62,346,36,16,13,059,35,20,46,113,36,0*61
$GPGSV,3,3,10,23,48,038,36,25,83,195,36,0*63
$BDGSV,1,1,00,0*74

$GNRMC,000126.00,A,3128.281396,N,12117.999770,E,9.725,0.01,200720,,,A,V*02
$GNGGA,000126.00,3128.281396,N,12117.999770,E,1,09,0.96,40.7,M,9.5,M,,*4C
$GNGSA,A,3,07,04,20,01,13,23,25,02,08,,,,1.66,0.96,1.35,1*06
$GNGSA,A,3,,,,,,,,,,,,,1.66,0.96,1.35,4*0D
$GPGSV,3,1,10,01,20,115,35,02,16,316,35,04,44,283,36,07
,61,203,36,0*6D
$GPGSV,3,2,10,08,21,211,35,13,62,346,36,16,13,059,35,20,46,113,36,0*61
$GPGSV,3,3,10,23,48,038,36,25,83,195,36,0*63
$BDGSV,1,1,00,0*74

$GNRMC,000127.00,A,3128.284108,N,12117.999769,E,9.727,359.98,200720,,,A,V*06
$GNGGA,000127.00,3128.284108,N,12117.999769,E,1,09,0.96,40.7,M,9.5,M,,*45
$GNGSA,A,3,07,04,20,01,13,23,25,02,08,,,,1.66,0.96,1.35,1*06
$GNGSA,A,3,,,,,,,,,,,,,1.66,0.96,1.35,4*0D
$GPGSV,3,1,10,01,20,115,35,02,16,316,35,04,44,283,36,
07,61,203,36,0*6D
$GPGSV,3,2,10,08,21,211,35,13,62,346,36,16,13,059,35,20,46,113,36,0*61
$GPGSV,3,3,10,23,48,038,36,25,83,195,36,0*63
$BDGSV,1,1,00,0*74

<????sim??????(SIM??:1)>
<????GSM????????(GSM:4)>
<????GPRS????????(GPRS:0)>
<????????????(SIGNAL:0)>
<????????????????(BER:0)>

<??????????????>

$GNRMC,000128.00,A,3128.286817,N,12117.999771,E,9.722,360.00,200720,,,A,V*0B
$GNGGA,000128.00,3128.286817,N,12117.999771,E,1,09,0.96,40.7,M,9.5,M,,*46
$GNGSA,A,3,07,04,20,01,13,23,25,02,08,,,,1.66,0.96,1.35,1*06
$GNGSA,A,3,,,,,,,,,,,,,1.66,0.96,1.35,4*0D
$GPGSV,3,1,10,01,20,115,35,02,16,316,35,04,44,283,36,
07,61,203,36,0*6D
$GPGSV,3,2,10,08,21,211,35,13,62,346,36,16,13,059,35,20,46,113,36,0*61
$GPGSV,3,3,10,23,48,038,36,25,83,195,36,0*63
$BDGSV,1,1,00,0*74

$GNRMC,000129.00,A,3128.289525,N,12117.999773,E,9.716,0.03,200720,,,A,V*0A
$GNGGA,000129.00,3128.289525,N,12117.999773,E,1,09,0.96,40.7,M,9.5,M,,*46
$GNGSA,A,3,07,04,20,01,13,23,25,02,08,,,,1.66,0.96,1.35,1*06
$GNGSA,A,3,,,,,,,,,,,,,1.66,0.96,1.35,4*0D
$GPGSV,3,1,10,01,20,115,35,02,16,316,35,04,44,283,36,07
,61,203,36,0*6D
$GPGSV,3,2,10,08,21,211,35,13,62,346,36,16,13,059,35,20,46,113,36,0*61
$GPGSV,3,3,10,23,48,038,36,25,83,195,36,0*63
$BDGSV,1,1,00,0*74

$GNRMC,000130.00,A,3128.292234,N,12117.999775,E,9.719,359.97,200720,,,A,V*04
$GNGGA,000130.00,3128.292234,N,12117.999775,E,1,09,0.96,40.7,M,9.5,M,,*45
$GNGSA,A,3,07,04,20,01,13,23,25,02,08,,,,1.66,0.96,1.35,1*06
$GNGSA,A,3,,,,,,,,,,,,,1.66,0.96,1.35,4*0D
$GPGSV,3,1,10,01,20,115,35,02,16,316,35,04,44,283,36,
07,61,203,36,0*6D
$GPGSV,3,2,10,08,21,211,35,13,62,346,36,16,13,059,35,20,46,113,36,0*61
$GPGSV,3,3,10,23,48,038,36,25,83,195,36,0*63
$BDGSV,1,1,00,0*74

$GNRMC,000131.00,A,3128.294946,N,12117.999780,E,9.723,0.00,200720,,,A,V*0F
$GNGGA,000131.00,3128.294946,N,12117.999780,E,1,09,0.96,40.7,M,9.5,M,,*46
$GNGSA,A,3,07,04,20,01,13,23,25,02,08,,,,1.66,0.96,1.35,1*06
$GNGSA,A,3,,,,,,,,,,,,,1.66,0.96,1.35,4*0D
$GPGSV,3,1,10,01,20,115,35,02,16,316,35,04,44,283,36,07
,61,203,36,0*6D
$GPGSV,3,2,10,08,21,211,35,13,62,346,36,16,13,059,35,20,46,113,36,0*61
$GPGSV,3,3,10,23,48,038,36,25,83,195,36,0*63
$BDGSV,1,1,00,0*74

$GNRMC,000132.00,A,3128.297653,N,12117.999784,E,9.720,0.02,200720,,,A,V*01
$GNGGA,000132.00,3128.297653,N,12117.999784,E,1,09,0.96,40.7,M,9.5,M,,*49
$GNGSA,A,3,07,04,20,01,13,23,25,02,08,,,,1.66,0.96,1.35,1*06
$GNGSA,A,3,,,,,,,,,,,,,1.66,0.96,1.35,4*0D
$GPGSV,3,1,10,01,20,115,35,02,16,316,35,04,44,283,36,07
,61,203,36,0*6D
$GPGSV,3,2,10,08,21,211,35,13,62,346,36,16,13,059,35,20,46,113,36,0*61
$GPGSV,3,3,10,23,48,038,36,25,83,195,36,0*63
$BDGSV,1,1,00,0*74

$GNRMC,000133.00,A,3128.300361,N,12117.999790,E,9.727,0.04,200720,,,A,V*0F
$GNGGA,000133.00,3128.300361,N,12117.999790,E,1,09,0.96,40.6,M,9.5,M,,*47
$GNGSA,A,3,07,04,20,01,13,23,25,02,08,,,,1.66,0.96,1.35,1*06
$GNGSA,A,3,,,,,,,,,,,,,1.66,0.96,1.35,4*0D
$GPGSV,3,1,10,01,20,115,35,02,16,316,35,04,44,283,36,07
,61,203,36,0*6D
$GPGSV,3,2,10,08,21,211,35,13,62,346,36,16,13,059,35,20,46,113,36,0*61
$GPGSV,3,3,10,23,48,038,36,25,83,195,36,0*63
$BDGSV,1,1,00,0*74

$GNRMC,000134.00,A,3128.303068,N,12117.999794,E,9.722,359.99,200720,,,A,V*0B
$GNGGA,000134.00,3128.303068,N,12117.999794,E,1,09,0.96,40.6,M,9.5,M,,*4D
$GNGSA,A,3,07,04,20,01,13,23,25,02,08,,,,1.66,0.96,1.35,1*06
$GNGSA,A,3,,,,,,,,,,,,,1.66,0.96,1.35,4*0D
$GPGSV,3,1,10,01,20,115,35,02,16,316,35,04,44,283,36,
07,61,203,36,0*6D
$GPGSV,3,2,10,08,21,211,35,13,62,346,36,16,13,059,35,20,46,113,36,0*61
$GPGSV,3,3,10,23,48,038,36,25,83,195,36,0*63
$BDGSV,1,1,00,0*74

$GNRMC,000135.00,A,3128.305776,N,12117.999802,E,9.722,0.03,200720,,,A,V*08
$GNGGA,000135.00,3128.305776,N,12117.999802,E,1,09,0.96,40.6,M,9.5,M,,*42
$GNGSA,A,3,07,04,20,01,13,23,25,02,08,,,,1.66,0.96,1.35,1*06
$GNGSA,A,3,,,,,,,,,,,,,1.66,0.96,1.35,4*0D
$GPGSV,3,1,10,01,20,115,35,02,16,316,35,04,44,283,36,07
,61,203,36,0*6D
$GPGSV,3,2,10,08,21,211,35,13,62,346,36,16,13,059,35,20,46,113,36,0*61
$GPGSV,3,3,10,23,48,038,36,25,83,195,36,0*63
$BDGSV,1,1,00,0*74

$GNRMC,000136.00,A,3128.308487,N,12117.999806,E,9.720,359.97,200720,,,A,V*0F
$GNGGA,000136.00,3128.308487,N,12117.999806,E,1,09,0.96,40.6,M,9.5,M,,*45
$GNGSA,A,3,07,04,20,01,13,23,25,02,08,,,,1.66,0.96,1.35,1*06
$GNGSA,A,3,,,,,,,,,,,,,1.66,0.96,1.35,4*0D
$GPGSV,3,1,10,01,20,115,35,02,16,316,35,04,44,283,36,
07,61,203,36,0*6D
$GPGSV,3,2,10,08,21,211,35,13,62,346,36,16,13,059,35,20,46,113,36,0*61
$GPGSV,3,3,10,23,48,038,36,25,83,195,36,0*63
$BDGSV,1,1,00,0*74

$GNRMC,000137.00,A,3128.311199,N,12117.999814,E,9.720,360.00,200720,,,A,V*0B
$GNGGA,000137.00,3128.311199,N,12117.999814,E,1,09,0.96,40.6,M,9.5,M,,*45
$GNGSA,A,3,07,04,20,01,13,23,25,02,08,,,,1.66,0.96,1.35,1*06
$GNGSA,A,3,,,,,,,,,,,,,1.66,0.96,1.35,4*0D
$GPGSV,3,1,10,01,20,115,35,02,16,316,35,04,44,283,36,
07,61,203,36,0*6D
$GPGSV,3,2,10,08,21,211,35,13,62,346,36,16,13,059,35,20,46,113,36,0*61
$GPGSV,3,3,10,23,48,038,36,25,83,195,36,0*63
$BDGSV,1,1,00,0*74

<??????????????>

$GNRMC,000138.00,A,3128.313908,N,12117.999820,E,9.726,0.03,200720,,,A,V*01
$GNGGA,000138.00,3128.313908,N,12117.999820,E,1,09,0.96,40.6,M,9.5,M,,*4F
$GNGSA,A,3,07,04,20,01,13,23,25,02,08,,,,1.66,0.96,1.36,1*05
$GNGSA,A,3,,,,,,,,,,,,,1.66,0.96,1.36,4*0E
$GPGSV,3,1,10,01,20,115,35,02,16,316,35,04,44,283,36,07
,61,203,36,0*6D
$GPGSV,3,2,10,08,21,211,35,13,62,346,36,16,13,059,35,20,46,113,36,0*61
$GPGSV,3,3,10,23,48,038,36,25,83,195,36,0*63
$BDGSV,1,1,00,0*74

$GNRMC,000139.00,A,3128.316615,N,12117.999821,E,9.713,359.97,200720,,,A,V*03
$GNGGA,000139.00,3128.316615,N,12117.999821,E,1,09,0.96,40.6,M,9.5,M,,*49
$GNGSA,A,3,07,04,20,01,13,23,25,02,08,,,,1.66,0.96,1.36,1*05
$GNGSA,A,3,,,,,,,,,,,,,1.66,0.96,1.36,4*0E
$GPGSV,3,1,10,01,20,115,35,02,16,316,35,04,44,283,36,
07,61,203,36,0*6D
$GPGSV,3,2,10,08,21,211,35,13,62,346,36,16,13,059,35,20,46,113,36,0*61
$GPGSV,3,3,10,23,48,038,36,25,83,195,36,0*63
$BDGSV,1,1,00,0*74

$GNRMC,000140.00,A,3128.319322,N,12117.999823,E,9.722,0.01,200720,,,A,V*03
$GNGGA,000140.00,3128.319322,N,12117.999823,E,1,09,0.96,40.6,M,9.5,M,,*4B
$GNGSA,A,3,07,04,20,01,13,23,25,02,08,,,,1.66,0.96,1.36,1*05
$GNGSA,A,3,,,,,,,,,,,,,1.66,0.96,1.36,4*0E
$GPGSV,3,1,10,01,20,115,35,02,16,316,35,04,44,283,36,07
,61,203,36,0*6D
$GPGSV,3,2,10,08,21,211,35,13,62,346,36,16,13,059,35,20,46,113,36,0*61
$GPGSV,3,3,10,23,48,038,36,25,83,195,36,0*63
$BDGSV,1,1,00,0*74

$GNRMC,000141.00,A,3128.322029,N,12117.999825,E,9.725,360.00,200720,,,A,V*07
$GNGGA,000141.00,3128.322029,N,12117.999825,E,1,09,0.96,40.6,M,9.5,M,,*4C
$GNGSA,A,3,07,04,20,01,13,23,25,02,08,,,,1.66,0.96,1.36,1*05
$GNGSA,A,3,,,,,,,,,,,,,1.66,0.96,1.36,4*0E
$GPGSV,3,1,10,01,20,115,35,02,16,316,35,04,44,283,36,
07,61,204,36,0*6A
$GPGSV,3,2,10,08,21,211,35,13,62,346,36,16,13,059,35,20,46,113,36,0*61
$GPGSV,3,3,10,23,48,038,36,25,83,195,36,0*63
$BDGSV,1,1,00,0*74

$GNRMC,000142.00,A,3128.324736,N,12117.999832,E,9.715,360.00,200720,,,A,V*0E
$GNGGA,000142.00,3128.324736,N,12117.999832,E,1,09,0.96,40.6,M,9.5,M,,*46
$GNGSA,A,3,07,04,20,01,13,23,25,02,08,,,,1.66,0.96,1.36,1*05
$GNGSA,A,3,,,,,,,,,,,,,1.66,0.96,1.36,4*0E
$GPGSV,3,1,10,01,20,115,35,02,16,316,35,04,44,283,36,
07,61,204,36,0*6A
$GPGSV,3,2,10,08,21,211,35,13,62,346,36,16,13,059,35,20,46,113,36,0*61
$GPGSV,3,3,10,23,48,038,36,25,83,195,36,0*63
$BDGSV,1,1,00,0*74

$GNRMC,000143.00,A,3128.327450,N,12117.999839,E,9.727,0.05,200720,,,A,V*05
$GNGGA,000143.00,3128.327450,N,12117.999839,E,1,09,0.96,40.6,M,9.5,M,,*4C
$GNGSA,A,3,07,04,20,01,13,23,25,02,08,,,,1.66,0.96,1.36,1*05
$GNGSA,A,3,,,,,,,,,,,,,1.66,0.96,1.36,4*0E
$GPGSV,3,1,10,01,20,115,35,02,16,316,35,04,44,283,36,07
,61,204,36,0*6A
$GPGSV,3,2,10,08,21,211,35,13,62,346,36,16,13,059,35,20,46,113,36,0*61
$GPGSV,3,3,10,23,48,038,36,25,83,195,36,0*63
$BDGSV,1,1,00,0*74

$GNRMC,000144.00,A,3128.330162,N,12117.999845,E,9.721,0.01,200720,,,A,V*09
$GNGGA,000144.00,3128.330162,N,12117.999845,E,1,09,0.96,40.6,M,9.5,M,,*42
$GNGSA,A,3,07,04,20,01,13,23,25,02,08,,,,1.66,0.96,1.36,1*05
$GNGSA,A,3,,,,,,,,,,,,,1.66,0.96,1.36,4*0E
$GPGSV,3,1,10,01,20,115,35,02,16,316,35,04,44,283,36,07
,61,204,36,0*6A
$GPGSV,3,2,10,08,21,211,35,13,62,346,36,16,13,059,35,20,46,113,36,0*61
$GPGSV,3,3,10,23,48,038,36,25,83,195,36,0*63
$BDGSV,1,1,00,0*74

$GNRMC,000145.00,A,3128.332872,N,12117.999852,E,9.723,359.99,200720,,,A,V*08
$GNGGA,000145.00,3128.332872,N,12117.999852,E,1,09,0.96,40.6,M,9.5,M,,*4F
$GNGSA,A,3,07,04,20,01,13,23,25,02,08,,,,1.66,0.96,1.36,1*05
$GNGSA,A,3,,,,,,,,,,,,,1.66,0.96,1.36,4*0E
$GPGSV,3,1,10,01,20,115,35,02,16,316,35,04,44,283,36,
07,61,204,36,0*6A
$GPGSV,3,2,10,08,21,211,35,13,62,346,36,16,13,059,35,20,46,113,36,0*61
$GPGSV,3,3,10,23,48,038,36,25,83,195,36,0*63
$BDGSV,1,1,00,0*74

$GNRMC,000146.00,A,3128.335579,N,12117.999857,E,9.716,359.97,200720,,,A,V*07
$GNGGA,000146.00,3128.335579,N,12117.999857,E,1,09,0.96,40.6,M,9.5,M,,*48
$GNGSA,A,3,07,04,20,01,13,23,25,02,08,,,,1.66,0.96,1.36,1*05
$GNGSA,A,3,,,,,,,,,,,,,1.66,0.96,1.36,4*0E
$GPGSV,3,1,10,01,20,115,35,02,16,316,35,04,44,283,36,
07,61,204,36,0*6A
$GPGSV,3,2,10,08,21,211,35,13,62,346,36,16,13,059,35,20,46,113,36,0*61
$GPGSV,3,3,10,23,48,038,36,25,83,195,36,0*63
$BDGSV,1,1,00,0*74

$GNRMC,000147.00,A,3128.338286,N,12117.999857,E,9.726,359.99,200720,,,A,V*01
$GNGGA,000147.00,3128.338286,N,12117.999857,E,1,09,0.96,40.6,M,9.5,M,,*43
$GNGSA,A,3,07,04,20,01,13,23,25,02,08,,,,1.66,0.96,1.36,1*05
$GNGSA,A,3,,,,,,,,,,,,,1.66,0.96,1.36,4*0E
$GPGSV,3,1,10,01,20,115,35,02,16,316,35,04,44,283,36,
07,61,204,36,0*6A
$GPGSV,3,2,10,08,21,211,35,13,62,346,36,16,13,059,34,20,46,113,36,0*60
$GPGSV,3,3,10,23,48,038,36,25,83,195,36,0*63
$BDGSV,1,1,00,0*74

<????sim??????(SIM??:1)>
<????GSM????????(GSM:0)>
<????GPRS????????(GPRS:0)>
<????????????(SIGNAL:0)>
<????????????????(BER:0)>

<??????????????>

$GNRMC,000148.00,A,3128.340992,N,12117.999862,E,9.724,0.06,200720,,,A,V*02
$GNGGA,000148.00,3128.340992,N,12117.999862,E,1,09,0.96,40.6,M,9.5,M,,*4B
$GNGSA,A,3,07,04,20,01,13,23,25,02,08,,,,1.66,0.96,1.36,1*05
$GNGSA,A,3,,,,,,,,,,,,,1.66,0.96,1.36,4*0E
$GPGSV,3,1,10,01,20,115,35,02,16,316,35,04,44,283,36,07
,61,204,36,0*6A
$GPGSV,3,2,10,08,21,211,35,13,62,346,36,16,13,059,35,20,46,113,36,0*61
$GPGSV,3,3,10,23,48,038,36,25,83,195,36,0*63
$BDGSV,1,1,00,0*74

$GNRMC,000149.00,A,3128.343693,N,12117.999858,E,9.709,359.99,200720,,,A,V*01
$GNGGA,000149.00,3128.343693,N,12117.999858,E,1,09,0.96,40.6,M,9.5,M,,*4E
$GNGSA,A,3,07,04,20,01,13,23,25,02,08,,,,1.66,0.96,1.36,1*05
$GNGSA,A,3,,,,,,,,,,,,,1.66,0.96,1.36,4*0E
$GPGSV,3,1,10,01,20,115,35,02,16,316,35,04,44,283,36,
07,61,204,36,0*6A
$GPGSV,3,2,10,08,21,211,35,13,62,346,36,16,13,059,35,20,46,113,36,0*61
$GPGSV,3,3,10,23,48,038,36,25,83,195,36,0*63
$BDGSV,1,1,00,0*74

$GNRMC,000150.00,A,3128.346397,N,12117.999857,E,9.729,0.00,200720,,,A,V*0F
$GNGGA,000150.00,3128.346397,N,12117.999857,E,1,09,0.96,40.6,M,9.5,M,,*4D
$GNGSA,A,3,07,04,20,01,13,23,25,02,08,,,,1.66,0.96,1.36,1*05
$GNGSA,A,3,,,,,,,,,,,,,1.66,0.96,1.36,4*0E
$GPGSV,3,1,10,01,20,115,35,02,16,316,35,04,44,283,36,07
,61,204,36,0*6A
$GPGSV,3,2,10,08,21,211,35,13,62,346,36,16,13,059,35,20,46,113,36,0*61
$GPGSV,3,3,10,23,48,038,36,25,83,195,36,0*63
$BDGSV,1,1,00,0*74

$GNRMC,000151.00,A,3128.349100,N,12117.999860,E,9.711,0.00,200720,,,A,V*02
$GNGGA,000151.00,3128.349100,N,12117.999860,E,1,09,0.96,40.6,M,9.5,M,,*4B
$GNGSA,A,3,07,04,20,01,13,23,25,02,08,,,,1.66,0.96,1.36,1*05
$GNGSA,A,3,,,,,,,,,,,,,1.66,0.96,1.36,4*0E
$GPGSV,3,1,10,01,20,115,35,02,16,316,35,04,44,283,36,07
,61,204,36,0*6A
$GPGSV,3,2,10,08,21,211,35,13,62,346,36,16,13,059,35,20,46,113,36,0*61
$GPGSV,3,3,10,23,48,038,36,25,83,195,36,0*63
$BDGSV,1,1,00,0*74

$GNRMC,000152.00,A,3128.351803,N,12117.999864,E,9.725,0.04,200720,,,A,V*05
$GNGGA,000152.00,3128.351803,N,12117.999864,E,1,09,0.96,40.6,M,9.5,M,,*4F
$GNGSA,A,3,07,04,20,01,13,23,25,02,08,,,,1.66,0.96,1.36,1*05
$GNGSA,A,3,,,,,,,,,,,,,1.66,0.96,1.36,4*0E
$GPGSV,3,1,10,01,20,115,35,02,16,316,35,04,44,283,36,07
,61,204,36,0*6A
$GPGSV,3,2,10,08,21,211,35,13,62,346,36,16,13,059,35,20,46,113,36,0*61
$GPGSV,3,3,10,23,48,038,36,25,83,195,36,0*63
$BDGSV,1,1,00,0*74

$GNRMC,000153.00,A,3128.354507,N,12117.999864,E,9.725,0.01,200720,,,A,V*0D
$GNGGA,000153.00,3128.354507,N,12117.999864,E,1,09,0.96,40.6,M,9.5,M,,*42
$GNGSA,A,3,07,04,20,01,13,23,25,02,08,,,,1.66,0.96,1.36,1*05
$GNGSA,A,3,,,,,,,,,,,,,1.66,0.96,1.36,4*0E
$GPGSV,3,1,10,01,20,115,35,02,16,316,35,04,44,283,36,07
,61,204,36,0*6A
$GPGSV,3,2,10,08,21,211,35,13,62,346,36,16,13,059,35,20,46,113,36,0*61
$GPGSV,3,3,10,23,48,038,36,25,83,195,36,0*63
$BDGSV,1,1,00,0*74

$GNRMC,000154.00,A,3128.357213,N,12117.999863,E,9.726,359.97,200720,,,A,V*0F
$GNGGA,000154.00,3128.357213,N,12117.999863,E,1,09,0.96,40.6,M,9.5,M,,*43
$GNGSA,A,3,07,04,20,01,13,23,25,02,08,,,,1.66,0.96,1.36,1*05
$GNGSA,A,3,,,,,,,,,,,,,1.66,0.96,1.36,4*0E
$GPGSV,3,1,10,01,20,115,35,02,16,316,35,04,44,283,36,
07,61,204,36,0*6A
$GPGSV,3,2,10,08,21,211,35,13,62,346,36,16,13,059,35,20,46,113,36,0*61
$GPGSV,3,3,10,23,48,038,36,25,83,195,36,0*63
$BDGSV,1,1,00,0*74

$GNRMC,000155.00,A,3128.359918,N,12117.999863,E,9.719,359.98,200720,,,A,V*03
$GNGGA,000155.00,3128.359918,N,12117.999863,E,1,09,0.96,40.6,M,9.5,M,,*4C
$GNGSA,A,3,07,04,20,01,13,23,25,02,08,,,,1.66,0.96,1.36,1*05
$GNGSA,A,3,,,,,,,,,,,,,1.66,0.96,1.36,4*0E
$GPGSV,3,1,10,01,20,115,35,02,16,316,35,04,44,283,36,
07,61,204,36,0*6A
$GPGSV,3,2,10,08,21,211,35,13,62,346,36,16,13,059,35,20,46,113,36,0*61
$GPGSV,3,3,10,23,48,038,36,25,83,195,36,0*63
$BDGSV,1,1,00,0*74

$GNRMC,000156.00,A,3128.362624,N,12117.999865,E,9.719,0.02,200720,,,A,V*02
$GNGGA,000156.00,3128.362624,N,12117.999865,E,1,09,0.96,40.7,M,9.5,M,,*40
$GNGSA,A,3,07,04,20,01,13,23,25,02,08,,,,1.66,0.96,1.36,1*05
$GNGSA,A,3,,,,,,,,,,,,,1.66,0.96,1.36,4*0E
$GPGSV,3,1,10,01,20,115,35,02,16,316,35,04,44,283,36,07
,61,204,36,0*6A
$GPGSV,3,2,10,08,21,211,35,13,62,346,36,16,13,059,35,20,46,113,36,0*61
$GPGSV,3,3,10,23,48,038,36,25,83,195,36,0*63
$BDGSV,1,1,00,0*74

$GNRMC,000157.00,A,3128.365327,N,12117.999865,E,9.710,359.98,200720,,,A,V*07
$GNGGA,000157.00,3128.365327,N,12117.999865,E,1,09,0.96,40.7,M,9.5,M,,*40
$GNGSA,A,3,07,04,20,01,13,23,25,02,08,,,,1.66,0.96,1.36,1*05
$GNGSA,A,3,,,,,,,,,,,,,1.66,0.96,1.36,4*0E
$GPGSV,3,1,10,01,20,115,35,02,16,316,35,04,44,283,36,
07,61,204,36,0*6A
$GPGSV,3,2,10,08,21,211,35,13,62,346,36,16,13,059,35,20,46,113,36,0*61
$GPGSV,3,3,10,23,48,038,36,25,83,195,36,0*63
$BDGSV,1,1,00,0*74

<??????????????>

$GNRMC,000158.00,A,3128.368033,N,12117.999863,E,9.725,0.01,200720,,,A,V*0C
$GNGGA,000158.00,3128.368033,N,12117.999863,E,1,09,0.96,40.7,M,9.5,M,,*42
$GNGSA,A,3,07,04,20,01,13,23,25,02,08,,,,1.66,0.96,1.36,1*05
$GNGSA,A,3,,,,,,,,,,,,,1.66,0.96,1.36,4*0E
$GPGSV,3,1,10,01,20,115,35,02,16,316,35,04,44,283,36,07
,61,204,36,0*6A
$GPGSV,3,2,10,08,21,211,35,13,62,346,36,16,13,059,35,20,46,113,36,0*61
$GPGSV,3,3,10,23,48,038,36,25,83,195,36,0*63
$BDGSV,1,1,00,0*74

$GNRMC,000159.00,A,3128.370737,N,12117.999861,E,9.724,0.01,200720,,,A,V*04
$GNGGA,000159.00,3128.370737,N,12117.999861,E,1,09,0.96,40.7,M,9.5,M,,*4B
$GNGSA,A,3,07,04,20,01,13,23,25,02,08,,,,1.66,0.96,1.36,1*05
$GNGSA,A,3,,,,,,,,,,,,,1.66,0.96,1.36,4*0E
$GPGSV,3,1,10,01,20,115,35,02,16,316,35,04,44,283,36,07
,61,204,36,0*6A
$GPGSV,3,2,10,08,21,211,35,13,62,346,36,16,13,059,35,20,46,113,36,0*61
$GPGSV,3,3,10,23,48,038,36,25,83,195,36,0*63
$BDGSV,1,1,00,0*74

$GNRMC,000200.00,A,3128.373443,N,12117.999862,E,9.724,0.00,200720,,,A,V*0A
$GNGGA,000200.00,3128.373443,N,12117.999862,E,1,09,0.96,40.7,M,9.5,M,,*44
$GNGSA,A,3,07,04,20,01,13,23,25,02,08,,,,1.66,0.96,1.36,1*05
$GNGSA,A,3,,,,,,,,,,,,,1.66,0.96,1.36,4*0E
$GPGSV,3,1,10,01,20,115,35,02,16,316,35,04,44,283,36,07
,61,204,36,0*6A
$GPGSV,3,2,10,08,21,211,35,13,62,346,36,16,13,059,35,20,46,113,36,0*61
$GPGSV,3,3,10,23,48,038,36,25,83,195,36,0*63
$BDGSV,1,1,00,0*74

$GNRMC,000201.00,A,3128.376142,N,12117.999858,E,9.709,0.01,200720,,,A,V*0D
$GNGGA,000201.00,3128.376142,N,12117.999858,E,1,09,0.96,40.7,M,9.5,M,,*4D
$GNGSA,A,3,07,04,20,01,13,23,25,02,08,,,,1.66,0.96,1.36,1*05
$GNGSA,A,3,,,,,,,,,,,,,1.66,0.96,1.36,4*0E
$GPGSV,3,1,10,01,20,115,35,02,16,316,35,04,44,283,36,07
,61,204,36,0*6A
$GPGSV,3,2,10,08,21,211,35,13,62,346,36,16,13,059,35,20,46,113,36,0*61
$GPGSV,3,3,10,23,48,038,36,25,83,195,36,0*63
$BDGSV,1,1,00,0*74

$GNRMC,000202.00,A,3128.378845,N,12117.999855,E,9.734,0.03,200720,,,A,V*0F
$GNGGA,000202.00,3128.378845,N,12117.999855,E,1,09,0.96,40.8,M,9.5,M,,*4C
$GNGSA,A,3,07,04,20,01,13,23,25,02,08,,,,1.66,0.96,1.36,1*05
$GNGSA,A,3,,,,,,,,,,,,,1.66,0.96,1.36,4*0E
$GPGSV,3,1,10,01,20,115,35,02,16,316,35,04,44,283,36,07
,61,204,36,0*6A
$GPGSV,3,2,10,08,21,211,35,13,62,346,36,16,13,059,35,20,46,113,36,0*61
$GPGSV,3,3,10,23,48,038,36,25,83,195,36,0*63
$BDGSV,1,1,00,0*74

$GNRMC,000203.00,A,3128.381539,N,12117.999845,E,9.710,359.96,200720,,,A,V*0A
$GNGGA,000203.00,3128.381539,N,12117.999845,E,1,09,0.96,40.8,M,9.5,M,,*4C
$GNGSA,A,3,07,04,20,01,13,23,25,02,08,,,,1.66,0.96,1.36,1*05
$GNGSA,A,3,,,,,,,,,,,,,1.66,0.96,1.36,4*0E
$GPGSV,3,1,10,01,20,115,35,02,16,316,35,04,44,283,36,
07,61,204,36,0*6A
$GPGSV,3,2,10,08,21,211,35,13,62,346,36,16,13,059,35,20,46,113,36,0*61
$GPGSV,3,3,10,23,48,038,36,25,83,195,36,0*63
$BDGSV,1,1,00,0*74

$GNRMC,000204.00,A,3128.384239,N,12117.999844,E,9.727,0.04,200720,,,A,V*0E
$GNGGA,000204.00,3128.384239,N,12117.999844,E,1,09,0.96,40.8,M,9.5,M,,*48
$GNGSA,A,3,07,04,20,01,13,23,25,02,08,,,,1.66,0.96,1.36,1*05
$GNGSA,A,3,,,,,,,,,,,,,1.66,0.96,1.36,4*0E
$GPGSV,3,1,10,01,20,115,35,02,16,316,35,04,44,283,36,07,61,204,36,0*6A
$GPGSV,3,2,10,08,21,211,35,13,62,346,36,16,13,059,35,20,46,113,36,0*61
$GPGSV,3,3,10,23,48,038,36,25,83,195,36,0*63
$BDGSV,1,1,00,0*74

$GNRMC,000205.00,A,3128.386940,N,12117.999845,E,9.724,0.01,200720,,,A,V*0F
$GNGGA,000205.00,3128.386940,N,12117.999845,E,1,09,0.96,40.8,M,9.5,M,,*4F
$GNGSA,A,3,07,04,20,01,13,23,25,02,08,,,,1.66,0.96,1.36,1*05
$GNGSA,A,3,,,,,,,,,,,,,1.66,0.96,1.36,4*0E
$GPGSV,3,1,10,01,20,115,35,02,16,316,35,04,44,283,36,07
,61,204,36,0*6A
$GPGSV,3,2,10,08,21,211,35,13,62,346,36,16,13,059,35,20,46,113,36,0*61
$GPGSV,3,3,10,23,48,038,36,25,83,195,36,0*63
$BDGSV,1,1,00,0*74

$GNRMC,000206.00,A,3128.389640,N,12117.999841,E,9.717,359.97,200720,,,A,V*08
$GNGGA,000206.00,3128.389640,N,12117.999841,E,1,09,0.96,40.8,M,9.5,M,,*48
$GNGSA,A,3,07,04,20,01,13,23,25,02,08,,,,1.66,0.96,1.36,1*05
$GNGSA,A,3,,,,,,,,,,,,,1.66,0.96,1.36,4*0E
$GPGSV,3,1,10,01,20,115,35,02,16,316,35,04,44,283,36,
07,61,204,36,0*6A
$GPGSV,3,2,10,08,22,211,35,13,62,346,36,16,13,059,35,20,46,113,36,0*62
$GPGSV,3,3,10,23,48,038,36,25,83,195,36,0*63
$BDGSV,1,1,00,0*74

$GNRMC,000207.00,A,3128.392338,N,12117.999843,E,9.712,0.02,200720,,,A,V*0D
$GNGGA,000207.00,3128.392338,N,12117.999843,E,1,09,0.96,40.8,M,9.5,M,,*4B
$GNGSA,A,3,07,04,20,01,13,23,25,02,08,,,,1.66,0.96,1.36,1*05
$GNGSA,A,3,,,,,,,,,,,,,1.66,0.96,1.36,4*0E
$GPGSV,3,1,10,01,20,115,35,02,16,316,35,04,44,283,36,07
,61,204,36,0*6A
$GPGSV,3,2,10,08,22,211,35,13,62,346,36,16,13,059,35,20,46,113,36,0*62
$GPGSV,3,3,10,23,48,038,36,25,83,195,36,0*63
$BDGSV,1,1,00,0*74

<????sim??????(SIM??:1)>
<????GSM????????(GSM:0)>
<????GPRS????????(GPRS:0)>
<????????????(SIGNAL:0)>
<????????????????(BER:0)>

<??????????????>

$GNRMC,000208.00,A,3128.395044,N,12117.999846,E,9.731,359.99,200720,,,A,V*04
$GNGGA,000208.00,3128.395044,N,12117.999846,E,1,09,0.96,40.8,M,9.5,M,,*4E
$GNGSA,A,3,07,04,20,01,13,23,25,02,08,,,,1.66,0.96,1.36,1*05
$GNGSA,A,3,,,,,,,,,,,,,1.66,0.96,1.36,4*0E
$GPGSV,3,1,10,01,20,115,35,02,16,316,35,04,44,283,36,
07,61,204,36,0*6A
$GPGSV,3,2,10,08,22,211,35,13,62,346,36,16,13,059,35,20,46,113,36,0*62
$GPGSV,3,3,10,23,48,038,36,25,83,195,36,0*63
$BDGSV,1,1,00,0*74

$GNRMC,000209.00,A,3128.397751,N,12117.999849,E,9.725,0.00,200720,,,A,V*01
$GNGGA,000209.00,3128.397751,N,12117.999849,E,1,09,0.96,40.8,M,9.5,M,,*41
$GNGSA,A,3,07,04,20,01,13,23,25,02,08,,,,1.66,0.96,1.36,1*05
$GNGSA,A,3,,,,,,,,,,,,,1.66,0.96,1.36,4*0E
$GPGSV,3,1,10,01,20,115,35,02,16,316,35,04,44,283,36,07
,61,204,36,0*6A
$GPGSV,3,2,10,08,22,211,35,13,62,346,36,16,13,059,35,20,46,113,36,0*62
$GPGSV,3,3,10,23,48,038,36,25,83,195,36,0*63
$BDGSV,1,1,00,0*74

$GNRMC,000210.00,A,3128.400454,N,12117.999851,E,9.712,360.00,200720,,,A,V*0E
$GNGGA,000210.00,3128.400454,N,12117.999851,E,1,09,0.96,40.8,M,9.5,M,,*4F
$GNGSA,A,3,07,04,20,01,13,23,25,02,08,,,,1.66,0.96,1.36,1*05
$GNGSA,A,3,,,,,,,,,,,,,1.66,0.96,1.36,4*0E
$GPGSV,3,1,10,01,20,115,35,02,16,316,35,04,44,283,36,
07,61,204,36,0*6A
$GPGSV,3,2,10,08,22,211,35,13,62,346,36,16,13,059,35,20,46,114,36,0*65
$GPGSV,3,3,10,23,48,038,36,25,83,195,36,0*63
$BDGSV,1,1,00,0*74

$GNRMC,000211.00,A,3128.403162,N,12117.999856,E,9.721,0.01,200720,,,A,V*0F
$GNGGA,000211.00,3128.403162,N,12117.999856,E,1,09,0.96,40.8,M,9.5,M,,*4A
$GNGSA,A,3,07,04,20,01,13,23,25,02,08,,,,1.66,0.96,1.36,1*05
$GNGSA,A,3,,,,,,,,,,,,,1.66,0.96,1.36,4*0E
$GPGSV,3,1,10,01,20,115,35,02,16,316,35,04,44,283,36,07
,61,204,36,0*6A
$GPGSV,3,2,10,08,22,211,35,13,62,346,36,16,13,059,35,20,46,114,36,0*65
$GPGSV,3,3,10,23,48,038,36,25,83,195,36,0*63
$BDGSV,1,1,00,0*74

$GNRMC,000212.00,A,3128.405874,N,12117.999864,E,9.725,0.03,200720,,,A,V*03
$GNGGA,000212.00,3128.405874,N,12117.999864,E,1,09,0.96,40.8,M,9.5,M,,*40
$GNGSA,A,3,07,04,20,01,13,23,25,02,08,,,,1.66,0.96,1.36,1*05
$GNGSA,A,3,,,,,,,,,,,,,1.66,0.96,1.36,4*0E
$GPGSV,3,1,10,01,20,115,35,02,16,316,35,04,44,283,36,07
,61,204,36,0*6A
$GPGSV,3,2,10,08,22,211,35,13,62,346,36,16,13,059,35,20,46,114,36,0*65
$GPGSV,3,3,10,23,48,038,36,25,84,195,36,0*64
$BDGSV,1,1,00,0*74

$GNRMC,000213.00,A,3128.408581,N,12117.999861,E,9.712,359.97,200720,,,A,V*0B
$GNGGA,000213.00,3128.408581,N,12117.999861,E,1,09,0.96,40.8,M,9.5,M,,*4E
$GNGSA,A,3,07,04,20,01,13,23,25,02,08,,,,1.66,0.96,1.36,1*05
$GNGSA,A,3,,,,,,,,,,,,,1.66,0.96,1.36,4*0E
$GPGSV,3,1,10,01,20,115,35,02,16,316,35,04,44,283,36,
07,61,204,36,0*6A
$GPGSV,3,2,10,08,22,211,35,13,62,346,36,16,13,059,35,20,46,114,36,0*65
$GPGSV,3,3,10,23,48,038,36,25,84,195,36,0*64
$BDGSV,1,1,00,0*74

$GNRMC,000214.00,A,3128.411290,N,12117.999862,E,9.726,359.99,200720,,,A,V*09
$GNGGA,000214.00,3128.411290,N,12117.999862,E,1,09,0.96,40.8,M,9.5,M,,*45
$GNGSA,A,3,07,04,20,01,13,23,25,02,08,,,,1.66,0.96,1.36,1*05
$GNGSA,A,3,,,,,,,,,,,,,1.66,0.96,1.36,4*0E
$GPGSV,3,1,10,01,20,115,35,02,16,316,35,04,44,283,36,
07,61,204,36,0*6A
$GPGSV,3,2,10,08,22,211,35,13,62,346,36,16,13,059,35,20,46,114,36,0*65
$GPGSV,3,3,10,23,48,038,36,25,84,195,36,0*64
$BDGSV,1,1,00,0*74

$GNRMC,000215.00,A,3128.413996,N,12117.999872,E,9.714,0.06,200720,,,A,V*0E
$GNGGA,000215.00,3128.413996,N,12117.999872,E,1,09,0.96,40.7,M,9.5,M,,*45
$GNGSA,A,3,07,04,20,01,13,23,25,02,08,,,,1.66,0.96,1.36,1*05
$GNGSA,A,3,,,,,,,,,,,,,1.66,0.96,1.36,4*0E
$GPGSV,3,1,10,01,20,115,35,02,16,316,35,04,44,283,36,07
,61,204,36,0*6A
$GPGSV,3,2,10,08,22,211,35,13,62,346,36,16,13,059,35,20,46,114,36,0*65
$GPGSV,3,3,10,23,48,038,36,25,84,195,36,0*64
$BDGSV,1,1,00,0*74

$GNRMC,000216.00,A,3128.416705,N,12117.999874,E,9.725,359.95,200720,,,A,V*0D
$GNGGA,000216.00,3128.416705,N,12117.999874,E,1,09,0.96,40.7,M,9.5,M,,*41
$GNGSA,A,3,07,04,20,01,13,23,25,02,08,,,,1.66,0.96,1.36,1*05
$GNGSA,A,3,,,,,,,,,,,,,1.66,0.96,1.36,4*0E
$GPGSV,3,1,10,01,20,115,35,02,16,316,35,04,44,283,36,
07,61,204,36,0*6A
$GPGSV,3,2,10,08,22,211,35,13,62,346,36,16,13,059,35,20,46,114,36,0*65
$GPGSV,3,3,10,23,48,038,36,25,84,195,36,0*64
$BDGSV,1,1,00,0*74

$GNRMC,000217.00,A,3128.419411,N,12117.999881,E,9.718,359.97,200720,,,A,V*03
$GNGGA,000217.00,3128.419411,N,12117.999881,E,1,09,0.96,40.7,M,9.5,M,,*43
$GNGSA,A,3,07,04,20,01,13,23,25,02,08,,,,1.66,0.96,1.36,1*05
$GNGSA,A,3,,,,,,,,,,,,,1.66,0.96,1.36,4*0E
$GPGSV,3,1,10,01,20,115,35,02,16,316,35,04,44,283,36,
07,61,204,36,0*6A
$GPGSV,3,2,10,08,22,211,35,13,62,346,36,16,13,059,35,20,46,114,36,0*65
$GPGSV,3,3,10,23,48,038,36,25,84,195,36,0*64
$BDGSV,1,1,00,0*74

<??????????????>

$GNRMC,000218.00,A,3128.422123,N,12117.999894,E,9.741,0.09,200720,,,A,V*00
$GNGGA,000218.00,3128.422123,N,12117.999894,E,1,09,0.96,40.6,M,9.5,M,,*45
$GNGSA,A,3,07,04,20,01,13,23,25,02,08,,,,1.67,0.96,1.36,1*04
$GNGSA,A,3,,,,,,,,,,,,,1.67,0.96,1.36,4*0F
$GPGSV,3,1,10,01,20,115,35,02,16,316,35,04,44,283,36,07
,61,204,36,0*6A
$GPGSV,3,2,10,08,22,211,35,13,62,346,36,16,13,059,35,20,46,114,36,0*65
$GPGSV,3,3,10,23,48,038,36,25,84,195,36,0*64
$BDGSV,1,1,00,0*74

$GNRMC,000219.00,A,3128.424829,N,12117.999898,E,9.716,0.00,200720,,,A,V*03
$GNGGA,000219.00,3128.424829,N,12117.999898,E,1,09,0.96,40.6,M,9.5,M,,*4D
$GNGSA,A,3,07,04,20,01,13,23,25,02,08,,,,1.67,0.96,1.36,1*04
$GNGSA,A,3,,,,,,,,,,,,,1.67,0.96,1.36,4*0F
$GPGSV,3,1,10,01,20,115,35,02,16,316,35,04,44,283,36,07
,61,204,36,0*6A
$GPGSV,3,2,10,08,22,211,35,13,62,346,36,16,13,059,35,20,46,114,36,0*65
$GPGSV,3,3,10,23,48,038,36,25,84,195,36,0*64
$BDGSV,1,1,00,0*74

$GNRMC,000220.00,A,3128.427538,N,12117.999905,E,9.724,0.03,200720,,,A,V*00
$GNGGA,000220.00,3128.427538,N,12117.999905,E,1,09,0.96,40.6,M,9.5,M,,*4C
$GNGSA,A,3,07,04,20,01,13,23,25,02,08,,,,1.67,0.96,1.36,1*04
$GNGSA,A,3,,,,,,,,,,,,,1.67,0.96,1.36,4*0F
$GPGSV,3,1,10,01,20,115,35,02,16,316,35,04,44,283,36,07
,61,204,36,0*6A
$GPGSV,3,2,10,08,22,211,35,13,62,346,36,16,13,059,35,20,46,114,36,0*65
$GPGSV,3,3,10,23,48,038,36,25,84,195,36,0*64
$BDGSV,1,1,00,0*74

$GNRMC,000221.00,A,3128.430249,N,12117.999912,E,9.718,360.00,200720,,,A,V*09
$GNGGA,000221.00,3128.430249,N,12117.999912,E,1,09,0.96,40.6,M,9.5,M,,*4C
$GNGSA,A,3,07,04,20,01,13,23,25,02,08,,,,1.67,0.96,1.36,1*04
$GNGSA,A,3,,,,,,,,,,,,,1.67,0.96,1.36,4*0F
$GPGSV,3,1,10,01,20,115,35,02,16,316,35,04,44,283,36,
07,61,204,36,0*6A
$GPGSV,3,2,10,08,22,211,35,13,62,346,36,16,13,059,35,20,46,114,36,0*65
$GPGSV,3,3,10,23,48,038,36,25,84,195,36,0*64
$BDGSV,1,1,00,0*74

$GNRMC,000222.00,A,3128.432964,N,12117.999917,E,9.725,0.00,200720,,,A,V*02
$GNGGA,000222.00,3128.432964,N,12117.999917,E,1,09,0.96,40.6,M,9.5,M,,*4C
$GNGSA,A,3,07,04,20,01,13,23,25,02,08,,,,1.67,0.96,1.36,1*04
$GNGSA,A,3,,,,,,,,,,,,,1.67,0.96,1.36,4*0F
$GPGSV,3,1,10,01,20,115,35,02,16,316,35,04,44,283,36,07
,61,204,36,0*6A
$GPGSV,3,2,10,08,22,211,35,13,62,346,36,16,13,059,35,20,46,114,36,0*65
$GPGSV,3,3,10,23,48,038,36,25,84,195,36,0*64
$BDGSV,1,1,00,0*74

$GNRMC,000223.00,A,3128.435670,N,12117.999920,E,9.716,0.04,200720,,,A,V*0E
$GNGGA,000223.00,3128.435670,N,12117.999920,E,1,09,0.96,40.6,M,9.5,M,,*44
$GNGSA,A,3,07,04,20,01,13,23,25,02,08,,,,1.67,0.96,1.36,1*04
$GNGSA,A,3,,,,,,,,,,,,,1.67,0.96,1.36,4*0F
$GPGSV,3,1,10,01,20,115,35,02,16,316,35,04,44,283,36,07
,61,204,36,0*6A
$GPGSV,3,2,10,08,22,211,35,13,62,346,36,16,13,059,35,20,46,114,36,0*65
$GPGSV,3,3,10,23,48,038,36,25,84,195,36,0*64
$BDGSV,1,1,00,0*74

$GNRMC,000224.00,A,3128.438377,N,12117.999922,E,9.738,0.02,200720,,,A,V*0E
$GNGGA,000224.00,3128.438377,N,12117.999922,E,1,09,0.96,40.6,M,9.5,M,,*4E
$GNGSA,A,3,07,04,20,01,13,23,25,02,08,,,,1.67,0.96,1.36,1*04
$GNGSA,A,3,,,,,,,,,,,,,1.67,0.96,1.36,4*0F
$GPGSV,3,1,10,01,20,115,35,02,16,316,35,04,44,283,36,07
,61,204,36,0*6A
$GPGSV,3,2,10,08,22,211,35,13,62,346,36,16,13,059,35,20,46,114,36,0*65
$GPGSV,3,3,10,23,48,038,36,25,84,195,36,0*64
$BDGSV,1,1,00,0*74

$GNRMC,000225.00,A,3128.441079,N,12117.999920,E,9.720,359.99,200720,,,A,V*0A
$GNGGA,000225.00,3128.441079,N,12117.999920,E,1,09,0.96,40.7,M,9.5,M,,*4F
$GNGSA,A,3,07,04,20,01,13,23,25,02,08,,,,1.67,0.96,1.36,1*04
$GNGSA,A,3,,,,,,,,,,,,,1.67,0.96,1.36,4*0F
$GPGSV,3,1,10,01,20,115,35,02,16,316,35,04,44,283,36,
07,61,204,36,0*6A
$GPGSV,3,2,10,08,22,211,35,13,62,346,36,16,13,059,35,20,46,114,36,0*65
$GPGSV,3,3,10,23,48,038,36,25,84,195,36,0*64
$BDGSV,1,1,00,0*74

$GNRMC,000226.00,A,3128.443781,N,12117.999923,E,9.719,0.04,200720,,,A,V*09
$GNGGA,000226.00,3128.443781,N,12117.999923,E,1,09,0.96,40.7,M,9.5,M,,*4D
$GNGSA,A,3,07,04,20,01,13,23,25,02,08,,,,1.67,0.96,1.36,1*04
$GNGSA,A,3,,,,,,,,,,,,,1.67,0.96,1.36,4*0F
$GPGSV,3,1,10,01,20,115,35,02,16,316,35,04,44,282,36,07
,61,204,36,0*6B
$GPGSV,3,2,10,08,22,211,35,13,62,346,36,16,13,059,35,20,46,114,36,0*65
$GPGSV,3,3,10,23,48,038,36,25,84,195,36,0*64
$BDGSV,1,1,00,0*74

$GNRMC,000227.00,A,3128.446487,N,12117.999922,E,9.724,359.98,200720,,,A,V*0D
$GNGGA,000227.00,3128.446487,N,12117.999922,E,1,09,0.96,40.7,M,9.5,M,,*4D
$GNGSA,A,3,07,04,20,01,13,23,25,02,08,,,,1.67,0.96,1.36,1*04
$GNGSA,A,3,,,,,,,,,,,,,1.67,0.96,1.36,4*0F
$GPGSV,3,1,10,01,20,115,35,02,16,316,35,04,44,282,36,
07,61,204,36,0*6B
$GPGSV,3,2,10,08,22,211,35,13,62,346,36,16,13,059,35,20,46,114,36,0*65
$GPGSV,3,3,10,23,48,038,36,25,84,195,36,0*64
$BDGSV,1,1,00,0*74

<????sim??????(SIM??:1)>
<????GSM????????(GSM:0)>
<????GPRS????????(GPRS:0)>
<????????????(SIGNAL:0)>
<????????????????(BER:0)>

<??????????????>

$GNRMC,000228.00,A,3128.449191,N,12117.999923,E,9.720,0.04,200720,,,A,V*00
$GNGGA,000228.00,3128.449191,N,12117.999923,E,1,09,0.96,40.7,M,9.5,M,,*4E
$GNGSA,A,3,07,04,20,01,13,23,25,02,08,,,,1.67,0.96,1.36,1*04
$GNGSA,A,3,,,,,,,,,,,,,1.67,0.96,1.36,4*0F
$GPGSV,3,1,10,01,20,115,35,02,16,316,35,04,44,282,36,07
,61,204,36,0*6B
$GPGSV,3,2,10,08,22,211,35,13,62,346,36,16,13,059,35,20,46,114,36,0*65
$GPGSV,3,3,10,23,48,038,36,25,84,195,36,0*64
$BDGSV,1,1,00,0*74

$GNRMC,000229.00,A,3128.451892,N,12117.999923,E,9.708,359.98,200720,,,A,V*02
$GNGGA,000229.00,3128.451892,N,12117.999923,E,1,09,0.96,40.7,M,9.5,M,,*4C
$GNGSA,A,3,07,04,20,01,13,23,25,02,08,,,,1.67,0.96,1.36,1*04
$GNGSA,A,3,,,,,,,,,,,,,1.67,0.96,1.36,4*0F
$GPGSV,3,1,10,01,20,115,35,02,16,316,35,04,44,282,36,
07,61,204,36,0*6B
$GPGSV,3,2,10,08,22,211,35,13,62,346,36,16,13,059,35,20,46,114,36,0*65
$GPGSV,3,3,10,23,48,038,36,25,84,195,36,0*64
$BDGSV,1,1,00,0*74

$GNRMC,000230.00,A,3128.454598,N,12117.999925,E,9.729,360.00,200720,,,A,V*06
$GNGGA,000230.00,3128.454598,N,12117.999925,E,1,09,0.96,40.7,M,9.5,M,,*40
$GNGSA,A,3,07,04,20,01,13,23,25,02,08,,,,1.67,0.96,1.36,1*04
$GNGSA,A,3,,,,,,,,,,,,,1.67,0.96,1.36,4*0F
$GPGSV,3,1,10,01,20,115,35,02,16,316,35,04,44,282,36,
07,61,204,36,0*6B
$GPGSV,3,2,10,08,22,211,35,13,62,346,36,16,13,059,35,20,46,114,36,0*65
$GPGSV,3,3,10,23,48,038,36,25,84,195,36,0*64
$BDGSV,1,1,00,0*74

$GNRMC,000231.00,A,3128.457301,N,12117.999925,E,9.719,0.01,200720,,,A,V*05
$GNGGA,000231.00,3128.457301,N,12117.999925,E,1,09,0.96,40.7,M,9.5,M,,*44
$GNGSA,A,3,07,04,20,01,13,23,25,02,08,,,,1.67,0.96,1.36,1*04
$GNGSA,A,3,,,,,,,,,,,,,1.67,0.96,1.36,4*0F
$GPGSV,3,1,10,01,20,115,35,02,16,316,35,04,44,282,36,07
,61,204,36,0*6B
$GPGSV,3,2,10,08,22,211,35,13,62,346,36,16,13,059,35,20,46,114,36,0*65
$GPGSV,3,3,10,23,48,038,36,25,84,195,36,0*64
$BDGSV,1,1,00,0*74

$GNRMC,000232.00,A,3128.460007,N,12117.999923,E,9.728,360.00,200720,,,A,V*07
$GNGGA,000232.00,3128.460007,N,12117.999923,E,1,09,0.96,40.7,M,9.5,M,,*40
$GNGSA,A,3,07,04,20,01,13,23,25,02,08,,,,1.67,0.96,1.36,1*04
$GNGSA,A,3,,,,,,,,,,,,,1.67,0.96,1.36,4*0F
$GPGSV,3,1,10,01,20,115,35,02,16,316,35,04,44,282,36,
07,61,204,36,0*6B
$GPGSV,3,2,10,08,22,211,35,13,62,346,36,16,13,059,35,20,46,114,36,0*65
$GPGSV,3,3,10,23,48,038,36,25,84,195,36,0*64
$BDGSV,1,1,00,0*74

$GNRMC,000233.00,A,3128.462708,N,12117.999927,E,9.717,0.05,200720,,,A,V*04
$GNGGA,000233.00,3128.462708,N,12117.999927,E,1,09,0.96,40.7,M,9.5,M,,*4F
$GNGSA,A,3,07,04,20,01,13,23,25,02,08,,,,1.67,0.96,1.36,1*04
$GNGSA,A,3,,,,,,,,,,,,,1.67,0.96,1.36,4*0F
$GPGSV,3,1,10,01,20,115,35,02,16,316,35,04,44,282,36,07
,61,204,36,0*6B
$GPGSV,3,2,10,08,22,211,35,13,62,347,36,16,13,059,35,20,46,114,36,0*64
$GPGSV,3,3,10,23,48,038,36,25,84,195,36,0*64
$BDGSV,1,1,00,0*74

$GNRMC,000234.00,A,3128.465409,N,12117.999924,E,9.722,359.97,200720,,,A,V*07
$GNGGA,000234.00,3128.465409,N,12117.999924,E,1,09,0.96,40.7,M,9.5,M,,*4E
$GNGSA,A,3,07,04,20,01,13,23,25,02,08,,,,1.67,0.96,1.36,1*04
$GNGSA,A,3,,,,,,,,,,,,,1.67,0.96,1.36,4*0F
$GPGSV,3,1,10,01,20,115,35,02,16,316,35,04,44,282,36,
07,61,204,36,0*6B
$GPGSV,3,2,10,08,22,211,35,13,62,347,36,16,13,059,35,20,46,114,36,0*64
$GPGSV,3,3,10,23,48,038,36,25,84,195,36,0*64
$BDGSV,1,1,00,0*74

$GNRMC,000235.00,A,3128.468114,N,12117.999926,E,9.721,359.99,200720,,,A,V*0D
$GNGGA,000235.00,3128.468114,N,12117.999926,E,1,09,0.96,40.7,M,9.5,M,,*49
$GNGSA,A,3,07,04,20,01,13,23,25,02,08,,,,1.67,0.96,1.36,1*04
$GNGSA,A,3,,,,,,,,,,,,,1.67,0.96,1.36,4*0F
$GPGSV,3,1,10,01,20,115,35,02,16,316,35,04,44,282,36,
07,61,204,36,0*6B
$GPGSV,3,2,10,08,22,211,35,13,62,347,36,16,13,059,35,20,45,114,36,0*67
$GPGSV,3,3,10,23,48,038,36,25,84,195,36,0*64
$BDGSV,1,1,00,0*74

$GNRMC,000236.00,A,3128.470816,N,12117.999929,E,9.718,0.03,200720,,,A,V*05
$GNGGA,000236.00,3128.470816,N,12117.999929,E,1,09,0.96,40.8,M,9.5,M,,*48
$GNGSA,A,3,07,04,20,01,13,23,25,02,08,,,,1.67,0.96,1.36,1*04
$GNGSA,A,3,,,,,,,,,,,,,1.67,0.96,1.36,4*0F
$GPGSV,3,1,10,01,20,115,35,02,16,316,35,04,44,282,36,07
,61,204,36,0*6B
$GPGSV,3,2,10,08,22,211,35,13,62,347,36,16,13,059,35,20,45,114,36,0*67
$GPGSV,3,3,10,23,48,038,36,25,84,195,36,0*64
$BDGSV,1,1,00,0*74

$GNRMC,000237.00,A,3128.473517,N,12117.999926,E,9.720,0.02,200720,,,A,V*0E
$GNGGA,000237.00,3128.473517,N,12117.999926,E,1,09,0.96,40.8,M,9.5,M,,*49
$GNGSA,A,3,07,04,20,01,13,23,25,02,08,,,,1.67,0.96,1.36,1*04
$GNGSA,A,3,,,,,,,,,,,,,1.67,0.96,1.36,4*0F
$GPGSV,3,1,10,01,20,115,35,02,16,316,35,04,44,282,36,07
,61,204,36,0*6B
$GPGSV,3,2,10,08,22,211,35,13,62,347,36,16,13,059,34,20,45,114,36,0*66
$GPGSV,3,3,10,23,48,038,36,25,84,195,37,0*65
$BDGSV,1,1,00,0*74

$GNRMC,000238.00,A,3128.476223,N,12117.999923,E,9.725,0.00,200720,,,A,V*06
$GNGGA,000238.00,3128.476223,N,12117.999923,E,1,09,0.96,40.8,M,9.5,M,,*46
$GNGSA,A,3,07,04,20,01,13,23,25,02,08,,,,1.67,0.96,1.36,1*04
$GNGSA,A,3,,,,,,,,,,,,,1.67,0.96,1.36,4*0F
$GPGSV,3,1,10,01,20,115,35,02,16,316,35,04,44,282,36,07
,61,204,36,0*6B
$GPGSV,3,2,10,08,22,211,35,13,62,347,36,16,13,059,35,20,45,114,36,0*67
$GPGSV,3,3,10,23,48,038,36,25,84,195,36,0*64
$BDGSV,1,1,00,0*74
<??????????????>

$GNRMC,000239.00,A,3128.478923,N,12117.999918,E,9.719,359.93,200720,,,A,V*00
$GNGGA,000239.00,3128.478923,N,12117.999918,E,1,09,0.97,40.8,M,9.5,M,,*4B
$GNGSA,A,3,07,04,20,01,13,23,25,02,08,,,,1.67,0.97,1.36,1*05
$GNGSA,A,3,,,,,,,,,,,,,1.67,0.97,1.36,4*0E
$GPGSV,3,1,10,01,20,115,35,02,16,316,35,04,44,282,36,
07,61,204,36,0*6B
$GPGSV,3,2,10,08,22,211,35,13,62,347,36,16,13,059,35,20,45,114,36,0*67
$GPGSV,3,3,10,23,48,038,36,25,84,195,36,0*64
$BDGSV,1,1,00,0*74

$GNRMC,000240.00,A,3128.481624,N,12117.999920,E,9.724,0.01,200720,,,A,V*01
$GNGGA,000240.00,3128.481624,N,12117.999920,E,1,09,0.97,40.8,M,9.5,M,,*40
$GNGSA,A,3,07,04,20,01,13,23,25,02,08,,,,1.67,0.97,1.36,1*05
$GNGSA,A,3,,,,,,,,,,,,,1.67,0.97,1.36,4*0E
$GPGSV,3,1,10,01,20,115,35,02,16,316,35,04,44,282,36,07
,61,204,36,0*6B
$GPGSV,3,2,10,08,22,211,35,13,62,347,36,16,13,059,35,20,45,114,36,0*67
$GPGSV,3,3,10,23,48,038,36,25,84,195,36,0*64
$BDGSV,1,1,00,0*74

$GNRMC,000241.00,A,3128.484325,N,12117.999924,E,9.713,0.03,200720,,,A,V*03
$GNGGA,000241.00,3128.484325,N,12117.999924,E,1,09,0.97,40.8,M,9.5,M,,*44
$GNGSA,A,3,07,04,20,01,13,23,25,02,08,,,,1.67,0.97,1.36,1*05
$GNGSA,A,3,,,,,,,,,,,,,1.67,0.97,1.36,4*0E
$GPGSV,3,1,10,01,20,115,35,02,16,316,35,04,44,282,36,07
,61,204,36,0*6B
$GPGSV,3,2,10,08,22,211,35,13,62,347,36,16,13,059,35,20,45,114,36,0*67
$GPGSV,3,3,10,23,48,038,36,25,84,195,36,0*64
$BDGSV,1,1,00,0*74

$GNRMC,000242.00,A,3128.487028,N,12117.999924,E,9.721,359.99,200720,,,A,V*00
$GNGGA,000242.00,3128.487028,N,12117.999924,E,1,09,0.97,40.8,M,9.5,M,,*4A
$GNGSA,A,3,07,04,20,01,13,23,25,02,08,,,,1.67,0.97,1.36,1*05
$GNGSA,A,3,,,,,,,,,,,,,1.67,0.97,1.36,4*0E
$GPGSV,3,1,10,01,20,115,35,02,16,316,35,04,44,282,36,
07,61,204,36,0*6B
$GPGSV,3,2,10,08,22,211,35,13,62,347,36,16,13,059,35,20,45,114,36,0*67
$GPGSV,3,3,10,23,48,038,36,25,84,195,36,0*64
$BDGSV,1,1,00,0*74

$GNRMC,000243.00,A,3128.489728,N,12117.999923,E,9.721,0.04,200720,,,A,V*04
$GNGGA,000243.00,3128.489728,N,12117.999923,E,1,09,0.97,40.8,M,9.5,M,,*45
$GNGSA,A,3,07,04,20,01,13,23,25,02,08,,,,1.67,0.97,1.36,1*05
$GNGSA,A,3,,,,,,,,,,,,,1.67,0.97,1.36,4*0E
$GPGSV,3,1,11,01,20,115,35,02,16,316,35,04,44,282,36,07
,61,204,36,0*6A
$GPGSV,3,2,11,08,22,211,35,11,00,170,,13,62,347,36,16,13,059,35,0*62
$GPGSV,3,3,11,20,45,114,36,23,48,038,36,25,84,195,36,0*57
$BDGSV,1,1,00,0*74

$GNRMC,000244.00,A,3128.492430,N,12117.999918,E,9.725,359.98,200720,,,A,V*05
$GNGGA,000244.00,3128.492430,N,12117.999918,E,1,09,0.97,40.8,M,9.5,M,,*4A
$GNGSA,A,3,07,04,20,01,13,23,25,02,08,,,,1.67,0.97,1.36,1*05
$GNGSA,A,3,,,,,,,,,,,,,1.67,0.97,1.36,4*0E
$GPGSV,3,1,11,01,20,115,35,02,16,316,35,04,44,282,36,
07,61,204,36,0*6A
$GPGSV,3,2,11,08,22,211,35,11,00,170,,13,62,347,36,16,13,059,35,0*62
$GPGSV,3,3,11,20,45,114,36,23,48,038,36,25,84,195,36,0*57
$BDGSV,1,1,00,0*74

$GNRMC,000245.00,A,3128.495133,N,12117.999915,E,9.718,0.03,200720,,,A,V*0B
$GNGGA,000245.00,3128.495133,N,12117.999915,E,1,09,0.97,40.8,M,9.5,M,,*47
$GNGSA,A,3,07,04,20,01,13,23,25,02,08,,,,1.67,0.97,1.36,1*05
$GNGSA,A,3,,,,,,,,,,,,,1.67,0.97,1.36,4*0E
$GPGSV,3,1,11,01,20,115,35,02,16,316,35,04,44,282,36,07
,61,204,36,0*6A
$GPGSV,3,2,11,08,22,211,35,11,00,170,,13,62,347,36,16,13,059,35,0*62
$GPGSV,3,3,11,20,45,114,36,23,48,038,36,25,84,195,36,0*57
$BDGSV,1,1,00,0*74

$GNRMC,000246.00,A,3128.497837,N,12117.999909,E,9.721,359.98,200720,,,A,V*0D
$GNGGA,000246.00,3128.497837,N,12117.999909,E,1,09,0.97,40.8,M,9.5,M,,*46
$GNGSA,A,3,07,04,20,01,13,23,25,02,08,,,,1.67,0.97,1.36,1*05
$GNGSA,A,3,,,,,,,,,,,,,1.67,0.97,1.36,4*0E
$GPGSV,3,1,11,01,20,115,35,02,16,316,35,04,44,282,36,
07,61,204,36,0*6A
$GPGSV,3,2,11,08,22,211,35,11,00,170,,13,62,347,36,16,13,059,35,0*62
$GPGSV,3,3,11,20,45,114,36,23,48,038,36,25,84,195,36,0*57
$BDGSV,1,1,00,0*74

$GNRMC,000247.00,A,3128.500537,N,12117.999904,E,9.714,0.02,200720,,,A,V*09
$GNGGA,000247.00,3128.500537,N,12117.999904,E,1,09,0.97,40.8,M,9.5,M,,*48
$GNGSA,A,3,07,04,20,01,13,23,25,02,08,,,,1.67,0.97,1.36,1*05
$GNGSA,A,3,,,,,,,,,,,,,1.67,0.97,1.36,4*0E
$GPGSV,3,1,11,01,20,115,35,02,16,316,35,04,44,282,36,07
,61,204,36,0*6A
$GPGSV,3,2,11,08,22,211,35,11,00,170,,13,62,347,36,16,13,059,35,0*62
$GPGSV,3,3,11,20,45,114,36,23,48,038,36,25,84,195,36,0*57
$BDGSV,1,1,00,0*74

$GNRMC,000248.00,A,3128.503242,N,12117.999892,E,9.722,359.93,200720,,,A,V*0C
$GNGGA,000248.00,3128.503242,N,12117.999892,E,1,09,0.97,40.8,M,9.5,M,,*4F
$GNGSA,A,3,07,04,20,01,13,23,25,02,08,,,,1.67,0.97,1.36,1*05
$GNGSA,A,3,,,,,,,,,,,,,1.67,0.97,1.36,4*0E
$GPGSV,3,1,11,01,20,116,35,02,16,316,35,04,44,282,36,
07,61,204,36,0*69
$GPGSV,3,2,11,08,22,211,35,11,00,170,,13,62,347,36,16,13,059,35,0*62
$GPGSV,3,3,11,20,45,114,36,23,48,038,36,25,84,195,36,0*57
$BDGSV,1,1,00,0*74
<????sim??????(SIM??:1)>
<????GSM????????(GSM:0)>
<????GPRS????????(GPRS:0)>
<????????????(SIGNAL:0)>
<????????????????(BER:0)>

<??????????????>

$GNRMC,000249.00,A,3128.505947,N,12117.999888,E,9.711,0.02,200720,,,A,V*09
$GNGGA,000249.00,3128.505947,N,12117.999888,E,1,09,0.97,40.8,M,9.5,M,,*4D
$GNGSA,A,3,07,04,20,01,13,23,25,02,08,,,,1.67,0.97,1.36,1*05
$GNGSA,A,3,,,,,,,,,,,,,1.67,0.97,1.36,4*0E
$GPGSV,3,1,11,01,20,116,35,02,16,316,35,04,44,282,36,07
,61,204,36,0*69
$GPGSV,3,2,11,08,22,211,35,11,00,170,,13,62,347,36,16,13,059,35,0*62
$GPGSV,3,3,11,20,45,114,36,23,48,038,36,25,84,195,36,0*57
$BDGSV,1,1,00,0*74

$GNRMC,000250.00,A,3128.508650,N,12117.999874,E,9.710,359.89,200720,,,A,V*0B
$GNGGA,000250.00,3128.508650,N,12117.999874,E,1,09,0.97,40.8,M,9.5,M,,*42
$GNGSA,A,3,07,04,20,01,13,23,25,02,08,,,,1.67,0.97,1.36,1*05
$GNGSA,A,3,,,,,,,,,,,,,1.67,0.97,1.36,4*0E
$GPGSV,3,1,11,01,20,116,35,02,16,316,35,04,44,282,36,
07,61,204,36,0*69
$GPGSV,3,2,11,08,22,211,35,11,00,170,,13,62,347,36,16,13,059,35,0*62
$GPGSV,3,3,11,20,45,114,36,23,48,038,36,25,84,195,36,0*57
$BDGSV,1,1,00,0*74

$GNRMC,000251.00,A,3128.511354,N,12117.999873,E,9.706,359.99,200720,,,A,V*02
$GNGGA,000251.00,3128.511354,N,12117.999873,E,1,09,0.97,40.8,M,9.5,M,,*4D
$GNGSA,A,3,07,04,20,01,13,23,25,02,08,,,,1.67,0.97,1.36,1*05
$GNGSA,A,3,,,,,,,,,,,,,1.67,0.97,1.36,4*0E
$GPGSV,3,1,11,01,20,116,35,02,16,316,35,04,45,282,36,
07,61,204,36,0*68
$GPGSV,3,2,11,08,22,211,35,11,00,170,,13,62,347,36,16,13,059,34,0*63
$GPGSV,3,3,11,20,45,114,36,23,48,038,36,25,84,195,36,0*57
$BDGSV,1,1,00,0*74

$GNRMC,000252.00,A,3128.514058,N,12117.999867,E,9.706,359.95,200720,,,A,V*02
$GNGGA,000252.00,3128.514058,N,12117.999867,E,1,09,0.97,40.8,M,9.5,M,,*41
$GNGSA,A,3,07,04,20,01,13,23,25,02,08,,,,1.67,0.97,1.36,1*05
$GNGSA,A,3,,,,,,,,,,,,,1.67,0.97,1.36,4*0E
$GPGSV,3,1,11,01,20,116,35,02,16,316,35,04,45,282,36,
07,61,204,36,0*68
$GPGSV,3,2,11,08,22,211,35,11,00,170,,13,62,347,36,16,13,059,35,0*62
$GPGSV,3,3,11,20,45,114,36,23,48,038,36,25,84,195,36,0*57
$BDGSV,1,1,00,0*74

$GNRMC,000253.00,A,3128.516768,N,12117.999866,E,9.734,359.99,200720,,,A,V*09
$GNGGA,000253.00,3128.516768,N,12117.999866,E,1,09,0.97,40.8,M,9.5,M,,*47
$GNGSA,A,3,07,04,20,01,13,23,25,02,08,,,,1.67,0.97,1.36,1*05
$GNGSA,A,3,,,,,,,,,,,,,1.67,0.97,1.36,4*0E
$GPGSV,3,1,11,01,20,116,35,02,16,316,35,04,45,282,36,
07,61,204,36,0*68
$GPGSV,3,2,11,08,22,211,35,11,00,170,,13,62,347,36,16,13,059,35,0*62
$GPGSV,3,3,11,20,45,114,36,23,48,038,36,25,84,195,36,0*57
$BDGSV,1,1,00,0*74

$GNRMC,000254.00,A,3128.519472,N,12117.999860,E,9.720,359.98,200720,,,A,V*0B
$GNGGA,000254.00,3128.519472,N,12117.999860,E,1,09,0.97,40.8,M,9.5,M,,*41
$GNGSA,A,3,07,04,20,01,13,23,25,02,08,,,,1.67,0.97,1.36,1*05
$GNGSA,A,3,,,,,,,,,,,,,1.67,0.97,1.36,4*0E
$GPGSV,3,1,11,01,20,116,35,02,16,316,35,04,45,282,36,
07,61,204,36,0*68
$GPGSV,3,2,11,08,22,211,35,11,00,170,,13,62,347,36,16,13,059,35,0*62
$GPGSV,3,3,11,20,45,114,36,23,48,038,36,25,84,195,36,0*57
$BDGSV,1,1,00,0*74

$GNRMC,000255.00,A,3128.522182,N,12117.999860,E,9.733,0.07,200720,,,A,V*03
$GNGGA,000255.00,3128.522182,N,12117.999860,E,1,09,0.97,40.7,M,9.5,M,,*4D
$GNGSA,A,3,07,04,20,01,13,23,25,02,08,,,,1.67,0.97,1.36,1*05
$GNGSA,A,3,,,,,,,,,,,,,1.67,0.97,1.36,4*0E
$GPGSV,3,1,11,01,20,116,35,02,16,316,35,04,45,282,36,07
,61,204,36,0*68
$GPGSV,3,2,11,08,22,211,35,11,00,170,,13,62,347,36,16,13,059,35,0*62
$GPGSV,3,3,11,20,45,114,36,23,48,038,36,25,84,195,36,0*57
$BDGSV,1,1,00,0*74

$GNRMC,000256.00,A,3128.524886,N,12117.999858,E,9.717,0.03,200720,,,A,V*02
$GNGGA,000256.00,3128.524886,N,12117.999858,E,1,09,0.97,40.7,M,9.5,M,,*4E
$GNGSA,A,3,07,04,20,01,13,23,25,02,08,,,,1.67,0.97,1.36,1*05
$GNGSA,A,3,,,,,,,,,,,,,1.67,0.97,1.36,4*0E
$GPGSV,3,1,11,01,20,116,35,02,16,316,35,04,45,282,35,07
,61,204,36,0*6B
$GPGSV,3,2,11,08,22,211,35,11,00,170,,13,62,347,36,16,13,059,35,0*62
$GPGSV,3,3,11,20,45,114,36,23,48,038,36,25,84,195,36,0*57
$BDGSV,1,1,00,0*74

$GNRMC,000257.00,A,3128.527590,N,12117.999856,E,9.726,0.02,200720,,,A,V*07
$GNGGA,000257.00,3128.527590,N,12117.999856,E,1,09,0.97,40.7,M,9.5,M,,*48
$GNGSA,A,3,07,04,20,01,13,23,25,02,08,,,,1.67,0.97,1.36,1*05
$GNGSA,A,3,,,,,,,,,,,,,1.67,0.97,1.36,4*0E
$GPGSV,3,1,11,01,20,116,35,02,16,316,35,04,45,282,36,07
,61,204,36,0*68
$GPGSV,3,2,11,08,22,211,35,11,00,170,,13,62,347,36,16,13,059,35,0*62
$GPGSV,3,3,11,20,45,114,36,23,48,038,36,25,84,195,36,0*57
$BDGSV,1,1,00,0*74

$GNRMC,000258.00,A,3128.530294,N,12117.999856,E,9.731,0.05,200720,,,A,V*0C
$GNGGA,000258.00,3128.530294,N,12117.999856,E,1,09,0.97,40.7,M,9.5,M,,*42
$GNGSA,A,3,07,04,20,01,13,23,25,02,08,,,,1.67,0.97,1.36,1*05
$GNGSA,A,3,,,,,,,,,,,,,1.67,0.97,1.36,4*0E
$GPGSV,3,1,11,01,20,116,35,02,16,316,35,04,45,282,36,07
,61,204,36,0*68
$GPGSV,3,2,11,08,22,211,35,11,00,170,,13,62,347,36,16,13,059,35,0*62
$GPGSV,3,3,11,20,45,114,36,23,48,038,36,25,84,195,36,0*57
$BDGSV,1,1,00,0*74
<??????????????>

$GNRMC,000259.00,A,3128.532998,N,12117.999855,E,9.723,0.01,200720,,,A,V*0C
$GNGGA,000259.00,3128.532998,N,12117.999855,E,1,09,0.97,40.7,M,9.5,M,,*45
$GNGSA,A,3,07,04,20,01,13,23,25,02,08,,,,1.67,0.97,1.36,1*05
$GNGSA,A,3,,,,,,,,,,,,,1.67,0.97,1.36,4*0E
$GPGSV,3,1,11,01,20,116,35,02,16,316,35,04,45,282,36,07
,61,204,36,0*68
$GPGSV,3,2,11,08,22,211,35,11,00,170,,13,62,347,36,16,13,059,35,0*62
$GPGSV,3,3,11,20,45,114,36,23,48,038,36,25,84,195,36,0*57
$BDGSV,1,1,00,0*74

$GNRMC,000300.00,A,3128.535699,N,12117.999852,E,9.725,0.01,200720,,,A,V*09
$GNGGA,000300.00,3128.535699,N,12117.999852,E,1,09,0.97,40.7,M,9.5,M,,*46
$GNGSA,A,3,07,04,20,01,13,23,25,02,08,,,,1.67,0.97,1.36,1*05
$GNGSA,A,3,,,,,,,,,,,,,1.67,0.97,1.36,4*0E
$GPGSV,3,1,11,01,20,116,35,02,16,316,35,04,45,282,36,07
,61,204,36,0*68
$GPGSV,3,2,11,08,22,211,35,11,00,170,,13,62,347,36,16,13,059,35,0*62
$GPGSV,3,3,11,20,45,114,36,23,48,038,36,25,84,195,36,0*57
$BDGSV,1,1,00,0*74

$GNRMC,000301.00,A,3128.538398,N,12117.999845,E,9.717,359.94,200720,,,A,V*05
$GNGGA,000301.00,3128.538398,N,12117.999845,E,1,09,0.97,40.6,M,9.5,M,,*49
$GNGSA,A,3,07,04,20,01,13,23,25,02,08,,,,1.67,0.97,1.36,1*05
$GNGSA,A,3,,,,,,,,,,,,,1.67,0.97,1.36,4*0E
$GPGSV,3,1,11,01,20,116,35,02,16,316,35,04,45,282,36,
07,61,204,36,0*68
$GPGSV,3,2,11,08,22,211,35,11,00,170,,13,62,347,36,16,13,059,35,0*62
$GPGSV,3,3,11,20,45,114,36,23,48,038,36,25,84,195,36,0*57
$BDGSV,1,1,00,0*74

$GNRMC,000302.00,A,3128.541099,N,12117.999840,E,9.711,359.96,200720,,,A,V*0B
$GNGGA,000302.00,3128.541099,N,12117.999840,E,1,09,0.97,40.6,M,9.5,M,,*43
$GNGSA,A,3,07,04,20,01,13,23,25,02,08,,,,1.67,0.97,1.36,1*05
$GNGSA,A,3,,,,,,,,,,,,,1.67,0.97,1.36,4*0E
$GPGSV,3,1,11,01,20,116,35,02,16,316,35,04,45,282,36,
07,61,204,36,0*68
$GPGSV,3,2,11,08,22,211,35,11,00,170,,13,62,347,36,16,13,059,35,0*62
$GPGSV,3,3,11,20,45,114,36,23,48,038,36,25,84,195,36,0*57
$BDGSV,1,1,00,0*74

$GNRMC,000303.00,A,3128.543799,N,12117.999839,E,9.704,359.96,200720,,,A,V*05
$GNGGA,000303.00,3128.543799,N,12117.999839,E,1,09,0.97,40.6,M,9.5,M,,*49
$GNGSA,A,3,07,04,20,01,13,23,25,02,08,,,,1.67,0.97,1.36,1*05
$GNGSA,A,3,,,,,,,,,,,,,1.67,0.97,1.36,4*0E
$GPGSV,3,1,11,01,20,116,35,02,16,316,35,04,45,282,36,
07,61,204,36,0*68
$GPGSV,3,2,11,08,22,211,35,11,00,170,,13,62,347,36,16,13,059,35,0*62
$GPGSV,3,3,11,20,45,114,36,23,48,038,36,25,84,195,36,0*57
$BDGSV,1,1,00,0*74

$GNRMC,000304.00,A,3128.546504,N,12117.999837,E,9.725,359.97,200720,,,A,V*0D
$GNGGA,000304.00,3128.546504,N,12117.999837,E,1,09,0.97,40.6,M,9.5,M,,*43
$GNGSA,A,3,07,04,20,01,13,23,25,02,08,,,,1.67,0.97,1.36,1*05
$GNGSA,A,3,,,,,,,,,,,,,1.67,0.97,1.36,4*0E
$GPGSV,3,1,11,01,20,116,35,02,16,316,35,04,45,282,36,
07,61,204,36,0*68
$GPGSV,3,2,11,08,22,211,35,11,00,170,,13,62,347,36,16,13,059,35,0*62
$GPGSV,3,3,11,20,45,114,36,23,48,038,36,25,84,195,36,0*57
$BDGSV,1,1,00,0*74

$GNRMC,000305.00,A,3128.549208,N,12117.999838,E,9.727,0.04,200720,,,A,V*00
$GNGGA,000305.00,3128.549208,N,12117.999838,E,1,09,0.97,40.6,M,9.5,M,,*49
$GNGSA,A,3,07,04,20,01,13,23,25,02,08,,,,1.67,0.97,1.36,1*05
$GNGSA,A,3,,,,,,,,,,,,,1.67,0.97,1.36,4*0E
$GPGSV,3,1,11,01,20,116,35,02,16,316,35,04,45,282,36,07
,61,204,36,0*68
$GPGSV,3,2,11,08,22,211,35,11,00,170,,13,62,347,36,16,13,059,35,0*62
$GPGSV,3,3,11,20,45,114,36,23,48,038,36,25,84,195,36,0*57
$BDGSV,1,1,00,0*74

$GNRMC,000306.00,A,3128.551910,N,12117.999838,E,9.720,0.04,200720,,,A,V*0F
$GNGGA,000306.00,3128.551910,N,12117.999838,E,1,09,0.97,40.7,M,9.5,M,,*40
