$GPGGA,084834,3128.00000,N,12108.74456,E,3,10,0.85,-9.99,M,9.99,M,,*64
$GPRMC,084834,A,3128.00000,N,12108.74456,E,9.719,270.000,010720,0.000,E,A,V*63
$GPGGA,084835,3128.00000,N,12108.74140,E,3,10,0.85,-9.98,M,9.98,M,,*67
$GPRMC,084835,A,3128.00000,N,12108.74140,E,9.719,270.000,010720,0.000,E,A,V*60
$GPGGA,084836,3128.00000,N,12108.73825,E,3,10,0.85,-9.98,M,9.98,M,,*69
$GPRMC,084836,A,3128.00000,N,12108.73825,E,9.719,270.000,010720,0.000,E,A,V*6E
$GPGGA,084837,3128.00000,N,12108.73509,E,3,10,0.85,-9.98,M,9.98,M,,*6B
$GPRMC,084837,A,3128.00000,N,12108.73509,E,9.719,270.000,010720,0.000,E,A,V*6C
$GPGGA,084838,3128.00000,N,12108.73193,E,3,10,0.85,-9.98,M,9.98,M,,*63
$GPRMC,084838,A,3128.00000,N,12108.73193,E,9.719,270.000,010720,0.000,E,A,V*64
$GPGGA,084839,3128.00000,N,12108.72878,E,3,10,0.85,-9.98,M,9.98,M,,*6F
$GPRMC,084839,A,3128.00000,N,12108.72878,E,9.719,270.000,010720,0.000,E,A,V*68
$GPGGA,084840,3128.00000,N,12108.72562,E,3,10,0.85,-9.98,M,9.98,M,,*67
$GPRMC,084840,A,3128.00000,N,12108.72562,E,9.719,270.000,010720,0.000,E,A,V*60
$GPGGA,084841,3128.00000,N,12108.72246,E,3,10,0.85,-9.98,M,9.98,M,,*67
$GPRMC,084841,A,3128.00000,N,12108.72246,E,9.719,270.000,010720,0.000,E,A,V*60
$GPGGA,084842,3128.00000,N,12108.71931,E,3,10,0.85,-9.98,M,9.98,M,,*6C
$GPRMC,084842,A,3128.00000,N,12108.71931,E,9.719,270.000,010720,0.000,E,A,V*6B
$GPGGA,084843,3128.00000,N,12108.71615,E,3,10,0.85,-9.98,M,9.98,M,,*64
$GPRMC,084843,A,3128.00000,N,12108.71615,E,9.719,270.000,010720,0.000,E,A,V*63
$GPGGA,084844,3128.00000,N,12108.71299,E,3,10,0.85,-9.98,M,9.98,M,,*63
$GPRMC,084844,A,3128.00000,N,12108.71299,E,9.719,270.000,010720,0.000,E,A,V*64
$GPGGA,084845,3128.00000,N,12108.70984,E,3,10,0.85,-9.98,M,9.98,M,,*64
$GPRMC,084845,A,3128.00000,N,12108.70984,E,9.719,270.000,010720,0.000,E,A,V*63
$GPGGA,084846,3128.00000,N,12108.70668,E,3,10,0.85,-9.98,M,9.98,M,,*6A
$GPRMC,084846,A,3128.00000,N,12108.70668,E,9.719,270.000,010720,0.000,E,A,V*6D
$GPGGA,084847,3128.00000,N,12108.70352,E,3,10,0.85,-9.98,M,9.98,M,,*67
$GPRMC,084847,A,3128.00000,N,12108.70352,E,9.719,270.000,010720,0.000,E,A,V*60
$GPGGA,084848,3128.00000,N,12108.70037,E,3,10,0.85,-9.98,M,9.98,M,,*68
$GPRMC,084848,A,3128.00000,N,12108.70037,E,9.719,270.000,010720,0.000,E,A,V*6F
$GPGGA,084849,3128.00000,N,12108.69721,E,3,10,0.85,-9.98,M,9.98,M,,*61
$GPRMC,084849,A,3128.00000,N,12108.69721,E,9.719,270.000,010720,0.000,E,A,V*66
$GPGGA,084850,3128.00000,N,12108.69405,E,3,10,0.85,-9.98,M,9.98,M,,*6C
$GPRMC,084850,A,3128.00000,N,12108.69405,E,9.719,270.000,010720,0.000,E,A,V*6B
$GPGGA,084851,3128.00000,N,12108.69090,E,3,10,0.85,-9.98,M,9.98,M,,*65
$GPRMC,084851,A,3128.00000,N,12108.69090,E,9.719,270.000,010720,0.000,E,A,V*62
$GPGGA,084852,3128.00000,N,12108.68774,E,3,10,0.85,-9.98,M,9.98,M,,*6A
$GPRMC,084852,A,3128.00000,N,12108.68774,E,9.719,270.000,010720,0.000,E,A,V*6D
$GPGGA,084853,3128.00000,N,12108.68458,E,3,10,0.85,-9.98,M,9.98,M,,*66
$GPRMC,084853,A,3128.00000,N,12108.68458,E,9.719,270.000,010720,0.000,E,A,V*61
$GPGGA,084854,3128.00000,N,12108.68143,E,3,10,0.85,-9.98,M,9.98,M,,*6E
$GPRMC,084854,A,3128.00000,N,12108.68143,E,9.719,270.000,010720,0.000,E,A,V*69
$GPGGA,084855,3128.00000,N,12108.67827,E,3,10,0.85,-9.98,M,9.98,M,,*6B
$GPRMC,084855,A,3128.00000,N,12108.67827,E,9.719,270.000,010720,0.000,E,A,V*6C
$GPGGA,084856,3128.00000,N,12108.67511,E,3,10,0.85,-9.98,M,9.98,M,,*60
$GPRMC,084856,A,3128.00000,N,12108.67511,E,9.719,270.000,010720,0.000,E,A,V*67
$GPGGA,084857,3128.00000,N,12108.67196,E,3,10,0.85,-9.98,M,9.98,M,,*6A
$GPRMC,084857,A,3128.00000,N,12108.67196,E,9.719,270.000,010720,0.000,E,A,V*6D
$GPGGA,084858,3128.00000,N,12108.66880,E,3,10,0.85,-9.98,M,9.98,M,,*6A
$GPRMC,084858,A,3128.00000,N,12108.66880,E,9.719,270.000,010720,0.000,E,A,V*6D
$GPGGA,084859,3128.00000,N,12108.66564,E,3,10,0.85,-9.98,M,9.98,M,,*6C
$GPRMC,084859,A,3128.00000,N,12108.66564,E,9.719,270.000,010720,0.000,E,A,V*6B
$GPGGA,084900,3128.00000,N,12108.66249,E,3,10,0.85,-9.98,M,9.98,M,,*69
$GPRMC,084900,A,3128.00000,N,12108.66249,E,9.719,270.000,010720,0.000,E,A,V*6E
$GPGGA,084901,3128.00000,N,12108.65933,E,3,10,0.85,-9.98,M,9.98,M,,*6D
$GPRMC,084901,A,3128.00000,N,12108.65933,E,9.719,270.000,010720,0.000,E,A,V*6A
$GPGGA,084902,3128.00000,N,12108.65617,E,3,10,0.85,-9.98,M,9.98,M,,*67
$GPRMC,084902,A,3128.00000,N,12108.65617,E,9.719,270.000,010720,0.000,E,A,V*60
$GPGGA,084903,3128.00000,N,12108.65302,E,3,10,0.85,-9.98,M,9.98,M,,*67
$GPRMC,084903,A,3128.00000,N,12108.65302,E,9.719,270.000,010720,0.000,E,A,V*60
$GPGGA,084904,3128.00000,N,12108.64986,E,3,10,0.85,-9.98,M,9.98,M,,*67
$GPRMC,084904,A,3128.00000,N,12108.64986,E,9.719,270.000,010720,0.000,E,A,V*60
$GPGGA,084905,3128.00000,N,12108.64670,E,3,10,0.85,-9.98,M,9.98,M,,*60
$GPRMC,084905,A,3128.00000,N,12108.64670,E,9.719,270.000,010720,0.000,E,A,V*67
$GPGGA,084906,3128.00000,N,12108.64355,E,3,10,0.85,-9.98,M,9.98,M,,*61
$GPRMC,084906,A,3128.00000,N,12108.64355,E,9.719,270.000,010720,0.000,E,A,V*66
$GPGGA,084907,3128.00000,N,12108.64039,E,3,10,0.85,-9.98,M,9.98,M,,*69
$GPRMC,084907,A,3128.00000,N,12108.64039,E,9.719,270.000,010720,0.000,E,A,V*6E
$GPGGA,084908,3128.00000,N,12108.63723,E,3,10,0.85,-9.98,M,9.98,M,,*6D
$GPRMC,084908,A,3128.00000,N,12108.63723,E,9.719,270.000,010720,0.000,E,A,V*6A
$GPGGA,084909,3128.00000,N,12108.63408,E,3,10,0.85,-9.98,M,9.98,M,,*66
$GPRMC,084909,A,3128.00000,N,12108.63408,E,9.719,270.000,010720,0.000,E,A,V*61
$GPGGA,084910,3128.00000,N,12108.63092,E,3,10,0.84,-9.98,M,9.98,M,,*68
$GPRMC,084910,A,3128.00000,N,12108.63092,E,9.719,270.000,010720,0.000,E,A,V*6E
$GPGGA,084911,3128.00000,N,12108.62776,E,3,10,0.84,-9.98,M,9.98,M,,*65
$GPRMC,084911,A,3128.00000,N,12108.62776,E,9.719,270.000,010720,0.000,E,A,V*63
$GPGGA,084912,3128.00000,N,12108.62461,E,3,10,0.84,-9.98,M,9.98,M,,*63
$GPRMC,084912,A,3128.00000,N,12108.62461,E,9.719,270.000,010720,0.000,E,A,V*65
$GPGGA,084913,3128.00000,N,12108.62145,E,3,10,0.84,-9.98,M,9.98,M,,*61
$GPRMC,084913,A,3128.00000,N,12108.62145,E,9.719,270.000,010720,0.000,E,A,V*67
$GPGGA,084914,3128.00000,N,12108.61829,E,3,10,0.84,-9.98,M,9.98,M,,*66
$GPRMC,084914,A,3128.00000,N,12108.61829,E,9.719,270.000,010720,0.000,E,A,V*60
$GPGGA,084915,3128.00000,N,12108.61514,E,3,10,0.84,-9.98,M,9.98,M,,*64
$GPRMC,084915,A,3128.00000,N,12108.61514,E,9.719,270.000,010720,0.000,E,A,V*62
$GPGGA,084916,3128.00000,N,12108.61198,E,3,10,0.84,-9.98,M,9.98,M,,*67
$GPRMC,084916,A,3128.00000,N,12108.61198,E,9.719,270.000,010720,0.000,E,A,V*61
$GPGGA,084917,3128.00000,N,12108.60882,E,3,10,0.84,-9.98,M,9.98,M,,*65
$GPRMC,084917,A,3128.00000,N,12108.60882,E,9.719,270.000,010720,0.000,E,A,V*63
$GPGGA,084918,3128.00000,N,12108.60567,E,3,10,0.84,-9.98,M,9.98,M,,*6C
$GPRMC,084918,A,3128.00000,N,12108.60567,E,9.719,270.000,010720,0.000,E,A,V*6A
$GPGGA,084919,3128.00000,N,12108.60251,E,3,10,0.84,-9.98,M,9.98,M,,*6F
$GPRMC,084919,A,3128.00000,N,12108.60251,E,9.719,270.000,010720,0.000,E,A,V*69
$GPGGA,084920,3128.00000,N,12108.59935,E,3,10,0.84,-9.98,M,9.98,M,,*66
$GPRMC,084920,A,3128.00000,N,12108.59935,E,9.719,270.000,010720,0.000,E,A,V*60
$GPGGA,084921,3128.00000,N,12108.59620,E,3,10,0.84,-9.98,M,9.98,M,,*6C
$GPRMC,084921,A,3128.00000,N,12108.59620,E,9.719,270.000,010720,0.000,E,A,V*6A
$GPGGA,084922,3128.00000,N,12108.59304,E,3,10,0.84,-9.98,M,9.98,M,,*6C
$GPRMC,084922,A,3128.00000,N,12108.59304,E,9.719,270.000,010720,0.000,E,A,V*6A
$GPGGA,084923,3128.00000,N,12108.58988,E,3,10,0.84,-9.98,M,9.98,M,,*62
$GPRMC,084923,A,3128.00000,N,12108.58988,E,9.719,270.000,010720,0.000,E,A,V*64
$GPGGA,084924,3128.00000,N,12108.58673,E,3,10,0.84,-9.98,M,9.98,M,,*6E
$GPRMC,084924,A,3128.00000,N,12108.58673,E,9.719,270.000,010720,0.000,E,A,V*68
$GPGGA,084925,3128.00000,N,12108.58357,E,3,10,0.84,-9.98,M,9.98,M,,*6C
$GPRMC,084925,A,3128.00000,N,12108.58357,E,9.719,270.000,010720,0.000,E,A,V*6A
$GPGGA,084926,3128.00000,N,12108.58041,E,3,10,0.84,-9.98,M,9.98,M,,*6B
$GPRMC,084926,A,3128.00000,N,12108.58041,E,9.719,270.000,010720,0.000,E,A,V*6D
$GPGGA,084927,3128.00000,N,12108.57726,E,3,10,0.84,-9.98,M,9.98,M,,*63
$GPRMC,084927,A,3128.00000,N,12108.57726,E,9.719,270.000,010720,0.000,E,A,V*65
$GPGGA,084928,3128.00000,N,12108.57410,E,3,10,0.84,-9.98,M,9.98,M,,*6A
$GPRMC,084928,A,3128.00000,N,12108.57410,E,9.719,270.000,010720,0.000,E,A,V*6C
$GPGGA,084929,3128.00000,N,12108.57094,E,3,10,0.84,-9.98,M,9.98,M,,*63
$GPRMC,084929,A,3128.00000,N,12108.57094,E,9.719,270.000,010720,0.000,E,A,V*65
$GPGGA,084930,3128.00000,N,12108.56779,E,3,10,0.84,-9.98,M,9.98,M,,*6E
$GPRMC,084930,A,3128.00000,N,12108.56779,E,9.719,270.000,010720,0.000,E,A,V*68
$GPGGA,084931,3128.00000,N,12108.56463,E,3,10,0.84,-9.98,M,9.98,M,,*67
$GPRMC,084931,A,3128.00000,N,12108.56463,E,9.719,270.000,010720,0.000,E,A,V*61
$GPGGA,084932,3128.00000,N,12108.56147,E,3,10,0.84,-9.98,M,9.98,M,,*67
$GPRMC,084932,A,3128.00000,N,12108.56147,E,9.719,270.000,010720,0.000,E,A,V*61
$GPGGA,084933,3128.00000,N,12108.55832,E,3,10,0.84,-9.98,M,9.98,M,,*6E
$GPRMC,084933,A,3128.00000,N,12108.55832,E,9.719,270.000,010720,0.000,E,A,V*68
$GPGGA,084934,3128.00000,N,12108.55516,E,3,10,0.84,-9.98,M,9.98,M,,*62
$GPRMC,084934,A,3128.00000,N,12108.55516,E,9.719,270.000,010720,0.000,E,A,V*64
$GPGGA,084935,3128.00000,N,12108.55200,E,3,10,0.84,-9.98,M,9.98,M,,*63
$GPRMC,084935,A,3128.00000,N,12108.55200,E,9.719,270.000,010720,0.000,E,A,V*65
$GPGGA,084936,3128.00000,N,12108.54885,E,3,10,0.84,-9.98,M,9.98,M,,*66
$GPRMC,084936,A,3128.00000,N,12108.54885,E,9.719,270.000,010720,0.000,E,A,V*60
$GPGGA,084937,3128.00000,N,12108.54569,E,3,10,0.84,-9.98,M,9.98,M,,*68
$GPRMC,084937,A,3128.00000,N,12108.54569,E,9.719,270.000,010720,0.000,E,A,V*6E
$GPGGA,084938,3128.00000,N,12108.54253,E,3,10,0.84,-9.98,M,9.98,M,,*69
$GPRMC,084938,A,3128.00000,N,12108.54253,E,9.719,270.000,010720,0.000,E,A,V*6F
$GPGGA,084939,3128.00000,N,12108.53938,E,3,10,0.84,-9.98,M,9.98,M,,*69
$GPRMC,084939,A,3128.00000,N,12108.53938,E,9.719,270.000,010720,0.000,E,A,V*6F
$GPGGA,084940,3128.00000,N,12108.53622,E,3,10,0.84,-9.98,M,9.98,M,,*63
$GPRMC,084940,A,3128.00000,N,12108.53622,E,9.719,270.000,010720,0.000,E,A,V*65
$GPGGA,084941,3128.00000,N,12108.53306,E,3,10,0.84,-9.98,M,9.98,M,,*61
$GPRMC,084941,A,3128.00000,N,12108.53306,E,9.719,270.000,010720,0.000,E,A,V*67
$GPGGA,084942,3128.00000,N,12108.52991,E,3,10,0.84,-9.98,M,9.98,M,,*67
$GPRMC,084942,A,3128.00000,N,12108.52991,E,9.719,270.000,010720,0.000,E,A,V*61
$GPGGA,084943,3128.00000,N,12108.52675,E,3,10,0.84,-9.98,M,9.98,M,,*63
$GPRMC,084943,A,3128.00000,N,12108.52675,E,9.719,270.000,010720,0.000,E,A,V*65
$GPGGA,084944,3128.00000,N,12108.52359,E,3,10,0.84,-9.98,M,9.98,M,,*6F
$GPRMC,084944,A,3128.00000,N,12108.52359,E,9.719,270.000,010720,0.000,E,A,V*69
$GPGGA,084945,3128.00000,N,12108.52044,E,3,10,0.84,-9.98,M,9.98,M,,*61
$GPRMC,084945,A,3128.00000,N,12108.52044,E,9.719,270.000,010720,0.000,E,A,V*67
$GPGGA,084946,3128.00000,N,12108.51728,E,3,10,0.84,-9.98,M,9.98,M,,*6C
$GPRMC,084946,A,3128.00000,N,12108.51728,E,9.719,270.000,010720,0.000,E,A,V*6A
$GPGGA,084947,3128.00000,N,12108.51412,E,3,10,0.84,-9.98,M,9.98,M,,*67
$GPRMC,084947,A,3128.00000,N,12108.51412,E,9.719,270.000,010720,0.000,E,A,V*61
$GPGGA,084948,3128.00000,N,12108.51097,E,3,10,0.84,-9.97,M,9.97,M,,*61
$GPRMC,084948,A,3128.00000,N,12108.51097,E,9.719,270.000,010720,0.000,E,A,V*67
$GPGGA,084949,3128.00000,N,12108.50781,E,3,10,0.84,-9.97,M,9.97,M,,*61
$GPRMC,084949,A,3128.00000,N,12108.50781,E,9.719,270.000,010720,0.000,E,A,V*67
$GPGGA,084950,3128.00000,N,12108.50465,E,3,10,0.84,-9.97,M,9.97,M,,*60
$GPRMC,084950,A,3128.00000,N,12108.50465,E,9.719,270.000,010720,0.000,E,A,V*66
$GPGGA,084951,3128.00000,N,12108.50150,E,3,10,0.84,-9.97,M,9.97,M,,*62
$GPRMC,084951,A,3128.00000,N,12108.50150,E,9.719,270.000,010720,0.000,E,A,V*64
$GPGGA,084952,3128.00000,N,12108.49834,E,3,10,0.84,-9.97,M,9.97,M,,*62
$GPRMC,084952,A,3128.00000,N,12108.49834,E,9.719,270.000,010720,0.000,E,A,V*64
$GPGGA,084953,3128.00000,N,12108.49518,E,3,10,0.84,-9.97,M,9.97,M,,*60
$GPRMC,084953,A,3128.00000,N,12108.49518,E,9.719,270.000,010720,0.000,E,A,V*66
$GPGGA,084954,3128.00000,N,12108.49203,E,3,10,0.84,-9.97,M,9.97,M,,*6A
$GPRMC,084954,A,3128.00000,N,12108.49203,E,9.719,270.000,010720,0.000,E,A,V*6C
$GPGGA,084955,3128.00000,N,12108.48887,E,3,10,0.84,-9.97,M,9.97,M,,*6C
$GPRMC,084955,A,3128.00000,N,12108.48887,E,9.719,270.000,010720,0.000,E,A,V*6A
$GPGGA,084956,3128.00000,N,12108.48571,E,3,10,0.84,-9.97,M,9.97,M,,*6B
$GPRMC,084956,A,3128.00000,N,12108.48571,E,9.719,270.000,010720,0.000,E,A,V*6D
$GPGGA,084957,3128.00000,N,12108.48255,E,3,10,0.84,-9.97,M,9.97,M,,*6B
$GPRMC,084957,A,3128.00000,N,12108.48255,E,9.719,270.000,010720,0.000,E,A,V*6D
$GPGGA,084958,3128.00000,N,12108.47940,E,3,10,0.84,-9.97,M,9.97,M,,*64
$GPRMC,084958,A,3128.00000,N,12108.47940,E,9.719,270.000,010720,0.000,E,A,V*62
$GPGGA,084959,3128.00000,N,12108.47624,E,3,10,0.84,-9.97,M,9.97,M,,*68
$GPRMC,084959,A,3128.00000,N,12108.47624,E,9.719,270.000,010720,0.000,E,A,V*6E
$GPGGA,085000,3128.00000,N,12108.47308,E,3,10,0.84,-9.97,M,9.97,M,,*67
$GPRMC,085000,A,3128.00000,N,12108.47308,E,9.719,270.000,010720,0.000,E,A,V*61
$GPGGA,085001,3128.00000,N,12108.46993,E,3,10,0.84,-9.97,M,9.97,M,,*6F
$GPRMC,085001,A,3128.00000,N,12108.46993,E,9.719,270.000,010720,0.000,E,A,V*69
$GPGGA,085002,3128.00000,N,12108.46677,E,3,10,0.84,-9.97,M,9.97,M,,*69
$GPRMC,085002,A,3128.00000,N,12108.46677,E,9.719,270.000,010720,0.000,E,A,V*6F
$GPGGA,085003,3128.00000,N,12108.46361,E,3,10,0.84,-9.97,M,9.97,M,,*6A
$GPRMC,085003,A,3128.00000,N,12108.46361,E,9.719,270.000,010720,0.000,E,A,V*6C
$GPGGA,085004,3128.00000,N,12108.46046,E,3,10,0.84,-9.97,M,9.97,M,,*6B
$GPRMC,085004,A,3128.00000,N,12108.46046,E,9.719,270.000,010720,0.000,E,A,V*6D
$GPGGA,085005,3128.00000,N,12108.45730,E,3,10,0.84,-9.97,M,9.97,M,,*6F
$GPRMC,085005,A,3128.00000,N,12108.45730,E,9.719,270.000,010720,0.000,E,A,V*69
$GPGGA,085006,3128.00000,N,12108.45414,E,3,10,0.84,-9.97,M,9.97,M,,*69
$GPRMC,085006,A,3128.00000,N,12108.45414,E,9.719,270.000,010720,0.000,E,A,V*6F
$GPGGA,085007,3128.00000,N,12108.45099,E,3,10,0.84,-9.97,M,9.97,M,,*69
$GPRMC,085007,A,3128.00000,N,12108.45099,E,9.719,270.000,010720,0.000,E,A,V*6F
$GPGGA,085008,3128.00000,N,12108.44783,E,3,10,0.84,-9.97,M,9.97,M,,*6B
$GPRMC,085008,A,3128.00000,N,12108.44783,E,9.719,270.000,010720,0.000,E,A,V*6D
$GPGGA,085009,3128.00000,N,12108.44467,E,3,10,0.84,-9.97,M,9.97,M,,*63
$GPRMC,085009,A,3128.00000,N,12108.44467,E,9.719,270.000,010720,0.000,E,A,V*65
$GPGGA,085010,3128.00000,N,12108.44152,E,3,10,0.84,-9.97,M,9.97,M,,*68
$GPRMC,085010,A,3128.00000,N,12108.44152,E,9.719,270.000,010720,0.000,E,A,V*6E
$GPGGA,085011,3128.00000,N,12108.43836,E,3,10,0.84,-9.97,M,9.97,M,,*65
$GPRMC,085011,A,3128.00000,N,12108.43836,E,9.719,270.000,010720,0.000,E,A,V*63
$GPGGA,085012,3128.00000,N,12108.43520,E,3,10,0.84,-9.97,M,9.97,M,,*6C
$GPRMC,085012,A,3128.00000,N,12108.43520,E,9.719,270.000,010720,0.000,E,A,V*6A
$GPGGA,085013,3128.00000,N,12108.43205,E,3,10,0.84,-9.97,M,9.97,M,,*6D
$GPRMC,085013,A,3128.00000,N,12108.43205,E,9.719,270.000,010720,0.000,E,A,V*6B
$GPGGA,085014,3128.00000,N,12108.42889,E,3,10,0.84,-9.97,M,9.97,M,,*65
$GPRMC,085014,A,3128.00000,N,12108.42889,E,9.719,270.000,010720,0.000,E,A,V*63
$GPGGA,085015,3128.00000,N,12108.42573,E,3,10,0.84,-9.97,M,9.97,M,,*6C
$GPRMC,085015,A,3128.00000,N,12108.42573,E,9.719,270.000,010720,0.000,E,A,V*6A
$GPGGA,085016,3128.00000,N,12108.42258,E,3,10,0.84,-9.97,M,9.97,M,,*61
$GPRMC,085016,A,3128.00000,N,12108.42258,E,9.719,270.000,010720,0.000,E,A,V*67
$GPGGA,085017,3128.00000,N,12108.41942,E,3,10,0.84,-9.97,M,9.97,M,,*63
$GPRMC,085017,A,3128.00000,N,12108.41942,E,9.719,270.000,010720,0.000,E,A,V*65
$GPGGA,085018,3128.00000,N,12108.41626,E,3,10,0.84,-9.97,M,9.97,M,,*61
$GPRMC,085018,A,3128.00000,N,12108.41626,E,9.719,270.000,010720,0.000,E,A,V*67
$GPGGA,085019,3128.00000,N,12108.41311,E,3,10,0.84,-9.97,M,9.97,M,,*61
$GPRMC,085019,A,3128.00000,N,12108.41311,E,9.719,270.000,010720,0.000,E,A,V*67
$GPGGA,085020,3128.00000,N,12108.40995,E,3,10,0.84,-9.97,M,9.97,M,,*6C
$GPRMC,085020,A,3128.00000,N,12108.40995,E,9.719,270.000,010720,0.000,E,A,V*6A
$GPGGA,085021,3128.00000,N,12108.40679,E,3,10,0.84,-9.97,M,9.97,M,,*60
$GPRMC,085021,A,3128.00000,N,12108.40679,E,9.719,270.000,010720,0.000,E,A,V*66
$GPGGA,085022,3128.00000,N,12108.40364,E,3,10,0.84,-9.97,M,9.97,M,,*6A
$GPRMC,085022,A,3128.00000,N,12108.40364,E,9.719,270.000,010720,0.000,E,A,V*6C
$GPGGA,085023,3128.00000,N,12108.40048,E,3,10,0.84,-9.97,M,9.97,M,,*66
$GPRMC,085023,A,3128.00000,N,12108.40048,E,9.719,270.000,010720,0.000,E,A,V*60
$GPGGA,085024,3128.00000,N,12108.39732,E,3,10,0.84,-9.97,M,9.97,M,,*65
$GPRMC,085024,A,3128.00000,N,12108.39732,E,9.719,270.000,010720,0.000,E,A,V*63
$GPGGA,085025,3128.00000,N,12108.39417,E,3,10,0.84,-9.97,M,9.97,M,,*60
$GPRMC,085025,A,3128.00000,N,12108.39417,E,9.719,270.000,010720,0.000,E,A,V*66
$GPGGA,085026,3128.00000,N,12108.39101,E,3,10,0.84,-9.97,M,9.97,M,,*61
$GPRMC,085026,A,3128.00000,N,12108.39101,E,9.719,270.000,010720,0.000,E,A,V*67
$GPGGA,085027,3128.00000,N,12108.38785,E,3,10,0.84,-9.97,M,9.97,M,,*6B
$GPRMC,085027,A,3128.00000,N,12108.38785,E,9.719,270.000,010720,0.000,E,A,V*6D
$GPGGA,085028,3128.00000,N,12108.38470,E,3,10,0.84,-9.97,M,9.97,M,,*6D
$GPRMC,085028,A,3128.00000,N,12108.38470,E,9.719,270.000,010720,0.000,E,A,V*6B
$GPGGA,085029,3128.00000,N,12108.38154,E,3,10,0.84,-9.97,M,9.97,M,,*6F
$GPRMC,085029,A,3128.00000,N,12108.38154,E,9.719,270.000,010720,0.000,E,A,V*69
$GPGGA,085030,3128.00000,N,12108.37838,E,3,10,0.84,-9.97,M,9.97,M,,*6B
$GPRMC,085030,A,3128.00000,N,12108.37838,E,9.719,270.000,010720,0.000,E,A,V*6D
$GPGGA,085031,3128.00000,N,12108.37523,E,3,10,0.84,-9.97,M,9.97,M,,*6D
$GPRMC,085031,A,3128.00000,N,12108.37523,E,9.719,270.000,010720,0.000,E,A,V*6B
$GPGGA,085032,3128.00000,N,12108.37207,E,3,10,0.84,-9.97,M,9.97,M,,*6F
$GPRMC,085032,A,3128.00000,N,12108.37207,E,9.719,270.000,010720,0.000,E,A,V*69
$GPGGA,085033,3128.00000,N,12108.36891,E,3,10,0.84,-9.97,M,9.97,M,,*6A
$GPRMC,085033,A,3128.00000,N,12108.36891,E,9.719,270.000,010720,0.000,E,A,V*6C
$GPGGA,085034,3128.00000,N,12108.36576,E,3,10,0.84,-9.97,M,9.97,M,,*69
$GPRMC,085034,A,3128.00000,N,12108.36576,E,9.719,270.000,010720,0.000,E,A,V*6F
$GPGGA,085035,3128.00000,N,12108.36260,E,3,10,0.84,-9.97,M,9.97,M,,*68
$GPRMC,085035,A,3128.00000,N,12108.36260,E,9.719,270.000,010720,0.000,E,A,V*6E
$GPGGA,085036,3128.00000,N,12108.35944,E,3,10,0.84,-9.97,M,9.97,M,,*65
$GPRMC,085036,A,3128.00000,N,12108.35944,E,9.719,270.000,010720,0.000,E,A,V*63
$GPGGA,085037,3128.00000,N,12108.35629,E,3,10,0.84,-9.97,M,9.97,M,,*60
$GPRMC,085037,A,3128.00000,N,12108.35629,E,9.719,270.000,010720,0.000,E,A,V*66
$GPGGA,085038,3128.00000,N,12108.35313,E,3,10,0.84,-9.97,M,9.97,M,,*63
$GPRMC,085038,A,3128.00000,N,12108.35313,E,9.719,270.000,010720,0.000,E,A,V*65
$GPGGA,085039,3128.00000,N,12108.34997,E,3,10,0.84,-9.97,M,9.97,M,,*65
$GPRMC,085039,A,3128.00000,N,12108.34997,E,9.719,270.000,010720,0.000,E,A,V*63
$GPGGA,085040,3128.00000,N,12108.34682,E,3,10,0.84,-9.97,M,9.97,M,,*60
$GPRMC,085040,A,3128.00000,N,12108.34682,E,9.719,270.000,010720,0.000,E,A,V*66
$GPGGA,085041,3128.00000,N,12108.34366,E,3,10,0.84,-9.97,M,9.97,M,,*6E
$GPRMC,085041,A,3128.00000,N,12108.34366,E,9.719,270.000,010720,0.000,E,A,V*68
$GPGGA,085042,3128.00000,N,12108.34050,E,3,10,0.84,-9.97,M,9.97,M,,*6B
$GPRMC,085042,A,3128.00000,N,12108.34050,E,9.719,270.000,010720,0.000,E,A,V*6D
$GPGGA,085043,3128.00000,N,12108.33735,E,3,10,0.84,-9.97,M,9.97,M,,*69
$GPRMC,085043,A,3128.00000,N,12108.33735,E,9.719,270.000,010720,0.000,E,A,V*6F
$GPGGA,085044,3128.00000,N,12108.33419,E,3,10,0.84,-9.97,M,9.97,M,,*63
$GPRMC,085044,A,3128.00000,N,12108.33419,E,9.719,270.000,010720,0.000,E,A,V*65
$GPGGA,085045,3128.00000,N,12108.33103,E,3,10,0.84,-9.97,M,9.97,M,,*6C
$GPRMC,085045,A,3128.00000,N,12108.33103,E,9.719,270.000,010720,0.000,E,A,V*6A
$GPGGA,085046,3128.00000,N,12108.32788,E,3,10,0.84,-9.97,M,9.97,M,,*6B
$GPRMC,085046,A,3128.00000,N,12108.32788,E,9.719,270.000,010720,0.000,E,A,V*6D
$GPGGA,085047,3128.00000,N,12108.32472,E,3,10,0.84,-9.97,M,9.97,M,,*6C
$GPRMC,085047,A,3128.00000,N,12108.32472,E,9.719,270.000,010720,0.000,E,A,V*6A
$GPGGA,085048,3128.00000,N,12108.32156,E,3,10,0.84,-9.97,M,9.97,M,,*60
$GPRMC,085048,A,3128.00000,N,12108.32156,E,9.719,270.000,010720,0.000,E,A,V*66
$GPGGA,085049,3128.00000,N,12108.31841,E,3,10,0.84,-9.97,M,9.97,M,,*6D
$GPRMC,085049,A,3128.00000,N,12108.31841,E,9.719,270.000,010720,0.000,E,A,V*6B
$GPGGA,085050,3128.00000,N,12108.31525,E,3,10,0.84,-9.97,M,9.97,M,,*6A
$GPRMC,085050,A,3128.00000,N,12108.31525,E,9.719,270.000,010720,0.000,E,A,V*6C
$GPGGA,085051,3128.00000,N,12108.31209,E,3,10,0.84,-9.97,M,9.97,M,,*62
$GPRMC,085051,A,3128.00000,N,12108.31209,E,9.719,270.000,010720,0.000,E,A,V*64
$GPGGA,085052,3128.00000,N,12108.30894,E,3,10,0.84,-9.97,M,9.97,M,,*6E
$GPRMC,085052,A,3128.00000,N,12108.30894,E,9.719,270.000,010720,0.000,E,A,V*68
$GPGGA,085053,3128.00000,N,12108.30578,E,3,10,0.84,-9.97,M,9.97,M,,*60
$GPRMC,085053,A,3128.00000,N,12108.30578,E,9.719,270.000,010720,0.000,E,A,V*66
$GPGGA,085054,3128.00000,N,12108.30262,E,3,10,0.84,-9.97,M,9.97,M,,*6B
$GPRMC,085054,A,3128.00000,N,12108.30262,E,9.719,270.000,010720,0.000,E,A,V*6D
$GPGGA,085055,3128.00000,N,12108.29947,E,3,10,0.84,-9.97,M,9.97,M,,*6E
$GPRMC,085055,A,3128.00000,N,12108.29947,E,9.719,270.000,010720,0.000,E,A,V*68
$GPGGA,085056,3128.00000,N,12108.29631,E,3,10,0.84,-9.97,M,9.97,M,,*63
$GPRMC,085056,A,3128.00000,N,12108.29631,E,9.719,270.000,010720,0.000,E,A,V*65
$GPGGA,085057,3128.00000,N,12108.29315,E,3,10,0.84,-9.97,M,9.97,M,,*61
$GPRMC,085057,A,3128.00000,N,12108.29315,E,9.719,270.000,010720,0.000,E,A,V*67
$GPGGA,085058,3128.00000,N,12108.29000,E,3,10,0.84,-9.97,M,9.97,M,,*69
$GPRMC,085058,A,3128.00000,N,12108.29000,E,9.719,270.000,010720,0.000,E,A,V*6F
$GPGGA,085059,3128.00000,N,12108.28684,E,3,10,0.84,-9.97,M,9.97,M,,*63
$GPRMC,085059,A,3128.00000,N,12108.28684,E,9.719,270.000,010720,0.000,E,A,V*65
$GPGGA,085100,3128.00000,N,12108.28368,E,3,10,0.84,-9.97,M,9.97,M,,*69
$GPRMC,085100,A,3128.00000,N,12108.28368,E,9.719,270.000,010720,0.000,E,A,V*6F
$GPGGA,085101,3128.00000,N,12108.28053,E,3,10,0.84,-9.97,M,9.97,M,,*63
$GPRMC,085101,A,3128.00000,N,12108.28053,E,9.719,270.000,010720,0.000,E,A,V*65
$GPGGA,085102,3128.00000,N,12108.27737,E,3,10,0.84,-9.96,M,9.96,M,,*6A
$GPRMC,085102,A,3128.00000,N,12108.27737,E,9.719,270.000,010720,0.000,E,A,V*6C
$GPGGA,085103,3128.00000,N,12108.27421,E,3,10,0.84,-9.96,M,9.96,M,,*6F
$GPRMC,085103,A,3128.00000,N,12108.27421,E,9.719,270.000,010720,0.000,E,A,V*69
$GPGGA,085104,3128.00000,N,12108.27106,E,3,10,0.84,-9.96,M,9.96,M,,*68
$GPRMC,085104,A,3128.00000,N,12108.27106,E,9.719,270.000,010720,0.000,E,A,V*6E
$GPGGA,085105,3128.00000,N,12108.26790,E,3,10,0.84,-9.96,M,9.96,M,,*61
$GPRMC,085105,A,3128.00000,N,12108.26790,E,9.719,270.000,010720,0.000,E,A,V*67
$GPGGA,085106,3128.00000,N,12108.26474,E,3,10,0.84,-9.96,M,9.96,M,,*6B
$GPRMC,085106,A,3128.00000,N,12108.26474,E,9.719,270.000,010720,0.000,E,A,V*6D
$GPGGA,085107,3128.00000,N,12108.26159,E,3,10,0.84,-9.96,M,9.96,M,,*60
$GPRMC,085107,A,3128.00000,N,12108.26159,E,9.719,270.000,010720,0.000,E,A,V*66
$GPGGA,085108,3128.00000,N,12108.25843,E,3,10,0.84,-9.96,M,9.96,M,,*6E
$GPRMC,085108,A,3128.00000,N,12108.25843,E,9.719,270.000,010720,0.000,E,A,V*68
$GPGGA,085109,3128.00000,N,12108.25527,E,3,10,0.84,-9.96,M,9.96,M,,*60
$GPRMC,085109,A,3128.00000,N,12108.25527,E,9.719,270.000,010720,0.000,E,A,V*66
$GPGGA,085110,3128.00000,N,12108.25212,E,3,10,0.84,-9.96,M,9.96,M,,*69
$GPRMC,085110,A,3128.00000,N,12108.25212,E,9.719,270.000,010720,0.000,E,A,V*6F
$GPGGA,085111,3128.00000,N,12108.24896,E,3,10,0.84,-9.96,M,9.96,M,,*6F
$GPRMC,085111,A,3128.00000,N,12108.24896,E,9.719,270.000,010720,0.000,E,A,V*69
$GPGGA,085112,3128.00000,N,12108.24580,E,3,10,0.84,-9.96,M,9.96,M,,*66
$GPRMC,085112,A,3128.00000,N,12108.24580,E,9.719,270.000,010720,0.000,E,A,V*60
$GPGGA,085113,3128.00000,N,12108.24265,E,3,10,0.84,-9.96,M,9.96,M,,*6B
$GPRMC,085113,A,3128.00000,N,12108.24265,E,9.719,270.000,010720,0.000,E,A,V*6D
$GPGGA,085114,3128.00000,N,12108.23949,E,3,10,0.84,-9.96,M,9.96,M,,*6E
$GPRMC,085114,A,3128.00000,N,12108.23949,E,9.719,270.000,010720,0.000,E,A,V*68
$GPGGA,085115,3128.00000,N,12108.23633,E,3,10,0.84,-9.96,M,9.96,M,,*6D
$GPRMC,085115,A,3128.00000,N,12108.23633,E,9.719,270.000,010720,0.000,E,A,V*6B
$GPGGA,085116,3128.00000,N,12108.23318,E,3,10,0.84,-9.96,M,9.96,M,,*62
$GPRMC,085116,A,3128.00000,N,12108.23318,E,9.719,270.000,010720,0.000,E,A,V*64
$GPGGA,085117,3128.00000,N,12108.23002,E,3,10,0.84,-9.96,M,9.96,M,,*6B
$GPRMC,085117,A,3128.00000,N,12108.23002,E,9.719,270.000,010720,0.000,E,A,V*6D
$GPGGA,085118,3128.00000,N,12108.22686,E,3,10,0.84,-9.96,M,9.96,M,,*6F
$GPRMC,085118,A,3128.00000,N,12108.22686,E,9.719,270.000,010720,0.000,E,A,V*69
$GPGGA,085119,3128.00000,N,12108.22371,E,3,10,0.84,-9.96,M,9.96,M,,*63
$GPRMC,085119,A,3128.00000,N,12108.22371,E,9.719,270.000,010720,0.000,E,A,V*65
$GPGGA,085120,3128.00000,N,12108.22055,E,3,10,0.84,-9.96,M,9.96,M,,*6C
$GPRMC,085120,A,3128.00000,N,12108.22055,E,9.719,270.000,010720,0.000,E,A,V*6A
$GPGGA,085121,3128.00000,N,12108.21739,E,3,10,0.84,-9.96,M,9.96,M,,*63
$GPRMC,085121,A,3128.00000,N,12108.21739,E,9.719,270.000,010720,0.000,E,A,V*65
$GPGGA,085122,3128.00000,N,12108.21424,E,3,10,0.84,-9.96,M,9.96,M,,*6F
$GPRMC,085122,A,3128.00000,N,12108.21424,E,9.719,270.000,010720,0.000,E,A,V*69
$GPGGA,085123,3128.00000,N,12108.21108,E,3,10,0.84,-9.96,M,9.96,M,,*65
$GPRMC,085123,A,3128.00000,N,12108.21108,E,9.719,270.000,010720,0.000,E,A,V*63
$GPGGA,085124,3128.00000,N,12108.20792,E,3,10,0.84,-9.96,M,9.96,M,,*66
$GPRMC,085124,A,3128.00000,N,12108.20792,E,9.719,270.000,010720,0.000,E,A,V*60
$GPGGA,085125,3128.00000,N,12108.20477,E,3,10,0.84,-9.96,M,9.96,M,,*6F
$GPRMC,085125,A,3128.00000,N,12108.20477,E,9.719,270.000,010720,0.000,E,A,V*69
$GPGGA,085126,3128.00000,N,12108.20161,E,3,10,0.84,-9.96,M,9.96,M,,*6E
$GPRMC,085126,A,3128.00000,N,12108.20161,E,9.719,270.000,010720,0.000,E,A,V*68
$GPGGA,085127,3128.00000,N,12108.19845,E,3,10,0.84,-9.96,M,9.96,M,,*6A
$GPRMC,085127,A,3128.00000,N,12108.19845,E,9.719,270.000,010720,0.000,E,A,V*6C
$GPGGA,085128,3128.00000,N,12108.19530,E,3,10,0.84,-9.96,M,9.96,M,,*6A
$GPRMC,085128,A,3128.00000,N,12108.19530,E,9.719,270.000,010720,0.000,E,A,V*6C
$GPGGA,085129,3128.00000,N,12108.19214,E,3,10,0.84,-9.96,M,9.96,M,,*6A
$GPRMC,085129,A,3128.00000,N,12108.19214,E,9.719,270.000,010720,0.000,E,A,V*6C
$GPGGA,085130,3128.00000,N,12108.18898,E,3,10,0.84,-9.96,M,9.96,M,,*6D
$GPRMC,085130,A,3128.00000,N,12108.18898,E,9.719,270.000,010720,0.000,E,A,V*6B
$GPGGA,085131,3128.00000,N,12108.18583,E,3,10,0.84,-9.96,M,9.96,M,,*6B
$GPRMC,085131,A,3128.00000,N,12108.18583,E,9.719,270.000,010720,0.000,E,A,V*6D
$GPGGA,085132,3128.00000,N,12108.18267,E,3,10,0.84,-9.96,M,9.96,M,,*65
$GPRMC,085132,A,3128.00000,N,12108.18267,E,9.719,270.000,010720,0.000,E,A,V*63
$GPGGA,085133,3128.00000,N,12108.17951,E,3,10,0.84,-9.96,M,9.96,M,,*65
$GPRMC,085133,A,3128.00000,N,12108.17951,E,9.719,270.000,010720,0.000,E,A,V*63
$GPGGA,085134,3128.00000,N,12108.17636,E,3,10,0.84,-9.96,M,9.96,M,,*6C
$GPRMC,085134,A,3128.00000,N,12108.17636,E,9.719,270.000,010720,0.000,E,A,V*6A
$GPGGA,085135,3128.00000,N,12108.17320,E,3,10,0.84,-9.96,M,9.96,M,,*6F
$GPRMC,085135,A,3128.00000,N,12108.17320,E,9.719,270.000,010720,0.000,E,A,V*69
$GPGGA,085136,3128.00000,N,12108.17004,E,3,10,0.84,-9.96,M,9.96,M,,*69
$GPRMC,085136,A,3128.00000,N,12108.17004,E,9.719,270.000,010720,0.000,E,A,V*6F
$GPGGA,085137,3128.00000,N,12108.16689,E,3,10,0.84,-9.96,M,9.96,M,,*6A
$GPRMC,085137,A,3128.00000,N,12108.16689,E,9.719,270.000,010720,0.000,E,A,V*6C
$GPGGA,085138,3128.00000,N,12108.16373,E,3,10,0.84,-9.96,M,9.96,M,,*65
$GPRMC,085138,A,3128.00000,N,12108.16373,E,9.719,270.000,010720,0.000,E,A,V*63
$GPGGA,085139,3128.00000,N,12108.16057,E,3,10,0.84,-9.96,M,9.96,M,,*61
$GPRMC,085139,A,3128.00000,N,12108.16057,E,9.719,270.000,010720,0.000,E,A,V*67
$GPGGA,085140,3128.00000,N,12108.15742,E,3,10,0.84,-9.96,M,9.96,M,,*6F
$GPRMC,085140,A,3128.00000,N,12108.15742,E,9.719,270.000,010720,0.000,E,A,V*69
$GPGGA,085141,3128.00000,N,12108.15426,E,3,10,0.84,-9.96,M,9.96,M,,*6F
$GPRMC,085141,A,3128.00000,N,12108.15426,E,9.719,270.000,010720,0.000,E,A,V*69
$GPGGA,085142,3128.00000,N,12108.15110,E,3,10,0.84,-9.96,M,9.96,M,,*6C
$GPRMC,085142,A,3128.00000,N,12108.15110,E,9.719,270.000,010720,0.000,E,A,V*6A
$GPGGA,085143,3128.00000,N,12108.14794,E,3,10,0.84,-9.96,M,9.96,M,,*66
$GPRMC,085143,A,3128.00000,N,12108.14794,E,9.719,270.000,010720,0.000,E,A,V*60
$GPGGA,085144,3128.00000,N,12108.14479,E,3,10,0.84,-9.96,M,9.96,M,,*61
$GPRMC,085144,A,3128.00000,N,12108.14479,E,9.719,270.000,010720,0.000,E,A,V*67
$GPGGA,085145,3128.00000,N,12108.14163,E,3,10,0.84,-9.96,M,9.96,M,,*6E
$GPRMC,085145,A,3128.00000,N,12108.14163,E,9.719,270.000,010720,0.000,E,A,V*68
$GPGGA,085146,3128.00000,N,12108.13847,E,3,10,0.84,-9.96,M,9.96,M,,*65
$GPRMC,085146,A,3128.00000,N,12108.13847,E,9.719,270.000,010720,0.000,E,A,V*63
$GPGGA,085147,3128.00000,N,12108.13532,E,3,10,0.84,-9.96,M,9.96,M,,*6B
$GPRMC,085147,A,3128.00000,N,12108.13532,E,9.719,270.000,010720,0.000,E,A,V*6D
$GPGGA,085148,3128.00000,N,12108.13216,E,3,10,0.84,-9.96,M,9.96,M,,*65
$GPRMC,085148,A,3128.00000,N,12108.13216,E,9.719,270.000,010720,0.000,E,A,V*63
$GPGGA,085149,3128.00000,N,12108.12900,E,3,10,0.84,-9.96,M,9.96,M,,*69
$GPRMC,085149,A,3128.00000,N,12108.12900,E,9.719,270.000,010720,0.000,E,A,V*6F
$GPGGA,085150,3128.00000,N,12108.12585,E,3,10,0.84,-9.96,M,9.96,M,,*60
$GPRMC,085150,A,3128.00000,N,12108.12585,E,9.719,270.000,010720,0.000,E,A,V*66
$GPGGA,085151,3128.00000,N,12108.12269,E,3,10,0.84,-9.96,M,9.96,M,,*64
$GPRMC,085151,A,3128.00000,N,12108.12269,E,9.719,270.000,010720,0.000,E,A,V*62
$GPGGA,085152,3128.00000,N,12108.11953,E,3,10,0.84,-9.96,M,9.96,M,,*66
$GPRMC,085152,A,3128.00000,N,12108.11953,E,9.719,270.000,010720,0.000,E,A,V*60
$GPGGA,085153,3128.00000,N,12108.11638,E,3,10,0.84,-9.96,M,9.96,M,,*65
$GPRMC,085153,A,3128.00000,N,12108.11638,E,9.719,270.000,010720,0.000,E,A,V*63
$GPGGA,085154,3128.00000,N,12108.11322,E,3,10,0.84,-9.96,M,9.96,M,,*6C
$GPRMC,085154,A,3128.00000,N,12108.11322,E,9.719,270.000,010720,0.000,E,A,V*6A
$GPGGA,085155,3128.00000,N,12108.11006,E,3,10,0.84,-9.96,M,9.96,M,,*68
$GPRMC,085155,A,3128.00000,N,12108.11006,E,9.719,270.000,010720,0.000,E,A,V*6E
$GPGGA,085156,3128.00000,N,12108.10691,E,3,10,0.84,-9.96,M,9.96,M,,*62
$GPRMC,085156,A,3128.00000,N,12108.10691,E,9.719,270.000,010720,0.000,E,A,V*64
$GPGGA,085157,3128.00000,N,12108.10375,E,3,10,0.84,-9.96,M,9.96,M,,*6C
$GPRMC,085157,A,3128.00000,N,12108.10375,E,9.719,270.000,010720,0.000,E,A,V*6A
$GPGGA,085158,3128.00000,N,12108.10059,E,3,10,0.84,-9.96,M,9.96,M,,*6E
$GPRMC,085158,A,3128.00000,N,12108.10059,E,9.719,270.000,010720,0.000,E,A,V*68
$GPGGA,085159,3128.00000,N,12108.09744,E,3,10,0.84,-9.96,M,9.96,M,,*6C
$GPRMC,085159,A,3128.00000,N,12108.09744,E,9.719,270.000,010720,0.000,E,A,V*6A
$GPGGA,085200,3128.00000,N,12108.09428,E,3,10,0.84,-9.96,M,9.96,M,,*6A
$GPRMC,085200,A,3128.00000,N,12108.09428,E,9.719,270.000,010720,0.000,E,A,V*6C
$GPGGA,085201,3128.00000,N,12108.09112,E,3,10,0.84,-9.96,M,9.96,M,,*67
$GPRMC,085201,A,3128.00000,N,12108.09112,E,9.719,270.000,010720,0.000,E,A,V*61
$GPGGA,085202,3128.00000,N,12108.08797,E,3,10,0.84,-9.96,M,9.96,M,,*6E
$GPRMC,085202,A,3128.00000,N,12108.08797,E,9.719,270.000,010720,0.000,E,A,V*68
$GPGGA,085203,3128.00000,N,12108.08481,E,3,10,0.84,-9.96,M,9.96,M,,*6B
$GPRMC,085203,A,3128.00000,N,12108.08481,E,9.719,270.000,010720,0.000,E,A,V*6D
$GPGGA,085204,3128.00000,N,12108.08165,E,3,10,0.84,-9.96,M,9.96,M,,*63
$GPRMC,085204,A,3128.00000,N,12108.08165,E,9.719,270.000,010720,0.000,E,A,V*65
$GPGGA,085205,3128.00000,N,12108.07850,E,3,10,0.84,-9.96,M,9.96,M,,*62
$GPRMC,085205,A,3128.00000,N,12108.07850,E,9.719,270.000,010720,0.000,E,A,V*64
$GPGGA,085206,3128.00000,N,12108.07534,E,3,10,0.84,-9.96,M,9.96,M,,*6E
$GPRMC,085206,A,3128.00000,N,12108.07534,E,9.719,270.000,010720,0.000,E,A,V*68
$GPGGA,085207,3128.00000,N,12108.07218,E,3,10,0.84,-9.96,M,9.96,M,,*66
$GPRMC,085207,A,3128.00000,N,12108.07218,E,9.719,270.000,010720,0.000,E,A,V*60
$GPGGA,085208,3128.00000,N,12108.06903,E,3,10,0.84,-9.96,M,9.96,M,,*69
$GPRMC,085208,A,3128.00000,N,12108.06903,E,9.719,270.000,010720,0.000,E,A,V*6F
$GPGGA,085209,3128.00000,N,12108.06587,E,3,10,0.84,-9.96,M,9.96,M,,*68
$GPRMC,085209,A,3128.00000,N,12108.06587,E,9.719,270.000,010720,0.000,E,A,V*6E
$GPGGA,085210,3128.00000,N,12108.06271,E,3,10,0.84,-9.96,M,9.96,M,,*6E
$GPRMC,085210,A,3128.00000,N,12108.06271,E,9.719,270.000,010720,0.000,E,A,V*68
$GPGGA,085211,3128.00000,N,12108.05956,E,3,10,0.84,-9.96,M,9.96,M,,*62
$GPRMC,085211,A,3128.00000,N,12108.05956,E,9.719,270.000,010720,0.000,E,A,V*64
$GPGGA,085212,3128.00000,N,12108.05640,E,3,10,0.84,-9.96,M,9.96,M,,*69
$GPRMC,085212,A,3128.00000,N,12108.05640,E,9.719,270.000,010720,0.000,E,A,V*6F
$GPGGA,085213,3128.00000,N,12108.05324,E,3,10,0.84,-9.96,M,9.96,M,,*6F
$GPRMC,085213,A,3128.00000,N,12108.05324,E,9.719,270.000,010720,0.000,E,A,V*69
$GPGGA,085214,3128.00000,N,12108.05009,E,3,10,0.84,-9.96,M,9.96,M,,*64
$GPRMC,085214,A,3128.00000,N,12108.05009,E,9.719,270.000,010720,0.000,E,A,V*62
$GPGGA,085215,3128.00000,N,12108.04693,E,3,10,0.84,-9.96,M,9.96,M,,*61
$GPRMC,085215,A,3128.00000,N,12108.04693,E,9.719,270.000,010720,0.000,E,A,V*67
$GPGGA,085216,3128.00000,N,12108.04377,E,3,10,0.84,-9.96,M,9.96,M,,*6D
$GPRMC,085216,A,3128.00000,N,12108.04377,E,9.719,270.000,010720,0.000,E,A,V*6B
$GPGGA,085217,3128.00000,N,12108.04062,E,3,10,0.84,-9.96,M,9.96,M,,*6B
$GPRMC,085217,A,3128.00000,N,12108.04062,E,9.719,270.000,010720,0.000,E,A,V*6D
$GPGGA,085218,3128.00000,N,12108.03746,E,3,10,0.84,-9.96,M,9.96,M,,*62
$GPRMC,085218,A,3128.00000,N,12108.03746,E,9.719,270.000,010720,0.000,E,A,V*64
$GPGGA,085219,3128.00000,N,12108.03430,E,3,10,0.84,-9.95,M,9.95,M,,*61
$GPRMC,085219,A,3128.00000,N,12108.03430,E,9.719,270.000,010720,0.000,E,A,V*67
$GPGGA,085220,3128.00000,N,12108.03115,E,3,10,0.84,-9.95,M,9.95,M,,*69
$GPRMC,085220,A,3128.00000,N,12108.03115,E,9.719,270.000,010720,0.000,E,A,V*6F
$GPGGA,085221,3128.00000,N,12108.02799,E,3,10,0.84,-9.95,M,9.95,M,,*6B
$GPRMC,085221,A,3128.00000,N,12108.02799,E,9.719,270.000,010720,0.000,E,A,V*6D
$GPGGA,085222,3128.00000,N,12108.02483,E,3,10,0.84,-9.95,M,9.95,M,,*60
$GPRMC,085222,A,3128.00000,N,12108.02483,E,9.719,270.000,010720,0.000,E,A,V*66
$GPGGA,085223,3128.00000,N,12108.02168,E,3,10,0.84,-9.95,M,9.95,M,,*61
$GPRMC,085223,A,3128.00000,N,12108.02168,E,9.719,270.000,010720,0.000,E,A,V*67
$GPGGA,085224,3128.00000,N,12108.01852,E,3,10,0.84,-9.95,M,9.95,M,,*65
$GPRMC,085224,A,3128.00000,N,12108.01852,E,9.719,270.000,010720,0.000,E,A,V*63
$GPGGA,085225,3128.00000,N,12108.01536,E,3,10,0.84,-9.95,M,9.95,M,,*6B
$GPRMC,085225,A,3128.00000,N,12108.01536,E,9.719,270.000,010720,0.000,E,A,V*6D
$GPGGA,085226,3128.00000,N,12108.01221,E,3,10,0.84,-9.95,M,9.95,M,,*69
$GPRMC,085226,A,3128.00000,N,12108.01221,E,9.719,270.000,010720,0.000,E,A,V*6F
$GPGGA,085227,3128.00000,N,12108.00905,E,3,10,0.84,-9.95,M,9.95,M,,*64
$GPRMC,085227,A,3128.00000,N,12108.00905,E,9.719,270.000,010720,0.000,E,A,V*62
$GPGGA,085228,3128.00000,N,12108.00589,E,3,10,0.84,-9.95,M,9.95,M,,*63
$GPRMC,085228,A,3128.00000,N,12108.00589,E,9.719,270.000,010720,0.000,E,A,V*65
$GPGGA,085229,3128.00000,N,12108.00274,E,3,10,0.84,-9.95,M,9.95,M,,*67
$GPRMC,085229,A,3128.00000,N,12108.00274,E,9.719,270.000,010720,0.000,E,A,V*61
$GPGGA,085230,3128.00000,N,12107.99958,E,3,10,0.84,-9.95,M,9.95,M,,*65
$GPRMC,085230,A,3128.00000,N,12107.99958,E,9.719,270.000,010720,0.000,E,A,V*63
$GPGGA,085231,3128.00000,N,12107.99642,E,3,10,0.84,-9.95,M,9.95,M,,*60
$GPRMC,085231,A,3128.00000,N,12107.99642,E,9.719,270.000,010720,0.000,E,A,V*66
$GPGGA,085232,3128.00000,N,12107.99327,E,3,10,0.84,-9.95,M,9.95,M,,*65
$GPRMC,085232,A,3128.00000,N,12107.99327,E,9.719,270.000,010720,0.000,E,A,V*63
$GPGGA,085233,3128.00000,N,12107.99011,E,3,10,0.84,-9.95,M,9.95,M,,*62
$GPRMC,085233,A,3128.00000,N,12107.99011,E,9.719,270.000,010720,0.000,E,A,V*64
$GPGGA,085234,3128.00000,N,12107.98695,E,3,10,0.84,-9.95,M,9.95,M,,*6E
$GPRMC,085234,A,3128.00000,N,12107.98695,E,9.719,270.000,010720,0.000,E,A,V*68
$GPGGA,085235,3128.00000,N,12107.98380,E,3,10,0.84,-9.95,M,9.95,M,,*6E
$GPRMC,085235,A,3128.00000,N,12107.98380,E,9.719,270.000,010720,0.000,E,A,V*68
$GPGGA,085236,3128.00000,N,12107.98064,E,3,10,0.84,-9.95,M,9.95,M,,*64
$GPRMC,085236,A,3128.00000,N,12107.98064,E,9.719,270.000,010720,0.000,E,A,V*62
$GPGGA,085237,3128.00000,N,12107.97748,E,3,10,0.84,-9.95,M,9.95,M,,*63
$GPRMC,085237,A,3128.00000,N,12107.97748,E,9.719,270.000,010720,0.000,E,A,V*65
$GPGGA,085238,3128.00000,N,12107.97433,E,3,10,0.84,-9.95,M,9.95,M,,*63
$GPRMC,085238,A,3128.00000,N,12107.97433,E,9.719,270.000,010720,0.000,E,A,V*65
$GPGGA,085239,3128.00000,N,12107.97117,E,3,10,0.84,-9.95,M,9.95,M,,*61
$GPRMC,085239,A,3128.00000,N,12107.97117,E,9.719,270.000,010720,0.000,E,A,V*67
$GPGGA,085240,3128.00000,N,12107.96801,E,3,10,0.84,-9.95,M,9.95,M,,*60
$GPRMC,085240,A,3128.00000,N,12107.96801,E,9.719,270.000,010720,0.000,E,A,V*66
$GPGGA,085241,3128.00000,N,12107.96486,E,3,10,0.84,-9.95,M,9.95,M,,*62
$GPRMC,085241,A,3128.00000,N,12107.96486,E,9.719,270.000,010720,0.000,E,A,V*64
$GPGGA,085242,3128.00000,N,12107.96170,E,3,10,0.84,-9.95,M,9.95,M,,*6D
$GPRMC,085242,A,3128.00000,N,12107.96170,E,9.719,270.000,010720,0.000,E,A,V*6B
$GPGGA,085243,3128.00000,N,12107.95854,E,3,10,0.84,-9.95,M,9.95,M,,*60
$GPRMC,085243,A,3128.00000,N,12107.95854,E,9.719,270.000,010720,0.000,E,A,V*66
$GPGGA,085244,3128.00000,N,12107.95539,E,3,10,0.84,-9.95,M,9.95,M,,*61
$GPRMC,085244,A,3128.00000,N,12107.95539,E,9.719,270.000,010720,0.000,E,A,V*67
$GPGGA,085245,3128.00000,N,12107.95223,E,3,10,0.84,-9.95,M,9.95,M,,*6C
$GPRMC,085245,A,3128.00000,N,12107.95223,E,9.719,270.000,010720,0.000,E,A,V*6A
$GPGGA,085246,3128.00000,N,12107.94907,E,3,10,0.84,-9.95,M,9.95,M,,*63
$GPRMC,085246,A,3128.00000,N,12107.94907,E,9.719,270.000,010720,0.000,E,A,V*65
$GPGGA,085247,3128.00000,N,12107.94592,E,3,10,0.84,-9.95,M,9.95,M,,*62
$GPRMC,085247,A,3128.00000,N,12107.94592,E,9.719,270.000,010720,0.000,E,A,V*64
$GPGGA,085248,3128.00000,N,12107.94276,E,3,10,0.84,-9.95,M,9.95,M,,*60
$GPRMC,085248,A,3128.00000,N,12107.94276,E,9.719,270.000,010720,0.000,E,A,V*66
$GPGGA,085249,3128.00000,N,12107.93960,E,3,10,0.84,-9.95,M,9.95,M,,*6A
$GPRMC,085249,A,3128.00000,N,12107.93960,E,9.719,270.000,010720,0.000,E,A,V*6C
$GPGGA,085250,3128.00000,N,12107.93645,E,3,10,0.84,-9.95,M,9.95,M,,*6A
$GPRMC,085250,A,3128.00000,N,12107.93645,E,9.719,270.000,010720,0.000,E,A,V*6C
$GPGGA,085251,3128.00000,N,12107.93329,E,3,10,0.84,-9.95,M,9.95,M,,*64
$GPRMC,085251,A,3128.00000,N,12107.93329,E,9.719,270.000,010720,0.000,E,A,V*62
$GPGGA,085252,3128.00000,N,12107.93013,E,3,10,0.84,-9.95,M,9.95,M,,*6D
$GPRMC,085252,A,3128.00000,N,12107.93013,E,9.719,270.000,010720,0.000,E,A,V*6B
$GPGGA,085253,3128.00000,N,12107.92698,E,3,10,0.84,-9.95,M,9.95,M,,*68
$GPRMC,085253,A,3128.00000,N,12107.92698,E,9.719,270.000,010720,0.000,E,A,V*6E
$GPGGA,085254,3128.00000,N,12107.92382,E,3,10,0.84,-9.95,M,9.95,M,,*61
$GPRMC,085254,A,3128.00000,N,12107.92382,E,9.719,270.000,010720,0.000,E,A,V*67
$GPGGA,085255,3128.00000,N,12107.92066,E,3,10,0.84,-9.95,M,9.95,M,,*69
$GPRMC,085255,A,3128.00000,N,12107.92066,E,9.719,270.000,010720,0.000,E,A,V*6F
$GPGGA,085256,3128.00000,N,12107.91751,E,3,10,0.84,-9.95,M,9.95,M,,*6A
$GPRMC,085256,A,3128.00000,N,12107.91751,E,9.719,270.000,010720,0.000,E,A,V*6C
$GPGGA,085257,3128.00000,N,12107.91435,E,3,10,0.84,-9.95,M,9.95,M,,*6A
$GPRMC,085257,A,3128.00000,N,12107.91435,E,9.719,270.000,010720,0.000,E,A,V*6C
$GPGGA,085258,3128.00000,N,12107.91119,E,3,10,0.84,-9.95,M,9.95,M,,*6E
$GPRMC,085258,A,3128.00000,N,12107.91119,E,9.719,270.000,010720,0.000,E,A,V*68
$GPGGA,085259,3128.00000,N,12107.90804,E,3,10,0.84,-9.95,M,9.95,M,,*6B
$GPRMC,085259,A,3128.00000,N,12107.90804,E,9.719,270.000,010720,0.000,E,A,V*6D
$GPGGA,085300,3128.00000,N,12107.90488,E,3,10,0.84,-9.95,M,9.95,M,,*6E
$GPRMC,085300,A,3128.00000,N,12107.90488,E,9.719,270.000,010720,0.000,E,A,V*68
$GPGGA,085301,3128.00000,N,12107.90172,E,3,10,0.84,-9.95,M,9.95,M,,*6F
$GPRMC,085301,A,3128.00000,N,12107.90172,E,9.719,270.000,010720,0.000,E,A,V*69
$GPGGA,085302,3128.00000,N,12107.89857,E,3,10,0.84,-9.95,M,9.95,M,,*6A
$GPRMC,085302,A,3128.00000,N,12107.89857,E,9.719,270.000,010720,0.000,E,A,V*6C
$GPGGA,085303,3128.00000,N,12107.89541,E,3,10,0.84,-9.95,M,9.95,M,,*61
$GPRMC,085303,A,3128.00000,N,12107.89541,E,9.719,270.000,010720,0.000,E,A,V*67
$GPGGA,085304,3128.00000,N,12107.89225,E,3,10,0.84,-9.95,M,9.95,M,,*63
$GPRMC,085304,A,3128.00000,N,12107.89225,E,9.719,270.000,010720,0.000,E,A,V*65
$GPGGA,085305,3128.00000,N,12107.88910,E,3,10,0.84,-9.95,M,9.95,M,,*6E
$GPRMC,085305,A,3128.00000,N,12107.88910,E,9.719,270.000,010720,0.000,E,A,V*68
$GPGGA,085306,3128.00000,N,12107.88594,E,3,10,0.84,-9.95,M,9.95,M,,*6D
$GPRMC,085306,A,3128.00000,N,12107.88594,E,9.719,270.000,010720,0.000,E,A,V*6B
$GPGGA,085307,3128.00000,N,12107.88278,E,3,10,0.84,-9.95,M,9.95,M,,*69
$GPRMC,085307,A,3128.00000,N,12107.88278,E,9.719,270.000,010720,0.000,E,A,V*6F
$GPGGA,085308,3128.00000,N,12107.87963,E,3,10,0.84,-9.95,M,9.95,M,,*68
$GPRMC,085308,A,3128.00000,N,12107.87963,E,9.719,270.000,010720,0.000,E,A,V*6E
$GPGGA,085309,3128.00000,N,12107.87647,E,3,10,0.84,-9.95,M,9.95,M,,*60
$GPRMC,085309,A,3128.00000,N,12107.87647,E,9.719,270.000,010720,0.000,E,A,V*66
$GPGGA,085310,3128.00000,N,12107.87331,E,3,10,0.84,-9.95,M,9.95,M,,*6C
$GPRMC,085310,A,3128.00000,N,12107.87331,E,9.719,270.000,010720,0.000,E,A,V*6A
$GPGGA,085311,3128.00000,N,12107.87016,E,3,10,0.84,-9.95,M,9.95,M,,*6B
$GPRMC,085311,A,3128.00000,N,12107.87016,E,9.719,270.000,010720,0.000,E,A,V*6D
$GPGGA,085312,3128.00000,N,12107.86700,E,3,10,0.84,-9.95,M,9.95,M,,*69
$GPRMC,085312,A,3128.00000,N,12107.86700,E,9.719,270.000,010720,0.000,E,A,V*6F
$GPGGA,085313,3128.00000,N,12107.86384,E,3,10,0.84,-9.95,M,9.95,M,,*60
$GPRMC,085313,A,3128.00000,N,12107.86384,E,9.719,270.000,010720,0.000,E,A,V*66
$GPGGA,085314,3128.00000,N,12107.86069,E,3,10,0.84,-9.95,M,9.95,M,,*67
$GPRMC,085314,A,3128.00000,N,12107.86069,E,9.719,270.000,010720,0.000,E,A,V*61
$GPGGA,085315,3128.00000,N,12107.85753,E,3,10,0.84,-9.95,M,9.95,M,,*6B
$GPRMC,085315,A,3128.00000,N,12107.85753,E,9.719,270.000,010720,0.000,E,A,V*6D
$GPGGA,085316,3128.00000,N,12107.85437,E,3,10,0.84,-9.95,M,9.95,M,,*69
$GPRMC,085316,A,3128.00000,N,12107.85437,E,9.719,270.000,010720,0.000,E,A,V*6F
$GPGGA,085317,3128.00000,N,12107.85122,E,3,10,0.84,-9.95,M,9.95,M,,*69
$GPRMC,085317,A,3128.00000,N,12107.85122,E,9.719,270.000,010720,0.000,E,A,V*6F
$GPGGA,085318,3128.00000,N,12107.84806,E,3,10,0.84,-9.95,M,9.95,M,,*68
$GPRMC,085318,A,3128.00000,N,12107.84806,E,9.719,270.000,010720,0.000,E,A,V*6E
$GPGGA,085319,3128.00000,N,12107.84490,E,3,10,0.84,-9.95,M,9.95,M,,*6A
$GPRMC,085319,A,3128.00000,N,12107.84490,E,9.719,270.000,010720,0.000,E,A,V*6C
$GPGGA,085320,3128.00000,N,12107.84175,E,3,10,0.84,-9.95,M,9.95,M,,*6E
$GPRMC,085320,A,3128.00000,N,12107.84175,E,9.719,270.000,010720,0.000,E,A,V*68
$GPGGA,085321,3128.00000,N,12107.83859,E,3,10,0.84,-9.95,M,9.95,M,,*6F
$GPRMC,085321,A,3128.00000,N,12107.83859,E,9.719,270.000,010720,0.000,E,A,V*69
$GPGGA,085322,3128.00000,N,12107.83543,E,3,10,0.84,-9.95,M,9.95,M,,*6A
$GPRMC,085322,A,3128.00000,N,12107.83543,E,9.719,270.000,010720,0.000,E,A,V*6C
$GPGGA,085323,3128.00000,N,12107.83228,E,3,10,0.84,-9.95,M,9.95,M,,*61
$GPRMC,085323,A,3128.00000,N,12107.83228,E,9.719,270.000,010720,0.000,E,A,V*67
$GPGGA,085324,3128.00000,N,12107.82912,E,3,10,0.84,-9.95,M,9.95,M,,*65
$GPRMC,085324,A,3128.00000,N,12107.82912,E,9.719,270.000,010720,0.000,E,A,V*63
$GPGGA,085325,3128.00000,N,12107.82596,E,3,10,0.84,-9.95,M,9.95,M,,*64
$GPRMC,085325,A,3128.00000,N,12107.82596,E,9.719,270.000,010720,0.000,E,A,V*62
$GPGGA,085326,3128.00000,N,12107.82281,E,3,10,0.84,-9.95,M,9.95,M,,*66
$GPRMC,085326,A,3128.00000,N,12107.82281,E,9.719,270.000,010720,0.000,E,A,V*60
$GPGGA,085327,3128.00000,N,12107.81965,E,3,10,0.84,-9.95,M,9.95,M,,*65
$GPRMC,085327,A,3128.00000,N,12107.81965,E,9.719,270.000,010720,0.000,E,A,V*63
$GPGGA,085328,3128.00000,N,12107.81649,E,3,10,0.84,-9.95,M,9.95,M,,*6B
$GPRMC,085328,A,3128.00000,N,12107.81649,E,9.719,270.000,010720,0.000,E,A,V*6D
$GPGGA,085329,3128.00000,N,12107.81334,E,3,10,0.84,-9.95,M,9.95,M,,*65
$GPRMC,085329,A,3128.00000,N,12107.81334,E,9.719,270.000,010720,0.000,E,A,V*63
$GPGGA,085330,3128.00000,N,12107.81018,E,3,10,0.84,-9.95,M,9.95,M,,*60
$GPRMC,085330,A,3128.00000,N,12107.81018,E,9.719,270.000,010720,0.000,E,A,V*66
$GPGGA,085331,3128.00000,N,12107.80702,E,3,10,0.84,-9.95,M,9.95,M,,*6C
$GPRMC,085331,A,3128.00000,N,12107.80702,E,9.719,270.000,010720,0.000,E,A,V*6A
$GPGGA,085332,3128.00000,N,12107.80386,E,3,10,0.84,-9.95,M,9.95,M,,*67
$GPRMC,085332,A,3128.00000,N,12107.80386,E,9.719,270.000,010720,0.000,E,A,V*61
$GPGGA,085333,3128.00000,N,12107.80071,E,3,10,0.84,-9.95,M,9.95,M,,*6D
$GPRMC,085333,A,3128.00000,N,12107.80071,E,9.719,270.000,010720,0.000,E,A,V*6B
$GPGGA,085334,3128.00000,N,12107.79755,E,3,10,0.84,-9.95,M,9.95,M,,*6D
$GPRMC,085334,A,3128.00000,N,12107.79755,E,9.719,270.000,010720,0.000,E,A,V*6B
$GPGGA,085335,3128.00000,N,12107.79439,E,3,10,0.84,-9.95,M,9.95,M,,*65
$GPRMC,085335,A,3128.00000,N,12107.79439,E,9.719,270.000,010720,0.000,E,A,V*63
$GPGGA,085336,3128.00000,N,12107.79124,E,3,10,0.84,-9.95,M,9.95,M,,*6F
$GPRMC,085336,A,3128.00000,N,12107.79124,E,9.719,270.000,010720,0.000,E,A,V*69
$GPGGA,085337,3128.00000,N,12107.78808,E,3,10,0.84,-9.94,M,9.94,M,,*68
$GPRMC,085337,A,3128.00000,N,12107.78808,E,9.719,270.000,010720,0.000,E,A,V*6E
$GPGGA,085338,3128.00000,N,12107.78492,E,3,10,0.84,-9.94,M,9.94,M,,*68
$GPRMC,085338,A,3128.00000,N,12107.78492,E,9.719,270.000,010720,0.000,E,A,V*6E
$GPGGA,085339,3128.00000,N,12107.78177,E,3,10,0.84,-9.94,M,9.94,M,,*67
$GPRMC,085339,A,3128.00000,N,12107.78177,E,9.719,270.000,010720,0.000,E,A,V*61
$GPGGA,085340,3128.00000,N,12107.77861,E,3,10,0.84,-9.94,M,9.94,M,,*68
$GPRMC,085340,A,3128.00000,N,12107.77861,E,9.719,270.000,010720,0.000,E,A,V*6E
$GPGGA,085341,3128.00000,N,12107.77545,E,3,10,0.84,-9.94,M,9.94,M,,*62
$GPRMC,085341,A,3128.00000,N,12107.77545,E,9.719,270.000,010720,0.000,E,A,V*64
$GPGGA,085342,3128.00000,N,12107.77230,E,3,10,0.84,-9.94,M,9.94,M,,*64
$GPRMC,085342,A,3128.00000,N,12107.77230,E,9.719,270.000,010720,0.000,E,A,V*62
$GPGGA,085343,3128.00000,N,12107.76914,E,3,10,0.84,-9.94,M,9.94,M,,*69
$GPRMC,085343,A,3128.00000,N,12107.76914,E,9.719,270.000,010720,0.000,E,A,V*6F
$GPGGA,085344,3128.00000,N,12107.76598,E,3,10,0.84,-9.94,M,9.94,M,,*66
$GPRMC,085344,A,3128.00000,N,12107.76598,E,9.719,270.000,010720,0.000,E,A,V*60
$GPGGA,085345,3128.00000,N,12107.76283,E,3,10,0.84,-9.94,M,9.94,M,,*6A
$GPRMC,085345,A,3128.00000,N,12107.76283,E,9.719,270.000,010720,0.000,E,A,V*6C
$GPGGA,085346,3128.00000,N,12107.75967,E,3,10,0.84,-9.94,M,9.94,M,,*6B
$GPRMC,085346,A,3128.00000,N,12107.75967,E,9.719,270.000,010720,0.000,E,A,V*6D
$GPGGA,085347,3128.00000,N,12107.75651,E,3,10,0.84,-9.94,M,9.94,M,,*60
$GPRMC,085347,A,3128.00000,N,12107.75651,E,9.719,270.000,010720,0.000,E,A,V*66
$GPGGA,085348,3128.00000,N,12107.75336,E,3,10,0.84,-9.94,M,9.94,M,,*6B
$GPRMC,085348,A,3128.00000,N,12107.75336,E,9.719,270.000,010720,0.000,E,A,V*6D
$GPGGA,085349,3128.00000,N,12107.75020,E,3,10,0.84,-9.94,M,9.94,M,,*6E
$GPRMC,085349,A,3128.00000,N,12107.75020,E,9.719,270.000,010720,0.000,E,A,V*68
$GPGGA,085350,3128.00000,N,12107.74704,E,3,10,0.84,-9.94,M,9.94,M,,*66
$GPRMC,085350,A,3128.00000,N,12107.74704,E,9.719,270.000,010720,0.000,E,A,V*60
$GPGGA,085351,3128.00000,N,12107.74389,E,3,10,0.84,-9.94,M,9.94,M,,*66
$GPRMC,085351,A,3128.00000,N,12107.74389,E,9.719,270.000,010720,0.000,E,A,V*60
$GPGGA,085352,3128.00000,N,12107.74073,E,3,10,0.84,-9.94,M,9.94,M,,*63
$GPRMC,085352,A,3128.00000,N,12107.74073,E,9.719,270.000,010720,0.000,E,A,V*65
