$GPGGA,083631,3128.00000,N,12111.02685,E,3,11,0.77,-10.10,M,10.10,M,,*61
$GPRMC,083631,A,3128.00000,N,12111.02685,E,9.719,270.000,010720,0.000,E,A,V*6A
$GPGGA,083632,3128.00000,N,12111.02370,E,3,11,0.77,-10.10,M,10.10,M,,*6D
$GPRMC,083632,A,3128.00000,N,12111.02370,E,9.719,270.000,010720,0.000,E,A,V*66
$GPGGA,083633,3128.00000,N,12111.02054,E,3,11,0.77,-10.10,M,10.10,M,,*69
$GPRMC,083633,A,3128.00000,N,12111.02054,E,9.719,270.000,010720,0.000,E,A,V*62
$GPGGA,083634,3128.00000,N,12111.01738,E,3,11,0.77,-10.10,M,10.10,M,,*60
$GPRMC,083634,A,3128.00000,N,12111.01738,E,9.719,270.000,010720,0.000,E,A,V*6B
$GPGGA,083635,3128.00000,N,12111.01423,E,3,11,0.77,-10.10,M,10.10,M,,*68
$GPRMC,083635,A,3128.00000,N,12111.01423,E,9.719,270.000,010720,0.000,E,A,V*63
$GPGGA,083636,3128.00000,N,12111.01107,E,3,11,0.77,-10.09,M,10.09,M,,*68
$GPRMC,083636,A,3128.00000,N,12111.01107,E,9.719,270.000,010720,0.000,E,A,V*63
$GPGGA,083637,3128.00000,N,12111.00791,E,3,11,0.77,-10.09,M,10.09,M,,*61
$GPRMC,083637,A,3128.00000,N,12111.00791,E,9.719,270.000,010720,0.000,E,A,V*6A
$GPGGA,083638,3128.00000,N,12111.00476,E,3,11,0.77,-10.09,M,10.09,M,,*64
$GPRMC,083638,A,3128.00000,N,12111.00476,E,9.719,270.000,010720,0.000,E,A,V*6F
$GPGGA,083639,3128.00000,N,12111.00160,E,3,11,0.77,-10.09,M,10.09,M,,*67
$GPRMC,083639,A,3128.00000,N,12111.00160,E,9.719,270.000,010720,0.000,E,A,V*6C
$GPGGA,083640,3128.00000,N,12110.99844,E,3,11,0.77,-10.09,M,10.09,M,,*67
$GPRMC,083640,A,3128.00000,N,12110.99844,E,9.719,270.000,010720,0.000,E,A,V*6C
$GPGGA,083641,3128.00000,N,12110.99529,E,3,11,0.77,-10.09,M,10.09,M,,*60
$GPRMC,083641,A,3128.00000,N,12110.99529,E,9.719,270.000,010720,0.000,E,A,V*6B
$GPGGA,083642,3128.00000,N,12110.99213,E,3,11,0.77,-10.09,M,10.09,M,,*6D
$GPRMC,083642,A,3128.00000,N,12110.99213,E,9.719,270.000,010720,0.000,E,A,V*66
$GPGGA,083643,3128.00000,N,12110.98897,E,3,11,0.77,-10.09,M,10.09,M,,*6B
$GPRMC,083643,A,3128.00000,N,12110.98897,E,9.719,270.000,010720,0.000,E,A,V*60
$GPGGA,083644,3128.00000,N,12110.98582,E,3,11,0.77,-10.09,M,10.09,M,,*65
$GPRMC,083644,A,3128.00000,N,12110.98582,E,9.719,270.000,010720,0.000,E,A,V*6E
$GPGGA,083645,3128.00000,N,12110.98266,E,3,11,0.77,-10.09,M,10.09,M,,*69
$GPRMC,083645,A,3128.00000,N,12110.98266,E,9.719,270.000,010720,0.000,E,A,V*62
$GPGGA,083646,3128.00000,N,12110.97950,E,3,11,0.77,-10.09,M,10.09,M,,*6B
$GPRMC,083646,A,3128.00000,N,12110.97950,E,9.719,270.000,010720,0.000,E,A,V*60
$GPGGA,083647,3128.00000,N,12110.97635,E,3,11,0.77,-10.09,M,10.09,M,,*66
$GPRMC,083647,A,3128.00000,N,12110.97635,E,9.719,270.000,010720,0.000,E,A,V*6D
$GPGGA,083648,3128.00000,N,12110.97319,E,3,11,0.77,-10.09,M,10.09,M,,*62
$GPRMC,083648,A,3128.00000,N,12110.97319,E,9.719,270.000,010720,0.000,E,A,V*69
$GPGGA,083649,3128.00000,N,12110.97003,E,3,11,0.77,-10.09,M,10.09,M,,*6B
$GPRMC,083649,A,3128.00000,N,12110.97003,E,9.719,270.000,010720,0.000,E,A,V*60
$GPGGA,083650,3128.00000,N,12110.96688,E,3,11,0.77,-10.09,M,10.09,M,,*67
$GPRMC,083650,A,3128.00000,N,12110.96688,E,9.719,270.000,010720,0.000,E,A,V*6C
$GPGGA,083651,3128.00000,N,12110.96372,E,3,11,0.77,-10.09,M,10.09,M,,*66
$GPRMC,083651,A,3128.00000,N,12110.96372,E,9.719,270.000,010720,0.000,E,A,V*6D
$GPGGA,083652,3128.00000,N,12110.96056,E,3,11,0.77,-10.09,M,10.09,M,,*60
$GPRMC,083652,A,3128.00000,N,12110.96056,E,9.719,270.000,010720,0.000,E,A,V*6B
$GPGGA,083653,3128.00000,N,12110.95741,E,3,11,0.77,-10.09,M,10.09,M,,*63
$GPRMC,083653,A,3128.00000,N,12110.95741,E,9.719,270.000,010720,0.000,E,A,V*68
$GPGGA,083654,3128.00000,N,12110.95425,E,3,11,0.77,-10.09,M,10.09,M,,*65
$GPRMC,083654,A,3128.00000,N,12110.95425,E,9.719,270.000,010720,0.000,E,A,V*6E
$GPGGA,083655,3128.00000,N,12110.95109,E,3,11,0.77,-10.09,M,10.09,M,,*6F
$GPRMC,083655,A,3128.00000,N,12110.95109,E,9.719,270.000,010720,0.000,E,A,V*64
$GPGGA,083656,3128.00000,N,12110.94794,E,3,11,0.77,-10.09,M,10.09,M,,*6F
$GPRMC,083656,A,3128.00000,N,12110.94794,E,9.719,270.000,010720,0.000,E,A,V*64
$GPGGA,083657,3128.00000,N,12110.94478,E,3,11,0.77,-10.09,M,10.09,M,,*6F
$GPRMC,083657,A,3128.00000,N,12110.94478,E,9.719,270.000,010720,0.000,E,A,V*64
$GPGGA,083658,3128.00000,N,12110.94162,E,3,11,0.77,-10.09,M,10.09,M,,*6E
$GPRMC,083658,A,3128.00000,N,12110.94162,E,9.719,270.000,010720,0.000,E,A,V*65
$GPGGA,083659,3128.00000,N,12110.93847,E,3,11,0.77,-10.09,M,10.09,M,,*66
$GPRMC,083659,A,3128.00000,N,12110.93847,E,9.719,270.000,010720,0.000,E,A,V*6D
$GPGGA,083700,3128.00000,N,12110.93531,E,3,11,0.77,-10.09,M,10.09,M,,*67
$GPRMC,083700,A,3128.00000,N,12110.93531,E,9.719,270.000,010720,0.000,E,A,V*6C
$GPGGA,083701,3128.00000,N,12110.93215,E,3,11,0.77,-10.09,M,10.09,M,,*67
$GPRMC,083701,A,3128.00000,N,12110.93215,E,9.719,270.000,010720,0.000,E,A,V*6C
$GPGGA,083702,3128.00000,N,12110.92900,E,3,11,0.77,-10.09,M,10.09,M,,*6A
$GPRMC,083702,A,3128.00000,N,12110.92900,E,9.719,270.000,010720,0.000,E,A,V*61
$GPGGA,083703,3128.00000,N,12110.92584,E,3,11,0.77,-10.09,M,10.09,M,,*6B
$GPRMC,083703,A,3128.00000,N,12110.92584,E,9.719,270.000,010720,0.000,E,A,V*60
$GPGGA,083704,3128.00000,N,12110.92268,E,3,11,0.77,-10.09,M,10.09,M,,*69
$GPRMC,083704,A,3128.00000,N,12110.92268,E,9.719,270.000,010720,0.000,E,A,V*62
$GPGGA,083705,3128.00000,N,12110.91953,E,3,11,0.77,-10.09,M,10.09,M,,*68
$GPRMC,083705,A,3128.00000,N,12110.91953,E,9.719,270.000,010720,0.000,E,A,V*63
$GPGGA,083706,3128.00000,N,12110.91637,E,3,11,0.77,-10.09,M,10.09,M,,*66
$GPRMC,083706,A,3128.00000,N,12110.91637,E,9.719,270.000,010720,0.000,E,A,V*6D
$GPGGA,083707,3128.00000,N,12110.91321,E,3,11,0.77,-10.09,M,10.09,M,,*65
$GPRMC,083707,A,3128.00000,N,12110.91321,E,9.719,270.000,010720,0.000,E,A,V*6E
$GPGGA,083708,3128.00000,N,12110.91006,E,3,11,0.77,-10.09,M,10.09,M,,*6C
$GPRMC,083708,A,3128.00000,N,12110.91006,E,9.719,270.000,010720,0.000,E,A,V*67
$GPGGA,083709,3128.00000,N,12110.90690,E,3,11,0.77,-10.09,M,10.09,M,,*65
$GPRMC,083709,A,3128.00000,N,12110.90690,E,9.719,270.000,010720,0.000,E,A,V*6E
$GPGGA,083710,3128.00000,N,12110.90374,E,3,11,0.77,-10.09,M,10.09,M,,*62
$GPRMC,083710,A,3128.00000,N,12110.90374,E,9.719,270.000,010720,0.000,E,A,V*69
$GPGGA,083711,3128.00000,N,12110.90059,E,3,11,0.77,-10.09,M,10.09,M,,*6F
$GPRMC,083711,A,3128.00000,N,12110.90059,E,9.719,270.000,010720,0.000,E,A,V*64
$GPGGA,083712,3128.00000,N,12110.89743,E,3,11,0.77,-10.09,M,10.09,M,,*68
$GPRMC,083712,A,3128.00000,N,12110.89743,E,9.719,270.000,010720,0.000,E,A,V*63
$GPGGA,083713,3128.00000,N,12110.89427,E,3,11,0.77,-10.09,M,10.09,M,,*68
$GPRMC,083713,A,3128.00000,N,12110.89427,E,9.719,270.000,010720,0.000,E,A,V*63
$GPGGA,083714,3128.00000,N,12110.89112,E,3,11,0.77,-10.09,M,10.09,M,,*6C
$GPRMC,083714,A,3128.00000,N,12110.89112,E,9.719,270.000,010720,0.000,E,A,V*67
$GPGGA,083715,3128.00000,N,12110.88796,E,3,11,0.77,-10.09,M,10.09,M,,*66
$GPRMC,083715,A,3128.00000,N,12110.88796,E,9.719,270.000,010720,0.000,E,A,V*6D
$GPGGA,083716,3128.00000,N,12110.88480,E,3,11,0.77,-10.09,M,10.09,M,,*61
$GPRMC,083716,A,3128.00000,N,12110.88480,E,9.719,270.000,010720,0.000,E,A,V*6A
$GPGGA,083717,3128.00000,N,12110.88165,E,3,11,0.77,-10.09,M,10.09,M,,*6E
$GPRMC,083717,A,3128.00000,N,12110.88165,E,9.719,270.000,010720,0.000,E,A,V*65
$GPGGA,083718,3128.00000,N,12110.87849,E,3,11,0.77,-10.09,M,10.09,M,,*69
$GPRMC,083718,A,3128.00000,N,12110.87849,E,9.719,270.000,010720,0.000,E,A,V*62
$GPGGA,083719,3128.00000,N,12110.87533,E,3,11,0.77,-10.09,M,10.09,M,,*68
$GPRMC,083719,A,3128.00000,N,12110.87533,E,9.719,270.000,010720,0.000,E,A,V*63
$GPGGA,083720,3128.00000,N,12110.87218,E,3,11,0.77,-10.09,M,10.09,M,,*6C
$GPRMC,083720,A,3128.00000,N,12110.87218,E,9.719,270.000,010720,0.000,E,A,V*67
$GPGGA,083721,3128.00000,N,12110.86902,E,3,11,0.77,-10.09,M,10.09,M,,*6C
$GPRMC,083721,A,3128.00000,N,12110.86902,E,9.719,270.000,010720,0.000,E,A,V*67
$GPGGA,083722,3128.00000,N,12110.86586,E,3,11,0.77,-10.09,M,10.09,M,,*6F
$GPRMC,083722,A,3128.00000,N,12110.86586,E,9.719,270.000,010720,0.000,E,A,V*64
$GPGGA,083723,3128.00000,N,12110.86271,E,3,11,0.77,-10.09,M,10.09,M,,*61
$GPRMC,083723,A,3128.00000,N,12110.86271,E,9.719,270.000,010720,0.000,E,A,V*6A
$GPGGA,083724,3128.00000,N,12110.85955,E,3,11,0.77,-10.09,M,10.09,M,,*68
$GPRMC,083724,A,3128.00000,N,12110.85955,E,9.719,270.000,010720,0.000,E,A,V*63
$GPGGA,083725,3128.00000,N,12110.85639,E,3,11,0.77,-10.09,M,10.09,M,,*6C
$GPRMC,083725,A,3128.00000,N,12110.85639,E,9.719,270.000,010720,0.000,E,A,V*67
$GPGGA,083726,3128.00000,N,12110.85324,E,3,11,0.77,-10.09,M,10.09,M,,*66
$GPRMC,083726,A,3128.00000,N,12110.85324,E,9.719,270.000,010720,0.000,E,A,V*6D
$GPGGA,083727,3128.00000,N,12110.85008,E,3,11,0.77,-10.09,M,10.09,M,,*6A
$GPRMC,083727,A,3128.00000,N,12110.85008,E,9.719,270.000,010720,0.000,E,A,V*61
$GPGGA,083728,3128.00000,N,12110.84692,E,3,11,0.77,-10.09,M,10.09,M,,*61
$GPRMC,083728,A,3128.00000,N,12110.84692,E,9.719,270.000,010720,0.000,E,A,V*6A
$GPGGA,083729,3128.00000,N,12110.84377,E,3,11,0.77,-10.09,M,10.09,M,,*6E
$GPRMC,083729,A,3128.00000,N,12110.84377,E,9.719,270.000,010720,0.000,E,A,V*65
$GPGGA,083730,3128.00000,N,12110.84061,E,3,11,0.77,-10.09,M,10.09,M,,*62
$GPRMC,083730,A,3128.00000,N,12110.84061,E,9.719,270.000,010720,0.000,E,A,V*69
$GPGGA,083731,3128.00000,N,12110.83745,E,3,11,0.77,-10.09,M,10.09,M,,*65
$GPRMC,083731,A,3128.00000,N,12110.83745,E,9.719,270.000,010720,0.000,E,A,V*6E
$GPGGA,083732,3128.00000,N,12110.83430,E,3,11,0.77,-10.09,M,10.09,M,,*67
$GPRMC,083732,A,3128.00000,N,12110.83430,E,9.719,270.000,010720,0.000,E,A,V*6C
$GPGGA,083733,3128.00000,N,12110.83114,E,3,11,0.77,-10.09,M,10.09,M,,*65
$GPRMC,083733,A,3128.00000,N,12110.83114,E,9.719,270.000,010720,0.000,E,A,V*6E
$GPGGA,083734,3128.00000,N,12110.82798,E,3,11,0.77,-10.09,M,10.09,M,,*61
$GPRMC,083734,A,3128.00000,N,12110.82798,E,9.719,270.000,010720,0.000,E,A,V*6A
$GPGGA,083735,3128.00000,N,12110.82483,E,3,11,0.77,-10.09,M,10.09,M,,*69
$GPRMC,083735,A,3128.00000,N,12110.82483,E,9.719,270.000,010720,0.000,E,A,V*62
$GPGGA,083736,3128.00000,N,12110.82167,E,3,11,0.77,-10.09,M,10.09,M,,*65
$GPRMC,083736,A,3128.00000,N,12110.82167,E,9.719,270.000,010720,0.000,E,A,V*6E
$GPGGA,083737,3128.00000,N,12110.81851,E,3,11,0.77,-10.08,M,10.08,M,,*6B
$GPRMC,083737,A,3128.00000,N,12110.81851,E,9.719,270.000,010720,0.000,E,A,V*60
$GPGGA,083738,3128.00000,N,12110.81535,E,3,11,0.77,-10.08,M,10.08,M,,*6B
$GPRMC,083738,A,3128.00000,N,12110.81535,E,9.719,270.000,010720,0.000,E,A,V*60
$GPGGA,083739,3128.00000,N,12110.81220,E,3,11,0.77,-10.08,M,10.08,M,,*69
$GPRMC,083739,A,3128.00000,N,12110.81220,E,9.719,270.000,010720,0.000,E,A,V*62
$GPGGA,083740,3128.00000,N,12110.80904,E,3,11,0.77,-10.08,M,10.08,M,,*6B
$GPRMC,083740,A,3128.00000,N,12110.80904,E,9.719,270.000,010720,0.000,E,A,V*60
$GPGGA,083741,3128.00000,N,12110.80588,E,3,11,0.77,-10.08,M,10.08,M,,*62
$GPRMC,083741,A,3128.00000,N,12110.80588,E,9.719,270.000,010720,0.000,E,A,V*69
$GPGGA,083742,3128.00000,N,12110.80273,E,3,11,0.77,-10.08,M,10.08,M,,*62
$GPRMC,083742,A,3128.00000,N,12110.80273,E,9.719,270.000,010720,0.000,E,A,V*69
$GPGGA,083743,3128.00000,N,12110.79957,E,3,11,0.77,-10.08,M,10.08,M,,*68
$GPRMC,083743,A,3128.00000,N,12110.79957,E,9.719,270.000,010720,0.000,E,A,V*63
$GPGGA,083744,3128.00000,N,12110.79641,E,3,11,0.77,-10.08,M,10.08,M,,*67
$GPRMC,083744,A,3128.00000,N,12110.79641,E,9.719,270.000,010720,0.000,E,A,V*6C
$GPGGA,083745,3128.00000,N,12110.79326,E,3,11,0.77,-10.08,M,10.08,M,,*62
$GPRMC,083745,A,3128.00000,N,12110.79326,E,9.719,270.000,010720,0.000,E,A,V*69
$GPGGA,083746,3128.00000,N,12110.79010,E,3,11,0.77,-10.08,M,10.08,M,,*67
$GPRMC,083746,A,3128.00000,N,12110.79010,E,9.719,270.000,010720,0.000,E,A,V*6C
$GPGGA,083747,3128.00000,N,12110.78694,E,3,11,0.77,-10.08,M,10.08,M,,*6D
$GPRMC,083747,A,3128.00000,N,12110.78694,E,9.719,270.000,010720,0.000,E,A,V*66
$GPGGA,083748,3128.00000,N,12110.78379,E,3,11,0.77,-10.08,M,10.08,M,,*64
$GPRMC,083748,A,3128.00000,N,12110.78379,E,9.719,270.000,010720,0.000,E,A,V*6F
$GPGGA,083749,3128.00000,N,12110.78063,E,3,11,0.77,-10.08,M,10.08,M,,*6D
$GPRMC,083749,A,3128.00000,N,12110.78063,E,9.719,270.000,010720,0.000,E,A,V*66
$GPGGA,083750,3128.00000,N,12110.77747,E,3,11,0.77,-10.08,M,10.08,M,,*6B
$GPRMC,083750,A,3128.00000,N,12110.77747,E,9.719,270.000,010720,0.000,E,A,V*60
$GPGGA,083751,3128.00000,N,12110.77432,E,3,11,0.77,-10.08,M,10.08,M,,*6B
$GPRMC,083751,A,3128.00000,N,12110.77432,E,9.719,270.000,010720,0.000,E,A,V*60
$GPGGA,083752,3128.00000,N,12110.77116,E,3,11,0.77,-10.08,M,10.08,M,,*6B
$GPRMC,083752,A,3128.00000,N,12110.77116,E,9.719,270.000,010720,0.000,E,A,V*60
$GPGGA,083753,3128.00000,N,12110.76800,E,3,11,0.77,-10.08,M,10.08,M,,*65
$GPRMC,083753,A,3128.00000,N,12110.76800,E,9.719,270.000,010720,0.000,E,A,V*6E
$GPGGA,083754,3128.00000,N,12110.76485,E,3,11,0.77,-10.08,M,10.08,M,,*63
$GPRMC,083754,A,3128.00000,N,12110.76485,E,9.719,270.000,010720,0.000,E,A,V*68
$GPGGA,083755,3128.00000,N,12110.76169,E,3,11,0.77,-10.08,M,10.08,M,,*65
$GPRMC,083755,A,3128.00000,N,12110.76169,E,9.719,270.000,010720,0.000,E,A,V*6E
$GPGGA,083756,3128.00000,N,12110.75853,E,3,11,0.77,-10.08,M,10.08,M,,*65
$GPRMC,083756,A,3128.00000,N,12110.75853,E,9.719,270.000,010720,0.000,E,A,V*6E
$GPGGA,083757,3128.00000,N,12110.75538,E,3,11,0.77,-10.08,M,10.08,M,,*64
$GPRMC,083757,A,3128.00000,N,12110.75538,E,9.719,270.000,010720,0.000,E,A,V*6F
$GPGGA,083758,3128.00000,N,12110.75222,E,3,11,0.77,-10.08,M,10.08,M,,*67
$GPRMC,083758,A,3128.00000,N,12110.75222,E,9.719,270.000,010720,0.000,E,A,V*6C
$GPGGA,083759,3128.00000,N,12110.74906,E,3,11,0.77,-10.08,M,10.08,M,,*6A
$GPRMC,083759,A,3128.00000,N,12110.74906,E,9.719,270.000,010720,0.000,E,A,V*61
$GPGGA,083800,3128.00000,N,12110.74591,E,3,11,0.77,-10.08,M,10.08,M,,*6B
$GPRMC,083800,A,3128.00000,N,12110.74591,E,9.719,270.000,010720,0.000,E,A,V*60
$GPGGA,083801,3128.00000,N,12110.74275,E,3,11,0.77,-10.08,M,10.08,M,,*67
$GPRMC,083801,A,3128.00000,N,12110.74275,E,9.719,270.000,010720,0.000,E,A,V*6C
$GPGGA,083802,3128.00000,N,12110.73959,E,3,11,0.77,-10.08,M,10.08,M,,*66
$GPRMC,083802,A,3128.00000,N,12110.73959,E,9.719,270.000,010720,0.000,E,A,V*6D
$GPGGA,083803,3128.00000,N,12110.73644,E,3,11,0.77,-10.08,M,10.08,M,,*64
$GPRMC,083803,A,3128.00000,N,12110.73644,E,9.719,270.000,010720,0.000,E,A,V*6F
$GPGGA,083804,3128.00000,N,12110.73328,E,3,11,0.77,-10.08,M,10.08,M,,*6C
$GPRMC,083804,A,3128.00000,N,12110.73328,E,9.719,270.000,010720,0.000,E,A,V*67
$GPGGA,083805,3128.00000,N,12110.73012,E,3,11,0.77,-10.08,M,10.08,M,,*67
$GPRMC,083805,A,3128.00000,N,12110.73012,E,9.719,270.000,010720,0.000,E,A,V*6C
$GPGGA,083806,3128.00000,N,12110.72697,E,3,11,0.77,-10.08,M,10.08,M,,*6E
$GPRMC,083806,A,3128.00000,N,12110.72697,E,9.719,270.000,010720,0.000,E,A,V*65
$GPGGA,083807,3128.00000,N,12110.72381,E,3,11,0.77,-10.08,M,10.08,M,,*6D
$GPRMC,083807,A,3128.00000,N,12110.72381,E,9.719,270.000,010720,0.000,E,A,V*66
$GPGGA,083808,3128.00000,N,12110.72065,E,3,11,0.77,-10.08,M,10.08,M,,*6B
$GPRMC,083808,A,3128.00000,N,12110.72065,E,9.719,270.000,010720,0.000,E,A,V*60
$GPGGA,083809,3128.00000,N,12110.71750,E,3,11,0.77,-10.08,M,10.08,M,,*68
$GPRMC,083809,A,3128.00000,N,12110.71750,E,9.719,270.000,010720,0.000,E,A,V*63
$GPGGA,083810,3128.00000,N,12110.71434,E,3,11,0.77,-10.08,M,10.08,M,,*61
$GPRMC,083810,A,3128.00000,N,12110.71434,E,9.719,270.000,010720,0.000,E,A,V*6A
$GPGGA,083811,3128.00000,N,12110.71118,E,3,11,0.77,-10.08,M,10.08,M,,*6B
$GPRMC,083811,A,3128.00000,N,12110.71118,E,9.719,270.000,010720,0.000,E,A,V*60
$GPGGA,083812,3128.00000,N,12110.70803,E,3,11,0.77,-10.08,M,10.08,M,,*6A
$GPRMC,083812,A,3128.00000,N,12110.70803,E,9.719,270.000,010720,0.000,E,A,V*61
$GPGGA,083813,3128.00000,N,12110.70487,E,3,11,0.77,-10.08,M,10.08,M,,*6B
$GPRMC,083813,A,3128.00000,N,12110.70487,E,9.719,270.000,010720,0.000,E,A,V*60
$GPGGA,083814,3128.00000,N,12110.70171,E,3,11,0.77,-10.08,M,10.08,M,,*60
$GPRMC,083814,A,3128.00000,N,12110.70171,E,9.719,270.000,010720,0.000,E,A,V*6B
$GPGGA,083815,3128.00000,N,12110.69856,E,3,11,0.77,-10.08,M,10.08,M,,*65
$GPRMC,083815,A,3128.00000,N,12110.69856,E,9.719,270.000,010720,0.000,E,A,V*6E
$GPGGA,083816,3128.00000,N,12110.69540,E,3,11,0.77,-10.08,M,10.08,M,,*6C
$GPRMC,083816,A,3128.00000,N,12110.69540,E,9.719,270.000,010720,0.000,E,A,V*67
$GPGGA,083817,3128.00000,N,12110.69224,E,3,11,0.77,-10.08,M,10.08,M,,*68
$GPRMC,083817,A,3128.00000,N,12110.69224,E,9.719,270.000,010720,0.000,E,A,V*63
$GPGGA,083818,3128.00000,N,12110.68909,E,3,11,0.77,-10.08,M,10.08,M,,*62
$GPRMC,083818,A,3128.00000,N,12110.68909,E,9.719,270.000,010720,0.000,E,A,V*69
$GPGGA,083819,3128.00000,N,12110.68593,E,3,11,0.77,-10.08,M,10.08,M,,*6C
$GPRMC,083819,A,3128.00000,N,12110.68593,E,9.719,270.000,010720,0.000,E,A,V*67
$GPGGA,083820,3128.00000,N,12110.68277,E,3,11,0.77,-10.08,M,10.08,M,,*6B
$GPRMC,083820,A,3128.00000,N,12110.68277,E,9.719,270.000,010720,0.000,E,A,V*60
$GPGGA,083821,3128.00000,N,12110.67962,E,3,11,0.77,-10.08,M,10.08,M,,*6A
$GPRMC,083821,A,3128.00000,N,12110.67962,E,9.719,270.000,010720,0.000,E,A,V*61
$GPGGA,083822,3128.00000,N,12110.67646,E,3,11,0.77,-10.08,M,10.08,M,,*60
$GPRMC,083822,A,3128.00000,N,12110.67646,E,9.719,270.000,010720,0.000,E,A,V*6B
$GPGGA,083823,3128.00000,N,12110.67330,E,3,11,0.77,-10.08,M,10.08,M,,*65
$GPRMC,083823,A,3128.00000,N,12110.67330,E,9.719,270.000,010720,0.000,E,A,V*6E
$GPGGA,083824,3128.00000,N,12110.67015,E,3,11,0.77,-10.08,M,10.08,M,,*66
$GPRMC,083824,A,3128.00000,N,12110.67015,E,9.719,270.000,010720,0.000,E,A,V*6D
$GPGGA,083825,3128.00000,N,12110.66699,E,3,11,0.77,-10.08,M,10.08,M,,*64
$GPRMC,083825,A,3128.00000,N,12110.66699,E,9.719,270.000,010720,0.000,E,A,V*6F
$GPGGA,083826,3128.00000,N,12110.66383,E,3,11,0.77,-10.08,M,10.08,M,,*69
$GPRMC,083826,A,3128.00000,N,12110.66383,E,9.719,270.000,010720,0.000,E,A,V*62
$GPGGA,083827,3128.00000,N,12110.66068,E,3,11,0.77,-10.08,M,10.08,M,,*6E
$GPRMC,083827,A,3128.00000,N,12110.66068,E,9.719,270.000,010720,0.000,E,A,V*65
$GPGGA,083828,3128.00000,N,12110.65752,E,3,11,0.77,-10.08,M,10.08,M,,*6C
$GPRMC,083828,A,3128.00000,N,12110.65752,E,9.719,270.000,010720,0.000,E,A,V*67
$GPGGA,083829,3128.00000,N,12110.65436,E,3,11,0.77,-10.08,M,10.08,M,,*6C
$GPRMC,083829,A,3128.00000,N,12110.65436,E,9.719,270.000,010720,0.000,E,A,V*67
$GPGGA,083830,3128.00000,N,12110.65121,E,3,11,0.77,-10.08,M,10.08,M,,*67
$GPRMC,083830,A,3128.00000,N,12110.65121,E,9.719,270.000,010720,0.000,E,A,V*6C
$GPGGA,083831,3128.00000,N,12110.64805,E,3,11,0.77,-10.08,M,10.08,M,,*68
$GPRMC,083831,A,3128.00000,N,12110.64805,E,9.719,270.000,010720,0.000,E,A,V*63
$GPGGA,083832,3128.00000,N,12110.64489,E,3,11,0.77,-10.08,M,10.08,M,,*63
$GPRMC,083832,A,3128.00000,N,12110.64489,E,9.719,270.000,010720,0.000,E,A,V*68
$GPGGA,083833,3128.00000,N,12110.64174,E,3,11,0.77,-10.08,M,10.08,M,,*65
$GPRMC,083833,A,3128.00000,N,12110.64174,E,9.719,270.000,010720,0.000,E,A,V*6E
$GPGGA,083834,3128.00000,N,12110.63858,E,3,11,0.77,-10.08,M,10.08,M,,*62
$GPRMC,083834,A,3128.00000,N,12110.63858,E,9.719,270.000,010720,0.000,E,A,V*69
$GPGGA,083835,3128.00000,N,12110.63542,E,3,11,0.77,-10.08,M,10.08,M,,*65
$GPRMC,083835,A,3128.00000,N,12110.63542,E,9.719,270.000,010720,0.000,E,A,V*6E
$GPGGA,083836,3128.00000,N,12110.63227,E,3,11,0.77,-10.08,M,10.08,M,,*62
$GPRMC,083836,A,3128.00000,N,12110.63227,E,9.719,270.000,010720,0.000,E,A,V*69
$GPGGA,083837,3128.00000,N,12110.62911,E,3,11,0.77,-10.08,M,10.08,M,,*6C
$GPRMC,083837,A,3128.00000,N,12110.62911,E,9.719,270.000,010720,0.000,E,A,V*67
$GPGGA,083838,3128.00000,N,12110.62595,E,3,11,0.77,-10.07,M,10.07,M,,*63
$GPRMC,083838,A,3128.00000,N,12110.62595,E,9.719,270.000,010720,0.000,E,A,V*68
$GPGGA,083839,3128.00000,N,12110.62280,E,3,11,0.77,-10.07,M,10.07,M,,*61
$GPRMC,083839,A,3128.00000,N,12110.62280,E,9.719,270.000,010720,0.000,E,A,V*6A
$GPGGA,083840,3128.00000,N,12110.61964,E,3,11,0.77,-10.07,M,10.07,M,,*6D
$GPRMC,083840,A,3128.00000,N,12110.61964,E,9.719,270.000,010720,0.000,E,A,V*66
$GPGGA,083841,3128.00000,N,12110.61648,E,3,11,0.77,-10.07,M,10.07,M,,*6D
$GPRMC,083841,A,3128.00000,N,12110.61648,E,9.719,270.000,010720,0.000,E,A,V*66
$GPGGA,083842,3128.00000,N,12110.61333,E,3,11,0.77,-10.07,M,10.07,M,,*67
$GPRMC,083842,A,3128.00000,N,12110.61333,E,9.719,270.000,010720,0.000,E,A,V*6C
$GPGGA,083843,3128.00000,N,12110.61017,E,3,11,0.77,-10.07,M,10.07,M,,*63
$GPRMC,083843,A,3128.00000,N,12110.61017,E,9.719,270.000,010720,0.000,E,A,V*68
$GPGGA,083844,3128.00000,N,12110.60701,E,3,11,0.77,-10.07,M,10.07,M,,*65
$GPRMC,083844,A,3128.00000,N,12110.60701,E,9.719,270.000,010720,0.000,E,A,V*6E
$GPGGA,083845,3128.00000,N,12110.60386,E,3,11,0.77,-10.07,M,10.07,M,,*6F
$GPRMC,083845,A,3128.00000,N,12110.60386,E,9.719,270.000,010720,0.000,E,A,V*64
$GPGGA,083846,3128.00000,N,12110.60070,E,3,11,0.77,-10.07,M,10.07,M,,*66
$GPRMC,083846,A,3128.00000,N,12110.60070,E,9.719,270.000,010720,0.000,E,A,V*6D
$GPGGA,083847,3128.00000,N,12110.59754,E,3,11,0.77,-10.07,M,10.07,M,,*6C
$GPRMC,083847,A,3128.00000,N,12110.59754,E,9.719,270.000,010720,0.000,E,A,V*67
$GPGGA,083848,3128.00000,N,12110.59439,E,3,11,0.77,-10.07,M,10.07,M,,*6B
$GPRMC,083848,A,3128.00000,N,12110.59439,E,9.719,270.000,010720,0.000,E,A,V*60
$GPGGA,083849,3128.00000,N,12110.59123,E,3,11,0.77,-10.07,M,10.07,M,,*64
$GPRMC,083849,A,3128.00000,N,12110.59123,E,9.719,270.000,010720,0.000,E,A,V*6F
$GPGGA,083850,3128.00000,N,12110.58807,E,3,11,0.77,-10.07,M,10.07,M,,*62
$GPRMC,083850,A,3128.00000,N,12110.58807,E,9.719,270.000,010720,0.000,E,A,V*69
$GPGGA,083851,3128.00000,N,12110.58492,E,3,11,0.77,-10.07,M,10.07,M,,*63
$GPRMC,083851,A,3128.00000,N,12110.58492,E,9.719,270.000,010720,0.000,E,A,V*68
$GPGGA,083852,3128.00000,N,12110.58176,E,3,11,0.77,-10.07,M,10.07,M,,*6F
$GPRMC,083852,A,3128.00000,N,12110.58176,E,9.719,270.000,010720,0.000,E,A,V*64
$GPGGA,083853,3128.00000,N,12110.57860,E,3,11,0.77,-10.07,M,10.07,M,,*6F
$GPRMC,083853,A,3128.00000,N,12110.57860,E,9.719,270.000,010720,0.000,E,A,V*64
$GPGGA,083854,3128.00000,N,12110.57545,E,3,11,0.77,-10.07,M,10.07,M,,*62
$GPRMC,083854,A,3128.00000,N,12110.57545,E,9.719,270.000,010720,0.000,E,A,V*69
$GPGGA,083855,3128.00000,N,12110.57229,E,3,11,0.77,-10.07,M,10.07,M,,*6E
$GPRMC,083855,A,3128.00000,N,12110.57229,E,9.719,270.000,010720,0.000,E,A,V*65
$GPGGA,083856,3128.00000,N,12110.56913,E,3,11,0.77,-10.07,M,10.07,M,,*6E
$GPRMC,083856,A,3128.00000,N,12110.56913,E,9.719,270.000,010720,0.000,E,A,V*65
$GPGGA,083857,3128.00000,N,12110.56598,E,3,11,0.77,-10.07,M,10.07,M,,*60
$GPRMC,083857,A,3128.00000,N,12110.56598,E,9.719,270.000,010720,0.000,E,A,V*6B
$GPGGA,083858,3128.00000,N,12110.56282,E,3,11,0.77,-10.07,M,10.07,M,,*63
$GPRMC,083858,A,3128.00000,N,12110.56282,E,9.719,270.000,010720,0.000,E,A,V*68
$GPGGA,083859,3128.00000,N,12110.55966,E,3,11,0.77,-10.07,M,10.07,M,,*60
$GPRMC,083859,A,3128.00000,N,12110.55966,E,9.719,270.000,010720,0.000,E,A,V*6B
$GPGGA,083900,3128.00000,N,12110.55651,E,3,11,0.77,-10.07,M,10.07,M,,*66
$GPRMC,083900,A,3128.00000,N,12110.55651,E,9.719,270.000,010720,0.000,E,A,V*6D
$GPGGA,083901,3128.00000,N,12110.55335,E,3,11,0.77,-10.07,M,10.07,M,,*60
$GPRMC,083901,A,3128.00000,N,12110.55335,E,9.719,270.000,010720,0.000,E,A,V*6B
$GPGGA,083902,3128.00000,N,12110.55019,E,3,11,0.77,-10.07,M,10.07,M,,*6E
$GPRMC,083902,A,3128.00000,N,12110.55019,E,9.719,270.000,010720,0.000,E,A,V*65
$GPGGA,083903,3128.00000,N,12110.54704,E,3,11,0.77,-10.07,M,10.07,M,,*65
$GPRMC,083903,A,3128.00000,N,12110.54704,E,9.719,270.000,010720,0.000,E,A,V*6E
$GPGGA,083904,3128.00000,N,12110.54388,E,3,11,0.77,-10.07,M,10.07,M,,*62
$GPRMC,083904,A,3128.00000,N,12110.54388,E,9.719,270.000,010720,0.000,E,A,V*69
$GPGGA,083905,3128.00000,N,12110.54072,E,3,11,0.77,-10.07,M,10.07,M,,*65
$GPRMC,083905,A,3128.00000,N,12110.54072,E,9.719,270.000,010720,0.000,E,A,V*6E
$GPGGA,083906,3128.00000,N,12110.53757,E,3,11,0.77,-10.07,M,10.07,M,,*61
$GPRMC,083906,A,3128.00000,N,12110.53757,E,9.719,270.000,010720,0.000,E,A,V*6A
$GPGGA,083907,3128.00000,N,12110.53441,E,3,11,0.77,-10.07,M,10.07,M,,*64
$GPRMC,083907,A,3128.00000,N,12110.53441,E,9.719,270.000,010720,0.000,E,A,V*6F
$GPGGA,083908,3128.00000,N,12110.53125,E,3,11,0.77,-10.07,M,10.07,M,,*6C
$GPRMC,083908,A,3128.00000,N,12110.53125,E,9.719,270.000,010720,0.000,E,A,V*67
$GPGGA,083909,3128.00000,N,12110.52810,E,3,11,0.77,-10.07,M,10.07,M,,*63
$GPRMC,083909,A,3128.00000,N,12110.52810,E,9.719,270.000,010720,0.000,E,A,V*68
$GPGGA,083910,3128.00000,N,12110.52494,E,3,11,0.77,-10.07,M,10.07,M,,*6B
$GPRMC,083910,A,3128.00000,N,12110.52494,E,9.719,270.000,010720,0.000,E,A,V*60
$GPGGA,083911,3128.00000,N,12110.52178,E,3,11,0.77,-10.07,M,10.07,M,,*6D
$GPRMC,083911,A,3128.00000,N,12110.52178,E,9.719,270.000,010720,0.000,E,A,V*66
$GPGGA,083912,3128.00000,N,12110.51863,E,3,11,0.77,-10.07,M,10.07,M,,*6E
$GPRMC,083912,A,3128.00000,N,12110.51863,E,9.719,270.000,010720,0.000,E,A,V*65
$GPGGA,083913,3128.00000,N,12110.51547,E,3,11,0.77,-10.07,M,10.07,M,,*64
$GPRMC,083913,A,3128.00000,N,12110.51547,E,9.719,270.000,010720,0.000,E,A,V*6F
$GPGGA,083914,3128.00000,N,12110.51231,E,3,11,0.77,-10.07,M,10.07,M,,*65
$GPRMC,083914,A,3128.00000,N,12110.51231,E,9.719,270.000,010720,0.000,E,A,V*6E
$GPGGA,083915,3128.00000,N,12110.50916,E,3,11,0.77,-10.07,M,10.07,M,,*6B
$GPRMC,083915,A,3128.00000,N,12110.50916,E,9.719,270.000,010720,0.000,E,A,V*60
$GPGGA,083916,3128.00000,N,12110.50600,E,3,11,0.77,-10.07,M,10.07,M,,*60
$GPRMC,083916,A,3128.00000,N,12110.50600,E,9.719,270.000,010720,0.000,E,A,V*6B
$GPGGA,083917,3128.00000,N,12110.50284,E,3,11,0.77,-10.07,M,10.07,M,,*69
$GPRMC,083917,A,3128.00000,N,12110.50284,E,9.719,270.000,010720,0.000,E,A,V*62
$GPGGA,083918,3128.00000,N,12110.49969,E,3,11,0.77,-10.07,M,10.07,M,,*66
$GPRMC,083918,A,3128.00000,N,12110.49969,E,9.719,270.000,010720,0.000,E,A,V*6D
$GPGGA,083919,3128.00000,N,12110.49653,E,3,11,0.77,-10.07,M,10.07,M,,*61
$GPRMC,083919,A,3128.00000,N,12110.49653,E,9.719,270.000,010720,0.000,E,A,V*6A
$GPGGA,083920,3128.00000,N,12110.49337,E,3,11,0.77,-10.07,M,10.07,M,,*6C
$GPRMC,083920,A,3128.00000,N,12110.49337,E,9.719,270.000,010720,0.000,E,A,V*67
$GPGGA,083921,3128.00000,N,12110.49021,E,3,11,0.77,-10.07,M,10.07,M,,*69
$GPRMC,083921,A,3128.00000,N,12110.49021,E,9.719,270.000,010720,0.000,E,A,V*62
$GPGGA,083922,3128.00000,N,12110.48706,E,3,11,0.77,-10.07,M,10.07,M,,*69
$GPRMC,083922,A,3128.00000,N,12110.48706,E,9.719,270.000,010720,0.000,E,A,V*62
$GPGGA,083923,3128.00000,N,12110.48390,E,3,11,0.77,-10.07,M,10.07,M,,*63
$GPRMC,083923,A,3128.00000,N,12110.48390,E,9.719,270.000,010720,0.000,E,A,V*68
$GPGGA,083924,3128.00000,N,12110.48074,E,3,11,0.77,-10.07,M,10.07,M,,*6D
$GPRMC,083924,A,3128.00000,N,12110.48074,E,9.719,270.000,010720,0.000,E,A,V*66
$GPGGA,083925,3128.00000,N,12110.47759,E,3,11,0.77,-10.07,M,10.07,M,,*6B
$GPRMC,083925,A,3128.00000,N,12110.47759,E,9.719,270.000,010720,0.000,E,A,V*60
$GPGGA,083926,3128.00000,N,12110.47443,E,3,11,0.77,-10.07,M,10.07,M,,*60
$GPRMC,083926,A,3128.00000,N,12110.47443,E,9.719,270.000,010720,0.000,E,A,V*6B
$GPGGA,083927,3128.00000,N,12110.47127,E,3,11,0.77,-10.07,M,10.07,M,,*66
$GPRMC,083927,A,3128.00000,N,12110.47127,E,9.719,270.000,010720,0.000,E,A,V*6D
$GPGGA,083928,3128.00000,N,12110.46812,E,3,11,0.77,-10.07,M,10.07,M,,*67
$GPRMC,083928,A,3128.00000,N,12110.46812,E,9.719,270.000,010720,0.000,E,A,V*6C
$GPGGA,083929,3128.00000,N,12110.46496,E,3,11,0.77,-10.07,M,10.07,M,,*66
$GPRMC,083929,A,3128.00000,N,12110.46496,E,9.719,270.000,010720,0.000,E,A,V*6D
$GPGGA,083930,3128.00000,N,12110.46180,E,3,11,0.77,-10.07,M,10.07,M,,*6C
$GPRMC,083930,A,3128.00000,N,12110.46180,E,9.719,270.000,010720,0.000,E,A,V*67
$GPGGA,083931,3128.00000,N,12110.45865,E,3,11,0.77,-10.07,M,10.07,M,,*6C
$GPRMC,083931,A,3128.00000,N,12110.45865,E,9.719,270.000,010720,0.000,E,A,V*67
$GPGGA,083932,3128.00000,N,12110.45549,E,3,11,0.77,-10.07,M,10.07,M,,*6C
$GPRMC,083932,A,3128.00000,N,12110.45549,E,9.719,270.000,010720,0.000,E,A,V*67
$GPGGA,083933,3128.00000,N,12110.45233,E,3,11,0.77,-10.07,M,10.07,M,,*67
$GPRMC,083933,A,3128.00000,N,12110.45233,E,9.719,270.000,010720,0.000,E,A,V*6C
$GPGGA,083934,3128.00000,N,12110.44918,E,3,11,0.77,-10.07,M,10.07,M,,*63
$GPRMC,083934,A,3128.00000,N,12110.44918,E,9.719,270.000,010720,0.000,E,A,V*68
$GPGGA,083935,3128.00000,N,12110.44602,E,3,11,0.77,-10.07,M,10.07,M,,*66
$GPRMC,083935,A,3128.00000,N,12110.44602,E,9.719,270.000,010720,0.000,E,A,V*6D
$GPGGA,083936,3128.00000,N,12110.44286,E,3,11,0.77,-10.07,M,10.07,M,,*6D
$GPRMC,083936,A,3128.00000,N,12110.44286,E,9.719,270.000,010720,0.000,E,A,V*66
$GPGGA,083937,3128.00000,N,12110.43971,E,3,11,0.77,-10.07,M,10.07,M,,*68
$GPRMC,083937,A,3128.00000,N,12110.43971,E,9.719,270.000,010720,0.000,E,A,V*63
$GPGGA,083938,3128.00000,N,12110.43655,E,3,11,0.77,-10.07,M,10.07,M,,*6E
$GPRMC,083938,A,3128.00000,N,12110.43655,E,9.719,270.000,010720,0.000,E,A,V*65
$GPGGA,083939,3128.00000,N,12110.43339,E,3,11,0.77,-10.07,M,10.07,M,,*60
$GPRMC,083939,A,3128.00000,N,12110.43339,E,9.719,270.000,010720,0.000,E,A,V*6B
$GPGGA,083940,3128.00000,N,12110.43024,E,3,11,0.77,-10.06,M,10.06,M,,*61
$GPRMC,083940,A,3128.00000,N,12110.43024,E,9.719,270.000,010720,0.000,E,A,V*6A
$GPGGA,083941,3128.00000,N,12110.42708,E,3,11,0.77,-10.06,M,10.06,M,,*68
$GPRMC,083941,A,3128.00000,N,12110.42708,E,9.719,270.000,010720,0.000,E,A,V*63
$GPGGA,083942,3128.00000,N,12110.42392,E,3,11,0.77,-10.06,M,10.06,M,,*6C
$GPRMC,083942,A,3128.00000,N,12110.42392,E,9.719,270.000,010720,0.000,E,A,V*67
$GPGGA,083943,3128.00000,N,12110.42077,E,3,11,0.77,-10.06,M,10.06,M,,*65
$GPRMC,083943,A,3128.00000,N,12110.42077,E,9.719,270.000,010720,0.000,E,A,V*6E
$GPGGA,083944,3128.00000,N,12110.41761,E,3,11,0.77,-10.06,M,10.06,M,,*61
$GPRMC,083944,A,3128.00000,N,12110.41761,E,9.719,270.000,010720,0.000,E,A,V*6A
$GPGGA,083945,3128.00000,N,12110.41445,E,3,11,0.77,-10.06,M,10.06,M,,*65
$GPRMC,083945,A,3128.00000,N,12110.41445,E,9.719,270.000,010720,0.000,E,A,V*6E
$GPGGA,083946,3128.00000,N,12110.41130,E,3,11,0.77,-10.06,M,10.06,M,,*61
$GPRMC,083946,A,3128.00000,N,12110.41130,E,9.719,270.000,010720,0.000,E,A,V*6A
$GPGGA,083947,3128.00000,N,12110.40814,E,3,11,0.77,-10.06,M,10.06,M,,*6E
$GPRMC,083947,A,3128.00000,N,12110.40814,E,9.719,270.000,010720,0.000,E,A,V*65
$GPGGA,083948,3128.00000,N,12110.40498,E,3,11,0.77,-10.06,M,10.06,M,,*69
$GPRMC,083948,A,3128.00000,N,12110.40498,E,9.719,270.000,010720,0.000,E,A,V*62
$GPGGA,083949,3128.00000,N,12110.40183,E,3,11,0.77,-10.06,M,10.06,M,,*67
$GPRMC,083949,A,3128.00000,N,12110.40183,E,9.719,270.000,010720,0.000,E,A,V*6C
$GPGGA,083950,3128.00000,N,12110.39867,E,3,11,0.77,-10.06,M,10.06,M,,*62
$GPRMC,083950,A,3128.00000,N,12110.39867,E,9.719,270.000,010720,0.000,E,A,V*69
$GPGGA,083951,3128.00000,N,12110.39551,E,3,11,0.77,-10.06,M,10.06,M,,*6B
$GPRMC,083951,A,3128.00000,N,12110.39551,E,9.719,270.000,010720,0.000,E,A,V*60
$GPGGA,083952,3128.00000,N,12110.39236,E,3,11,0.77,-10.06,M,10.06,M,,*6E
$GPRMC,083952,A,3128.00000,N,12110.39236,E,9.719,270.000,010720,0.000,E,A,V*65
$GPGGA,083953,3128.00000,N,12110.38920,E,3,11,0.77,-10.06,M,10.06,M,,*62
$GPRMC,083953,A,3128.00000,N,12110.38920,E,9.719,270.000,010720,0.000,E,A,V*69
$GPGGA,083954,3128.00000,N,12110.38604,E,3,11,0.77,-10.06,M,10.06,M,,*6C
$GPRMC,083954,A,3128.00000,N,12110.38604,E,9.719,270.000,010720,0.000,E,A,V*67
$GPGGA,083955,3128.00000,N,12110.38289,E,3,11,0.77,-10.06,M,10.06,M,,*6C
$GPRMC,083955,A,3128.00000,N,12110.38289,E,9.719,270.000,010720,0.000,E,A,V*67
$GPGGA,083956,3128.00000,N,12110.37973,E,3,11,0.77,-10.06,M,10.06,M,,*6E
$GPRMC,083956,A,3128.00000,N,12110.37973,E,9.719,270.000,010720,0.000,E,A,V*65
$GPGGA,083957,3128.00000,N,12110.37657,E,3,11,0.77,-10.06,M,10.06,M,,*66
$GPRMC,083957,A,3128.00000,N,12110.37657,E,9.719,270.000,010720,0.000,E,A,V*6D
$GPGGA,083958,3128.00000,N,12110.37342,E,3,11,0.77,-10.06,M,10.06,M,,*68
$GPRMC,083958,A,3128.00000,N,12110.37342,E,9.719,270.000,010720,0.000,E,A,V*63
$GPGGA,083959,3128.00000,N,12110.37026,E,3,11,0.77,-10.06,M,10.06,M,,*68
$GPRMC,083959,A,3128.00000,N,12110.37026,E,9.719,270.000,010720,0.000,E,A,V*63
$GPGGA,084000,3128.00000,N,12110.36710,E,3,11,0.77,-10.06,M,10.06,M,,*69
$GPRMC,084000,A,3128.00000,N,12110.36710,E,9.719,270.000,010720,0.000,E,A,V*62
$GPGGA,084001,3128.00000,N,12110.36395,E,3,11,0.77,-10.06,M,10.06,M,,*61
$GPRMC,084001,A,3128.00000,N,12110.36395,E,9.719,270.000,010720,0.000,E,A,V*6A
$GPGGA,084002,3128.00000,N,12110.36079,E,3,11,0.77,-10.06,M,10.06,M,,*63
$GPRMC,084002,A,3128.00000,N,12110.36079,E,9.719,270.000,010720,0.000,E,A,V*68
$GPGGA,084003,3128.00000,N,12110.35763,E,3,11,0.77,-10.06,M,10.06,M,,*6D
$GPRMC,084003,A,3128.00000,N,12110.35763,E,9.719,270.000,010720,0.000,E,A,V*66
$GPGGA,084004,3128.00000,N,12110.35448,E,3,11,0.77,-10.06,M,10.06,M,,*60
$GPRMC,084004,A,3128.00000,N,12110.35448,E,9.719,270.000,010720,0.000,E,A,V*6B
$GPGGA,084005,3128.00000,N,12110.35132,E,3,11,0.77,-10.06,M,10.06,M,,*69
$GPRMC,084005,A,3128.00000,N,12110.35132,E,9.719,270.000,010720,0.000,E,A,V*62
$GPGGA,084006,3128.00000,N,12110.34816,E,3,11,0.77,-10.06,M,10.06,M,,*64
$GPRMC,084006,A,3128.00000,N,12110.34816,E,9.719,270.000,010720,0.000,E,A,V*6F
$GPGGA,084007,3128.00000,N,12110.34501,E,3,11,0.77,-10.06,M,10.06,M,,*6E
$GPRMC,084007,A,3128.00000,N,12110.34501,E,9.719,270.000,010720,0.000,E,A,V*65
$GPGGA,084008,3128.00000,N,12110.34185,E,3,11,0.77,-10.06,M,10.06,M,,*69
$GPRMC,084008,A,3128.00000,N,12110.34185,E,9.719,270.000,010720,0.000,E,A,V*62
$GPGGA,084009,3128.00000,N,12110.33869,E,3,11,0.77,-10.06,M,10.06,M,,*64
$GPRMC,084009,A,3128.00000,N,12110.33869,E,9.719,270.000,010720,0.000,E,A,V*6F
$GPGGA,084010,3128.00000,N,12110.33554,E,3,11,0.77,-10.06,M,10.06,M,,*6F
$GPRMC,084010,A,3128.00000,N,12110.33554,E,9.719,270.000,010720,0.000,E,A,V*64
$GPGGA,084011,3128.00000,N,12110.33238,E,3,11,0.77,-10.06,M,10.06,M,,*63
$GPRMC,084011,A,3128.00000,N,12110.33238,E,9.719,270.000,010720,0.000,E,A,V*68
$GPGGA,084012,3128.00000,N,12110.32922,E,3,11,0.77,-10.06,M,10.06,M,,*61
$GPRMC,084012,A,3128.00000,N,12110.32922,E,9.719,270.000,010720,0.000,E,A,V*6A
$GPGGA,084013,3128.00000,N,12110.32607,E,3,11,0.77,-10.06,M,10.06,M,,*68
$GPRMC,084013,A,3128.00000,N,12110.32607,E,9.719,270.000,010720,0.000,E,A,V*63
$GPGGA,084014,3128.00000,N,12110.32291,E,3,11,0.77,-10.06,M,10.06,M,,*64
$GPRMC,084014,A,3128.00000,N,12110.32291,E,9.719,270.000,010720,0.000,E,A,V*6F
$GPGGA,084015,3128.00000,N,12110.31975,E,3,11,0.77,-10.06,M,10.06,M,,*67
$GPRMC,084015,A,3128.00000,N,12110.31975,E,9.719,270.000,010720,0.000,E,A,V*6C
$GPGGA,084016,3128.00000,N,12110.31660,E,3,11,0.77,-10.06,M,10.06,M,,*6F
$GPRMC,084016,A,3128.00000,N,12110.31660,E,9.719,270.000,010720,0.000,E,A,V*64
$GPGGA,084017,3128.00000,N,12110.31344,E,3,11,0.77,-10.06,M,10.06,M,,*6D
$GPRMC,084017,A,3128.00000,N,12110.31344,E,9.719,270.000,010720,0.000,E,A,V*66
$GPGGA,084018,3128.00000,N,12110.31028,E,3,11,0.77,-10.06,M,10.06,M,,*6B
$GPRMC,084018,A,3128.00000,N,12110.31028,E,9.719,270.000,010720,0.000,E,A,V*60
$GPGGA,084019,3128.00000,N,12110.30713,E,3,11,0.77,-10.06,M,10.06,M,,*64
$GPRMC,084019,A,3128.00000,N,12110.30713,E,9.719,270.000,010720,0.000,E,A,V*6F
$GPGGA,084020,3128.00000,N,12110.30397,E,3,11,0.77,-10.06,M,10.06,M,,*66
$GPRMC,084020,A,3128.00000,N,12110.30397,E,9.719,270.000,010720,0.000,E,A,V*6D
$GPGGA,084021,3128.00000,N,12110.30081,E,3,11,0.77,-10.06,M,10.06,M,,*63
$GPRMC,084021,A,3128.00000,N,12110.30081,E,9.719,270.000,010720,0.000,E,A,V*68
$GPGGA,084022,3128.00000,N,12110.29766,E,3,11,0.77,-10.06,M,10.06,M,,*66
$GPRMC,084022,A,3128.00000,N,12110.29766,E,9.719,270.000,010720,0.000,E,A,V*6D
$GPGGA,084023,3128.00000,N,12110.29450,E,3,11,0.77,-10.06,M,10.06,M,,*61
$GPRMC,084023,A,3128.00000,N,12110.29450,E,9.719,270.000,010720,0.000,E,A,V*6A
$GPGGA,084024,3128.00000,N,12110.29134,E,3,11,0.77,-10.06,M,10.06,M,,*61
$GPRMC,084024,A,3128.00000,N,12110.29134,E,9.719,270.000,010720,0.000,E,A,V*6A
$GPGGA,084025,3128.00000,N,12110.28819,E,3,11,0.77,-10.06,M,10.06,M,,*67
$GPRMC,084025,A,3128.00000,N,12110.28819,E,9.719,270.000,010720,0.000,E,A,V*6C
$GPGGA,084026,3128.00000,N,12110.28503,E,3,11,0.77,-10.06,M,10.06,M,,*62
$GPRMC,084026,A,3128.00000,N,12110.28503,E,9.719,270.000,010720,0.000,E,A,V*69
$GPGGA,084027,3128.00000,N,12110.28187,E,3,11,0.77,-10.06,M,10.06,M,,*6B
$GPRMC,084027,A,3128.00000,N,12110.28187,E,9.719,270.000,010720,0.000,E,A,V*60
$GPGGA,084028,3128.00000,N,12110.27872,E,3,11,0.77,-10.06,M,10.06,M,,*68
$GPRMC,084028,A,3128.00000,N,12110.27872,E,9.719,270.000,010720,0.000,E,A,V*63
$GPGGA,084029,3128.00000,N,12110.27556,E,3,11,0.77,-10.06,M,10.06,M,,*62
$GPRMC,084029,A,3128.00000,N,12110.27556,E,9.719,270.000,010720,0.000,E,A,V*69
$GPGGA,084030,3128.00000,N,12110.27240,E,3,11,0.77,-10.06,M,10.06,M,,*6A
$GPRMC,084030,A,3128.00000,N,12110.27240,E,9.719,270.000,010720,0.000,E,A,V*61
$GPGGA,084031,3128.00000,N,12110.26925,E,3,11,0.77,-10.06,M,10.06,M,,*62
$GPRMC,084031,A,3128.00000,N,12110.26925,E,9.719,270.000,010720,0.000,E,A,V*69
$GPGGA,084032,3128.00000,N,12110.26609,E,3,11,0.77,-10.06,M,10.06,M,,*60
$GPRMC,084032,A,3128.00000,N,12110.26609,E,9.719,270.000,010720,0.000,E,A,V*6B
$GPGGA,084033,3128.00000,N,12110.26293,E,3,11,0.77,-10.06,M,10.06,M,,*66
$GPRMC,084033,A,3128.00000,N,12110.26293,E,9.719,270.000,010720,0.000,E,A,V*6D
$GPGGA,084034,3128.00000,N,12110.25978,E,3,11,0.77,-10.06,M,10.06,M,,*6C
$GPRMC,084034,A,3128.00000,N,12110.25978,E,9.719,270.000,010720,0.000,E,A,V*67
$GPGGA,084035,3128.00000,N,12110.25662,E,3,11,0.77,-10.06,M,10.06,M,,*69
$GPRMC,084035,A,3128.00000,N,12110.25662,E,9.719,270.000,010720,0.000,E,A,V*62
$GPGGA,084036,3128.00000,N,12110.25346,E,3,11,0.77,-10.06,M,10.06,M,,*69
$GPRMC,084036,A,3128.00000,N,12110.25346,E,9.719,270.000,010720,0.000,E,A,V*62
$GPGGA,084037,3128.00000,N,12110.25031,E,3,11,0.77,-10.06,M,10.06,M,,*6B
$GPRMC,084037,A,3128.00000,N,12110.25031,E,9.719,270.000,010720,0.000,E,A,V*60
$GPGGA,084038,3128.00000,N,12110.24715,E,3,11,0.77,-10.06,M,10.06,M,,*64
$GPRMC,084038,A,3128.00000,N,12110.24715,E,9.719,270.000,010720,0.000,E,A,V*6F
$GPGGA,084039,3128.00000,N,12110.24399,E,3,11,0.77,-10.06,M,10.06,M,,*65
$GPRMC,084039,A,3128.00000,N,12110.24399,E,9.719,270.000,010720,0.000,E,A,V*6E
$GPGGA,084040,3128.00000,N,12110.24084,E,3,11,0.77,-10.06,M,10.06,M,,*64
$GPRMC,084040,A,3128.00000,N,12110.24084,E,9.719,270.000,010720,0.000,E,A,V*6F
$GPGGA,084041,3128.00000,N,12110.23768,E,3,11,0.77,-10.06,M,10.06,M,,*67
$GPRMC,084041,A,3128.00000,N,12110.23768,E,9.719,270.000,010720,0.000,E,A,V*6C
$GPGGA,084042,3128.00000,N,12110.23452,E,3,11,0.77,-10.06,M,10.06,M,,*6E
$GPRMC,084042,A,3128.00000,N,12110.23452,E,9.719,270.000,010720,0.000,E,A,V*65
$GPGGA,084043,3128.00000,N,12110.23137,E,3,11,0.77,-10.05,M,10.05,M,,*69
$GPRMC,084043,A,3128.00000,N,12110.23137,E,9.719,270.000,010720,0.000,E,A,V*62
$GPGGA,084044,3128.00000,N,12110.22821,E,3,11,0.77,-10.05,M,10.05,M,,*61
$GPRMC,084044,A,3128.00000,N,12110.22821,E,9.719,270.000,010720,0.000,E,A,V*6A
$GPGGA,084045,3128.00000,N,12110.22505,E,3,11,0.77,-10.05,M,10.05,M,,*6B
$GPRMC,084045,A,3128.00000,N,12110.22505,E,9.719,270.000,010720,0.000,E,A,V*60
$GPGGA,084046,3128.00000,N,12110.22190,E,3,10,0.86,-10.05,M,10.05,M,,*6F
$GPRMC,084046,A,3128.00000,N,12110.22190,E,9.719,270.000,010720,0.000,E,A,V*6B
$GPGGA,084047,3128.00000,N,12110.21874,E,3,10,0.86,-10.05,M,10.05,M,,*6E
$GPRMC,084047,A,3128.00000,N,12110.21874,E,9.719,270.000,010720,0.000,E,A,V*6A
$GPGGA,084048,3128.00000,N,12110.21558,E,3,10,0.86,-10.05,M,10.05,M,,*62
$GPRMC,084048,A,3128.00000,N,12110.21558,E,9.719,270.000,010720,0.000,E,A,V*66
$GPGGA,084049,3128.00000,N,12110.21243,E,3,10,0.86,-10.05,M,10.05,M,,*6E
$GPRMC,084049,A,3128.00000,N,12110.21243,E,9.719,270.000,010720,0.000,E,A,V*6A
$GPGGA,084050,3128.00000,N,12110.20927,E,3,10,0.86,-10.05,M,10.05,M,,*6E
$GPRMC,084050,A,3128.00000,N,12110.20927,E,9.719,270.000,010720,0.000,E,A,V*6A
$GPGGA,084051,3128.00000,N,12110.20611,E,3,10,0.86,-10.05,M,10.05,M,,*65
$GPRMC,084051,A,3128.00000,N,12110.20611,E,9.719,270.000,010720,0.000,E,A,V*61
$GPGGA,084052,3128.00000,N,12110.20296,E,3,10,0.86,-10.05,M,10.05,M,,*6D
$GPRMC,084052,A,3128.00000,N,12110.20296,E,9.719,270.000,010720,0.000,E,A,V*69
$GPGGA,084053,3128.00000,N,12110.19980,E,3,10,0.86,-10.05,M,10.05,M,,*6A
$GPRMC,084053,A,3128.00000,N,12110.19980,E,9.719,270.000,010720,0.000,E,A,V*6E
$GPGGA,084054,3128.00000,N,12110.19664,E,3,10,0.86,-10.05,M,10.05,M,,*68
$GPRMC,084054,A,3128.00000,N,12110.19664,E,9.719,270.000,010720,0.000,E,A,V*6C
$GPGGA,084055,3128.00000,N,12110.19349,E,3,10,0.86,-10.05,M,10.05,M,,*63
$GPRMC,084055,A,3128.00000,N,12110.19349,E,9.719,270.000,010720,0.000,E,A,V*67
$GPGGA,084056,3128.00000,N,12110.19033,E,3,10,0.86,-10.05,M,10.05,M,,*6E
$GPRMC,084056,A,3128.00000,N,12110.19033,E,9.719,270.000,010720,0.000,E,A,V*6A
$GPGGA,084057,3128.00000,N,12110.18717,E,3,10,0.86,-10.05,M,10.05,M,,*6F
$GPRMC,084057,A,3128.00000,N,12110.18717,E,9.719,270.000,010720,0.000,E,A,V*6B
$GPGGA,084058,3128.00000,N,12110.18402,E,3,10,0.86,-10.05,M,10.05,M,,*67
$GPRMC,084058,A,3128.00000,N,12110.18402,E,9.719,270.000,010720,0.000,E,A,V*63
$GPGGA,084059,3128.00000,N,12110.18086,E,3,10,0.86,-10.05,M,10.05,M,,*6E
$GPRMC,084059,A,3128.00000,N,12110.18086,E,9.719,270.000,010720,0.000,E,A,V*6A
$GPGGA,084100,3128.00000,N,12110.17770,E,3,10,0.86,-10.05,M,10.05,M,,*62
$GPRMC,084100,A,3128.00000,N,12110.17770,E,9.719,270.000,010720,0.000,E,A,V*66
$GPGGA,084101,3128.00000,N,12110.17455,E,3,10,0.86,-10.05,M,10.05,M,,*67
$GPRMC,084101,A,3128.00000,N,12110.17455,E,9.719,270.000,010720,0.000,E,A,V*63
$GPGGA,084102,3128.00000,N,12110.17139,E,3,10,0.86,-10.05,M,10.05,M,,*6B
$GPRMC,084102,A,3128.00000,N,12110.17139,E,9.719,270.000,010720,0.000,E,A,V*6F
$GPGGA,084103,3128.00000,N,12110.16823,E,3,10,0.86,-10.05,M,10.05,M,,*69
$GPRMC,084103,A,3128.00000,N,12110.16823,E,9.719,270.000,010720,0.000,E,A,V*6D
$GPGGA,084104,3128.00000,N,12110.16508,E,3,10,0.86,-10.05,M,10.05,M,,*6A
$GPRMC,084104,A,3128.00000,N,12110.16508,E,9.719,270.000,010720,0.000,E,A,V*6E
$GPGGA,084105,3128.00000,N,12110.16192,E,3,10,0.86,-10.05,M,10.05,M,,*6C
$GPRMC,084105,A,3128.00000,N,12110.16192,E,9.719,270.000,010720,0.000,E,A,V*68
$GPGGA,084106,3128.00000,N,12110.15876,E,3,10,0.86,-10.05,M,10.05,M,,*6F
$GPRMC,084106,A,3128.00000,N,12110.15876,E,9.719,270.000,010720,0.000,E,A,V*6B
$GPGGA,084107,3128.00000,N,12110.15560,E,3,10,0.86,-10.05,M,10.05,M,,*64
$GPRMC,084107,A,3128.00000,N,12110.15560,E,9.719,270.000,010720,0.000,E,A,V*60
$GPGGA,084108,3128.00000,N,12110.15245,E,3,10,0.86,-10.05,M,10.05,M,,*6B
$GPRMC,084108,A,3128.00000,N,12110.15245,E,9.719,270.000,010720,0.000,E,A,V*6F
$GPGGA,084109,3128.00000,N,12110.14929,E,3,10,0.86,-10.05,M,10.05,M,,*6A
$GPRMC,084109,A,3128.00000,N,12110.14929,E,9.719,270.000,010720,0.000,E,A,V*6E
$GPGGA,084110,3128.00000,N,12110.14613,E,3,10,0.86,-10.05,M,10.05,M,,*64
$GPRMC,084110,A,3128.00000,N,12110.14613,E,9.719,270.000,010720,0.000,E,A,V*60
$GPGGA,084111,3128.00000,N,12110.14298,E,3,10,0.86,-10.05,M,10.05,M,,*62
$GPRMC,084111,A,3128.00000,N,12110.14298,E,9.719,270.000,010720,0.000,E,A,V*66
$GPGGA,084112,3128.00000,N,12110.13982,E,3,10,0.86,-10.05,M,10.05,M,,*66
$GPRMC,084112,A,3128.00000,N,12110.13982,E,9.719,270.000,010720,0.000,E,A,V*62
$GPGGA,084113,3128.00000,N,12110.13666,E,3,10,0.86,-10.05,M,10.05,M,,*62
$GPRMC,084113,A,3128.00000,N,12110.13666,E,9.719,270.000,010720,0.000,E,A,V*66
$GPGGA,084114,3128.00000,N,12110.13351,E,3,10,0.86,-10.05,M,10.05,M,,*64
$GPRMC,084114,A,3128.00000,N,12110.13351,E,9.719,270.000,010720,0.000,E,A,V*60
$GPGGA,084115,3128.00000,N,12110.13035,E,3,10,0.86,-10.05,M,10.05,M,,*64
$GPRMC,084115,A,3128.00000,N,12110.13035,E,9.719,270.000,010720,0.000,E,A,V*60
$GPGGA,084116,3128.00000,N,12110.12719,E,3,10,0.86,-10.05,M,10.05,M,,*6F
$GPRMC,084116,A,3128.00000,N,12110.12719,E,9.719,270.000,010720,0.000,E,A,V*6B
$GPGGA,084117,3128.00000,N,12110.12404,E,3,10,0.86,-10.05,M,10.05,M,,*61
$GPRMC,084117,A,3128.00000,N,12110.12404,E,9.719,270.000,010720,0.000,E,A,V*65
$GPGGA,084118,3128.00000,N,12110.12088,E,3,10,0.86,-10.05,M,10.05,M,,*6E
$GPRMC,084118,A,3128.00000,N,12110.12088,E,9.719,270.000,010720,0.000,E,A,V*6A
$GPGGA,084119,3128.00000,N,12110.11772,E,3,10,0.86,-10.05,M,10.05,M,,*6E
$GPRMC,084119,A,3128.00000,N,12110.11772,E,9.719,270.000,010720,0.000,E,A,V*6A
$GPGGA,084120,3128.00000,N,12110.11457,E,3,10,0.86,-10.05,M,10.05,M,,*60
$GPRMC,084120,A,3128.00000,N,12110.11457,E,9.719,270.000,010720,0.000,E,A,V*64
$GPGGA,084121,3128.00000,N,12110.11141,E,3,10,0.86,-10.05,M,10.05,M,,*63
$GPRMC,084121,A,3128.00000,N,12110.11141,E,9.719,270.000,010720,0.000,E,A,V*67
$GPGGA,084122,3128.00000,N,12110.10825,E,3,10,0.86,-10.05,M,10.05,M,,*6A
$GPRMC,084122,A,3128.00000,N,12110.10825,E,9.719,270.000,010720,0.000,E,A,V*6E
$GPGGA,084123,3128.00000,N,12110.10510,E,3,10,0.86,-10.05,M,10.05,M,,*60
$GPRMC,084123,A,3128.00000,N,12110.10510,E,9.719,270.000,010720,0.000,E,A,V*64
$GPGGA,084124,3128.00000,N,12110.10194,E,3,10,0.86,-10.05,M,10.05,M,,*6F
$GPRMC,084124,A,3128.00000,N,12110.10194,E,9.719,270.000,010720,0.000,E,A,V*6B
$GPGGA,084125,3128.00000,N,12110.09878,E,3,10,0.86,-10.05,M,10.05,M,,*6D
$GPRMC,084125,A,3128.00000,N,12110.09878,E,9.719,270.000,010720,0.000,E,A,V*69
$GPGGA,084126,3128.00000,N,12110.09563,E,3,10,0.86,-10.05,M,10.05,M,,*69
$GPRMC,084126,A,3128.00000,N,12110.09563,E,9.719,270.000,010720,0.000,E,A,V*6D
$GPGGA,084127,3128.00000,N,12110.09247,E,3,10,0.86,-10.05,M,10.05,M,,*69
$GPRMC,084127,A,3128.00000,N,12110.09247,E,9.719,270.000,010720,0.000,E,A,V*6D
$GPGGA,084128,3128.00000,N,12110.08931,E,3,10,0.86,-10.05,M,10.05,M,,*6D
$GPRMC,084128,A,3128.00000,N,12110.08931,E,9.719,270.000,010720,0.000,E,A,V*69
$GPGGA,084129,3128.00000,N,12110.08616,E,3,10,0.86,-10.05,M,10.05,M,,*66
$GPRMC,084129,A,3128.00000,N,12110.08616,E,9.719,270.000,010720,0.000,E,A,V*62
$GPGGA,084130,3128.00000,N,12110.08300,E,3,10,0.86,-10.05,M,10.05,M,,*6C
$GPRMC,084130,A,3128.00000,N,12110.08300,E,9.719,270.000,010720,0.000,E,A,V*68
$GPGGA,084131,3128.00000,N,12110.07984,E,3,10,0.86,-10.05,M,10.05,M,,*64
$GPRMC,084131,A,3128.00000,N,12110.07984,E,9.719,270.000,010720,0.000,E,A,V*60
$GPGGA,084132,3128.00000,N,12110.07669,E,3,10,0.86,-10.05,M,10.05,M,,*6B
$GPRMC,084132,A,3128.00000,N,12110.07669,E,9.719,270.000,010720,0.000,E,A,V*6F
$GPGGA,084133,3128.00000,N,12110.07353,E,3,10,0.86,-10.05,M,10.05,M,,*66
$GPRMC,084133,A,3128.00000,N,12110.07353,E,9.719,270.000,010720,0.000,E,A,V*62
$GPGGA,084134,3128.00000,N,12110.07037,E,3,09,0.95,-10.05,M,10.05,M,,*6A
$GPRMC,084134,A,3128.00000,N,12110.07037,E,9.719,270.000,010720,0.000,E,A,V*64
$GPGGA,084135,3128.00000,N,12110.06722,E,3,09,0.95,-10.05,M,10.05,M,,*69
$GPRMC,084135,A,3128.00000,N,12110.06722,E,9.719,270.000,010720,0.000,E,A,V*67
$GPGGA,084136,3128.00000,N,12110.06406,E,3,09,0.95,-10.05,M,10.05,M,,*6F
$GPRMC,084136,A,3128.00000,N,12110.06406,E,9.719,270.000,010720,0.000,E,A,V*61
$GPGGA,084137,3128.00000,N,12110.06090,E,3,09,0.95,-10.05,M,10.05,M,,*65
$GPRMC,084137,A,3128.00000,N,12110.06090,E,9.719,270.000,010720,0.000,E,A,V*6B
$GPGGA,084138,3128.00000,N,12110.05775,E,3,09,0.95,-10.05,M,10.05,M,,*65
$GPRMC,084138,A,3128.00000,N,12110.05775,E,9.719,270.000,010720,0.000,E,A,V*6B
$GPGGA,084139,3128.00000,N,12110.05459,E,3,09,0.95,-10.05,M,10.05,M,,*69
$GPRMC,084139,A,3128.00000,N,12110.05459,E,9.719,270.000,010720,0.000,E,A,V*67
$GPGGA,084140,3128.00000,N,12110.05143,E,3,10,0.86,-10.05,M,10.05,M,,*63
$GPRMC,084140,A,3128.00000,N,12110.05143,E,9.719,270.000,010720,0.000,E,A,V*67
$GPGGA,084141,3128.00000,N,12110.04828,E,3,10,0.86,-10.05,M,10.05,M,,*67
$GPRMC,084141,A,3128.00000,N,12110.04828,E,9.719,270.000,010720,0.000,E,A,V*63
$GPGGA,084142,3128.00000,N,12110.04512,E,3,10,0.86,-10.05,M,10.05,M,,*60
$GPRMC,084142,A,3128.00000,N,12110.04512,E,9.719,270.000,010720,0.000,E,A,V*64
$GPGGA,084143,3128.00000,N,12110.04196,E,3,10,0.86,-10.05,M,10.05,M,,*69
$GPRMC,084143,A,3128.00000,N,12110.04196,E,9.719,270.000,010720,0.000,E,A,V*6D
$GPGGA,084144,3128.00000,N,12110.03881,E,3,10,0.86,-10.05,M,10.05,M,,*66
$GPRMC,084144,A,3128.00000,N,12110.03881,E,9.719,270.000,010720,0.000,E,A,V*62
$GPGGA,084145,3128.00000,N,12110.03565,E,3,10,0.86,-10.05,M,10.05,M,,*60
$GPRMC,084145,A,3128.00000,N,12110.03565,E,9.719,270.000,010720,0.000,E,A,V*64
$GPGGA,084146,3128.00000,N,12110.03249,E,3,10,0.86,-10.05,M,10.05,M,,*6A
$GPRMC,084146,A,3128.00000,N,12110.03249,E,9.719,270.000,010720,0.000,E,A,V*6E
$GPGGA,084147,3128.00000,N,12110.02934,E,3,10,0.86,-10.04,M,10.04,M,,*6B
$GPRMC,084147,A,3128.00000,N,12110.02934,E,9.719,270.000,010720,0.000,E,A,V*6F
$GPGGA,084148,3128.00000,N,12110.02618,E,3,10,0.86,-10.04,M,10.04,M,,*65
$GPRMC,084148,A,3128.00000,N,12110.02618,E,9.719,270.000,010720,0.000,E,A,V*61
$GPGGA,084149,3128.00000,N,12110.02302,E,3,10,0.86,-10.04,M,10.04,M,,*6A
$GPRMC,084149,A,3128.00000,N,12110.02302,E,9.719,270.000,010720,0.000,E,A,V*6E
$GPGGA,084150,3128.00000,N,12110.01987,E,3,10,0.86,-10.04,M,10.04,M,,*66
$GPRMC,084150,A,3128.00000,N,12110.01987,E,9.719,270.000,010720,0.000,E,A,V*62
$GPGGA,084151,3128.00000,N,12110.01671,E,3,10,0.86,-10.04,M,10.04,M,,*61
$GPRMC,084151,A,3128.00000,N,12110.01671,E,9.719,270.000,010720,0.000,E,A,V*65
$GPGGA,084152,3128.00000,N,12110.01355,E,3,10,0.86,-10.04,M,10.04,M,,*61
$GPRMC,084152,A,3128.00000,N,12110.01355,E,9.719,270.000,010720,0.000,E,A,V*65
$GPGGA,084153,3128.00000,N,12110.01040,E,3,10,0.86,-10.04,M,10.04,M,,*67
$GPRMC,084153,A,3128.00000,N,12110.01040,E,9.719,270.000,010720,0.000,E,A,V*63
$GPGGA,084154,3128.00000,N,12110.00724,E,3,10,0.86,-10.04,M,10.04,M,,*64
$GPRMC,084154,A,3128.00000,N,12110.00724,E,9.719,270.000,010720,0.000,E,A,V*60
$GPGGA,084155,3128.00000,N,12110.00408,E,3,10,0.86,-10.04,M,10.04,M,,*68
$GPRMC,084155,A,3128.00000,N,12110.00408,E,9.719,270.000,010720,0.000,E,A,V*6C
$GPGGA,084156,3128.00000,N,12110.00093,E,3,10,0.86,-10.04,M,10.04,M,,*6D
$GPRMC,084156,A,3128.00000,N,12110.00093,E,9.719,270.000,010720,0.000,E,A,V*69
$GPGGA,084157,3128.00000,N,12109.99777,E,3,10,0.86,-10.04,M,10.04,M,,*69
$GPRMC,084157,A,3128.00000,N,12109.99777,E,9.719,270.000,010720,0.000,E,A,V*6D
$GPGGA,084158,3128.00000,N,12109.99461,E,3,10,0.86,-10.04,M,10.04,M,,*62
$GPRMC,084158,A,3128.00000,N,12109.99461,E,9.719,270.000,010720,0.000,E,A,V*66
$GPGGA,084159,3128.00000,N,12109.99146,E,3,10,0.86,-10.04,M,10.04,M,,*63
$GPRMC,084159,A,3128.00000,N,12109.99146,E,9.719,270.000,010720,0.000,E,A,V*67
$GPGGA,084200,3128.00000,N,12109.98830,E,3,10,0.86,-10.04,M,10.04,M,,*65
$GPRMC,084200,A,3128.00000,N,12109.98830,E,9.719,270.000,010720,0.000,E,A,V*61
$GPGGA,084201,3128.00000,N,12109.98514,E,3,10,0.86,-10.04,M,10.04,M,,*6F
$GPRMC,084201,A,3128.00000,N,12109.98514,E,9.719,270.000,010720,0.000,E,A,V*6B
$GPGGA,084202,3128.00000,N,12109.98199,E,3,10,0.86,-10.04,M,10.04,M,,*6D
$GPRMC,084202,A,3128.00000,N,12109.98199,E,9.719,270.000,010720,0.000,E,A,V*69
$GPGGA,084203,3128.00000,N,12109.97883,E,3,10,0.86,-10.04,M,10.04,M,,*61
$GPRMC,084203,A,3128.00000,N,12109.97883,E,9.719,270.000,010720,0.000,E,A,V*65
$GPGGA,084204,3128.00000,N,12109.97567,E,3,10,0.86,-10.04,M,10.04,M,,*61
$GPRMC,084204,A,3128.00000,N,12109.97567,E,9.719,270.000,010720,0.000,E,A,V*65
$GPGGA,084205,3128.00000,N,12109.97252,E,3,10,0.86,-10.04,M,10.04,M,,*61
$GPRMC,084205,A,3128.00000,N,12109.97252,E,9.719,270.000,010720,0.000,E,A,V*65
$GPGGA,084206,3128.00000,N,12109.96936,E,3,10,0.86,-10.04,M,10.04,M,,*6A
$GPRMC,084206,A,3128.00000,N,12109.96936,E,9.719,270.000,010720,0.000,E,A,V*6E
$GPGGA,084207,3128.00000,N,12109.96620,E,3,10,0.86,-10.04,M,10.04,M,,*63
$GPRMC,084207,A,3128.00000,N,12109.96620,E,9.719,270.000,010720,0.000,E,A,V*67
$GPGGA,084208,3128.00000,N,12109.96305,E,3,10,0.86,-10.04,M,10.04,M,,*6E
$GPRMC,084208,A,3128.00000,N,12109.96305,E,9.719,270.000,010720,0.000,E,A,V*6A
$GPGGA,084209,3128.00000,N,12109.95989,E,3,10,0.86,-10.04,M,10.04,M,,*62
$GPRMC,084209,A,3128.00000,N,12109.95989,E,9.719,270.000,010720,0.000,E,A,V*66
$GPGGA,084210,3128.00000,N,12109.95673,E,3,10,0.86,-10.04,M,10.04,M,,*60
$GPRMC,084210,A,3128.00000,N,12109.95673,E,9.719,270.000,010720,0.000,E,A,V*64
$GPGGA,084211,3128.00000,N,12109.95358,E,3,10,0.86,-10.04,M,10.04,M,,*6D
$GPRMC,084211,A,3128.00000,N,12109.95358,E,9.719,270.000,010720,0.000,E,A,V*69
$GPGGA,084212,3128.00000,N,12109.95042,E,3,10,0.86,-10.04,M,10.04,M,,*66
$GPRMC,084212,A,3128.00000,N,12109.95042,E,9.719,270.000,010720,0.000,E,A,V*62
$GPGGA,084213,3128.00000,N,12109.94726,E,3,10,0.86,-10.04,M,10.04,M,,*63
$GPRMC,084213,A,3128.00000,N,12109.94726,E,9.719,270.000,010720,0.000,E,A,V*67
