$GNRMC,082234.00,A,3127.999976,N,12113.669162,E,9.721,270.01,010720,,,A,V*02
$GNGGA,082234.00,3127.999976,N,12113.669162,E,1,07,1.12,-7.3,M,9.4,M,,*56
$GNGSA,A,3,05,09,12,15,17,26,27,,,,,,2.61,1.12,2.36,1*0D
$GNGSA,A,3,,,,,,,,,,,,,2.61,1.12,2.36,4*04
$GPGSV,3,1,11,02,06,155,48,04,14,117,48,05,20,266,48,09,4
5,323,49,0*6A
$GPGSV,3,2,11,12,32,266,49,15,61,214,49,17,39,051,49,18,07,284,48,0*69
$GPGSV,3,3,11,26,50,181,49,27,29,106,49,28,11,057,48,0*51
$BDGSV,1,1,00,0*74

$GNRMC,082235.00,A,3127.999973,N,12113.666012,E,9.721,270.00,010720,,,A,V*0E
$GNGGA,082235.00,3127.999973,N,12113.666012,E,1,07,1.12,-7.3,M,9.4,M,,*5B
$GNGSA,A,3,05,09,12,15,17,26,27,,,,,,2.61,1.12,2.36,1*0D
$GNGSA,A,3,,,,,,,,,,,,,2.61,1.12,2.36,4*04
$GPGSV,3,1,11,02,06,155,48,04,14,117,48,05,20,266,48,09,4
5,323,49,0*6A
$GPGSV,3,2,11,12,32,266,49,15,61,214,50,17,39,051,49,18,07,284,48,0*61
$GPGSV,3,3,11,26,50,181,49,27,29,106,49,28,11,057,48,0*51
$BDGSV,1,1,00,0*74


GPS HPregnss> E1 15 00 00 00 00 07 53 8F 38 E8 00 00 00 1C 39 BC EC 52 00 00 00 00 


$GNRMC,082236.00,A,3127.999980,N,12113.662864,E,9.720,270.01,010720,,,A,V*0C
$GNGGA,082236.00,3127.999980,N,12113.662864,E,1,07,1.12,-7.3,M,9.4,M,,*59
$GNGSA,A,3,05,09,12,15,17,26,27,,,,,,2.61,1.12,2.36,1*0D
$GNGSA,A,3,,,,,,,,,,,,,2.61,1.12,2.36,4*04
$GPGSV,3,1,11,02,06,155,48,04,14,117,48,05,20,266,48,09,4
5,323,49,0*6A
$GPGSV,3,2,11,12,32,266,49,15,61,214,50,17,39,051,49,18,07,284,48,0*61
$GPGSV,3,3,11,26,50,181,49,27,29,106,49,28,11,057,48,0*51
$BDGSV,1,1,00,0*74

$GNRMC,082237.00,A,3127.999992,N,12113.659712,E,9.720,270.01,010720,,,A,V*08
$GNGGA,082237.00,3127.999992,N,12113.659712,E,1,07,1.12,-7.3,M,9.4,M,,*5D
$GNGSA,A,3,05,09,12,15,17,26,27,,,,,,2.61,1.12,2.36,1*0D
$GNGSA,A,3,,,,,,,,,,,,,2.61,1.12,2.36,4*04
$GPGSV,3,1,11,02,06,155,48,04,14,117,48,05,20,266,48,09,4
5,323,49,0*6A
$GPGSV,3,2,11,12,32,266,49,15,61,214,49,17,39,051,49,18,07,284,48,0*69
$GPGSV,3,3,11,26,50,181,49,27,29,106,49,28,11,057,48,0*51
$BDGSV,1,1,00,0*74

$GNRMC,082238.00,A,3127.999996,N,12113.656558,E,9.718,270.01,010720,,,A,V*0B
$GNGGA,082238.00,3127.999996,N,12113.656558,E,1,07,1.12,-7.3,M,9.4,M,,*55
$GNGSA,A,3,05,09,12,15,17,26,27,,,,,,2.61,1.12,2.36,1*0D
$GNGSA,A,3,,,,,,,,,,,,,2.61,1.12,2.36,4*04
$GPGSV,3,1,11,02,06,155,48,04,14,117,48,05,20,266,48,09,4
5,323,49,0*6A
$GPGSV,3,2,11,12,32,266,49,15,61,214,49,17,39,051,49,18,07,284,48,0*69
$GPGSV,3,3,11,26,50,181,49,27,29,106,49,28,11,057,48,0*51
$BDGSV,1,1,00,0*74

$GNRMC,082239.00,A,3127.999996,N,12113.653403,E,9.720,269.98,010720,,,A,V*03
$GNGGA,082239.00,3127.999996,N,12113.653403,E,1,07,1.12,-7.3,M,9.4,M,,*5E
$GNGSA,A,3,05,09,12,15,17,26,27,,,,,,2.61,1.12,2.36,1*0D
$GNGSA,A,3,,,,,,,,,,,,,2.61,1.12,2.36,4*04
$GPGSV,3,1,11,02,06,155,48,04,14,117,48,05,20,266,48,09,4
5,323,49,0*6A
$GPGSV,3,2,11,12,32,266,49,15,61,214,49,17,39,051,49,18,07,284,48,0*69
$GPGSV,3,3,11,26,50,181,49,27,29,106,49,28,11,057,48,0*51
$BDGSV,1,1,00,0*74

<??????????????>

$GNRMC,082240.00,A,3128.000001,N,12113.650249,E,9.722,270.02,010720,,,A,V*0E
$GNGGA,082240.00,3128.000001,N,12113.650249,E,1,07,1.12,-7.3,M,9.4,M,,*5A
$GNGSA,A,3,05,09,12,15,17,26,27,,,,,,2.61,1.12,2.36,1*0D
$GNGSA,A,3,,,,,,,,,,,,,2.61,1.12,2.36,4*04
$GPGSV,3,1,11,02,06,155,48,04,14,117,48,05,20,266,48,09,4
5,323,49,0*6A
$GPGSV,3,2,11,12,32,266,49,15,61,214,49,17,39,051,49,18,07,284,48,0*69
$GPGSV,3,3,11,26,50,181,49,27,29,106,49,28,10,057,48,0*50
$BDGSV,1,1,00,0*74

$GNRMC,082241.00,A,3127.999998,N,12113.647087,E,9.720,270.00,010720,,,A,V*06
$GNGGA,082241.00,3127.999998,N,12113.647087,E,1,07,1.12,-7.3,M,9.4,M,,*52
$GNGSA,A,3,05,09,12,15,17,26,27,,,,,,2.61,1.12,2.36,1*0D
$GNGSA,A,3,,,,,,,,,,,,,2.61,1.12,2.36,4*04
$GPGSV,3,1,11,02,06,155,48,04,14,117,48,05,20,266,48,09,4
5,323,49,0*6A
$GPGSV,3,2,11,12,32,266,49,15,61,214,49,17,39,051,49,18,07,284,48,0*69
$GPGSV,3,3,11,26,50,181,49,27,29,106,49,28,10,057,48,0*50
$BDGSV,1,1,00,0*74

$GNRMC,082242.00,A,3127.999996,N,12113.643930,E,9.719,270.01,010720,,,A,V*01
$GNGGA,082242.00,3127.999996,N,12113.643930,E,1,07,1.12,-7.3,M,9.4,M,,*5E
$GNGSA,A,3,05,09,12,15,17,26,27,,,,,,2.61,1.12,2.36,1*0D
$GNGSA,A,3,,,,,,,,,,,,,2.61,1.12,2.36,4*04
$GPGSV,3,1,11,02,06,155,48,04,14,117,48,05,20,266,48,09,4
5,323,49,0*6A
$GPGSV,3,2,11,12,32,266,49,15,61,214,50,17,39,051,49,18,07,284,48,0*61
$GPGSV,3,3,11,26,50,181,49,27,29,106,49,28,10,057,48,0*50
$BDGSV,1,1,00,0*74

$GNRMC,082243.00,A,3127.999994,N,12113.640770,E,9.720,270.00,010720,,,A,V*00
$GNGGA,082243.00,3127.999994,N,12113.640770,E,1,07,1.12,-7.3,M,9.4,M,,*54
$GNGSA,A,3,05,09,12,15,17,26,27,,,,,,2.62,1.12,2.36,1*0E
$GNGSA,A,3,,,,,,,,,,,,,2.62,1.12,2.36,4*07
$GPGSV,3,1,11,02,06,155,48,04,14,117,48,05,20,266,48,09,4
5,323,49,0*6A
$GPGSV,3,2,11,12,32,266,49,15,61,214,49,17,39,051,49,18,07,284,48,0*69
$GPGSV,3,3,11,26,50,181,49,27,29,106,49,28,10,057,48,0*50
$BDGSV,1,1,00,0*74

$GNRMC,082244.00,A,3127.999999,N,12113.637610,E,9.720,269.99,010720,,,A,V*05
$GNGGA,082244.00,3127.999999,N,12113.637610,E,1,07,1.12,-7.3,M,9.4,M,,*59
$GNGSA,A,3,05,09,12,15,17,26,27,,,,,,2.62,1.12,2.36,1*0E
$GNGSA,A,3,,,,,,,,,,,,,2.62,1.12,2.36,4*07
$GPGSV,3,1,11,02,06,155,48,04,14,117,48,05,20,266,48,09,4
5,323,49,0*6A
$GPGSV,3,2,11,12,32,266,49,15,61,214,50,17,39,051,49,18,07,284,48,0*61
$GPGSV,3,3,11,26,50,181,49,27,29,106,49,28,10,057,48,0*50
$BDGSV,1,1,00,0*74

$GNRMC,082245.00,A,3128.000006,N,12113.634452,E,9.721,270.01,010720,,,A,V*02
$GNGGA,082245.00,3128.000006,N,12113.634452,E,1,07,1.12,-7.2,M,9.4,M,,*57
$GNGSA,A,3,05,09,12,15,17,26,27,,,,,,2.62,1.12,2.36,1*0E
$GNGSA,A,3,,,,,,,,,,,,,2.62,1.12,2.36,4*07
$GPGSV,3,1,11,02,06,155,48,04,14,117,48,05,20,266,48,09,4
5,323,49,0*6A
$GPGSV,3,2,11,12,32,266,49,15,61,214,50,17,39,051,49,18,07,284,48,0*61
$GPGSV,3,3,11,26,50,181,49,27,29,106,49,28,10,057,48,0*50
$BDGSV,1,1,00,0*74

$GNRMC,082246.00,A,3128.000009,N,12113.631296,E,9.721,270.00,010720,,,A,V*04
$GNGGA,082246.00,3128.000009,N,12113.631296,E,1,07,1.12,-7.3,M,9.4,M,,*51
$GNGSA,A,3,05,09,12,15,17,26,27,,,,,,2.62,1.12,2.36,1*0E
$GNGSA,A,3,,,,,,,,,,,,,2.62,1.12,2.36,4*07
$GPGSV,3,1,11,02,06,155,48,04,14,117,48,05,20,266,48,09,4
5,323,49,0*6A
$GPGSV,3,2,11,12,32,266,49,15,61,214,49,17,39,051,49,18,07,284,48,0*69
$GPGSV,3,3,11,26,50,181,49,27,29,106,49,28,10,057,48,0*50
$BDGSV,1,1,00,0*74

$GNRMC,082247.00,A,3128.000007,N,12113.628137,E,9.719,270.01,010720,,,A,V*01
$GNGGA,082247.00,3128.000007,N,12113.628137,E,1,07,1.12,-7.3,M,9.4,M,,*5E
$GNGSA,A,3,05,09,12,15,17,26,27,,,,,,2.62,1.12,2.37,1*0F
$GNGSA,A,3,,,,,,,,,,,,,2.62,1.12,2.37,4*06
$GPGSV,3,1,11,02,06,155,48,04,14,117,48,05,21,266,48,09,4
5,323,49,0*6B
$GPGSV,3,2,11,12,32,266,49,15,61,214,50,17,39,051,49,18,07,284,48,0*61
$GPGSV,3,3,11,26,50,181,49,27,29,106,49,28,10,057,48,0*50
$BDGSV,1,1,00,0*74

$GNRMC,082248.00,A,3128.000011,N,12113.624979,E,9.718,269.97,010720,,,A,V*01
$GNGGA,082248.00,3128.000011,N,12113.624979,E,1,07,1.12,-7.3,M,9.4,M,,*58
$GNGSA,A,3,05,09,12,15,17,26,27,,,,,,2.62,1.12,2.37,1*0F
$GNGSA,A,3,,,,,,,,,,,,,2.62,1.12,2.37,4*06
$GPGSV,3,1,11,02,06,155,48,04,14,117,48,05,21,266,48,09,4
5,323,49,0*6B
$GPGSV,3,2,11,12,32,266,49,15,61,214,50,17,39,051,49,18,07,284,48,0*61
$GPGSV,3,3,11,26,50,181,49,27,29,106,49,28,10,057,48,0*50
$BDGSV,1,1,00,0*74

$GNRMC,082249.00,A,3128.000011,N,12113.621824,E,9.721,270.02,010720,,,A,V*02
$GNGGA,082249.00,3128.000011,N,12113.621824,E,1,07,1.12,-7.3,M,9.4,M,,*55
$GNGSA,A,3,05,09,12,15,17,26,27,,,,,,2.62,1.12,2.37,1*0F
$GNGSA,A,3,,,,,,,,,,,,,2.62,1.12,2.37,4*06
$GPGSV,3,1,11,02,06,155,48,04,14,117,48,05,21,266,48,09,4
5,323,49,0*6B
$GPGSV,3,2,11,12,32,266,49,15,61,214,50,17,39,051,49,18,07,284,48,0*61
$GPGSV,3,3,11,26,50,181,49,27,29,106,49,28,10,057,48,0*50
$BDGSV,1,1,00,0*74

<????sim??????(SIM??:1)>
<????GSM????????(GSM:0)>
<????GPRS????????(GPRS:0)>
<????????????(SIGNAL:0)>
<????????????????(BER:0)>

<??????????????>

$GNRMC,082250.00,A,3128.000014,N,12113.618664,E,9.721,270.01,010720,,,A,V*0C
$GNGGA,082250.00,3128.000014,N,12113.618664,E,1,07,1.12,-7.2,M,9.4,M,,*59
$GNGSA,A,3,05,09,12,15,17,26,27,,,,,,2.62,1.12,2.37,1*0F
$GNGSA,A,3,,,,,,,,,,,,,2.62,1.12,2.37,4*06
$GPGSV,3,1,11,02,06,155,48,04,14,117,48,05,21,266,48,09,4
5,323,49,0*6B
$GPGSV,3,2,11,12,32,266,49,15,61,214,50,17,39,051,49,18,07,284,48,0*61
$GPGSV,3,3,11,26,50,181,49,27,29,106,49,28,10,057,48,0*50
$BDGSV,1,1,00,0*74

$GNRMC,082251.00,A,3128.000015,N,12113.615503,E,9.721,270.02,010720,,,A,V*00
$GNGGA,082251.00,3128.000015,N,12113.615503,E,1,07,1.12,-7.2,M,9.4,M,,*56
$GNGSA,A,3,05,09,12,15,17,26,27,,,,,,2.62,1.12,2.37,1*0F
$GNGSA,A,3,,,,,,,,,,,,,2.62,1.12,2.37,4*06
$GPGSV,3,1,11,02,06,155,48,04,14,117,48,05,21,266,48,09,4
5,323,49,0*6B
$GPGSV,3,2,11,12,32,266,49,15,61,214,50,17,39,051,49,18,07,284,48,0*61
$GPGSV,3,3,11,26,50,181,49,27,29,106,49,28,10,057,48,0*50
$BDGSV,1,1,00,0*74

$GNRMC,082252.00,A,3128.000016,N,12113.612347,E,9.719,270.01,010720,,,A,V*09
$GNGGA,082252.00,3128.000016,N,12113.612347,E,1,07,1.12,-7.2,M,9.4,M,,*57
$GNGSA,A,3,05,09,12,15,17,26,27,,,,,,2.62,1.12,2.37,1*0F
$GNGSA,A,3,,,,,,,,,,,,,2.62,1.12,2.37,4*06
$GPGSV,3,1,11,02,06,155,48,04,14,117,48,05,21,266,48,09,4
5,323,49,0*6B
$GPGSV,3,2,11,12,32,266,49,15,61,214,49,17,39,051,49,18,07,284,48,0*69
$GPGSV,3,3,11,26,50,181,49,27,29,106,49,28,10,057,48,0*50
$BDGSV,1,1,00,0*74

$GNRMC,082253.00,A,3128.000019,N,12113.609188,E,9.721,269.99,010720,,,A,V*0E
$GNGGA,082253.00,3128.000019,N,12113.609188,E,1,07,1.12,-7.2,M,9.4,M,,*52
$GNGSA,A,3,05,09,12,15,17,26,27,,,,,,2.62,1.12,2.37,1*0F
$GNGSA,A,3,,,,,,,,,,,,,2.62,1.12,2.37,4*06
$GPGSV,3,1,11,02,06,155,48,04,14,117,48,05,21,266,48,09,4
5,323,49,0*6B
$GPGSV,3,2,11,12,32,266,49,15,61,214,50,17,39,051,49,18,07,284,48,0*61
$GPGSV,3,3,11,26,50,181,49,27,29,106,49,28,10,057,48,0*50
$BDGSV,1,1,00,0*74

$GNRMC,082254.00,A,3128.000026,N,12113.606030,E,9.719,270.02,010720,,,A,V*09
$GNGGA,082254.00,3128.000026,N,12113.606030,E,1,07,1.12,-7.2,M,9.4,M,,*54
$GNGSA,A,3,05,09,12,15,17,26,27,,,,,,2.62,1.12,2.37,1*0F
$GNGSA,A,3,,,,,,,,,,,,,2.62,1.12,2.37,4*06
$GPGSV,3,1,11,02,06,155,48,04,14,117,48,05,21,266,48,09,4
5,323,49,0*6B
$GPGSV,3,2,11,12,32,266,49,15,61,214,50,17,39,051,49,18,07,284,48,0*61
$GPGSV,3,3,11,26,50,181,49,27,29,106,49,28,10,057,48,0*50
$BDGSV,1,1,00,0*74

$GNRMC,082255.00,A,3128.000028,N,12113.602869,E,9.722,269.99,010720,,,A,V*04
$GNGGA,082255.00,3128.000028,N,12113.602869,E,1,07,1.12,-7.2,M,9.4,M,,*5B
$GNGSA,A,3,05,09,12,15,17,26,27,,,,,,2.62,1.12,2.37,1*0F
$GNGSA,A,3,,,,,,,,,,,,,2.62,1.12,2.37,4*06
$GPGSV,3,1,11,02,06,155,48,04,14,117,48,05,21,266,48,09,4
5,323,49,0*6B
$GPGSV,3,2,11,12,32,266,49,15,61,214,50,17,39,051,49,18,07,284,48,0*61
$GPGSV,3,3,11,26,50,181,49,27,29,107,49,28,10,057,48,0*51
$BDGSV,1,1,00,0*74

$GNRMC,082256.00,A,3128.000033,N,12113.599712,E,9.720,270.03,010720,,,A,V*06
$GNGGA,082256.00,3128.000033,N,12113.599712,E,1,07,1.12,-7.2,M,9.4,M,,*50
$GNGSA,A,3,05,09,12,15,17,26,27,,,,,,2.62,1.12,2.37,1*0F
$GNGSA,A,3,,,,,,,,,,,,,2.62,1.12,2.37,4*06
$GPGSV,3,1,11,02,06,155,48,04,14,117,48,05,21,266,48,09,4
5,323,49,0*6B
$GPGSV,3,2,11,12,32,266,49,15,61,214,50,17,39,051,49,18,07,284,48,0*61
$GPGSV,3,3,11,26,50,181,49,27,29,107,49,28,10,057,48,0*51
$BDGSV,1,1,00,0*74

$GNRMC,082257.00,A,3128.000034,N,12113.596555,E,9.720,269.99,010720,,,A,V*05
$GNGGA,082257.00,3128.000034,N,12113.596555,E,1,07,1.12,-7.2,M,9.4,M,,*58
$GNGSA,A,3,05,09,12,15,17,26,27,,,,,,2.62,1.12,2.37,1*0F
$GNGSA,A,3,,,,,,,,,,,,,2.62,1.12,2.37,4*06
$GPGSV,3,1,11,02,06,155,48,04,14,117,48,05,21,266,48,09,4
5,323,49,0*6B
$GPGSV,3,2,11,12,32,266,49,15,61,214,50,17,39,051,49,18,07,284,48,0*61
$GPGSV,3,3,11,26,50,181,49,27,29,107,49,28,10,057,48,0*51
$BDGSV,1,1,00,0*74

$GNRMC,082258.00,A,3128.000033,N,12113.593399,E,9.719,269.99,010720,,,A,V*04
$GNGGA,082258.00,3128.000033,N,12113.593399,E,1,07,1.12,-7.2,M,9.4,M,,*53
$GNGSA,A,3,05,09,12,15,17,26,27,,,,,,2.62,1.12,2.37,1*0F
$GNGSA,A,3,,,,,,,,,,,,,2.62,1.12,2.37,4*06
$GPGSV,3,1,12,02,06,155,48,04,14,117,48,05,21,266,48,09,4
5,323,49,0*68
$GPGSV,3,2,12,12,32,266,49,15,61,214,50,17,39,051,49,18,07,284,48,0*62
$GPGSV,3,3,12,24,,,31,26,50,181,49,27,29,107,49,28,10,057,48,0*56
$BDGSV,1,1,00,0*74

$GNRMC,082259.00,A,3128.000038,N,12113.590242,E,9.720,270.02,010720,,,A,V*0A
$GNGGA,082259.00,3128.000038,N,12113.590242,E,1,07,1.12,-7.2,M,9.4,M,,*5D
$GNGSA,A,3,05,09,12,15,17,26,27,,,,,,2.62,1.12,2.37,1*0F
$GNGSA,A,3,,,,,,,,,,,,,2.62,1.12,2.37,4*06
$GPGSV,3,1,11,02,06,155,48,04,14,117,48,05,21,266,48,09,4
5,323,49,0*6B
$GPGSV,3,2,11,12,32,266,49,15,61,214,50,17,39,051,49,18,07,284,48,0*61
$GPGSV,3,3,11,26,50,181,49,27,29,107,49,28,10,057,48,0*51
$BDGSV,1,1,00,0*74

<??????????????>

$GNRMC,082300.00,A,3128.000038,N,12113.587083,E,9.722,270.00,010720,,,A,V*0E
$GNGGA,082300.00,3128.000038,N,12113.587083,E,1,07,1.12,-7.2,M,9.4,M,,*59
$GNGSA,A,3,05,09,12,15,17,26,27,,,,,,2.62,1.12,2.37,1*0F
$GNGSA,A,3,,,,,,,,,,,,,2.62,1.12,2.37,4*06
$GPGSV,3,1,11,02,06,155,48,04,14,117,48,05,21,266,48,09,4
5,323,49,0*6B
$GPGSV,3,2,11,12,32,266,49,15,61,214,50,17,39,051,49,18,07,284,48,0*61
$GPGSV,3,3,11,26,50,181,49,27,29,107,49,28,10,057,48,0*51
$BDGSV,1,1,00,0*74

$GNRMC,082301.00,A,3128.000039,N,12113.583928,E,9.720,270.01,010720,,,A,V*01
$GNGGA,082301.00,3128.000039,N,12113.583928,E,1,07,1.12,-7.2,M,9.4,M,,*55
$GNGSA,A,3,05,09,12,15,17,26,27,,,,,,2.62,1.12,2.37,1*0F
$GNGSA,A,3,,,,,,,,,,,,,2.62,1.12,2.37,4*06
$GPGSV,3,1,11,02,06,154,48,04,14,117,48,05,21,266,48,09,4
5,323,49,0*6A
$GPGSV,3,2,11,12,32,266,49,15,61,214,50,17,39,051,49,18,07,284,48,0*61
$GPGSV,3,3,11,26,50,181,50,27,29,107,49,28,10,057,48,0*59
$BDGSV,1,1,00,0*74

$GNRMC,082302.00,A,3128.000042,N,12113.580768,E,9.721,270.02,010720,,,A,V*05
$GNGGA,082302.00,3128.000042,N,12113.580768,E,1,07,1.12,-7.2,M,9.4,M,,*53
$GNGSA,A,3,05,09,12,15,17,26,27,,,,,,2.62,1.12,2.37,1*0F
$GNGSA,A,3,,,,,,,,,,,,,2.62,1.12,2.37,4*06
$GPGSV,3,1,11,02,06,154,48,04,14,117,48,05,21,266,48,09,4
5,323,49,0*6A
$GPGSV,3,2,11,12,32,266,49,15,61,214,50,17,39,051,49,18,07,284,48,0*61
$GPGSV,3,3,11,26,50,181,49,27,29,107,49,28,10,057,48,0*51
$BDGSV,1,1,00,0*74

$GNRMC,082303.00,A,3128.000042,N,12113.577608,E,9.720,269.99,010720,,,A,V*00
$GNGGA,082303.00,3128.000042,N,12113.577608,E,1,07,1.12,-7.2,M,9.4,M,,*5D
$GNGSA,A,3,05,09,12,15,17,26,27,,,,,,2.62,1.12,2.37,1*0F
$GNGSA,A,3,,,,,,,,,,,,,2.62,1.12,2.37,4*06
$GPGSV,3,1,11,02,06,154,48,04,14,117,48,05,21,266,48,09,4
5,323,49,0*6A
$GPGSV,3,2,11,12,32,266,49,15,61,214,50,17,39,051,49,18,07,284,48,0*61
$GPGSV,3,3,11,26,50,181,49,27,29,107,49,28,10,057,48,0*51
$BDGSV,1,1,00,0*74

$GNRMC,082304.00,A,3128.000040,N,12113.574452,E,9.720,270.01,010720,,,A,V*02
$GNGGA,082304.00,3128.000040,N,12113.574452,E,1,07,1.12,-7.2,M,9.4,M,,*56
$GNGSA,A,3,05,09,12,15,17,26,27,,,,,,2.62,1.12,2.37,1*0F
$GNGSA,A,3,,,,,,,,,,,,,2.62,1.12,2.37,4*06
$GPGSV,3,1,11,02,06,154,48,04,14,117,48,05,21,266,48,09,4
5,323,49,0*6A
$GPGSV,3,2,11,12,32,266,49,15,61,214,49,17,39,051,49,18,07,284,48,0*69
$GPGSV,3,3,11,26,50,181,49,27,29,107,49,28,10,057,48,0*51
$BDGSV,1,1,00,0*74


GPS HPregnss> E1 15 00 00 00 00 07 53 8F 3D 45 00 00 00 1C 39 A5 A3 62 00 00 00 00 


$GNRMC,082305.00,A,3128.000039,N,12113.571294,E,9.720,270.00,010720,,,A,V*05
$GNGGA,082305.00,3128.000039,N,12113.571294,E,1,07,1.11,-7.2,M,9.4,M,,*53
$GNGSA,A,3,05,09,12,15,17,26,27,,,,,,2.62,1.11,2.37,1*0C
$GNGSA,A,3,,,,,,,,,,,,,2.62,1.11,2.37,4*05
$GPGSV,3,1,11,02,06,154,48,04,14,117,48,05,21,266,48,09,4
5,323,49,0*6A
$GPGSV,3,2,11,12,32,266,49,15,61,214,49,17,39,051,49,18,07,284,48,0*69
$GPGSV,3,3,11,26,50,181,49,27,29,107,49,28,10,057,48,0*51
$BDGSV,1,1,00,0*74

$GNRMC,082306.00,A,3128.000037,N,12113.568138,E,9.721,270.02,010720,,,A,V*06
$GNGGA,082306.00,3128.000037,N,12113.568138,E,1,07,1.11,-7.2,M,9.4,M,,*53
$GNGSA,A,3,05,09,12,15,17,26,27,,,,,,2.62,1.11,2.37,1*0C
$GNGSA,A,3,,,,,,,,,,,,,2.62,1.11,2.37,4*05
$GPGSV,3,1,11,02,06,154,48,04,14,117,48,05,21,266,48,09,4
5,323,49,0*6A
$GPGSV,3,2,11,12,32,266,49,15,61,214,50,17,39,051,49,18,07,284,48,0*61
$GPGSV,3,3,11,26,50,181,49,27,29,107,49,28,10,057,48,0*51
$BDGSV,1,1,00,0*74

$GNRMC,082307.00,A,3128.000035,N,12113.564981,E,9.718,269.99,010720,,,A,V*03
$GNGGA,082307.00,3128.000035,N,12113.564981,E,1,07,1.11,-7.2,M,9.4,M,,*56
$GNGSA,A,3,05,09,12,15,17,26,27,,,,,,2.62,1.11,2.37,1*0C
$GNGSA,A,3,,,,,,,,,,,,,2.62,1.11,2.37,4*05
$GPGSV,3,1,11,02,06,154,48,04,14,117,48,05,21,266,48,09,4
5,323,49,0*6A
$GPGSV,3,2,11,12,32,266,49,15,61,214,50,17,39,051,49,18,07,284,48,0*61
$GPGSV,3,3,11,26,50,181,49,27,29,107,49,28,10,057,48,0*51
$BDGSV,1,1,00,0*74

$GNRMC,082308.00,A,3128.000036,N,12113.561822,E,9.720,269.98,010720,,,A,V*08
$GNGGA,082308.00,3128.000036,N,12113.561822,E,1,07,1.11,-7.1,M,9.4,M,,*54
$GNGSA,A,3,05,09,12,15,17,26,27,,,,,,2.62,1.11,2.37,1*0C
$GNGSA,A,3,,,,,,,,,,,,,2.62,1.11,2.37,4*05
$GPGSV,3,1,11,02,06,154,48,04,14,117,48,05,21,266,48,09,4
5,323,49,0*6A
$GPGSV,3,2,11,12,32,266,49,15,61,214,50,17,39,051,49,18,07,284,48,0*61
$GPGSV,3,3,11,26,50,181,49,27,29,107,49,28,10,057,48,0*51
$BDGSV,1,1,00,0*74

$GNRMC,082309.00,A,3128.000035,N,12113.558664,E,9.719,270.00,010720,,,A,V*0F
$GNGGA,082309.00,3128.000035,N,12113.558664,E,1,07,1.11,-7.1,M,9.4,M,,*50
$GNGSA,A,3,05,09,12,15,17,26,27,,,,,,2.62,1.11,2.37,1*0C
$GNGSA,A,3,,,,,,,,,,,,,2.62,1.11,2.37,4*05
$GPGSV,3,1,11,02,06,154,48,04,14,117,48,05,21,266,48,09,4
5,323,49,0*6A
$GPGSV,3,2,11,12,32,266,49,15,61,214,50,17,39,051,49,18,07,284,48,0*61
$GPGSV,3,3,11,26,50,181,49,27,29,107,49,28,10,057,48,0*51
$BDGSV,1,1,00,0*74

<????sim??????(SIM??:1)>
<????GSM????????(GSM:0)>
<????GPRS????????(GPRS:0)>
<????????????(SIGNAL:0)>
<????????????????(BER:0)>

<??????????????>

$GNRMC,082310.00,A,3128.000036,N,12113.555506,E,9.722,270.02,010720,,,A,V*04
$GNGGA,082310.00,3128.000036,N,12113.555506,E,1,07,1.11,-7.1,M,9.4,M,,*51
$GNGSA,A,3,05,09,12,15,17,26,27,,,,,,2.62,1.11,2.37,1*0C
$GNGSA,A,3,,,,,,,,,,,,,2.62,1.11,2.37,4*05
$GPGSV,3,1,11,02,06,154,48,04,14,117,48,05,21,266,48,09,4
5,323,49,0*6A
$GPGSV,3,2,11,12,32,266,49,15,61,214,50,17,39,051,49,18,07,284,48,0*61
$GPGSV,3,3,11,26,50,181,49,27,29,107,49,28,10,057,48,0*51
$BDGSV,1,1,00,0*74

$GNRMC,082311.00,A,3128.000040,N,12113.552347,E,9.720,270.02,010720,,,A,V*02
$GNGGA,082311.00,3128.000040,N,12113.552347,E,1,07,1.11,-7.1,M,9.4,M,,*55
$GNGSA,A,3,05,09,12,15,17,26,27,,,,,,2.62,1.11,2.37,1*0C
$GNGSA,A,3,,,,,,,,,,,,,2.62,1.11,2.37,4*05
$GPGSV,3,1,11,02,06,154,48,04,14,117,48,05,21,266,48,09,4
5,323,49,0*6A
$GPGSV,3,2,11,12,32,266,49,15,61,214,50,17,39,051,49,18,07,284,48,0*61
$GPGSV,3,3,11,26,50,181,49,27,29,107,49,28,10,057,48,0*51
$BDGSV,1,1,00,0*74

$GNRMC,082312.00,A,3128.000039,N,12113.549189,E,9.721,270.01,010720,,,A,V*07
$GNGGA,082312.00,3128.000039,N,12113.549189,E,1,07,1.11,-7.1,M,9.4,M,,*52
$GNGSA,A,3,05,09,12,15,17,26,27,,,,,,2.62,1.11,2.37,1*0C
$GNGSA,A,3,,,,,,,,,,,,,2.62,1.11,2.37,4*05
$GPGSV,3,1,11,02,06,154,48,04,14,117,48,05,21,266,48,09,4
5,323,49,0*6A
$GPGSV,3,2,11,12,32,266,49,15,61,214,50,17,39,051,49,18,07,284,48,0*61
$GPGSV,3,3,11,26,50,181,50,27,29,107,49,28,10,057,48,0*59
$BDGSV,1,1,00,0*74

$GNRMC,082313.00,A,3128.000040,N,12113.546033,E,9.719,270.01,010720,,,A,V*0C
$GNGGA,082313.00,3128.000040,N,12113.546033,E,1,07,1.11,-7.1,M,9.4,M,,*52
$GNGSA,A,3,05,09,12,15,17,26,27,,,,,,2.62,1.11,2.37,1*0C
$GNGSA,A,3,,,,,,,,,,,,,2.62,1.11,2.37,4*05
$GPGSV,3,1,11,02,06,154,48,04,14,117,48,05,21,266,48,09,4
5,323,49,0*6A
$GPGSV,3,2,11,12,32,266,49,15,61,214,50,17,39,051,49,18,07,284,48,0*61
$GPGSV,3,3,11,26,50,181,50,27,29,107,49,28,10,057,48,0*59
$BDGSV,1,1,00,0*74

$GNRMC,082314.00,A,3128.000041,N,12113.542876,E,9.721,270.01,010720,,,A,V*0C
$GNGGA,082314.00,3128.000041,N,12113.542876,E,1,07,1.11,-7.1,M,9.4,M,,*59
$GNGSA,A,3,05,09,12,15,17,26,27,,,,,,2.62,1.11,2.37,1*0C
$GNGSA,A,3,,,,,,,,,,,,,2.62,1.11,2.37,4*05
$GPGSV,3,1,11,02,06,154,48,04,14,117,48,05,21,266,48,09,4
5,323,49,0*6A
$GPGSV,3,2,11,12,32,266,49,15,61,214,50,17,39,051,49,18,07,284,48,0*61
$GPGSV,3,3,11,26,50,181,49,27,29,107,49,28,10,057,48,0*51
$BDGSV,1,1,00,0*74

$GNRMC,082315.00,A,3128.000040,N,12113.539719,E,9.720,270.01,010720,,,A,V*07
$GNGGA,082315.00,3128.000040,N,12113.539719,E,1,07,1.11,-7.1,M,9.4,M,,*53
$GNGSA,A,3,05,09,12,15,17,26,27,,,,,,2.62,1.11,2.37,1*0C
$GNGSA,A,3,,,,,,,,,,,,,2.62,1.11,2.37,4*05
$GPGSV,3,1,11,02,06,154,48,04,14,117,48,05,21,266,49,09,4
5,323,49,0*6B
$GPGSV,3,2,11,12,32,266,49,15,61,214,50,17,39,051,49,18,07,284,48,0*61
$GPGSV,3,3,11,26,50,181,49,27,29,107,49,28,10,057,48,0*51
$BDGSV,1,1,00,0*74

$GNRMC,082316.00,A,3128.000041,N,12113.536560,E,9.721,270.01,010720,,,A,V*07
$GNGGA,082316.00,3128.000041,N,12113.536560,E,1,07,1.11,-7.1,M,9.4,M,,*52
$GNGSA,A,3,05,09,12,15,17,26,27,,,,,,2.62,1.11,2.37,1*0C
$GNGSA,A,3,,,,,,,,,,,,,2.62,1.11,2.37,4*05
$GPGSV,3,1,11,02,06,154,48,04,14,117,48,05,21,266,48,09,4
5,323,49,0*6A
$GPGSV,3,2,11,12,32,266,49,15,61,214,50,17,39,051,49,18,07,284,48,0*61
$GPGSV,3,3,11,26,50,181,49,27,29,107,49,28,10,057,48,0*51
$BDGSV,1,1,00,0*74

$GNRMC,082317.00,A,3128.000040,N,12113.533403,E,9.718,269.98,010720,,,A,V*04
$GNGGA,082317.00,3128.000040,N,12113.533403,E,1,07,1.11,-7.1,M,9.4,M,,*53
$GNGSA,A,3,05,09,12,15,17,26,27,,,,,,2.62,1.11,2.37,1*0C
$GNGSA,A,3,,,,,,,,,,,,,2.62,1.11,2.37,4*05
$GPGSV,3,1,11,02,06,154,48,04,14,117,48,05,21,266,48,09,4
5,323,49,0*6A
$GPGSV,3,2,11,12,32,266,49,15,61,214,50,17,39,051,49,18,07,284,48,0*61
$GPGSV,3,3,11,26,50,181,49,27,29,107,49,28,10,057,48,0*51
$BDGSV,1,1,00,0*74

$GNRMC,082318.00,A,3128.000040,N,12113.530247,E,9.719,270.01,010720,,,A,V*07
$GNGGA,082318.00,3128.000040,N,12113.530247,E,1,07,1.11,-7.1,M,9.4,M,,*59
$GNGSA,A,3,05,09,12,15,17,26,27,,,,,,2.62,1.11,2.38,1*03
$GNGSA,A,3,,,,,,,,,,,,,2.62,1.11,2.38,4*0A
$GPGSV,3,1,11,02,06,154,48,04,14,117,48,05,21,266,49,09,4
5,323,49,0*6B
$GPGSV,3,2,11,12,32,266,49,15,61,214,50,17,39,051,49,18,07,284,48,0*61
$GPGSV,3,3,11,26,50,181,49,27,29,107,49,28,10,057,48,0*51
$BDGSV,1,1,00,0*74

$GNRMC,082319.00,A,3128.000039,N,12113.527092,E,9.719,269.99,010720,,,A,V*0D
$GNGGA,082319.00,3128.000039,N,12113.527092,E,1,07,1.11,-7.1,M,9.4,M,,*5A
$GNGSA,A,3,05,09,12,15,17,26,27,,,,,,2.62,1.11,2.38,1*03
$GNGSA,A,3,,,,,,,,,,,,,2.62,1.11,2.38,4*0A
$GPGSV,3,1,11,02,06,154,48,04,14,117,48,05,21,266,49,09,4
5,323,49,0*6B
$GPGSV,3,2,11,12,32,266,49,15,61,214,50,17,39,051,49,18,07,284,48,0*61
$GPGSV,3,3,11,26,50,181,49,27,29,107,49,28,10,057,48,0*51
$BDGSV,1,1,00,0*74

<??????????????>

$GNRMC,082320.00,A,3128.000041,N,12113.523937,E,9.722,270.02,010720,,,A,V*08
$GNGGA,082320.00,3128.000041,N,12113.523937,E,1,07,1.11,-7.1,M,9.4,M,,*5D
$GNGSA,A,3,05,09,12,15,17,26,27,,,,,,2.62,1.11,2.38,1*03
$GNGSA,A,3,,,,,,,,,,,,,2.62,1.11,2.38,4*0A
$GPGSV,3,1,11,02,06,154,48,04,14,117,48,05,21,266,48,09,4
5,323,49,0*6A
$GPGSV,3,2,11,12,32,266,49,15,61,214,50,17,39,051,49,18,07,284,48,0*61
$GPGSV,3,3,11,26,50,181,49,27,29,107,49,28,10,057,48,0*51
$BDGSV,1,1,00,0*74

$GNRMC,082321.00,A,3128.000041,N,12113.520782,E,9.720,270.01,010720,,,A,V*0B
$GNGGA,082321.00,3128.000041,N,12113.520782,E,1,07,1.11,-7.1,M,9.4,M,,*5F
$GNGSA,A,3,05,09,12,15,17,26,27,,,,,,2.62,1.11,2.38,1*03
$GNGSA,A,3,,,,,,,,,,,,,2.62,1.11,2.38,4*0A
$GPGSV,3,1,11,02,06,154,48,04,14,117,48,05,21,266,49,09,4
5,323,49,0*6B
$GPGSV,3,2,11,12,32,266,49,15,61,214,50,17,39,051,49,18,07,284,48,0*61
$GPGSV,3,3,11,26,50,181,50,27,29,107,49,28,10,057,48,0*59
$BDGSV,1,1,00,0*74

$GNRMC,082322.00,A,3128.000041,N,12113.517623,E,9.722,270.00,010720,,,A,V*05
$GNGGA,082322.00,3128.000041,N,12113.517623,E,1,07,1.11,-7.1,M,9.4,M,,*52
$GNGSA,A,3,05,09,12,15,17,26,27,,,,,,2.62,1.11,2.38,1*03
$GNGSA,A,3,,,,,,,,,,,,,2.62,1.11,2.38,4*0A
$GPGSV,3,1,11,02,06,154,48,04,14,117,48,05,21,266,49,09,4
5,323,49,0*6B
$GPGSV,3,2,11,12,32,266,49,15,60,214,50,17,39,051,49,18,07,284,48,0*60
$GPGSV,3,3,11,26,50,181,49,27,29,107,49,28,10,057,48,0*51
$BDGSV,1,1,00,0*74

$GNRMC,082323.00,A,3128.000043,N,12113.514468,E,9.719,270.01,010720,,,A,V*01
$GNGGA,082323.00,3128.000043,N,12113.514468,E,1,07,1.11,-7.1,M,9.4,M,,*5F
$GNGSA,A,3,05,09,12,15,17,26,27,,,,,,2.62,1.11,2.38,1*03
$GNGSA,A,3,,,,,,,,,,,,,2.62,1.11,2.38,4*0A
$GPGSV,3,1,11,02,06,154,48,04,14,117,48,05,21,266,49,09,4
5,323,49,0*6B
$GPGSV,3,2,11,12,32,266,49,15,60,214,50,17,39,051,49,18,07,284,48,0*60
$GPGSV,3,3,11,26,50,181,49,27,29,107,49,28,10,057,48,0*51
$BDGSV,1,1,00,0*74

$GNRMC,082324.00,A,3128.000044,N,12113.511312,E,9.721,270.02,010720,,,A,V*06
$GNGGA,082324.00,3128.000044,N,12113.511312,E,1,07,1.11,-7.1,M,9.4,M,,*50
$GNGSA,A,3,05,09,12,15,17,26,27,,,,,,2.62,1.11,2.38,1*03
$GNGSA,A,3,,,,,,,,,,,,,2.62,1.11,2.38,4*0A
$GPGSV,3,1,11,02,06,154,48,04,14,117,48,05,21,266,49,09,4
5,323,49,0*6B
$GPGSV,3,2,11,12,32,266,49,15,60,214,50,17,39,051,49,18,07,283,48,0*67
$GPGSV,3,3,11,26,50,181,49,27,29,107,49,28,10,057,48,0*51
$BDGSV,1,1,00,0*74

$GNRMC,082325.00,A,3128.000045,N,12113.508155,E,9.722,270.02,010720,,,A,V*0C
$GNGGA,082325.00,3128.000045,N,12113.508155,E,1,07,1.11,-7.1,M,9.4,M,,*59
$GNGSA,A,3,05,09,12,15,17,26,27,,,,,,2.62,1.11,2.38,1*03
$GNGSA,A,3,,,,,,,,,,,,,2.62,1.11,2.38,4*0A
$GPGSV,3,1,11,02,06,154,48,04,14,117,48,05,21,266,49,09,4
5,323,49,0*6B
$GPGSV,3,2,11,12,32,266,49,15,60,214,50,17,39,051,49,18,07,283,48,0*67
$GPGSV,3,3,11,26,50,181,49,27,29,107,49,28,10,057,48,0*51
$BDGSV,1,1,00,0*74

$GNRMC,082326.00,A,3128.000048,N,12113.504999,E,9.720,270.01,010720,,,A,V*07
$GNGGA,082326.00,3128.000048,N,12113.504999,E,1,07,1.11,-7.1,M,9.4,M,,*53
$GNGSA,A,3,05,09,12,15,17,26,27,,,,,,2.62,1.11,2.38,1*03
$GNGSA,A,3,,,,,,,,,,,,,2.62,1.11,2.38,4*0A
$GPGSV,3,1,11,02,06,154,48,04,14,117,48,05,21,266,49,09,4
5,323,49,0*6B
$GPGSV,3,2,11,12,32,266,49,15,60,214,50,17,39,051,49,18,07,283,48,0*67
$GPGSV,3,3,11,26,50,181,49,27,29,107,49,28,10,057,48,0*51
$BDGSV,1,1,00,0*74

$GNRMC,082327.00,A,3128.000051,N,12113.501842,E,9.717,269.99,010720,,,A,V*01
$GNGGA,082327.00,3128.000051,N,12113.501842,E,1,07,1.11,-7.1,M,9.4,M,,*58
$GNGSA,A,3,05,09,12,15,17,26,27,,,,,,2.63,1.11,2.38,1*02
$GNGSA,A,3,,,,,,,,,,,,,2.63,1.11,2.38,4*0B
$GPGSV,3,1,11,02,06,154,48,04,14,117,48,05,21,266,49,09,4
5,323,49,0*6B
$GPGSV,3,2,11,12,32,266,49,15,60,214,50,17,39,051,49,18,07,283,48,0*67
$GPGSV,3,3,11,26,50,181,49,27,29,107,49,28,10,057,48,0*51
$BDGSV,1,1,00,0*74

$GNRMC,082328.00,A,3128.000053,N,12113.498685,E,9.716,269.97,010720,,,A,V*07
$GNGGA,082328.00,3128.000053,N,12113.498685,E,1,07,1.11,-7.1,M,9.4,M,,*51
$GNGSA,A,3,05,09,12,15,17,26,27,,,,,,2.63,1.11,2.38,1*02
$GNGSA,A,3,,,,,,,,,,,,,2.63,1.11,2.38,4*0B
$GPGSV,3,1,11,02,06,154,48,04,14,117,48,05,21,266,49,09,4
5,323,49,0*6B
$GPGSV,3,2,11,12,32,266,49,15,60,214,50,17,39,051,49,18,07,283,48,0*67
$GPGSV,3,3,11,26,50,181,49,27,29,107,49,28,10,057,48,0*51
$BDGSV,1,1,00,0*74

$GNRMC,082329.00,A,3128.000054,N,12113.495529,E,9.718,270.00,010720,,,A,V*01
$GNGGA,082329.00,3128.000054,N,12113.495529,E,1,07,1.11,-7.1,M,9.4,M,,*5F
$GNGSA,A,3,05,09,12,15,17,26,27,,,,,,2.63,1.11,2.38,1*02
$GNGSA,A,3,,,,,,,,,,,,,2.63,1.11,2.38,4*0B
$GPGSV,3,1,11,02,06,154,48,04,14,117,48,05,21,266,49,09,4
5,323,49,0*6B
$GPGSV,3,2,11,12,32,266,49,15,60,214,50,17,39,051,49,18,07,283,48,0*67
$GPGSV,3,3,11,26,50,181,49,27,29,107,49,28,10,057,48,0*51
$BDGSV,1,1,00,0*74

<????sim??????(SIM??:1)>
<????GSM????????(GSM:0)>
<????GPRS????????(GPRS:0)>
<????????????(SIGNAL:0)>
<????????????????(BER:0)>

<??????????????>

$GNRMC,082330.00,A,3128.000056,N,12113.492371,E,9.723,270.01,010720,,,A,V*0E
$GNGGA,082330.00,3128.000056,N,12113.492371,E,1,07,1.11,-7.1,M,9.4,M,,*59
$GNGSA,A,3,05,09,12,15,17,26,27,,,,,,2.63,1.11,2.38,1*02
$GNGSA,A,3,,,,,,,,,,,,,2.63,1.11,2.38,4*0B
$GPGSV,3,1,11,02,06,154,48,04,14,117,48,05,21,266,49,09,4
5,323,49,0*6B
$GPGSV,3,2,11,12,32,266,49,15,60,214,50,17,39,051,49,18,07,283,48,0*67
$GPGSV,3,3,11,26,50,181,49,27,29,107,49,28,10,057,48,0*51
$BDGSV,1,1,00,0*74

$GNRMC,082331.00,A,3128.000058,N,12113.489216,E,9.720,270.02,010720,,,A,V*0B
$GNGGA,082331.00,3128.000058,N,12113.489216,E,1,07,1.11,-7.1,M,9.4,M,,*5C
$GNGSA,A,3,05,09,12,15,17,26,27,,,,,,2.63,1.11,2.38,1*02
$GNGSA,A,3,,,,,,,,,,,,,2.63,1.11,2.38,4*0B
$GPGSV,3,1,11,02,06,154,48,04,14,117,48,05,21,266,48,09,4
5,323,49,0*6A
$GPGSV,3,2,11,12,32,266,49,15,60,214,50,17,39,051,49,18,07,283,48,0*67
$GPGSV,3,3,11,26,50,181,49,27,29,107,49,28,10,057,48,0*51
$BDGSV,1,1,00,0*74

$GNRMC,082332.00,A,3128.000058,N,12113.486058,E,9.722,270.02,010720,,,A,V*0D
$GNGGA,082332.00,3128.000058,N,12113.486058,E,1,07,1.11,-7.1,M,9.4,M,,*58
$GNGSA,A,3,05,09,12,15,17,26,27,,,,,,2.63,1.11,2.38,1*02
$GNGSA,A,3,,,,,,,,,,,,,2.63,1.11,2.38,4*0B
$GPGSV,3,1,11,02,06,154,48,04,14,117,48,05,21,266,48,09,4
5,323,49,0*6A
$GPGSV,3,2,11,12,32,266,49,15,60,214,50,17,39,051,49,18,07,283,48,0*67
$GPGSV,3,3,11,26,50,181,49,27,29,107,49,28,10,057,48,0*51
$BDGSV,1,1,00,0*74

$GNRMC,082333.00,A,3128.000058,N,12113.482901,E,9.718,270.00,010720,,,A,V*06
$GNGGA,082333.00,3128.000058,N,12113.482901,E,1,07,1.11,-7.1,M,9.4,M,,*58
$GNGSA,A,3,05,09,12,15,17,26,27,,,,,,2.63,1.11,2.38,1*02
$GNGSA,A,3,,,,,,,,,,,,,2.63,1.11,2.38,4*0B
$GPGSV,3,1,11,02,06,154,48,04,14,117,48,05,21,266,49,09,4
5,323,49,0*6B
$GPGSV,3,2,11,12,32,266,49,15,60,214,50,17,39,051,49,18,07,283,48,0*67
$GPGSV,3,3,11,26,50,181,49,27,29,107,49,28,10,057,48,0*51
$BDGSV,1,1,00,0*74

$GNRMC,082334.00,A,3128.000059,N,12113.479743,E,9.720,270.02,010720,,,A,V*05
$GNGGA,082334.00,3128.000059,N,12113.479743,E,1,07,1.11,-7.0,M,9.4,M,,*53
$GNGSA,A,3,05,09,12,15,17,26,27,,,,,,2.63,1.11,2.38,1*02
$GNGSA,A,3,,,,,,,,,,,,,2.63,1.11,2.38,4*0B
$GPGSV,3,1,11,02,06,154,48,04,14,117,48,05,21,266,49,09,4
5,323,49,0*6B
$GPGSV,3,2,11,12,32,266,49,15,60,214,50,17,39,051,49,18,07,283,48,0*67
$GPGSV,3,3,11,26,50,181,49,27,29,107,49,28,10,057,48,0*51
$BDGSV,1,1,00,0*74


GPS HPregnss> E1 15 00 00 00 00 07 53 8F 3E 82 00 00 00 1C 39 8D 8D 6F 00 00 00 00 


$GNRMC,082335.00,A,3128.000062,N,12113.476586,E,9.721,270.02,010720,,,A,V*09
$GNGGA,082335.00,3128.000062,N,12113.476586,E,1,07,1.11,-7.0,M,9.4,M,,*5E
$GNGSA,A,3,05,09,12,15,17,26,27,,,,,,2.63,1.11,2.38,1*02
$GNGSA,A,3,,,,,,,,,,,,,2.63,1.11,2.38,4*0B
$GPGSV,3,1,11,02,06,154,48,04,14,117,48,05,21,266,48,09,4
5,323,49,0*6A
$GPGSV,3,2,11,12,32,266,49,15,60,214,50,17,39,051,49,18,07,283,48,0*67
$GPGSV,3,3,11,26,50,181,49,27,29,107,49,28,10,057,48,0*51
$BDGSV,1,1,00,0*74

$GNRMC,082336.00,A,3128.000061,N,12113.473430,E,9.720,270.00,010720,,,A,V*03
$GNGGA,082336.00,3128.000061,N,12113.473430,E,1,07,1.11,-7.0,M,9.4,M,,*57
$GNGSA,A,3,05,09,12,15,17,26,27,,,,,,2.63,1.11,2.38,1*02
$GNGSA,A,3,,,,,,,,,,,,,2.63,1.11,2.38,4*0B
$GPGSV,3,1,11,02,06,154,48,04,14,117,48,05,21,266,48,09,4
5,323,49,0*6A
$GPGSV,3,2,11,12,32,266,49,15,60,214,50,17,39,051,49,18,07,283,48,0*67
$GPGSV,3,3,11,26,50,181,49,27,29,107,49,28,10,057,48,0*51
$BDGSV,1,1,00,0*74

$GNRMC,082337.00,A,3128.000061,N,12113.470273,E,9.719,270.00,010720,,,A,V*0A
$GNGGA,082337.00,3128.000061,N,12113.470273,E,1,07,1.11,-7.0,M,9.4,M,,*54
$GNGSA,A,3,05,09,12,15,17,26,27,,,,,,2.63,1.11,2.38,1*02
$GNGSA,A,3,,,,,,,,,,,,,2.63,1.11,2.38,4*0B
$GPGSV,3,1,11,02,06,154,48,04,14,117,48,05,21,266,49,09,4
5,323,49,0*6B
$GPGSV,3,2,11,12,32,266,49,15,60,214,50,17,39,051,49,18,07,283,48,0*67
$GPGSV,3,3,11,26,50,181,49,27,29,107,49,28,10,057,48,0*51
$BDGSV,1,1,00,0*74

$GNRMC,082338.00,A,3128.000058,N,12113.467118,E,9.717,269.97,010720,,,A,V*0F
$GNGGA,082338.00,3128.000058,N,12113.467118,E,1,07,1.11,-7.1,M,9.4,M,,*58
$GNGSA,A,3,05,09,12,15,17,26,27,,,,,,2.63,1.11,2.38,1*02
$GNGSA,A,3,,,,,,,,,,,,,2.63,1.11,2.38,4*0B
$GPGSV,3,1,11,02,06,154,48,04,14,117,48,05,21,266,48,09,4
5,323,49,0*6A
$GPGSV,3,2,11,12,32,266,49,15,60,214,50,17,39,051,49,18,07,283,48,0*67
$GPGSV,3,3,11,26,50,181,49,27,29,107,49,28,10,057,48,0*51
$BDGSV,1,1,00,0*74

$GNRMC,082339.00,A,3128.000058,N,12113.463961,E,9.721,270.02,010720,,,A,V*0D
$GNGGA,082339.00,3128.000058,N,12113.463961,E,1,07,1.11,-7.0,M,9.4,M,,*5A
$GNGSA,A,3,05,09,12,15,17,26,27,,,,,,2.63,1.11,2.38,1*02
$GNGSA,A,3,,,,,,,,,,,,,2.63,1.11,2.38,4*0B
$GPGSV,3,1,11,02,06,154,48,04,14,117,48,05,21,266,49,09,4
5,323,49,0*6B
$GPGSV,3,2,11,12,32,266,49,15,60,213,50,17,39,051,49,18,07,283,48,0*60
$GPGSV,3,3,11,26,50,181,49,27,29,107,49,28,10,057,48,0*51
$BDGSV,1,1,00,0*74

<??????????????>

$GNRMC,082340.00,A,3128.000058,N,12113.460804,E,9.721,270.01,010720,,,A,V*01
$GNGGA,082340.00,3128.000058,N,12113.460804,E,1,07,1.11,-7.0,M,9.4,M,,*55
$GNGSA,A,3,05,09,12,15,17,26,27,,,,,,2.63,1.11,2.38,1*02
$GNGSA,A,3,,,,,,,,,,,,,2.63,1.11,2.38,4*0B
$GPGSV,3,1,11,02,06,154,48,04,14,117,48,05,21,266,49,09,4
5,323,49,0*6B
$GPGSV,3,2,11,12,32,266,49,15,60,213,50,17,39,051,49,18,07,283,48,0*60
$GPGSV,3,3,11,26,50,181,49,27,29,107,49,28,10,057,48,0*51
$BDGSV,1,1,00,0*74

$GNRMC,082341.00,A,3128.000058,N,12113.457647,E,9.721,270.04,010720,,,A,V*08
$GNGGA,082341.00,3128.000058,N,12113.457647,E,1,07,1.11,-7.0,M,9.4,M,,*59
$GNGSA,A,3,05,09,12,15,17,26,27,,,,,,2.63,1.11,2.38,1*02
$GNGSA,A,3,,,,,,,,,,,,,2.63,1.11,2.38,4*0B
$GPGSV,3,1,11,02,06,154,48,04,14,117,48,05,21,266,49,09,4
5,323,49,0*6B
$GPGSV,3,2,11,12,32,266,49,15,60,213,50,17,39,051,49,18,07,283,48,0*60
$GPGSV,3,3,11,26,50,181,49,27,29,107,49,28,10,057,48,0*51
$BDGSV,1,1,00,0*74

$GNRMC,082342.00,A,3128.000057,N,12113.454490,E,9.722,270.01,010720,,,A,V*09
$GNGGA,082342.00,3128.000057,N,12113.454490,E,1,07,1.11,-7.0,M,9.4,M,,*5E
$GNGSA,A,3,05,09,12,15,17,26,27,,,,,,2.63,1.11,2.38,1*02
$GNGSA,A,3,,,,,,,,,,,,,2.63,1.11,2.38,4*0B
$GPGSV,3,1,11,02,06,154,48,04,14,117,48,05,21,266,48,09,4
5,323,49,0*6A
$GPGSV,3,2,11,12,32,266,49,15,60,213,50,17,39,051,49,18,07,283,48,0*60
$GPGSV,3,3,11,26,50,181,49,27,29,107,49,28,10,057,48,0*51
$BDGSV,1,1,00,0*74

$GNRMC,082343.00,A,3128.000057,N,12113.451334,E,9.720,270.01,010720,,,A,V*06
$GNGGA,082343.00,3128.000057,N,12113.451334,E,1,07,1.11,-7.0,M,9.4,M,,*53
$GNGSA,A,3,05,09,12,15,17,26,27,,,,,,2.63,1.11,2.38,1*02
$GNGSA,A,3,,,,,,,,,,,,,2.63,1.11,2.38,4*0B
$GPGSV,3,1,11,02,06,154,48,04,14,117,48,05,21,266,49,09,4
5,323,49,0*6B
$GPGSV,3,2,11,12,32,266,49,15,60,213,50,17,39,051,49,18,07,283,48,0*60
$GPGSV,3,3,11,26,50,181,49,27,29,107,49,28,10,057,48,0*51
$BDGSV,1,1,00,0*74

$GNRMC,082344.00,A,3128.000058,N,12113.448177,E,9.721,270.01,010720,,,A,V*02
$GNGGA,082344.00,3128.000058,N,12113.448177,E,1,07,1.11,-7.0,M,9.4,M,,*56
$GNGSA,A,3,05,09,12,15,17,26,27,,,,,,2.63,1.11,2.38,1*02
$GNGSA,A,3,,,,,,,,,,,,,2.63,1.11,2.38,4*0B
$GPGSV,3,1,11,02,06,154,48,04,14,117,48,05,21,266,49,09,4
5,323,49,0*6B
$GPGSV,3,2,11,12,32,266,49,15,60,213,50,17,39,051,49,18,07,283,48,0*60
$GPGSV,3,3,11,26,50,181,49,27,29,107,49,28,10,057,48,0*51
$BDGSV,1,1,00,0*74

$GNRMC,082345.00,A,3128.000060,N,12113.445021,E,9.719,270.02,010720,,,A,V*0F
$GNGGA,082345.00,3128.000060,N,12113.445021,E,1,07,1.11,-7.0,M,9.4,M,,*53
$GNGSA,A,3,05,09,12,15,17,26,27,,,,,,2.63,1.11,2.38,1*02
$GNGSA,A,3,,,,,,,,,,,,,2.63,1.11,2.38,4*0B
$GPGSV,3,1,11,02,06,154,48,04,14,117,48,05,21,266,49,09,4
5,323,49,0*6B
$GPGSV,3,2,11,12,32,266,49,15,60,213,50,17,39,051,49,18,07,283,48,0*60
$GPGSV,3,3,11,26,49,181,49,27,29,107,49,28,10,057,48,0*59
$BDGSV,1,1,00,0*74

$GNRMC,082346.00,A,3128.000061,N,12113.441864,E,9.721,270.02,010720,,,A,V*0B
$GNGGA,082346.00,3128.000061,N,12113.441864,E,1,07,1.11,-7.0,M,9.4,M,,*5C
$GNGSA,A,3,05,09,12,15,17,26,27,,,,,,2.63,1.11,2.38,1*02
$GNGSA,A,3,,,,,,,,,,,,,2.63,1.11,2.38,4*0B
$GPGSV,3,1,11,02,06,154,48,04,14,117,48,05,21,266,48,09,4
5,323,49,0*6A
$GPGSV,3,2,11,12,32,266,49,15,60,213,50,17,39,051,49,18,07,283,48,0*60
$GPGSV,3,3,11,26,49,181,49,27,29,107,49,28,10,057,48,0*59
$BDGSV,1,1,00,0*74

$GNRMC,082347.00,A,3128.000060,N,12113.438707,E,9.719,270.00,010720,,,A,V*06
$GNGGA,082347.00,3128.000060,N,12113.438707,E,1,07,1.11,-7.0,M,9.4,M,,*58
$GNGSA,A,3,05,09,12,15,17,26,27,,,,,,2.63,1.11,2.38,1*02
$GNGSA,A,3,,,,,,,,,,,,,2.63,1.11,2.38,4*0B
$GPGSV,3,1,11,02,06,154,48,04,14,117,48,05,21,266,49,09,4
5,323,49,0*6B
$GPGSV,3,2,11,12,32,266,49,15,60,213,50,17,39,051,49,18,07,283,48,0*60
$GPGSV,3,3,11,26,49,181,49,27,29,107,49,28,10,057,48,0*59
$BDGSV,1,1,00,0*74

$GNRMC,082348.00,A,3128.000061,N,12113.435549,E,9.721,270.01,010720,,,A,V*07
$GNGGA,082348.00,3128.000061,N,12113.435549,E,1,07,1.11,-7.0,M,9.4,M,,*53
$GNGSA,A,3,05,09,12,15,17,26,27,,,,,,2.63,1.11,2.38,1*02
$GNGSA,A,3,,,,,,,,,,,,,2.63,1.11,2.38,4*0B
$GPGSV,3,1,11,02,06,154,48,04,14,117,48,05,21,266,49,09,4
5,323,49,0*6B
$GPGSV,3,2,11,12,32,266,49,15,60,213,50,17,39,051,49,18,07,283,48,0*60
$GPGSV,3,3,11,26,49,181,49,27,29,107,49,28,10,057,48,0*59
$BDGSV,1,1,00,0*74

$GNRMC,082349.00,A,3128.000059,N,12113.432394,E,9.718,269.98,010720,,,A,V*0E
$GNGGA,082349.00,3128.000059,N,12113.432394,E,1,07,1.11,-7.0,M,9.4,M,,*58
$GNGSA,A,3,05,09,12,15,17,26,27,,,,,,2.63,1.11,2.38,1*02
$GNGSA,A,3,,,,,,,,,,,,,2.63,1.11,2.38,4*0B
$GPGSV,3,1,11,02,06,154,48,04,14,117,48,05,21,266,48,09,4
5,323,49,0*6A
$GPGSV,3,2,11,12,32,266,49,15,60,213,50,17,39,051,49,18,07,283,48,0*60
$GPGSV,3,3,11,26,49,181,49,27,29,107,49,28,10,057,48,0*59
$BDGSV,1,1,00,0*74

<????sim??????(SIM??:1)>
<????GSM????????(GSM:0)>
<????GPRS????????(GPRS:0)>
<????????????(SIGNAL:0)>
<????????????????(BER:0)>

<??????????????>

$GNRMC,082350.00,A,3128.000059,N,12113.429238,E,9.721,270.01,010720,,,A,V*09
$GNGGA,082350.00,3128.000059,N,12113.429238,E,1,07,1.11,-7.0,M,9.4,M,,*5D
$GNGSA,A,3,05,09,12,15,17,26,27,,,,,,2.63,1.11,2.39,1*03
$GNGSA,A,3,,,,,,,,,,,,,2.63,1.11,2.39,4*0A
$GPGSV,3,1,11,02,06,154,48,04,14,117,48,05,21,266,48,09,4
5,323,49,0*6A
$GPGSV,3,2,11,12,32,266,49,15,60,213,50,17,39,051,49,18,07,283,48,0*60
$GPGSV,3,3,11,26,49,181,49,27,29,107,49,28,10,057,48,0*59
$BDGSV,1,1,00,0*74

$GNRMC,082351.00,A,3128.000059,N,12113.426081,E,9.721,270.02,010720,,,A,V*04
$GNGGA,082351.00,3128.000059,N,12113.426081,E,1,07,1.11,-7.0,M,9.4,M,,*53
$GNGSA,A,3,05,09,12,15,17,26,27,,,,,,2.63,1.11,2.39,1*03
$GNGSA,A,3,,,,,,,,,,,,,2.63,1.11,2.39,4*0A
$GPGSV,3,1,11,02,06,154,48,04,14,117,48,05,21,266,49,09,4
5,323,49,0*6B
$GPGSV,3,2,11,12,32,266,49,15,60,213,50,17,39,051,49,18,07,283,48,0*60
$GPGSV,3,3,11,26,49,181,49,27,29,107,49,28,10,057,48,0*59
$BDGSV,1,1,00,0*74

$GNRMC,082352.00,A,3128.000060,N,12113.422925,E,9.719,269.99,010720,,,A,V*0F
$GNGGA,082352.00,3128.000060,N,12113.422925,E,1,07,1.11,-7.0,M,9.4,M,,*59
$GNGSA,A,3,05,09,12,15,17,26,27,,,,,,2.63,1.11,2.39,1*03
$GNGSA,A,3,,,,,,,,,,,,,2.63,1.11,2.39,4*0A
$GPGSV,3,1,11,02,06,154,48,04,14,117,48,05,21,266,48,09,4
5,323,49,0*6A
$GPGSV,3,2,11,12,32,266,49,15,60,213,50,17,39,051,49,18,07,283,48,0*60
$GPGSV,3,3,11,26,49,181,49,27,29,107,49,28,10,057,48,0*59
$BDGSV,1,1,00,0*74

$GNRMC,082353.00,A,3128.000059,N,12113.419768,E,9.719,269.98,010720,,,A,V*0A
$GNGGA,082353.00,3128.000059,N,12113.419768,E,1,07,1.11,-7.0,M,9.4,M,,*5D
$GNGSA,A,3,05,09,12,15,17,26,27,,,,,,2.63,1.11,2.39,1*03
$GNGSA,A,3,,,,,,,,,,,,,2.63,1.11,2.39,4*0A
$GPGSV,3,1,11,02,06,154,48,04,14,117,48,05,21,266,49,09,4
5,323,49,0*6B
$GPGSV,3,2,11,12,32,266,49,15,60,213,50,17,39,051,49,18,07,283,48,0*60
$GPGSV,3,3,11,26,49,181,49,27,29,107,49,28,10,057,48,0*59
$BDGSV,1,1,00,0*74

$GNRMC,082354.00,A,3128.000059,N,12113.416612,E,9.719,270.01,010720,,,A,V*06
$GNGGA,082354.00,3128.000059,N,12113.416612,E,1,07,1.11,-7.0,M,9.4,M,,*59
$GNGSA,A,3,05,09,12,15,17,26,27,,,,,,2.63,1.11,2.39,1*03
$GNGSA,A,3,,,,,,,,,,,,,2.63,1.11,2.39,4*0A
$GPGSV,3,1,11,02,06,154,48,04,14,117,48,05,21,266,49,09,4
5,323,49,0*6B
$GPGSV,3,2,11,12,32,266,49,15,60,213,50,17,39,051,49,18,07,283,48,0*60
$GPGSV,3,3,11,26,49,181,49,27,29,107,49,28,10,057,48,0*59
$BDGSV,1,1,00,0*74

$GNRMC,082355.00,A,3128.000059,N,12113.413455,E,9.721,270.01,010720,,,A,V*08
$GNGGA,082355.00,3128.000059,N,12113.413455,E,1,07,1.11,-7.0,M,9.4,M,,*5C
$GNGSA,A,3,05,09,12,15,17,26,27,,,,,,2.63,1.11,2.39,1*03
$GNGSA,A,3,,,,,,,,,,,,,2.63,1.11,2.39,4*0A
$GPGSV,3,1,11,02,06,154,48,04,14,117,48,05,21,266,48,09,4
5,323,49,0*6A
$GPGSV,3,2,11,12,32,266,49,15,60,213,50,17,39,051,49,18,07,283,48,0*60
$GPGSV,3,3,11,26,49,181,49,27,29,107,49,28,10,057,48,0*59
$BDGSV,1,1,00,0*74

$GNRMC,082356.00,A,3128.000059,N,12113.410298,E,9.720,270.02,010720,,,A,V*0D
$GNGGA,082356.00,3128.000059,N,12113.410298,E,1,07,1.11,-7.0,M,9.4,M,,*5B
$GNGSA,A,3,05,09,12,15,17,26,27,,,,,,2.63,1.11,2.39,1*03
$GNGSA,A,3,,,,,,,,,,,,,2.63,1.11,2.39,4*0A
$GPGSV,3,1,11,02,06,154,48,04,14,117,48,05,21,266,48,09,4
5,323,49,0*6A
$GPGSV,3,2,11,12,32,266,49,15,60,213,50,17,39,051,49,18,07,283,48,0*60
$GPGSV,3,3,11,26,49,181,49,27,29,107,49,28,10,057,48,0*59
$BDGSV,1,1,00,0*74

$GNRMC,082357.00,A,3128.000057,N,12113.407141,E,9.718,269.96,010720,,,A,V*0D
$GNGGA,082357.00,3128.000057,N,12113.407141,E,1,07,1.11,-7.0,M,9.4,M,,*55
$GNGSA,A,3,05,09,12,15,17,26,27,,,,,,2.63,1.11,2.39,1*03
$GNGSA,A,3,,,,,,,,,,,,,2.63,1.11,2.39,4*0A
$GPGSV,4,1,13,02,06,154,48,04,14,117,48,05,21,266,49,08,,
,21,0*52
$GPGSV,4,2,13,09,45,323,49,12,32,266,49,15,60,213,50,17,39,051,49,0*69
$GPGSV,4,3,13,18,07,283,48,26,49,181,49,27,29,107,49,28,10,057,48,0*67
$GPGSV,4,4,13,30,,,29,0*6F
$BDGSV,1,1,00,0*74

$GNRMC,082358.00,A,3128.000055,N,12113.403984,E,9.719,269.99,010720,,,A,V*0B
$GNGGA,082358.00,3128.000055,N,12113.403984,E,1,07,1.11,-7.0,M,9.4,M,,*5D
$GNGSA,A,3,05,09,12,15,17,26,27,,,,,,2.63,1.11,2.39,1*03
$GNGSA,A,3,,,,,,,,,,,,,2.63,1.11,2.39,4*0A
$GPGSV,3,1,11,02,06,154,48,04,14,117,48,05,21,266,48,09,4
5,323,49,0*6A
$GPGSV,3,2,11,12,32,266,49,15,60,213,50,17,39,051,49,18,07,283,48,0*60
$GPGSV,3,3,11,26,49,181,49,27,29,107,49,28,10,057,48,0*59
$BDGSV,1,1,00,0*74

$GNRMC,082359.00,A,3128.000055,N,12113.400828,E,9.719,269.99,010720,,,A,V*0E
$GNGGA,082359.00,3128.000055,N,12113.400828,E,1,07,1.11,-7.0,M,9.4,M,,*58
$GNGSA,A,3,05,09,12,15,17,26,27,,,,,,2.63,1.11,2.39,1*03
$GNGSA,A,3,,,,,,,,,,,,,2.63,1.11,2.39,4*0A
$GPGSV,3,1,11,02,06,154,48,04,14,117,48,05,21,266,49,09,4
5,323,49,0*6B
$GPGSV,3,2,11,12,32,266,49,15,60,213,50,17,39,051,49,18,07,283,48,0*60
$GPGSV,3,3,11,26,49,181,49,27,29,107,49,28,10,057,48,0*59
$BDGSV,1,1,00,0*74

<??????????????>

$GNRMC,082400.00,A,3128.000056,N,12113.397673,E,9.720,270.02,010720,,,A,V*0F
$GNGGA,082400.00,3128.000056,N,12113.397673,E,1,07,1.11,-7.0,M,9.4,M,,*59
$GNGSA,A,3,05,09,12,15,17,26,27,,,,,,2.63,1.11,2.39,1*03
$GNGSA,A,3,,,,,,,,,,,,,2.63,1.11,2.39,4*0A
$GPGSV,3,1,12,02,06,154,48,04,14,117,48,05,21,266,48,09,4
5,323,49,0*69
$GPGSV,3,2,12,12,32,266,49,15,60,213,50,17,39,051,49,18,07,283,48,0*63
$GPGSV,3,3,12,26,49,181,49,27,29,107,49,28,10,057,48,30,,,28,0*53
$BDGSV,1,1,00,0*74

$GNRMC,082401.00,A,3128.000056,N,12113.394516,E,9.722,270.01,010720,,,A,V*0C
$GNGGA,082401.00,3128.000056,N,12113.394516,E,1,07,1.11,-7.0,M,9.4,M,,*5B
$GNGSA,A,3,05,09,12,15,17,26,27,,,,,,2.63,1.11,2.39,1*03
$GNGSA,A,3,,,,,,,,,,,,,2.63,1.11,2.39,4*0A
$GPGSV,3,1,11,02,06,154,48,04,14,117,48,05,21,266,48,09,4
5,323,49,0*6A
$GPGSV,3,2,11,12,32,266,49,15,60,213,50,17,39,051,49,18,07,283,48,0*60
$GPGSV,3,3,11,26,49,181,49,27,29,107,49,28,10,057,48,0*59
$BDGSV,1,1,00,0*74

$GNRMC,082402.00,A,3128.000057,N,12113.391359,E,9.720,270.02,010720,,,A,V*07
$GNGGA,082402.00,3128.000057,N,12113.391359,E,1,07,1.11,-7.0,M,9.4,M,,*51
$GNGSA,A,3,05,09,12,15,17,26,27,,,,,,2.63,1.11,2.39,1*03
$GNGSA,A,3,,,,,,,,,,,,,2.63,1.11,2.39,4*0A
$GPGSV,3,1,11,02,06,154,48,04,14,117,48,05,21,266,49,09,4
5,323,49,0*6B
$GPGSV,3,2,11,12,32,266,49,15,60,213,50,17,39,051,49,18,07,283,48,0*60
$GPGSV,3,3,11,26,49,181,49,27,29,107,49,28,10,057,48,0*59
$BDGSV,1,1,00,0*74

$GNRMC,082403.00,A,3128.000058,N,12113.388201,E,9.722,270.00,010720,,,A,V*0D
$GNGGA,082403.00,3128.000058,N,12113.388201,E,1,07,1.11,-6.9,M,9.4,M,,*53
$GNGSA,A,3,05,09,12,15,17,26,27,,,,,,2.63,1.11,2.39,1*03
$GNGSA,A,3,,,,,,,,,,,,,2.63,1.11,2.39,4*0A
$GPGSV,3,1,11,02,06,154,48,04,14,117,48,05,21,266,49,09,4
5,323,49,0*6B
$GPGSV,3,2,11,12,32,266,49,15,60,213,50,17,39,051,49,18,07,283,48,0*60
$GPGSV,3,3,11,26,49,181,49,27,29,107,49,28,10,057,48,0*59
$BDGSV,1,1,00,0*74

$GNRMC,082404.00,A,3128.000059,N,12113.385042,E,9.719,270.02,010720,,,A,V*09
$GNGGA,082404.00,3128.000059,N,12113.385042,E,1,07,1.11,-6.9,M,9.4,M,,*5D
$GNGSA,A,3,05,09,12,15,17,26,27,,,,,,2.63,1.11,2.39,1*03
$GNGSA,A,3,,,,,,,,,,,,,2.63,1.11,2.39,4*0A
$GPGSV,3,1,11,02,06,154,48,04,14,117,48,05,21,266,49,09,4
5,323,49,0*6B
$GPGSV,3,2,11,12,32,266,49,15,60,213,50,17,39,051,49,18,07,283,48,0*60
$GPGSV,3,3,11,26,49,181,49,27,29,107,49,28,10,057,48,0*59
$BDGSV,1,1,00,0*74

$GNRMC,082405.00,A,3128.000058,N,12113.381884,E,9.720,270.00,010720,,,A,V*07
$GNGGA,082405.00,3128.000058,N,12113.381884,E,1,07,1.11,-6.9,M,9.4,M,,*5B
$GNGSA,A,3,05,09,12,15,17,26,27,,,,,,2.63,1.11,2.39,1*03
$GNGSA,A,3,,,,,,,,,,,,,2.63,1.11,2.39,4*0A
$GPGSV,3,1,11,02,06,154,48,04,14,117,48,05,21,266,49,09,4
5,323,49,0*6B
$GPGSV,3,2,11,12,32,266,49,15,60,213,50,17,39,051,49,18,07,283,48,0*60
$GPGSV,3,3,11,26,49,181,49,27,29,107,49,28,10,058,48,0*56
$BDGSV,1,1,00,0*74


GPS HPregnss> E1 15 00 00 00 00 07 53 8F 3E 71 00 00 00 1C 39 74 AA 68 00 00 00 00 


$GNRMC,082406.00,A,3128.000058,N,12113.378728,E,9.721,270.02,010720,,,A,V*08
$GNGGA,082406.00,3128.000058,N,12113.378728,E,1,07,1.11,-6.9,M,9.4,M,,*57
$GNGSA,A,3,05,09,12,15,17,26,27,,,,,,2.63,1.11,2.39,1*03
$GNGSA,A,3,,,,,,,,,,,,,2.63,1.11,2.39,4*0A
$GPGSV,3,1,11,02,06,154,48,04,14,117,48,05,21,266,49,09,4
5,323,49,0*6B
$GPGSV,3,2,11,12,32,266,49,15,60,213,50,17,39,051,49,18,07,283,48,0*60
$GPGSV,3,3,11,26,49,181,49,27,29,107,49,28,10,058,48,0*56
$BDGSV,1,1,00,0*74

$GNRMC,082407.00,A,3128.000057,N,12113.375571,E,9.720,270.02,010720,,,A,V*04
$GNGGA,082407.00,3128.000057,N,12113.375571,E,1,07,1.11,-6.9,M,9.4,M,,*5A
$GNGSA,A,3,05,09,12,15,17,26,27,,,,,,2.63,1.11,2.39,1*03
$GNGSA,A,3,,,,,,,,,,,,,2.63,1.11,2.39,4*0A
$GPGSV,3,1,11,02,06,154,48,04,14,117,48,05,21,266,48,09,4
5,323,49,0*6A
$GPGSV,3,2,11,12,32,266,49,15,60,213,50,17,39,051,49,18,07,283,48,0*60
$GPGSV,3,3,11,26,49,181,49,27,29,107,49,28,10,058,48,0*56
$BDGSV,1,1,00,0*74

$GNRMC,082408.00,A,3128.000056,N,12113.372414,E,9.718,269.98,010720,,,A,V*0F
$GNGGA,082408.00,3128.000056,N,12113.372414,E,1,07,1.11,-6.9,M,9.4,M,,*51
$GNGSA,A,3,05,09,12,15,17,26,27,,,,,,2.63,1.11,2.39,1*03
$GNGSA,A,3,,,,,,,,,,,,,2.63,1.11,2.39,4*0A
$GPGSV,3,1,11,02,06,154,48,04,14,117,48,05,21,266,49,09,4
5,323,49,0*6B
$GPGSV,3,2,11,12,32,266,49,15,60,213,50,17,39,051,49,18,07,283,48,0*60
$GPGSV,3,3,11,26,49,181,49,27,29,107,49,28,10,058,48,0*56
$BDGSV,1,1,00,0*74

$GNRMC,082409.00,A,3128.000055,N,12113.369258,E,9.721,270.00,010720,,,A,V*0A
$GNGGA,082409.00,3128.000055,N,12113.369258,E,1,07,1.11,-6.9,M,9.4,M,,*57
$GNGSA,A,3,05,09,12,15,17,26,27,,,,,,2.63,1.11,2.39,1*03
$GNGSA,A,3,,,,,,,,,,,,,2.63,1.11,2.39,4*0A
$GPGSV,3,1,11,02,06,154,48,04,14,117,48,05,21,266,48,09,4
5,323,49,0*6A
$GPGSV,3,2,11,12,32,266,49,15,60,213,50,17,39,051,49,18,07,283,48,0*60
$GPGSV,3,3,11,26,49,181,49,27,29,107,49,28,10,058,48,0*56
$BDGSV,1,1,00,0*74

<????sim??????(SIM??:1)>
<????GSM????????(GSM:0)>
<????GPRS????????(GPRS:0)>
<????????????(SIGNAL:0)>
<????????????????(BER:0)>

<??????????????>

$GNRMC,082410.00,A,3128.000056,N,12113.366100,E,9.722,270.02,010720,,,A,V*01
$GNGGA,082410.00,3128.000056,N,12113.366100,E,1,07,1.11,-6.9,M,9.4,M,,*5D
$GNGSA,A,3,05,09,12,15,17,26,27,,,,,,2.64,1.11,2.39,1*04
$GNGSA,A,3,,,,,,,,,,,,,2.64,1.11,2.39,4*0D
$GPGSV,3,1,11,02,06,154,48,04,14,117,48,05,21,266,49,09,4
5,323,49,0*6B
$GPGSV,3,2,11,12,32,266,49,15,60,213,50,17,39,051,49,18,07,283,48,0*60
$GPGSV,3,3,11,26,49,181,49,27,29,107,49,28,10,058,48,0*56
$BDGSV,1,1,00,0*74

$GNRMC,082411.00,A,3128.000055,N,12113.362942,E,9.721,270.02,010720,,,A,V*0A
$GNGGA,082411.00,3128.000055,N,12113.362942,E,1,07,1.11,-6.9,M,9.4,M,,*55
$GNGSA,A,3,05,09,12,15,17,26,27,,,,,,2.64,1.11,2.39,1*04
$GNGSA,A,3,,,,,,,,,,,,,2.64,1.11,2.39,4*0D
$GPGSV,3,1,11,02,06,154,48,04,14,117,48,05,21,266,49,09,4
5,323,49,0*6B
$GPGSV,3,2,11,12,32,266,49,15,60,213,50,17,39,051,49,18,07,283,48,0*60
$GPGSV,3,3,11,26,49,181,49,27,29,107,49,28,10,058,48,0*56
$BDGSV,1,1,00,0*74

$GNRMC,082412.00,A,3128.000055,N,12113.359785,E,9.721,270.03,010720,,,A,V*05
$GNGGA,082412.00,3128.000055,N,12113.359785,E,1,07,1.11,-6.9,M,9.4,M,,*5B
$GNGSA,A,3,05,09,12,15,17,26,27,,,,,,2.64,1.11,2.39,1*04
$GNGSA,A,3,,,,,,,,,,,,,2.64,1.11,2.39,4*0D
$GPGSV,3,1,11,02,06,154,48,04,14,117,48,05,21,266,49,09,4
5,323,49,0*6B
$GPGSV,3,2,11,12,32,266,49,15,60,213,50,17,39,051,49,18,07,283,48,0*60
$GPGSV,3,3,11,26,49,181,49,27,29,107,49,28,10,058,48,0*56
$BDGSV,1,1,00,0*74

$GNRMC,082413.00,A,3128.000056,N,12113.356628,E,9.720,270.00,010720,,,A,V*0C
$GNGGA,082413.00,3128.000056,N,12113.356628,E,1,07,1.11,-6.9,M,9.4,M,,*50
$GNGSA,A,3,05,09,12,15,17,26,27,,,,,,2.64,1.11,2.39,1*04
$GNGSA,A,3,,,,,,,,,,,,,2.64,1.11,2.39,4*0D
$GPGSV,3,1,11,02,06,154,48,04,14,117,48,05,21,266,49,09,4
6,323,49,0*68
$GPGSV,3,2,11,12,32,266,49,15,60,213,50,17,39,051,49,18,07,283,48,0*60
$GPGSV,3,3,11,26,49,181,49,27,29,107,49,28,10,058,48,0*56
$BDGSV,1,1,00,0*74

$GNRMC,082414.00,A,3128.000057,N,12113.353472,E,9.720,270.01,010720,,,A,V*03
$GNGGA,082414.00,3128.000057,N,12113.353472,E,1,07,1.11,-6.9,M,9.4,M,,*5E
$GNGSA,A,3,05,09,12,15,17,26,27,,,,,,2.64,1.11,2.39,1*04
$GNGSA,A,3,,,,,,,,,,,,,2.64,1.11,2.39,4*0D
$GPGSV,3,1,11,02,06,154,48,04,14,117,48,05,21,266,49,09,4
6,323,49,0*68
$GPGSV,3,2,11,12,32,267,49,15,60,213,50,17,39,051,49,18,07,283,48,0*61
$GPGSV,3,3,11,26,49,181,49,27,29,107,49,28,10,058,48,0*56
$BDGSV,1,1,00,0*74

$GNRMC,082415.00,A,3128.000057,N,12113.350314,E,9.723,270.01,010720,,,A,V*05
$GNGGA,082415.00,3128.000057,N,12113.350314,E,1,07,1.11,-6.9,M,9.4,M,,*5B
$GNGSA,A,3,05,09,12,15,17,26,27,,,,,,2.64,1.11,2.39,1*04
$GNGSA,A,3,,,,,,,,,,,,,2.64,1.11,2.39,4*0D
$GPGSV,3,1,11,02,06,154,48,04,14,117,48,05,21,266,49,09,4
6,323,49,0*68
$GPGSV,3,2,11,12,32,267,49,15,60,213,50,17,39,051,49,18,07,283,48,0*61
$GPGSV,3,3,11,26,49,181,49,27,29,107,49,28,10,058,48,0*56
$BDGSV,1,1,00,0*74

$GNRMC,082416.00,A,3128.000056,N,12113.347157,E,9.721,270.02,010720,,,A,V*05
$GNGGA,082416.00,3128.000056,N,12113.347157,E,1,07,1.11,-6.9,M,9.4,M,,*5A
$GNGSA,A,3,05,09,12,15,17,26,27,,,,,,2.64,1.11,2.39,1*04
$GNGSA,A,3,,,,,,,,,,,,,2.64,1.11,2.39,4*0D
$GPGSV,3,1,11,02,06,154,48,04,14,117,48,05,21,266,49,09,4
6,323,49,0*68
$GPGSV,3,2,11,12,32,267,49,15,60,213,50,17,39,051,49,18,07,283,48,0*61
$GPGSV,3,3,11,26,49,181,49,27,29,107,49,28,10,058,48,0*56
$BDGSV,1,1,00,0*74

$GNRMC,082417.00,A,3128.000055,N,12113.344000,E,9.718,269.99,010720,,,A,V*07
$GNGGA,082417.00,3128.000055,N,12113.344000,E,1,07,1.11,-6.9,M,9.4,M,,*58
$GNGSA,A,3,05,09,12,15,17,26,27,,,,,,2.64,1.11,2.39,1*04
$GNGSA,A,3,,,,,,,,,,,,,2.64,1.11,2.39,4*0D
$GPGSV,3,1,12,02,06,154,48,04,14,117,48,05,21,266,49,09,4
6,323,49,0*6B
$GPGSV,3,2,12,12,32,267,49,15,60,213,50,16,,,29,17,39,051,49,0*55
$GPGSV,3,3,12,18,07,283,48,26,49,181,49,27,29,107,49,28,10,058,48,0*6E
$BDGSV,1,1,00,0*74

$GNRMC,082418.00,A,3128.000054,N,12113.340844,E,9.716,269.98,010720,,,A,V*0A
$GNGGA,082418.00,3128.000054,N,12113.340844,E,1,07,1.11,-6.9,M,9.4,M,,*5A
$GNGSA,A,3,05,09,12,15,17,26,27,,,,,,2.64,1.11,2.39,1*04
$GNGSA,A,3,,,,,,,,,,,,,2.64,1.11,2.39,4*0D
$GPGSV,3,1,11,02,06,154,48,04,14,117,48,05,21,266,49,09,4
6,323,49,0*68
$GPGSV,3,2,11,12,32,267,49,15,60,213,50,17,39,051,49,18,07,283,48,0*61
$GPGSV,3,3,11,26,49,181,49,27,29,107,49,28,10,058,48,0*56
$BDGSV,1,1,00,0*74

$GNRMC,082419.00,A,3128.000053,N,12113.337686,E,9.719,269.99,010720,,,A,V*02
$GNGGA,082419.00,3128.000053,N,12113.337686,E,1,07,1.11,-6.9,M,9.4,M,,*5C
$GNGSA,A,3,05,09,12,15,17,26,27,,,,,,2.64,1.11,2.39,1*04
$GNGSA,A,3,,,,,,,,,,,,,2.64,1.11,2.39,4*0D
$GPGSV,3,1,11,02,06,154,48,04,14,117,48,05,21,266,48,09,4
6,323,49,0*69
$GPGSV,3,2,11,12,32,267,49,15,60,213,50,17,39,051,49,18,07,283,48,0*61
$GPGSV,3,3,11,26,49,181,49,27,29,107,49,28,10,058,48,0*56
$BDGSV,1,1,00,0*74

<??????????????>

$GNRMC,082420.00,A,3128.000053,N,12113.334529,E,9.721,270.00,010720,,,A,V*0E
$GNGGA,082420.00,3128.000053,N,12113.334529,E,1,07,1.10,-6.9,M,9.4,M,,*52
$GNGSA,A,3,05,09,12,15,17,26,27,,,,,,2.64,1.10,2.39,1*05
$GNGSA,A,3,,,,,,,,,,,,,2.64,1.10,2.39,4*0C
$GPGSV,3,1,11,02,06,154,48,04,14,117,48,05,21,266,49,09,4
6,323,49,0*68
$GPGSV,3,2,11,12,32,267,49,15,60,213,50,17,39,051,49,18,07,283,48,0*61
$GPGSV,3,3,11,26,49,181,49,27,29,107,49,28,10,058,48,0*56
$BDGSV,1,1,00,0*74

$GNRMC,082421.00,A,3128.000053,N,12113.331371,E,9.723,270.03,010720,,,A,V*00
$GNGGA,082421.00,3128.000053,N,12113.331371,E,1,07,1.10,-6.9,M,9.4,M,,*5D
$GNGSA,A,3,05,09,12,15,17,26,27,,,,,,2.64,1.10,2.40,1*0B
$GNGSA,A,3,,,,,,,,,,,,,2.64,1.10,2.40,4*02
$GPGSV,3,1,11,02,06,154,48,04,14,117,48,05,21,266,48,09,4
6,323,49,0*69
$GPGSV,3,2,11,12,32,267,49,15,60,213,50,17,39,051,49,18,07,283,48,0*61
$GPGSV,3,3,11,26,49,181,49,27,29,107,49,28,10,058,48,0*56
$BDGSV,1,1,00,0*74

$GNRMC,082422.00,A,3128.000051,N,12113.328214,E,9.719,270.00,010720,,,A,V*01
$GNGGA,082422.00,3128.000051,N,12113.328214,E,1,07,1.10,-6.9,M,9.4,M,,*56
$GNGSA,A,3,05,09,12,15,17,26,27,,,,,,2.64,1.10,2.40,1*0B
$GNGSA,A,3,,,,,,,,,,,,,2.64,1.10,2.40,4*02
$GPGSV,3,1,11,02,06,154,48,04,14,117,48,05,21,266,49,09,4
6,323,49,0*68
$GPGSV,3,2,11,12,32,267,49,15,60,213,50,17,39,051,49,18,07,283,48,0*61
$GPGSV,3,3,11,26,49,181,49,27,29,107,49,28,10,058,48,0*56
$BDGSV,1,1,00,0*74

$GNRMC,082423.00,A,3128.000051,N,12113.325056,E,9.722,270.02,010720,,,A,V*03
$GNGGA,082423.00,3128.000051,N,12113.325056,E,1,07,1.10,-6.9,M,9.4,M,,*5E
$GNGSA,A,3,05,09,12,15,17,26,27,,,,,,2.64,1.10,2.40,1*0B
$GNGSA,A,3,,,,,,,,,,,,,2.64,1.10,2.40,4*02
$GPGSV,3,1,11,02,06,154,48,04,14,117,48,05,21,266,49,09,4
6,323,49,0*68
$GPGSV,3,2,11,12,32,267,49,15,60,213,50,17,39,051,49,18,07,283,48,0*61
$GPGSV,3,3,11,26,49,181,49,27,29,107,49,28,10,058,48,0*56
$BDGSV,1,1,00,0*74

$GNRMC,082424.00,A,3128.000051,N,12113.321899,E,9.720,270.01,010720,,,A,V*0A
$GNGGA,082424.00,3128.000051,N,12113.321899,E,1,07,1.10,-6.9,M,9.4,M,,*56
$GNGSA,A,3,05,09,12,15,17,26,27,,,,,,2.64,1.10,2.40,1*0B
$GNGSA,A,3,,,,,,,,,,,,,2.64,1.10,2.40,4*02
$GPGSV,3,1,11,02,06,154,48,04,14,117,48,05,21,266,49,09,4
6,323,49,0*68
$GPGSV,3,2,11,12,32,267,49,15,60,213,50,17,39,051,49,18,07,283,48,0*61
$GPGSV,3,3,11,26,49,181,49,27,29,107,49,28,10,058,48,0*56
$BDGSV,1,1,00,0*74

$GNRMC,082425.00,A,3128.000051,N,12113.318742,E,9.720,270.02,010720,,,A,V*0B
$GNGGA,082425.00,3128.000051,N,12113.318742,E,1,07,1.10,-6.9,M,9.4,M,,*54
$GNGSA,A,3,05,09,12,15,17,26,27,,,,,,2.64,1.10,2.40,1*0B
$GNGSA,A,3,,,,,,,,,,,,,2.64,1.10,2.40,4*02
$GPGSV,3,1,11,02,06,154,48,04,14,117,48,05,21,266,49,09,4
6,323,49,0*68
$GPGSV,3,2,11,12,32,267,49,15,60,213,50,17,39,051,49,18,07,283,48,0*61
$GPGSV,3,3,11,26,49,181,49,27,29,107,49,28,10,058,48,0*56
$BDGSV,1,1,00,0*74

$GNRMC,082426.00,A,3128.000051,N,12113.315585,E,9.723,270.01,010720,,,A,V*0C
$GNGGA,082426.00,3128.000051,N,12113.315585,E,1,07,1.10,-6.9,M,9.4,M,,*53
$GNGSA,A,3,05,09,12,15,17,26,27,,,,,,2.64,1.10,2.40,1*0B
$GNGSA,A,3,,,,,,,,,,,,,2.64,1.10,2.40,4*02
$GPGSV,3,1,11,02,06,154,48,04,14,117,48,05,21,266,48,09,4
6,323,49,0*69
$GPGSV,3,2,11,12,32,267,49,15,60,213,50,17,39,051,49,18,07,283,48,0*61
$GPGSV,3,3,11,26,49,181,49,27,29,107,49,28,10,058,48,0*56
$BDGSV,1,1,00,0*74

$GNRMC,082427.00,A,3128.000048,N,12113.312427,E,9.719,270.00,010720,,,A,V*03
$GNGGA,082427.00,3128.000048,N,12113.312427,E,1,07,1.10,-6.9,M,9.4,M,,*54
$GNGSA,A,3,05,09,12,15,17,26,27,,,,,,2.64,1.10,2.40,1*0B
$GNGSA,A,3,,,,,,,,,,,,,2.64,1.10,2.40,4*02
$GPGSV,3,1,11,02,06,154,48,04,14,117,48,05,21,266,49,09,4
6,323,49,0*68
$GPGSV,3,2,11,12,32,267,49,15,60,213,50,17,39,051,49,18,07,283,48,0*61
$GPGSV,3,3,11,26,49,181,49,27,29,107,49,28,10,058,48,0*56
$BDGSV,1,1,00,0*74

$GNRMC,082428.00,A,3128.000046,N,12113.309269,E,9.718,269.99,010720,,,A,V*0D
$GNGGA,082428.00,3128.000046,N,12113.309269,E,1,07,1.10,-6.9,M,9.4,M,,*53
$GNGSA,A,3,05,09,12,15,17,26,27,,,,,,2.64,1.10,2.40,1*0B
$GNGSA,A,3,,,,,,,,,,,,,2.64,1.10,2.40,4*02
$GPGSV,3,1,12,02,06,154,48,04,14,117,48,05,21,266,49,09,4
6,323,49,0*6B
$GPGSV,3,2,12,12,32,267,49,15,60,213,50,17,39,051,49,18,07,283,48,0*62
$GPGSV,3,3,12,26,49,181,49,27,29,107,49,28,10,058,48,31,,,29,0*5C
$BDGSV,1,1,00,0*74

$GNRMC,082429.00,A,3128.000046,N,12113.306111,E,9.719,270.00,010720,,,A,V*06
$GNGGA,082429.00,3128.000046,N,12113.306111,E,1,07,1.10,-6.9,M,9.4,M,,*51
$GNGSA,A,3,05,09,12,15,17,26,27,,,,,,2.64,1.10,2.40,1*0B
$GNGSA,A,3,,,,,,,,,,,,,2.64,1.10,2.40,4*02
$GPGSV,3,1,11,02,07,154,48,04,14,117,48,05,21,266,49,09,4
6,323,49,0*69
$GPGSV,3,2,11,12,32,267,49,15,60,213,50,17,39,051,49,18,07,283,48,0*61
$GPGSV,3,3,11,26,49,181,49,27,29,107,49,28,10,058,48,0*56
$BDGSV,1,1,00,0*74

<????sim??????(SIM??:1)>
<????GSM????????(GSM:4)>
<????GPRS????????(GPRS:0)>
<????????????(SIGNAL:0)>
<????????????????(BER:0)>

<??????????????>

$GNRMC,082430.00,A,3128.000047,N,12113.302954,E,9.723,270.03,010720,,,A,V*08
$GNGGA,082430.00,3128.000047,N,12113.302954,E,1,07,1.10,-6.9,M,9.4,M,,*55
$GNGSA,A,3,05,09,12,15,17,26,27,,,,,,2.64,1.10,2.40,1*0B
$GNGSA,A,3,,,,,,,,,,,,,2.64,1.10,2.40,4*02
$GPGSV,3,1,11,02,07,154,48,04,14,117,48,05,21,266,49,09,4
6,323,49,0*69
$GPGSV,3,2,11,12,32,267,49,15,60,213,50,17,39,051,49,18,07,283,48,0*61
$GPGSV,3,3,11,26,49,181,49,27,29,107,49,28,10,058,48,0*56
$BDGSV,1,1,00,0*74

$GNRMC,082431.00,A,3128.000047,N,12113.299799,E,9.720,270.02,010720,,,A,V*07
$GNGGA,082431.00,3128.000047,N,12113.299799,E,1,07,1.10,-6.9,M,9.4,M,,*58
$GNGSA,A,3,05,09,12,15,17,26,27,,,,,,2.64,1.10,2.40,1*0B
$GNGSA,A,3,,,,,,,,,,,,,2.64,1.10,2.40,4*02
$GPGSV,3,1,11,02,07,154,48,04,14,117,48,05,21,267,48,09,4
6,323,49,0*69
$GPGSV,3,2,11,12,32,267,49,15,60,213,50,17,39,051,49,18,07,283,48,0*61
$GPGSV,3,3,11,26,49,181,49,27,29,107,49,28,10,058,48,0*56
$BDGSV,1,1,00,0*74

$GNRMC,082432.00,A,3128.000048,N,12113.296643,E,9.719,270.01,010720,,,A,V*0B
$GNGGA,082432.00,3128.000048,N,12113.296643,E,1,07,1.10,-6.9,M,9.4,M,,*5D
$GNGSA,A,3,05,09,12,15,17,26,27,,,,,,2.64,1.10,2.40,1*0B
$GNGSA,A,3,,,,,,,,,,,,,2.64,1.10,2.40,4*02
$GPGSV,3,1,11,02,07,154,48,04,14,117,48,05,21,267,48,09,4
6,324,49,0*6E
$GPGSV,3,2,11,12,32,267,49,15,60,213,50,17,39,051,49,18,07,283,48,0*61
$GPGSV,3,3,11,26,49,181,49,27,29,107,49,28,10,058,48,0*56
$BDGSV,1,1,00,0*74

$GNRMC,082433.00,A,3128.000048,N,12113.293486,E,9.722,270.01,010720,,,A,V*0C
$GNGGA,082433.00,3128.000048,N,12113.293486,E,1,07,1.10,-6.9,M,9.4,M,,*52
$GNGSA,A,3,05,09,12,15,17,26,27,,,,,,2.64,1.10,2.40,1*0B
$GNGSA,A,3,,,,,,,,,,,,,2.64,1.10,2.40,4*02
$GPGSV,3,1,11,02,07,154,48,04,14,117,48,05,21,267,48,09,4
6,324,49,0*6E
$GPGSV,3,2,11,12,32,267,49,15,60,213,50,17,39,051,49,18,07,283,48,0*61
$GPGSV,3,3,11,26,49,181,49,27,29,107,49,28,10,058,48,0*56
$BDGSV,1,1,00,0*74

$GNRMC,082434.00,A,3128.000049,N,12113.290329,E,9.721,270.02,010720,,,A,V*0B
$GNGGA,082434.00,3128.000049,N,12113.290329,E,1,07,1.10,-6.9,M,9.4,M,,*55
$GNGSA,A,3,05,09,12,15,17,26,27,,,,,,2.64,1.10,2.40,1*0B
$GNGSA,A,3,,,,,,,,,,,,,2.64,1.10,2.40,4*02
$GPGSV,3,1,11,02,07,154,48,04,14,117,48,05,21,267,49,09,4
6,324,49,0*6F
$GPGSV,3,2,11,12,32,267,49,15,60,213,50,17,39,051,49,18,07,283,48,0*61
$GPGSV,3,3,11,26,49,181,49,27,29,107,49,28,10,058,48,0*56
$BDGSV,1,1,00,0*74

$GNRMC,082435.00,A,3128.000050,N,12113.287173,E,9.719,270.02,010720,,,A,V*02
$GNGGA,082435.00,3128.000050,N,12113.287173,E,1,07,1.10,-6.9,M,9.4,M,,*57
$GNGSA,A,3,05,09,12,15,17,26,27,,,,,,2.64,1.10,2.40,1*0B
$GNGSA,A,3,,,,,,,,,,,,,2.64,1.10,2.40,4*02
$GPGSV,3,1,11,02,07,154,48,04,14,117,48,05,21,267,49,09,4
6,324,49,0*6F
$GPGSV,3,2,11,12,32,267,49,15,60,213,50,17,38,051,49,18,07,283,48,0*60
$GPGSV,3,3,11,26,49,181,49,27,29,107,49,28,10,058,48,0*56
$BDGSV,1,1,00,0*74


GPS HPregnss> E1 15 00 00 00 00 07 53 8F 3D EC 00 00 00 1C 39 5C 94 53 00 00 00 00 


$GNRMC,082436.00,A,3128.000050,N,12113.284016,E,9.722,270.02,010720,,,A,V*08
$GNGGA,082436.00,3128.000050,N,12113.284016,E,1,07,1.10,-6.9,M,9.4,M,,*55
$GNGSA,A,3,05,09,12,15,17,26,27,,,,,,2.64,1.10,2.40,1*0B
$GNGSA,A,3,,,,,,,,,,,,,2.64,1.10,2.40,4*02
$GPGSV,3,1,11,02,07,154,48,04,14,117,48,05,21,267,49,09,4
6,324,49,0*6F
$GPGSV,3,2,11,12,32,267,49,15,60,213,50,17,38,051,49,18,07,283,48,0*60
$GPGSV,3,3,11,26,49,181,49,27,29,107,49,28,10,058,48,0*56
$BDGSV,1,1,00,0*74

$GNRMC,082437.00,A,3128.000050,N,12113.280860,E,9.719,270.01,010720,,,A,V*0F
$GNGGA,082437.00,3128.000050,N,12113.280860,E,1,07,1.10,-6.9,M,9.4,M,,*59
$GNGSA,A,3,05,09,12,15,17,26,27,,,,,,2.64,1.10,2.40,1*0B
$GNGSA,A,3,,,,,,,,,,,,,2.64,1.10,2.40,4*02
$GPGSV,3,1,12,02,07,154,48,04,14,117,48,05,21,267,49,09,4
6,324,49,0*6C
$GPGSV,3,2,12,12,32,267,49,14,,,31,15,60,213,50,17,38,051,49,0*5F
