$GNRMC,084243.00,A,3128.000034,N,12109.852503,E,9.721,270.01,010720,,,A,V*03
$GNGGA,084243.00,3128.000034,N,12109.852503,E,1,08,1.00,-9.6,M,9.2,M,,*56
$GNGSA,A,3,04,05,09,12,17,15,26,27,,,,,2.64,1.00,2.45,1*0B
$GNGSA,A,3,,,,,,,,,,,,,2.64,1.00,2.45,4*06
$GPGSV,3,1,12,02,12,149,48,04,18,110,49,05,26,274,49,09
,53,329,50,0*6A
$GPGSV,3,2,12,12,37,275,49,15,52,204,50,17,32,046,49,18,05,276,06,0*6C
$GPGSV,3,3,12,26,40,179,49,27,23,114,49,28,05,063,,30,05,261,48,0*6C
$BDGSV,1,1,00,0*74

$GNRMC,084244.00,A,3128.000035,N,12109.849346,E,9.722,270.02,010720,,,A,V*08
$GNGGA,084244.00,3128.000035,N,12109.849346,E,1,08,1.00,-9.6,M,9.2,M,,*5D
$GNGSA,A,3,04,05,09,12,17,15,26,27,,,,,2.64,1.00,2.45,1*0B
$GNGSA,A,3,,,,,,,,,,,,,2.64,1.00,2.45,4*06
$GPGSV,3,1,12,02,12,149,48,04,18,110,49,05,26,274,49,09
,53,329,50,0*6A
$GPGSV,3,2,12,12,37,275,49,15,52,204,50,17,32,046,49,18,05,276,08,0*62
$GPGSV,3,3,12,26,40,179,49,27,23,114,49,28,05,063,,30,05,261,48,0*6C
$BDGSV,1,1,00,0*74

$GNRMC,084245.00,A,3128.000035,N,12109.846189,E,9.721,270.02,010720,,,A,V*04
$GNGGA,084245.00,3128.000035,N,12109.846189,E,1,08,1.00,-9.6,M,9.2,M,,*52
$GNGSA,A,3,04,05,09,12,17,15,26,27,,,,,2.64,1.00,2.45,1*0B
$GNGSA,A,3,,,,,,,,,,,,,2.64,1.00,2.45,4*06
$GPGSV,3,1,12,02,12,149,48,04,18,110,49,05,26,274,49,09
,53,329,50,0*6A
$GPGSV,3,2,12,12,37,275,49,15,52,204,50,17,32,046,49,18,05,276,08,0*62
$GPGSV,3,3,12,26,40,179,49,27,23,114,49,28,05,063,,30,05,261,48,0*6C
$BDGSV,1,1,00,0*74

$GNRMC,084246.00,A,3128.000034,N,12109.843031,E,9.722,270.00,010720,,,A,V*00
$GNGGA,084246.00,3128.000034,N,12109.843031,E,1,08,1.00,-9.6,M,9.2,M,,*57
$GNGSA,A,3,04,05,09,12,17,15,26,27,,,,,2.64,1.00,2.45,1*0B
$GNGSA,A,3,,,,,,,,,,,,,2.64,1.00,2.45,4*06
$GPGSV,3,1,12,02,12,149,48,04,18,110,49,05,26,274,49,09
,53,329,50,0*6A
$GPGSV,3,2,12,12,37,275,49,15,52,204,50,17,32,046,49,18,05,276,06,0*6C
$GPGSV,3,3,12,26,40,179,49,27,23,114,49,28,05,063,,30,05,261,48,0*6C
$BDGSV,1,1,00,0*74

$GNRMC,084247.00,A,3128.000036,N,12109.839874,E,9.718,270.03,010720,,,A,V*0D
$GNGGA,084247.00,3128.000036,N,12109.839874,E,1,08,1.00,-9.6,M,9.2,M,,*50
$GNGSA,A,3,04,05,09,12,17,15,26,27,,,,,2.64,1.00,2.45,1*0B
$GNGSA,A,3,,,,,,,,,,,,,2.64,1.00,2.45,4*06
$GPGSV,3,1,12,02,12,149,49,04,18,110,49,05,26,274,49,09
,53,329,50,0*6B
$GPGSV,3,2,12,12,37,275,49,15,52,204,50,17,32,046,49,18,05,276,04,0*6E
$GPGSV,3,3,12,26,40,179,49,27,23,114,49,28,05,063,,30,05,261,48,0*6C
$BDGSV,1,1,00,0*74

<??????????????>

$GNRMC,084248.00,A,3128.000036,N,12109.836718,E,9.720,269.98,010720,,,A,V*09
$GNGGA,084248.00,3128.000036,N,12109.836718,E,1,08,1.00,-9.6,M,9.2,M,,*55
$GNGSA,A,3,04,05,09,12,17,15,26,27,,,,,2.64,1.00,2.45,1*0B
$GNGSA,A,3,,,,,,,,,,,,,2.64,1.00,2.45,4*06
$GPGSV,3,1,12,02,12,149,49,04,18,110,49,05,26,274,49,09
,53,329,50,0*6B
$GPGSV,3,2,12,12,37,275,49,15,52,204,50,17,32,046,49,18,05,276,03,0*69
$GPGSV,3,3,12,26,40,179,49,27,23,114,49,28,05,063,,30,05,261,48,0*6C
$BDGSV,1,1,00,0*74

$GNRMC,084249.00,A,3128.000037,N,12109.833561,E,9.722,270.01,010720,,,A,V*0A
$GNGGA,084249.00,3128.000037,N,12109.833561,E,1,08,1.00,-9.6,M,9.2,M,,*5C
$GNGSA,A,3,04,05,09,12,17,15,26,27,,,,,2.64,1.00,2.45,1*0B
$GNGSA,A,3,,,,,,,,,,,,,2.64,1.00,2.45,4*06
$GPGSV,3,1,12,02,12,149,49,04,18,109,49,05,26,274,49,09,53,329,50,0*63
$GPGSV,3,2,12,12,37,275,49,15,52,204,50,17,32,046,49,18,05,276,05,0*6F
$GPGSV,3,3,12,26,40,179,49,27,23,114,49,28,05,063,,30,05,261,48,0*6C
$BDGSV,1,1,00,0*74

$GNRMC,084250.00,A,3128.000037,N,12109.830403,E,9.723,270.03,010720,,,A,V*07
$GNGGA,084250.00,3128.000037,N,12109.830403,E,1,08,1.00,-9.6,M,9.2,M,,*52
$GNGSA,A,3,04,05,09,12,17,15,26,27,,,,,2.64,1.00,2.45,1*0B
$GNGSA,A,3,,,,,,,,,,,,,2.64,1.00,2.45,4*06
$GPGSV,3,1,12,02,12,149,49,04,18,109,49,05,26,274,49,09
,53,329,50,0*63
$GPGSV,3,2,12,12,37,275,49,15,52,204,50,17,32,046,49,18,05,276,05,0*6F
$GPGSV,3,3,12,26,40,179,49,27,23,114,49,28,05,063,,30,05,261,48,0*6C
$BDGSV,1,1,00,0*74

$GNRMC,084251.00,A,3128.000038,N,12109.827246,E,9.719,270.02,010720,,,A,V*00
$GNGGA,084251.00,3128.000038,N,12109.827246,E,1,08,1.00,-9.6,M,9.2,M,,*5D
$GNGSA,A,3,04,05,09,12,17,15,26,27,,,,,2.64,1.00,2.45,1*0B
$GNGSA,A,3,,,,,,,,,,,,,2.64,1.00,2.45,4*06
$GPGSV,3,1,12,02,12,149,49,04,18,109,49,05,26,274,49,09
,53,329,50,0*63
$GPGSV,3,2,12,12,37,275,49,15,52,204,50,17,32,046,49,18,05,276,05,0*6F
$GPGSV,3,3,12,26,40,179,50,27,23,114,49,28,05,063,,30,05,261,48,0*64
$BDGSV,1,1,00,0*74

$GNRMC,084252.00,A,3128.000038,N,12109.824089,E,9.720,270.00,010720,,,A,V*09
$GNGGA,084252.00,3128.000038,N,12109.824089,E,1,08,1.00,-9.6,M,9.2,M,,*5C
$GNGSA,A,3,04,05,09,12,17,15,26,27,,,,,2.64,1.00,2.45,1*0B
$GNGSA,A,3,,,,,,,,,,,,,2.64,1.00,2.45,4*06
$GPGSV,3,1,12,02,12,149,49,04,18,109,49,05,26,274,49,09
,53,329,50,0*63
$GPGSV,3,2,12,12,37,275,49,15,52,204,50,17,32,046,49,18,05,276,04,0*6E
$GPGSV,3,3,12,26,40,179,49,27,23,114,49,28,05,063,,30,05,261,48,0*6C
$BDGSV,1,1,00,0*74

$GNRMC,084253.00,A,3128.000038,N,12109.820934,E,9.718,270.00,010720,,,A,V*08
$GNGGA,084253.00,3128.000038,N,12109.820934,E,1,08,1.00,-9.6,M,9.2,M,,*56
$GNGSA,A,3,04,05,09,12,17,15,26,27,,,,,2.65,1.00,2.45,1*0A
$GNGSA,A,3,,,,,,,,,,,,,2.65,1.00,2.45,4*07
$GPGSV,3,1,12,02,12,149,48,04,18,109,49,05,26,274,49,09
,53,329,50,0*62
$GPGSV,3,2,12,12,37,275,49,15,52,204,50,17,32,046,49,18,05,276,05,0*6F
$GPGSV,3,3,12,26,40,179,49,27,23,114,49,28,05,063,,30,05,261,48,0*6C
$BDGSV,1,1,00,0*74

$GNRMC,084254.00,A,3128.000038,N,12109.817777,E,9.722,270.02,010720,,,A,V*09
$GNGGA,084254.00,3128.000038,N,12109.817777,E,1,08,1.00,-9.6,M,9.2,M,,*5C
$GNGSA,A,3,04,05,09,12,17,15,26,27,,,,,2.65,1.00,2.45,1*0A
$GNGSA,A,3,,,,,,,,,,,,,2.65,1.00,2.45,4*07
$GPGSV,3,1,12,02,12,149,49,04,18,109,49,05,26,274,49,09
,53,329,50,0*63
$GPGSV,3,2,12,12,37,275,49,15,52,204,50,17,32,046,49,18,05,276,07,0*6D
$GPGSV,3,3,12,26,40,179,49,27,23,114,49,28,05,063,,30,05,261,48,0*6C
$BDGSV,1,1,00,0*74

$GNRMC,084255.00,A,3128.000040,N,12109.814620,E,9.725,270.03,010720,,,A,V*01
$GNGGA,084255.00,3128.000040,N,12109.814620,E,1,08,1.00,-9.6,M,9.2,M,,*52
$GNGSA,A,3,04,05,09,12,17,15,26,27,,,,,2.65,1.00,2.45,1*0A
$GNGSA,A,3,,,,,,,,,,,,,2.65,1.00,2.45,4*07
$GPGSV,3,1,12,02,12,149,49,04,18,109,49,05,26,274,49,09
,53,329,50,0*63
$GPGSV,3,2,12,12,37,275,49,15,52,204,50,17,32,046,49,18,05,276,03,0*69
$GPGSV,3,3,12,26,40,179,49,27,23,114,49,28,05,063,,30,05,261,48,0*6C
$BDGSV,1,1,00,0*74

$GNRMC,084256.00,A,3128.000042,N,12109.811464,E,9.724,270.03,010720,,,A,V*06
$GNGGA,084256.00,3128.000042,N,12109.811464,E,1,08,1.00,-9.6,M,9.2,M,,*54
$GNGSA,A,3,04,05,09,12,17,15,26,27,,,,,2.65,1.00,2.45,1*0A
$GNGSA,A,3,,,,,,,,,,,,,2.65,1.00,2.45,4*07
$GPGSV,3,1,12,02,12,149,49,04,18,109,49,05,26,274,49,09
,53,329,50,0*63
$GPGSV,3,2,12,12,37,275,49,15,52,204,50,17,32,046,49,18,05,276,05,0*6F
$GPGSV,3,3,12,26,40,179,49,27,23,114,49,28,05,063,,30,05,261,48,0*6C
$BDGSV,1,1,00,0*74

$GNRMC,084257.00,A,3128.000041,N,12109.808307,E,9.720,269.99,010720,,,A,V*01
$GNGGA,084257.00,3128.000041,N,12109.808307,E,1,08,1.00,-9.6,M,9.2,M,,*5C
$GNGSA,A,3,04,05,09,12,17,15,26,27,,,,,2.65,1.00,2.45,1*0A
$GNGSA,A,3,,,,,,,,,,,,,2.65,1.00,2.45,4*07
$GPGSV,3,1,12,02,12,149,49,04,18,109,48,05,26,274,49,09
,53,329,50,0*62
$GPGSV,3,2,12,12,37,276,49,15,52,204,50,17,32,046,49,18,05,276,04,0*6D
$GPGSV,3,3,12,26,40,179,50,27,23,114,49,28,05,063,,30,05,261,48,0*64
$BDGSV,1,1,00,0*74

<????sim??????(SIM??:1)>
<????GSM????????(GSM:0)>
<????GPRS????????(GPRS:0)>
<????????????(SIGNAL:0)>
<????????????????(BER:0)>

<??????????????>

$GNRMC,084258.00,A,3128.000040,N,12109.805151,E,9.718,270.00,010720,,,A,V*00
$GNGGA,084258.00,3128.000040,N,12109.805151,E,1,08,1.00,-9.6,M,9.2,M,,*5E
$GNGSA,A,3,04,05,09,12,17,15,26,27,,,,,2.65,1.00,2.45,1*0A
$GNGSA,A,3,,,,,,,,,,,,,2.65,1.00,2.45,4*07
$GPGSV,3,1,12,02,12,149,49,04,18,109,49,05,26,274,49,09
,53,329,50,0*63
$GPGSV,3,2,12,12,37,276,49,15,52,204,50,17,32,046,49,18,05,276,05,0*6C
$GPGSV,3,3,12,26,40,179,50,27,23,114,49,28,05,063,,30,05,261,48,0*64
$BDGSV,1,1,00,0*74

$GNRMC,084259.00,A,3128.000041,N,12109.801994,E,9.718,270.01,010720,,,A,V*04
$GNGGA,084259.00,3128.000041,N,12109.801994,E,1,08,1.00,-9.6,M,9.2,M,,*5B
$GNGSA,A,3,04,05,09,12,17,15,26,27,,,,,2.65,1.00,2.45,1*0A
$GNGSA,A,3,,,,,,,,,,,,,2.65,1.00,2.45,4*07
$GPGSV,3,1,12,02,12,149,49,04,18,109,49,05,26,274,49,09
,53,329,50,0*63
$GPGSV,3,2,12,12,37,276,49,15,52,204,50,17,32,046,49,18,05,276,08,0*61
$GPGSV,3,3,12,26,40,179,50,27,23,114,49,28,05,063,,30,05,261,48,0*64
$BDGSV,1,1,00,0*74

$GNRMC,084300.00,A,3128.000042,N,12109.798838,E,9.720,270.02,010720,,,A,V*0A
$GNGGA,084300.00,3128.000042,N,12109.798838,E,1,08,1.00,-9.6,M,9.2,M,,*5D
$GNGSA,A,3,04,05,09,12,17,15,26,27,,,,,2.65,1.00,2.45,1*0A
$GNGSA,A,3,,,,,,,,,,,,,2.65,1.00,2.45,4*07
$GPGSV,3,1,12,02,12,149,49,04,18,109,49,05,26,274,49,09
,53,329,50,0*63
$GPGSV,3,2,12,12,37,276,49,15,52,204,50,17,32,046,49,18,05,275,02,0*68
$GPGSV,3,3,12,26,40,179,50,27,23,114,49,28,05,063,,30,05,261,48,0*64
$BDGSV,1,1,00,0*74

$GNRMC,084301.00,A,3128.000042,N,12109.795682,E,9.722,270.01,010720,,,A,V*08
$GNGGA,084301.00,3128.000042,N,12109.795682,E,1,08,1.00,-9.6,M,9.2,M,,*5E
$GNGSA,A,3,04,05,09,12,17,15,26,27,,,,,2.65,1.00,2.46,1*09
$GNGSA,A,3,,,,,,,,,,,,,2.65,1.00,2.46,4*04
$GPGSV,3,1,12,02,12,149,49,04,18,109,49,05,26,274,49,09
,53,329,50,0*63
$GPGSV,3,2,12,12,37,276,49,15,52,204,50,17,32,046,49,18,05,275,02,0*68
$GPGSV,3,3,12,26,40,179,49,27,23,114,49,28,05,063,,30,05,261,48,0*6C
$BDGSV,1,1,00,0*74

$GNRMC,084302.00,A,3128.000044,N,12109.792526,E,9.723,270.03,010720,,,A,V*04
$GNGGA,084302.00,3128.000044,N,12109.792526,E,1,08,1.00,-9.6,M,9.2,M,,*51
$GNGSA,A,3,04,05,09,12,17,15,26,27,,,,,2.65,1.00,2.46,1*09
$GNGSA,A,3,,,,,,,,,,,,,2.65,1.00,2.46,4*04
$GPGSV,3,1,12,02,12,149,49,04,18,109,49,05,26,274,49,09
,53,329,50,0*63
$GPGSV,3,2,12,12,37,276,49,15,52,204,50,17,32,046,49,18,05,275,05,0*6F
$GPGSV,3,3,12,26,40,179,49,27,23,114,49,28,05,063,,30,05,261,48,0*6C
$BDGSV,1,1,00,0*74

$GNRMC,084303.00,A,3128.000044,N,12109.789369,E,9.719,270.00,010720,,,A,V*08
$GNGGA,084303.00,3128.000044,N,12109.789369,E,1,08,1.00,-9.6,M,9.2,M,,*57
$GNGSA,A,3,04,05,09,12,17,15,26,27,,,,,2.65,1.00,2.46,1*09
$GNGSA,A,3,,,,,,,,,,,,,2.65,1.00,2.46,4*04
$GPGSV,3,1,12,02,12,149,49,04,18,109,49,05,26,274,49,09
,53,329,50,0*63
$GPGSV,3,2,12,12,37,276,49,15,52,204,50,17,32,046,49,18,05,275,05,0*6F
$GPGSV,3,3,12,26,40,179,49,27,23,114,49,28,05,063,,30,05,261,48,0*6C
$BDGSV,1,1,00,0*74

$GNRMC,084304.00,A,3128.000044,N,12109.786212,E,9.717,270.01,010720,,,A,V*02
$GNGGA,084304.00,3128.000044,N,12109.786212,E,1,08,1.00,-9.6,M,9.2,M,,*52
$GNGSA,A,3,04,05,09,12,17,15,26,27,,,,,2.65,1.00,2.46,1*09
$GNGSA,A,3,,,,,,,,,,,,,2.65,1.00,2.46,4*04
$GPGSV,3,1,12,02,12,149,49,04,18,109,49,05,26,274,49,09
,53,329,50,0*63
$GPGSV,3,2,12,12,37,276,49,15,52,204,50,17,32,046,49,18,05,275,05,0*6F
$GPGSV,3,3,12,26,40,179,49,27,23,114,49,28,05,063,,30,05,261,48,0*6C
$BDGSV,1,1,00,0*74

$GNRMC,084305.00,A,3128.000044,N,12109.783054,E,9.724,270.01,010720,,,A,V*06
$GNGGA,084305.00,3128.000044,N,12109.783054,E,1,08,1.00,-9.6,M,9.2,M,,*56
$GNGSA,A,3,04,05,09,12,17,15,26,27,,,,,2.65,1.00,2.46,1*09
$GNGSA,A,3,,,,,,,,,,,,,2.65,1.00,2.46,4*04
$GPGSV,3,1,12,02,12,149,49,04,18,109,49,05,26,274,49,09
,53,329,50,0*63
$GPGSV,3,2,12,12,37,276,49,15,52,204,50,17,32,046,49,18,05,275,05,0*6F
$GPGSV,3,3,12,26,40,179,49,27,23,114,49,28,05,063,,30,05,261,48,0*6C
$BDGSV,1,1,00,0*74


GPS HPregnss> E1 15 00 00 00 00 07 53 8F 3D 88 00 00 00 1C 35 E1 6F 94 00 00 00 00 


$GNRMC,084306.00,A,3128.000045,N,12109.779897,E,9.722,270.02,010720,,,A,V*03
$GNGGA,084306.00,3128.000045,N,12109.779897,E,1,08,1.00,-9.6,M,9.2,M,,*56
$GNGSA,A,3,04,05,09,12,17,15,26,27,,,,,2.65,1.00,2.46,1*09
$GNGSA,A,3,,,,,,,,,,,,,2.65,1.00,2.46,4*04
$GPGSV,3,1,12,02,12,149,49,04,18,109,49,05,26,274,49,09
,53,329,50,0*63
$GPGSV,3,2,12,12,37,276,49,15,52,204,50,17,32,046,49,18,05,275,05,0*6F
$GPGSV,3,3,12,26,40,179,49,27,23,114,49,28,05,063,,30,05,261,48,0*6C
$BDGSV,1,1,00,0*74

$GNRMC,084307.00,A,3128.000045,N,12109.776740,E,9.721,270.01,010720,,,A,V*08
$GNGGA,084307.00,3128.000045,N,12109.776740,E,1,08,1.00,-9.6,M,9.2,M,,*5D
$GNGSA,A,3,04,05,09,12,17,15,26,27,,,,,2.65,1.00,2.46,1*09
$GNGSA,A,3,,,,,,,,,,,,,2.65,1.00,2.46,4*04
$GPGSV,3,1,12,02,12,149,49,04,18,109,49,05,26,274,49,09
,53,329,50,0*63
$GPGSV,3,2,12,12,37,276,49,15,52,204,50,17,32,046,49,18,05,275,07,0*6D
$GPGSV,3,3,12,26,40,179,49,27,23,114,49,28,05,063,,30,05,261,48,0*6C
$BDGSV,1,1,00,0*74

<??????????????>

$GNRMC,084308.00,A,3128.000044,N,12109.773583,E,9.720,269.99,010720,,,A,V*06
$GNGGA,084308.00,3128.000044,N,12109.773583,E,1,08,1.00,-9.6,M,9.2,M,,*5B
$GNGSA,A,3,04,05,09,12,17,15,26,27,,,,,2.65,1.00,2.46,1*09
$GNGSA,A,3,,,,,,,,,,,,,2.65,1.00,2.46,4*04
$GPGSV,3,1,12,02,12,149,49,04,18,109,49,05,26,274,49,09
,53,329,50,0*63
$GPGSV,3,2,12,12,37,276,49,15,52,204,50,17,32,046,49,18,05,275,07,0*6D
$GPGSV,3,3,12,26,40,179,49,27,23,114,49,28,05,063,,30,05,261,48,0*6C
$BDGSV,1,1,00,0*74

$GNRMC,084309.00,A,3128.000044,N,12109.770424,E,9.723,270.02,010720,,,A,V*01
$GNGGA,084309.00,3128.000044,N,12109.770424,E,1,08,1.00,-9.6,M,9.2,M,,*55
$GNGSA,A,3,04,05,09,12,17,15,26,27,,,,,2.65,1.00,2.46,1*09
$GNGSA,A,3,,,,,,,,,,,,,2.65,1.00,2.46,4*04
$GPGSV,3,1,12,02,12,149,49,04,18,109,48,05,26,274,49,09
,53,329,49,0*6A
$GPGSV,3,2,12,12,37,276,49,15,52,204,50,17,32,046,49,18,05,275,07,0*6D
$GPGSV,3,3,12,26,40,179,49,27,23,114,49,28,05,063,,30,05,261,48,0*6C
$BDGSV,1,1,00,0*74

$GNRMC,084310.00,A,3128.000044,N,12109.767267,E,9.721,270.02,010720,,,A,V*0C
$GNGGA,084310.00,3128.000044,N,12109.767267,E,1,08,1.00,-9.6,M,9.2,M,,*5A
$GNGSA,A,3,04,05,09,12,17,15,26,27,,,,,2.65,1.00,2.46,1*09
$GNGSA,A,3,,,,,,,,,,,,,2.65,1.00,2.46,4*04
$GPGSV,3,1,12,02,12,149,49,04,18,109,49,05,26,274,49,09
,53,329,50,0*63
$GPGSV,3,2,12,12,37,276,49,15,52,204,50,17,32,046,49,18,05,275,07,0*6D
$GPGSV,3,3,12,26,40,179,49,27,23,114,49,28,04,063,,30,05,261,48,0*6D
$BDGSV,1,1,00,0*74

$GNRMC,084311.00,A,3128.000043,N,12109.764110,E,9.721,270.01,010720,,,A,V*09
$GNGGA,084311.00,3128.000043,N,12109.764110,E,1,08,1.00,-9.6,M,9.2,M,,*5C
$GNGSA,A,3,04,05,09,12,17,15,26,27,,,,,2.65,1.00,2.46,1*09
$GNGSA,A,3,,,,,,,,,,,,,2.65,1.00,2.46,4*04
$GPGSV,3,1,12,02,12,149,49,04,18,109,49,05,26,274,49,09
,53,329,50,0*63
$GPGSV,3,2,12,12,37,276,49,15,52,204,50,17,32,046,49,18,05,275,07,0*6D
$GPGSV,3,3,12,26,40,179,49,27,23,114,49,28,04,063,,30,05,261,48,0*6D
$BDGSV,1,1,00,0*74

$GNRMC,084312.00,A,3128.000042,N,12109.760953,E,9.722,270.00,010720,,,A,V*02
$GNGGA,084312.00,3128.000042,N,12109.760953,E,1,08,1.00,-9.6,M,9.2,M,,*55
$GNGSA,A,3,04,05,09,12,17,15,26,27,,,,,2.65,1.00,2.46,1*09
$GNGSA,A,3,,,,,,,,,,,,,2.65,1.00,2.46,4*04
$GPGSV,3,1,12,02,12,149,48,04,18,109,49,05,26,274,49,09
,53,329,50,0*62
$GPGSV,3,2,12,12,37,276,49,15,52,204,50,17,32,046,49,18,05,275,07,0*6D
$GPGSV,3,3,12,26,40,179,49,27,23,114,49,28,04,063,,30,05,261,48,0*6D
$BDGSV,1,1,00,0*74

$GNRMC,084313.00,A,3128.000043,N,12109.757796,E,9.719,270.03,010720,,,A,V*0A
$GNGGA,084313.00,3128.000043,N,12109.757796,E,1,08,1.00,-9.6,M,9.2,M,,*56
$GNGSA,A,3,04,05,09,12,17,15,26,27,,,,,2.65,1.00,2.46,1*09
$GNGSA,A,3,,,,,,,,,,,,,2.65,1.00,2.46,4*04
$GPGSV,3,1,12,02,12,149,49,04,18,109,49,05,26,274,49,09
,53,329,50,0*63
$GPGSV,3,2,12,12,37,276,49,15,52,204,50,17,32,046,49,18,05,275,07,0*6D
$GPGSV,3,3,12,26,40,179,49,27,23,114,49,28,04,063,,30,05,261,48,0*6D
$BDGSV,1,1,00,0*74

$GNRMC,084314.00,A,3128.000044,N,12109.754640,E,9.720,269.99,010720,,,A,V*02
$GNGGA,084314.00,3128.000044,N,12109.754640,E,1,08,1.00,-9.6,M,9.2,M,,*5F
$GNGSA,A,3,04,05,09,12,17,15,26,27,,,,,2.66,1.00,2.46,1*0A
$GNGSA,A,3,,,,,,,,,,,,,2.66,1.00,2.46,4*07
$GPGSV,3,1,12,02,12,149,48,04,18,109,49,05,26,274,49,09
,53,329,50,0*62
$GPGSV,3,2,12,12,37,276,49,15,52,204,50,17,32,046,49,18,05,275,07,0*6D
$GPGSV,3,3,12,26,40,179,49,27,23,114,49,28,04,063,,30,05,261,48,0*6D
$BDGSV,1,1,00,0*74

$GNRMC,084315.00,A,3128.000046,N,12109.751483,E,9.723,270.02,010720,,,A,V*00
$GNGGA,084315.00,3128.000046,N,12109.751483,E,1,08,1.00,-9.6,M,9.2,M,,*54
$GNGSA,A,3,04,05,09,12,17,15,26,27,,,,,2.66,1.00,2.46,1*0A
$GNGSA,A,3,,,,,,,,,,,,,2.66,1.00,2.46,4*07
$GPGSV,3,1,12,02,12,149,48,04,18,109,49,05,26,274,49,09
,53,329,50,0*62
$GPGSV,3,2,12,12,37,276,49,15,52,204,50,17,32,046,49,18,05,275,06,0*6C
$GPGSV,3,3,12,26,40,179,49,27,23,114,49,28,04,063,,30,05,261,48,0*6D
$BDGSV,1,1,00,0*74

$GNRMC,084316.00,A,3128.000047,N,12109.748327,E,9.726,270.02,010720,,,A,V*06
$GNGGA,084316.00,3128.000047,N,12109.748327,E,1,08,1.00,-9.6,M,9.2,M,,*57
$GNGSA,A,3,04,05,09,12,17,15,26,27,,,,,2.66,1.00,2.46,1*0A
$GNGSA,A,3,,,,,,,,,,,,,2.66,1.00,2.46,4*07
$GPGSV,3,1,12,02,12,149,48,04,18,109,49,05,26,274,49,09
,53,329,50,0*62
$GPGSV,3,2,12,12,37,276,49,15,52,204,50,17,32,046,49,18,05,275,03,0*69
$GPGSV,3,3,12,26,40,179,49,27,23,114,49,28,04,063,,30,05,261,48,0*6D
$BDGSV,1,1,00,0*74

$GNRMC,084317.00,A,3128.000050,N,12109.745171,E,9.721,270.03,010720,,,A,V*0B
$GNGGA,084317.00,3128.000050,N,12109.745171,E,1,08,1.00,-9.6,M,9.2,M,,*5C
$GNGSA,A,3,04,05,09,12,17,15,26,27,,,,,2.66,1.00,2.46,1*0A
$GNGSA,A,3,,,,,,,,,,,,,2.66,1.00,2.46,4*07
$GPGSV,3,1,12,02,12,149,48,04,18,109,49,05,26,274,49,09
,53,329,50,0*62
$GPGSV,3,2,12,12,37,276,49,15,52,204,50,17,32,046,49,18,05,275,03,0*69
$GPGSV,3,3,12,26,40,179,49,27,23,114,49,28,04,063,,30,05,261,48,0*6D
$BDGSV,1,1,00,0*74

<????sim??????(SIM??:1)>
<????GSM????????(GSM:0)>
<????GPRS????????(GPRS:0)>
<????????????(SIGNAL:0)>
<????????????????(BER:0)>

<??????????????>

$GNRMC,084318.00,A,3128.000049,N,12109.742015,E,9.721,270.01,010720,,,A,V*0A
$GNGGA,084318.00,3128.000049,N,12109.742015,E,1,08,1.00,-9.6,M,9.2,M,,*5F
$GNGSA,A,3,04,05,09,12,17,15,26,27,,,,,2.66,1.00,2.46,1*0A
$GNGSA,A,3,,,,,,,,,,,,,2.66,1.00,2.46,4*07
$GPGSV,3,1,12,02,12,149,48,04,18,109,49,05,26,274,49,09
,53,329,50,0*62
$GPGSV,3,2,12,12,37,276,49,15,52,204,50,17,32,046,49,18,05,275,05,0*6F
$GPGSV,3,3,12,26,40,179,49,27,23,114,49,28,04,063,,30,05,261,48,0*6D
$BDGSV,1,1,00,0*74

$GNRMC,084319.00,A,3128.000048,N,12109.738858,E,9.719,269.98,010720,,,A,V*05
$GNGGA,084319.00,3128.000048,N,12109.738858,E,1,08,1.00,-9.6,M,9.2,M,,*53
$GNGSA,A,3,04,05,09,12,17,15,26,27,,,,,2.66,1.00,2.46,1*0A
$GNGSA,A,3,,,,,,,,,,,,,2.66,1.00,2.46,4*07
$GPGSV,3,1,12,02,12,148,48,04,18,109,49,05,26,274,49,09
,53,329,50,0*63
$GPGSV,3,2,12,12,37,276,49,15,52,204,50,17,32,046,49,18,05,275,,0*6A
$GPGSV,3,3,12,26,40,179,49,27,23,114,49,28,04,063,,30,05,261,48,0*6D
$BDGSV,1,1,00,0*74

$GNRMC,084320.00,A,3128.000047,N,12109.735702,E,9.719,269.99,010720,,,A,V*0C
$GNGGA,084320.00,3128.000047,N,12109.735702,E,1,08,1.00,-9.6,M,9.2,M,,*5B
$GNGSA,A,3,04,05,09,12,17,15,26,27,,,,,2.66,1.00,2.46,1*0A
$GNGSA,A,3,,,,,,,,,,,,,2.66,1.00,2.46,4*07
$GPGSV,3,1,12,02,12,148,49,04,18,109,48,05,26,274,49,09
,53,329,50,0*63
$GPGSV,3,2,12,12,37,276,49,15,52,204,50,17,32,046,49,18,05,275,,0*6A
$GPGSV,3,3,12,26,40,179,49,27,23,114,49,28,04,063,,30,05,261,48,0*6D
$BDGSV,1,1,00,0*74

$GNRMC,084321.00,A,3128.000048,N,12109.732545,E,9.721,270.04,010720,,,A,V*03
$GNGGA,084321.00,3128.000048,N,12109.732545,E,1,08,1.00,-9.6,M,9.2,M,,*53
$GNGSA,A,3,04,05,09,12,17,15,26,27,,,,,2.66,1.00,2.47,1*0B
$GNGSA,A,3,,,,,,,,,,,,,2.66,1.00,2.47,4*06
$GPGSV,3,1,12,02,12,148,49,04,19,109,49,05,26,274,49,09
,53,329,50,0*63
$GPGSV,3,2,12,12,37,276,49,15,52,204,50,17,32,046,49,18,05,275,,0*6A
$GPGSV,3,3,12,26,40,179,49,27,23,114,49,28,04,063,,30,05,261,48,0*6D
$BDGSV,1,1,00,0*74

$GNRMC,084322.00,A,3128.000048,N,12109.729389,E,9.721,270.02,010720,,,A,V*0A
$GNGGA,084322.00,3128.000048,N,12109.729389,E,1,08,1.00,-9.6,M,9.2,M,,*5C
$GNGSA,A,3,04,05,09,12,17,15,26,27,,,,,2.66,1.00,2.47,1*0B
$GNGSA,A,3,,,,,,,,,,,,,2.66,1.00,2.47,4*06
$GPGSV,3,1,12,02,12,148,49,04,19,109,49,05,26,274,49,09
,53,329,50,0*63
$GPGSV,3,2,12,12,37,276,49,15,52,204,50,17,32,046,49,18,05,275,32,0*6B
$GPGSV,3,3,12,26,40,179,49,27,23,114,49,28,04,063,,30,05,261,48,0*6D
$BDGSV,1,1,00,0*74

$GNRMC,084323.00,A,3128.000048,N,12109.726232,E,9.717,270.00,010720,,,A,V*02
$GNGGA,084323.00,3128.000048,N,12109.726232,E,1,08,1.00,-9.6,M,9.2,M,,*53
$GNGSA,A,3,04,05,09,12,17,15,26,27,,,,,2.66,1.00,2.47,1*0B
$GNGSA,A,3,,,,,,,,,,,,,2.66,1.00,2.47,4*06
$GPGSV,3,1,12,02,12,148,49,04,19,109,49,05,26,274,49,09
,53,329,50,0*63
$GPGSV,3,2,12,12,37,276,49,15,52,204,50,17,32,046,49,18,05,275,,0*6A
$GPGSV,3,3,12,26,40,179,49,27,23,114,49,28,04,063,,30,05,261,48,0*6D
$BDGSV,1,1,00,0*74

$GNRMC,084324.00,A,3128.000046,N,12109.723075,E,9.718,270.00,010720,,,A,V*00
$GNGGA,084324.00,3128.000046,N,12109.723075,E,1,08,1.00,-9.6,M,9.2,M,,*5E
$GNGSA,A,3,04,05,09,12,17,15,26,27,,,,,2.66,1.00,2.47,1*0B
$GNGSA,A,3,,,,,,,,,,,,,2.66,1.00,2.47,4*06
$GPGSV,3,1,12,02,12,148,49,04,19,109,49,05,26,274,49,09
,53,329,50,0*63
$GPGSV,3,2,12,12,37,276,49,15,52,204,50,17,32,046,49,18,05,275,,0*6A
$GPGSV,3,3,12,26,40,179,49,27,23,114,49,28,04,063,,30,05,261,48,0*6D
$BDGSV,1,1,00,0*74

$GNRMC,084325.00,A,3128.000046,N,12109.719919,E,9.724,270.01,010720,,,A,V*05
$GNGGA,084325.00,3128.000046,N,12109.719919,E,1,08,1.00,-9.6,M,9.2,M,,*55
$GNGSA,A,3,04,05,09,12,17,15,26,27,,,,,2.66,1.00,2.47,1*0B
$GNGSA,A,3,,,,,,,,,,,,,2.66,1.00,2.47,4*06
$GPGSV,3,1,12,02,12,148,49,04,19,109,49,05,26,274,49,09
,53,329,50,0*63
$GPGSV,3,2,12,12,37,276,49,15,52,204,50,17,32,046,49,18,05,275,,0*6A
$GPGSV,3,3,12,26,40,179,49,27,23,114,49,28,04,063,,30,05,261,48,0*6D
$BDGSV,1,1,00,0*74

$GNRMC,084326.00,A,3128.000046,N,12109.716762,E,9.726,270.02,010720,,,A,V*0A
$GNGGA,084326.00,3128.000046,N,12109.716762,E,1,08,1.00,-9.6,M,9.2,M,,*5B
$GNGSA,A,3,04,05,09,12,17,15,26,27,,,,,2.66,1.00,2.47,1*0B
$GNGSA,A,3,,,,,,,,,,,,,2.66,1.00,2.47,4*06
$GPGSV,3,1,12,02,12,148,49,04,19,109,49,05,26,274,49,09
,53,329,50,0*63
$GPGSV,3,2,12,12,37,276,49,15,52,204,50,17,32,046,49,18,05,275,,0*6A
$GPGSV,3,3,12,26,40,179,49,27,23,114,49,28,04,063,,30,05,261,48,0*6D
$BDGSV,1,1,00,0*74

$GNRMC,084327.00,A,3128.000046,N,12109.713605,E,9.722,270.02,010720,,,A,V*0A
$GNGGA,084327.00,3128.000046,N,12109.713605,E,1,08,1.00,-9.6,M,9.2,M,,*5F
$GNGSA,A,3,04,05,09,12,17,15,26,27,,,,,2.66,1.00,2.47,1*0B
$GNGSA,A,3,,,,,,,,,,,,,2.66,1.00,2.47,4*06
$GPGSV,3,1,12,02,12,148,49,04,19,109,49,05,26,274,49,09
,53,329,50,0*63
$GPGSV,3,2,12,12,37,276,49,15,52,204,50,17,32,046,49,18,05,275,,0*6A
$GPGSV,3,3,12,26,40,179,49,27,23,114,49,28,04,063,,30,05,261,48,0*6D
$BDGSV,1,1,00,0*74

<??????????????>

$GNRMC,084328.00,A,3128.000045,N,12109.710449,E,9.714,269.98,010720,,,A,V*01
$GNGGA,084328.00,3128.000045,N,12109.710449,E,1,08,1.00,-9.6,M,9.2,M,,*5A
$GNGSA,A,3,04,05,09,12,17,15,26,27,,,,,2.66,1.00,2.47,1*0B
$GNGSA,A,3,,,,,,,,,,,,,2.66,1.00,2.47,4*06
$GPGSV,3,1,12,02,12,148,49,04,19,109,49,05,26,274,49,09
,53,329,50,0*63
$GPGSV,3,2,12,12,37,276,49,15,52,204,50,17,32,046,49,18,05,275,,0*6A
$GPGSV,3,3,12,26,40,179,49,27,23,114,49,28,04,063,,30,05,261,48,0*6D
$BDGSV,1,1,00,0*74

$GNRMC,084329.00,A,3128.000045,N,12109.707291,E,9.720,270.02,010720,,,A,V*09
$GNGGA,084329.00,3128.000045,N,12109.707291,E,1,08,1.00,-9.6,M,9.2,M,,*5E
$GNGSA,A,3,04,05,09,12,17,15,26,27,,,,,2.66,1.00,2.47,1*0B
$GNGSA,A,3,,,,,,,,,,,,,2.66,1.00,2.47,4*06
$GPGSV,3,1,12,02,12,148,49,04,19,109,49,05,26,274,49,09
,53,329,50,0*63
$GPGSV,3,2,12,12,37,276,49,15,52,204,50,17,32,046,49,18,05,275,,0*6A
$GPGSV,3,3,12,26,40,179,49,27,23,114,49,28,04,063,,30,05,261,48,0*6D
$BDGSV,1,1,00,0*74

$GNRMC,084330.00,A,3128.000045,N,12109.704135,E,9.721,270.01,010720,,,A,V*0D
$GNGGA,084330.00,3128.000045,N,12109.704135,E,1,08,1.00,-9.6,M,9.2,M,,*58
$GNGSA,A,3,04,05,09,12,17,15,26,27,,,,,2.66,1.00,2.47,1*0B
$GNGSA,A,3,,,,,,,,,,,,,2.66,1.00,2.47,4*06
$GPGSV,3,1,12,02,12,148,49,04,19,109,49,05,26,274,49,09
,53,329,50,0*63
$GPGSV,3,2,12,12,37,276,49,15,52,204,50,17,32,046,49,18,05,275,,0*6A
$GPGSV,3,3,12,26,40,179,49,27,23,114,49,28,04,063,,30,05,261,48,0*6D
$BDGSV,1,1,00,0*74

$GNRMC,084331.00,A,3128.000047,N,12109.700978,E,9.723,270.04,010720,,,A,V*0C
$GNGGA,084331.00,3128.000047,N,12109.700978,E,1,08,1.00,-9.6,M,9.2,M,,*5E
$GNGSA,A,3,04,05,09,12,17,15,26,27,,,,,2.66,1.00,2.47,1*0B
$GNGSA,A,3,,,,,,,,,,,,,2.66,1.00,2.47,4*06
$GPGSV,3,1,12,02,12,148,49,04,19,109,49,05,26,274,49,09
,53,329,50,0*63
$GPGSV,3,2,12,12,37,276,49,15,52,204,50,17,32,045,49,18,05,275,,0*69
$GPGSV,3,3,12,26,40,179,49,27,23,114,49,28,04,063,,30,05,261,48,0*6D
$BDGSV,1,1,00,0*74

$GNRMC,084332.00,A,3128.000046,N,12109.697822,E,9.720,269.99,010720,,,A,V*00
$GNGGA,084332.00,3128.000046,N,12109.697822,E,1,08,1.00,-9.6,M,9.2,M,,*5D
$GNGSA,A,3,04,05,09,12,17,15,26,27,,,,,2.66,1.00,2.47,1*0B
$GNGSA,A,3,,,,,,,,,,,,,2.66,1.00,2.47,4*06
$GPGSV,3,1,12,02,12,148,49,04,19,109,49,05,26,274,49,09
,53,329,50,0*63
$GPGSV,3,2,12,12,37,276,49,15,52,204,50,17,32,045,49,18,05,275,,0*69
$GPGSV,3,3,12,26,40,179,49,27,23,114,49,28,04,063,,30,05,261,48,0*6D
$BDGSV,1,1,00,0*74

$GNRMC,084333.00,A,3128.000046,N,12109.694665,E,9.721,270.00,010720,,,A,V*06
$GNGGA,084333.00,3128.000046,N,12109.694665,E,1,08,1.00,-9.6,M,9.2,M,,*52
$GNGSA,A,3,04,05,09,12,17,15,26,27,,,,,2.66,1.00,2.47,1*0B
$GNGSA,A,3,,,,,,,,,,,,,2.66,1.00,2.47,4*06
$GPGSV,3,1,12,02,12,148,49,04,19,109,49,05,26,274,49,09
,53,329,50,0*63
$GPGSV,3,2,12,12,37,276,49,15,52,204,50,17,32,045,49,18,05,275,,0*69
$GPGSV,3,3,12,26,40,179,49,27,23,114,49,28,04,063,,30,05,261,48,0*6D
$BDGSV,1,1,00,0*74

$GNRMC,084334.00,A,3128.000047,N,12109.691509,E,9.719,270.01,010720,,,A,V*06
$GNGGA,084334.00,3128.000047,N,12109.691509,E,1,08,1.00,-9.6,M,9.2,M,,*58
$GNGSA,A,3,04,05,09,12,17,15,26,27,,,,,2.66,1.00,2.47,1*0B
$GNGSA,A,3,,,,,,,,,,,,,2.66,1.00,2.47,4*06
$GPGSV,3,1,12,02,12,148,49,04,19,109,49,05,26,274,49,09
,53,329,50,0*63
$GPGSV,3,2,12,12,37,276,49,15,52,204,50,17,32,045,49,18,05,275,,0*69
$GPGSV,3,3,12,26,40,179,49,27,23,114,49,28,04,063,,30,05,261,48,0*6D
$BDGSV,1,1,00,0*74


GPS HPregnss> E1 15 00 00 00 00 07 53 8F 3D BA 00 00 00 1C 35 CA 27 9E 00 00 00 00 


$GNRMC,084335.00,A,3128.000047,N,12109.688352,E,9.725,270.02,010720,,,A,V*0B
$GNGGA,084335.00,3128.000047,N,12109.688352,E,1,08,1.00,-9.6,M,9.2,M,,*59
$GNGSA,A,3,04,05,09,12,17,15,26,27,,,,,2.67,1.00,2.47,1*0A
$GNGSA,A,3,,,,,,,,,,,,,2.67,1.00,2.47,4*07
$GPGSV,3,1,12,02,12,148,49,04,19,109,49,05,26,274,49,09
,53,329,50,0*63
$GPGSV,3,2,12,12,37,276,49,15,52,204,50,17,32,045,49,18,05,275,,0*69
$GPGSV,3,3,12,26,40,179,49,27,23,114,49,28,04,063,,30,05,261,48,0*6D
$BDGSV,1,1,00,0*74

$GNRMC,084336.00,A,3128.000047,N,12109.685197,E,9.722,270.02,010720,,,A,V*09
$GNGGA,084336.00,3128.000047,N,12109.685197,E,1,08,1.00,-9.6,M,9.2,M,,*5C
$GNGSA,A,3,04,05,09,12,17,15,26,27,,,,,2.67,1.00,2.47,1*0A
$GNGSA,A,3,,,,,,,,,,,,,2.67,1.00,2.47,4*07
$GPGSV,3,1,12,02,12,148,49,04,19,109,49,05,26,274,49,09
,53,329,50,0*63
$GPGSV,3,2,12,12,37,276,49,15,52,204,50,17,32,045,49,18,05,275,,0*69
$GPGSV,3,3,12,26,40,179,49,27,23,114,49,28,04,063,,30,05,261,48,0*6D
$BDGSV,1,1,00,0*74

$GNRMC,084337.00,A,3128.000047,N,12109.682040,E,9.721,270.01,010720,,,A,V*04
$GNGGA,084337.00,3128.000047,N,12109.682040,E,1,08,1.00,-9.6,M,9.2,M,,*51
$GNGSA,A,3,04,05,09,12,17,15,26,27,,,,,2.67,1.00,2.47,1*0A
$GNGSA,A,3,,,,,,,,,,,,,2.67,1.00,2.47,4*07
$GPGSV,3,1,12,02,12,148,49,04,19,109,49,05,26,274,49,09
,53,329,50,0*63
$GPGSV,3,2,12,12,37,276,49,15,52,204,50,17,32,045,49,18,05,275,,0*69
$GPGSV,3,3,12,26,40,179,49,27,23,114,49,28,04,063,,30,05,261,48,0*6D
$BDGSV,1,1,00,0*74

<????GSM????>
<assertion failed:file(dal_gsm_drv.c), line(164), rsttype(2), errid(-1)>

<????sim??????(SIM??:1)>
<????GSM????????(GSM:0)>
<????GPRS????????(GPRS:0)>
<????????????(SIGNAL:0)>
<????????????????(BER:0)>

<??????????????>

 
                                                 
                                                  
                                                 
                                               
                                                     
                                                 
                                                   
<DAL_TTS_InitDrv>
<DAL_InitGsmDrv>
YX_QXWZ_InitLink
<DAL_GPRS_Apply(1)>
<??????????????>
<YX_InstallVectorDetect s_vector[0].handler:0xf02903e9, tag:0>
<VtStatusClear[id :0]

??????????(520)=????(473)+????(47)+????(0)

No.0:time14 07 01 10 2B 25 ,file(dal_gsm_drv.c),line(164),errid(ffffffff),mem_peak(
76032)
No.1:time14 07 01 10 20 0D ,file(dal_gsm_drv.c),line(164),errid(ffffffff),mem_peak(76032)
No.2:time14 07 01 10 14 30 ,file(dal_gsm_drv.c),line(164),errid(ffffffff),mem_peak(76032)
No.3:time14 07 01 10 09 17 ,file(dal_gsm_drv.c),line(164),errid(ffffffff),mem_peak(76032)
No.4:time14 07 14 08 20 37 ,fil
e(YX_ResetCnt.c),line(305),errid(fff0),mem_peak(71424)
No.5:time14 07 14 08 20 37 ,file(YX_ResetCnt.c),line(305),errid(fff0),mem_peak(71424)
No.6:time14 07 14 08 20 37 ,file(YX_ResetCnt.c),line(305),errid(fff0),mem_peak(71424)
No.7:time14 07 14 08 20 37 ,file(YX_ResetCnt.c),line(305),errid(fff0),mem_peak(714
24)
No.8:time14 07 14 08 20 37 ,file(YX_ResetCnt.c),line(305),errid(fff0),mem_peak(71424)
No.9:time14 07 14 08 20 37 ,file(YX_ResetCnt.c),line(305),errid(fff0),mem_peak(71424)
????????????????????:172
<gps_main_begin!!>

????????!!!!!!!!!!!!!!

<---VTRTRG id:[0], isnight:[0], curvector:[0], limit:[100], pre:[95]>

<---VTRTRG id:[0], isnight:[0], curvector:[0], limit:[100], pre:[95]>

<Hdl_MSG_GSMCORE_PSReady>

$GNRMC,,V,,,,,,,,,,N,V*37
$GNGGA,,,,,,0,00,99.9,,,,,,*6F
$GNGSA,A,1,,,,,,,,,,,,,99.9,99.9,99.9,1*0A
$GNGSA,A,1,,,,,,,,,,,,,99.9,99.9,99.9,4*0F
$GPGSV,1,1,00,0*65
$BDGSV,1,1,00,0*74

<---VTRTRG id:[0], isnight:[0], curvector:[0], limit:[100], pre:[95]>

$GNRMC,,V,,,,,,,,,,N,V*37
$GNGGA,,,,,,0,00,99.9,,,,,,*6F
$GNGSA,A,1,,,,,,,,,,,,,99.9,99.9,99.9,1*0A
$GNGSA,A,1,,,,,,,,,,,,,99.9,99.9,99.9,4*0F
$GPGSV,2,1,07,02,,,50,04,,,50,05,,,51,09,,,51,0*6B
$GPGSV,2,2,07,12,,,51,15,,,51,17,,,48,0*6F
$BDGSV,1,1,00,0*74

$GNRMC,,V,,,,,,,,,,N,V*37
$GNGGA,,,,,,0,00,99.9,,,,,,*6F
$GNGSA,A,1,,,,,,,,,,,,,99.9,99.9,99.9,1*0A
$GNGSA,A,1,,,,,,,,,,,,,99.9,99.9,99.9,4*0F
$GPGSV,3,1,10,02,,,49,04,,,50,05,,,50,09,,,51,0*65
$GPGSV,3,2,10,12,,,50,15,,,51,17,,,50,26,,,50,0*61
$GPGSV,3,3,10,27,,,50,30,,,49,0*6A
$BDGSV,1,1,00,0*74

<---VTRTRG id:[0], isnight:[0], curvector:[0], limit:[100], pre:[95]>

$GNRMC,,V,,,,,,,,,,N,V*37
$GNGGA,,,,,,0,00,99.9,,,,,,*6F
$GNGSA,A,1,,,,,,,,,,,,,99.9,99.9,99.9,1*0A
$GNGSA,A,1,,,,,,,,,,,,,99.9,99.9,99.9,4*0F
$GPGSV,3,1,10,02,,,49,04,,,49,05,,,50,09,,,51,0*6D
$GPGSV,3,2,10,12,,,50,15,,,51,17,,,50,26,,,50,0*61
$GPGSV,3,3,10,27,,,50,30,,,49,0*6A
$BDGSV,1,1,00,0*74

$GNRMC,,V,,,,,,,,,,N,V*37
$GNGGA,,,,,,0,00,99.9,,,,,,*6F
$GNGSA,A,1,,,,,,,,,,,,,99.9,99.9,99.9,1*0A
$GNGSA,A,1,,,,,,,,,,,,,99.9,99.9,99.9,4*0F
$GPGSV,3,1,10,02,,,49,04,,,50,05,,,50,09,,,51,0*65
$GPGSV,3,2,10,12,,,50,15,,,51,17,,,50,26,,,50,0*61
$GPGSV,3,3,10,27,,,50,30,,,49,0*6A
$BDGSV,1,1,00,0*74

<??????????????>
<---VTRTRG id:[0], isnight:[0], curvector:[0], limit:[100], pre:[95]>

$GNRMC,,V,,,,,,,,,,N,V*37
$GNGGA,,,,,,0,00,99.9,,,,,,*6F
$GNGSA,A,1,,,,,,,,,,,,,99.9,99.9,99.9,1*0A
$GNGSA,A,1,,,,,,,,,,,,,99.9,99.9,99.9,4*0F
$GPGSV,3,1,10,02,,,49,04,,,49,05,,,49,09,,,50,0*64
$GPGSV,3,2,10,12,,,50,15,,,50,17,,,50,26,,,50,0*60
$GPGSV,3,3,10,27,,,49,30,,,49,0*62
$BDGSV,1,1,00,0*74

$GNRMC,,V,,,,,,,,,,N,V*37
$GNGGA,,,,,,0,00,99.9,,,,,,*6F
$GNGSA,A,1,,,,,,,,,,,,,99.9,99.9,99.9,1*0A
$GNGSA,A,1,,,,,,,,,,,,,99.9,99.9,99.9,4*0F
$GPGSV,3,1,10,02,,,49,04,,,49,05,,,49,09,,,50,0*64
$GPGSV,3,2,10,12,,,50,15,,,50,17,,,50,26,,,50,0*60
$GPGSV,3,3,10,27,,,49,30,,,49,0*62
$BDGSV,1,1,00,0*74

$GNRMC,,V,,,,,,,,,,N,V*37
$GNGGA,,,,,,0,00,99.9,,,,,,*6F
$GNGSA,A,1,,,,,,,,,,,,,99.9,99.9,99.9,1*0A
$GNGSA,A,1,,,,,,,,,,,,,99.9,99.9,99.9,4*0F
$GPGSV,1,1,00,0*65
$BDGSV,1,1,00,0*74
????????!!!!!!!!!!!!!!

$GNRMC,,V,,,,,,,,,,N,V*37
$GNGGA,,,,,,0,00,99.9,,,,,,*6F
$GNGSA,A,1,,,,,,,,,,,,,99.9,99.9,99.9,1*0A
$GNGSA,A,1,,,,,,,,,,,,,99.9,99.9,99.9,4*0F
$GPGSV,1,1,00,0*65
$BDGSV,1,1,00,0*74

$GNRMC,,V,,,,,,,,,,N,V*37
$GNGGA,,,,,,0,00,99.9,,,,,,*6F
$GNGSA,A,1,,,,,,,,,,,,,99.9,99.9,99.9,1*0A
$GNGSA,A,1,,,,,,,,,,,,,99.9,99.9,99.9,4*0F
$GPGSV,2,1,08,02,,,48,04,,,48,05,,,48,09,,,49,0*65
$GPGSV,2,2,08,12,,,49,15,,,49,17,,,47,26,,,48,0*67
$BDGSV,1,1,00,0*74

$GNRMC,,V,,,,,,,,,,N,V*37
$GNGGA,,,,,,0,00,99.9,,,,,,*6F
$GNGSA,A,1,,,,,,,,,,,,,99.9,99.9,99.9,1*0A
$GNGSA,A,1,,,,,,,,,,,,,99.9,99.9,99.9,4*0F
$GPGSV,3,1,10,02,,,48,04,,,48,05,,,48,09,,,49,0*6D
$GPGSV,3,2,10,12,,,49,15,,,49,17,,,49,26,,,49,0*60
$GPGSV,3,3,10,27,,,48,30,,,48,0*62
$BDGSV,1,1,00,0*74

$GNRMC,,V,,,,,,,,,,N,V*37
$GNGGA,,,,,,0,00,99.9,,,,,,*6F
$GNGSA,A,1,,,,,,,,,,,,,99.9,99.9,99.9,1*0A
$GNGSA,A,1,,,,,,,,,,,,,99.9,99.9,99.9,4*0F
$GPGSV,3,1,10,02,,,48,04,,,48,05,,,48,09,,,49,0*6D
$GPGSV,3,2,10,12,,,49,15,,,49,17,,,49,26,,,49,0*60
$GPGSV,3,3,10,27,,,48,30,,,48,0*62
$BDGSV,1,1,00,0*74

$GNRMC,,V,,,,,,,,,,N,V*37
$GNGGA,,,,,,0,00,99.9,,,,,,*6F
$GNGSA,A,1,,,,,,,,,,,,,99.9,99.9,99.9,1*0A
$GNGSA,A,1,,,,,,,,,,,,,99.9,99.9,99.9,4*0F
$GPGSV,3,1,10,02,,,48,04,,,48,05,,,48,09,,,49,0*6D
$GPGSV,3,2,10,12,,,49,15,,,49,17,,,49,26,,,49,0*60
$GPGSV,3,3,10,27,,,48,30,,,48,0*62
$BDGSV,1,1,00,0*74

$GNRMC,,V,,,,,,,,,,N,V*37
$GNGGA,,,,,,0,00,99.9,,,,,,*6F
$GNGSA,A,1,,,,,,,,,,,,,99.9,99.9,99.9,1*0A
$GNGSA,A,1,,,,,,,,,,,,,99.9,99.9,99.9,4*0F
$GPGSV,3,1,11,02,,,48,04,,,49,05,,,49,09,,,50,0*64
$GPGSV,3,2,11,12,,,49,15,,,49,17,,,49,20,,,29,0*61
$GPGSV,3,3,11,26,,,49,27,,,48,30,,,48,0*6A
$BDGSV,1,1,00,0*74

$GNRMC,,V,,,,,,,,,,N,V*37
$GNGGA,,,,,,0,00,99.9,,,,,,*6F
$GNGSA,A,1,,,,,,,,,,,,,99.9,99.9,99.9,1*0A
$GNGSA,A,1,,,,,,,,,,,,,99.9,99.9,99.9,4*0F
$GPGSV,3,1,11,02,,,48,04,,,49,05,,,48,09,,,49,0*6D
$GPGSV,3,2,11,12,,,49,15,,,49,17,,,49,26,,,49,0*61
$GPGSV,3,3,11,27,,,48,30,,,48,31,,,31,0*63
$BDGSV,1,1,00,0*74

<????sim??????(SIM??:1)>
<??????sim??>
<????GSM????????(GSM:5)>
<????GPRS????????(GPRS:0)>
<????????????(SIGNAL:0)>
<????????????????(BER:0)>

<??????????????>
<detect SIM card>

$GNRMC,084459.07,V,,,,,,,,,,N,V*1A
$GNGGA,084459.07,,,,,0,00,99.9,,,,,,*42
$GNGSA,A,1,,,,,,,,,,,,,99.9,99.9,99.9,1*0A
$GNGSA,A,1,,,,,,,,,,,,,99.9,99.9,99.9,4*0F
$GPGSV,3,1,10,02,,,48,04,,,48,05,,,48,09,,,49,0*6D
$GPGSV,3,2,10,12,,,49,15,,,49,17,,,49,26,,,49,0*60
$GPGSV,3,3,10,27,,,48,30,,,48,0*62
$BDGSV,1,1,00,0*74

$GNRMC,084500.00,V,,,,,,,,,,N,V*10
$GNGGA,084500.00,,,,,0,00,99.9,,,,,,*48
$GNGSA,A,1,,,,,,,,,,,,,99.9,99.9,99.9,1*0A
$GNGSA,A,1,,,,,,,,,,,,,99.9,99.9,99.9,4*0F
$GPGSV,3,1,10,02,,,48,04,,,48,05,,,48,09,,,49,0*6D
$GPGSV,3,2,10,12,,,49,15,,,49,17,,,49,26,,,49,0*60
$GPGSV,3,3,10,27,,,48,30,,,48,0*62
$BDGSV,1,1,00,0*74

$GNRMC,084501.00,V,,,,,,,,,,N,V*11
$GNGGA,084501.00,,,,,0,00,99.9,,,,,,*49
$GNGSA,A,1,,,,,,,,,,,,,99.9,99.9,99.9,1*0A
$GNGSA,A,1,,,,,,,,,,,,,99.9,99.9,99.9,4*0F
$GPGSV,3,1,10,02,,,48,04,,,48,05,,,48,09,,,49,0*6D
$GPGSV,3,2,10,12,,,49,15,,,49,17,,,49,26,,,49,0*60
$GPGSV,3,3,10,27,,,48,30,,,48,0*62
$BDGSV,1,1,00,0*74

$GNRMC,084502.00,V,,,,,,,,,,N,V*12
$GNGGA,084502.00,,,,,0,00,99.9,,,,,,*4A
$GNGSA,A,1,,,,,,,,,,,,,99.9,99.9,99.9,1*0A
$GNGSA,A,1,,,,,,,,,,,,,99.9,99.9,99.9,4*0F
$GPGSV,3,1,10,02,,,48,04,,,48,05,,,48,09,,,49,0*6D
$GPGSV,3,2,10,12,,,49,15,,,49,17,,,49,26,,,49,0*60
$GPGSV,3,3,10,27,,,48,30,,,48,0*62
$BDGSV,
1,1,00,0*74

$GNRMC,084503.00,V,,,,,,,,,,N,V*13
$GNGGA,084503.00,,,,,0,00,99.9,,,,,,*4B
$GNGSA,A,1,,,,,,,,,,,,,99.9,99.9,99.9,1*0A
$GNGSA,A,1,,,,,,,,,,,,,99.9,99.9,99.9,4*0F
$GPGSV,3,1,10,02,,,48,04,,,48,05,,,49,09,,,49,0*6C
$GPGSV,3,2,10,12,,,49,15,,,49,17,,,49,26,,,49,0*60
$GPGSV,3,3,10,27,,,48,30,,,48,0*62
$BDGSV,1,1,00,0*74

$GNRMC,084504.00,V,,,,,,,,,,N,V*14
$GNGGA,084504.00,,,,,0,00,99.9,,,,,,*4C
$GNGSA,A,1,,,,,,,,,,,,,99.9,99.9,99.9,1*0A
$GNGSA,A,1,,,,,,,,,,,,,99.9,99.9,99.9,4*0F
$GPGSV,3,1,10,02,,,48,04,,,48,05,,,49,09,,,49,0*6C
$GPGSV,3,2,10,12,,,49,15,,,49,17,,,49,26,,,49,0*60
$GPGSV,3,3,10,27,,,48,30,,,48,0*62
$BDGSV,1,1,00,0*74

$GNRMC,084505.00,V,,,,,,,,,,N,V*15
$GNGGA,084505.00,,,,,0,00,99.9,,,,,,*4D
$GNGSA,A,1,,,,,,,,,,,,,99.9,99.9,99.9,1*0A
$GNGSA,A,1,,,,,,,,,,,,,99.9,99.9,99.9,4*0F
$GPGSV,3,1,10,02,,,48,04,,,48,05,,,48,09,,,49,0*6D
$GPGSV,3,2,10,12,,,49,15,,,49,17,,,49,26,,,49,0*60
$GPGSV,3,3,10,27,,,48,30,,,48,0*62
$BDGSV,1,1,00,0*74

$GNRMC,084506.00,V,,,,,,,,,,N,V*16
$GNGGA,084506.00,,,,,0,00,99.9,,,,,,*4E
$GNGSA,A,1,,,,,,,,,,,,,99.9,99.9,99.9,1*0A
$GNGSA,A,1,,,,,,,,,,,,,99.9,99.9,99.9,4*0F
$GPGSV,3,1,10,02,,,48,04,,,48,05,,,48,09,,,49,0*6D
$GPGSV,3,2,10,12,,,49,15,,,49,17,,,49,26,,,49,0*60
$GPGSV,3,3,10,27,,,48,30,,,48,0*62
$BDGSV,1,1,00,0*74

$GNRMC,084507.00,V,,,,,,,,,,N,V*17
$GNGGA,084507.00,,,,,0,00,99.9,,,,,,*4F
$GNGSA,A,1,,,,,,,,,,,,,99.9,99.9,99.9,1*0A
$GNGSA,A,1,,,,,,,,,,,,,99.9,99.9,99.9,4*0F
$GPGSV,3,1,10,02,,,48,04,,,48,05,,,48,09,,,49,0*6D
$GPGSV,3,2,10,12,,,49,15,,,49,17,,,49,26,,,49,0*60
$GPGSV,3,3,10,27,,,48,30,,,48,0*62
$BDGSV,1,1,00,0*74

$GNRMC,084508.00,V,,,,,,,,,,N,V*18
$GNGGA,084508.00,,,,,0,00,99.9,,,,,,*40
$GNGSA,A,1,,,,,,,,,,,,,99.9,99.9,99.9,1*0A
$GNGSA,A,1,,,,,,,,,,,,,99.9,99.9,99.9,4*0F
$GPGSV,3,1,11,02,,,48,04,,,48,05,,,49,06,,,31,0*6D
$GPGSV,3,2,11,09,,,49,12,,,49,15,,,49,17,,,49,0*6C
$GPGSV,3,3,11,26,,,49,27,,,48,30,,,48,0*6A

$BDGSV,1,1,00,0*74

<??????????????>

$GNRMC,084509.00,V,,,,,,,,,,N,V*19
$GNGGA,084509.00,,,,,0,00,99.9,,,,,,*41
$GNGSA,A,1,,,,,,,,,,,,,99.9,99.9,99.9,1*0A
$GNGSA,A,1,,,,,,,,,,,,,99.9,99.9,99.9,4*0F
$GPGSV,3,1,11,02,,,48,04,,,49,05,,,49,09,,,50,0*64
$GPGSV,3,2,11,12,,,49,15,,,49,17,,,49,22,,,31,0*6A
$GPGSV,3,3,11,26,,,49,27,,,48,30,,,48,0*6A

$BDGSV,1,1,00,0*74

$GNRMC,084510.00,V,,,,,,,,,,N,V*11
$GNGGA,084510.00,,,,,0,00,99.9,,,,,,*49
$GNGSA,A,1,,,,,,,,,,,,,99.9,99.9,99.9,1*0A
$GNGSA,A,1,,,,,,,,,,,,,99.9,99.9,99.9,4*0F
$GPGSV,3,1,10,02,,,48,04,,,48,05,,,49,09,,,49,0*6C
$GPGSV,3,2,10,12,,,49,15,,,49,17,,,49,26,,,49,0*60
$GPGSV,3,3,10,27,,,48,30,,,48,0*62
$BDGSV,1,1,00,0*74

$GNRMC,084511.00,V,,,,,,,,,,N,V*10
$GNGGA,084511.00,,,,,0,00,99.9,,,,,,*48
$GNGSA,A,1,,,,,,,,,,,,,99.9,99.9,99.9,1*0A
$GNGSA,A,1,,,,,,,,,,,,,99.9,99.9,99.9,4*0F
$GPGSV,3,1,10,02,,,48,04,,,48,05,,,49,09,,,49,0*6C
$GPGSV,3,2,10,12,,,49,15,,,49,17,,,49,26,,,49,0*60
$GPGSV,3,3,10,27,,,48,30,,,48,0*62
$BDGSV,1,1,00,0*74

$GNRMC,084512.00,V,,,,,,,,,,N,V*13
$GNGGA,084512.00,,,,,0,00,99.9,,,,,,*4B
$GNGSA,A,1,,,,,,,,,,,,,99.9,99.9,99.9,1*0A
$GNGSA,A,1,,,,,,,,,,,,,99.9,99.9,99.9,4*0F
$GPGSV,3,1,10,02,,,48,04,,,48,05,,,49,09,,,49,0*6C
$GPGSV,3,2,10,12,,,49,15,,,49,17,,,49,26,,,49,0*60
$GPGSV,3,3,10,27,,,49,30,,,48,0*63
$BDGSV,1,1,00,0*74

$GNRMC,084513.00,V,,,,,,,,,,N,V*12
$GNGGA,084513.00,,,,,0,00,99.9,,,,,,*4A
$GNGSA,A,1,,,,,,,,,,,,,99.9,99.9,99.9,1*0A
$GNGSA,A,1,,,,,,,,,,,,,99.9,99.9,99.9,4*0F
$GPGSV,3,1,10,02,,,48,04,,,49,05,,,49,09,,,50,0*65
$GPGSV,3,2,10,12,,,49,15,,,49,17,,,49,26,,,49,0*60
$GPGSV,3,3,10,27,,,48,30,,,48,0*62
$BDGSV,
1,1,00,0*74

$GNRMC,084514.00,V,,,,,,,010720,,,N,V*11
$GNGGA,084514.00,,,,,0,00,99.9,,,,,,*4D
$GNGSA,A,1,,,,,,,,,,,,,99.9,99.9,99.9,1*0A
$GNGSA,A,1,,,,,,,,,,,,,99.9,99.9,99.9,4*0F
$GPGSV,3,1,10,02,,,48,04,,,49,05,,,49,09,,,49,0*6D
$GPGSV,3,2,10,12,,,49,15,,,49,17,,,49,26,,,49,0*60
$GPGSV,3,3,10,27,,,48,30,,,48,0*62
$
BDGSV,1,1,00,0*74

$GNRMC,084515.00,V,,,,,,,010720,,,N,V*10
$GNGGA,084515.00,,,,,0,00,99.9,,,,,,*4C
$GNGSA,A,1,,,,,,,,,,,,,99.9,99.9,99.9,1*0A
$GNGSA,A,1,,,,,,,,,,,,,99.9,99.9,99.9,4*0F
$GPGSV,3,1,10,02,,,48,04,,,48,05,,,49,09,,,49,0*6C
$GPGSV,3,2,10,12,,,49,15,,,49,17,,,49,26,,,49,0*60
$GPGSV,3,3,10,27,,,48,30,,,48,0*62
$BDGSV,1,1,00,0*74

$GNRMC,084516.00,V,,,,,,,010720,,,N,V*13
$GNGGA,084516.00,,,,,0,00,99.9,,,,,,*4F
$GNGSA,A,1,,,,,,,,,,,,,99.9,99.9,99.9,1*0A
$GNGSA,A,1,,,,,,,,,,,,,99.9,99.9,99.9,4*0F
$GPGSV,3,1,10,02,,,48,04,,,48,05,,,49,09,,,49,0*6C
$GPGSV,3,2,10,12,,,49,15,,,49,17,,,49,26,,,49,0*60
$GPGSV,3,3,10,27,,,48,30,,,48,0*62
$
BDGSV,1,1,00,0*74

$GNRMC,084517.00,V,,,,,,,010720,,,N,V*12
$GNGGA,084517.00,,,,,0,00,99.9,,,,,,*4E
$GNGSA,A,1,,,,,,,,,,,,,99.9,99.9,99.9,1*0A
$GNGSA,A,1,,,,,,,,,,,,,99.9,99.9,99.9,4*0F
$GPGSV,3,1,10,02,,,48,04,,,49,05,,,49,09,,,50,0*65
$GPGSV,3,2,10,12,,,49,15,,,49,17,,,49,26,,,49,0*60
$GPGSV,3,3,10,27,,,49,30,,,48,0*63
$BDGSV,1,1,00,0*74

$GNRMC,084518.00,V,,,,,,,010720,,,N,V*1D
$GNGGA,084518.00,,,,,0,00,99.9,,,,,,*41
$GNGSA,A,1,,,,,,,,,,,,,99.9,99.9,99.9,1*0A
$GNGSA,A,1,,,,,,,,,,,,,99.9,99.9,99.9,4*0F
$GPGSV,3,1,10,02,,,48,04,,,48,05,,,49,09,,,49,0*6C
$GPGSV,3,2,10,12,,,49,15,,,49,17,,,49,26,,,49,0*60
$GPGSV,3,3,10,27,,,49,30,,,48,0*63
$
BDGSV,1,1,00,0*74

$GNRMC,084519.00,V,,,,,,,010720,,,N,V*1C
$GNGGA,084519.00,,,,,0,00,99.9,,,,,,*40
$GNGSA,A,1,,,,,,,,,,,,,99.9,99.9,99.9,1*0A
$GNGSA,A,1,,,,,,,,,,,,,99.9,99.9,99.9,4*0F
$GPGSV,3,1,10,02,,,48,04,,,48,05,,,49,09,,,49,0*6C
$GPGSV,3,2,10,12,,,49,15,,,49,17,,,49,26,,,49,0*60
$GPGSV,3,3,10,27,,,49,30,,,48,0*63
$BDGSV,1,1,00,0*74

<????sim??????(SIM??:1)>
<????GSM????????(GSM:4)>
<????GPRS????????(GPRS:0)>
<????????????(SIGNAL:0)>
<????????????????(BER:0)>

<??????????????>

$GNRMC,084520.00,V,,,,,,,010720,,,N,V*16
$GNGGA,084520.00,,,,,0,00,99.9,,,,,,*4A
$GNGSA,A,1,,,,,,,,,,,,,99.9,99.9,99.9,1*0A
$GNGSA,A,1,,,,,,,,,,,,,99.9,99.9,99.9,4*0F
$GPGSV,3,1,10,02,,,48,04,,,48,05,,,49,09,,,49,0*6C
$GPGSV,3,2,10,12,,,49,15,,,49,17,,,49,26,,,49,0*60
$GPGSV,3,3,10,27,,,49,30,,,48,0*63
$
BDGSV,1,1,00,0*74

$GNRMC,084521.00,V,,,,,,,010720,,,N,V*17
$GNGGA,084521.00,,,,,0,00,99.9,,,,,,*4B
$GNGSA,A,1,,,,,,,,,,,,,99.9,99.9,99.9,1*0A
$GNGSA,A,1,,,,,,,,,,,,,99.9,99.9,99.9,4*0F
$GPGSV,3,1,10,02,,,48,04,,,48,05,,,49,09,,,49,0*6C
$GPGSV,3,2,10,12,,,49,15,,,49,17,,,49,26,,,49,0*60
$GPGSV,3,3,10,27,,,49,30,,,48,0*63
$BDGSV,1,1,00,0*74

$GNRMC,084522.00,V,,,,,,,010720,,,N,V*14
$GNGGA,084522.00,,,,,0,00,99.9,,,,,,*48
$GNGSA,A,1,,,,,,,,,,,,,99.9,99.9,99.9,1*0A
$GNGSA,A,1,,,,,,,,,,,,,99.9,99.9,99.9,4*0F
$GPGSV,3,1,10,02,,,48,04,,,48,05,,,49,09,,,49,0*6C
$GPGSV,3,2,10,12,,,49,15,,,49,17,,,49,26,,,49,0*60
$GPGSV,3,3,10,27,,,48,30,,,48,0*62
$
BDGSV,1,1,00,0*74

$GNRMC,084523.01,A,3127.999899,N,12109.347109,E,9.724,269.75,010720,,,A,V*05
$GNGGA,084523.01,3127.999899,N,12109.347109,E,1,05,1.55,3.3,M,9.2,M,,*71
$GNGSA,A,3,04,05,09,12,15,,,,,,,,3.05,1.55,2.63,1*0E
$GNGSA,A,3,,,,,,,,,,,,,3.05,1.55,2.63,4*04
$GPGSV,3,1,10,02,13,148,48,04,19,108,48,05,26,275,49,09,54,330
,50,0*6F
$GPGSV,3,2,10,12,38,277,49,15,51,203,49,17,,,49,26,,,49,0*6C
$GPGSV,3,3,10,27,,,49,30,,,48,0*63
$BDGSV,1,1,00,0*74

$GNRMC,084524.00,A,3128.000166,N,12109.344930,E,9.740,269.86,010720,,,A,V*03
$GNGGA,084524.00,3128.000166,N,12109.344930,E,1,08,1.00,-1.9,M,9.2,M,,*51
$GNGSA,A,3,04,05,09,12,15,17,26,27,,,,,2.72,1.00,2.53,1*0B
$GNGSA,A,3,,,,,,,,,,,,,2.72,1.00,2.53,4*06
$GPGSV,3,1,10,02,13,148,48,04,19,108,48,05,26,275,49,09
,54,330,50,0*6F
$GPGSV,3,2,10,12,38,277,49,15,51,203,49,17,31,045,49,26,39,179,49,0*6A
$GPGSV,3,3,10,27,22,115,49,30,06,262,48,0*66
$BDGSV,1,1,00,0*74

$GNRMC,084525.00,A,3128.000137,N,12109.341672,E,9.718,269.78,010720,,,A,V*06
$GNGGA,084525.00,3128.000137,N,12109.341672,E,1,08,1.00,-3.1,M,9.2,M,,*52
$GNGSA,A,3,04,05,09,12,15,17,26,27,,,,,2.72,1.00,2.53,1*0B
$GNGSA,A,3,,,,,,,,,,,,,2.72,1.00,2.53,4*06
$GPGSV,3,1,10,02,13,148,48,04,19,108,48,05,26,275,49,09
,54,330,50,0*6F
$GPGSV,3,2,10,12,38,277,49,15,51,203,49,17,31,045,49,26,39,179,49,0*6A
$GPGSV,3,3,10,27,22,115,49,30,06,262,48,0*66
$BDGSV,1,1,00,0*74

$GNRMC,084526.00,A,3128.000106,N,12109.338439,E,9.721,269.99,010720,,,A,V*01
$GNGGA,084526.00,3128.000106,N,12109.338439,E,1,08,1.00,-3.9,M,9.2,M,,*58
$GNGSA,A,3,04,05,09,12,15,17,26,27,,,,,2.72,1.00,2.53,1*0B
$GNGSA,A,3,,,,,,,,,,,,,2.72,1.00,2.53,4*06
$GPGSV,3,1,10,02,13,148,48,04,19,108,48,05,26,275,49,09
,54,330,50,0*6F
$GPGSV,3,2,10,12,38,277,49,15,51,203,49,17,31,045,49,26,39,179,49,0*6A
$GPGSV,3,3,10,27,22,115,49,30,06,262,48,0*66
$BDGSV,1,1,00,0*74

$GNRMC,084527.00,A,3128.000080,N,12109.335238,E,9.723,270.02,010720,,,A,V*0D
$GNGGA,084527.00,3128.000080,N,12109.335238,E,1,08,1.00,-4.4,M,9.2,M,,*56
$GNGSA,A,3,04,05,09,12,15,17,26,27,,,,,2.72,1.00,2.53,1*0B
$GNGSA,A,3,,,,,,,,,,,,,2.72,1.00,2.53,4*06
$GPGSV,3,1,10,02,13,148,48,04,19,108,49,05,26,275,49,09
,54,330,50,0*6E
$GPGSV,3,2,10,12,38,277,49,15,51,203,50,17,31,045,49,26,39,179,49,0*62
$GPGSV,3,3,10,27,22,115,49,30,06,262,48,0*66
$BDGSV,1,1,00,0*74

$GNRMC,084528.00,A,3128.000051,N,12109.332038,E,9.724,270.01,010720,,,A,V*0F
$GNGGA,084528.00,3128.000051,N,12109.332038,E,1,08,1.00,-4.9,M,9.2,M,,*5D
$GNGSA,A,3,04,05,09,12,15,17,26,27,,,,,2.72,1.00,2.53,1*0B
$GNGSA,A,3,,,,,,,,,,,,,2.72,1.00,2.53,4*06
$GPGSV,3,1,10,02,13,148,48,04,19,108,48,05,26,275,49,09
,54,330,49,0*67
$GPGSV,3,2,10,12,38,277,49,15,51,203,49,17,31,045,49,26,39,179,49,0*6A
$GPGSV,3,3,10,27,22,115,49,30,06,262,48,0*66
$BDGSV,1,1,00,0*74


GPS HPregnss> E1 15 00 00 00 00 07 53 8F 3D FC 00 00 00 1C 35 6E BC 8E 00 00 00 00 


$GNRMC,084529.00,A,3128.000034,N,12109.328855,E,9.720,270.00,010720,,,A,V*00
$GNGGA,084529.00,3128.000034,N,12109.328855,E,1,08,1.00,-5.3,M,9.2,M,,*5C
$GNGSA,A,3,04,05,09,12,15,17,26,27,,,,,2.72,1.00,2.53,1*0B
$GNGSA,A,3,,,,,,,,,,,,,2.72,1.00,2.53,4*06
$GPGSV,3,1,10,02,13,148,48,04,19,108,48,05,26,275,49,09
,54,330,50,0*6F
$GPGSV,3,2,10,12,38,277,49,15,51,203,49,17,31,045,49,26,39,179,49,0*6A
$GPGSV,3,3,10,27,22,115,49,30,06,262,48,0*66
$BDGSV,1,1,00,0*74

<??????????????>

$GNRMC,084530.00,A,3128.000019,N,12109.325682,E,9.721,270.03,010720,,,A,V*0C
$GNGGA,084530.00,3128.000019,N,12109.325682,E,1,08,1.00,-5.5,M,9.2,M,,*54
$GNGSA,A,3,04,05,09,12,15,17,26,27,,,,,2.72,1.00,2.53,1*0B
$GNGSA,A,3,,,,,,,,,,,,,2.72,1.00,2.53,4*06
$GPGSV,3,1,10,02,13,148,48,04,19,108,48,05,26,275,49,09
,54,330,49,0*67
$GPGSV,3,2,10,12,38,277,49,15,51,203,50,17,31,045,49,26,39,179,49,0*62
$GPGSV,3,3,10,27,22,115,49,30,06,262,48,0*66
$BDGSV,1,1,00,0*74

$GNRMC,084531.00,A,3128.000007,N,12109.322521,E,9.719,270.00,010720,,,A,V*07
$GNGGA,084531.00,3128.000007,N,12109.322521,E,1,08,1.00,-5.7,M,9.2,M,,*55
$GNGSA,A,3,04,05,09,12,15,17,26,27,,,,,2.72,1.00,2.53,1*0B
$GNGSA,A,3,,,,,,,,,,,,,2.72,1.00,2.53,4*06
$GPGSV,3,1,10,02,13,148,48,04,19,108,48,05,26,275,49,09
,54,330,49,0*67
$GPGSV,3,2,10,12,38,277,49,15,51,203,50,17,31,045,49,26,39,179,49,0*62
$GPGSV,3,3,10,27,22,115,49,30,06,262,48,0*66
$BDGSV,1,1,00,0*74

$GNRMC,084532.00,A,3128.000001,N,12109.319353,E,9.721,270.01,010720,,,A,V*03
$GNGGA,084532.00,3128.000001,N,12109.319353,E,1,08,1.00,-5.8,M,9.2,M,,*54
$GNGSA,A,3,04,05,09,12,15,17,26,27,,,,,2.72,1.00,2.53,1*0B
$GNGSA,A,3,,,,,,,,,,,,,2.72,1.00,2.53,4*06
$GPGSV,3,1,10,02,13,148,48,04,19,108,49,05,26,275,49,09
,54,330,50,0*6E
$GPGSV,3,2,10,12,38,277,49,15,51,203,49,17,31,045,49,26,39,179,49,0*6A
$GPGSV,3,3,10,27,22,115,49,30,06,262,48,0*66
$BDGSV,1,1,00,0*74

$GNRMC,084533.00,A,3128.000003,N,12109.316189,E,9.721,270.03,010720,,,A,V*08
$GNGGA,084533.00,3128.000003,N,12109.316189,E,1,08,1.00,-5.9,M,9.2,M,,*5C
$GNGSA,A,3,04,05,09,12,15,17,26,27,,,,,2.72,1.00,2.53,1*0B
$GNGSA,A,3,,,,,,,,,,,,,2.72,1.00,2.53,4*06
$GPGSV,3,1,10,02,13,148,48,04,19,108,49,05,26,275,49,09
,54,330,50,0*6E
$GPGSV,3,2,10,12,38,277,49,15,51,203,50,17,31,045,49,26,39,179,49,0*62
$GPGSV,3,3,10,27,22,115,49,30,06,262,48,0*66
$BDGSV,1,1,00,0*74

$GNRMC,084534.00,A,3128.000007,N,12109.313024,E,9.720,269.99,010720,,,A,V*02
$GNGGA,084534.00,3128.000007,N,12109.313024,E,1,08,1.00,-6.0,M,9.2,M,,*56
$GNGSA,A,3,04,05,09,12,15,17,26,27,,,,,2.72,1.00,2.53,1*0B
$GNGSA,A,3,,,,,,,,,,,,,2.72,1.00,2.53,4*06
$GPGSV,3,1,10,02,13,148,48,04,19,108,49,05,26,275,49,09
,54,330,49,0*66
$GPGSV,3,2,10,12,38,277,49,15,51,203,50,17,31,045,49,26,39,179,49,0*62
$GPGSV,3,3,10,27,22,115,49,30,06,262,48,0*66
$BDGSV,1,1,00,0*74

$GNRMC,084535.00,A,3128.000003,N,12109.309854,E,9.723,270.00,010720,,,A,V*08
$GNGGA,084535.00,3128.000003,N,12109.309854,E,1,08,1.00,-6.1,M,9.2,M,,*56
$GNGSA,A,3,04,05,09,12,15,17,26,27,,,,,2.72,1.00,2.53,1*0B
$GNGSA,A,3,,,,,,,,,,,,,2.72,1.00,2.53,4*06
$GPGSV,3,1,10,02,13,148,48,04,19,108,49,05,26,275,49,09
,54,330,49,0*66
$GPGSV,3,2,10,12,38,277,49,15,51,203,50,17,31,045,49,26,39,179,49,0*62
$GPGSV,3,3,10,27,22,115,49,30,06,262,48,0*66
$BDGSV,1,1,00,0*74

$GNRMC,084536.00,A,3128.000003,N,12109.306687,E,9.723,270.01,010720,,,A,V*05
$GNGGA,084536.00,3128.000003,N,12109.306687,E,1,08,1.00,-6.2,M,9.2,M,,*59
$GNGSA,A,3,04,05,09,12,15,17,26,27,,,,,2.72,1.00,2.53,1*0B
$GNGSA,A,3,,,,,,,,,,,,,2.72,1.00,2.53,4*06
$GPGSV,3,1,10,02,13,148,48,04,19,108,48,05,26,275,49,09
,54,330,49,0*67
$GPGSV,3,2,10,12,38,277,49,15,51,203,49,17,31,045,49,26,39,179,49,0*6A
$GPGSV,3,3,10,27,22,115,49,30,06,262,48,0*66
$BDGSV,1,1,00,0*74

$GNRMC,084537.00,A,3127.999999,N,12109.303524,E,9.723,270.01,010720,,,A,V*07
$GNGGA,084537.00,3127.999999,N,12109.303524,E,1,08,1.00,-6.3,M,9.2,M,,*5A
$GNGSA,A,3,04,05,09,12,15,17,26,27,,,,,2.72,1.00,2.53,1*0B
$GNGSA,A,3,,,,,,,,,,,,,2.72,1.00,2.53,4*06
$GPGSV,3,1,10,02,13,148,48,04,19,108,49,05,26,275,49,09
,54,330,49,0*66
$GPGSV,3,2,10,12,38,277,49,15,51,203,49,17,31,045,49,26,39,179,49,0*6A
$GPGSV,3,3,10,27,22,115,49,30,06,262,48,0*66
$BDGSV,1,1,00,0*74

$GNRMC,084538.00,A,3127.999999,N,12109.300364,E,9.727,270.03,010720,,,A,V*0F
$GNGGA,084538.00,3127.999999,N,12109.300364,E,1,08,1.00,-6.3,M,9.2,M,,*54
$GNGSA,A,3,04,05,09,12,15,17,26,27,,,,,2.72,1.00,2.53,1*0B
$GNGSA,A,3,,,,,,,,,,,,,2.72,1.00,2.53,4*06
$GPGSV,3,1,10,02,13,148,48,04,19,108,49,05,26,275,49,09
,54,330,50,0*6E
$GPGSV,3,2,10,12,38,277,49,15,51,203,49,17,31,045,49,26,39,179,49,0*6A
$GPGSV,3,3,10,27,22,115,49,30,06,262,48,0*66
$BDGSV,1,1,00,0*74

$GNRMC,084539.00,A,3127.999997,N,12109.297206,E,9.726,269.99,010720,,,A,V*00
$GNGGA,084539.00,3127.999997,N,12109.297206,E,1,08,1.00,-6.4,M,9.2,M,,*56
$GNGSA,A,3,04,05,09,12,15,17,26,27,,,,,2.72,1.00,2.53,1*0B
$GNGSA,A,3,,,,,,,,,,,,,2.72,1.00,2.53,4*06
$GPGSV,3,1,10,02,13,148,48,04,19,108,49,05,27,275,49,09
,54,330,49,0*67
$GPGSV,3,2,10,12,38,277,49,15,51,203,49,17,31,045,49,26,39,179,49,0*6A
$GPGSV,3,3,10,27,22,115,49,30,06,262,48,0*66
$BDGSV,1,1,00,0*74

<????sim??????(SIM??:1)>
<????GSM????????(GSM:0)>
<????GPRS????????(GPRS:0)>
<????????????(SIGNAL:0)>
<????????????????(BER:0)>

<??????????????>

$GNRMC,084540.00,A,3128.000000,N,12109.294048,E,9.721,270.03,010720,,,A,V*08
$GNGGA,084540.00,3128.000000,N,12109.294048,E,1,08,1.00,-6.4,M,9.2,M,,*52
$GNGSA,A,3,04,05,09,12,15,17,26,27,,,,,2.72,1.00,2.53,1*0B
$GNGSA,A,3,,,,,,,,,,,,,2.72,1.00,2.53,4*06
$GPGSV,3,1,10,02,13,148,48,04,19,108,49,05,27,275,49,09
,54,330,50,0*6F
$GPGSV,3,2,10,12,38,277,49,15,51,203,50,17,31,045,49,26,39,179,49,0*62
$GPGSV,3,3,10,27,22,115,49,30,06,262,48,0*66
$BDGSV,1,1,00,0*74

$GNRMC,084541.00,A,3127.999998,N,12109.290890,E,9.719,269.99,010720,,,A,V*0E
$GNGGA,084541.00,3127.999998,N,12109.290890,E,1,08,1.00,-6.5,M,9.2,M,,*55
$GNGSA,A,3,04,05,09,12,15,17,26,27,,,,,2.72,1.00,2.53,1*0B
$GNGSA,A,3,,,,,,,,,,,,,2.72,1.00,2.53,4*06
$GPGSV,3,1,10,02,13,148,48,04,19,108,49,05,27,275,49,09
,54,330,49,0*67
$GPGSV,3,2,10,12,38,277,49,15,51,203,50,17,31,045,49,26,39,179,49,0*62
$GPGSV,3,3,10,27,22,115,49,30,06,262,48,0*66
$BDGSV,1,1,00,0*74

$GNRMC,084542.00,A,3128.000000,N,12109.287732,E,9.718,270.01,010720,,,A,V*0A
$GNGGA,084542.00,3128.000000,N,12109.287732,E,1,08,1.00,-6.5,M,9.2,M,,*59
$GNGSA,A,3,04,05,09,12,15,17,26,27,,,,,2.72,1.00,2.53,1*0B
$GNGSA,A,3,,,,,,,,,,,,,2.72,1.00,2.53,4*06
$GPGSV,3,1,10,02,13,148,48,04,19,108,49,05,27,275,49,09
,54,330,50,0*6F
$GPGSV,3,2,10,12,38,277,49,15,51,203,50,17,31,045,49,26,39,179,49,0*62
$GPGSV,3,3,10,27,22,115,49,30,06,262,48,0*66
$BDGSV,1,1,00,0*74

$GNRMC,084543.00,A,3128.000003,N,12109.284576,E,9.724,270.02,010720,,,A,V*05
$GNGGA,084543.00,3128.000003,N,12109.284576,E,1,08,1.00,-6.5,M,9.2,M,,*5A
$GNGSA,A,3,04,05,09,12,15,17,26,27,,,,,2.72,1.00,2.53,1*0B
$GNGSA,A,3,,,,,,,,,,,,,2.72,1.00,2.53,4*06
$GPGSV,3,1,10,02,13,148,48,04,19,108,49,05,27,275,49,09
,54,330,50,0*6F
$GPGSV,3,2,10,12,38,277,49,15,51,203,50,17,31,045,49,26,39,179,49,0*62
$GPGSV,3,3,10,27,22,115,49,30,06,262,48,0*66
$BDGSV,1,1,00,0*74

$GNRMC,084544.00,A,3128.000001,N,12109.281419,E,9.724,270.00,010720,,,A,V*0F
$GNGGA,084544.00,3128.000001,N,12109.281419,E,1,08,1.00,-6.6,M,9.2,M,,*51
$GNGSA,A,3,04,05,09,12,15,17,26,27,,,,,2.72,1.00,2.54,1*0C
$GNGSA,A,3,,,,,,,,,,,,,2.72,1.00,2.54,4*01
$GPGSV,3,1,10,02,13,148,48,04,19,108,48,05,27,275,49,09
,54,330,50,0*6E
$GPGSV,3,2,10,12,38,277,49,15,51,203,50,17,31,045,49,26,39,179,49,0*62
$GPGSV,3,3,10,27,22,115,49,30,06,262,48,0*66
$BDGSV,1,1,00,0*74

$GNRMC,084545.00,A,3128.000003,N,12109.278261,E,9.724,270.03,010720,,,A,V*00
$GNGGA,084545.00,3128.000003,N,12109.278261,E,1,08,1.00,-6.6,M,9.2,M,,*5D
$GNGSA,A,3,04,05,09,12,15,17,26,27,,,,,2.72,1.00,2.54,1*0C
$GNGSA,A,3,,,,,,,,,,,,,2.72,1.00,2.54,4*01
$GPGSV,3,1,10,02,13,148,48,04,19,108,49,05,27,275,49,09
,54,330,50,0*6F
$GPGSV,3,2,10,12,38,277,49,15,51,203,50,17,31,045,49,26,39,179,49,0*62
$GPGSV,3,3,10,27,22,115,49,30,06,262,48,0*66
$BDGSV,1,1,00,0*74

$GNRMC,084546.00,A,3128.000006,N,12109.275103,E,9.717,269.99,010720,,,A,V*07
$GNGGA,084546.00,3128.000006,N,12109.275103,E,1,08,1.00,-6.6,M,9.2,M,,*51
$GNGSA,A,3,04,05,09,12,15,17,26,27,,,,,2.73,1.00,2.54,1*0D
$GNGSA,A,3,,,,,,,,,,,,,2.73,1.00,2.54,4*00
$GPGSV,3,1,10,02,13,148,48,04,19,108,49,05,27,275,49,09
,54,330,50,0*6F
$GPGSV,3,2,10,12,38,277,49,15,51,203,50,17,31,045,49,26,39,179,49,0*62
$GPGSV,3,3,10,27,22,115,49,30,06,262,48,0*66
$BDGSV,1,1,00,0*74

$GNRMC,084547.00,A,3128.000005,N,12109.271943,E,9.727,270.05,010720,,,A,V*03
$GNGGA,084547.00,3128.000005,N,12109.271943,E,1,08,1.00,-6.6,M,9.2,M,,*5B
$GNGSA,A,3,04,05,09,12,15,17,26,27,,,,,2.73,1.00,2.54,1*0D
$GNGSA,A,3,,,,,,,,,,,,,2.73,1.00,2.54,4*00
$GPGSV,3,1,10,02,13,148,48,04,19,108,49,05,27,275,49,09
,54,330,50,0*6F
$GPGSV,3,2,10,12,38,277,49,15,51,203,50,17,31,045,49,26,39,179,49,0*62
$GPGSV,3,3,10,27,22,115,49,30,06,262,48,0*66
$BDGSV,1,1,00,0*74

$GNRMC,084548.00,A,3128.000003,N,12109.268782,E,9.726,269.99,010720,,,A,V*0D
$GNGGA,084548.00,3128.000003,N,12109.268782,E,1,08,1.00,-6.7,M,9.2,M,,*58
$GNGSA,A,3,04,05,09,12,15,17,26,27,,,,,2.73,1.00,2.54,1*0D
$GNGSA,A,3,,,,,,,,,,,,,2.73,1.00,2.54,4*00
$GPGSV,3,1,10,02,13,148,48,04,19,108,48,05,27,275,49,09
,54,330,50,0*6E
$GPGSV,3,2,10,12,38,277,49,15,51,203,50,17,31,045,49,26,39,179,49,0*62
$GPGSV,3,3,10,27,22,115,49,30,06,262,48,0*66
$BDGSV,1,1,00,0*74

$GNRMC,084549.00,A,3128.000004,N,12109.265621,E,9.724,270.01,010720,,,A,V*05
$GNGGA,084549.00,3128.000004,N,12109.265621,E,1,08,1.00,-6.7,M,9.2,M,,*5B
$GNGSA,A,3,04,05,09,12,15,17,26,27,,,,,2.73,1.00,2.54,1*0D
$GNGSA,A,3,,,,,,,,,,,,,2.73,1.00,2.54,4*00
$GPGSV,3,1,10,02,13,148,48,04,19,108,49,05,27,275,49,09
,54,330,50,0*6F
$GPGSV,3,2,10,12,38,277,49,15,51,203,50,17,31,045,49,26,39,179,49,0*62
$GPGSV,3,3,10,27,22,115,49,30,06,262,48,0*66
$BDGSV,1,1,00,0*74

<??????????????>

$GNRMC,084550.00,A,3128.000006,N,12109.262462,E,9.717,270.02,010720,,,A,V*0E
$GNGGA,084550.00,3128.000006,N,12109.262462,E,1,08,1.00,-6.7,M,9.2,M,,*53
$GNGSA,A,3,04,05,09,12,15,17,26,27,,,,,2.73,1.00,2.54,1*0D
$GNGSA,A,3,,,,,,,,,,,,,2.73,1.00,2.54,4*00
$GPGSV,3,1,10,02,13,148,48,04,19,108,49,05,27,275,49,09
,54,330,50,0*6F
$GPGSV,3,2,10,12,38,277,49,15,51,203,50,17,31,045,49,26,39,179,49,0*62
$GPGSV,3,3,10,27,22,115,49,30,06,262,48,0*66
$BDGSV,1,1,00,0*74

$GNRMC,084551.00,A,3128.000003,N,12109.259302,E,9.720,269.99,010720,,,A,V*0D
$GNGGA,084551.00,3128.000003,N,12109.259302,E,1,08,1.00,-6.7,M,9.2,M,,*5E
$GNGSA,A,3,04,05,09,12,15,17,26,27,,,,,2.73,1.00,2.54,1*0D
$GNGSA,A,3,,,,,,,,,,,,,2.73,1.00,2.54,4*00
$GPGSV,3,1,10,02,13,148,48,04,19,108,49,05,27,275,49,09
,54,330,49,0*67
$GPGSV,3,2,10,12,38,277,49,15,51,203,50,17,31,045,49,26,39,179,49,0*62
$GPGSV,3,3,10,27,22,115,49,30,06,262,48,0*66
$BDGSV,1,1,00,0*74

$GNRMC,084552.00,A,3128.000005,N,12109.256141,E,9.721,269.99,010720,,,A,V*03
$GNGGA,084552.00,3128.000005,N,12109.256141,E,1,08,1.00,-6.8,M,9.2,M,,*5E
$GNGSA,A,3,04,05,09,12,15,17,26,27,,,,,2.73,1.00,2.54,1*0D
$GNGSA,A,3,,,,,,,,,,,,,2.73,1.00,2.54,4*00
$GPGSV,3,1,10,02,13,148,48,04,19,108,49,05,27,275,49,09
,54,330,50,0*6F
$GPGSV,3,2,10,12,38,277,49,15,51,203,50,17,31,045,49,26,39,179,49,0*62
$GPGSV,3,3,10,27,22,115,49,30,06,262,48,0*66
$BDGSV,1,1,00,0*74

$GNRMC,084553.00,A,3128.000006,N,12109.252982,E,9.723,270.01,010720,,,A,V*09
$GNGGA,084553.00,3128.000006,N,12109.252982,E,1,08,1.00,-6.8,M,9.2,M,,*5F
$GNGSA,A,3,04,05,09,12,15,17,26,27,,,,,2.73,1.00,2.54,1*0D
$GNGSA,A,3,,,,,,,,,,,,,2.73,1.00,2.54,4*00
$GPGSV,3,1,10,02,13,148,48,04,19,108,49,05,27,275,49,09
,54,330,50,0*6F
$GPGSV,3,2,10,12,38,277,49,15,51,203,50,17,31,045,49,26,39,179,49,0*62
$GPGSV,3,3,10,27,22,115,49,30,06,262,48,0*66
$BDGSV,1,1,00,0*74

$GNRMC,084554.00,A,3128.000008,N,12109.249825,E,9.724,270.04,010720,,,A,V*04
$GNGGA,084554.00,3128.000008,N,12109.249825,E,1,08,1.00,-6.8,M,9.2,M,,*50
$GNGSA,A,3,04,05,09,12,15,17,26,27,,,,,2.73,1.00,2.54,1*0D
$GNGSA,A,3,,,,,,,,,,,,,2.73,1.00,2.54,4*00
$GPGSV,3,1,10,02,13,148,48,04,19,108,49,05,27,275,49,09
,54,330,50,0*6F
$GPGSV,3,2,10,12,38,277,49,15,51,203,50,17,31,045,49,26,39,179,49,0*62
$GPGSV,3,3,10,27,22,115,49,30,06,262,48,0*66
$BDGSV,1,1,00,0*74

$GNRMC,084555.00,A,3128.000008,N,12109.246668,E,9.723,270.00,010720,,,A,V*0E
$GNGGA,084555.00,3128.000008,N,12109.246668,E,1,08,1.00,-6.8,M,9.2,M,,*59
$GNGSA,A,3,04,05,09,12,15,17,26,27,,,,,2.73,1.00,2.54,1*0D
$GNGSA,A,3,,,,,,,,,,,,,2.73,1.00,2.54,4*00
$GPGSV,3,1,10,02,13,148,48,04,19,108,49,05,27,275,49,09
,54,330,50,0*6F
$GPGSV,3,2,10,12,38,277,49,15,51,203,50,17,31,045,49,26,39,179,49,0*62
$GPGSV,3,3,10,27,22,115,49,30,06,262,48,0*66
$BDGSV,1,1,00,0*74

$GNRMC,084556.00,A,3128.000009,N,12109.243508,E,9.719,270.03,010720,,,A,V*06
$GNGGA,084556.00,3128.000009,N,12109.243508,E,1,08,1.00,-6.8,M,9.2,M,,*5B
$GNGSA,A,3,04,05,09,12,15,17,26,27,,,,,2.73,1.00,2.54,1*0D
$GNGSA,A,3,,,,,,,,,,,,,2.73,1.00,2.54,4*00
$GPGSV,3,1,10,02,13,148,48,04,19,108,49,05,27,275,49,09
,54,330,50,0*6F
$GPGSV,3,2,10,12,38,277,49,15,50,203,50,17,31,045,49,26,39,179,49,0*63
$GPGSV,3,3,10,27,22,115,49,30,06,262,48,0*66
$BDGSV,1,1,00,0*74

$GNRMC,084557.00,A,3128.000009,N,12109.240349,E,9.727,269.99,010720,,,A,V*01
$GNGGA,084557.00,3128.000009,N,12109.240349,E,1,08,1.00,-6.8,M,9.2,M,,*5A
$GNGSA,A,3,04,05,09,12,15,17,26,27,,,,,2.73,1.00,2.54,1*0D
$GNGSA,A,3,,,,,,,,,,,,,2.73,1.00,2.54,4*00
$GPGSV,3,1,10,02,13,148,48,04,19,108,49,05,27,275,49,09
,54,330,50,0*6F
$GPGSV,3,2,10,12,38,277,49,15,50,203,50,17,31,045,49,26,39,179,49,0*63
$GPGSV,3,3,10,27,22,115,49,30,06,262,48,0*66
$BDGSV,1,1,00,0*74


GPS HPregnss> E1 15 00 00 00 00 07 53 8F 3B 40 00 00 00 1C 35 57 6B 38 00 00 00 00 


$GNRMC,084558.00,A,3128.000008,N,12109.237191,E,9.731,270.02,010720,,,A,V*05
$GNGGA,084558.00,3128.000008,N,12109.237191,E,1,08,1.00,-6.8,M,9.2,M,,*53
$GNGSA,A,3,04,05,09,12,15,17,26,27,,,,,2.73,1.00,2.54,1*0D
$GNGSA,A,3,,,,,,,,,,,,,2.73,1.00,2.54,4*00
$GPGSV,3,1,10,02,13,148,48,04,19,108,48,05,27,275,49,09
,54,330,49,0*66
$GPGSV,3,2,10,12,38,277,49,15,50,203,50,17,31,045,49,26,39,179,49,0*63
$GPGSV,3,3,10,27,22,115,49,30,06,262,48,0*66
$BDGSV,1,1,00,0*74

$GNRMC,084559.00,A,3128.000008,N,12109.234034,E,9.723,270.02,010720,,,A,V*0A
$GNGGA,084559.00,3128.000008,N,12109.234034,E,1,08,1.00,-6.8,M,9.2,M,,*5F
