$GPGGA,084247,3128.00000,N,12109.83994,E,3,10,0.86,-10.04,M,10.04,M,,*63
$GPRMC,084247,A,3128.00000,N,12109.83994,E,9.719,270.000,010720,0.000,E,A,V*67
$GPGGA,084248,3128.00000,N,12109.83678,E,3,10,0.86,-10.04,M,10.04,M,,*61
$GPRMC,084248,A,3128.00000,N,12109.83678,E,9.719,270.000,010720,0.000,E,A,V*65
$GPGGA,084249,3128.00000,N,12109.83362,E,3,10,0.86,-10.04,M,10.04,M,,*6E
$GPRMC,084249,A,3128.00000,N,12109.83362,E,9.719,270.000,010720,0.000,E,A,V*6A
$GPGGA,084250,3128.00000,N,12109.83047,E,3,10,0.86,-10.04,M,10.04,M,,*62
$GPRMC,084250,A,3128.00000,N,12109.83047,E,9.719,270.000,010720,0.000,E,A,V*66
$GPGGA,084251,3128.00000,N,12109.82731,E,3,10,0.86,-10.04,M,10.04,M,,*64
$GPRMC,084251,A,3128.00000,N,12109.82731,E,9.719,270.000,010720,0.000,E,A,V*60
$GPGGA,084252,3128.00000,N,12109.82415,E,3,10,0.86,-10.03,M,10.03,M,,*62
$GPRMC,084252,A,3128.00000,N,12109.82415,E,9.719,270.000,010720,0.000,E,A,V*66
$GPGGA,084253,3128.00000,N,12109.82099,E,3,10,0.86,-10.03,M,10.03,M,,*63
$GPRMC,084253,A,3128.00000,N,12109.82099,E,9.719,270.000,010720,0.000,E,A,V*67
$GPGGA,084254,3128.00000,N,12109.81784,E,3,10,0.86,-10.03,M,10.03,M,,*6C
$GPRMC,084254,A,3128.00000,N,12109.81784,E,9.719,270.000,010720,0.000,E,A,V*68
$GPGGA,084255,3128.00000,N,12109.81468,E,3,10,0.86,-10.03,M,10.03,M,,*6C
$GPRMC,084255,A,3128.00000,N,12109.81468,E,9.719,270.000,010720,0.000,E,A,V*68
$GPGGA,084256,3128.00000,N,12109.81152,E,3,10,0.86,-10.03,M,10.03,M,,*63
$GPRMC,084256,A,3128.00000,N,12109.81152,E,9.719,270.000,010720,0.000,E,A,V*67
$GPGGA,084257,3128.00000,N,12109.80837,E,3,10,0.86,-10.03,M,10.03,M,,*69
$GPRMC,084257,A,3128.00000,N,12109.80837,E,9.719,270.000,010720,0.000,E,A,V*6D
$GPGGA,084258,3128.00000,N,12109.80521,E,3,10,0.86,-10.03,M,10.03,M,,*6C
$GPRMC,084258,A,3128.00000,N,12109.80521,E,9.719,270.000,010720,0.000,E,A,V*68
$GPGGA,084259,3128.00000,N,12109.80205,E,3,10,0.86,-10.03,M,10.03,M,,*6C
$GPRMC,084259,A,3128.00000,N,12109.80205,E,9.719,270.000,010720,0.000,E,A,V*68
$GPGGA,084300,3128.00000,N,12109.79890,E,3,10,0.86,-10.03,M,10.03,M,,*61
$GPRMC,084300,A,3128.00000,N,12109.79890,E,9.719,270.000,010720,0.000,E,A,V*65
$GPGGA,084301,3128.00000,N,12109.79574,E,3,10,0.86,-10.03,M,10.03,M,,*67
$GPRMC,084301,A,3128.00000,N,12109.79574,E,9.719,270.000,010720,0.000,E,A,V*63
$GPGGA,084302,3128.00000,N,12109.79258,E,3,10,0.86,-10.03,M,10.03,M,,*6D
$GPRMC,084302,A,3128.00000,N,12109.79258,E,9.719,270.000,010720,0.000,E,A,V*69
$GPGGA,084303,3128.00000,N,12109.78943,E,3,10,0.86,-10.03,M,10.03,M,,*6C
$GPRMC,084303,A,3128.00000,N,12109.78943,E,9.719,270.000,010720,0.000,E,A,V*68
$GPGGA,084304,3128.00000,N,12109.78627,E,3,10,0.86,-10.03,M,10.03,M,,*66
$GPRMC,084304,A,3128.00000,N,12109.78627,E,9.719,270.000,010720,0.000,E,A,V*62
$GPGGA,084305,3128.00000,N,12109.78311,E,3,10,0.86,-10.03,M,10.03,M,,*67
$GPRMC,084305,A,3128.00000,N,12109.78311,E,9.719,270.000,010720,0.000,E,A,V*63
$GPGGA,084306,3128.00000,N,12109.77996,E,3,10,0.86,-10.03,M,10.03,M,,*6E
$GPRMC,084306,A,3128.00000,N,12109.77996,E,9.719,270.000,010720,0.000,E,A,V*6A
$GPGGA,084307,3128.00000,N,12109.77680,E,3,10,0.86,-10.03,M,10.03,M,,*67
$GPRMC,084307,A,3128.00000,N,12109.77680,E,9.719,270.000,010720,0.000,E,A,V*63
$GPGGA,084308,3128.00000,N,12109.77364,E,3,10,0.86,-10.03,M,10.03,M,,*67
$GPRMC,084308,A,3128.00000,N,12109.77364,E,9.719,270.000,010720,0.000,E,A,V*63
$GPGGA,084309,3128.00000,N,12109.77049,E,3,10,0.86,-10.03,M,10.03,M,,*6A
$GPRMC,084309,A,3128.00000,N,12109.77049,E,9.719,270.000,010720,0.000,E,A,V*6E
$GPGGA,084310,3128.00000,N,12109.76733,E,3,10,0.86,-10.03,M,10.03,M,,*69
$GPRMC,084310,A,3128.00000,N,12109.76733,E,9.719,270.000,010720,0.000,E,A,V*6D
$GPGGA,084311,3128.00000,N,12109.76417,E,3,10,0.86,-10.03,M,10.03,M,,*6D
$GPRMC,084311,A,3128.00000,N,12109.76417,E,9.719,270.000,010720,0.000,E,A,V*69
$GPGGA,084312,3128.00000,N,12109.76102,E,3,10,0.86,-10.03,M,10.03,M,,*6F
$GPRMC,084312,A,3128.00000,N,12109.76102,E,9.719,270.000,010720,0.000,E,A,V*6B
$GPGGA,084313,3128.00000,N,12109.75786,E,3,10,0.86,-10.03,M,10.03,M,,*67
$GPRMC,084313,A,3128.00000,N,12109.75786,E,9.719,270.000,010720,0.000,E,A,V*63
$GPGGA,084314,3128.00000,N,12109.75470,E,3,10,0.86,-10.03,M,10.03,M,,*6A
$GPRMC,084314,A,3128.00000,N,12109.75470,E,9.719,270.000,010720,0.000,E,A,V*6E
$GPGGA,084315,3128.00000,N,12109.75155,E,3,10,0.86,-10.03,M,10.03,M,,*69
$GPRMC,084315,A,3128.00000,N,12109.75155,E,9.719,270.000,010720,0.000,E,A,V*6D
$GPGGA,084316,3128.00000,N,12109.74839,E,3,10,0.86,-10.03,M,10.03,M,,*68
$GPRMC,084316,A,3128.00000,N,12109.74839,E,9.719,270.000,010720,0.000,E,A,V*6C
$GPGGA,084317,3128.00000,N,12109.74523,E,3,10,0.86,-10.03,M,10.03,M,,*6F
$GPRMC,084317,A,3128.00000,N,12109.74523,E,9.719,270.000,010720,0.000,E,A,V*6B
$GPGGA,084318,3128.00000,N,12109.74208,E,3,10,0.86,-10.03,M,10.03,M,,*6E
$GPRMC,084318,A,3128.00000,N,12109.74208,E,9.719,270.000,010720,0.000,E,A,V*6A
$GPGGA,084319,3128.00000,N,12109.73892,E,3,10,0.86,-10.03,M,10.03,M,,*61
$GPRMC,084319,A,3128.00000,N,12109.73892,E,9.719,270.000,010720,0.000,E,A,V*65
$GPGGA,084320,3128.00000,N,12109.73576,E,3,10,0.86,-10.03,M,10.03,M,,*6C
$GPRMC,084320,A,3128.00000,N,12109.73576,E,9.719,270.000,010720,0.000,E,A,V*68
$GPGGA,084321,3128.00000,N,12109.73261,E,3,10,0.86,-10.03,M,10.03,M,,*6C
$GPRMC,084321,A,3128.00000,N,12109.73261,E,9.719,270.000,010720,0.000,E,A,V*68
$GPGGA,084322,3128.00000,N,12109.72945,E,3,10,0.86,-10.03,M,10.03,M,,*63
$GPRMC,084322,A,3128.00000,N,12109.72945,E,9.719,270.000,010720,0.000,E,A,V*67
$GPGGA,084323,3128.00000,N,12109.72629,E,3,10,0.86,-10.03,M,10.03,M,,*67
$GPRMC,084323,A,3128.00000,N,12109.72629,E,9.719,270.000,010720,0.000,E,A,V*63
$GPGGA,084324,3128.00000,N,12109.72314,E,3,10,0.86,-10.03,M,10.03,M,,*6B
$GPRMC,084324,A,3128.00000,N,12109.72314,E,9.719,270.000,010720,0.000,E,A,V*6F
$GPGGA,084325,3128.00000,N,12109.71998,E,3,10,0.86,-10.03,M,10.03,M,,*67
$GPRMC,084325,A,3128.00000,N,12109.71998,E,9.719,270.000,010720,0.000,E,A,V*63
$GPGGA,084326,3128.00000,N,12109.71682,E,3,10,0.86,-10.03,M,10.03,M,,*60
$GPRMC,084326,A,3128.00000,N,12109.71682,E,9.719,270.000,010720,0.000,E,A,V*64
$GPGGA,084327,3128.00000,N,12109.71367,E,3,10,0.86,-10.03,M,10.03,M,,*6F
$GPRMC,084327,A,3128.00000,N,12109.71367,E,9.719,270.000,010720,0.000,E,A,V*6B
$GPGGA,084328,3128.00000,N,12109.71051,E,3,10,0.86,-10.03,M,10.03,M,,*66
$GPRMC,084328,A,3128.00000,N,12109.71051,E,9.719,270.000,010720,0.000,E,A,V*62
$GPGGA,084329,3128.00000,N,12109.70735,E,3,10,0.86,-10.03,M,10.03,M,,*63
$GPRMC,084329,A,3128.00000,N,12109.70735,E,9.719,270.000,010720,0.000,E,A,V*67
$GPGGA,084330,3128.00000,N,12109.70420,E,3,10,0.86,-10.03,M,10.03,M,,*6C
$GPRMC,084330,A,3128.00000,N,12109.70420,E,9.719,270.000,010720,0.000,E,A,V*68
$GPGGA,084331,3128.00000,N,12109.70104,E,3,10,0.86,-10.03,M,10.03,M,,*6E
$GPRMC,084331,A,3128.00000,N,12109.70104,E,9.719,270.000,010720,0.000,E,A,V*6A
$GPGGA,084332,3128.00000,N,12109.69788,E,3,10,0.86,-10.03,M,10.03,M,,*67
$GPRMC,084332,A,3128.00000,N,12109.69788,E,9.719,270.000,010720,0.000,E,A,V*63
$GPGGA,084333,3128.00000,N,12109.69473,E,3,10,0.86,-10.03,M,10.03,M,,*61
$GPRMC,084333,A,3128.00000,N,12109.69473,E,9.719,270.000,010720,0.000,E,A,V*65
$GPGGA,084334,3128.00000,N,12109.69157,E,3,10,0.86,-10.03,M,10.03,M,,*65
$GPRMC,084334,A,3128.00000,N,12109.69157,E,9.719,270.000,010720,0.000,E,A,V*61
$GPGGA,084335,3128.00000,N,12109.68841,E,3,10,0.86,-10.03,M,10.03,M,,*6B
$GPRMC,084335,A,3128.00000,N,12109.68841,E,9.719,270.000,010720,0.000,E,A,V*6F
$GPGGA,084336,3128.00000,N,12109.68526,E,3,10,0.86,-10.03,M,10.03,M,,*64
$GPRMC,084336,A,3128.00000,N,12109.68526,E,9.719,270.000,010720,0.000,E,A,V*60
$GPGGA,084337,3128.00000,N,12109.68210,E,3,10,0.86,-10.03,M,10.03,M,,*67
$GPRMC,084337,A,3128.00000,N,12109.68210,E,9.719,270.000,010720,0.000,E,A,V*63
$GPGGA,084338,3128.00000,N,12109.67894,E,3,10,0.86,-10.03,M,10.03,M,,*61
$GPRMC,084338,A,3128.00000,N,12109.67894,E,9.719,270.000,010720,0.000,E,A,V*65
$GPGGA,084339,3128.00000,N,12109.67579,E,3,10,0.86,-10.03,M,10.03,M,,*6E
$GPRMC,084339,A,3128.00000,N,12109.67579,E,9.719,270.000,010720,0.000,E,A,V*6A
$GPGGA,084340,3128.00000,N,12109.67263,E,3,10,0.86,-10.03,M,10.03,M,,*6C
$GPRMC,084340,A,3128.00000,N,12109.67263,E,9.719,270.000,010720,0.000,E,A,V*68
$GPGGA,084341,3128.00000,N,12109.66947,E,3,10,0.86,-10.03,M,10.03,M,,*61
$GPRMC,084341,A,3128.00000,N,12109.66947,E,9.719,270.000,010720,0.000,E,A,V*65
$GPGGA,084342,3128.00000,N,12109.66632,E,3,10,0.86,-10.03,M,10.03,M,,*6F
$GPRMC,084342,A,3128.00000,N,12109.66632,E,9.719,270.000,010720,0.000,E,A,V*6B
$GPGGA,084343,3128.00000,N,12109.66316,E,3,10,0.86,-10.03,M,10.03,M,,*6D
$GPRMC,084343,A,3128.00000,N,12109.66316,E,9.719,270.000,010720,0.000,E,A,V*69
$GPGGA,084344,3128.00000,N,12109.66000,E,3,10,0.86,-10.03,M,10.03,M,,*6E
$GPRMC,084344,A,3128.00000,N,12109.66000,E,9.719,270.000,010720,0.000,E,A,V*6A
$GPGGA,084345,3128.00000,N,12109.65685,E,3,10,0.86,-10.03,M,10.03,M,,*67
$GPRMC,084345,A,3128.00000,N,12109.65685,E,9.719,270.000,010720,0.000,E,A,V*63
$GPGGA,084346,3128.00000,N,12109.65369,E,3,10,0.86,-10.03,M,10.03,M,,*63
$GPRMC,084346,A,3128.00000,N,12109.65369,E,9.719,270.000,010720,0.000,E,A,V*67
$GPGGA,084347,3128.00000,N,12109.65053,E,3,10,0.86,-10.03,M,10.03,M,,*68
$GPRMC,084347,A,3128.00000,N,12109.65053,E,9.719,270.000,010720,0.000,E,A,V*6C
$GPGGA,084348,3128.00000,N,12109.64738,E,3,10,0.86,-10.03,M,10.03,M,,*6C
$GPRMC,084348,A,3128.00000,N,12109.64738,E,9.719,270.000,010720,0.000,E,A,V*68
$GPGGA,084349,3128.00000,N,12109.64422,E,3,10,0.86,-10.03,M,10.03,M,,*65
$GPRMC,084349,A,3128.00000,N,12109.64422,E,9.719,270.000,010720,0.000,E,A,V*61
$GPGGA,084350,3128.00000,N,12109.64106,E,3,10,0.86,-10.03,M,10.03,M,,*6E
$GPRMC,084350,A,3128.00000,N,12109.64106,E,9.719,270.000,010720,0.000,E,A,V*6A
$GPGGA,084351,3128.00000,N,12109.63791,E,3,10,0.86,-10.03,M,10.03,M,,*60
$GPRMC,084351,A,3128.00000,N,12109.63791,E,9.719,270.000,010720,0.000,E,A,V*64
$GPGGA,084352,3128.00000,N,12109.63475,E,3,10,0.86,-10.03,M,10.03,M,,*6A
$GPRMC,084352,A,3128.00000,N,12109.63475,E,9.719,270.000,010720,0.000,E,A,V*6E
$GPGGA,084353,3128.00000,N,12109.63159,E,3,10,0.86,-10.03,M,10.03,M,,*60
$GPRMC,084353,A,3128.00000,N,12109.63159,E,9.719,270.000,010720,0.000,E,A,V*64
$GPGGA,084354,3128.00000,N,12109.62844,E,3,10,0.86,-10.03,M,10.03,M,,*63
$GPRMC,084354,A,3128.00000,N,12109.62844,E,9.719,270.000,010720,0.000,E,A,V*67
$GPGGA,084355,3128.00000,N,12109.62528,E,3,10,0.86,-10.03,M,10.03,M,,*65
$GPRMC,084355,A,3128.00000,N,12109.62528,E,9.719,270.000,010720,0.000,E,A,V*61
$GPGGA,084356,3128.00000,N,12109.62212,E,3,10,0.86,-10.03,M,10.03,M,,*68
$GPRMC,084356,A,3128.00000,N,12109.62212,E,9.719,270.000,010720,0.000,E,A,V*6C
$GPGGA,084357,3128.00000,N,12109.61897,E,3,10,0.86,-10.03,M,10.03,M,,*6D
$GPRMC,084357,A,3128.00000,N,12109.61897,E,9.719,270.000,010720,0.000,E,A,V*69
$GPGGA,084358,3128.00000,N,12109.61581,E,3,10,0.86,-10.02,M,10.02,M,,*68
$GPRMC,084358,A,3128.00000,N,12109.61581,E,9.719,270.000,010720,0.000,E,A,V*6C
$GPGGA,084359,3128.00000,N,12109.61265,E,3,10,0.86,-10.02,M,10.02,M,,*64
$GPRMC,084359,A,3128.00000,N,12109.61265,E,9.719,270.000,010720,0.000,E,A,V*60
$GPGGA,084400,3128.00000,N,12109.60950,E,3,10,0.86,-10.02,M,10.02,M,,*63
$GPRMC,084400,A,3128.00000,N,12109.60950,E,9.719,270.000,010720,0.000,E,A,V*67
$GPGGA,084401,3128.00000,N,12109.60634,E,3,10,0.86,-10.02,M,10.02,M,,*6F
$GPRMC,084401,A,3128.00000,N,12109.60634,E,9.719,270.000,010720,0.000,E,A,V*6B
$GPGGA,084402,3128.00000,N,12109.60318,E,3,10,0.86,-10.02,M,10.02,M,,*67
$GPRMC,084402,A,3128.00000,N,12109.60318,E,9.719,270.000,010720,0.000,E,A,V*63
$GPGGA,084403,3128.00000,N,12109.60003,E,3,10,0.86,-10.02,M,10.02,M,,*6F
$GPRMC,084403,A,3128.00000,N,12109.60003,E,9.719,270.000,010720,0.000,E,A,V*6B
$GPGGA,084404,3128.00000,N,12109.59687,E,3,10,0.86,-10.02,M,10.02,M,,*68
$GPRMC,084404,A,3128.00000,N,12109.59687,E,9.719,270.000,010720,0.000,E,A,V*6C
$GPGGA,084405,3128.00000,N,12109.59371,E,3,10,0.86,-10.02,M,10.02,M,,*65
$GPRMC,084405,A,3128.00000,N,12109.59371,E,9.719,270.000,010720,0.000,E,A,V*61
$GPGGA,084406,3128.00000,N,12109.59056,E,3,10,0.86,-10.02,M,10.02,M,,*60
$GPRMC,084406,A,3128.00000,N,12109.59056,E,9.719,270.000,010720,0.000,E,A,V*64
$GPGGA,084407,3128.00000,N,12109.58740,E,3,10,0.86,-10.02,M,10.02,M,,*60
$GPRMC,084407,A,3128.00000,N,12109.58740,E,9.719,270.000,010720,0.000,E,A,V*64
$GPGGA,084408,3128.00000,N,12109.58424,E,3,10,0.86,-10.02,M,10.02,M,,*6E
$GPRMC,084408,A,3128.00000,N,12109.58424,E,9.719,270.000,010720,0.000,E,A,V*6A
$GPGGA,084409,3128.00000,N,12109.58109,E,3,10,0.86,-10.02,M,10.02,M,,*65
$GPRMC,084409,A,3128.00000,N,12109.58109,E,9.719,270.000,010720,0.000,E,A,V*61
$GPGGA,084410,3128.00000,N,12109.57793,E,3,10,0.86,-10.02,M,10.02,M,,*67
$GPRMC,084410,A,3128.00000,N,12109.57793,E,9.719,270.000,010720,0.000,E,A,V*63
$GPGGA,084411,3128.00000,N,12109.57477,E,3,10,0.86,-10.02,M,10.02,M,,*6F
$GPRMC,084411,A,3128.00000,N,12109.57477,E,9.719,270.000,010720,0.000,E,A,V*6B
$GPGGA,084412,3128.00000,N,12109.57162,E,3,10,0.86,-10.02,M,10.02,M,,*6D
$GPRMC,084412,A,3128.00000,N,12109.57162,E,9.719,270.000,010720,0.000,E,A,V*69
$GPGGA,084413,3128.00000,N,12109.56846,E,3,10,0.86,-10.02,M,10.02,M,,*62
$GPRMC,084413,A,3128.00000,N,12109.56846,E,9.719,270.000,010720,0.000,E,A,V*66
$GPGGA,084414,3128.00000,N,12109.56530,E,3,10,0.86,-10.02,M,10.02,M,,*69
$GPRMC,084414,A,3128.00000,N,12109.56530,E,9.719,270.000,010720,0.000,E,A,V*6D
$GPGGA,084415,3128.00000,N,12109.56215,E,3,10,0.86,-10.02,M,10.02,M,,*68
$GPRMC,084415,A,3128.00000,N,12109.56215,E,9.719,270.000,010720,0.000,E,A,V*6C
$GPGGA,084416,3128.00000,N,12109.55899,E,3,10,0.86,-10.02,M,10.02,M,,*66
$GPRMC,084416,A,3128.00000,N,12109.55899,E,9.719,270.000,010720,0.000,E,A,V*62
$GPGGA,084417,3128.00000,N,12109.55583,E,3,10,0.86,-10.02,M,10.02,M,,*61
$GPRMC,084417,A,3128.00000,N,12109.55583,E,9.719,270.000,010720,0.000,E,A,V*65
$GPGGA,084418,3128.00000,N,12109.55268,E,3,10,0.86,-10.02,M,10.02,M,,*6C
$GPRMC,084418,A,3128.00000,N,12109.55268,E,9.719,270.000,010720,0.000,E,A,V*68
$GPGGA,084419,3128.00000,N,12109.54952,E,3,10,0.86,-10.02,M,10.02,M,,*6E
$GPRMC,084419,A,3128.00000,N,12109.54952,E,9.719,270.000,010720,0.000,E,A,V*6A
$GPGGA,084420,3128.00000,N,12109.54636,E,3,10,0.86,-10.02,M,10.02,M,,*69
$GPRMC,084420,A,3128.00000,N,12109.54636,E,9.719,270.000,010720,0.000,E,A,V*6D
$GPGGA,084421,3128.00000,N,12109.54321,E,3,10,0.86,-10.02,M,10.02,M,,*6B
$GPRMC,084421,A,3128.00000,N,12109.54321,E,9.719,270.000,010720,0.000,E,A,V*6F
$GPGGA,084422,3128.00000,N,12109.54005,E,3,10,0.86,-10.02,M,10.02,M,,*6D
$GPRMC,084422,A,3128.00000,N,12109.54005,E,9.719,270.000,010720,0.000,E,A,V*69
$GPGGA,084423,3128.00000,N,12109.53689,E,3,10,0.86,-10.02,M,10.02,M,,*69
$GPRMC,084423,A,3128.00000,N,12109.53689,E,9.719,270.000,010720,0.000,E,A,V*6D
$GPGGA,084424,3128.00000,N,12109.53374,E,3,10,0.86,-10.02,M,10.02,M,,*69
$GPRMC,084424,A,3128.00000,N,12109.53374,E,9.719,270.000,010720,0.000,E,A,V*6D
$GPGGA,084425,3128.00000,N,12109.53058,E,3,10,0.86,-10.02,M,10.02,M,,*65
$GPRMC,084425,A,3128.00000,N,12109.53058,E,9.719,270.000,010720,0.000,E,A,V*61
$GPGGA,084426,3128.00000,N,12109.52742,E,3,10,0.86,-10.02,M,10.02,M,,*6B
$GPRMC,084426,A,3128.00000,N,12109.52742,E,9.719,270.000,010720,0.000,E,A,V*6F
$GPGGA,084427,3128.00000,N,12109.52427,E,3,10,0.86,-10.02,M,10.02,M,,*6A
$GPRMC,084427,A,3128.00000,N,12109.52427,E,9.719,270.000,010720,0.000,E,A,V*6E
$GPGGA,084428,3128.00000,N,12109.52111,E,3,10,0.86,-10.02,M,10.02,M,,*65
$GPRMC,084428,A,3128.00000,N,12109.52111,E,9.719,270.000,010720,0.000,E,A,V*61
$GPGGA,084429,3128.00000,N,12109.51795,E,3,10,0.86,-10.02,M,10.02,M,,*6D
$GPRMC,084429,A,3128.00000,N,12109.51795,E,9.719,270.000,010720,0.000,E,A,V*69
$GPGGA,084430,3128.00000,N,12109.51480,E,3,10,0.86,-10.02,M,10.02,M,,*62
$GPRMC,084430,A,3128.00000,N,12109.51480,E,9.719,270.000,010720,0.000,E,A,V*66
$GPGGA,084431,3128.00000,N,12109.51164,E,3,10,0.86,-10.02,M,10.02,M,,*6C
$GPRMC,084431,A,3128.00000,N,12109.51164,E,9.719,270.000,010720,0.000,E,A,V*68
$GPGGA,084432,3128.00000,N,12109.50848,E,3,10,0.86,-10.02,M,10.02,M,,*69
$GPRMC,084432,A,3128.00000,N,12109.50848,E,9.719,270.000,010720,0.000,E,A,V*6D
$GPGGA,084433,3128.00000,N,12109.50533,E,3,10,0.86,-10.02,M,10.02,M,,*69
$GPRMC,084433,A,3128.00000,N,12109.50533,E,9.719,270.000,010720,0.000,E,A,V*6D
$GPGGA,084434,3128.00000,N,12109.50217,E,3,10,0.85,-10.02,M,10.02,M,,*6C
$GPRMC,084434,A,3128.00000,N,12109.50217,E,9.719,270.000,010720,0.000,E,A,V*6B
$GPGGA,084435,3128.00000,N,12109.49901,E,3,10,0.85,-10.02,M,10.02,M,,*69
$GPRMC,084435,A,3128.00000,N,12109.49901,E,9.719,270.000,010720,0.000,E,A,V*6E
$GPGGA,084436,3128.00000,N,12109.49586,E,3,10,0.85,-10.02,M,10.02,M,,*69
$GPRMC,084436,A,3128.00000,N,12109.49586,E,9.719,270.000,010720,0.000,E,A,V*6E
$GPGGA,084437,3128.00000,N,12109.49270,E,3,10,0.85,-10.02,M,10.02,M,,*66
$GPRMC,084437,A,3128.00000,N,12109.49270,E,9.719,270.000,010720,0.000,E,A,V*61
$GPGGA,084438,3128.00000,N,12109.48954,E,3,10,0.85,-10.02,M,10.02,M,,*65
$GPRMC,084438,A,3128.00000,N,12109.48954,E,9.719,270.000,010720,0.000,E,A,V*62
$GPGGA,084439,3128.00000,N,12109.48639,E,3,10,0.85,-10.02,M,10.02,M,,*60
$GPRMC,084439,A,3128.00000,N,12109.48639,E,9.719,270.000,010720,0.000,E,A,V*67
$GPGGA,084440,3128.00000,N,12109.48323,E,3,10,0.85,-10.02,M,10.02,M,,*60
$GPRMC,084440,A,3128.00000,N,12109.48323,E,9.719,270.000,010720,0.000,E,A,V*67
$GPGGA,084441,3128.00000,N,12109.48007,E,3,10,0.85,-10.02,M,10.02,M,,*64
$GPRMC,084441,A,3128.00000,N,12109.48007,E,9.719,270.000,010720,0.000,E,A,V*63
$GPGGA,084442,3128.00000,N,12109.47691,E,3,10,0.85,-10.02,M,10.02,M,,*61
$GPRMC,084442,A,3128.00000,N,12109.47691,E,9.719,270.000,010720,0.000,E,A,V*66
$GPGGA,084443,3128.00000,N,12109.47376,E,3,10,0.85,-10.02,M,10.02,M,,*6C
$GPRMC,084443,A,3128.00000,N,12109.47376,E,9.719,270.000,010720,0.000,E,A,V*6B
$GPGGA,084444,3128.00000,N,12109.47060,E,3,10,0.85,-10.02,M,10.02,M,,*6F
$GPRMC,084444,A,3128.00000,N,12109.47060,E,9.719,270.000,010720,0.000,E,A,V*68
$GPGGA,084445,3128.00000,N,12109.46744,E,3,10,0.85,-10.02,M,10.02,M,,*6E
$GPRMC,084445,A,3128.00000,N,12109.46744,E,9.719,270.000,010720,0.000,E,A,V*69
$GPGGA,084446,3128.00000,N,12109.46429,E,3,10,0.85,-10.02,M,10.02,M,,*65
$GPRMC,084446,A,3128.00000,N,12109.46429,E,9.719,270.000,010720,0.000,E,A,V*62
$GPGGA,084447,3128.00000,N,12109.46113,E,3,10,0.85,-10.02,M,10.02,M,,*68
$GPRMC,084447,A,3128.00000,N,12109.46113,E,9.719,270.000,010720,0.000,E,A,V*6F
$GPGGA,084448,3128.00000,N,12109.45797,E,3,10,0.85,-10.02,M,10.02,M,,*6E
$GPRMC,084448,A,3128.00000,N,12109.45797,E,9.719,270.000,010720,0.000,E,A,V*69
$GPGGA,084449,3128.00000,N,12109.45482,E,3,10,0.85,-10.02,M,10.02,M,,*68
$GPRMC,084449,A,3128.00000,N,12109.45482,E,9.719,270.000,010720,0.000,E,A,V*6F
$GPGGA,084450,3128.00000,N,12109.45166,E,3,10,0.85,-10.02,M,10.02,M,,*6F
$GPRMC,084450,A,3128.00000,N,12109.45166,E,9.719,270.000,010720,0.000,E,A,V*68
$GPGGA,084451,3128.00000,N,12109.44850,E,3,10,0.85,-10.02,M,10.02,M,,*63
$GPRMC,084451,A,3128.00000,N,12109.44850,E,9.719,270.000,010720,0.000,E,A,V*64
$GPGGA,084452,3128.00000,N,12109.44535,E,3,10,0.85,-10.02,M,10.02,M,,*6E
$GPRMC,084452,A,3128.00000,N,12109.44535,E,9.719,270.000,010720,0.000,E,A,V*69
$GPGGA,084453,3128.00000,N,12109.44219,E,3,10,0.85,-10.02,M,10.02,M,,*66
$GPRMC,084453,A,3128.00000,N,12109.44219,E,9.719,270.000,010720,0.000,E,A,V*61
$GPGGA,084454,3128.00000,N,12109.43903,E,3,10,0.85,-10.02,M,10.02,M,,*66
$GPRMC,084454,A,3128.00000,N,12109.43903,E,9.719,270.000,010720,0.000,E,A,V*61
$GPGGA,084455,3128.00000,N,12109.43588,E,3,10,0.85,-10.02,M,10.02,M,,*68
$GPRMC,084455,A,3128.00000,N,12109.43588,E,9.719,270.000,010720,0.000,E,A,V*6F
$GPGGA,084456,3128.00000,N,12109.43272,E,3,10,0.85,-10.02,M,10.02,M,,*69
$GPRMC,084456,A,3128.00000,N,12109.43272,E,9.719,270.000,010720,0.000,E,A,V*6E
$GPGGA,084457,3128.00000,N,12109.42956,E,3,10,0.85,-10.02,M,10.02,M,,*64
$GPRMC,084457,A,3128.00000,N,12109.42956,E,9.719,270.000,010720,0.000,E,A,V*63
$GPGGA,084458,3128.00000,N,12109.42641,E,3,10,0.85,-10.02,M,10.02,M,,*62
$GPRMC,084458,A,3128.00000,N,12109.42641,E,9.719,270.000,010720,0.000,E,A,V*65
$GPGGA,084459,3128.00000,N,12109.42325,E,3,10,0.85,-10.02,M,10.02,M,,*64
$GPRMC,084459,A,3128.00000,N,12109.42325,E,9.719,270.000,010720,0.000,E,A,V*63
$GPGGA,084500,3128.00000,N,12109.42009,E,3,10,0.85,-10.02,M,10.02,M,,*64
$GPRMC,084500,A,3128.00000,N,12109.42009,E,9.719,270.000,010720,0.000,E,A,V*63
$GPGGA,084501,3128.00000,N,12109.41694,E,3,10,0.85,-10.02,M,10.02,M,,*64
$GPRMC,084501,A,3128.00000,N,12109.41694,E,9.719,270.000,010720,0.000,E,A,V*63
$GPGGA,084502,3128.00000,N,12109.41378,E,3,10,0.85,-10.02,M,10.02,M,,*60
$GPRMC,084502,A,3128.00000,N,12109.41378,E,9.719,270.000,010720,0.000,E,A,V*67
$GPGGA,084503,3128.00000,N,12109.41062,E,3,10,0.85,-10.02,M,10.02,M,,*69
$GPRMC,084503,A,3128.00000,N,12109.41062,E,9.719,270.000,010720,0.000,E,A,V*6E
$GPGGA,084504,3128.00000,N,12109.40747,E,3,10,0.85,-10.02,M,10.02,M,,*6F
$GPRMC,084504,A,3128.00000,N,12109.40747,E,9.719,270.000,010720,0.000,E,A,V*68
$GPGGA,084505,3128.00000,N,12109.40431,E,3,10,0.85,-10.01,M,10.01,M,,*6C
$GPRMC,084505,A,3128.00000,N,12109.40431,E,9.719,270.000,010720,0.000,E,A,V*6B
$GPGGA,084506,3128.00000,N,12109.40115,E,3,10,0.85,-10.01,M,10.01,M,,*6C
$GPRMC,084506,A,3128.00000,N,12109.40115,E,9.719,270.000,010720,0.000,E,A,V*6B
$GPGGA,084507,3128.00000,N,12109.39800,E,3,10,0.85,-10.01,M,10.01,M,,*6E
$GPRMC,084507,A,3128.00000,N,12109.39800,E,9.719,270.000,010720,0.000,E,A,V*69
$GPGGA,084508,3128.00000,N,12109.39484,E,3,10,0.85,-10.01,M,10.01,M,,*61
$GPRMC,084508,A,3128.00000,N,12109.39484,E,9.719,270.000,010720,0.000,E,A,V*66
$GPGGA,084509,3128.00000,N,12109.39168,E,3,10,0.85,-10.01,M,10.01,M,,*67
$GPRMC,084509,A,3128.00000,N,12109.39168,E,9.719,270.000,010720,0.000,E,A,V*60
$GPGGA,084510,3128.00000,N,12109.38853,E,3,10,0.85,-10.01,M,10.01,M,,*6F
$GPRMC,084510,A,3128.00000,N,12109.38853,E,9.719,270.000,010720,0.000,E,A,V*68
$GPGGA,084511,3128.00000,N,12109.38537,E,3,10,0.85,-10.01,M,10.01,M,,*61
$GPRMC,084511,A,3128.00000,N,12109.38537,E,9.719,270.000,010720,0.000,E,A,V*66
$GPGGA,084512,3128.00000,N,12109.38221,E,3,10,0.85,-10.01,M,10.01,M,,*62
$GPRMC,084512,A,3128.00000,N,12109.38221,E,9.719,270.000,010720,0.000,E,A,V*65
$GPGGA,084513,3128.00000,N,12109.37906,E,3,10,0.85,-10.01,M,10.01,M,,*62
$GPRMC,084513,A,3128.00000,N,12109.37906,E,9.719,270.000,010720,0.000,E,A,V*65
$GPGGA,084514,3128.00000,N,12109.37590,E,3,10,0.85,-10.01,M,10.01,M,,*66
$GPRMC,084514,A,3128.00000,N,12109.37590,E,9.719,270.000,010720,0.000,E,A,V*61
$GPGGA,084515,3128.00000,N,12109.37274,E,3,10,0.85,-10.01,M,10.01,M,,*6A
$GPRMC,084515,A,3128.00000,N,12109.37274,E,9.719,270.000,010720,0.000,E,A,V*6D
$GPGGA,084516,3128.00000,N,12109.36959,E,3,10,0.85,-10.01,M,10.01,M,,*6C
$GPRMC,084516,A,3128.00000,N,12109.36959,E,9.719,270.000,010720,0.000,E,A,V*6B
$GPGGA,084517,3128.00000,N,12109.36643,E,3,10,0.85,-10.01,M,10.01,M,,*69
$GPRMC,084517,A,3128.00000,N,12109.36643,E,9.719,270.000,010720,0.000,E,A,V*6E
$GPGGA,084518,3128.00000,N,12109.36327,E,3,10,0.85,-10.01,M,10.01,M,,*61
$GPRMC,084518,A,3128.00000,N,12109.36327,E,9.719,270.000,010720,0.000,E,A,V*66
$GPGGA,084519,3128.00000,N,12109.36012,E,3,10,0.85,-10.01,M,10.01,M,,*65
$GPRMC,084519,A,3128.00000,N,12109.36012,E,9.719,270.000,010720,0.000,E,A,V*62
$GPGGA,084520,3128.00000,N,12109.35696,E,3,10,0.85,-10.01,M,10.01,M,,*66
$GPRMC,084520,A,3128.00000,N,12109.35696,E,9.719,270.000,010720,0.000,E,A,V*61
$GPGGA,084521,3128.00000,N,12109.35380,E,3,10,0.85,-10.01,M,10.01,M,,*65
$GPRMC,084521,A,3128.00000,N,12109.35380,E,9.719,270.000,010720,0.000,E,A,V*62
$GPGGA,084522,3128.00000,N,12109.35065,E,3,10,0.85,-10.01,M,10.01,M,,*6E
$GPRMC,084522,A,3128.00000,N,12109.35065,E,9.719,270.000,010720,0.000,E,A,V*69
$GPGGA,084523,3128.00000,N,12109.34749,E,3,10,0.85,-10.01,M,10.01,M,,*67
$GPRMC,084523,A,3128.00000,N,12109.34749,E,9.719,270.000,010720,0.000,E,A,V*60
$GPGGA,084524,3128.00000,N,12109.34433,E,3,10,0.85,-10.01,M,10.01,M,,*6E
$GPRMC,084524,A,3128.00000,N,12109.34433,E,9.719,270.000,010720,0.000,E,A,V*69
$GPGGA,084525,3128.00000,N,12109.34118,E,3,10,0.85,-10.01,M,10.01,M,,*63
$GPRMC,084525,A,3128.00000,N,12109.34118,E,9.719,270.000,010720,0.000,E,A,V*64
$GPGGA,084526,3128.00000,N,12109.33802,E,3,10,0.85,-10.01,M,10.01,M,,*65
$GPRMC,084526,A,3128.00000,N,12109.33802,E,9.719,270.000,010720,0.000,E,A,V*62
$GPGGA,084527,3128.00000,N,12109.33486,E,3,10,0.85,-10.01,M,10.01,M,,*64
$GPRMC,084527,A,3128.00000,N,12109.33486,E,9.719,270.000,010720,0.000,E,A,V*63
$GPGGA,084528,3128.00000,N,12109.33171,E,3,10,0.85,-10.01,M,10.01,M,,*66
$GPRMC,084528,A,3128.00000,N,12109.33171,E,9.719,270.000,010720,0.000,E,A,V*61
$GPGGA,084529,3128.00000,N,12109.32855,E,3,10,0.85,-10.01,M,10.01,M,,*69
$GPRMC,084529,A,3128.00000,N,12109.32855,E,9.719,270.000,010720,0.000,E,A,V*6E
$GPGGA,084530,3128.00000,N,12109.32539,E,3,10,0.85,-10.01,M,10.01,M,,*66
$GPRMC,084530,A,3128.00000,N,12109.32539,E,9.719,270.000,010720,0.000,E,A,V*61
$GPGGA,084531,3128.00000,N,12109.32224,E,3,10,0.85,-10.01,M,10.01,M,,*6C
$GPRMC,084531,A,3128.00000,N,12109.32224,E,9.719,270.000,010720,0.000,E,A,V*6B
$GPGGA,084532,3128.00000,N,12109.31908,E,3,10,0.85,-10.01,M,10.01,M,,*69
$GPRMC,084532,A,3128.00000,N,12109.31908,E,9.719,270.000,010720,0.000,E,A,V*6E
$GPGGA,084533,3128.00000,N,12109.31592,E,3,10,0.85,-10.01,M,10.01,M,,*67
$GPRMC,084533,A,3128.00000,N,12109.31592,E,9.719,270.000,010720,0.000,E,A,V*60
$GPGGA,084534,3128.00000,N,12109.31277,E,3,10,0.85,-10.01,M,10.01,M,,*6C
$GPRMC,084534,A,3128.00000,N,12109.31277,E,9.719,270.000,010720,0.000,E,A,V*6B
$GPGGA,084535,3128.00000,N,12109.30961,E,3,10,0.85,-10.01,M,10.01,M,,*60
$GPRMC,084535,A,3128.00000,N,12109.30961,E,9.719,270.000,010720,0.000,E,A,V*67
$GPGGA,084536,3128.00000,N,12109.30645,E,3,10,0.85,-10.01,M,10.01,M,,*6A
$GPRMC,084536,A,3128.00000,N,12109.30645,E,9.719,270.000,010720,0.000,E,A,V*6D
$GPGGA,084537,3128.00000,N,12109.30330,E,3,10,0.85,-10.01,M,10.01,M,,*6C
$GPRMC,084537,A,3128.00000,N,12109.30330,E,9.719,270.000,010720,0.000,E,A,V*6B
$GPGGA,084538,3128.00000,N,12109.30014,E,3,10,0.85,-10.01,M,10.01,M,,*66
$GPRMC,084538,A,3128.00000,N,12109.30014,E,9.719,270.000,010720,0.000,E,A,V*61
$GPGGA,084539,3128.00000,N,12109.29698,E,3,10,0.85,-10.01,M,10.01,M,,*6D
$GPRMC,084539,A,3128.00000,N,12109.29698,E,9.719,270.000,010720,0.000,E,A,V*6A
$GPGGA,084540,3128.00000,N,12109.29383,E,3,10,0.85,-10.01,M,10.01,M,,*6C
$GPRMC,084540,A,3128.00000,N,12109.29383,E,9.719,270.000,010720,0.000,E,A,V*6B
$GPGGA,084541,3128.00000,N,12109.29067,E,3,10,0.85,-10.01,M,10.01,M,,*64
$GPRMC,084541,A,3128.00000,N,12109.29067,E,9.719,270.000,010720,0.000,E,A,V*63
$GPGGA,084542,3128.00000,N,12109.28751,E,3,10,0.85,-10.01,M,10.01,M,,*64
$GPRMC,084542,A,3128.00000,N,12109.28751,E,9.719,270.000,010720,0.000,E,A,V*63
$GPGGA,084543,3128.00000,N,12109.28436,E,3,10,0.85,-10.01,M,10.01,M,,*67
$GPRMC,084543,A,3128.00000,N,12109.28436,E,9.719,270.000,010720,0.000,E,A,V*60
$GPGGA,084544,3128.00000,N,12109.28120,E,3,10,0.85,-10.01,M,10.01,M,,*62
$GPRMC,084544,A,3128.00000,N,12109.28120,E,9.719,270.000,010720,0.000,E,A,V*65
$GPGGA,084545,3128.00000,N,12109.27804,E,3,10,0.85,-10.01,M,10.01,M,,*63
$GPRMC,084545,A,3128.00000,N,12109.27804,E,9.719,270.000,010720,0.000,E,A,V*64
$GPGGA,084546,3128.00000,N,12109.27489,E,3,10,0.85,-10.01,M,10.01,M,,*69
$GPRMC,084546,A,3128.00000,N,12109.27489,E,9.719,270.000,010720,0.000,E,A,V*6E
$GPGGA,084547,3128.00000,N,12109.27173,E,3,10,0.85,-10.01,M,10.01,M,,*68
$GPRMC,084547,A,3128.00000,N,12109.27173,E,9.719,270.000,010720,0.000,E,A,V*6F
$GPGGA,084548,3128.00000,N,12109.26857,E,3,10,0.85,-10.01,M,10.01,M,,*69
$GPRMC,084548,A,3128.00000,N,12109.26857,E,9.719,270.000,010720,0.000,E,A,V*6E
$GPGGA,084549,3128.00000,N,12109.26542,E,3,10,0.85,-10.01,M,10.01,M,,*61
$GPRMC,084549,A,3128.00000,N,12109.26542,E,9.719,270.000,010720,0.000,E,A,V*66
$GPGGA,084550,3128.00000,N,12109.26226,E,3,10,0.85,-10.01,M,10.01,M,,*6C
$GPRMC,084550,A,3128.00000,N,12109.26226,E,9.719,270.000,010720,0.000,E,A,V*6B
$GPGGA,084551,3128.00000,N,12109.25910,E,3,10,0.85,-10.01,M,10.01,M,,*60
$GPRMC,084551,A,3128.00000,N,12109.25910,E,9.719,270.000,010720,0.000,E,A,V*67
$GPGGA,084552,3128.00000,N,12109.25595,E,3,10,0.85,-10.01,M,10.01,M,,*62
$GPRMC,084552,A,3128.00000,N,12109.25595,E,9.719,270.000,010720,0.000,E,A,V*65
$GPGGA,084553,3128.00000,N,12109.25279,E,3,10,0.85,-10.01,M,10.01,M,,*66
$GPRMC,084553,A,3128.00000,N,12109.25279,E,9.719,270.000,010720,0.000,E,A,V*61
$GPGGA,084554,3128.00000,N,12109.24963,E,3,10,0.85,-10.01,M,10.01,M,,*60
$GPRMC,084554,A,3128.00000,N,12109.24963,E,9.719,270.000,010720,0.000,E,A,V*67
$GPGGA,084555,3128.00000,N,12109.24648,E,3,10,0.85,-10.01,M,10.01,M,,*67
$GPRMC,084555,A,3128.00000,N,12109.24648,E,9.719,270.000,010720,0.000,E,A,V*60
$GPGGA,084556,3128.00000,N,12109.24332,E,3,10,0.85,-10.01,M,10.01,M,,*6C
$GPRMC,084556,A,3128.00000,N,12109.24332,E,9.719,270.000,010720,0.000,E,A,V*6B
$GPGGA,084557,3128.00000,N,12109.24016,E,3,10,0.85,-10.01,M,10.01,M,,*68
$GPRMC,084557,A,3128.00000,N,12109.24016,E,9.719,270.000,010720,0.000,E,A,V*6F
$GPGGA,084558,3128.00000,N,12109.23701,E,3,10,0.85,-10.01,M,10.01,M,,*61
$GPRMC,084558,A,3128.00000,N,12109.23701,E,9.719,270.000,010720,0.000,E,A,V*66
$GPGGA,084559,3128.00000,N,12109.23385,E,3,10,0.85,-10.01,M,10.01,M,,*68
$GPRMC,084559,A,3128.00000,N,12109.23385,E,9.719,270.000,010720,0.000,E,A,V*6F
$GPGGA,084600,3128.00000,N,12109.23069,E,3,10,0.85,-10.01,M,10.01,M,,*66
$GPRMC,084600,A,3128.00000,N,12109.23069,E,9.719,270.000,010720,0.000,E,A,V*61
$GPGGA,084601,3128.00000,N,12109.22754,E,3,10,0.85,-10.01,M,10.01,M,,*6F
$GPRMC,084601,A,3128.00000,N,12109.22754,E,9.719,270.000,010720,0.000,E,A,V*68
$GPGGA,084602,3128.00000,N,12109.22438,E,3,10,0.85,-10.01,M,10.01,M,,*65
$GPRMC,084602,A,3128.00000,N,12109.22438,E,9.719,270.000,010720,0.000,E,A,V*62
$GPGGA,084603,3128.00000,N,12109.22122,E,3,10,0.85,-10.01,M,10.01,M,,*6A
$GPRMC,084603,A,3128.00000,N,12109.22122,E,9.719,270.000,010720,0.000,E,A,V*6D
$GPGGA,084604,3128.00000,N,12109.21807,E,3,10,0.85,-10.01,M,10.01,M,,*60
$GPRMC,084604,A,3128.00000,N,12109.21807,E,9.719,270.000,010720,0.000,E,A,V*67
$GPGGA,084605,3128.00000,N,12109.21491,E,3,10,0.85,-10.01,M,10.01,M,,*62
$GPRMC,084605,A,3128.00000,N,12109.21491,E,9.719,270.000,010720,0.000,E,A,V*65
$GPGGA,084606,3128.00000,N,12109.21175,E,3,10,0.85,-10.01,M,10.01,M,,*6E
$GPRMC,084606,A,3128.00000,N,12109.21175,E,9.719,270.000,010720,0.000,E,A,V*69
$GPGGA,084607,3128.00000,N,12109.20860,E,3,10,0.85,-10.01,M,10.01,M,,*63
$GPRMC,084607,A,3128.00000,N,12109.20860,E,9.719,270.000,010720,0.000,E,A,V*64
$GPGGA,084608,3128.00000,N,12109.20544,E,3,10,0.85,-10.01,M,10.01,M,,*67
$GPRMC,084608,A,3128.00000,N,12109.20544,E,9.719,270.000,010720,0.000,E,A,V*60
$GPGGA,084609,3128.00000,N,12109.20228,E,3,10,0.85,-10.01,M,10.01,M,,*6B
$GPRMC,084609,A,3128.00000,N,12109.20228,E,9.719,270.000,010720,0.000,E,A,V*6C
$GPGGA,084610,3128.00000,N,12109.19913,E,3,10,0.85,-10.01,M,10.01,M,,*6A
$GPRMC,084610,A,3128.00000,N,12109.19913,E,9.719,270.000,010720,0.000,E,A,V*6D
$GPGGA,084611,3128.00000,N,12109.19597,E,3,10,0.85,-10.01,M,10.01,M,,*6B
$GPRMC,084611,A,3128.00000,N,12109.19597,E,9.719,270.000,010720,0.000,E,A,V*6C
$GPGGA,084612,3128.00000,N,12109.19281,E,3,10,0.85,-10.01,M,10.01,M,,*68
$GPRMC,084612,A,3128.00000,N,12109.19281,E,9.719,270.000,010720,0.000,E,A,V*6F
$GPGGA,084613,3128.00000,N,12109.18966,E,3,10,0.85,-10.01,M,10.01,M,,*6A
$GPRMC,084613,A,3128.00000,N,12109.18966,E,9.719,270.000,010720,0.000,E,A,V*6D
$GPGGA,084614,3128.00000,N,12109.18650,E,3,10,0.85,-10.00,M,10.00,M,,*67
$GPRMC,084614,A,3128.00000,N,12109.18650,E,9.719,270.000,010720,0.000,E,A,V*60
$GPGGA,084615,3128.00000,N,12109.18334,E,3,10,0.85,-10.00,M,10.00,M,,*61
$GPRMC,084615,A,3128.00000,N,12109.18334,E,9.719,270.000,010720,0.000,E,A,V*66
$GPGGA,084616,3128.00000,N,12109.18019,E,3,10,0.85,-10.00,M,10.00,M,,*6E
$GPRMC,084616,A,3128.00000,N,12109.18019,E,9.719,270.000,010720,0.000,E,A,V*69
$GPGGA,084617,3128.00000,N,12109.17703,E,3,10,0.85,-10.00,M,10.00,M,,*6C
$GPRMC,084617,A,3128.00000,N,12109.17703,E,9.719,270.000,010720,0.000,E,A,V*6B
$GPGGA,084618,3128.00000,N,12109.17387,E,3,10,0.85,-10.00,M,10.00,M,,*6B
$GPRMC,084618,A,3128.00000,N,12109.17387,E,9.719,270.000,010720,0.000,E,A,V*6C
$GPGGA,084619,3128.00000,N,12109.17072,E,3,10,0.85,-10.00,M,10.00,M,,*63
$GPRMC,084619,A,3128.00000,N,12109.17072,E,9.719,270.000,010720,0.000,E,A,V*64
$GPGGA,084620,3128.00000,N,12109.16756,E,3,10,0.85,-10.00,M,10.00,M,,*69
$GPRMC,084620,A,3128.00000,N,12109.16756,E,9.719,270.000,010720,0.000,E,A,V*6E
$GPGGA,084621,3128.00000,N,12109.16440,E,3,10,0.85,-10.00,M,10.00,M,,*6C
$GPRMC,084621,A,3128.00000,N,12109.16440,E,9.719,270.000,010720,0.000,E,A,V*6B
$GPGGA,084622,3128.00000,N,12109.16125,E,3,10,0.85,-10.00,M,10.00,M,,*69
$GPRMC,084622,A,3128.00000,N,12109.16125,E,9.719,270.000,010720,0.000,E,A,V*6E
$GPGGA,084623,3128.00000,N,12109.15809,E,3,10,0.85,-10.00,M,10.00,M,,*6C
$GPRMC,084623,A,3128.00000,N,12109.15809,E,9.719,270.000,010720,0.000,E,A,V*6B
$GPGGA,084624,3128.00000,N,12109.15493,E,3,10,0.85,-10.00,M,10.00,M,,*64
$GPRMC,084624,A,3128.00000,N,12109.15493,E,9.719,270.000,010720,0.000,E,A,V*63
$GPGGA,084625,3128.00000,N,12109.15178,E,3,10,0.85,-10.00,M,10.00,M,,*65
$GPRMC,084625,A,3128.00000,N,12109.15178,E,9.719,270.000,010720,0.000,E,A,V*62
$GPGGA,084626,3128.00000,N,12109.14862,E,3,10,0.85,-10.00,M,10.00,M,,*65
$GPRMC,084626,A,3128.00000,N,12109.14862,E,9.719,270.000,010720,0.000,E,A,V*62
$GPGGA,084627,3128.00000,N,12109.14546,E,3,10,0.85,-10.00,M,10.00,M,,*6F
$GPRMC,084627,A,3128.00000,N,12109.14546,E,9.719,270.000,010720,0.000,E,A,V*68
$GPGGA,084628,3128.00000,N,12109.14230,E,3,10,0.85,-10.00,M,10.00,M,,*66
$GPRMC,084628,A,3128.00000,N,12109.14230,E,9.719,270.000,010720,0.000,E,A,V*61
$GPGGA,084629,3128.00000,N,12109.13915,E,3,10,0.85,-10.00,M,10.00,M,,*6C
$GPRMC,084629,A,3128.00000,N,12109.13915,E,9.719,270.000,010720,0.000,E,A,V*6B
$GPGGA,084630,3128.00000,N,12109.13599,E,3,10,0.85,-10.00,M,10.00,M,,*6C
$GPRMC,084630,A,3128.00000,N,12109.13599,E,9.719,270.000,010720,0.000,E,A,V*6B
$GPGGA,084631,3128.00000,N,12109.13283,E,3,10,0.85,-10.00,M,10.00,M,,*61
$GPRMC,084631,A,3128.00000,N,12109.13283,E,9.719,270.000,010720,0.000,E,A,V*66
$GPGGA,084632,3128.00000,N,12109.12968,E,3,10,0.85,-10.00,M,10.00,M,,*6D
$GPRMC,084632,A,3128.00000,N,12109.12968,E,9.719,270.000,010720,0.000,E,A,V*6A
$GPGGA,084633,3128.00000,N,12109.12652,E,3,10,0.85,-10.00,M,10.00,M,,*6A
$GPRMC,084633,A,3128.00000,N,12109.12652,E,9.719,270.000,010720,0.000,E,A,V*6D
$GPGGA,084634,3128.00000,N,12109.12336,E,3,10,0.85,-10.00,M,10.00,M,,*6A
$GPRMC,084634,A,3128.00000,N,12109.12336,E,9.719,270.000,010720,0.000,E,A,V*6D
$GPGGA,084635,3128.00000,N,12109.12021,E,3,10,0.85,-10.00,M,10.00,M,,*6E
$GPRMC,084635,A,3128.00000,N,12109.12021,E,9.719,270.000,010720,0.000,E,A,V*69
$GPGGA,084636,3128.00000,N,12109.11705,E,3,10,0.85,-10.00,M,10.00,M,,*6F
$GPRMC,084636,A,3128.00000,N,12109.11705,E,9.719,270.000,010720,0.000,E,A,V*68
$GPGGA,084637,3128.00000,N,12109.11389,E,3,10,0.85,-10.00,M,10.00,M,,*6E
$GPRMC,084637,A,3128.00000,N,12109.11389,E,9.719,270.000,010720,0.000,E,A,V*69
$GPGGA,084638,3128.00000,N,12109.11074,E,3,10,0.85,-10.00,M,10.00,M,,*60
$GPRMC,084638,A,3128.00000,N,12109.11074,E,9.719,270.000,010720,0.000,E,A,V*67
$GPGGA,084639,3128.00000,N,12109.10758,E,3,10,0.85,-10.00,M,10.00,M,,*69
$GPRMC,084639,A,3128.00000,N,12109.10758,E,9.719,270.000,010720,0.000,E,A,V*6E
$GPGGA,084640,3128.00000,N,12109.10442,E,3,10,0.85,-10.00,M,10.00,M,,*6F
$GPRMC,084640,A,3128.00000,N,12109.10442,E,9.719,270.000,010720,0.000,E,A,V*68
$GPGGA,084641,3128.00000,N,12109.10127,E,3,10,0.85,-10.00,M,10.00,M,,*68
$GPRMC,084641,A,3128.00000,N,12109.10127,E,9.719,270.000,010720,0.000,E,A,V*6F
$GPGGA,084642,3128.00000,N,12109.09811,E,3,10,0.85,-10.00,M,10.00,M,,*6F
$GPRMC,084642,A,3128.00000,N,12109.09811,E,9.719,270.000,010720,0.000,E,A,V*68
$GPGGA,084643,3128.00000,N,12109.09495,E,3,10,0.85,-10.00,M,10.00,M,,*6E
$GPRMC,084643,A,3128.00000,N,12109.09495,E,9.719,270.000,010720,0.000,E,A,V*69
$GPGGA,084644,3128.00000,N,12109.09180,E,3,10,0.85,-10.00,M,10.00,M,,*68
$GPRMC,084644,A,3128.00000,N,12109.09180,E,9.719,270.000,010720,0.000,E,A,V*6F
$GPGGA,084645,3128.00000,N,12109.08864,E,3,10,0.85,-10.00,M,10.00,M,,*6B
$GPRMC,084645,A,3128.00000,N,12109.08864,E,9.719,270.000,010720,0.000,E,A,V*6C
$GPGGA,084646,3128.00000,N,12109.08548,E,3,10,0.85,-10.00,M,10.00,M,,*6B
$GPRMC,084646,A,3128.00000,N,12109.08548,E,9.719,270.000,010720,0.000,E,A,V*6C
$GPGGA,084647,3128.00000,N,12109.08233,E,3,10,0.85,-10.00,M,10.00,M,,*61
$GPRMC,084647,A,3128.00000,N,12109.08233,E,9.719,270.000,010720,0.000,E,A,V*66
$GPGGA,084648,3128.00000,N,12109.07917,E,3,10,0.85,-10.00,M,10.00,M,,*6C
$GPRMC,084648,A,3128.00000,N,12109.07917,E,9.719,270.000,010720,0.000,E,A,V*6B
$GPGGA,084649,3128.00000,N,12109.07601,E,3,10,0.85,-10.00,M,10.00,M,,*65
$GPRMC,084649,A,3128.00000,N,12109.07601,E,9.719,270.000,010720,0.000,E,A,V*62
$GPGGA,084650,3128.00000,N,12109.07286,E,3,10,0.85,-10.00,M,10.00,M,,*66
$GPRMC,084650,A,3128.00000,N,12109.07286,E,9.719,270.000,010720,0.000,E,A,V*61
$GPGGA,084651,3128.00000,N,12109.06970,E,3,10,0.85,-10.00,M,10.00,M,,*64
$GPRMC,084651,A,3128.00000,N,12109.06970,E,9.719,270.000,010720,0.000,E,A,V*63
$GPGGA,084652,3128.00000,N,12109.06654,E,3,10,0.85,-10.00,M,10.00,M,,*6E
$GPRMC,084652,A,3128.00000,N,12109.06654,E,9.719,270.000,010720,0.000,E,A,V*69
$GPGGA,084653,3128.00000,N,12109.06339,E,3,10,0.85,-10.00,M,10.00,M,,*61
$GPRMC,084653,A,3128.00000,N,12109.06339,E,9.719,270.000,010720,0.000,E,A,V*66
$GPGGA,084654,3128.00000,N,12109.06023,E,3,10,0.85,-10.00,M,10.00,M,,*6E
$GPRMC,084654,A,3128.00000,N,12109.06023,E,9.719,270.000,010720,0.000,E,A,V*69
$GPGGA,084655,3128.00000,N,12109.05707,E,3,10,0.85,-10.00,M,10.00,M,,*6D
$GPRMC,084655,A,3128.00000,N,12109.05707,E,9.719,270.000,010720,0.000,E,A,V*6A
$GPGGA,084656,3128.00000,N,12109.05392,E,3,10,0.85,-10.00,M,10.00,M,,*66
$GPRMC,084656,A,3128.00000,N,12109.05392,E,9.719,270.000,010720,0.000,E,A,V*61
$GPGGA,084657,3128.00000,N,12109.05076,E,3,10,0.85,-10.00,M,10.00,M,,*6E
$GPRMC,084657,A,3128.00000,N,12109.05076,E,9.719,270.000,010720,0.000,E,A,V*69
$GPGGA,084658,3128.00000,N,12109.04760,E,3,10,0.85,-10.00,M,10.00,M,,*60
$GPRMC,084658,A,3128.00000,N,12109.04760,E,9.719,270.000,010720,0.000,E,A,V*67
$GPGGA,084659,3128.00000,N,12109.04445,E,3,10,0.85,-10.00,M,10.00,M,,*65
$GPRMC,084659,A,3128.00000,N,12109.04445,E,9.719,270.000,010720,0.000,E,A,V*62
$GPGGA,084700,3128.00000,N,12109.04129,E,3,10,0.85,-10.00,M,10.00,M,,*67
$GPRMC,084700,A,3128.00000,N,12109.04129,E,9.719,270.000,010720,0.000,E,A,V*60
$GPGGA,084701,3128.00000,N,12109.03813,E,3,10,0.85,-10.00,M,10.00,M,,*61
$GPRMC,084701,A,3128.00000,N,12109.03813,E,9.719,270.000,010720,0.000,E,A,V*66
$GPGGA,084702,3128.00000,N,12109.03498,E,3,10,0.85,-10.00,M,10.00,M,,*6D
$GPRMC,084702,A,3128.00000,N,12109.03498,E,9.719,270.000,010720,0.000,E,A,V*6A
$GPGGA,084703,3128.00000,N,12109.03182,E,3,10,0.85,-10.00,M,10.00,M,,*62
$GPRMC,084703,A,3128.00000,N,12109.03182,E,9.719,270.000,010720,0.000,E,A,V*65
$GPGGA,084704,3128.00000,N,12109.02866,E,3,10,0.85,-10.00,M,10.00,M,,*67
$GPRMC,084704,A,3128.00000,N,12109.02866,E,9.719,270.000,010720,0.000,E,A,V*60
$GPGGA,084705,3128.00000,N,12109.02551,E,3,10,0.85,-10.00,M,10.00,M,,*6F
$GPRMC,084705,A,3128.00000,N,12109.02551,E,9.719,270.000,010720,0.000,E,A,V*68
$GPGGA,084706,3128.00000,N,12109.02235,E,3,10,0.85,-10.00,M,10.00,M,,*69
$GPRMC,084706,A,3128.00000,N,12109.02235,E,9.719,270.000,010720,0.000,E,A,V*6E
$GPGGA,084707,3128.00000,N,12109.01919,E,3,10,0.85,-10.00,M,10.00,M,,*6E
$GPRMC,084707,A,3128.00000,N,12109.01919,E,9.719,270.000,010720,0.000,E,A,V*69
$GPGGA,084708,3128.00000,N,12109.01604,E,3,10,0.85,-10.00,M,10.00,M,,*62
$GPRMC,084708,A,3128.00000,N,12109.01604,E,9.719,270.000,010720,0.000,E,A,V*65
$GPGGA,084709,3128.00000,N,12109.01288,E,3,10,0.85,-10.00,M,10.00,M,,*63
$GPRMC,084709,A,3128.00000,N,12109.01288,E,9.719,270.000,010720,0.000,E,A,V*64
$GPGGA,084710,3128.00000,N,12109.00972,E,3,10,0.85,-10.00,M,10.00,M,,*64
$GPRMC,084710,A,3128.00000,N,12109.00972,E,9.719,270.000,010720,0.000,E,A,V*63
$GPGGA,084711,3128.00000,N,12109.00657,E,3,10,0.85,-10.00,M,10.00,M,,*6D
$GPRMC,084711,A,3128.00000,N,12109.00657,E,9.719,270.000,010720,0.000,E,A,V*6A
$GPGGA,084712,3128.00000,N,12109.00341,E,3,10,0.85,-10.00,M,10.00,M,,*6C
$GPRMC,084712,A,3128.00000,N,12109.00341,E,9.719,270.000,010720,0.000,E,A,V*6B
$GPGGA,084713,3128.00000,N,12109.00025,E,3,10,0.85,-10.00,M,10.00,M,,*6C
$GPRMC,084713,A,3128.00000,N,12109.00025,E,9.719,270.000,010720,0.000,E,A,V*6B
$GPGGA,084714,3128.00000,N,12108.99710,E,3,10,0.85,-10.00,M,10.00,M,,*6B
$GPRMC,084714,A,3128.00000,N,12108.99710,E,9.719,270.000,010720,0.000,E,A,V*6C
$GPGGA,084715,3128.00000,N,12108.99394,E,3,10,0.85,-10.00,M,10.00,M,,*62
$GPRMC,084715,A,3128.00000,N,12108.99394,E,9.719,270.000,010720,0.000,E,A,V*65
$GPGGA,084716,3128.00000,N,12108.99078,E,3,10,0.85,-10.00,M,10.00,M,,*60
$GPRMC,084716,A,3128.00000,N,12108.99078,E,9.719,270.000,010720,0.000,E,A,V*67
$GPGGA,084717,3128.00000,N,12108.98763,E,3,10,0.85,-10.00,M,10.00,M,,*6D
$GPRMC,084717,A,3128.00000,N,12108.98763,E,9.719,270.000,010720,0.000,E,A,V*6A
$GPGGA,084718,3128.00000,N,12108.98447,E,3,10,0.85,-10.00,M,10.00,M,,*67
$GPRMC,084718,A,3128.00000,N,12108.98447,E,9.719,270.000,010720,0.000,E,A,V*60
$GPGGA,084719,3128.00000,N,12108.98131,E,3,10,0.85,-10.00,M,10.00,M,,*62
$GPRMC,084719,A,3128.00000,N,12108.98131,E,9.719,270.000,010720,0.000,E,A,V*65
$GPGGA,084720,3128.00000,N,12108.97816,E,3,10,0.85,-10.00,M,10.00,M,,*6B
$GPRMC,084720,A,3128.00000,N,12108.97816,E,9.719,270.000,010720,0.000,E,A,V*6C
$GPGGA,084721,3128.00000,N,12108.97500,E,3,10,0.85,-10.00,M,10.00,M,,*60
$GPRMC,084721,A,3128.00000,N,12108.97500,E,9.719,270.000,010720,0.000,E,A,V*67
$GPGGA,084722,3128.00000,N,12108.97184,E,3,10,0.85,-10.00,M,10.00,M,,*6B
$GPRMC,084722,A,3128.00000,N,12108.97184,E,9.719,270.000,010720,0.000,E,A,V*6C
$GPGGA,084723,3128.00000,N,12108.96869,E,3,10,0.85,-10.00,M,10.00,M,,*61
$GPRMC,084723,A,3128.00000,N,12108.96869,E,9.719,270.000,010720,0.000,E,A,V*66
$GPGGA,084724,3128.00000,N,12108.96553,E,3,10,0.85,-9.99,M,9.99,M,,*62
$GPRMC,084724,A,3128.00000,N,12108.96553,E,9.719,270.000,010720,0.000,E,A,V*65
$GPGGA,084725,3128.00000,N,12108.96237,E,3,10,0.85,-9.99,M,9.99,M,,*66
$GPRMC,084725,A,3128.00000,N,12108.96237,E,9.719,270.000,010720,0.000,E,A,V*61
$GPGGA,084726,3128.00000,N,12108.95922,E,3,10,0.85,-9.99,M,9.99,M,,*69
$GPRMC,084726,A,3128.00000,N,12108.95922,E,9.719,270.000,010720,0.000,E,A,V*6E
$GPGGA,084727,3128.00000,N,12108.95606,E,3,10,0.85,-9.99,M,9.99,M,,*61
$GPRMC,084727,A,3128.00000,N,12108.95606,E,9.719,270.000,010720,0.000,E,A,V*66
$GPGGA,084728,3128.00000,N,12108.95290,E,3,10,0.85,-9.99,M,9.99,M,,*65
$GPRMC,084728,A,3128.00000,N,12108.95290,E,9.719,270.000,010720,0.000,E,A,V*62
$GPGGA,084729,3128.00000,N,12108.94975,E,3,10,0.85,-9.99,M,9.99,M,,*65
$GPRMC,084729,A,3128.00000,N,12108.94975,E,9.719,270.000,010720,0.000,E,A,V*62
$GPGGA,084730,3128.00000,N,12108.94659,E,3,10,0.85,-9.99,M,9.99,M,,*6C
$GPRMC,084730,A,3128.00000,N,12108.94659,E,9.719,270.000,010720,0.000,E,A,V*6B
$GPGGA,084731,3128.00000,N,12108.94343,E,3,10,0.85,-9.99,M,9.99,M,,*63
$GPRMC,084731,A,3128.00000,N,12108.94343,E,9.719,270.000,010720,0.000,E,A,V*64
$GPGGA,084732,3128.00000,N,12108.94028,E,3,10,0.85,-9.99,M,9.99,M,,*6E
$GPRMC,084732,A,3128.00000,N,12108.94028,E,9.719,270.000,010720,0.000,E,A,V*69
$GPGGA,084733,3128.00000,N,12108.93712,E,3,10,0.85,-9.99,M,9.99,M,,*66
$GPRMC,084733,A,3128.00000,N,12108.93712,E,9.719,270.000,010720,0.000,E,A,V*61
$GPGGA,084734,3128.00000,N,12108.93396,E,3,10,0.85,-9.99,M,9.99,M,,*69
$GPRMC,084734,A,3128.00000,N,12108.93396,E,9.719,270.000,010720,0.000,E,A,V*6E
$GPGGA,084735,3128.00000,N,12108.93081,E,3,10,0.85,-9.99,M,9.99,M,,*6D
$GPRMC,084735,A,3128.00000,N,12108.93081,E,9.719,270.000,010720,0.000,E,A,V*6A
$GPGGA,084736,3128.00000,N,12108.92765,E,3,10,0.85,-9.99,M,9.99,M,,*62
$GPRMC,084736,A,3128.00000,N,12108.92765,E,9.719,270.000,010720,0.000,E,A,V*65
$GPGGA,084737,3128.00000,N,12108.92449,E,3,10,0.85,-9.99,M,9.99,M,,*6E
$GPRMC,084737,A,3128.00000,N,12108.92449,E,9.719,270.000,010720,0.000,E,A,V*69
$GPGGA,084738,3128.00000,N,12108.92134,E,3,10,0.85,-9.99,M,9.99,M,,*6E
$GPRMC,084738,A,3128.00000,N,12108.92134,E,9.719,270.000,010720,0.000,E,A,V*69
$GPGGA,084739,3128.00000,N,12108.91818,E,3,10,0.85,-9.99,M,9.99,M,,*6B
$GPRMC,084739,A,3128.00000,N,12108.91818,E,9.719,270.000,010720,0.000,E,A,V*6C
$GPGGA,084740,3128.00000,N,12108.91502,E,3,10,0.85,-9.99,M,9.99,M,,*63
$GPRMC,084740,A,3128.00000,N,12108.91502,E,9.719,270.000,010720,0.000,E,A,V*64
$GPGGA,084741,3128.00000,N,12108.91187,E,3,10,0.85,-9.99,M,9.99,M,,*6B
$GPRMC,084741,A,3128.00000,N,12108.91187,E,9.719,270.000,010720,0.000,E,A,V*6C
$GPGGA,084742,3128.00000,N,12108.90871,E,3,10,0.85,-9.99,M,9.99,M,,*69
$GPRMC,084742,A,3128.00000,N,12108.90871,E,9.719,270.000,010720,0.000,E,A,V*6E
$GPGGA,084743,3128.00000,N,12108.90555,E,3,10,0.85,-9.99,M,9.99,M,,*63
$GPRMC,084743,A,3128.00000,N,12108.90555,E,9.719,270.000,010720,0.000,E,A,V*64
$GPGGA,084744,3128.00000,N,12108.90240,E,3,10,0.85,-9.99,M,9.99,M,,*67
$GPRMC,084744,A,3128.00000,N,12108.90240,E,9.719,270.000,010720,0.000,E,A,V*60
$GPGGA,084745,3128.00000,N,12108.89924,E,3,10,0.85,-9.99,M,9.99,M,,*67
$GPRMC,084745,A,3128.00000,N,12108.89924,E,9.719,270.000,010720,0.000,E,A,V*60
$GPGGA,084746,3128.00000,N,12108.89608,E,3,10,0.85,-9.99,M,9.99,M,,*65
$GPRMC,084746,A,3128.00000,N,12108.89608,E,9.719,270.000,010720,0.000,E,A,V*62
$GPGGA,084747,3128.00000,N,12108.89293,E,3,10,0.85,-9.99,M,9.99,M,,*62
$GPRMC,084747,A,3128.00000,N,12108.89293,E,9.719,270.000,010720,0.000,E,A,V*65
$GPGGA,084748,3128.00000,N,12108.88977,E,3,10,0.85,-9.99,M,9.99,M,,*6D
$GPRMC,084748,A,3128.00000,N,12108.88977,E,9.719,270.000,010720,0.000,E,A,V*6A
$GPGGA,084749,3128.00000,N,12108.88661,E,3,10,0.85,-9.99,M,9.99,M,,*64
$GPRMC,084749,A,3128.00000,N,12108.88661,E,9.719,270.000,010720,0.000,E,A,V*63
$GPGGA,084750,3128.00000,N,12108.88346,E,3,10,0.85,-9.99,M,9.99,M,,*6C
$GPRMC,084750,A,3128.00000,N,12108.88346,E,9.719,270.000,010720,0.000,E,A,V*6B
$GPGGA,084751,3128.00000,N,12108.88030,E,3,10,0.85,-9.99,M,9.99,M,,*6F
$GPRMC,084751,A,3128.00000,N,12108.88030,E,9.719,270.000,010720,0.000,E,A,V*68
$GPGGA,084752,3128.00000,N,12108.87714,E,3,10,0.85,-9.99,M,9.99,M,,*62
$GPRMC,084752,A,3128.00000,N,12108.87714,E,9.719,270.000,010720,0.000,E,A,V*65
$GPGGA,084753,3128.00000,N,12108.87399,E,3,10,0.85,-9.99,M,9.99,M,,*62
$GPRMC,084753,A,3128.00000,N,12108.87399,E,9.719,270.000,010720,0.000,E,A,V*65
$GPGGA,084754,3128.00000,N,12108.87083,E,3,10,0.85,-9.99,M,9.99,M,,*6D
$GPRMC,084754,A,3128.00000,N,12108.87083,E,9.719,270.000,010720,0.000,E,A,V*6A
$GPGGA,084755,3128.00000,N,12108.86767,E,3,10,0.85,-9.99,M,9.99,M,,*60
$GPRMC,084755,A,3128.00000,N,12108.86767,E,9.719,270.000,010720,0.000,E,A,V*67
$GPGGA,084756,3128.00000,N,12108.86452,E,3,10,0.85,-9.99,M,9.99,M,,*66
$GPRMC,084756,A,3128.00000,N,12108.86452,E,9.719,270.000,010720,0.000,E,A,V*61
$GPGGA,084757,3128.00000,N,12108.86136,E,3,10,0.85,-9.99,M,9.99,M,,*60
$GPRMC,084757,A,3128.00000,N,12108.86136,E,9.719,270.000,010720,0.000,E,A,V*67
$GPGGA,084758,3128.00000,N,12108.85820,E,3,10,0.85,-9.99,M,9.99,M,,*62
$GPRMC,084758,A,3128.00000,N,12108.85820,E,9.719,270.000,010720,0.000,E,A,V*65
$GPGGA,084759,3128.00000,N,12108.85505,E,3,10,0.85,-9.99,M,9.99,M,,*69
$GPRMC,084759,A,3128.00000,N,12108.85505,E,9.719,270.000,010720,0.000,E,A,V*6E
$GPGGA,084800,3128.00000,N,12108.85189,E,3,10,0.85,-9.99,M,9.99,M,,*6A
$GPRMC,084800,A,3128.00000,N,12108.85189,E,9.719,270.000,010720,0.000,E,A,V*6D
$GPGGA,084801,3128.00000,N,12108.84873,E,3,10,0.85,-9.99,M,9.99,M,,*66
$GPRMC,084801,A,3128.00000,N,12108.84873,E,9.719,270.000,010720,0.000,E,A,V*61
$GPGGA,084802,3128.00000,N,12108.84558,E,3,10,0.85,-9.99,M,9.99,M,,*61
$GPRMC,084802,A,3128.00000,N,12108.84558,E,9.719,270.000,010720,0.000,E,A,V*66
$GPGGA,084803,3128.00000,N,12108.84242,E,3,10,0.85,-9.99,M,9.99,M,,*6C
$GPRMC,084803,A,3128.00000,N,12108.84242,E,9.719,270.000,010720,0.000,E,A,V*6B
$GPGGA,084804,3128.00000,N,12108.83926,E,3,10,0.85,-9.99,M,9.99,M,,*65
$GPRMC,084804,A,3128.00000,N,12108.83926,E,9.719,270.000,010720,0.000,E,A,V*62
