<??????????????>

$GNRMC,084831.00,A,3128.000007,N,12108.754029,E,9.721,270.00,010720,,,A,V*08
$GNGGA,084831.00,3128.000007,N,12108.754029,E,1,08,1.00,-10.5,M,10.7,M,,*5A
$GNGSA,A,3,04,05,09,12,15,17,26,27,,,,,2.79,1.00,2.61,1*01
$GNGSA,A,3,,,,,,,,,,,,,2.79,1.00,2.61,4*0C
$GPGSV,3,1,11,02,14,147,49,04,20,107,49,05,27,276,49,
09,55,331,50,0*61
$GPGSV,3,2,11,12,39,278,49,15,49,202,50,17,30,044,49,18,04,273,,0*62
$GPGSV,3,3,11,26,37,179,49,27,21,116,49,30,07,263,48,0*55
$BDGSV,1,1,00,0*74

$GNRMC,084832.00,A,3128.000006,N,12108.750872,E,9.718,269.99,010720,,,A,V*0A
$GNGGA,084832.00,3128.000006,N,12108.750872,E,1,08,1.00,-10.5,M,10.7,M,,*5A
$GNGSA,A,3,04,05,09,12,15,17,26,27,,,,,2.79,1.00,2.61,1*01
$GNGSA,A,3,,,,,,,,,,,,,2.79,1.00,2.61,4*0C
$GPGSV,3,1,11,02,14,147,49,04,20,107,49,05,27,276,49,
09,55,331,50,0*61
$GPGSV,3,2,11,12,39,278,49,15,49,202,50,17,30,044,49,18,04,273,,0*62
$GPGSV,3,3,11,26,37,179,49,27,21,116,49,30,07,263,48,0*55
$BDGSV,1,1,00,0*74

$GNRMC,084833.00,A,3128.000006,N,12108.747716,E,9.717,270.01,010720,,,A,V*06
$GNGGA,084833.00,3128.000006,N,12108.747716,E,1,08,1.00,-10.5,M,10.7,M,,*50
$GNGSA,A,3,04,05,09,12,15,17,26,27,,,,,2.79,1.00,2.61,1*01
$GNGSA,A,3,,,,,,,,,,,,,2.79,1.00,2.61,4*0C
$GPGSV,3,1,11,02,14,147,49,04,20,107,49,05,27,276,49,
09,55,331,50,0*61
$GPGSV,3,2,11,12,39,278,49,15,49,202,50,17,30,044,49,18,04,273,,0*62
$GPGSV,3,3,11,26,37,179,49,27,21,116,49,30,07,263,48,0*55
$BDGSV,1,1,00,0*74

$GNRMC,084834.00,A,3128.000006,N,12108.744559,E,9.719,270.02,010720,,,A,V*06
$GNGGA,084834.00,3128.000006,N,12108.744559,E,1,08,1.00,-10.5,M,10.7,M,,*5D
$GNGSA,A,3,04,05,09,12,15,17,26,27,,,,,2.79,1.00,2.61,1*01
$GNGSA,A,3,,,,,,,,,,,,,2.79,1.00,2.61,4*0C
$GPGSV,3,1,11,02,14,147,49,04,20,107,49,05,27,276,49,
09,55,331,50,0*61
$GPGSV,3,2,11,12,39,278,49,15,49,202,50,17,30,044,49,18,04,273,,0*62
$GPGSV,3,3,11,26,37,179,49,27,21,116,49,30,07,263,48,0*55
$BDGSV,1,1,00,0*74

$GNRMC,084835.00,A,3128.000006,N,12108.741402,E,9.719,270.01,010720,,,A,V*0E
$GNGGA,084835.00,3128.000006,N,12108.741402,E,1,08,1.00,-10.5,M,10.7,M,,*56
$GNGSA,A,3,04,05,09,12,15,17,26,27,,,,,2.79,1.00,2.61,1*01
$GNGSA,A,3,,,,,,,,,,,,,2.79,1.00,2.61,4*0C
$GPGSV,3,1,11,02,14,147,49,04,20,107,49,05,27,276,49,
09,55,331,50,0*61
$GPGSV,3,2,11,12,39,278,49,15,49,202,50,17,30,044,49,18,04,273,,0*62
$GPGSV,3,3,11,26,37,179,49,27,21,116,49,30,07,263,48,0*55
$BDGSV,1,1,00,0*74

$GNRMC,084836.00,A,3128.000007,N,12108.738243,E,9.719,270.02,010720,,,A,V*02
$GNGGA,084836.00,3128.000007,N,12108.738243,E,1,08,1.00,-10.5,M,10.7,M,,*59
$GNGSA,A,3,04,05,09,12,15,17,26,27,,,,,2.79,1.00,2.61,1*01
$GNGSA,A,3,,,,,,,,,,,,,2.79,1.00,2.61,4*0C
$GPGSV,3,1,11,02,14,147,49,04,20,107,49,05,27,276,49,
09,55,331,50,0*61
$GPGSV,3,2,11,12,39,278,49,15,49,202,50,17,30,044,49,18,04,273,,0*62
$GPGSV,3,3,11,26,37,179,49,27,21,116,49,30,07,263,48,0*55
$BDGSV,1,1,00,0*74

$GNRMC,084837.00,A,3128.000006,N,12108.735086,E,9.723,270.00,010720,,,A,V*0F
$GNGGA,084837.00,3128.000006,N,12108.735086,E,1,08,1.00,-10.5,M,10.7,M,,*5F
$GNGSA,A,3,04,05,09,12,15,17,26,27,,,,,2.79,1.00,2.61,1*01
$GNGSA,A,3,,,,,,,,,,,,,2.79,1.00,2.61,4*0C
$GPGSV,3,1,11,02,14,147,49,04,20,107,49,05,27,276,49,
09,55,331,50,0*61
$GPGSV,3,2,11,12,39,278,49,15,49,202,50,17,30,044,49,18,04,273,,0*62
$GPGSV,3,3,11,26,37,179,50,27,21,116,49,30,07,263,48,0*5D
$BDGSV,1,1,00,0*74

$GNRMC,084838.00,A,3128.000006,N,12108.731930,E,9.720,270.00,010720,,,A,V*03
$GNGGA,084838.00,3128.000006,N,12108.731930,E,1,08,1.00,-10.5,M,10.7,M,,*50
$GNGSA,A,3,04,05,09,12,15,17,26,27,,,,,2.79,1.00,2.61,1*01
$GNGSA,A,3,,,,,,,,,,,,,2.79,1.00,2.61,4*0C
$GPGSV,3,1,12,02,14,147,49,03,,,30,04,20,107,49,05,27
,276,49,0*5F
$GPGSV,3,2,12,09,55,331,50,12,39,278,49,15,49,202,50,17,30,044,49,0*67
$GPGSV,3,3,12,18,04,273,,26,37,179,50,27,21,116,49,30,07,263,48,0*65
$BDGSV,1,1,00,0*74

$GNRMC,084839.00,A,3128.000006,N,12108.728772,E,9.729,270.02,010720,,,A,V*09
$GNGGA,084839.00,3128.000006,N,12108.728772,E,1,08,1.00,-10.5,M,10.7,M,,*51
$GNGSA,A,3,04,05,09,12,15,17,26,27,,,,,2.79,1.00,2.61,1*01
$GNGSA,A,3,,,,,,,,,,,,,2.79,1.00,2.61,4*0C
$GPGSV,3,1,11,02,14,147,49,04,20,107,49,05,27,276,49,
09,55,331,50,0*61
$GPGSV,3,2,11,12,39,278,49,15,49,202,50,17,30,044,49,18,04,273,,0*62
$GPGSV,3,3,11,26,37,179,49,27,21,116,49,30,07,263,48,0*55
$BDGSV,1,1,00,0*74

$GNRMC,084840.00,A,3128.000007,N,12108.725615,E,9.728,270.02,010720,,,A,V*0A
$GNGGA,084840.00,3128.000007,N,12108.725615,E,1,08,1.00,-10.6,M,10.7,M,,*50
$GNGSA,A,3,04,05,09,12,15,17,26,27,,,,,2.79,1.00,2.61,1*01
$GNGSA,A,3,,,,,,,,,,,,,2.79,1.00,2.61,4*0C
$GPGSV,3,1,11,02,14,147,49,04,20,107,49,05,27,276,49,
09,55,331,50,0*61
$GPGSV,3,2,11,12,39,278,49,15,49,202,50,17,30,044,49,18,04,273,,0*62
$GPGSV,3,3,11,26,37,179,49,27,21,116,49,30,07,263,48,0*55
$BDGSV,1,1,00,0*74

<????sim??????(SIM??:1)>
<????GSM????????(GSM:0)>
<????GPRS????????(GPRS:0)>
<????????????(SIGNAL:0)>
<????????????????(BER:0)>

<??????????????>

$GNRMC,084841.00,A,3128.000007,N,12108.722458,E,9.721,270.01,010720,,,A,V*0D
$GNGGA,084841.00,3128.000007,N,12108.722458,E,1,08,1.00,-10.5,M,10.7,M,,*5E
$GNGSA,A,3,04,05,09,12,15,17,26,27,,,,,2.79,1.00,2.61,1*01
$GNGSA,A,3,,,,,,,,,,,,,2.79,1.00,2.61,4*0C
$GPGSV,3,1,11,02,14,147,49,04,20,107,49,05,27,276,49,
09,55,331,50,0*61
$GPGSV,3,2,11,12,39,278,49,15,49,202,50,17,30,044,49,18,04,273,,0*62
$GPGSV,3,3,11,26,37,179,49,27,21,116,49,30,07,263,48,0*55
$BDGSV,1,1,00,0*74

$GNRMC,084842.00,A,3128.000009,N,12108.719302,E,9.716,270.02,010720,,,A,V*07
$GNGGA,084842.00,3128.000009,N,12108.719302,E,1,08,1.00,-10.6,M,10.7,M,,*50
$GNGSA,A,3,04,05,09,12,15,17,26,27,,,,,2.80,1.00,2.61,1*07
$GNGSA,A,3,,,,,,,,,,,,,2.80,1.00,2.61,4*0A
$GPGSV,3,1,11,02,14,147,49,04,20,107,49,05,27,276,49,
09,55,331,50,0*61
$GPGSV,3,2,11,12,39,278,49,15,49,202,50,17,30,044,49,18,04,273,,0*62
$GPGSV,3,3,11,26,37,179,49,27,21,116,49,30,07,263,48,0*55
$BDGSV,1,1,00,0*74

$GNRMC,084843.00,A,3128.000010,N,12108.716143,E,9.716,269.99,010720,,,A,V*0C
$GNGGA,084843.00,3128.000010,N,12108.716143,E,1,08,1.00,-10.6,M,10.7,M,,*51
$GNGSA,A,3,04,05,09,12,15,17,26,27,,,,,2.80,1.00,2.61,1*07
$GNGSA,A,3,,,,,,,,,,,,,2.80,1.00,2.61,4*0A
$GPGSV,3,1,11,02,14,147,49,04,20,107,49,05,27,276,49,
09,55,331,50,0*61
$GPGSV,3,2,11,12,39,278,49,15,49,202,50,17,30,044,49,18,04,273,,0*62
$GPGSV,3,3,11,26,37,179,49,27,21,116,49,30,07,263,48,0*55
$BDGSV,1,1,00,0*74

$GNRMC,084844.00,A,3128.000011,N,12108.712986,E,9.721,270.01,010720,,,A,V*02
$GNGGA,084844.00,3128.000011,N,12108.712986,E,1,08,1.00,-10.6,M,10.7,M,,*52
$GNGSA,A,3,04,05,09,12,15,17,26,27,,,,,2.80,1.00,2.61,1*07
$GNGSA,A,3,,,,,,,,,,,,,2.80,1.00,2.61,4*0A
$GPGSV,3,1,11,02,14,147,49,04,20,107,49,05,27,276,49,
09,55,331,50,0*61
$GPGSV,3,2,11,12,39,278,49,15,49,202,50,17,30,044,49,18,04,273,,0*62
$GPGSV,3,3,11,26,37,179,49,27,21,116,49,30,07,263,48,0*55
$BDGSV,1,1,00,0*74

$GNRMC,084845.00,A,3128.000011,N,12108.709829,E,9.722,270.01,010720,,,A,V*0E
$GNGGA,084845.00,3128.000011,N,12108.709829,E,1,08,1.00,-10.6,M,10.7,M,,*5D
$GNGSA,A,3,04,05,09,12,15,17,26,27,,,,,2.80,1.00,2.61,1*07
$GNGSA,A,3,,,,,,,,,,,,,2.80,1.00,2.61,4*0A
$GPGSV,3,1,11,02,14,147,49,04,20,107,49,05,27,276,49,
09,55,331,50,0*61
$GPGSV,3,2,11,12,39,278,49,15,49,202,50,17,30,044,49,18,04,273,,0*62
$GPGSV,3,3,11,26,37,179,49,27,21,116,49,30,07,263,48,0*55
$BDGSV,1,1,00,0*74

$GNRMC,084846.00,A,3128.000012,N,12108.706672,E,9.720,270.01,010720,,,A,V*03
$GNGGA,084846.00,3128.000012,N,12108.706672,E,1,08,1.00,-10.6,M,10.7,M,,*52
$GNGSA,A,3,04,05,09,12,15,17,26,27,,,,,2.80,1.00,2.61,1*07
$GNGSA,A,3,,,,,,,,,,,,,2.80,1.00,2.61,4*0A
$GPGSV,3,1,11,02,14,147,49,04,20,107,49,05,27,276,49,
09,55,331,50,0*61
$GPGSV,3,2,11,12,39,278,49,15,49,202,50,17,30,044,49,18,04,273,,0*62
$GPGSV,3,3,11,26,37,179,49,27,21,116,49,30,07,263,48,0*55
$BDGSV,1,1,00,0*74

$GNRMC,084847.00,A,3128.000012,N,12108.703514,E,9.720,269.98,010720,,,A,V*0C
$GNGGA,084847.00,3128.000012,N,12108.703514,E,1,08,1.00,-10.6,M,10.7,M,,*55
$GNGSA,A,3,04,05,09,12,15,17,26,27,,,,,2.80,1.00,2.61,1*07
$GNGSA,A,3,,,,,,,,,,,,,2.80,1.00,2.61,4*0A
$GPGSV,3,1,11,02,14,147,49,04,20,107,49,05,27,276,49,
09,55,331,50,0*61
$GPGSV,3,2,11,12,39,278,49,15,49,202,50,17,30,044,49,18,04,273,,0*62
$GPGSV,3,3,11,26,37,179,49,27,21,116,49,30,07,263,48,0*55
$BDGSV,1,1,00,0*74

$GNRMC,084848.00,A,3128.000014,N,12108.700357,E,9.718,270.03,010720,,,A,V*06
$GNGGA,084848.00,3128.000014,N,12108.700357,E,1,08,1.00,-10.6,M,10.7,M,,*5E
$GNGSA,A,3,04,05,09,12,15,17,26,27,,,,,2.80,1.00,2.61,1*07
$GNGSA,A,3,,,,,,,,,,,,,2.80,1.00,2.61,4*0A
$GPGSV,3,1,11,02,14,147,49,04,20,107,49,05,27,276,49,
09,55,331,50,0*61
$GPGSV,3,2,11,12,39,278,49,15,49,202,50,17,30,044,49,18,04,273,,0*62
$GPGSV,3,3,11,26,37,179,49,27,21,116,49,30,07,263,48,0*55
$BDGSV,1,1,00,0*74

$GNRMC,084849.00,A,3128.000014,N,12108.697199,E,9.731,270.01,010720,,,A,V*01
$GNGGA,084849.00,3128.000014,N,12108.697199,E,1,08,1.00,-10.6,M,10.7,M,,*50
$GNGSA,A,3,04,05,09,12,15,17,26,27,,,,,2.80,1.00,2.61,1*07
$GNGSA,A,3,,,,,,,,,,,,,2.80,1.00,2.61,4*0A
$GPGSV,3,1,11,02,14,147,49,04,20,107,49,05,27,276,49,
09,55,331,50,0*61
$GPGSV,3,2,11,12,39,278,49,15,49,202,50,17,30,044,49,18,04,273,,0*62
$GPGSV,3,3,11,26,37,179,49,27,21,116,49,30,07,263,48,0*55
$BDGSV,1,1,00,0*74

$GNRMC,084850.00,A,3128.000015,N,12108.694042,E,9.728,270.04,010720,,,A,V*01
$GNGGA,084850.00,3128.000015,N,12108.694042,E,1,08,1.00,-10.6,M,10.7,M,,*5D
$GNGSA,A,3,04,05,09,12,15,17,26,27,,,,,2.80,1.00,2.61,1*07
$GNGSA,A,3,,,,,,,,,,,,,2.80,1.00,2.61,4*0A
$GPGSV,3,1,12,01,,,30,02,14,147,49,04,20,107,49,05,27
,276,49,0*5D
$GPGSV,3,2,12,09,55,331,50,12,39,278,49,15,49,202,50,17,30,044,49,0*67
$GPGSV,3,3,12,18,04,273,,26,37,179,49,27,21,116,49,30,07,263,48,0*6D
$BDGSV,1,1,00,0*74

<??????????????>

$GNRMC,084851.00,A,3128.000015,N,12108.690885,E,9.723,270.00,010720,,,A,V*08
$GNGGA,084851.00,3128.000015,N,12108.690885,E,1,08,1.00,-10.6,M,10.7,M,,*5B
$GNGSA,A,3,04,05,09,12,15,17,26,27,,,,,2.80,1.00,2.61,1*07
$GNGSA,A,3,,,,,,,,,,,,,2.80,1.00,2.61,4*0A
$GPGSV,3,1,11,02,14,147,49,04,20,107,49,05,27,276,49,
09,55,331,50,0*61
$GPGSV,3,2,11,12,39,278,49,15,49,202,50,17,30,044,49,18,04,273,,0*62
$GPGSV,3,3,11,26,37,179,49,27,21,116,49,30,07,263,48,0*55
$BDGSV,1,1,00,0*74

$GNRMC,084852.00,A,3128.000015,N,12108.687728,E,9.719,270.01,010720,,,A,V*0D
$GNGGA,084852.00,3128.000015,N,12108.687728,E,1,08,1.00,-10.6,M,10.7,M,,*56
$GNGSA,A,3,04,05,09,12,15,17,26,27,,,,,2.80,1.00,2.61,1*07
$GNGSA,A,3,,,,,,,,,,,,,2.80,1.00,2.61,4*0A
$GPGSV,3,1,11,02,14,147,49,04,20,107,49,05,27,276,49,
09,55,331,50,0*61
$GPGSV,3,2,11,12,39,278,49,15,49,202,50,17,30,044,49,18,04,273,,0*62
$GPGSV,3,3,11,26,37,179,49,27,21,116,49,30,07,263,48,0*55
$BDGSV,1,1,00,0*74

$GNRMC,084853.00,A,3128.000016,N,12108.684572,E,9.715,270.01,010720,,,A,V*0D
$GNGGA,084853.00,3128.000016,N,12108.684572,E,1,08,1.00,-10.6,M,10.7,M,,*5A
$GNGSA,A,3,04,05,09,12,15,17,26,27,,,,,2.80,1.00,2.61,1*07
$GNGSA,A,3,,,,,,,,,,,,,2.80,1.00,2.61,4*0A
$GPGSV,3,1,11,02,14,147,49,04,20,107,49,05,27,276,49,
09,55,331,50,0*61
$GPGSV,3,2,11,12,39,278,49,15,49,202,50,17,30,044,49,18,04,273,,0*62
$GPGSV,3,3,11,26,37,179,49,27,21,116,49,30,07,263,48,0*55
$BDGSV,1,1,00,0*74

$GNRMC,084854.00,A,3128.000016,N,12108.681415,E,9.720,270.01,010720,,,A,V*09
$GNGGA,084854.00,3128.000016,N,12108.681415,E,1,08,1.00,-10.6,M,10.7,M,,*58
$GNGSA,A,3,04,05,09,12,15,17,26,27,,,,,2.80,1.00,2.61,1*07
$GNGSA,A,3,,,,,,,,,,,,,2.80,1.00,2.61,4*0A
$GPGSV,3,1,11,02,14,147,49,04,20,107,49,05,27,276,49,
09,55,331,50,0*61
$GPGSV,3,2,11,12,39,278,49,15,49,202,50,17,30,044,49,18,04,273,,0*62
$GPGSV,3,3,11,26,37,179,49,27,21,116,49,30,07,263,48,0*55
$BDGSV,1,1,00,0*74

$GNRMC,084855.00,A,3128.000015,N,12108.678259,E,9.720,270.00,010720,,,A,V*02
$GNGGA,084855.00,3128.000015,N,12108.678259,E,1,08,1.00,-10.6,M,10.7,M,,*52
$GNGSA,A,3,04,05,09,12,15,17,26,27,,,,,2.80,1.00,2.62,1*04
$GNGSA,A,3,,,,,,,,,,,,,2.80,1.00,2.62,4*09
$GPGSV,3,1,11,02,14,147,49,04,20,107,49,05,27,276,49,
09,55,331,50,0*61
$GPGSV,3,2,11,12,39,278,49,15,49,202,50,17,30,044,49,18,04,273,,0*62
$GPGSV,3,3,11,26,37,179,49,27,21,116,49,30,07,263,48,0*55
$BDGSV,1,1,00,0*74

$GNRMC,084856.00,A,3128.000015,N,12108.675101,E,9.722,270.00,010720,,,A,V*00
$GNGGA,084856.00,3128.000015,N,12108.675101,E,1,08,1.00,-10.6,M,10.7,M,,*52
$GNGSA,A,3,04,05,09,12,15,17,26,27,,,,,2.80,1.00,2.62,1*04
$GNGSA,A,3,,,,,,,,,,,,,2.80,1.00,2.62,4*09
$GPGSV,3,1,11,02,14,147,49,04,20,107,49,05,27,277,49,
09,55,331,50,0*60
$GPGSV,3,2,11,12,39,278,49,15,49,202,50,17,30,044,49,18,04,273,,0*62
$GPGSV,3,3,11,26,37,179,49,27,21,116,49,30,07,263,48,0*55
$BDGSV,1,1,00,0*74

$GNRMC,084857.00,A,3128.000017,N,12108.671944,E,9.722,270.02,010720,,,A,V*0C
$GNGGA,084857.00,3128.000017,N,12108.671944,E,1,08,1.00,-10.6,M,10.7,M,,*5C
$GNGSA,A,3,04,05,09,12,15,17,26,27,,,,,2.80,1.00,2.62,1*04
$GNGSA,A,3,,,,,,,,,,,,,2.80,1.00,2.62,4*09
$GPGSV,3,1,11,02,14,147,49,04,20,107,49,05,27,277,49,
09,55,331,50,0*60
$GPGSV,3,2,11,12,39,278,49,15,49,202,50,17,30,044,49,18,04,273,,0*62
$GPGSV,3,3,11,26,37,179,49,27,21,116,49,30,07,263,48,0*55
$BDGSV,1,1,00,0*74

$GNRMC,084858.00,A,3128.000018,N,12108.668788,E,9.720,270.02,010720,,,A,V*08
$GNGGA,084858.00,3128.000018,N,12108.668788,E,1,08,1.00,-10.6,M,10.7,M,,*5A
$GNGSA,A,3,04,05,09,12,15,17,26,27,,,,,2.80,1.00,2.62,1*04
$GNGSA,A,3,,,,,,,,,,,,,2.80,1.00,2.62,4*09
$GPGSV,3,1,11,02,14,147,49,04,20,107,49,05,27,277,49,
09,55,331,50,0*60
$GPGSV,3,2,11,12,39,279,49,15,49,202,50,17,30,044,49,18,04,273,,0*63
$GPGSV,3,3,11,26,37,179,49,27,21,116,49,30,07,263,48,0*55
$BDGSV,1,1,00,0*74


GPS HPregnss> E1 15 00 00 00 00 07 53 8F 3B D6 00 00 00 1C 34 C6 10 38 00 00 00 00 


$GNRMC,084859.00,A,3128.000016,N,12108.665630,E,9.724,269.99,010720,,,A,V*06
$GNGGA,084859.00,3128.000016,N,12108.665630,E,1,08,1.00,-10.6,M,10.7,M,,*5A
$GNGSA,A,3,04,05,09,12,15,17,26,27,,,,,2.80,1.00,2.62,1*04
$GNGSA,A,3,,,,,,,,,,,,,2.80,1.00,2.62,4*09
$GPGSV,3,1,11,02,14,147,49,04,20,107,49,05,27,277,49,
09,55,331,50,0*60
$GPGSV,3,2,11,12,39,279,49,15,49,202,50,17,30,044,49,18,04,273,,0*63
$GPGSV,3,3,11,26,37,179,49,27,21,116,49,30,07,263,48,0*55
$BDGSV,1,1,00,0*74

$GNRMC,084900.00,A,3128.000017,N,12108.662473,E,9.724,270.04,010720,,,A,V*04
$GNGGA,084900.00,3128.000017,N,12108.662473,E,1,08,1.00,-10.6,M,10.7,M,,*54
$GNGSA,A,3,04,05,09,12,15,17,26,27,,,,,2.80,1.00,2.62,1*04
$GNGSA,A,3,,,,,,,,,,,,,2.80,1.00,2.62,4*09
$GPGSV,3,1,11,02,14,147,49,04,20,107,49,05,27,277,49,
09,55,331,50,0*60
$GPGSV,3,2,11,12,39,279,49,15,49,202,50,17,29,044,49,18,04,273,,0*6B
$GPGSV,3,3,11,26,37,179,49,27,21,116,49,30,07,263,48,0*55
$BDGSV,1,1,00,0*74

<????sim??????(SIM??:1)>
<????GSM????????(GSM:4)>
<????GPRS????????(GPRS:0)>
<????????????(SIGNAL:0)>
<????????????????(BER:0)>

<??????????????>

$GNRMC,084901.00,A,3128.000017,N,12108.659315,E,9.722,270.00,010720,,,A,V*08
$GNGGA,084901.00,3128.000017,N,12108.659315,E,1,08,1.00,-10.6,M,10.7,M,,*5A
$GNGSA,A,3,04,05,09,12,15,17,26,27,,,,,2.80,1.00,2.62,1*04
$GNGSA,A,3,,,,,,,,,,,,,2.80,1.00,2.62,4*09
$GPGSV,3,1,11,02,14,147,49,04,20,107,49,05,27,277,49,
09,55,331,50,0*60
$GPGSV,3,2,11,12,39,279,49,15,49,202,50,17,29,044,49,18,04,273,,0*6B
$GPGSV,3,3,11,26,37,179,49,27,21,116,49,30,07,263,48,0*55
$BDGSV,1,1,00,0*74

$GNRMC,084902.00,A,3128.000018,N,12108.656159,E,9.715,270.02,010720,,,A,V*07
$GNGGA,084902.00,3128.000018,N,12108.656159,E,1,08,1.00,-10.6,M,10.7,M,,*53
$GNGSA,A,3,04,05,09,12,15,17,26,27,,,,,2.80,1.00,2.62,1*04
$GNGSA,A,3,,,,,,,,,,,,,2.80,1.00,2.62,4*09
$GPGSV,3,1,11,02,14,147,49,04,20,107,49,05,27,277,49,
09,55,331,50,0*60
$GPGSV,3,2,11,12,39,279,49,15,49,202,50,17,29,044,49,18,04,273,,0*6B
$GPGSV,3,3,11,26,37,179,49,27,21,116,49,30,07,263,48,0*55
$BDGSV,1,1,00,0*74

$GNRMC,084903.00,A,3128.000017,N,12108.653002,E,9.718,270.00,010720,,,A,V*0C
$GNGGA,084903.00,3128.000017,N,12108.653002,E,1,08,1.00,-10.6,M,10.7,M,,*57
$GNGSA,A,3,04,05,09,12,15,17,26,27,,,,,2.80,1.00,2.62,1*04
$GNGSA,A,3,,,,,,,,,,,,,2.80,1.00,2.62,4*09
$GPGSV,3,1,11,02,14,147,49,04,20,107,49,05,27,277,49,
09,55,331,50,0*60
$GPGSV,3,2,11,12,39,279,49,15,49,202,50,17,29,044,49,18,04,273,,0*6B
$GPGSV,3,3,11,26,37,179,49,27,21,116,49,30,07,263,48,0*55
$BDGSV,1,1,00,0*74

$GNRMC,084904.00,A,3128.000017,N,12108.649844,E,9.722,270.01,010720,,,A,V*02
$GNGGA,084904.00,3128.000017,N,12108.649844,E,1,08,1.00,-10.6,M,10.7,M,,*51
$GNGSA,A,3,04,05,09,12,15,17,26,27,,,,,2.80,1.00,2.62,1*04
$GNGSA,A,3,,,,,,,,,,,,,2.80,1.00,2.62,4*09
$GPGSV,3,1,11,02,14,147,49,04,20,107,49,05,27,277,49,
09,55,331,50,0*60
$GPGSV,3,2,11,12,39,279,49,15,49,202,50,17,29,044,49,18,04,273,,0*6B
$GPGSV,3,3,11,26,37,179,49,27,21,116,49,30,07,263,48,0*55
$BDGSV,1,1,00,0*74

$GNRMC,084905.00,A,3128.000018,N,12108.646687,E,9.720,270.01,010720,,,A,V*00
$GNGGA,084905.00,3128.000018,N,12108.646687,E,1,08,1.00,-10.6,M,10.7,M,,*51
$GNGSA,A,3,04,05,09,12,15,17,26,27,,,,,2.80,1.00,2.62,1*04
$GNGSA,A,3,,,,,,,,,,,,,2.80,1.00,2.62,4*09
$GPGSV,3,1,11,02,14,147,49,04,20,107,49,05,27,277,49,
09,55,331,50,0*60
$GPGSV,3,2,11,12,39,279,49,15,49,202,50,17,29,044,49,18,04,273,,0*6B
$GPGSV,3,3,11,26,37,179,49,27,21,116,49,30,07,263,48,0*55
$BDGSV,1,1,00,0*74

$GNRMC,084906.00,A,3128.000018,N,12108.643530,E,9.721,270.01,010720,,,A,V*08
$GNGGA,084906.00,3128.000018,N,12108.643530,E,1,08,1.00,-10.6,M,10.7,M,,*58
$GNGSA,A,3,04,05,09,12,15,17,26,27,,,,,2.80,1.00,2.62,1*04
$GNGSA,A,3,,,,,,,,,,,,,2.80,1.00,2.62,4*09
$GPGSV,3,1,11,02,14,147,49,04,20,107,49,05,27,277,49,
09,55,331,50,0*60
$GPGSV,3,2,11,12,39,279,49,15,49,202,50,17,29,044,49,18,04,273,,0*6B
$GPGSV,3,3,11,26,37,179,49,27,21,116,49,30,07,263,48,0*55
$BDGSV,1,1,00,0*74

$GNRMC,084907.00,A,3128.000019,N,12108.640373,E,9.721,270.02,010720,,,A,V*09
$GNGGA,084907.00,3128.000019,N,12108.640373,E,1,08,1.00,-10.6,M,10.7,M,,*5A
$GNGSA,A,3,04,05,09,12,15,17,26,27,,,,,2.80,1.00,2.62,1*04
$GNGSA,A,3,,,,,,,,,,,,,2.80,1.00,2.62,4*09
$GPGSV,3,1,11,02,14,147,49,04,20,107,49,05,27,277,49,
09,55,331,50,0*60
$GPGSV,3,2,11,12,39,279,49,15,49,202,50,17,29,044,49,18,04,273,,0*6B
$GPGSV,3,3,11,26,37,179,49,27,21,116,49,30,07,263,48,0*55
$BDGSV,1,1,00,0*74

$GNRMC,084908.00,A,3128.000020,N,12108.637215,E,9.719,270.01,010720,,,A,V*05
$GNGGA,084908.00,3128.000020,N,12108.637215,E,1,08,1.00,-10.6,M,10.7,M,,*5E
$GNGSA,A,3,04,05,09,12,15,17,26,27,,,,,2.80,1.00,2.62,1*04
$GNGSA,A,3,,,,,,,,,,,,,2.80,1.00,2.62,4*09
$GPGSV,3,1,11,02,14,147,49,04,20,107,49,05,27,277,49,
09,55,331,50,0*60
$GPGSV,3,2,11,12,39,279,49,15,49,202,50,17,29,044,49,18,04,273,,0*6B
$GPGSV,3,3,11,26,37,179,49,27,21,117,49,30,07,263,48,0*54
$BDGSV,1,1,00,0*74

$GNRMC,084909.00,A,3128.000019,N,12108.634058,E,9.724,269.98,010720,,,A,V*00
$GNGGA,084909.00,3128.000019,N,12108.634058,E,1,08,1.00,-10.6,M,10.7,M,,*5D
$GNGSA,A,3,04,05,09,12,15,17,26,27,,,,,2.80,1.00,2.62,1*04
$GNGSA,A,3,,,,,,,,,,,,,2.80,1.00,2.62,4*09
$GPGSV,3,1,11,02,14,147,49,04,20,107,49,05,27,277,49,
09,55,331,50,0*60
$GPGSV,3,2,11,12,39,279,49,15,49,202,50,17,29,044,49,18,04,273,,0*6B
$GPGSV,3,3,11,26,37,179,50,27,21,117,49,30,07,263,48,0*5C
$BDGSV,1,1,00,0*74

$GNRMC,084910.00,A,3128.000021,N,12108.630901,E,9.726,270.03,010720,,,A,V*0A
$GNGGA,084910.00,3128.000021,N,12108.630901,E,1,08,1.00,-10.6,M,10.7,M,,*5F
$GNGSA,A,3,04,05,09,12,15,17,26,27,,,,,2.81,1.00,2.62,1*05
$GNGSA,A,3,,,,,,,,,,,,,2.81,1.00,2.62,4*08
$GPGSV,3,1,11,02,14,147,49,04,20,107,49,05,27,277,49,
09,55,331,50,0*60
$GPGSV,3,2,11,12,39,279,49,15,49,202,50,17,29,044,49,18,04,273,,0*6B
$GPGSV,3,3,11,26,37,179,49,27,21,117,49,30,07,263,48,0*54
$BDGSV,1,1,00,0*74

<??????????????>

$GNRMC,084911.00,A,3128.000022,N,12108.627744,E,9.722,270.02,010720,,,A,V*04
$GNGGA,084911.00,3128.000022,N,12108.627744,E,1,08,1.00,-10.6,M,10.7,M,,*54
$GNGSA,A,3,04,05,09,12,15,17,26,27,,,,,2.81,1.00,2.62,1*05
$GNGSA,A,3,,,,,,,,,,,,,2.81,1.00,2.62,4*08
$GPGSV,3,1,11,02,14,147,49,04,20,107,49,05,27,277,49,
09,55,331,50,0*60
$GPGSV,3,2,11,12,39,279,49,15,49,202,50,17,29,044,49,18,04,273,,0*6B
$GPGSV,3,3,11,26,37,179,49,27,21,117,49,30,07,263,48,0*54
$BDGSV,1,1,00,0*74

$GNRMC,084912.00,A,3128.000023,N,12108.624588,E,9.718,270.01,010720,,,A,V*0D
$GNGGA,084912.00,3128.000023,N,12108.624588,E,1,08,1.00,-10.6,M,10.7,M,,*57
$GNGSA,A,3,04,05,09,12,15,17,26,27,,,,,2.81,1.00,2.62,1*05
$GNGSA,A,3,,,,,,,,,,,,,2.81,1.00,2.62,4*08
$GPGSV,3,1,11,02,14,147,49,04,20,107,49,05,27,277,49,
09,55,331,50,0*60
$GPGSV,3,2,11,12,39,279,49,15,49,202,50,17,29,044,49,18,04,273,,0*6B
$GPGSV,3,3,11,26,37,179,49,27,21,117,49,30,07,263,48,0*54
$BDGSV,1,1,00,0*74

$GNRMC,084913.00,A,3128.000022,N,12108.621431,E,9.717,270.00,010720,,,A,V*05
$GNGGA,084913.00,3128.000022,N,12108.621431,E,1,08,1.00,-10.6,M,10.7,M,,*51
$GNGSA,A,3,04,05,09,12,15,17,26,27,,,,,2.81,1.00,2.62,1*05
$GNGSA,A,3,,,,,,,,,,,,,2.81,1.00,2.62,4*08
$GPGSV,3,1,11,02,14,147,49,04,20,107,49,05,27,277,49,
09,55,331,50,0*60
$GPGSV,3,2,11,12,39,279,49,15,49,202,50,17,29,044,49,18,04,273,,0*6B
$GPGSV,3,3,11,26,37,179,49,27,21,117,49,30,07,263,48,0*54
$BDGSV,1,1,00,0*74

$GNRMC,084914.00,A,3128.000022,N,12108.618274,E,9.718,270.00,010720,,,A,V*00
$GNGGA,084914.00,3128.000022,N,12108.618274,E,1,08,1.00,-10.6,M,10.7,M,,*5B
$GNGSA,A,3,04,05,09,12,15,17,26,27,,,,,2.81,1.00,2.62,1*05
$GNGSA,A,3,,,,,,,,,,,,,2.81,1.00,2.62,4*08
$GPGSV,3,1,11,02,14,147,49,04,20,107,49,05,27,277,49,
09,55,331,50,0*60
$GPGSV,3,2,11,12,39,279,49,15,49,202,50,17,29,044,49,18,04,273,,0*6B
$GPGSV,3,3,11,26,37,179,49,27,21,117,49,30,07,263,48,0*54
$BDGSV,1,1,00,0*74

$GNRMC,084915.00,A,3128.000021,N,12108.615117,E,9.718,269.99,010720,,,A,V*01
$GNGGA,084915.00,3128.000021,N,12108.615117,E,1,08,1.00,-10.7,M,10.7,M,,*53
$GNGSA,A,3,04,05,09,12,15,17,26,27,,,,,2.81,1.00,2.62,1*05
$GNGSA,A,3,,,,,,,,,,,,,2.81,1.00,2.62,4*08
$GPGSV,3,1,11,02,14,147,49,04,20,107,49,05,27,277,49,
09,55,331,50,0*60
$GPGSV,3,2,11,12,39,279,49,15,49,202,50,17,29,044,49,18,04,273,,0*6B
$GPGSV,3,3,11,26,37,179,49,27,21,117,49,30,07,263,48,0*54
$BDGSV,1,1,00,0*74

$GNRMC,084916.00,A,3128.000021,N,12108.611961,E,9.722,270.03,010720,,,A,V*0D
$GNGGA,084916.00,3128.000021,N,12108.611961,E,1,08,1.00,-10.6,M,10.7,M,,*5C
$GNGSA,A,3,04,05,09,12,15,17,26,27,,,,,2.81,1.00,2.62,1*05
$GNGSA,A,3,,,,,,,,,,,,,2.81,1.00,2.62,4*08
$GPGSV,3,1,11,02,14,147,49,04,20,107,49,05,27,277,49,
09,55,331,50,0*60
$GPGSV,3,2,11,12,39,279,49,15,49,202,50,17,29,044,49,18,04,273,,0*6B
$GPGSV,3,3,11,26,37,179,49,27,21,117,49,30,07,263,48,0*54
$BDGSV,1,1,00,0*74

$GNRMC,084917.00,A,3128.000021,N,12108.608804,E,9.721,270.01,010720,,,A,V*07
$GNGGA,084917.00,3128.000021,N,12108.608804,E,1,08,1.00,-10.6,M,10.7,M,,*57
$GNGSA,A,3,04,05,09,12,15,17,26,27,,,,,2.81,1.00,2.62,1*05
$GNGSA,A,3,,,,,,,,,,,,,2.81,1.00,2.62,4*08
$GPGSV,3,1,11,02,14,147,49,04,20,107,49,05,27,277,49,
09,56,331,50,0*63
$GPGSV,3,2,11,12,39,279,49,15,49,202,50,17,29,044,49,18,04,273,,0*6B
$GPGSV,3,3,11,26,37,179,49,27,21,117,49,30,07,263,48,0*54
$BDGSV,1,1,00,0*74

$GNRMC,084918.00,A,3128.000023,N,12108.605647,E,9.720,270.03,010720,,,A,V*0D
$GNGGA,084918.00,3128.000023,N,12108.605647,E,1,08,1.00,-10.6,M,10.7,M,,*5E
$GNGSA,A,3,04,05,09,12,15,17,26,27,,,,,2.81,1.00,2.62,1*05
$GNGSA,A,3,,,,,,,,,,,,,2.81,1.00,2.62,4*08
$GPGSV,3,1,11,02,14,147,49,04,20,107,49,05,27,277,49,
09,56,331,50,0*63
$GPGSV,3,2,11,12,39,279,49,15,49,202,50,17,29,044,49,18,04,273,,0*6B
$GPGSV,3,3,11,26,37,179,49,27,21,117,49,30,07,263,48,0*54
$BDGSV,1,1,00,0*74

$GNRMC,084919.00,A,3128.000020,N,12108.602490,E,9.727,269.97,010720,,,A,V*02
$GNGGA,084919.00,3128.000020,N,12108.602490,E,1,08,1.00,-10.7,M,10.7,M,,*52
$GNGSA,A,3,04,05,09,12,15,17,26,27,,,,,2.81,1.00,2.62,1*05
$GNGSA,A,3,,,,,,,,,,,,,2.81,1.00,2.62,4*08
$GPGSV,3,1,11,02,14,147,49,04,20,107,49,05,27,277,49,
09,56,331,50,0*63
$GPGSV,3,2,11,12,39,279,49,15,49,202,50,17,29,044,49,18,04,273,,0*6B
$GPGSV,3,3,11,26,37,179,49,27,21,117,49,30,07,263,48,0*54
$BDGSV,1,1,00,0*74

$GNRMC,084920.00,A,3128.000021,N,12108.599332,E,9.729,270.05,010720,,,A,V*0A
$GNGGA,084920.00,3128.000021,N,12108.599332,E,1,08,1.00,-10.7,M,10.7,M,,*57
$GNGSA,A,3,04,05,09,12,15,17,26,27,,,,,2.81,1.00,2.62,1*05
$GNGSA,A,3,,,,,,,,,,,,,2.81,1.00,2.62,4*08
$GPGSV,3,1,11,02,14,147,49,04,20,107,49,05,27,277,49,
09,56,331,50,0*63
$GPGSV,3,2,11,12,39,279,49,15,49,202,50,17,29,044,49,18,04,273,,0*6B
$GPGSV,3,3,11,26,37,179,49,27,21,117,49,30,07,263,48,0*54
$BDGSV,1,1,00,0*74

<????sim??????(SIM??:1)>
<????GSM????????(GSM:0)>
<????GPRS????????(GPRS:0)>
<????????????(SIGNAL:0)>
<????????????????(BER:0)>

<??????????????>

$GNRMC,084921.00,A,3128.000022,N,12108.596175,E,9.723,270.02,010720,,,A,V*0B
$GNGGA,084921.00,3128.000022,N,12108.596175,E,1,08,1.00,-10.7,M,10.7,M,,*5B
$GNGSA,A,3,04,05,09,12,15,17,26,27,,,,,2.81,1.00,2.62,1*05
$GNGSA,A,3,,,,,,,,,,,,,2.81,1.00,2.62,4*08
$GPGSV,3,1,11,02,14,147,49,04,20,107,49,05,27,277,49,
09,56,331,50,0*63
$GPGSV,3,2,11,12,39,279,49,15,49,202,50,17,29,044,49,18,04,273,,0*6B
$GPGSV,3,3,11,26,37,179,49,27,21,117,49,30,07,263,48,0*54
$BDGSV,1,1,00,0*74

$GNRMC,084922.00,A,3128.000023,N,12108.593019,E,9.717,270.01,010720,,,A,V*03
$GNGGA,084922.00,3128.000023,N,12108.593019,E,1,08,1.00,-10.7,M,10.7,M,,*57
$GNGSA,A,3,04,05,09,12,15,17,26,27,,,,,2.81,1.00,2.62,1*05
$GNGSA,A,3,,,,,,,,,,,,,2.81,1.00,2.62,4*08
$GPGSV,3,1,11,02,14,147,49,04,20,107,49,05,27,277,49,
09,56,331,50,0*63
$GPGSV,3,2,11,12,39,279,49,15,49,202,50,17,29,044,49,18,04,273,,0*6B
$GPGSV,3,3,11,26,37,179,49,27,21,117,49,30,07,263,48,0*54
$BDGSV,1,1,00,0*74

$GNRMC,084923.00,A,3128.000023,N,12108.589862,E,9.719,270.02,010720,,,A,V*00
$GNGGA,084923.00,3128.000023,N,12108.589862,E,1,08,1.00,-10.7,M,10.7,M,,*59
$GNGSA,A,3,04,05,09,12,15,17,26,27,,,,,2.81,1.00,2.63,1*04
$GNGSA,A,3,,,,,,,,,,,,,2.81,1.00,2.63,4*09
$GPGSV,3,1,11,02,14,147,49,04,20,107,49,05,27,277,49,
09,56,331,50,0*63
$GPGSV,3,2,11,12,39,279,49,15,49,202,50,17,29,044,49,18,04,273,,0*6B
$GPGSV,3,3,11,26,37,179,49,27,21,117,49,30,07,263,48,0*54
$BDGSV,1,1,00,0*74

$GNRMC,084924.00,A,3128.000022,N,12108.586705,E,9.721,269.98,010720,,,A,V*07
$GNGGA,084924.00,3128.000022,N,12108.586705,E,1,08,1.00,-10.7,M,10.7,M,,*5E
$GNGSA,A,3,04,05,09,12,15,17,26,27,,,,,2.81,1.00,2.63,1*04
$GNGSA,A,3,,,,,,,,,,,,,2.81,1.00,2.63,4*09
$GPGSV,3,1,11,02,14,147,49,04,20,107,49,05,27,277,49,
09,56,331,50,0*63
$GPGSV,3,2,11,12,39,279,49,15,49,202,50,17,29,044,49,18,04,273,,0*6B
$GPGSV,3,3,11,26,37,179,49,27,21,117,49,30,07,263,48,0*54
$BDGSV,1,1,00,0*74

$GNRMC,084925.00,A,3128.000023,N,12108.583549,E,9.722,270.03,010720,,,A,V*01
$GNGGA,084925.00,3128.000023,N,12108.583549,E,1,08,1.00,-10.7,M,10.7,M,,*51
$GNGSA,A,3,04,05,09,12,15,17,26,27,,,,,2.81,1.00,2.63,1*04
$GNGSA,A,3,,,,,,,,,,,,,2.81,1.00,2.63,4*09
$GPGSV,3,1,11,02,14,147,49,04,20,107,49,05,27,277,49,
09,56,331,50,0*63
$GPGSV,3,2,11,12,39,279,49,15,49,202,50,17,29,044,49,18,04,273,,0*6B
$GPGSV,3,3,11,26,37,179,49,27,21,117,49,30,07,263,48,0*54
$BDGSV,1,1,00,0*74

$GNRMC,084926.00,A,3128.000024,N,12108.580393,E,9.719,270.01,010720,,,A,V*0D
$GNGGA,084926.00,3128.000024,N,12108.580393,E,1,08,1.00,-10.7,M,10.7,M,,*57
$GNGSA,A,3,04,05,09,12,15,17,26,27,,,,,2.81,1.00,2.63,1*04
$GNGSA,A,3,,,,,,,,,,,,,2.81,1.00,2.63,4*09
$GPGSV,3,1,11,02,14,147,49,04,20,107,49,05,27,277,49,
09,56,331,50,0*63
$GPGSV,3,2,11,12,39,279,49,15,49,202,50,17,29,044,49,18,04,273,,0*6B
$GPGSV,3,3,11,26,37,179,49,27,21,117,49,30,07,263,48,0*54
$BDGSV,1,1,00,0*74

$GNRMC,084927.00,A,3128.000025,N,12108.577237,E,9.723,270.02,010720,,,A,V*00
$GNGGA,084927.00,3128.000025,N,12108.577237,E,1,08,1.00,-10.7,M,10.7,M,,*50
$GNGSA,A,3,04,05,09,12,15,17,26,27,,,,,2.81,1.00,2.63,1*04
$GNGSA,A,3,,,,,,,,,,,,,2.81,1.00,2.63,4*09
$GPGSV,3,1,11,02,14,147,49,04,20,107,49,05,27,277,49,
09,56,331,50,0*63
$GPGSV,3,2,11,12,39,279,49,15,49,202,50,17,29,044,49,18,04,273,,0*6B
$GPGSV,3,3,11,26,37,179,49,27,21,117,49,30,07,263,48,0*54
$BDGSV,1,1,00,0*74

$GNRMC,084928.00,A,3128.000025,N,12108.574080,E,9.721,270.00,010720,,,A,V*02
$GNGGA,084928.00,3128.000025,N,12108.574080,E,1,08,1.00,-10.7,M,10.7,M,,*52
$GNGSA,A,3,04,05,09,12,15,17,26,27,,,,,2.81,1.00,2.63,1*04
$GNGSA,A,3,,,,,,,,,,,,,2.81,1.00,2.63,4*09
$GPGSV,3,1,11,02,14,147,49,04,20,107,49,05,27,277,49,
09,56,331,50,0*63
$GPGSV,3,2,11,12,39,279,49,15,49,202,50,17,29,044,49,18,04,273,,0*6B
$GPGSV,3,3,11,26,37,179,49,27,21,117,49,30,07,263,48,0*54
$BDGSV,1,1,00,0*74


GPS HPregnss> E1 15 00 00 00 00 07 53 8F 3C 4B 00 00 00 1C 34 AD FA 55 00 00 00 00 


$GNRMC,084929.00,A,3128.000025,N,12108.570923,E,9.723,270.03,010720,,,A,V*06
$GNGGA,084929.00,3128.000025,N,12108.570923,E,1,08,1.00,-10.7,M,10.7,M,,*57
$GNGSA,A,3,04,05,09,12,15,17,26,27,,,,,2.81,1.00,2.63,1*04
$GNGSA,A,3,,,,,,,,,,,,,2.81,1.00,2.63,4*09
$GPGSV,3,1,11,02,14,147,49,04,20,107,49,05,27,277,49,
09,56,331,50,0*63
$GPGSV,3,2,11,12,39,279,49,15,49,202,50,17,29,044,49,18,04,273,,0*6B
$GPGSV,3,3,11,26,37,179,49,27,21,117,49,30,07,263,48,0*54
$BDGSV,1,1,00,0*74

$GNRMC,084930.00,A,3128.000025,N,12108.567766,E,9.729,270.02,010720,,,A,V*0C
$GNGGA,084930.00,3128.000025,N,12108.567766,E,1,08,1.00,-10.7,M,10.7,M,,*56
$GNGSA,A,3,04,05,09,12,15,17,26,27,,,,,2.81,1.00,2.63,1*04
$GNGSA,A,3,,,,,,,,,,,,,2.81,1.00,2.63,4*09
$GPGSV,3,1,11,02,14,147,49,04,20,107,49,05,27,277,49,
09,56,331,50,0*63
$GPGSV,3,2,11,12,39,279,49,15,49,202,50,17,29,044,49,18,04,273,,0*6B
$GPGSV,3,3,11,26,37,179,49,27,21,117,49,30,07,263,48,0*54
$BDGSV,1,1,00,0*74

<??????????????>

$GNRMC,084931.00,A,3128.000025,N,12108.564609,E,9.730,270.01,010720,,,A,V*0D
$GNGGA,084931.00,3128.000025,N,12108.564609,E,1,08,1.00,-10.7,M,10.7,M,,*5C
$GNGSA,A,3,04,05,09,12,15,17,26,27,,,,,2.81,1.00,2.63,1*04
$GNGSA,A,3,,,,,,,,,,,,,2.81,1.00,2.63,4*09
$GPGSV,3,1,11,02,14,147,49,04,20,107,49,05,27,277,49,
09,56,331,50,0*63
$GPGSV,3,2,11,12,39,279,49,15,49,202,50,17,29,044,49,18,04,273,,0*6B
$GPGSV,3,3,11,26,37,179,49,27,21,117,49,30,07,263,48,0*54
$BDGSV,1,1,00,0*74

$GNRMC,084932.00,A,3128.000027,N,12108.561453,E,9.720,270.04,010720,,,A,V*00
$GNGGA,084932.00,3128.000027,N,12108.561453,E,1,08,1.00,-10.7,M,10.7,M,,*55
$GNGSA,A,3,04,05,09,12,15,17,26,27,,,,,2.81,1.00,2.63,1*04
$GNGSA,A,3,,,,,,,,,,,,,2.81,1.00,2.63,4*09
$GPGSV,3,1,11,02,14,147,49,04,20,107,49,05,27,277,49,
09,56,331,50,0*63
$GPGSV,3,2,11,12,39,279,49,15,49,202,50,17,29,044,49,18,04,273,,0*6B
$GPGSV,3,3,11,26,37,179,49,27,21,117,49,30,07,263,48,0*54
$BDGSV,1,1,00,0*74

$GNRMC,084933.00,A,3128.000026,N,12108.558297,E,9.717,269.97,010720,,,A,V*02
$GNGGA,084933.00,3128.000026,N,12108.558297,E,1,08,1.00,-10.7,M,10.7,M,,*51
$GNGSA,A,3,04,05,09,12,15,17,26,27,,,,,2.81,1.00,2.63,1*04
$GNGSA,A,3,,,,,,,,,,,,,2.81,1.00,2.63,4*09
$GPGSV,3,1,11,02,14,147,49,04,20,107,49,05,27,277,49,
09,56,331,50,0*63
$GPGSV,3,2,11,12,39,279,49,15,49,202,50,17,29,044,49,18,04,273,,0*6B
$GPGSV,3,3,11,26,37,179,49,27,21,117,49,30,07,263,48,0*54
$BDGSV,1,1,00,0*74

$GNRMC,084934.00,A,3128.000028,N,12108.555141,E,9.716,270.02,010720,,,A,V*0B
$GNGGA,084934.00,3128.000028,N,12108.555141,E,1,08,1.00,-10.7,M,10.7,M,,*5D
$GNGSA,A,3,04,05,09,12,15,17,26,27,,,,,2.81,1.00,2.63,1*04
$GNGSA,A,3,,,,,,,,,,,,,2.81,1.00,2.63,4*09
$GPGSV,3,1,11,02,14,147,49,04,20,107,49,05,27,277,49,
09,56,331,50,0*63
$GPGSV,3,2,11,12,39,279,49,15,49,202,50,17,29,044,49,18,04,273,,0*6B
$GPGSV,3,3,11,26,37,179,49,27,21,117,49,30,07,263,48,0*54
$BDGSV,1,1,00,0*74

$GNRMC,084935.00,A,3128.000028,N,12108.551984,E,9.724,270.00,010720,,,A,V*0C
$GNGGA,084935.00,3128.000028,N,12108.551984,E,1,08,1.00,-10.7,M,10.7,M,,*59
$GNGSA,A,3,04,05,09,12,15,17,26,27,,,,,2.81,1.00,2.63,1*04
$GNGSA,A,3,,,,,,,,,,,,,2.81,1.00,2.63,4*09
$GPGSV,3,1,11,02,14,146,49,04,20,107,49,05,27,277,49,
09,56,331,50,0*62
$GPGSV,3,2,11,12,39,279,49,15,49,202,50,17,29,044,49,18,04,273,,0*6B
$GPGSV,3,3,11,26,37,179,49,27,21,117,49,30,07,263,48,0*54
$BDGSV,1,1,00,0*74

$GNRMC,084936.00,A,3128.000029,N,12108.548827,E,9.721,270.03,010720,,,A,V*08
$GNGGA,084936.00,3128.000029,N,12108.548827,E,1,08,1.00,-10.7,M,10.7,M,,*5B
$GNGSA,A,3,04,05,09,12,15,17,26,27,,,,,2.81,1.00,2.63,1*04
$GNGSA,A,3,,,,,,,,,,,,,2.81,1.00,2.63,4*09
$GPGSV,3,1,11,02,14,146,49,04,20,106,49,05,27,277,49,
09,56,331,50,0*63
$GPGSV,3,2,11,12,39,279,49,15,49,202,50,17,29,044,49,18,04,273,,0*6B
$GPGSV,3,3,11,26,37,179,49,27,21,117,49,30,07,263,48,0*54
$BDGSV,1,1,00,0*74

$GNRMC,084937.00,A,3128.000029,N,12108.545670,E,9.720,270.01,010720,,,A,V*0B
$GNGGA,084937.00,3128.000029,N,12108.545670,E,1,08,1.00,-10.7,M,10.7,M,,*5B
$GNGSA,A,3,04,05,09,12,15,17,26,27,,,,,2.81,1.00,2.63,1*04
$GNGSA,A,3,,,,,,,,,,,,,2.81,1.00,2.63,4*09
$GPGSV,3,1,11,02,14,146,49,04,20,106,49,05,28,277,49,
09,56,331,50,0*6C
$GPGSV,3,2,11,12,39,279,50,15,49,202,50,17,29,044,49,18,04,273,,0*63
$GPGSV,3,3,11,26,37,179,49,27,21,117,49,30,07,263,48,0*54
$BDGSV,1,1,00,0*74

$GNRMC,084938.00,A,3128.000030,N,12108.542514,E,9.720,270.01,010720,,,A,V*0A
$GNGGA,084938.00,3128.000030,N,12108.542514,E,1,08,1.00,-10.7,M,10.7,M,,*5A
$GNGSA,A,3,04,05,09,12,15,17,26,27,,,,,2.81,1.00,2.63,1*04
$GNGSA,A,3,,,,,,,,,,,,,2.81,1.00,2.63,4*09
$GPGSV,3,1,11,02,14,146,49,04,20,106,49,05,28,277,49,
09,56,331,50,0*6C
$GPGSV,3,2,11,12,39,279,49,15,49,202,50,17,29,044,49,18,04,273,,0*6B
$GPGSV,3,3,11,26,37,179,49,27,21,117,49,30,07,263,48,0*54
$BDGSV,1,1,00,0*74

$GNRMC,084939.00,A,3128.000031,N,12108.539357,E,9.718,270.01,010720,,,A,V*0C
$GNGGA,084939.00,3128.000031,N,12108.539357,E,1,08,1.00,-10.7,M,10.7,M,,*57
$GNGSA,A,3,04,05,09,12,15,17,26,27,,,,,2.82,1.00,2.63,1*07
$GNGSA,A,3,,,,,,,,,,,,,2.82,1.00,2.63,4*0A
$GPGSV,3,1,11,02,14,146,49,04,20,106,49,05,28,277,49,
09,56,331,50,0*6C
$GPGSV,3,2,11,12,39,279,49,15,49,202,50,17,29,044,49,18,04,273,,0*6B
$GPGSV,3,3,11,26,37,179,49,27,21,117,49,30,07,263,48,0*54
$BDGSV,1,1,00,0*74

$GNRMC,084940.00,A,3128.000031,N,12108.536200,E,9.728,270.01,010720,,,A,V*0D
$GNGGA,084940.00,3128.000031,N,12108.536200,E,1,08,1.00,-10.7,M,10.7,M,,*55
$GNGSA,A,3,04,05,09,12,15,17,26,27,,,,,2.82,1.00,2.63,1*07
$GNGSA,A,3,,,,,,,,,,,,,2.82,1.00,2.63,4*0A
$GPGSV,3,1,11,02,14,146,49,04,20,106,49,05,28,277,49,
09,56,331,50,0*6C
$GPGSV,3,2,11,12,39,279,49,15,49,202,50,17,29,044,49,18,04,273,,0*6B
$GPGSV,3,3,11,26,37,179,49,27,21,117,49,30,07,263,48,0*54
$BDGSV,1,1,00,0*74

<????sim??????(SIM??:1)>
<????GSM????????(GSM:0)>
<????GPRS????????(GPRS:0)>
<????????????(SIGNAL:0)>
<????????????????(BER:0)>

<??????????????>

$GNRMC,084941.00,A,3128.000033,N,12108.533043,E,9.726,270.03,010720,,,A,V*02
$GNGGA,084941.00,3128.000033,N,12108.533043,E,1,08,1.00,-10.7,M,10.7,M,,*56
$GNGSA,A,3,04,05,09,12,15,17,26,27,,,,,2.82,1.00,2.63,1*07
$GNGSA,A,3,,,,,,,,,,,,,2.82,1.00,2.63,4*0A
$GPGSV,3,1,12,02,14,146,49,04,20,106,49,05,28,277,49,
09,56,331,50,0*6F
$GPGSV,3,2,12,12,39,279,49,15,49,202,50,17,29,044,49,18,04,273,,0*68
$GPGSV,3,3,12,26,37,179,49,27,21,117,49,29,,,33,30,07,263,48,0*5C
$BDGSV,1,1,00,0*74

$GNRMC,084942.00,A,3128.000033,N,12108.529887,E,9.719,270.00,010720,,,A,V*05
$GNGGA,084942.00,3128.000033,N,12108.529887,E,1,08,1.00,-10.7,M,10.7,M,,*5E
$GNGSA,A,3,04,05,09,12,15,17,26,27,,,,,2.82,1.00,2.63,1*07
$GNGSA,A,3,,,,,,,,,,,,,2.82,1.00,2.63,4*0A
$GPGSV,3,1,11,02,14,146,49,04,20,106,49,05,28,277,49,
09,56,331,50,0*6C
$GPGSV,3,2,11,12,39,279,49,15,49,202,50,17,29,044,49,18,04,273,,0*6B
$GPGSV,3,3,11,26,37,179,49,27,21,117,49,30,07,263,48,0*54
$BDGSV,1,1,00,0*74

$GNRMC,084943.00,A,3128.000032,N,12108.526731,E,9.717,269.99,010720,,,A,V*0E
$GNGGA,084943.00,3128.000032,N,12108.526731,E,1,08,1.00,-10.7,M,10.7,M,,*53
$GNGSA,A,3,04,05,09,12,15,17,26,27,,,,,2.82,1.00,2.63,1*07
$GNGSA,A,3,,,,,,,,,,,,,2.82,1.00,2.63,4*0A
$GPGSV,3,1,11,02,14,146,49,04,20,106,49,05,28,277,49,
09,56,331,50,0*6C
$GPGSV,3,2,11,12,39,279,49,15,49,202,50,17,29,044,49,18,04,273,,0*6B
$GPGSV,3,3,11,26,37,179,49,27,21,117,49,30,07,263,48,0*54
$BDGSV,1,1,00,0*74

$GNRMC,084944.00,A,3128.000033,N,12108.523575,E,9.716,270.01,010720,,,A,V*07
$GNGGA,084944.00,3128.000033,N,12108.523575,E,1,08,1.00,-10.7,M,10.7,M,,*52
$GNGSA,A,3,04,05,09,12,15,17,26,27,,,,,2.82,1.00,2.63,1*07
$GNGSA,A,3,,,,,,,,,,,,,2.82,1.00,2.63,4*0A
$GPGSV,3,1,11,02,14,146,49,04,20,106,49,05,28,277,49,
09,56,331,50,0*6C
$GPGSV,3,2,11,12,39,279,49,15,49,202,50,17,29,044,49,18,04,273,,0*6B
$GPGSV,3,3,11,26,37,179,49,27,21,117,49,30,07,263,48,0*54
$BDGSV,1,1,00,0*74

$GNRMC,084945.00,A,3128.000033,N,12108.520419,E,9.721,270.00,010720,,,A,V*0B
$GNGGA,084945.00,3128.000033,N,12108.520419,E,1,08,1.00,-10.7,M,10.7,M,,*5B
$GNGSA,A,3,04,05,09,12,15,17,26,27,,,,,2.82,1.00,2.63,1*07
$GNGSA,A,3,,,,,,,,,,,,,2.82,1.00,2.63,4*0A
$GPGSV,3,1,11,02,14,146,49,04,20,106,49,05,28,277,49,
09,56,331,50,0*6C
$GPGSV,3,2,11,12,39,279,49,15,49,202,50,17,29,044,49,18,04,273,,0*6B
$GPGSV,3,3,11,26,37,179,49,27,21,117,49,30,07,263,48,0*54
$BDGSV,1,1,00,0*74

$GNRMC,084946.00,A,3128.000034,N,12108.517262,E,9.723,270.02,010720,,,A,V*01
$GNGGA,084946.00,3128.000034,N,12108.517262,E,1,08,1.00,-10.7,M,10.7,M,,*51
$GNGSA,A,3,04,05,09,12,15,17,26,27,,,,,2.82,1.00,2.63,1*07
$GNGSA,A,3,,,,,,,,,,,,,2.82,1.00,2.63,4*0A
$GPGSV,3,1,11,02,14,146,49,04,20,106,49,05,28,277,49,
09,56,331,50,0*6C
$GPGSV,3,2,11,12,39,279,49,15,49,202,50,17,29,044,49,18,04,273,,0*6B
$GPGSV,3,3,11,26,37,179,49,27,21,117,49,30,07,263,48,0*54
$BDGSV,1,1,00,0*74

$GNRMC,084947.00,A,3128.000035,N,12108.514107,E,9.720,270.01,010720,,,A,V*02
$GNGGA,084947.00,3128.000035,N,12108.514107,E,1,08,1.00,-10.7,M,10.7,M,,*52
$GNGSA,A,3,04,05,09,12,15,17,26,27,,,,,2.82,1.00,2.63,1*07
$GNGSA,A,3,,,,,,,,,,,,,2.82,1.00,2.63,4*0A
$GPGSV,3,1,11,02,14,146,49,04,20,106,49,05,28,277,49,
09,56,331,50,0*6C
$GPGSV,3,2,11,12,39,279,49,15,49,202,50,17,29,044,49,18,04,273,,0*6B
$GPGSV,3,3,11,26,37,179,49,27,21,117,49,30,07,263,48,0*54
$BDGSV,1,1,00,0*74

$GNRMC,084948.00,A,3128.000036,N,12108.510950,E,9.718,270.01,010720,,,A,V*0B
$GNGGA,084948.00,3128.000036,N,12108.510950,E,1,08,1.00,-10.7,M,10.7,M,,*50
$GNGSA,A,3,04,05,09,12,15,17,26,27,,,,,2.82,1.00,2.63,1*07
$GNGSA,A,3,,,,,,,,,,,,,2.82,1.00,2.63,4*0A
$GPGSV,3,1,11,02,14,146,49,04,20,106,49,05,28,277,49,
09,56,331,50,0*6C
$GPGSV,3,2,11,12,39,279,49,15,49,202,50,17,29,044,49,18,04,273,,0*6B
$GPGSV,3,3,11,26,37,179,49,27,21,117,49,30,07,263,48,0*54
$BDGSV,1,1,00,0*74

$GNRMC,084949.00,A,3128.000035,N,12108.507793,E,9.717,270.00,010720,,,A,V*00
$GNGGA,084949.00,3128.000035,N,12108.507793,E,1,08,1.00,-10.7,M,10.7,M,,*55
$GNGSA,A,3,04,05,09,12,15,17,26,27,,,,,2.82,1.00,2.63,1*07
$GNGSA,A,3,,,,,,,,,,,,,2.82,1.00,2.63,4*0A
$GPGSV,3,1,11,02,14,146,49,04,20,106,49,05,28,277,49,
09,56,331,50,0*6C
$GPGSV,3,2,11,12,39,279,49,15,49,202,50,17,29,044,49,18,04,273,,0*6B
$GPGSV,3,3,11,26,37,179,49,27,21,117,49,30,07,263,48,0*54
$BDGSV,1,1,00,0*74

$GNRMC,084950.00,A,3128.000037,N,12108.504637,E,9.725,270.03,010720,,,A,V*04
$GNGGA,084950.00,3128.000037,N,12108.504637,E,1,08,1.00,-10.7,M,10.7,M,,*53
$GNGSA,A,3,04,05,09,12,15,17,26,27,,,,,2.82,1.00,2.63,1*07
$GNGSA,A,3,,,,,,,,,,,,,2.82,1.00,2.63,4*0A
$GPGSV,3,1,11,02,14,146,49,04,20,106,49,05,28,277,49,
09,56,331,50,0*6C
$GPGSV,3,2,11,12,39,279,49,15,49,202,50,17,29,044,49,18,04,273,,0*6B
$GPGSV,3,3,11,26,37,179,49,27,21,117,49,30,07,263,48,0*54
$BDGSV,1,1,00,0*74

<??????????????>

$GNRMC,084951.00,A,3128.000038,N,12108.501480,E,9.729,270.03,010720,,,A,V*0D
$GNGGA,084951.00,3128.000038,N,12108.501480,E,1,08,1.00,-10.7,M,10.7,M,,*56
$GNGSA,A,3,04,05,09,12,15,17,26,27,,,,,2.82,1.00,2.63,1*07
$GNGSA,A,3,,,,,,,,,,,,,2.82,1.00,2.63,4*0A
$GPGSV,3,1,11,02,14,146,49,04,20,106,49,05,28,277,49,
09,56,331,50,0*6C
$GPGSV,3,2,11,12,39,279,49,15,49,202,50,17,29,044,49,18,04,273,,0*6B
$GPGSV,3,3,11,26,37,179,49,27,21,117,49,30,07,263,48,0*54
$BDGSV,1,1,00,0*74

$GNRMC,084952.00,A,3128.000038,N,12108.498324,E,9.724,270.01,010720,,,A,V*09
$GNGGA,084952.00,3128.000038,N,12108.498324,E,1,08,1.00,-10.7,M,10.7,M,,*5D
$GNGSA,A,3,04,05,09,12,15,17,26,27,,,,,2.82,1.00,2.64,1*00
$GNGSA,A,3,,,,,,,,,,,,,2.82,1.00,2.64,4*0D
$GPGSV,3,1,11,02,14,146,49,04,20,106,49,05,28,277,49,
09,56,331,50,0*6C
$GPGSV,3,2,11,12,39,279,49,15,49,202,50,17,29,044,49,18,04,273,,0*6B
$GPGSV,3,3,11,26,37,179,49,27,21,117,49,30,07,263,48,0*54
$BDGSV,1,1,00,0*74

$GNRMC,084953.00,A,3128.000040,N,12108.495168,E,9.718,270.02,010720,,,A,V*0C
$GNGGA,084953.00,3128.000040,N,12108.495168,E,1,08,1.00,-10.7,M,10.7,M,,*54
$GNGSA,A,3,04,05,09,12,15,17,26,27,,,,,2.82,1.00,2.64,1*00
$GNGSA,A,3,,,,,,,,,,,,,2.82,1.00,2.64,4*0D
$GPGSV,3,1,11,02,14,146,49,04,20,106,49,05,28,277,49,
09,56,331,50,0*6C
$GPGSV,3,2,11,12,39,279,49,15,49,202,50,17,29,044,49,18,04,273,,0*6B
$GPGSV,3,3,11,26,37,179,49,27,21,117,49,30,07,263,48,0*54
$BDGSV,1,1,00,0*74

$GNRMC,084954.00,A,3128.000039,N,12108.492013,E,9.718,269.99,010720,,,A,V*05
$GNGGA,084954.00,3128.000039,N,12108.492013,E,1,08,1.00,-10.7,M,10.7,M,,*57
$GNGSA,A,3,04,05,09,12,15,17,26,27,,,,,2.82,1.00,2.64,1*00
$GNGSA,A,3,,,,,,,,,,,,,2.82,1.00,2.64,4*0D
$GPGSV,3,1,11,02,14,146,49,04,20,106,49,05,28,277,49,
09,56,331,50,0*6C
$GPGSV,3,2,11,12,39,279,49,15,49,202,50,17,29,044,49,18,04,273,,0*6B
$GPGSV,3,3,11,26,37,179,49,27,21,117,49,30,07,263,48,0*54
$BDGSV,1,1,00,0*74

$GNRMC,084955.00,A,3128.000038,N,12108.488858,E,9.719,270.00,010720,,,A,V*00
$GNGGA,084955.00,3128.000038,N,12108.488858,E,1,08,1.00,-10.7,M,10.7,M,,*5B
$GNGSA,A,3,04,05,09,12,15,17,26,27,,,,,2.82,1.00,2.64,1*00
$GNGSA,A,3,,,,,,,,,,,,,2.82,1.00,2.64,4*0D
$GPGSV,3,1,11,02,14,146,49,04,20,106,49,05,28,277,49,
09,56,331,50,0*6C
$GPGSV,3,2,11,12,39,279,49,15,49,202,50,17,29,044,49,18,04,273,,0*6B
$GPGSV,3,3,11,26,37,179,49,27,21,117,49,30,07,263,48,0*54
$BDGSV,1,1,00,0*74

$GNRMC,084956.00,A,3128.000038,N,12108.485702,E,9.722,270.01,010720,,,A,V*07
$GNGGA,084956.00,3128.000038,N,12108.485702,E,1,08,1.00,-10.7,M,10.7,M,,*55
$GNGSA,A,3,04,05,09,12,15,17,26,27,,,,,2.82,1.00,2.64,1*00
$GNGSA,A,3,,,,,,,,,,,,,2.82,1.00,2.64,4*0D
$GPGSV,3,1,11,02,14,146,49,04,20,106,49,05,28,277,49,
09,56,331,50,0*6C
$GPGSV,3,2,11,12,39,279,49,15,49,202,50,17,29,044,49,18,04,273,,0*6B
$GPGSV,3,3,11,26,37,179,49,27,21,117,49,30,07,263,48,0*54
$BDGSV,1,1,00,0*74

$GNRMC,084957.00,A,3128.000038,N,12108.482545,E,9.722,270.01,010720,,,A,V*00
$GNGGA,084957.00,3128.000038,N,12108.482545,E,1,08,1.00,-10.7,M,10.7,M,,*52
$GNGSA,A,3,04,05,09,12,15,17,26,27,,,,,2.82,1.00,2.64,1*00
$GNGSA,A,3,,,,,,,,,,,,,2.82,1.00,2.64,4*0D
$GPGSV,3,1,11,02,14,146,49,04,20,106,49,05,28,277,49,
09,56,331,50,0*6C
$GPGSV,3,2,11,12,39,279,49,15,49,202,50,17,29,044,49,18,04,273,,0*6B
$GPGSV,3,3,11,26,37,179,49,27,21,117,49,30,07,263,48,0*54
$BDGSV,1,1,00,0*74

$GNRMC,084958.00,A,3128.000039,N,12108.479389,E,9.717,270.02,010720,,,A,V*09
$GNGGA,084958.00,3128.000039,N,12108.479389,E,1,08,1.00,-10.7,M,10.7,M,,*5E
$GNGSA,A,3,04,05,09,12,15,17,26,27,,,,,2.82,1.00,2.64,1*00
$GNGSA,A,3,,,,,,,,,,,,,2.82,1.00,2.64,4*0D
$GPGSV,3,1,11,02,14,146,49,04,20,106,49,05,28,277,49,
09,56,331,50,0*6C
$GPGSV,3,2,11,12,39,279,49,15,49,202,50,17,29,044,49,18,04,273,,0*6B
$GPGSV,3,3,11,26,37,179,49,27,21,117,49,30,07,263,48,0*54
$BDGSV,1,1,00,0*74


GPS HPregnss> E1 15 00 00 00 00 07 53 8F 3D 34 00 00 00 1C 34 95 E5 8E 00 00 00 00 


$GNRMC,084959.00,A,3128.000040,N,12108.476232,E,9.719,270.01,010720,,,A,V*05
$GNGGA,084959.00,3128.000040,N,12108.476232,E,1,08,1.00,-10.7,M,10.7,M,,*5F
$GNGSA,A,3,04,05,09,12,15,17,26,27,,,,,2.82,1.00,2.64,1*00
$GNGSA,A,3,,,,,,,,,,,,,2.82,1.00,2.64,4*0D
$GPGSV,3,1,11,02,14,146,49,04,20,106,49,05,28,277,49,
09,56,331,50,0*6C
$GPGSV,3,2,11,12,39,279,49,15,49,202,50,17,29,044,49,18,04,273,,0*6B
$GPGSV,3,3,11,26,37,179,49,27,21,117,49,30,07,263,48,0*54
$BDGSV,1,1,00,0*74

$GNRMC,085000.00,A,3128.000040,N,12108.473075,E,9.727,270.01,010720,,,A,V*08
$GNGGA,085000.00,3128.000040,N,12108.473075,E,1,08,1.00,-10.7,M,10.7,M,,*5F
$GNGSA,A,3,04,05,09,12,15,17,26,27,,,,,2.82,1.00,2.64,1*00
$GNGSA,A,3,,,,,,,,,,,,,2.82,1.00,2.64,4*0D
$GPGSV,3,1,11,02,14,146,49,04,20,106,49,05,28,277,49,
09,56,331,50,0*6C
$GPGSV,3,2,11,12,39,279,49,15,49,202,50,17,29,044,49,18,04,273,,0*6B
$GPGSV,3,3,11,26,37,179,49,27,21,117,49,30,07,263,48,0*54
$BDGSV,1,1,00,0*74

$GNRMC,085001.00,A,3128.000041,N,12108.469919,E,9.731,270.03,010720,,,A,V*05
$GNGGA,085001.00,3128.000041,N,12108.469919,E,1,08,1.00,-10.7,M,10.7,M,,*57
$GNGSA,A,3,04,05,09,12,15,17,26,27,,,,,2.82,1.00,2.64,1*00
$GNGSA,A,3,,,,,,,,,,,,,2.82,1.00,2.64,4*0D
$GPGSV,3,1,11,02,14,146,49,04,20,106,49,05,28,277,49,
09,56,331,50,0*6C
$GPGSV,3,2,11,12,39,279,49,15,49,202,50,17,29,044,49,18,04,273,,0*6B
$GPGSV,3,3,11,26,37,179,49,27,21,117,49,30,07,263,48,0*54
$BDGSV,1,1,00,0*74
<????sim??????(SIM??:1)>
<????GSM????????(GSM:0)>
<????GPRS????????(GPRS:0)>
<????????????(SIGNAL:0)>
<????????????????(BER:0)>

<??????????????>

$GNRMC,085002.00,A,3128.000043,N,12108.466762,E,9.725,270.03,010720,,,A,V*0C
$GNGGA,085002.00,3128.000043,N,12108.466762,E,1,08,1.00,-10.7,M,10.7,M,,*5B
$GNGSA,A,3,04,05,09,12,15,17,26,27,,,,,2.82,1.00,2.64,1*00
$GNGSA,A,3,,,,,,,,,,,,,2.82,1.00,2.64,4*0D
$GPGSV,3,1,11,02,14,146,49,04,20,106,49,05,28,277,49,
09,56,331,50,0*6C
$GPGSV,3,2,11,12,39,279,49,15,49,202,50,17,29,044,49,18,04,273,,0*6B
$GPGSV,3,3,11,26,37,179,49,27,21,117,49,30,07,263,48,0*54
$BDGSV,1,1,00,0*74

$GNRMC,085003.00,A,3128.000045,N,12108.463605,E,9.719,270.02,010720,,,A,V*00
$GNGGA,085003.00,3128.000045,N,12108.463605,E,1,08,1.00,-10.7,M,10.7,M,,*59
$GNGSA,A,3,04,05,09,12,15,17,26,27,,,,,2.82,1.00,2.64,1*00
$GNGSA,A,3,,,,,,,,,,,,,2.82,1.00,2.64,4*0D
$GPGSV,3,1,11,02,14,146,49,04,20,106,49,05,28,277,49,
09,56,331,50,0*6C
$GPGSV,3,2,11,12,39,279,49,15,49,202,50,17,29,044,49,18,04,273,,0*6B
$GPGSV,3,3,11,26,37,179,49,27,21,117,49,30,07,263,48,0*54
$BDGSV,1,1,00,0*74

$GNRMC,085004.00,A,3128.000046,N,12108.460449,E,9.715,270.00,010720,,,A,V*03
$GNGGA,085004.00,3128.000046,N,12108.460449,E,1,08,1.00,-10.7,M,10.7,M,,*54
$GNGSA,A,3,04,05,09,12,15,17,26,27,,,,,2.82,1.00,2.64,1*00
$GNGSA,A,3,,,,,,,,,,,,,2.82,1.00,2.64,4*0D
$GPGSV,3,1,11,02,14,146,49,04,20,106,49,05,28,277,49,
09,56,331,50,0*6C
$GPGSV,3,2,11,12,39,279,49,15,49,202,50,17,29,044,49,18,04,273,,0*6B
$GPGSV,3,3,11,26,37,179,49,27,21,117,49,30,07,263,48,0*54
$BDGSV,1,1,00,0*74

$GNRMC,085005.00,A,3128.000046,N,12108.457291,E,9.717,269.98,010720,,,A,V*0E
$GNGGA,085005.00,3128.000046,N,12108.457291,E,1,08,1.00,-10.7,M,10.7,M,,*52
$GNGSA,A,3,04,05,09,12,15,17,26,27,,,,,2.82,1.00,2.64,1*00
$GNGSA,A,3,,,,,,,,,,,,,2.82,1.00,2.64,4*0D
$GPGSV,3,1,11,02,14,146,49,04,20,106,49,05,28,277,49,
09,56,331,50,0*6C
$GPGSV,3,2,11,12,39,279,49,15,49,202,50,17,29,044,49,18,04,273,,0*6B
$GPGSV,3,3,11,26,37,179,49,27,21,117,49,30,07,263,48,0*54
$BDGSV,1,1,00,0*74

$GNRMC,085006.00,A,3128.000047,N,12108.454134,E,9.719,270.01,010720,,,A,V*05
$GNGGA,085006.00,3128.000047,N,12108.454134,E,1,08,1.00,-10.7,M,10.7,M,,*5F
$GNGSA,A,3,04,05,09,12,15,17,26,27,,,,,2.82,1.00,2.64,1*00
$GNGSA,A,3,,,,,,,,,,,,,2.82,1.00,2.64,4*0D
$GPGSV,3,1,11,02,14,146,49,04,20,106,49,05,28,277,49,
09,56,331,50,0*6C
$GPGSV,3,2,11,12,39,279,49,15,49,202,50,17,29,044,49,18,04,273,,0*6B
$GPGSV,3,3,11,26,37,179,49,27,21,117,49,30,07,263,48,0*54
$BDGSV,1,1,00,0*74

$GNRMC,085007.00,A,3128.000048,N,12108.450976,E,9.723,270.02,010720,,,A,V*0B
$GNGGA,085007.00,3128.000048,N,12108.450976,E,1,08,1.00,-10.7,M,10.7,M,,*5B
$GNGSA,A,3,04,05,09,12,15,17,26,27,,,,,2.82,1.00,2.64,1*00
$GNGSA,A,3,,,,,,,,,,,,,2.82,1.00,2.64,4*0D
$GPGSV,3,1,11,02,14,146,49,04,20,106,49,05,28,277,49,
09,56,331,50,0*6C
$GPGSV,3,2,11,12,39,279,49,15,49,202,50,17,29,044,49,18,04,273,,0*6B
$GPGSV,3,3,11,26,37,179,49,27,21,117,49,30,07,263,48,0*54
$BDGSV,1,1,00,0*74

$GNRMC,085008.00,A,3128.000049,N,12108.447819,E,9.722,270.02,010720,,,A,V*0A
$GNGGA,085008.00,3128.000049,N,12108.447819,E,1,08,1.00,-10.7,M,10.7,M,,*5B
$GNGSA,A,3,04,05,09,12,15,17,26,27,,,,,2.82,1.00,2.64,1*00
$GNGSA,A,3,,,,,,,,,,,,,2.82,1.00,2.64,4*0D
$GPGSV,3,1,11,02,14,146,49,04,20,106,49,05,28,277,49,
09,56,331,50,0*6C
$GPGSV,3,2,11,12,39,279,50,15,49,202,50,17,29,044,49,18,04,273,,0*63
$GPGSV,3,3,11,26,37,179,49,27,21,117,49,30,07,263,48,0*54
$BDGSV,1,1,00,0*74

$GNRMC,085009.00,A,3128.000048,N,12108.444663,E,9.717,269.99,010720,,,A,V*06
$GNGGA,085009.00,3128.000048,N,12108.444663,E,1,08,1.00,-10.7,M,10.7,M,,*5B
$GNGSA,A,3,04,05,09,12,15,17,26,27,,,,,2.82,1.00,2.64,1*00
$GNGSA,A,3,,,,,,,,,,,,,2.82,1.00,2.64,4*0D
$GPGSV,3,1,11,02,14,146,49,04,20,106,49,05,28,277,49,
09,56,331,50,0*6C
$GPGSV,3,2,11,12,39,279,49,15,49,202,50,17,29,044,49,18,04,273,,0*6B
$GPGSV,3,3,11,26,37,179,49,27,21,117,49,30,07,263,48,0*54
$BDGSV,1,1,00,0*74

$GNRMC,085010.00,A,3128.000049,N,12108.441507,E,9.722,270.02,010720,,,A,V*07
$GNGGA,085010.00,3128.000049,N,12108.441507,E,1,08,1.00,-10.7,M,10.7,M,,*56
$GNGSA,A,3,04,05,09,12,15,17,26,27,,,,,2.83,1.00,2.64,1*01
$GNGSA,A,3,,,,,,,,,,,,,2.83,1.00,2.64,4*0C
$GPGSV,3,1,11,02,14,146,49,04,20,106,49,05,28,277,49,
09,56,331,50,0*6C
$GPGSV,3,2,11,12,39,279,49,15,49,202,50,17,29,044,49,18,04,273,,0*6B
$GPGSV,3,3,11,26,37,179,49,27,21,117,49,30,07,263,48,0*54
$BDGSV,1,1,00,0*74

$GNRMC,085011.00,A,3128.000050,N,12108.438352,E,9.726,270.01,010720,,,A,V*01
$GNGGA,085011.00,3128.000050,N,12108.438352,E,1,08,1.00,-10.7,M,10.7,M,,*57
$GNGSA,A,3,04,05,09,12,15,17,26,27,,,,,2.83,1.00,2.64,1*01
$GNGSA,A,3,,,,,,,,,,,,,2.83,1.00,2.64,4*0C
$GPGSV,3,1,11,02,14,146,49,04,20,106,49,05,28,277,49,
09,56,331,50,0*6C
$GPGSV,3,2,11,12,39,279,49,15,49,202,50,17,29,044,49,18,04,273,,0*6B
$GPGSV,3,3,11,26,37,179,49,27,21,117,49,30,07,263,48,0*54
$BDGSV,1,1,00,0*74
<??????????????>

$GNRMC,085012.00,A,3128.000051,N,12108.435194,E,9.726,270.04,010720,,,A,V*03
$GNGGA,085012.00,3128.000051,N,12108.435194,E,1,08,1.00,-10.7,M,10.7,M,,*50
$GNGSA,A,3,04,05,09,12,15,17,26,27,,,,,2.83,1.00,2.64,1*01
$GNGSA,A,3,,,,,,,,,,,,,2.83,1.00,2.64,4*0C
$GPGSV,3,1,11,02,14,146,49,04,20,106,49,05,28,277,49,
09,56,331,50,0*6C
$GPGSV,3,2,11,12,39,279,49,15,49,202,50,17,29,044,49,18,04,273,,0*6B
$GPGSV,3,3,11,26,37,179,49,27,21,117,49,30,07,263,48,0*54
$BDGSV,1,1,00,0*74

$GNRMC,085013.00,A,3128.000050,N,12108.432037,E,9.716,269.98,010720,,,A,V*02
$GNGGA,085013.00,3128.000050,N,12108.432037,E,1,08,1.00,-10.7,M,10.7,M,,*5F
$GNGSA,A,3,04,05,09,12,15,17,26,27,,,,,2.83,1.00,2.64,1*01
$GNGSA,A,3,,,,,,,,,,,,,2.83,1.00,2.64,4*0C
$GPGSV,3,1,11,02,14,146,49,04,20,106,49,05,28,277,49,
09,56,331,50,0*6C
$GPGSV,3,2,11,12,39,279,49,15,49,202,49,17,29,044,49,18,04,273,,0*63
$GPGSV,3,3,11,26,37,179,49,27,21,117,49,30,07,263,48,0*54
$BDGSV,1,1,00,0*74

$GNRMC,085014.00,A,3128.000050,N,12108.428880,E,9.719,270.00,010720,,,A,V*0C
$GNGGA,085014.00,3128.000050,N,12108.428880,E,1,08,1.00,-10.7,M,10.7,M,,*57
$GNGSA,A,3,04,05,09,12,15,17,26,27,,,,,2.83,1.00,2.64,1*01
$GNGSA,A,3,,,,,,,,,,,,,2.83,1.00,2.64,4*0C
$GPGSV,3,1,11,02,14,146,49,04,20,106,49,05,28,277,49,
09,56,331,50,0*6C
$GPGSV,3,2,11,12,39,279,50,15,49,202,50,17,29,044,49,18,04,273,,0*63
$GPGSV,3,3,11,26,37,179,49,27,21,117,49,30,07,263,48,0*54
$BDGSV,1,1,00,0*74

$GNRMC,085015.00,A,3128.000050,N,12108.425724,E,9.718,270.02,010720,,,A,V*02
$GNGGA,085015.00,3128.000050,N,12108.425724,E,1,08,1.00,-10.7,M,10.7,M,,*5A
$GNGSA,A,3,04,05,09,12,15,17,26,27,,,,,2.83,1.00,2.64,1*01
$GNGSA,A,3,,,,,,,,,,,,,2.83,1.00,2.64,4*0C
$GPGSV,3,1,11,02,14,146,49,04,20,106,49,05,28,277,49,
09,56,331,50,0*6C
$GPGSV,3,2,11,12,39,279,50,15,49,202,50,17,29,044,49,18,04,273,,0*63
$GPGSV,3,3,11,26,37,179,49,27,21,117,49,30,07,263,48,0*54
$BDGSV,1,1,00,0*74

$GNRMC,085016.00,A,3128.000050,N,12108.422567,E,9.721,270.02,010720,,,A,V*09
$GNGGA,085016.00,3128.000050,N,12108.422567,E,1,08,1.00,-10.7,M,10.7,M,,*5B
$GNGSA,A,3,04,05,09,12,15,17,26,27,,,,,2.83,1.00,2.64,1*01
$GNGSA,A,3,,,,,,,,,,,,,2.83,1.00,2.64,4*0C
$GPGSV,3,1,11,02,14,146,49,04,20,106,49,05,28,277,49,
09,56,331,50,0*6C
$GPGSV,3,2,11,12,39,279,49,15,49,202,50,17,29,044,49,18,04,273,,0*6B
$GPGSV,3,3,11,26,37,179,49,27,21,117,49,30,07,263,48,0*54
$BDGSV,1,1,00,0*74

$GNRMC,085017.00,A,3128.000051,N,12108.419411,E,9.717,270.00,010720,,,A,V*06
$GNGGA,085017.00,3128.000051,N,12108.419411,E,1,08,1.00,-10.7,M,10.7,M,,*53
$GNGSA,A,3,04,05,09,12,15,17,26,27,,,,,2.83,1.00,2.64,1*01
$GNGSA,A,3,,,,,,,,,,,,,2.83,1.00,2.64,4*0C
$GPGSV,3,1,11,02,14,146,49,04,20,106,49,05,28,277,49,
09,56,331,50,0*6C
$GPGSV,3,2,11,12,39,279,50,15,49,202,50,17,29,044,49,18,04,273,,0*63
$GPGSV,3,3,11,26,37,179,49,27,21,117,49,30,07,263,48,0*54
$BDGSV,1,1,00,0*74

$GNRMC,085018.00,A,3128.000051,N,12108.416253,E,9.722,270.00,010720,,,A,V*00
$GNGGA,085018.00,3128.000051,N,12108.416253,E,1,08,1.00,-10.7,M,10.7,M,,*53
$GNGSA,A,3,04,05,09,12,15,17,26,27,,,,,2.83,1.00,2.64,1*01
$GNGSA,A,3,,,,,,,,,,,,,2.83,1.00,2.64,4*0C
$GPGSV,3,1,11,02,14,146,49,04,20,106,49,05,28,277,49,
09,56,331,50,0*6C
$GPGSV,3,2,11,12,39,279,50,15,49,202,50,17,29,044,49,18,04,273,,0*63
$GPGSV,3,3,11,26,37,179,49,27,21,117,49,30,07,263,48,0*54
$BDGSV,1,1,00,0*74

$GNRMC,085019.00,A,3128.000052,N,12108.413097,E,9.719,270.02,010720,,,A,V*07
$GNGGA,085019.00,3128.000052,N,12108.413097,E,1,08,1.00,-10.7,M,10.7,M,,*5E
$GNGSA,A,3,04,05,09,12,15,17,26,27,,,,,2.83,1.00,2.64,1*01
$GNGSA,A,3,,,,,,,,,,,,,2.83,1.00,2.64,4*0C
$GPGSV,3,1,11,02,14,146,49,04,20,106,49,05,28,277,49,
09,56,331,50,0*6C
$GPGSV,3,2,11,12,39,279,49,15,49,202,50,17,29,044,49,18,04,273,,0*6B
$GPGSV,3,3,11,26,37,179,49,27,21,117,49,30,07,263,48,0*54
$BDGSV,1,1,00,0*74

$GNRMC,085020.00,A,3128.000052,N,12108.409940,E,9.725,270.02,010720,,,A,V*0A
$GNGGA,085020.00,3128.000052,N,12108.409940,E,1,08,1.00,-10.7,M,10.7,M,,*5C
$GNGSA,A,3,04,05,09,12,15,17,26,27,,,,,2.83,1.00,2.64,1*01
$GNGSA,A,3,,,,,,,,,,,,,2.83,1.00,2.64,4*0C
$GPGSV,3,1,11,02,14,146,49,04,20,106,49,05,28,277,49,
09,56,331,50,0*6C
$GPGSV,3,2,11,12,39,279,50,15,49,202,50,17,29,044,49,18,04,273,,0*63
$GPGSV,3,3,11,26,37,179,49,27,21,117,49,30,07,263,48,0*54
$BDGSV,1,1,00,0*74

$GNRMC,085021.00,A,3128.000052,N,12108.406784,E,9.727,270.02,010720,,,A,V*00
$GNGGA,085021.00,3128.000052,N,12108.406784,E,1,08,1.00,-10.7,M,10.7,M,,*54
$GNGSA,A,3,04,05,09,12,15,17,26,27,,,,,2.83,1.00,2.64,1*01
$GNGSA,A,3,,,,,,,,,,,,,2.83,1.00,2.64,4*0C
$GPGSV,3,1,11,02,14,146,49,04,20,106,49,05,28,277,49,
09,56,331,50,0*6C
$GPGSV,3,2,11,12,39,279,50,15,49,202,50,17,29,044,49,18,04,273,,0*63
$GPGSV,3,3,11,26,37,179,49,27,21,117,49,30,07,263,48,0*54
$BDGSV,1,1,00,0*74
<????sim??????(SIM??:1)>
<????GSM????????(GSM:0)>
<????GPRS????????(GPRS:0)>
<????????????(SIGNAL:0)>
<????????????????(BER:0)>

<??????????????>

$GNRMC,085022.00,A,3128.000054,N,12108.403627,E,9.721,270.03,010720,,,A,V*0F
$GNGGA,085022.00,3128.000054,N,12108.403627,E,1,08,1.00,-10.7,M,10.7,M,,*5C
$GNGSA,A,3,04,05,09,12,15,17,26,27,,,,,2.83,1.00,2.65,1*00
$GNGSA,A,3,,,,,,,,,,,,,2.83,1.00,2.65,4*0D
$GPGSV,3,1,11,02,14,146,49,04,20,106,49,05,28,277,49,
09,56,331,50,0*6C
$GPGSV,3,2,11,12,39,279,49,15,49,202,50,17,29,044,49,18,04,273,,0*6B
$GPGSV,3,3,11,26,37,179,49,27,21,117,49,30,07,263,48,0*54
$BDGSV,1,1,00,0*74

$GNRMC,085023.00,A,3128.000055,N,12108.400470,E,9.719,269.99,010720,,,A,V*0C
$GNGGA,085023.00,3128.000055,N,12108.400470,E,1,08,1.00,-10.7,M,10.7,M,,*5F
$GNGSA,A,3,04,05,09,12,15,17,26,27,,,,,2.83,1.00,2.65,1*00
$GNGSA,A,3,,,,,,,,,,,,,2.83,1.00,2.65,4*0D
$GPGSV,3,1,11,02,14,146,49,04,20,106,49,05,28,277,49,
09,56,331,50,0*6C
$GPGSV,3,2,11,12,39,279,49,15,48,202,50,17,29,044,49,18,04,273,,0*6A
$GPGSV,3,3,11,26,37,179,49,27,21,117,49,30,07,263,48,0*54
$BDGSV,1,1,00,0*74

$GNRMC,085024.00,A,3128.000056,N,12108.397314,E,9.718,270.00,010720,,,A,V*0D
$GNGGA,085024.00,3128.000056,N,12108.397314,E,1,08,1.00,-10.7,M,10.7,M,,*57
$GNGSA,A,3,04,05,09,12,15,17,26,27,,,,,2.83,1.00,2.65,1*00
$GNGSA,A,3,,,,,,,,,,,,,2.83,1.00,2.65,4*0D
$GPGSV,3,1,11,02,14,146,49,04,20,106,49,05,28,277,49,
09,56,331,50,0*6C
$GPGSV,3,2,11,12,39,279,49,15,48,202,50,17,29,044,49,18,04,273,,0*6A
$GPGSV,3,3,11,26,37,179,49,27,21,117,49,30,07,263,48,0*54
$BDGSV,1,1,00,0*74

$GNRMC,085025.00,A,3128.000057,N,12108.394158,E,9.720,270.02,010720,,,A,V*0D
$GNGGA,085025.00,3128.000057,N,12108.394158,E,1,08,1.00,-10.7,M,10.7,M,,*5E
$GNGSA,A,3,04,05,09,12,15,17,26,27,,,,,2.83,1.00,2.65,1*00
$GNGSA,A,3,,,,,,,,,,,,,2.83,1.00,2.65,4*0D
$GPGSV,3,1,11,02,14,146,49,04,20,106,49,05,28,277,49,
09,56,331,50,0*6C
$GPGSV,3,2,11,12,39,279,49,15,48,202,50,17,29,044,49,18,04,272,,0*6B
$GPGSV,3,3,11,26,37,179,49,27,21,117,49,30,07,263,48,0*54
$BDGSV,1,1,00,0*74

$GNRMC,085026.00,A,3128.000057,N,12108.391001,E,9.723,270.00,010720,,,A,V*07
$GNGGA,085026.00,3128.000057,N,12108.391001,E,1,08,1.00,-10.7,M,10.7,M,,*55
$GNGSA,A,3,04,05,09,12,15,17,26,27,,,,,2.83,1.00,2.65,1*00
$GNGSA,A,3,,,,,,,,,,,,,2.83,1.00,2.65,4*0D
$GPGSV,3,1,11,02,14,146,49,04,20,106,49,05,28,277,49,
09,56,331,50,0*6C
$GPGSV,3,2,11,12,39,279,49,15,48,202,50,17,29,044,49,18,04,272,,0*6B
$GPGSV,3,3,11,26,37,179,49,27,21,117,49,30,07,263,48,0*54
$BDGSV,1,1,00,0*74

$GNRMC,085027.00,A,3128.000057,N,12108.387844,E,9.725,270.02,010720,,,A,V*0C
$GNGGA,085027.00,3128.000057,N,12108.387844,E,1,08,1.00,-10.7,M,10.7,M,,*5A
$GNGSA,A,3,04,05,09,12,15,17,26,27,,,,,2.83,1.00,2.65,1*00
$GNGSA,A,3,,,,,,,,,,,,,2.83,1.00,2.65,4*0D
$GPGSV,3,1,11,02,14,146,49,04,20,106,49,05,28,277,49,
09,56,331,50,0*6C
$GPGSV,3,2,11,12,39,279,49,15,48,202,50,17,29,044,49,18,04,272,,0*6B
$GPGSV,3,3,11,26,37,179,49,27,21,117,49,30,07,263,48,0*54
$BDGSV,1,1,00,0*74

$GNRMC,085028.00,A,3128.000057,N,12108.384686,E,9.722,270.02,010720,,,A,V*07
$GNGGA,085028.00,3128.000057,N,12108.384686,E,1,08,1.00,-10.7,M,10.7,M,,*56
$GNGSA,A,3,04,05,09,12,15,17,26,27,,,,,2.83,1.00,2.65,1*00
$GNGSA,A,3,,,,,,,,,,,,,2.83,1.00,2.65,4*0D
$GPGSV,3,1,11,02,14,146,49,04,20,106,49,05,28,277,49,
09,56,331,50,0*6C
$GPGSV,3,2,11,12,39,279,49,15,48,202,50,17,29,044,49,18,04,272,,0*6B
$GPGSV,3,3,11,26,37,179,49,27,21,117,49,30,07,263,48,0*54
$BDGSV,1,1,00,0*74

$GNRMC,085029.00,A,3128.000059,N,12108.381530,E,9.723,270.03,010720,,,A,V*03
$GNGGA,085029.00,3128.000059,N,12108.381530,E,1,08,1.00,-10.7,M,10.7,M,,*52
$GNGSA,A,3,04,05,09,12,15,17,26,27,,,,,2.83,1.00,2.65,1*00
$GNGSA,A,3,,,,,,,,,,,,,2.83,1.00,2.65,4*0D
$GPGSV,3,1,11,02,14,146,49,04,20,106,49,05,28,277,49,
09,56,331,50,0*6C
$GPGSV,3,2,11,12,39,279,49,15,48,202,50,17,29,044,49,18,04,272,,0*6B
$GPGSV,3,3,11,26,37,179,49,27,21,117,49,30,07,263,48,0*54
$BDGSV,1,1,00,0*74

GPS HPregnss> E1 15 00 00 00 00 07 53 8F 3E 82 00 00 00 1C 34 7D 02 86 00 00 00 00 


$GNRMC,085030.00,A,3128.000058,N,12108.378373,E,9.724,270.00,010720,,,A,V*09
$GNGGA,085030.00,3128.000058,N,12108.378373,E,1,08,1.00,-10.7,M,10.7,M,,*5C
$GNGSA,A,3,04,05,09,12,15,17,26,27,,,,,2.83,1.00,2.65,1*00
$GNGSA,A,3,,,,,,,,,,,,,2.83,1.00,2.65,4*0D
$GPGSV,3,1,11,02,14,146,48,04,20,106,49,05,28,277,49,
09,56,331,50,0*6D
$GPGSV,3,2,11,12,39,279,49,15,48,202,50,17,29,044,49,18,04,272,,0*6B
$GPGSV,3,3,11,26,37,179,49,27,21,117,49,30,07,263,48,0*54
$BDGSV,1,1,00,0*74

$GNRMC,085031.00,A,3128.000058,N,12108.375217,E,9.729,270.03,010720,,,A,V*08
$GNGGA,085031.00,3128.000058,N,12108.375217,E,1,08,1.00,-10.7,M,10.7,M,,*53
$GNGSA,A,3,04,05,09,12,15,17,26,27,,,,,2.83,1.00,2.65,1*00
$GNGSA,A,3,,,,,,,,,,,,,2.83,1.00,2.65,4*0D
$GPGSV,3,1,11,02,14,146,49,04,20,106,49,05,28,277,49,
09,56,331,50,0*6C
$GPGSV,3,2,11,12,39,279,49,15,48,202,50,17,29,044,49,18,04,272,,0*6B
$GPGSV,3,3,11,26,37,179,49,27,21,117,49,30,07,263,48,0*54
$BDGSV,1,1,00,0*74
<??????????????>

$GNRMC,085032.00,A,3128.000059,N,12108.372061,E,9.726,270.00,010720,,,A,V*02
$GNGGA,085032.00,3128.000059,N,12108.372061,E,1,08,1.00,-10.8,M,10.7,M,,*5A
$GNGSA,A,3,04,05,09,12,15,17,26,27,,,,,2.83,1.00,2.65,1*00
$GNGSA,A,3,,,,,,,,,,,,,2.83,1.00,2.65,4*0D
$GPGSV,3,1,11,02,14,146,49,04,20,106,49,05,28,277,49,
09,56,331,50,0*6C
$GPGSV,3,2,11,12,39,279,49,15,48,202,50,17,29,044,49,18,04,272,,0*6B
$GPGSV,3,3,11,26,36,179,49,27,21,117,49,30,07,263,48,0*55
$BDGSV,1,1,00,0*74

$GNRMC,085033.00,A,3128.000059,N,12108.368903,E,9.721,270.01,010720,,,A,V*03
$GNGGA,085033.00,3128.000059,N,12108.368903,E,1,08,1.00,-10.8,M,10.7,M,,*5D
$GNGSA,A,3,04,05,09,12,15,17,26,27,,,,,2.83,1.00,2.65,1*00
$GNGSA,A,3,,,,,,,,,,,,,2.83,1.00,2.65,4*0D
$GPGSV,3,1,11,02,14,146,49,04,20,106,49,05,28,277,49,
09,56,331,50,0*6C
$GPGSV,3,2,11,12,39,279,49,15,48,202,50,17,29,044,49,18,04,272,,0*6B
$GPGSV,3,3,11,26,36,179,49,27,21,117,49,30,07,263,48,0*55
$BDGSV,1,1,00,0*74

$GNRMC,085034.00,A,3128.000059,N,12108.365748,E,9.714,269.99,010720,,,A,V*07
$GNGGA,085034.00,3128.000059,N,12108.365748,E,1,08,1.00,-10.8,M,10.7,M,,*56
$GNGSA,A,3,04,05,09,12,15,17,26,27,,,,,2.83,1.00,2.65,1*00
$GNGSA,A,3,,,,,,,,,,,,,2.83,1.00,2.65,4*0D
$GPGSV,3,1,11,02,14,146,49,04,20,106,49,05,28,277,49,
