$GPGGA,082845,3128.00000,N,12112.49788,E,3,11,0.78,-10.18,M,10.18,M,,*62
$GPRMC,082845,A,3128.00000,N,12112.49788,E,9.719,270.000,010720,0.000,E,A,V*66
$GPGGA,082846,3128.00000,N,12112.49472,E,3,11,0.78,-10.18,M,10.18,M,,*67
$GPRMC,082846,A,3128.00000,N,12112.49472,E,9.719,270.000,010720,0.000,E,A,V*63
$GPGGA,082847,3128.00000,N,12112.49156,E,3,11,0.78,-10.18,M,10.18,M,,*65
$GPRMC,082847,A,3128.00000,N,12112.49156,E,9.719,270.000,010720,0.000,E,A,V*61
$GPGGA,082848,3128.00000,N,12112.48841,E,3,11,0.78,-10.18,M,10.18,M,,*64
$GPRMC,082848,A,3128.00000,N,12112.48841,E,9.719,270.000,010720,0.000,E,A,V*60
$GPGGA,082849,3128.00000,N,12112.48525,E,3,11,0.78,-10.18,M,10.18,M,,*6A
$GPRMC,082849,A,3128.00000,N,12112.48525,E,9.719,270.000,010720,0.000,E,A,V*6E
$GPGGA,082850,3128.00000,N,12112.48209,E,3,11,0.78,-10.18,M,10.18,M,,*6B
$GPRMC,082850,A,3128.00000,N,12112.48209,E,9.719,270.000,010720,0.000,E,A,V*6F
$GPGGA,082851,3128.00000,N,12112.47893,E,3,11,0.78,-10.18,M,10.18,M,,*6C
$GPRMC,082851,A,3128.00000,N,12112.47893,E,9.719,270.000,010720,0.000,E,A,V*68
$GPGGA,082852,3128.00000,N,12112.47578,E,3,11,0.78,-10.18,M,10.18,M,,*67
$GPRMC,082852,A,3128.00000,N,12112.47578,E,9.719,270.000,010720,0.000,E,A,V*63
$GPGGA,082853,3128.00000,N,12112.47262,E,3,11,0.78,-10.18,M,10.18,M,,*6A
$GPRMC,082853,A,3128.00000,N,12112.47262,E,9.719,270.000,010720,0.000,E,A,V*6E
$GPGGA,082854,3128.00000,N,12112.46946,E,3,11,0.78,-10.18,M,10.18,M,,*61
$GPRMC,082854,A,3128.00000,N,12112.46946,E,9.719,270.000,010720,0.000,E,A,V*65
$GPGGA,082855,3128.00000,N,12112.46631,E,3,11,0.78,-10.18,M,10.18,M,,*6F
$GPRMC,082855,A,3128.00000,N,12112.46631,E,9.719,270.000,010720,0.000,E,A,V*6B
$GPGGA,082856,3128.00000,N,12112.46315,E,3,11,0.78,-10.18,M,10.18,M,,*6F
$GPRMC,082856,A,3128.00000,N,12112.46315,E,9.719,270.000,010720,0.000,E,A,V*6B
$GPGGA,082857,3128.00000,N,12112.45999,E,3,11,0.78,-10.18,M,10.18,M,,*63
$GPRMC,082857,A,3128.00000,N,12112.45999,E,9.719,270.000,010720,0.000,E,A,V*67
$GPGGA,082858,3128.00000,N,12112.45684,E,3,11,0.78,-10.18,M,10.18,M,,*6F
$GPRMC,082858,A,3128.00000,N,12112.45684,E,9.719,270.000,010720,0.000,E,A,V*6B
$GPGGA,082859,3128.00000,N,12112.45368,E,3,11,0.78,-10.18,M,10.18,M,,*69
$GPRMC,082859,A,3128.00000,N,12112.45368,E,9.719,270.000,010720,0.000,E,A,V*6D
$GPGGA,082900,3128.00000,N,12112.45052,E,3,11,0.78,-10.17,M,10.17,M,,*6E
$GPRMC,082900,A,3128.00000,N,12112.45052,E,9.719,270.000,010720,0.000,E,A,V*6A
$GPGGA,082901,3128.00000,N,12112.44737,E,3,11,0.78,-10.17,M,10.17,M,,*6A
$GPRMC,082901,A,3128.00000,N,12112.44737,E,9.719,270.000,010720,0.000,E,A,V*6E
$GPGGA,082902,3128.00000,N,12112.44421,E,3,11,0.78,-10.17,M,10.17,M,,*6D
$GPRMC,082902,A,3128.00000,N,12112.44421,E,9.719,270.000,010720,0.000,E,A,V*69
$GPGGA,082903,3128.00000,N,12112.44105,E,3,11,0.78,-10.17,M,10.17,M,,*6F
$GPRMC,082903,A,3128.00000,N,12112.44105,E,9.719,270.000,010720,0.000,E,A,V*6B
$GPGGA,082904,3128.00000,N,12112.43790,E,3,11,0.78,-10.17,M,10.17,M,,*65
$GPRMC,082904,A,3128.00000,N,12112.43790,E,9.719,270.000,010720,0.000,E,A,V*61
$GPGGA,082905,3128.00000,N,12112.43474,E,3,11,0.78,-10.17,M,10.17,M,,*6D
$GPRMC,082905,A,3128.00000,N,12112.43474,E,9.719,270.000,010720,0.000,E,A,V*69
$GPGGA,082906,3128.00000,N,12112.43158,E,3,11,0.78,-10.17,M,10.17,M,,*65
$GPRMC,082906,A,3128.00000,N,12112.43158,E,9.719,270.000,010720,0.000,E,A,V*61
$GPGGA,082907,3128.00000,N,12112.42843,E,3,11,0.78,-10.17,M,10.17,M,,*66
$GPRMC,082907,A,3128.00000,N,12112.42843,E,9.719,270.000,010720,0.000,E,A,V*62
$GPGGA,082908,3128.00000,N,12112.42527,E,3,11,0.78,-10.17,M,10.17,M,,*66
$GPRMC,082908,A,3128.00000,N,12112.42527,E,9.719,270.000,010720,0.000,E,A,V*62
$GPGGA,082909,3128.00000,N,12112.42211,E,3,11,0.78,-10.17,M,10.17,M,,*65
$GPRMC,082909,A,3128.00000,N,12112.42211,E,9.719,270.000,010720,0.000,E,A,V*61
$GPGGA,082910,3128.00000,N,12112.41896,E,3,11,0.78,-10.17,M,10.17,M,,*6B
$GPRMC,082910,A,3128.00000,N,12112.41896,E,9.719,270.000,010720,0.000,E,A,V*6F
$GPGGA,082911,3128.00000,N,12112.41580,E,3,11,0.78,-10.17,M,10.17,M,,*60
$GPRMC,082911,A,3128.00000,N,12112.41580,E,9.719,270.000,010720,0.000,E,A,V*64
$GPGGA,082912,3128.00000,N,12112.41264,E,3,11,0.78,-10.17,M,10.17,M,,*6E
$GPRMC,082912,A,3128.00000,N,12112.41264,E,9.719,270.000,010720,0.000,E,A,V*6A
$GPGGA,082913,3128.00000,N,12112.40949,E,3,11,0.78,-10.17,M,10.17,M,,*6A
$GPRMC,082913,A,3128.00000,N,12112.40949,E,9.719,270.000,010720,0.000,E,A,V*6E
$GPGGA,082914,3128.00000,N,12112.40633,E,3,11,0.78,-10.17,M,10.17,M,,*6F
$GPRMC,082914,A,3128.00000,N,12112.40633,E,9.719,270.000,010720,0.000,E,A,V*6B
$GPGGA,082915,3128.00000,N,12112.40317,E,3,11,0.78,-10.17,M,10.17,M,,*6D
$GPRMC,082915,A,3128.00000,N,12112.40317,E,9.719,270.000,010720,0.000,E,A,V*69
$GPGGA,082916,3128.00000,N,12112.40002,E,3,11,0.78,-10.17,M,10.17,M,,*69
$GPRMC,082916,A,3128.00000,N,12112.40002,E,9.719,270.000,010720,0.000,E,A,V*6D
$GPGGA,082917,3128.00000,N,12112.39686,E,3,11,0.78,-10.17,M,10.17,M,,*6C
$GPRMC,082917,A,3128.00000,N,12112.39686,E,9.719,270.000,010720,0.000,E,A,V*68
$GPGGA,082918,3128.00000,N,12112.39370,E,3,11,0.78,-10.17,M,10.17,M,,*6F
$GPRMC,082918,A,3128.00000,N,12112.39370,E,9.719,270.000,010720,0.000,E,A,V*6B
$GPGGA,082919,3128.00000,N,12112.39055,E,3,11,0.78,-10.17,M,10.17,M,,*6A
$GPRMC,082919,A,3128.00000,N,12112.39055,E,9.719,270.000,010720,0.000,E,A,V*6E
$GPGGA,082920,3128.00000,N,12112.38739,E,3,11,0.78,-10.17,M,10.17,M,,*6C
$GPRMC,082920,A,3128.00000,N,12112.38739,E,9.719,270.000,010720,0.000,E,A,V*68
$GPGGA,082921,3128.00000,N,12112.38423,E,3,11,0.78,-10.17,M,10.17,M,,*65
$GPRMC,082921,A,3128.00000,N,12112.38423,E,9.719,270.000,010720,0.000,E,A,V*61
$GPGGA,082922,3128.00000,N,12112.38108,E,3,11,0.78,-10.17,M,10.17,M,,*6A
$GPRMC,082922,A,3128.00000,N,12112.38108,E,9.719,270.000,010720,0.000,E,A,V*6E
$GPGGA,082923,3128.00000,N,12112.37792,E,3,11,0.78,-10.17,M,10.17,M,,*61
$GPRMC,082923,A,3128.00000,N,12112.37792,E,9.719,270.000,010720,0.000,E,A,V*65
$GPGGA,082924,3128.00000,N,12112.37476,E,3,11,0.78,-10.17,M,10.17,M,,*6F
$GPRMC,082924,A,3128.00000,N,12112.37476,E,9.719,270.000,010720,0.000,E,A,V*6B
$GPGGA,082925,3128.00000,N,12112.37161,E,3,11,0.78,-10.17,M,10.17,M,,*6D
$GPRMC,082925,A,3128.00000,N,12112.37161,E,9.719,270.000,010720,0.000,E,A,V*69
$GPGGA,082926,3128.00000,N,12112.36845,E,3,11,0.78,-10.17,M,10.17,M,,*60
$GPRMC,082926,A,3128.00000,N,12112.36845,E,9.719,270.000,010720,0.000,E,A,V*64
$GPGGA,082927,3128.00000,N,12112.36529,E,3,11,0.78,-10.17,M,10.17,M,,*66
$GPRMC,082927,A,3128.00000,N,12112.36529,E,9.719,270.000,010720,0.000,E,A,V*62
$GPGGA,082928,3128.00000,N,12112.36214,E,3,11,0.78,-10.17,M,10.17,M,,*60
$GPRMC,082928,A,3128.00000,N,12112.36214,E,9.719,270.000,010720,0.000,E,A,V*64
$GPGGA,082929,3128.00000,N,12112.35898,E,3,11,0.78,-10.17,M,10.17,M,,*6C
$GPRMC,082929,A,3128.00000,N,12112.35898,E,9.719,270.000,010720,0.000,E,A,V*68
$GPGGA,082930,3128.00000,N,12112.35582,E,3,11,0.78,-10.17,M,10.17,M,,*62
$GPRMC,082930,A,3128.00000,N,12112.35582,E,9.719,270.000,010720,0.000,E,A,V*66
$GPGGA,082931,3128.00000,N,12112.35267,E,3,11,0.78,-10.17,M,10.17,M,,*6F
$GPRMC,082931,A,3128.00000,N,12112.35267,E,9.719,270.000,010720,0.000,E,A,V*6B
$GPGGA,082932,3128.00000,N,12112.34951,E,3,11,0.78,-10.17,M,10.17,M,,*63
$GPRMC,082932,A,3128.00000,N,12112.34951,E,9.719,270.000,010720,0.000,E,A,V*67
$GPGGA,082933,3128.00000,N,12112.34635,E,3,11,0.78,-10.17,M,10.17,M,,*6F
$GPRMC,082933,A,3128.00000,N,12112.34635,E,9.719,270.000,010720,0.000,E,A,V*6B
$GPGGA,082934,3128.00000,N,12112.34320,E,3,11,0.78,-10.17,M,10.17,M,,*69
$GPRMC,082934,A,3128.00000,N,12112.34320,E,9.719,270.000,010720,0.000,E,A,V*6D
$GPGGA,082935,3128.00000,N,12112.34004,E,3,11,0.78,-10.17,M,10.17,M,,*6D
$GPRMC,082935,A,3128.00000,N,12112.34004,E,9.719,270.000,010720,0.000,E,A,V*69
$GPGGA,082936,3128.00000,N,12112.33688,E,3,11,0.78,-10.17,M,10.17,M,,*6B
$GPRMC,082936,A,3128.00000,N,12112.33688,E,9.719,270.000,010720,0.000,E,A,V*6F
$GPGGA,082937,3128.00000,N,12112.33373,E,3,11,0.78,-10.17,M,10.17,M,,*6B
$GPRMC,082937,A,3128.00000,N,12112.33373,E,9.719,270.000,010720,0.000,E,A,V*6F
$GPGGA,082938,3128.00000,N,12112.33057,E,3,11,0.78,-10.17,M,10.17,M,,*61
$GPRMC,082938,A,3128.00000,N,12112.33057,E,9.719,270.000,010720,0.000,E,A,V*65
$GPGGA,082939,3128.00000,N,12112.32741,E,3,11,0.78,-10.17,M,10.17,M,,*61
$GPRMC,082939,A,3128.00000,N,12112.32741,E,9.719,270.000,010720,0.000,E,A,V*65
$GPGGA,082940,3128.00000,N,12112.32426,E,3,11,0.78,-10.17,M,10.17,M,,*6D
$GPRMC,082940,A,3128.00000,N,12112.32426,E,9.719,270.000,010720,0.000,E,A,V*69
$GPGGA,082941,3128.00000,N,12112.32110,E,3,11,0.78,-10.17,M,10.17,M,,*6C
$GPRMC,082941,A,3128.00000,N,12112.32110,E,9.719,270.000,010720,0.000,E,A,V*68
$GPGGA,082942,3128.00000,N,12112.31794,E,3,11,0.78,-10.17,M,10.17,M,,*66
$GPRMC,082942,A,3128.00000,N,12112.31794,E,9.719,270.000,010720,0.000,E,A,V*62
$GPGGA,082943,3128.00000,N,12112.31479,E,3,11,0.78,-10.17,M,10.17,M,,*67
$GPRMC,082943,A,3128.00000,N,12112.31479,E,9.719,270.000,010720,0.000,E,A,V*63
$GPGGA,082944,3128.00000,N,12112.31163,E,3,11,0.78,-10.17,M,10.17,M,,*6E
$GPRMC,082944,A,3128.00000,N,12112.31163,E,9.719,270.000,010720,0.000,E,A,V*6A
$GPGGA,082945,3128.00000,N,12112.30847,E,3,11,0.78,-10.17,M,10.17,M,,*61
$GPRMC,082945,A,3128.00000,N,12112.30847,E,9.719,270.000,010720,0.000,E,A,V*65
$GPGGA,082946,3128.00000,N,12112.30532,E,3,11,0.78,-10.17,M,10.17,M,,*6D
$GPRMC,082946,A,3128.00000,N,12112.30532,E,9.719,270.000,010720,0.000,E,A,V*69
$GPGGA,082947,3128.00000,N,12112.30216,E,3,11,0.78,-10.17,M,10.17,M,,*6D
$GPRMC,082947,A,3128.00000,N,12112.30216,E,9.719,270.000,010720,0.000,E,A,V*69
$GPGGA,082948,3128.00000,N,12112.29900,E,3,11,0.78,-10.17,M,10.17,M,,*66
$GPRMC,082948,A,3128.00000,N,12112.29900,E,9.719,270.000,010720,0.000,E,A,V*62
$GPGGA,082949,3128.00000,N,12112.29585,E,3,11,0.78,-10.17,M,10.17,M,,*66
$GPRMC,082949,A,3128.00000,N,12112.29585,E,9.719,270.000,010720,0.000,E,A,V*62
$GPGGA,082950,3128.00000,N,12112.29269,E,3,11,0.78,-10.17,M,10.17,M,,*6B
$GPRMC,082950,A,3128.00000,N,12112.29269,E,9.719,270.000,010720,0.000,E,A,V*6F
$GPGGA,082951,3128.00000,N,12112.28953,E,3,11,0.78,-10.17,M,10.17,M,,*69
$GPRMC,082951,A,3128.00000,N,12112.28953,E,9.719,270.000,010720,0.000,E,A,V*6D
$GPGGA,082952,3128.00000,N,12112.28638,E,3,11,0.78,-10.17,M,10.17,M,,*68
$GPRMC,082952,A,3128.00000,N,12112.28638,E,9.719,270.000,010720,0.000,E,A,V*6C
$GPGGA,082953,3128.00000,N,12112.28322,E,3,11,0.78,-10.17,M,10.17,M,,*67
$GPRMC,082953,A,3128.00000,N,12112.28322,E,9.719,270.000,010720,0.000,E,A,V*63
$GPGGA,082954,3128.00000,N,12112.28006,E,3,11,0.78,-10.17,M,10.17,M,,*65
$GPRMC,082954,A,3128.00000,N,12112.28006,E,9.719,270.000,010720,0.000,E,A,V*61
$GPGGA,082955,3128.00000,N,12112.27691,E,3,11,0.78,-10.16,M,10.16,M,,*63
$GPRMC,082955,A,3128.00000,N,12112.27691,E,9.719,270.000,010720,0.000,E,A,V*67
$GPGGA,082956,3128.00000,N,12112.27375,E,3,11,0.78,-10.16,M,10.16,M,,*6F
$GPRMC,082956,A,3128.00000,N,12112.27375,E,9.719,270.000,010720,0.000,E,A,V*6B
$GPGGA,082957,3128.00000,N,12112.27059,E,3,11,0.78,-10.16,M,10.16,M,,*63
$GPRMC,082957,A,3128.00000,N,12112.27059,E,9.719,270.000,010720,0.000,E,A,V*67
$GPGGA,082958,3128.00000,N,12112.26744,E,3,11,0.78,-10.16,M,10.16,M,,*66
$GPRMC,082958,A,3128.00000,N,12112.26744,E,9.719,270.000,010720,0.000,E,A,V*62
$GPGGA,082959,3128.00000,N,12112.26428,E,3,11,0.78,-10.16,M,10.16,M,,*6E
$GPRMC,082959,A,3128.00000,N,12112.26428,E,9.719,270.000,010720,0.000,E,A,V*6A
$GPGGA,083000,3128.00000,N,12112.26112,E,3,11,0.78,-10.16,M,10.16,M,,*66
$GPRMC,083000,A,3128.00000,N,12112.26112,E,9.719,270.000,010720,0.000,E,A,V*62
$GPGGA,083001,3128.00000,N,12112.25797,E,3,11,0.78,-10.16,M,10.16,M,,*6F
$GPRMC,083001,A,3128.00000,N,12112.25797,E,9.719,270.000,010720,0.000,E,A,V*6B
$GPGGA,083002,3128.00000,N,12112.25481,E,3,11,0.78,-10.16,M,10.16,M,,*68
$GPRMC,083002,A,3128.00000,N,12112.25481,E,9.719,270.000,010720,0.000,E,A,V*6C
$GPGGA,083003,3128.00000,N,12112.25165,E,3,11,0.78,-10.16,M,10.16,M,,*66
$GPRMC,083003,A,3128.00000,N,12112.25165,E,9.719,270.000,010720,0.000,E,A,V*62
$GPGGA,083004,3128.00000,N,12112.24850,E,3,11,0.77,-10.16,M,10.16,M,,*60
$GPRMC,083004,A,3128.00000,N,12112.24850,E,9.719,270.000,010720,0.000,E,A,V*6B
$GPGGA,083005,3128.00000,N,12112.24534,E,3,11,0.77,-10.16,M,10.16,M,,*6E
$GPRMC,083005,A,3128.00000,N,12112.24534,E,9.719,270.000,010720,0.000,E,A,V*65
$GPGGA,083006,3128.00000,N,12112.24218,E,3,11,0.77,-10.16,M,10.16,M,,*64
$GPRMC,083006,A,3128.00000,N,12112.24218,E,9.719,270.000,010720,0.000,E,A,V*6F
$GPGGA,083007,3128.00000,N,12112.23903,E,3,11,0.77,-10.16,M,10.16,M,,*63
$GPRMC,083007,A,3128.00000,N,12112.23903,E,9.719,270.000,010720,0.000,E,A,V*68
$GPGGA,083008,3128.00000,N,12112.23587,E,3,11,0.77,-10.16,M,10.16,M,,*6C
$GPRMC,083008,A,3128.00000,N,12112.23587,E,9.719,270.000,010720,0.000,E,A,V*67
$GPGGA,083009,3128.00000,N,12112.23271,E,3,11,0.77,-10.16,M,10.16,M,,*63
$GPRMC,083009,A,3128.00000,N,12112.23271,E,9.719,270.000,010720,0.000,E,A,V*68
$GPGGA,083010,3128.00000,N,12112.22956,E,3,11,0.77,-10.16,M,10.16,M,,*64
$GPRMC,083010,A,3128.00000,N,12112.22956,E,9.719,270.000,010720,0.000,E,A,V*6F
$GPGGA,083011,3128.00000,N,12112.22640,E,3,11,0.77,-10.16,M,10.16,M,,*6D
$GPRMC,083011,A,3128.00000,N,12112.22640,E,9.719,270.000,010720,0.000,E,A,V*66
$GPGGA,083012,3128.00000,N,12112.22324,E,3,11,0.77,-10.16,M,10.16,M,,*69
$GPRMC,083012,A,3128.00000,N,12112.22324,E,9.719,270.000,010720,0.000,E,A,V*62
$GPGGA,083013,3128.00000,N,12112.22009,E,3,11,0.77,-10.16,M,10.16,M,,*64
$GPRMC,083013,A,3128.00000,N,12112.22009,E,9.719,270.000,010720,0.000,E,A,V*6F
$GPGGA,083014,3128.00000,N,12112.21693,E,3,11,0.77,-10.16,M,10.16,M,,*65
$GPRMC,083014,A,3128.00000,N,12112.21693,E,9.719,270.000,010720,0.000,E,A,V*6E
$GPGGA,083015,3128.00000,N,12112.21377,E,3,11,0.77,-10.16,M,10.16,M,,*6B
$GPRMC,083015,A,3128.00000,N,12112.21377,E,9.719,270.000,010720,0.000,E,A,V*60
$GPGGA,083016,3128.00000,N,12112.21062,E,3,11,0.77,-10.16,M,10.16,M,,*6F
$GPRMC,083016,A,3128.00000,N,12112.21062,E,9.719,270.000,010720,0.000,E,A,V*64
$GPGGA,083017,3128.00000,N,12112.20746,E,3,11,0.77,-10.16,M,10.16,M,,*6E
$GPRMC,083017,A,3128.00000,N,12112.20746,E,9.719,270.000,010720,0.000,E,A,V*65
$GPGGA,083018,3128.00000,N,12112.20430,E,3,11,0.77,-10.16,M,10.16,M,,*63
$GPRMC,083018,A,3128.00000,N,12112.20430,E,9.719,270.000,010720,0.000,E,A,V*68
$GPGGA,083019,3128.00000,N,12112.20115,E,3,11,0.77,-10.16,M,10.16,M,,*60
$GPRMC,083019,A,3128.00000,N,12112.20115,E,9.719,270.000,010720,0.000,E,A,V*6B
$GPGGA,083020,3128.00000,N,12112.19799,E,3,11,0.77,-10.16,M,10.16,M,,*62
$GPRMC,083020,A,3128.00000,N,12112.19799,E,9.719,270.000,010720,0.000,E,A,V*69
$GPGGA,083021,3128.00000,N,12112.19483,E,3,11,0.77,-10.16,M,10.16,M,,*6B
$GPRMC,083021,A,3128.00000,N,12112.19483,E,9.719,270.000,010720,0.000,E,A,V*60
$GPGGA,083022,3128.00000,N,12112.19168,E,3,11,0.77,-10.16,M,10.16,M,,*68
$GPRMC,083022,A,3128.00000,N,12112.19168,E,9.719,270.000,010720,0.000,E,A,V*63
$GPGGA,083023,3128.00000,N,12112.18852,E,3,11,0.77,-10.16,M,10.16,M,,*68
$GPRMC,083023,A,3128.00000,N,12112.18852,E,9.719,270.000,010720,0.000,E,A,V*63
$GPGGA,083024,3128.00000,N,12112.18536,E,3,11,0.77,-10.16,M,10.16,M,,*60
$GPRMC,083024,A,3128.00000,N,12112.18536,E,9.719,270.000,010720,0.000,E,A,V*6B
$GPGGA,083025,3128.00000,N,12112.18221,E,3,11,0.77,-10.16,M,10.16,M,,*60
$GPRMC,083025,A,3128.00000,N,12112.18221,E,9.719,270.000,010720,0.000,E,A,V*6B
$GPGGA,083026,3128.00000,N,12112.17905,E,3,11,0.77,-10.16,M,10.16,M,,*61
$GPRMC,083026,A,3128.00000,N,12112.17905,E,9.719,270.000,010720,0.000,E,A,V*6A
$GPGGA,083027,3128.00000,N,12112.17589,E,3,11,0.77,-10.16,M,10.16,M,,*68
$GPRMC,083027,A,3128.00000,N,12112.17589,E,9.719,270.000,010720,0.000,E,A,V*63
$GPGGA,083028,3128.00000,N,12112.17274,E,3,11,0.77,-10.16,M,10.16,M,,*62
$GPRMC,083028,A,3128.00000,N,12112.17274,E,9.719,270.000,010720,0.000,E,A,V*69
$GPGGA,083029,3128.00000,N,12112.16958,E,3,11,0.77,-10.16,M,10.16,M,,*67
$GPRMC,083029,A,3128.00000,N,12112.16958,E,9.719,270.000,010720,0.000,E,A,V*6C
$GPGGA,083030,3128.00000,N,12112.16642,E,3,11,0.77,-10.16,M,10.16,M,,*6B
$GPRMC,083030,A,3128.00000,N,12112.16642,E,9.719,270.000,010720,0.000,E,A,V*60
$GPGGA,083031,3128.00000,N,12112.16327,E,3,11,0.77,-10.16,M,10.16,M,,*6C
$GPRMC,083031,A,3128.00000,N,12112.16327,E,9.719,270.000,010720,0.000,E,A,V*67
$GPGGA,083032,3128.00000,N,12112.16011,E,3,11,0.77,-10.16,M,10.16,M,,*69
$GPRMC,083032,A,3128.00000,N,12112.16011,E,9.719,270.000,010720,0.000,E,A,V*62
$GPGGA,083033,3128.00000,N,12112.15695,E,3,11,0.77,-10.16,M,10.16,M,,*61
$GPRMC,083033,A,3128.00000,N,12112.15695,E,9.719,270.000,010720,0.000,E,A,V*6A
$GPGGA,083034,3128.00000,N,12112.15380,E,3,11,0.77,-10.16,M,10.16,M,,*67
$GPRMC,083034,A,3128.00000,N,12112.15380,E,9.719,270.000,010720,0.000,E,A,V*6C
$GPGGA,083035,3128.00000,N,12112.15064,E,3,11,0.77,-10.16,M,10.16,M,,*6F
$GPRMC,083035,A,3128.00000,N,12112.15064,E,9.719,270.000,010720,0.000,E,A,V*64
$GPGGA,083036,3128.00000,N,12112.14748,E,3,11,0.77,-10.16,M,10.16,M,,*64
$GPRMC,083036,A,3128.00000,N,12112.14748,E,9.719,270.000,010720,0.000,E,A,V*6F
$GPGGA,083037,3128.00000,N,12112.14432,E,3,11,0.77,-10.16,M,10.16,M,,*6B
$GPRMC,083037,A,3128.00000,N,12112.14432,E,9.719,270.000,010720,0.000,E,A,V*60
$GPGGA,083038,3128.00000,N,12112.14117,E,3,11,0.77,-10.16,M,10.16,M,,*66
$GPRMC,083038,A,3128.00000,N,12112.14117,E,9.719,270.000,010720,0.000,E,A,V*6D
$GPGGA,083039,3128.00000,N,12112.13801,E,3,11,0.77,-10.16,M,10.16,M,,*6E
$GPRMC,083039,A,3128.00000,N,12112.13801,E,9.719,270.000,010720,0.000,E,A,V*65
$GPGGA,083040,3128.00000,N,12112.13485,E,3,11,0.77,-10.16,M,10.16,M,,*60
$GPRMC,083040,A,3128.00000,N,12112.13485,E,9.719,270.000,010720,0.000,E,A,V*6B
$GPGGA,083041,3128.00000,N,12112.13170,E,3,11,0.77,-10.16,M,10.16,M,,*6E
$GPRMC,083041,A,3128.00000,N,12112.13170,E,9.719,270.000,010720,0.000,E,A,V*65
$GPGGA,083042,3128.00000,N,12112.12854,E,3,11,0.77,-10.16,M,10.16,M,,*63
$GPRMC,083042,A,3128.00000,N,12112.12854,E,9.719,270.000,010720,0.000,E,A,V*68
$GPGGA,083043,3128.00000,N,12112.12538,E,3,11,0.77,-10.16,M,10.16,M,,*65
$GPRMC,083043,A,3128.00000,N,12112.12538,E,9.719,270.000,010720,0.000,E,A,V*6E
$GPGGA,083044,3128.00000,N,12112.12223,E,3,11,0.77,-10.16,M,10.16,M,,*6F
$GPRMC,083044,A,3128.00000,N,12112.12223,E,9.719,270.000,010720,0.000,E,A,V*64
$GPGGA,083045,3128.00000,N,12112.11907,E,3,11,0.77,-10.16,M,10.16,M,,*60
$GPRMC,083045,A,3128.00000,N,12112.11907,E,9.719,270.000,010720,0.000,E,A,V*6B
$GPGGA,083046,3128.00000,N,12112.11591,E,3,11,0.77,-10.16,M,10.16,M,,*60
$GPRMC,083046,A,3128.00000,N,12112.11591,E,9.719,270.000,010720,0.000,E,A,V*6B
$GPGGA,083047,3128.00000,N,12112.11276,E,3,11,0.77,-10.16,M,10.16,M,,*6F
$GPRMC,083047,A,3128.00000,N,12112.11276,E,9.719,270.000,010720,0.000,E,A,V*64
$GPGGA,083048,3128.00000,N,12112.10960,E,3,11,0.77,-10.16,M,10.16,M,,*6D
$GPRMC,083048,A,3128.00000,N,12112.10960,E,9.719,270.000,010720,0.000,E,A,V*66
$GPGGA,083049,3128.00000,N,12112.10644,E,3,11,0.77,-10.16,M,10.16,M,,*65
$GPRMC,083049,A,3128.00000,N,12112.10644,E,9.719,270.000,010720,0.000,E,A,V*6E
$GPGGA,083050,3128.00000,N,12112.10329,E,3,11,0.77,-10.15,M,10.15,M,,*63
$GPRMC,083050,A,3128.00000,N,12112.10329,E,9.719,270.000,010720,0.000,E,A,V*68
$GPGGA,083051,3128.00000,N,12112.10013,E,3,11,0.77,-10.15,M,10.15,M,,*68
$GPRMC,083051,A,3128.00000,N,12112.10013,E,9.719,270.000,010720,0.000,E,A,V*63
$GPGGA,083052,3128.00000,N,12112.09697,E,3,11,0.77,-10.15,M,10.15,M,,*69
$GPRMC,083052,A,3128.00000,N,12112.09697,E,9.719,270.000,010720,0.000,E,A,V*62
$GPGGA,083053,3128.00000,N,12112.09382,E,3,11,0.77,-10.15,M,10.15,M,,*69
$GPRMC,083053,A,3128.00000,N,12112.09382,E,9.719,270.000,010720,0.000,E,A,V*62
$GPGGA,083054,3128.00000,N,12112.09066,E,3,11,0.77,-10.15,M,10.15,M,,*67
$GPRMC,083054,A,3128.00000,N,12112.09066,E,9.719,270.000,010720,0.000,E,A,V*6C
$GPGGA,083055,3128.00000,N,12112.08750,E,3,11,0.77,-10.15,M,10.15,M,,*65
$GPRMC,083055,A,3128.00000,N,12112.08750,E,9.719,270.000,010720,0.000,E,A,V*6E
$GPGGA,083056,3128.00000,N,12112.08435,E,3,11,0.77,-10.15,M,10.15,M,,*66
$GPRMC,083056,A,3128.00000,N,12112.08435,E,9.719,270.000,010720,0.000,E,A,V*6D
$GPGGA,083057,3128.00000,N,12112.08119,E,3,11,0.77,-10.15,M,10.15,M,,*6C
$GPRMC,083057,A,3128.00000,N,12112.08119,E,9.719,270.000,010720,0.000,E,A,V*67
$GPGGA,083058,3128.00000,N,12112.07803,E,3,11,0.77,-10.15,M,10.15,M,,*6E
$GPRMC,083058,A,3128.00000,N,12112.07803,E,9.719,270.000,010720,0.000,E,A,V*65
$GPGGA,083059,3128.00000,N,12112.07488,E,3,11,0.77,-10.15,M,10.15,M,,*60
$GPRMC,083059,A,3128.00000,N,12112.07488,E,9.719,270.000,010720,0.000,E,A,V*6B
$GPGGA,083100,3128.00000,N,12112.07172,E,3,11,0.77,-10.15,M,10.15,M,,*6D
$GPRMC,083100,A,3128.00000,N,12112.07172,E,9.719,270.000,010720,0.000,E,A,V*66
$GPGGA,083101,3128.00000,N,12112.06856,E,3,11,0.77,-10.15,M,10.15,M,,*62
$GPRMC,083101,A,3128.00000,N,12112.06856,E,9.719,270.000,010720,0.000,E,A,V*69
$GPGGA,083102,3128.00000,N,12112.06541,E,3,11,0.77,-10.15,M,10.15,M,,*6A
$GPRMC,083102,A,3128.00000,N,12112.06541,E,9.719,270.000,010720,0.000,E,A,V*61
$GPGGA,083103,3128.00000,N,12112.06225,E,3,11,0.77,-10.15,M,10.15,M,,*6E
$GPRMC,083103,A,3128.00000,N,12112.06225,E,9.719,270.000,010720,0.000,E,A,V*65
$GPGGA,083104,3128.00000,N,12112.05909,E,3,11,0.77,-10.15,M,10.15,M,,*6F
$GPRMC,083104,A,3128.00000,N,12112.05909,E,9.719,270.000,010720,0.000,E,A,V*64
$GPGGA,083105,3128.00000,N,12112.05594,E,3,11,0.77,-10.15,M,10.15,M,,*66
$GPRMC,083105,A,3128.00000,N,12112.05594,E,9.719,270.000,010720,0.000,E,A,V*6D
$GPGGA,083106,3128.00000,N,12112.05278,E,3,11,0.77,-10.15,M,10.15,M,,*60
$GPRMC,083106,A,3128.00000,N,12112.05278,E,9.719,270.000,010720,0.000,E,A,V*6B
$GPGGA,083107,3128.00000,N,12112.04962,E,3,11,0.77,-10.15,M,10.15,M,,*60
$GPRMC,083107,A,3128.00000,N,12112.04962,E,9.719,270.000,010720,0.000,E,A,V*6B
$GPGGA,083108,3128.00000,N,12112.04647,E,3,11,0.77,-10.15,M,10.15,M,,*67
$GPRMC,083108,A,3128.00000,N,12112.04647,E,9.719,270.000,010720,0.000,E,A,V*6C
$GPGGA,083109,3128.00000,N,12112.04331,E,3,11,0.77,-10.15,M,10.15,M,,*62
$GPRMC,083109,A,3128.00000,N,12112.04331,E,9.719,270.000,010720,0.000,E,A,V*69
$GPGGA,083110,3128.00000,N,12112.04015,E,3,11,0.77,-10.15,M,10.15,M,,*6F
$GPRMC,083110,A,3128.00000,N,12112.04015,E,9.719,270.000,010720,0.000,E,A,V*64
$GPGGA,083111,3128.00000,N,12112.03700,E,3,11,0.77,-10.15,M,10.15,M,,*6A
$GPRMC,083111,A,3128.00000,N,12112.03700,E,9.719,270.000,010720,0.000,E,A,V*61
$GPGGA,083112,3128.00000,N,12112.03384,E,3,11,0.77,-10.15,M,10.15,M,,*61
$GPRMC,083112,A,3128.00000,N,12112.03384,E,9.719,270.000,010720,0.000,E,A,V*6A
$GPGGA,083113,3128.00000,N,12112.03068,E,3,11,0.77,-10.15,M,10.15,M,,*61
$GPRMC,083113,A,3128.00000,N,12112.03068,E,9.719,270.000,010720,0.000,E,A,V*6A
$GPGGA,083114,3128.00000,N,12112.02753,E,3,11,0.77,-10.15,M,10.15,M,,*68
$GPRMC,083114,A,3128.00000,N,12112.02753,E,9.719,270.000,010720,0.000,E,A,V*63
$GPGGA,083115,3128.00000,N,12112.02437,E,3,11,0.77,-10.15,M,10.15,M,,*68
$GPRMC,083115,A,3128.00000,N,12112.02437,E,9.719,270.000,010720,0.000,E,A,V*63
$GPGGA,083116,3128.00000,N,12112.02121,E,3,11,0.77,-10.15,M,10.15,M,,*69
$GPRMC,083116,A,3128.00000,N,12112.02121,E,9.719,270.000,010720,0.000,E,A,V*62
$GPGGA,083117,3128.00000,N,12112.01806,E,3,11,0.77,-10.15,M,10.15,M,,*67
$GPRMC,083117,A,3128.00000,N,12112.01806,E,9.719,270.000,010720,0.000,E,A,V*6C
$GPGGA,083118,3128.00000,N,12112.01490,E,3,11,0.77,-10.15,M,10.15,M,,*6B
$GPRMC,083118,A,3128.00000,N,12112.01490,E,9.719,270.000,010720,0.000,E,A,V*60
$GPGGA,083119,3128.00000,N,12112.01174,E,3,11,0.77,-10.15,M,10.15,M,,*65
$GPRMC,083119,A,3128.00000,N,12112.01174,E,9.719,270.000,010720,0.000,E,A,V*6E
$GPGGA,083120,3128.00000,N,12112.00859,E,3,11,0.77,-10.15,M,10.15,M,,*68
$GPRMC,083120,A,3128.00000,N,12112.00859,E,9.719,270.000,010720,0.000,E,A,V*63
$GPGGA,083121,3128.00000,N,12112.00543,E,3,11,0.77,-10.15,M,10.15,M,,*6F
$GPRMC,083121,A,3128.00000,N,12112.00543,E,9.719,270.000,010720,0.000,E,A,V*64
$GPGGA,083122,3128.00000,N,12112.00227,E,3,11,0.77,-10.15,M,10.15,M,,*69
$GPRMC,083122,A,3128.00000,N,12112.00227,E,9.719,270.000,010720,0.000,E,A,V*62
$GPGGA,083123,3128.00000,N,12111.99912,E,3,11,0.77,-10.15,M,10.15,M,,*66
$GPRMC,083123,A,3128.00000,N,12111.99912,E,9.719,270.000,010720,0.000,E,A,V*6D
$GPGGA,083124,3128.00000,N,12111.99596,E,3,11,0.77,-10.15,M,10.15,M,,*61
$GPRMC,083124,A,3128.00000,N,12111.99596,E,9.719,270.000,010720,0.000,E,A,V*6A
$GPGGA,083125,3128.00000,N,12111.99280,E,3,11,0.77,-10.15,M,10.15,M,,*60
$GPRMC,083125,A,3128.00000,N,12111.99280,E,9.719,270.000,010720,0.000,E,A,V*6B
$GPGGA,083126,3128.00000,N,12111.98965,E,3,11,0.77,-10.15,M,10.15,M,,*62
$GPRMC,083126,A,3128.00000,N,12111.98965,E,9.719,270.000,010720,0.000,E,A,V*69
$GPGGA,083127,3128.00000,N,12111.98649,E,3,11,0.77,-10.15,M,10.15,M,,*62
$GPRMC,083127,A,3128.00000,N,12111.98649,E,9.719,270.000,010720,0.000,E,A,V*69
$GPGGA,083128,3128.00000,N,12111.98333,E,3,11,0.77,-10.15,M,10.15,M,,*65
$GPRMC,083128,A,3128.00000,N,12111.98333,E,9.719,270.000,010720,0.000,E,A,V*6E
$GPGGA,083129,3128.00000,N,12111.98018,E,3,11,0.77,-10.15,M,10.15,M,,*6E
$GPRMC,083129,A,3128.00000,N,12111.98018,E,9.719,270.000,010720,0.000,E,A,V*65
$GPGGA,083130,3128.00000,N,12111.97702,E,3,11,0.77,-10.15,M,10.15,M,,*65
$GPRMC,083130,A,3128.00000,N,12111.97702,E,9.719,270.000,010720,0.000,E,A,V*6E
$GPGGA,083131,3128.00000,N,12111.97386,E,3,11,0.77,-10.15,M,10.15,M,,*6C
$GPRMC,083131,A,3128.00000,N,12111.97386,E,9.719,270.000,010720,0.000,E,A,V*67
$GPGGA,083132,3128.00000,N,12111.97071,E,3,11,0.77,-10.15,M,10.15,M,,*64
$GPRMC,083132,A,3128.00000,N,12111.97071,E,9.719,270.000,010720,0.000,E,A,V*6F
$GPGGA,083133,3128.00000,N,12111.96755,E,3,11,0.77,-10.15,M,10.15,M,,*65
$GPRMC,083133,A,3128.00000,N,12111.96755,E,9.719,270.000,010720,0.000,E,A,V*6E
$GPGGA,083134,3128.00000,N,12111.96439,E,3,11,0.77,-10.15,M,10.15,M,,*6B
$GPRMC,083134,A,3128.00000,N,12111.96439,E,9.719,270.000,010720,0.000,E,A,V*60
$GPGGA,083135,3128.00000,N,12111.96124,E,3,11,0.77,-10.15,M,10.15,M,,*63
$GPRMC,083135,A,3128.00000,N,12111.96124,E,9.719,270.000,010720,0.000,E,A,V*68
$GPGGA,083136,3128.00000,N,12111.95808,E,3,11,0.77,-10.15,M,10.15,M,,*64
$GPRMC,083136,A,3128.00000,N,12111.95808,E,9.719,270.000,010720,0.000,E,A,V*6F
$GPGGA,083137,3128.00000,N,12111.95492,E,3,11,0.77,-10.15,M,10.15,M,,*6A
$GPRMC,083137,A,3128.00000,N,12111.95492,E,9.719,270.000,010720,0.000,E,A,V*61
$GPGGA,083138,3128.00000,N,12111.95177,E,3,11,0.77,-10.15,M,10.15,M,,*6B
$GPRMC,083138,A,3128.00000,N,12111.95177,E,9.719,270.000,010720,0.000,E,A,V*60
$GPGGA,083139,3128.00000,N,12111.94861,E,3,11,0.77,-10.15,M,10.15,M,,*65
$GPRMC,083139,A,3128.00000,N,12111.94861,E,9.719,270.000,010720,0.000,E,A,V*6E
$GPGGA,083140,3128.00000,N,12111.94545,E,3,11,0.77,-10.15,M,10.15,M,,*60
$GPRMC,083140,A,3128.00000,N,12111.94545,E,9.719,270.000,010720,0.000,E,A,V*6B
$GPGGA,083141,3128.00000,N,12111.94230,E,3,11,0.77,-10.15,M,10.15,M,,*64
$GPRMC,083141,A,3128.00000,N,12111.94230,E,9.719,270.000,010720,0.000,E,A,V*6F
$GPGGA,083142,3128.00000,N,12111.93914,E,3,11,0.77,-10.15,M,10.15,M,,*6D
$GPRMC,083142,A,3128.00000,N,12111.93914,E,9.719,270.000,010720,0.000,E,A,V*66
$GPGGA,083143,3128.00000,N,12111.93598,E,3,11,0.77,-10.15,M,10.15,M,,*64
$GPRMC,083143,A,3128.00000,N,12111.93598,E,9.719,270.000,010720,0.000,E,A,V*6F
$GPGGA,083144,3128.00000,N,12111.93283,E,3,11,0.77,-10.15,M,10.15,M,,*6E
$GPRMC,083144,A,3128.00000,N,12111.93283,E,9.719,270.000,010720,0.000,E,A,V*65
$GPGGA,083145,3128.00000,N,12111.92967,E,3,11,0.77,-10.15,M,10.15,M,,*6F
$GPRMC,083145,A,3128.00000,N,12111.92967,E,9.719,270.000,010720,0.000,E,A,V*64
$GPGGA,083146,3128.00000,N,12111.92651,E,3,11,0.77,-10.14,M,10.14,M,,*66
$GPRMC,083146,A,3128.00000,N,12111.92651,E,9.719,270.000,010720,0.000,E,A,V*6D
$GPGGA,083147,3128.00000,N,12111.92336,E,3,11,0.77,-10.14,M,10.14,M,,*63
$GPRMC,083147,A,3128.00000,N,12111.92336,E,9.719,270.000,010720,0.000,E,A,V*68
$GPGGA,083148,3128.00000,N,12111.92020,E,3,11,0.77,-10.14,M,10.14,M,,*68
$GPRMC,083148,A,3128.00000,N,12111.92020,E,9.719,270.000,010720,0.000,E,A,V*63
$GPGGA,083149,3128.00000,N,12111.91704,E,3,11,0.77,-10.14,M,10.14,M,,*6B
$GPRMC,083149,A,3128.00000,N,12111.91704,E,9.719,270.000,010720,0.000,E,A,V*60
$GPGGA,083150,3128.00000,N,12111.91389,E,3,11,0.77,-10.14,M,10.14,M,,*62
$GPRMC,083150,A,3128.00000,N,12111.91389,E,9.719,270.000,010720,0.000,E,A,V*69
$GPGGA,083151,3128.00000,N,12111.91073,E,3,11,0.77,-10.14,M,10.14,M,,*65
$GPRMC,083151,A,3128.00000,N,12111.91073,E,9.719,270.000,010720,0.000,E,A,V*6E
$GPGGA,083152,3128.00000,N,12111.90757,E,3,11,0.77,-10.14,M,10.14,M,,*66
$GPRMC,083152,A,3128.00000,N,12111.90757,E,9.719,270.000,010720,0.000,E,A,V*6D
$GPGGA,083153,3128.00000,N,12111.90442,E,3,11,0.77,-10.14,M,10.14,M,,*60
$GPRMC,083153,A,3128.00000,N,12111.90442,E,9.719,270.000,010720,0.000,E,A,V*6B
$GPGGA,083154,3128.00000,N,12111.90126,E,3,11,0.77,-10.14,M,10.14,M,,*60
$GPRMC,083154,A,3128.00000,N,12111.90126,E,9.719,270.000,010720,0.000,E,A,V*6B
$GPGGA,083155,3128.00000,N,12111.89810,E,3,11,0.77,-10.14,M,10.14,M,,*65
$GPRMC,083155,A,3128.00000,N,12111.89810,E,9.719,270.000,010720,0.000,E,A,V*6E
$GPGGA,083156,3128.00000,N,12111.89495,E,3,11,0.77,-10.14,M,10.14,M,,*67
$GPRMC,083156,A,3128.00000,N,12111.89495,E,9.719,270.000,010720,0.000,E,A,V*6C
$GPGGA,083157,3128.00000,N,12111.89179,E,3,11,0.77,-10.14,M,10.14,M,,*61
$GPRMC,083157,A,3128.00000,N,12111.89179,E,9.719,270.000,010720,0.000,E,A,V*6A
$GPGGA,083158,3128.00000,N,12111.88863,E,3,11,0.77,-10.14,M,10.14,M,,*6D
$GPRMC,083158,A,3128.00000,N,12111.88863,E,9.719,270.000,010720,0.000,E,A,V*66
$GPGGA,083159,3128.00000,N,12111.88548,E,3,11,0.77,-10.14,M,10.14,M,,*68
$GPRMC,083159,A,3128.00000,N,12111.88548,E,9.719,270.000,010720,0.000,E,A,V*63
$GPGGA,083200,3128.00000,N,12111.88232,E,3,11,0.77,-10.14,M,10.14,M,,*6D
$GPRMC,083200,A,3128.00000,N,12111.88232,E,9.719,270.000,010720,0.000,E,A,V*66
$GPGGA,083201,3128.00000,N,12111.87916,E,3,11,0.77,-10.14,M,10.14,M,,*6E
$GPRMC,083201,A,3128.00000,N,12111.87916,E,9.719,270.000,010720,0.000,E,A,V*65
$GPGGA,083202,3128.00000,N,12111.87601,E,3,11,0.77,-10.14,M,10.14,M,,*64
$GPRMC,083202,A,3128.00000,N,12111.87601,E,9.719,270.000,010720,0.000,E,A,V*6F
$GPGGA,083203,3128.00000,N,12111.87285,E,3,11,0.77,-10.14,M,10.14,M,,*6D
$GPRMC,083203,A,3128.00000,N,12111.87285,E,9.719,270.000,010720,0.000,E,A,V*66
$GPGGA,083204,3128.00000,N,12111.86969,E,3,11,0.77,-10.14,M,10.14,M,,*62
$GPRMC,083204,A,3128.00000,N,12111.86969,E,9.719,270.000,010720,0.000,E,A,V*69
$GPGGA,083205,3128.00000,N,12111.86654,E,3,11,0.77,-10.14,M,10.14,M,,*62
$GPRMC,083205,A,3128.00000,N,12111.86654,E,9.719,270.000,010720,0.000,E,A,V*69
$GPGGA,083206,3128.00000,N,12111.86338,E,3,11,0.77,-10.14,M,10.14,M,,*6E
$GPRMC,083206,A,3128.00000,N,12111.86338,E,9.719,270.000,010720,0.000,E,A,V*65
$GPGGA,083207,3128.00000,N,12111.86022,E,3,11,0.77,-10.14,M,10.14,M,,*67
$GPRMC,083207,A,3128.00000,N,12111.86022,E,9.719,270.000,010720,0.000,E,A,V*6C
$GPGGA,083208,3128.00000,N,12111.85707,E,3,11,0.77,-10.14,M,10.14,M,,*6B
$GPRMC,083208,A,3128.00000,N,12111.85707,E,9.719,270.000,010720,0.000,E,A,V*60
$GPGGA,083209,3128.00000,N,12111.85391,E,3,11,0.77,-10.14,M,10.14,M,,*61
$GPRMC,083209,A,3128.00000,N,12111.85391,E,9.719,270.000,010720,0.000,E,A,V*6A
$GPGGA,083210,3128.00000,N,12111.85075,E,3,11,0.77,-10.14,M,10.14,M,,*60
$GPRMC,083210,A,3128.00000,N,12111.85075,E,9.719,270.000,010720,0.000,E,A,V*6B
$GPGGA,083211,3128.00000,N,12111.84760,E,3,11,0.77,-10.14,M,10.14,M,,*63
$GPRMC,083211,A,3128.00000,N,12111.84760,E,9.719,270.000,010720,0.000,E,A,V*68
$GPGGA,083212,3128.00000,N,12111.84444,E,3,11,0.77,-10.14,M,10.14,M,,*65
$GPRMC,083212,A,3128.00000,N,12111.84444,E,9.719,270.000,010720,0.000,E,A,V*6E
$GPGGA,083213,3128.00000,N,12111.84128,E,3,11,0.77,-10.14,M,10.14,M,,*6B
$GPRMC,083213,A,3128.00000,N,12111.84128,E,9.719,270.000,010720,0.000,E,A,V*60
$GPGGA,083214,3128.00000,N,12111.83813,E,3,11,0.77,-10.14,M,10.14,M,,*6A
$GPRMC,083214,A,3128.00000,N,12111.83813,E,9.719,270.000,010720,0.000,E,A,V*61
$GPGGA,083215,3128.00000,N,12111.83497,E,3,11,0.77,-10.14,M,10.14,M,,*6B
$GPRMC,083215,A,3128.00000,N,12111.83497,E,9.719,270.000,010720,0.000,E,A,V*60
$GPGGA,083216,3128.00000,N,12111.83181,E,3,11,0.77,-10.14,M,10.14,M,,*6A
$GPRMC,083216,A,3128.00000,N,12111.83181,E,9.719,270.000,010720,0.000,E,A,V*61
$GPGGA,083217,3128.00000,N,12111.82866,E,3,11,0.77,-10.14,M,10.14,M,,*6A
$GPRMC,083217,A,3128.00000,N,12111.82866,E,9.719,270.000,010720,0.000,E,A,V*61
$GPGGA,083218,3128.00000,N,12111.82550,E,3,11,0.77,-10.14,M,10.14,M,,*6D
$GPRMC,083218,A,3128.00000,N,12111.82550,E,9.719,270.000,010720,0.000,E,A,V*66
$GPGGA,083219,3128.00000,N,12111.82234,E,3,11,0.77,-10.14,M,10.14,M,,*69
$GPRMC,083219,A,3128.00000,N,12111.82234,E,9.719,270.000,010720,0.000,E,A,V*62
$GPGGA,083220,3128.00000,N,12111.81918,E,3,11,0.77,-10.14,M,10.14,M,,*65
$GPRMC,083220,A,3128.00000,N,12111.81918,E,9.719,270.000,010720,0.000,E,A,V*6E
$GPGGA,083221,3128.00000,N,12111.81603,E,3,11,0.77,-10.14,M,10.14,M,,*61
$GPRMC,083221,A,3128.00000,N,12111.81603,E,9.719,270.000,010720,0.000,E,A,V*6A
$GPGGA,083222,3128.00000,N,12111.81287,E,3,11,0.77,-10.14,M,10.14,M,,*6A
$GPRMC,083222,A,3128.00000,N,12111.81287,E,9.719,270.000,010720,0.000,E,A,V*61
$GPGGA,083223,3128.00000,N,12111.80971,E,3,11,0.77,-10.14,M,10.14,M,,*68
$GPRMC,083223,A,3128.00000,N,12111.80971,E,9.719,270.000,010720,0.000,E,A,V*63
$GPGGA,083224,3128.00000,N,12111.80656,E,3,11,0.77,-10.14,M,10.14,M,,*65
$GPRMC,083224,A,3128.00000,N,12111.80656,E,9.719,270.000,010720,0.000,E,A,V*6E
$GPGGA,083225,3128.00000,N,12111.80340,E,3,11,0.77,-10.14,M,10.14,M,,*66
$GPRMC,083225,A,3128.00000,N,12111.80340,E,9.719,270.000,010720,0.000,E,A,V*6D
$GPGGA,083226,3128.00000,N,12111.80024,E,3,11,0.77,-10.14,M,10.14,M,,*64
$GPRMC,083226,A,3128.00000,N,12111.80024,E,9.719,270.000,010720,0.000,E,A,V*6F
$GPGGA,083227,3128.00000,N,12111.79709,E,3,11,0.77,-10.14,M,10.14,M,,*6B
$GPRMC,083227,A,3128.00000,N,12111.79709,E,9.719,270.000,010720,0.000,E,A,V*60
$GPGGA,083228,3128.00000,N,12111.79393,E,3,11,0.77,-10.14,M,10.14,M,,*63
$GPRMC,083228,A,3128.00000,N,12111.79393,E,9.719,270.000,010720,0.000,E,A,V*68
$GPGGA,083229,3128.00000,N,12111.79077,E,3,11,0.77,-10.14,M,10.14,M,,*6B
$GPRMC,083229,A,3128.00000,N,12111.79077,E,9.719,270.000,010720,0.000,E,A,V*60
$GPGGA,083230,3128.00000,N,12111.78762,E,3,11,0.77,-10.14,M,10.14,M,,*61
$GPRMC,083230,A,3128.00000,N,12111.78762,E,9.719,270.000,010720,0.000,E,A,V*6A
$GPGGA,083231,3128.00000,N,12111.78446,E,3,11,0.77,-10.14,M,10.14,M,,*65
$GPRMC,083231,A,3128.00000,N,12111.78446,E,9.719,270.000,010720,0.000,E,A,V*6E
$GPGGA,083232,3128.00000,N,12111.78130,E,3,11,0.77,-10.14,M,10.14,M,,*62
$GPRMC,083232,A,3128.00000,N,12111.78130,E,9.719,270.000,010720,0.000,E,A,V*69
$GPGGA,083233,3128.00000,N,12111.77815,E,3,11,0.77,-10.14,M,10.14,M,,*62
$GPRMC,083233,A,3128.00000,N,12111.77815,E,9.719,270.000,010720,0.000,E,A,V*69
$GPGGA,083234,3128.00000,N,12111.77499,E,3,11,0.77,-10.14,M,10.14,M,,*6D
$GPRMC,083234,A,3128.00000,N,12111.77499,E,9.719,270.000,010720,0.000,E,A,V*66
$GPGGA,083235,3128.00000,N,12111.77183,E,3,11,0.77,-10.14,M,10.14,M,,*62
$GPRMC,083235,A,3128.00000,N,12111.77183,E,9.719,270.000,010720,0.000,E,A,V*69
$GPGGA,083236,3128.00000,N,12111.76868,E,3,11,0.77,-10.14,M,10.14,M,,*6C
$GPRMC,083236,A,3128.00000,N,12111.76868,E,9.719,270.000,010720,0.000,E,A,V*67
$GPGGA,083237,3128.00000,N,12111.76552,E,3,11,0.77,-10.14,M,10.14,M,,*69
$GPRMC,083237,A,3128.00000,N,12111.76552,E,9.719,270.000,010720,0.000,E,A,V*62
$GPGGA,083238,3128.00000,N,12111.76236,E,3,11,0.77,-10.14,M,10.14,M,,*63
$GPRMC,083238,A,3128.00000,N,12111.76236,E,9.719,270.000,010720,0.000,E,A,V*68
$GPGGA,083239,3128.00000,N,12111.75921,E,3,11,0.77,-10.14,M,10.14,M,,*6C
$GPRMC,083239,A,3128.00000,N,12111.75921,E,9.719,270.000,010720,0.000,E,A,V*67
$GPGGA,083240,3128.00000,N,12111.75605,E,3,11,0.77,-10.14,M,10.14,M,,*6B
$GPRMC,083240,A,3128.00000,N,12111.75605,E,9.719,270.000,010720,0.000,E,A,V*60
$GPGGA,083241,3128.00000,N,12111.75289,E,3,11,0.77,-10.14,M,10.14,M,,*6A
$GPRMC,083241,A,3128.00000,N,12111.75289,E,9.719,270.000,010720,0.000,E,A,V*61
$GPGGA,083242,3128.00000,N,12111.74974,E,3,11,0.77,-10.14,M,10.14,M,,*61
$GPRMC,083242,A,3128.00000,N,12111.74974,E,9.719,270.000,010720,0.000,E,A,V*6A
$GPGGA,083243,3128.00000,N,12111.74658,E,3,11,0.77,-10.13,M,10.13,M,,*61
$GPRMC,083243,A,3128.00000,N,12111.74658,E,9.719,270.000,010720,0.000,E,A,V*6A
$GPGGA,083244,3128.00000,N,12111.74342,E,3,11,0.77,-10.13,M,10.13,M,,*68
$GPRMC,083244,A,3128.00000,N,12111.74342,E,9.719,270.000,010720,0.000,E,A,V*63
$GPGGA,083245,3128.00000,N,12111.74027,E,3,11,0.77,-10.13,M,10.13,M,,*69
$GPRMC,083245,A,3128.00000,N,12111.74027,E,9.719,270.000,010720,0.000,E,A,V*62
$GPGGA,083246,3128.00000,N,12111.73711,E,3,11,0.77,-10.13,M,10.13,M,,*6F
$GPRMC,083246,A,3128.00000,N,12111.73711,E,9.719,270.000,010720,0.000,E,A,V*64
$GPGGA,083247,3128.00000,N,12111.73395,E,3,11,0.77,-10.13,M,10.13,M,,*66
$GPRMC,083247,A,3128.00000,N,12111.73395,E,9.719,270.000,010720,0.000,E,A,V*6D
$GPGGA,083248,3128.00000,N,12111.73080,E,3,11,0.77,-10.13,M,10.13,M,,*6E
$GPRMC,083248,A,3128.00000,N,12111.73080,E,9.719,270.000,010720,0.000,E,A,V*65
$GPGGA,083249,3128.00000,N,12111.72764,E,3,11,0.77,-10.13,M,10.13,M,,*63
$GPRMC,083249,A,3128.00000,N,12111.72764,E,9.719,270.000,010720,0.000,E,A,V*68
$GPGGA,083250,3128.00000,N,12111.72448,E,3,11,0.77,-10.13,M,10.13,M,,*66
$GPRMC,083250,A,3128.00000,N,12111.72448,E,9.719,270.000,010720,0.000,E,A,V*6D
$GPGGA,083251,3128.00000,N,12111.72133,E,3,11,0.77,-10.13,M,10.13,M,,*6E
$GPRMC,083251,A,3128.00000,N,12111.72133,E,9.719,270.000,010720,0.000,E,A,V*65
$GPGGA,083252,3128.00000,N,12111.71817,E,3,11,0.77,-10.13,M,10.13,M,,*61
$GPRMC,083252,A,3128.00000,N,12111.71817,E,9.719,270.000,010720,0.000,E,A,V*6A
$GPGGA,083253,3128.00000,N,12111.71501,E,3,11,0.77,-10.13,M,10.13,M,,*6A
$GPRMC,083253,A,3128.00000,N,12111.71501,E,9.719,270.000,010720,0.000,E,A,V*61
$GPGGA,083254,3128.00000,N,12111.71186,E,3,11,0.77,-10.13,M,10.13,M,,*66
$GPRMC,083254,A,3128.00000,N,12111.71186,E,9.719,270.000,010720,0.000,E,A,V*6D
$GPGGA,083255,3128.00000,N,12111.70870,E,3,11,0.77,-10.13,M,10.13,M,,*66
$GPRMC,083255,A,3128.00000,N,12111.70870,E,9.719,270.000,010720,0.000,E,A,V*6D
$GPGGA,083256,3128.00000,N,12111.70554,E,3,11,0.77,-10.13,M,10.13,M,,*6E
$GPRMC,083256,A,3128.00000,N,12111.70554,E,9.719,270.000,010720,0.000,E,A,V*65
$GPGGA,083257,3128.00000,N,12111.70239,E,3,11,0.77,-10.13,M,10.13,M,,*63
$GPRMC,083257,A,3128.00000,N,12111.70239,E,9.719,270.000,010720,0.000,E,A,V*68
$GPGGA,083258,3128.00000,N,12111.69923,E,3,11,0.77,-10.13,M,10.13,M,,*64
$GPRMC,083258,A,3128.00000,N,12111.69923,E,9.719,270.000,010720,0.000,E,A,V*6F
$GPGGA,083259,3128.00000,N,12111.69607,E,3,11,0.77,-10.13,M,10.13,M,,*6C
$GPRMC,083259,A,3128.00000,N,12111.69607,E,9.719,270.000,010720,0.000,E,A,V*67
$GPGGA,083300,3128.00000,N,12111.69292,E,3,11,0.77,-10.13,M,10.13,M,,*69
$GPRMC,083300,A,3128.00000,N,12111.69292,E,9.719,270.000,010720,0.000,E,A,V*62
$GPGGA,083301,3128.00000,N,12111.68976,E,3,11,0.77,-10.13,M,10.13,M,,*68
$GPRMC,083301,A,3128.00000,N,12111.68976,E,9.719,270.000,010720,0.000,E,A,V*63
$GPGGA,083302,3128.00000,N,12111.68660,E,3,11,0.77,-10.13,M,10.13,M,,*63
$GPRMC,083302,A,3128.00000,N,12111.68660,E,9.719,270.000,010720,0.000,E,A,V*68
$GPGGA,083303,3128.00000,N,12111.68345,E,3,11,0.77,-10.13,M,10.13,M,,*60
$GPRMC,083303,A,3128.00000,N,12111.68345,E,9.719,270.000,010720,0.000,E,A,V*6B
$GPGGA,083304,3128.00000,N,12111.68029,E,3,11,0.77,-10.13,M,10.13,M,,*6E
$GPRMC,083304,A,3128.00000,N,12111.68029,E,9.719,270.000,010720,0.000,E,A,V*65
$GPGGA,083305,3128.00000,N,12111.67713,E,3,11,0.77,-10.13,M,10.13,M,,*6E
$GPRMC,083305,A,3128.00000,N,12111.67713,E,9.719,270.000,010720,0.000,E,A,V*65
$GPGGA,083306,3128.00000,N,12111.67398,E,3,11,0.77,-10.13,M,10.13,M,,*6A
$GPRMC,083306,A,3128.00000,N,12111.67398,E,9.719,270.000,010720,0.000,E,A,V*61
$GPGGA,083307,3128.00000,N,12111.67082,E,3,11,0.77,-10.13,M,10.13,M,,*63
$GPRMC,083307,A,3128.00000,N,12111.67082,E,9.719,270.000,010720,0.000,E,A,V*68
$GPGGA,083308,3128.00000,N,12111.66766,E,3,11,0.77,-10.13,M,10.13,M,,*60
$GPRMC,083308,A,3128.00000,N,12111.66766,E,9.719,270.000,010720,0.000,E,A,V*6B
$GPGGA,083309,3128.00000,N,12111.66451,E,3,11,0.77,-10.13,M,10.13,M,,*66
$GPRMC,083309,A,3128.00000,N,12111.66451,E,9.719,270.000,010720,0.000,E,A,V*6D
$GPGGA,083310,3128.00000,N,12111.66135,E,3,11,0.77,-10.13,M,10.13,M,,*69
$GPRMC,083310,A,3128.00000,N,12111.66135,E,9.719,270.000,010720,0.000,E,A,V*62
$GPGGA,083311,3128.00000,N,12111.65819,E,3,11,0.77,-10.13,M,10.13,M,,*6C
$GPRMC,083311,A,3128.00000,N,12111.65819,E,9.719,270.000,010720,0.000,E,A,V*67
$GPGGA,083312,3128.00000,N,12111.65504,E,3,11,0.77,-10.13,M,10.13,M,,*6E
$GPRMC,083312,A,3128.00000,N,12111.65504,E,9.719,270.000,010720,0.000,E,A,V*65
$GPGGA,083313,3128.00000,N,12111.65188,E,3,11,0.77,-10.13,M,10.13,M,,*6F
$GPRMC,083313,A,3128.00000,N,12111.65188,E,9.719,270.000,010720,0.000,E,A,V*64
$GPGGA,083314,3128.00000,N,12111.64872,E,3,11,0.77,-10.13,M,10.13,M,,*65
$GPRMC,083314,A,3128.00000,N,12111.64872,E,9.719,270.000,010720,0.000,E,A,V*6E
$GPGGA,083315,3128.00000,N,12111.64557,E,3,11,0.77,-10.13,M,10.13,M,,*6E
$GPRMC,083315,A,3128.00000,N,12111.64557,E,9.719,270.000,010720,0.000,E,A,V*65
$GPGGA,083316,3128.00000,N,12111.64241,E,3,11,0.77,-10.13,M,10.13,M,,*6D
$GPRMC,083316,A,3128.00000,N,12111.64241,E,9.719,270.000,010720,0.000,E,A,V*66
$GPGGA,083317,3128.00000,N,12111.63925,E,3,11,0.77,-10.13,M,10.13,M,,*62
$GPRMC,083317,A,3128.00000,N,12111.63925,E,9.719,270.000,010720,0.000,E,A,V*69
$GPGGA,083318,3128.00000,N,12111.63610,E,3,11,0.77,-10.13,M,10.13,M,,*64
$GPRMC,083318,A,3128.00000,N,12111.63610,E,9.719,270.000,010720,0.000,E,A,V*6F
$GPGGA,083319,3128.00000,N,12111.63294,E,3,11,0.77,-10.13,M,10.13,M,,*6D
$GPRMC,083319,A,3128.00000,N,12111.63294,E,9.719,270.000,010720,0.000,E,A,V*66
$GPGGA,083320,3128.00000,N,12111.62978,E,3,11,0.77,-10.13,M,10.13,M,,*6F
$GPRMC,083320,A,3128.00000,N,12111.62978,E,9.719,270.000,010720,0.000,E,A,V*64
$GPGGA,083321,3128.00000,N,12111.62663,E,3,11,0.77,-10.13,M,10.13,M,,*6B
$GPRMC,083321,A,3128.00000,N,12111.62663,E,9.719,270.000,010720,0.000,E,A,V*60
$GPGGA,083322,3128.00000,N,12111.62347,E,3,11,0.77,-10.13,M,10.13,M,,*6B
$GPRMC,083322,A,3128.00000,N,12111.62347,E,9.719,270.000,010720,0.000,E,A,V*60
$GPGGA,083323,3128.00000,N,12111.62031,E,3,11,0.77,-10.13,M,10.13,M,,*68
$GPRMC,083323,A,3128.00000,N,12111.62031,E,9.719,270.000,010720,0.000,E,A,V*63
$GPGGA,083324,3128.00000,N,12111.61716,E,3,11,0.77,-10.13,M,10.13,M,,*6E
$GPRMC,083324,A,3128.00000,N,12111.61716,E,9.719,270.000,010720,0.000,E,A,V*65
$GPGGA,083325,3128.00000,N,12111.61400,E,3,11,0.77,-10.13,M,10.13,M,,*6B
$GPRMC,083325,A,3128.00000,N,12111.61400,E,9.719,270.000,010720,0.000,E,A,V*60
$GPGGA,083326,3128.00000,N,12111.61084,E,3,11,0.77,-10.13,M,10.13,M,,*60
$GPRMC,083326,A,3128.00000,N,12111.61084,E,9.719,270.000,010720,0.000,E,A,V*6B
$GPGGA,083327,3128.00000,N,12111.60769,E,3,11,0.77,-10.13,M,10.13,M,,*64
$GPRMC,083327,A,3128.00000,N,12111.60769,E,9.719,270.000,010720,0.000,E,A,V*6F
$GPGGA,083328,3128.00000,N,12111.60453,E,3,11,0.77,-10.13,M,10.13,M,,*61
$GPRMC,083328,A,3128.00000,N,12111.60453,E,9.719,270.000,010720,0.000,E,A,V*6A
$GPGGA,083329,3128.00000,N,12111.60137,E,3,11,0.77,-10.13,M,10.13,M,,*67
$GPRMC,083329,A,3128.00000,N,12111.60137,E,9.719,270.000,010720,0.000,E,A,V*6C
$GPGGA,083330,3128.00000,N,12111.59822,E,3,11,0.77,-10.13,M,10.13,M,,*68
$GPRMC,083330,A,3128.00000,N,12111.59822,E,9.719,270.000,010720,0.000,E,A,V*63
$GPGGA,083331,3128.00000,N,12111.59506,E,3,11,0.77,-10.13,M,10.13,M,,*62
$GPRMC,083331,A,3128.00000,N,12111.59506,E,9.719,270.000,010720,0.000,E,A,V*69
$GPGGA,083332,3128.00000,N,12111.59190,E,3,11,0.77,-10.13,M,10.13,M,,*6A
$GPRMC,083332,A,3128.00000,N,12111.59190,E,9.719,270.000,010720,0.000,E,A,V*61
$GPGGA,083333,3128.00000,N,12111.58875,E,3,11,0.77,-10.13,M,10.13,M,,*68
$GPRMC,083333,A,3128.00000,N,12111.58875,E,9.719,270.000,010720,0.000,E,A,V*63
$GPGGA,083334,3128.00000,N,12111.58559,E,3,11,0.77,-10.13,M,10.13,M,,*6C
$GPRMC,083334,A,3128.00000,N,12111.58559,E,9.719,270.000,010720,0.000,E,A,V*67
$GPGGA,083335,3128.00000,N,12111.58243,E,3,11,0.77,-10.13,M,10.13,M,,*61
$GPRMC,083335,A,3128.00000,N,12111.58243,E,9.719,270.000,010720,0.000,E,A,V*6A
$GPGGA,083336,3128.00000,N,12111.57928,E,3,11,0.77,-10.13,M,10.13,M,,*6B
$GPRMC,083336,A,3128.00000,N,12111.57928,E,9.719,270.000,010720,0.000,E,A,V*60
$GPGGA,083337,3128.00000,N,12111.57612,E,3,11,0.77,-10.13,M,10.13,M,,*6C
$GPRMC,083337,A,3128.00000,N,12111.57612,E,9.719,270.000,010720,0.000,E,A,V*67
$GPGGA,083338,3128.00000,N,12111.57296,E,3,11,0.77,-10.13,M,10.13,M,,*6B
$GPRMC,083338,A,3128.00000,N,12111.57296,E,9.719,270.000,010720,0.000,E,A,V*60
$GPGGA,083339,3128.00000,N,12111.56981,E,3,11,0.77,-10.13,M,10.13,M,,*66
$GPRMC,083339,A,3128.00000,N,12111.56981,E,9.719,270.000,010720,0.000,E,A,V*6D
$GPGGA,083340,3128.00000,N,12111.56665,E,3,11,0.77,-10.12,M,10.12,M,,*6D
$GPRMC,083340,A,3128.00000,N,12111.56665,E,9.719,270.000,010720,0.000,E,A,V*66
$GPGGA,083341,3128.00000,N,12111.56349,E,3,11,0.77,-10.12,M,10.12,M,,*67
$GPRMC,083341,A,3128.00000,N,12111.56349,E,9.719,270.000,010720,0.000,E,A,V*6C
$GPGGA,083342,3128.00000,N,12111.56034,E,3,11,0.77,-10.12,M,10.12,M,,*6D
$GPRMC,083342,A,3128.00000,N,12111.56034,E,9.719,270.000,010720,0.000,E,A,V*66
$GPGGA,083343,3128.00000,N,12111.55718,E,3,11,0.77,-10.12,M,10.12,M,,*66
$GPRMC,083343,A,3128.00000,N,12111.55718,E,9.719,270.000,010720,0.000,E,A,V*6D
$GPGGA,083344,3128.00000,N,12111.55402,E,3,11,0.77,-10.12,M,10.12,M,,*69
$GPRMC,083344,A,3128.00000,N,12111.55402,E,9.719,270.000,010720,0.000,E,A,V*62
$GPGGA,083345,3128.00000,N,12111.55087,E,3,11,0.77,-10.12,M,10.12,M,,*61
$GPRMC,083345,A,3128.00000,N,12111.55087,E,9.719,270.000,010720,0.000,E,A,V*6A
$GPGGA,083346,3128.00000,N,12111.54771,E,3,11,0.77,-10.12,M,10.12,M,,*6D
$GPRMC,083346,A,3128.00000,N,12111.54771,E,9.719,270.000,010720,0.000,E,A,V*66
$GPGGA,083347,3128.00000,N,12111.54455,E,3,11,0.77,-10.12,M,10.12,M,,*69
$GPRMC,083347,A,3128.00000,N,12111.54455,E,9.719,270.000,010720,0.000,E,A,V*62
$GPGGA,083348,3128.00000,N,12111.54140,E,3,11,0.77,-10.12,M,10.12,M,,*67
$GPRMC,083348,A,3128.00000,N,12111.54140,E,9.719,270.000,010720,0.000,E,A,V*6C
$GPGGA,083349,3128.00000,N,12111.53824,E,3,11,0.77,-10.12,M,10.12,M,,*6A
$GPRMC,083349,A,3128.00000,N,12111.53824,E,9.719,270.000,010720,0.000,E,A,V*61
$GPGGA,083350,3128.00000,N,12111.53508,E,3,11,0.77,-10.12,M,10.12,M,,*61
$GPRMC,083350,A,3128.00000,N,12111.53508,E,9.719,270.000,010720,0.000,E,A,V*6A
$GPGGA,083351,3128.00000,N,12111.53193,E,3,11,0.77,-10.12,M,10.12,M,,*66
$GPRMC,083351,A,3128.00000,N,12111.53193,E,9.719,270.000,010720,0.000,E,A,V*6D
$GPGGA,083352,3128.00000,N,12111.52877,E,3,11,0.77,-10.12,M,10.12,M,,*67
$GPRMC,083352,A,3128.00000,N,12111.52877,E,9.719,270.000,010720,0.000,E,A,V*6C
$GPGGA,083353,3128.00000,N,12111.52561,E,3,11,0.77,-10.12,M,10.12,M,,*6C
$GPRMC,083353,A,3128.00000,N,12111.52561,E,9.719,270.000,010720,0.000,E,A,V*67
$GPGGA,083354,3128.00000,N,12111.52246,E,3,11,0.77,-10.12,M,10.12,M,,*69
$GPRMC,083354,A,3128.00000,N,12111.52246,E,9.719,270.000,010720,0.000,E,A,V*62
$GPGGA,083355,3128.00000,N,12111.51930,E,3,11,0.77,-10.12,M,10.12,M,,*61
$GPRMC,083355,A,3128.00000,N,12111.51930,E,9.719,270.000,010720,0.000,E,A,V*6A
$GPGGA,083356,3128.00000,N,12111.51614,E,3,11,0.77,-10.12,M,10.12,M,,*6B
$GPRMC,083356,A,3128.00000,N,12111.51614,E,9.719,270.000,010720,0.000,E,A,V*60
$GPGGA,083357,3128.00000,N,12111.51299,E,3,11,0.77,-10.12,M,10.12,M,,*6B
$GPRMC,083357,A,3128.00000,N,12111.51299,E,9.719,270.000,010720,0.000,E,A,V*60
$GPGGA,083358,3128.00000,N,12111.50983,E,3,11,0.77,-10.12,M,10.12,M,,*65
$GPRMC,083358,A,3128.00000,N,12111.50983,E,9.719,270.000,010720,0.000,E,A,V*6E
$GPGGA,083359,3128.00000,N,12111.50667,E,3,11,0.77,-10.12,M,10.12,M,,*61
$GPRMC,083359,A,3128.00000,N,12111.50667,E,9.719,270.000,010720,0.000,E,A,V*6A
$GPGGA,083400,3128.00000,N,12111.50352,E,3,11,0.77,-10.12,M,10.12,M,,*69
$GPRMC,083400,A,3128.00000,N,12111.50352,E,9.719,270.000,010720,0.000,E,A,V*62
$GPGGA,083401,3128.00000,N,12111.50036,E,3,11,0.77,-10.12,M,10.12,M,,*69
$GPRMC,083401,A,3128.00000,N,12111.50036,E,9.719,270.000,010720,0.000,E,A,V*62
$GPGGA,083402,3128.00000,N,12111.49720,E,3,11,0.77,-10.12,M,10.12,M,,*62
$GPRMC,083402,A,3128.00000,N,12111.49720,E,9.719,270.000,010720,0.000,E,A,V*69
$GPGGA,083403,3128.00000,N,12111.49404,E,3,11,0.77,-10.12,M,10.12,M,,*66
$GPRMC,083403,A,3128.00000,N,12111.49404,E,9.719,270.000,010720,0.000,E,A,V*6D
$GPGGA,083404,3128.00000,N,12111.49089,E,3,11,0.77,-10.12,M,10.12,M,,*60
$GPRMC,083404,A,3128.00000,N,12111.49089,E,9.719,270.000,010720,0.000,E,A,V*6B
$GPGGA,083405,3128.00000,N,12111.48773,E,3,11,0.77,-10.12,M,10.12,M,,*62
$GPRMC,083405,A,3128.00000,N,12111.48773,E,9.719,270.000,010720,0.000,E,A,V*69
$GPGGA,083406,3128.00000,N,12111.48457,E,3,11,0.77,-10.12,M,10.12,M,,*64
$GPRMC,083406,A,3128.00000,N,12111.48457,E,9.719,270.000,010720,0.000,E,A,V*6F
$GPGGA,083407,3128.00000,N,12111.48142,E,3,11,0.77,-10.12,M,10.12,M,,*64
$GPRMC,083407,A,3128.00000,N,12111.48142,E,9.719,270.000,010720,0.000,E,A,V*6F
$GPGGA,083408,3128.00000,N,12111.47826,E,3,11,0.77,-10.12,M,10.12,M,,*6F
$GPRMC,083408,A,3128.00000,N,12111.47826,E,9.719,270.000,010720,0.000,E,A,V*64
$GPGGA,083409,3128.00000,N,12111.47510,E,3,11,0.77,-10.12,M,10.12,M,,*66
$GPRMC,083409,A,3128.00000,N,12111.47510,E,9.719,270.000,010720,0.000,E,A,V*6D
$GPGGA,083410,3128.00000,N,12111.47195,E,3,11,0.77,-10.12,M,10.12,M,,*67
$GPRMC,083410,A,3128.00000,N,12111.47195,E,9.719,270.000,010720,0.000,E,A,V*6C
$GPGGA,083411,3128.00000,N,12111.46879,E,3,11,0.77,-10.12,M,10.12,M,,*6C
$GPRMC,083411,A,3128.00000,N,12111.46879,E,9.719,270.000,010720,0.000,E,A,V*67
$GPGGA,083412,3128.00000,N,12111.46563,E,3,11,0.77,-10.12,M,10.12,M,,*69
$GPRMC,083412,A,3128.00000,N,12111.46563,E,9.719,270.000,010720,0.000,E,A,V*62
$GPGGA,083413,3128.00000,N,12111.46248,E,3,11,0.77,-10.12,M,10.12,M,,*66
$GPRMC,083413,A,3128.00000,N,12111.46248,E,9.719,270.000,010720,0.000,E,A,V*6D
$GPGGA,083414,3128.00000,N,12111.45932,E,3,11,0.77,-10.12,M,10.12,M,,*64
$GPRMC,083414,A,3128.00000,N,12111.45932,E,9.719,270.000,010720,0.000,E,A,V*6F
$GPGGA,083415,3128.00000,N,12111.45616,E,3,11,0.77,-10.12,M,10.12,M,,*6C
$GPRMC,083415,A,3128.00000,N,12111.45616,E,9.719,270.000,010720,0.000,E,A,V*67
$GPGGA,083416,3128.00000,N,12111.45301,E,3,11,0.77,-10.12,M,10.12,M,,*6C
$GPRMC,083416,A,3128.00000,N,12111.45301,E,9.719,270.000,010720,0.000,E,A,V*67
$GPGGA,083417,3128.00000,N,12111.44985,E,3,11,0.77,-10.12,M,10.12,M,,*6A
$GPRMC,083417,A,3128.00000,N,12111.44985,E,9.719,270.000,010720,0.000,E,A,V*61
$GPGGA,083418,3128.00000,N,12111.44669,E,3,11,0.77,-10.12,M,10.12,M,,*68
$GPRMC,083418,A,3128.00000,N,12111.44669,E,9.719,270.000,010720,0.000,E,A,V*63
$GPGGA,083419,3128.00000,N,12111.44354,E,3,11,0.77,-10.12,M,10.12,M,,*62
$GPRMC,083419,A,3128.00000,N,12111.44354,E,9.719,270.000,010720,0.000,E,A,V*69
$GPGGA,083420,3128.00000,N,12111.44038,E,3,11,0.77,-10.12,M,10.12,M,,*61
$GPRMC,083420,A,3128.00000,N,12111.44038,E,9.719,270.000,010720,0.000,E,A,V*6A
$GPGGA,083421,3128.00000,N,12111.43722,E,3,11,0.77,-10.12,M,10.12,M,,*6B
$GPRMC,083421,A,3128.00000,N,12111.43722,E,9.719,270.000,010720,0.000,E,A,V*60
$GPGGA,083422,3128.00000,N,12111.43407,E,3,11,0.77,-10.12,M,10.12,M,,*6C
$GPRMC,083422,A,3128.00000,N,12111.43407,E,9.719,270.000,010720,0.000,E,A,V*67
$GPGGA,083423,3128.00000,N,12111.43091,E,3,11,0.77,-10.12,M,10.12,M,,*66
$GPRMC,083423,A,3128.00000,N,12111.43091,E,9.719,270.000,010720,0.000,E,A,V*6D
$GPGGA,083424,3128.00000,N,12111.42775,E,3,11,0.77,-10.12,M,10.12,M,,*6D
$GPRMC,083424,A,3128.00000,N,12111.42775,E,9.719,270.000,010720,0.000,E,A,V*66
$GPGGA,083425,3128.00000,N,12111.42460,E,3,11,0.77,-10.12,M,10.12,M,,*6B
$GPRMC,083425,A,3128.00000,N,12111.42460,E,9.719,270.000,010720,0.000,E,A,V*60
$GPGGA,083426,3128.00000,N,12111.42144,E,3,11,0.77,-10.12,M,10.12,M,,*6B
$GPRMC,083426,A,3128.00000,N,12111.42144,E,9.719,270.000,010720,0.000,E,A,V*60
$GPGGA,083427,3128.00000,N,12111.41828,E,3,11,0.77,-10.12,M,10.12,M,,*6A
$GPRMC,083427,A,3128.00000,N,12111.41828,E,9.719,270.000,010720,0.000,E,A,V*61
$GPGGA,083428,3128.00000,N,12111.41513,E,3,11,0.77,-10.12,M,10.12,M,,*60
$GPRMC,083428,A,3128.00000,N,12111.41513,E,9.719,270.000,010720,0.000,E,A,V*6B
$GPGGA,083429,3128.00000,N,12111.41197,E,3,11,0.77,-10.12,M,10.12,M,,*69
$GPRMC,083429,A,3128.00000,N,12111.41197,E,9.719,270.000,010720,0.000,E,A,V*62
$GPGGA,083430,3128.00000,N,12111.40881,E,3,11,0.77,-10.12,M,10.12,M,,*6E
$GPRMC,083430,A,3128.00000,N,12111.40881,E,9.719,270.000,010720,0.000,E,A,V*65
$GPGGA,083431,3128.00000,N,12111.40566,E,3,11,0.77,-10.12,M,10.12,M,,*6B
$GPRMC,083431,A,3128.00000,N,12111.40566,E,9.719,270.000,010720,0.000,E,A,V*60
$GPGGA,083432,3128.00000,N,12111.40250,E,3,11,0.77,-10.12,M,10.12,M,,*6A
$GPRMC,083432,A,3128.00000,N,12111.40250,E,9.719,270.000,010720,0.000,E,A,V*61
$GPGGA,083433,3128.00000,N,12111.39934,E,3,11,0.77,-10.12,M,10.12,M,,*6C
$GPRMC,083433,A,3128.00000,N,12111.39934,E,9.719,270.000,010720,0.000,E,A,V*67
$GPGGA,083434,3128.00000,N,12111.39619,E,3,11,0.77,-10.12,M,10.12,M,,*6B
$GPRMC,083434,A,3128.00000,N,12111.39619,E,9.719,270.000,010720,0.000,E,A,V*60
$GPGGA,083435,3128.00000,N,12111.39303,E,3,11,0.77,-10.12,M,10.12,M,,*64
$GPRMC,083435,A,3128.00000,N,12111.39303,E,9.719,270.000,010720,0.000,E,A,V*6F
$GPGGA,083436,3128.00000,N,12111.38987,E,3,11,0.77,-10.12,M,10.12,M,,*60
$GPRMC,083436,A,3128.00000,N,12111.38987,E,9.719,270.000,010720,0.000,E,A,V*6B
$GPGGA,083437,3128.00000,N,12111.38672,E,3,11,0.77,-10.12,M,10.12,M,,*64
$GPRMC,083437,A,3128.00000,N,12111.38672,E,9.719,270.000,010720,0.000,E,A,V*6F
$GPGGA,083438,3128.00000,N,12111.38356,E,3,11,0.77,-10.11,M,10.11,M,,*68
$GPRMC,083438,A,3128.00000,N,12111.38356,E,9.719,270.000,010720,0.000,E,A,V*63
$GPGGA,083439,3128.00000,N,12111.38040,E,3,11,0.77,-10.11,M,10.11,M,,*6D
$GPRMC,083439,A,3128.00000,N,12111.38040,E,9.719,270.000,010720,0.000,E,A,V*66
$GPGGA,083440,3128.00000,N,12111.37725,E,3,11,0.77,-10.11,M,10.11,M,,*68
$GPRMC,083440,A,3128.00000,N,12111.37725,E,9.719,270.000,010720,0.000,E,A,V*63
$GPGGA,083441,3128.00000,N,12111.37409,E,3,11,0.77,-10.11,M,10.11,M,,*64
$GPRMC,083441,A,3128.00000,N,12111.37409,E,9.719,270.000,010720,0.000,E,A,V*6F
$GPGGA,083442,3128.00000,N,12111.37093,E,3,11,0.77,-10.11,M,10.11,M,,*60
$GPRMC,083442,A,3128.00000,N,12111.37093,E,9.719,270.000,010720,0.000,E,A,V*6B
$GPGGA,083443,3128.00000,N,12111.36778,E,3,11,0.77,-10.11,M,10.11,M,,*62
$GPRMC,083443,A,3128.00000,N,12111.36778,E,9.719,270.000,010720,0.000,E,A,V*69
$GPGGA,083444,3128.00000,N,12111.36462,E,3,11,0.77,-10.11,M,10.11,M,,*6D
$GPRMC,083444,A,3128.00000,N,12111.36462,E,9.719,270.000,010720,0.000,E,A,V*66
$GPGGA,083445,3128.00000,N,12111.36146,E,3,11,0.77,-10.11,M,10.11,M,,*6F
$GPRMC,083445,A,3128.00000,N,12111.36146,E,9.719,270.000,010720,0.000,E,A,V*64
$GPGGA,083446,3128.00000,N,12111.35831,E,3,11,0.77,-10.11,M,10.11,M,,*66
$GPRMC,083446,A,3128.00000,N,12111.35831,E,9.719,270.000,010720,0.000,E,A,V*6D
$GPGGA,083447,3128.00000,N,12111.35515,E,3,11,0.77,-10.11,M,10.11,M,,*6C
$GPRMC,083447,A,3128.00000,N,12111.35515,E,9.719,270.000,010720,0.000,E,A,V*67
$GPGGA,083448,3128.00000,N,12111.35199,E,3,11,0.77,-10.11,M,10.11,M,,*63
$GPRMC,083448,A,3128.00000,N,12111.35199,E,9.719,270.000,010720,0.000,E,A,V*68
$GPGGA,083449,3128.00000,N,12111.34884,E,3,11,0.77,-10.11,M,10.11,M,,*66
$GPRMC,083449,A,3128.00000,N,12111.34884,E,9.719,270.000,010720,0.000,E,A,V*6D
$GPGGA,083450,3128.00000,N,12111.34568,E,3,11,0.77,-10.11,M,10.11,M,,*61
$GPRMC,083450,A,3128.00000,N,12111.34568,E,9.719,270.000,010720,0.000,E,A,V*6A
$GPGGA,083451,3128.00000,N,12111.34252,E,3,11,0.77,-10.11,M,10.11,M,,*6E
$GPRMC,083451,A,3128.00000,N,12111.34252,E,9.719,270.000,010720,0.000,E,A,V*65
$GPGGA,083452,3128.00000,N,12111.33937,E,3,11,0.77,-10.11,M,10.11,M,,*62
$GPRMC,083452,A,3128.00000,N,12111.33937,E,9.719,270.000,010720,0.000,E,A,V*69
$GPGGA,083453,3128.00000,N,12111.33621,E,3,11,0.77,-10.11,M,10.11,M,,*6B
$GPRMC,083453,A,3128.00000,N,12111.33621,E,9.719,270.000,010720,0.000,E,A,V*60
$GPGGA,083454,3128.00000,N,12111.33305,E,3,11,0.77,-10.11,M,10.11,M,,*6F
$GPRMC,083454,A,3128.00000,N,12111.33305,E,9.719,270.000,010720,0.000,E,A,V*64
$GPGGA,083455,3128.00000,N,12111.32990,E,3,11,0.77,-10.11,M,10.11,M,,*69
$GPRMC,083455,A,3128.00000,N,12111.32990,E,9.719,270.000,010720,0.000,E,A,V*62
$GPGGA,083456,3128.00000,N,12111.32674,E,3,11,0.77,-10.11,M,10.11,M,,*6F
$GPRMC,083456,A,3128.00000,N,12111.32674,E,9.719,270.000,010720,0.000,E,A,V*64
$GPGGA,083457,3128.00000,N,12111.32358,E,3,11,0.77,-10.11,M,10.11,M,,*65
$GPRMC,083457,A,3128.00000,N,12111.32358,E,9.719,270.000,010720,0.000,E,A,V*6E
$GPGGA,083458,3128.00000,N,12111.32043,E,3,11,0.77,-10.11,M,10.11,M,,*63
$GPRMC,083458,A,3128.00000,N,12111.32043,E,9.719,270.000,010720,0.000,E,A,V*68
$GPGGA,083459,3128.00000,N,12111.31727,E,3,11,0.77,-10.11,M,10.11,M,,*64
$GPRMC,083459,A,3128.00000,N,12111.31727,E,9.719,270.000,010720,0.000,E,A,V*6F
$GPGGA,083500,3128.00000,N,12111.31411,E,3,11,0.77,-10.11,M,10.11,M,,*6F
$GPRMC,083500,A,3128.00000,N,12111.31411,E,9.719,270.000,010720,0.000,E,A,V*64
$GPGGA,083501,3128.00000,N,12111.31096,E,3,11,0.77,-10.11,M,10.11,M,,*65
$GPRMC,083501,A,3128.00000,N,12111.31096,E,9.719,270.000,010720,0.000,E,A,V*6E
$GPGGA,083502,3128.00000,N,12111.30780,E,3,11,0.77,-10.11,M,10.11,M,,*67
$GPRMC,083502,A,3128.00000,N,12111.30780,E,9.719,270.000,010720,0.000,E,A,V*6C
$GPGGA,083503,3128.00000,N,12111.30464,E,3,11,0.77,-10.11,M,10.11,M,,*6F
$GPRMC,083503,A,3128.00000,N,12111.30464,E,9.719,270.000,010720,0.000,E,A,V*64
$GPGGA,083504,3128.00000,N,12111.30149,E,3,11,0.77,-10.11,M,10.11,M,,*62
$GPRMC,083504,A,3128.00000,N,12111.30149,E,9.719,270.000,010720,0.000,E,A,V*69
$GPGGA,083505,3128.00000,N,12111.29833,E,3,11,0.77,-10.11,M,10.11,M,,*6F
$GPRMC,083505,A,3128.00000,N,12111.29833,E,9.719,270.000,010720,0.000,E,A,V*64
$GPGGA,083506,3128.00000,N,12111.29517,E,3,11,0.77,-10.11,M,10.11,M,,*67
$GPRMC,083506,A,3128.00000,N,12111.29517,E,9.719,270.000,010720,0.000,E,A,V*6C
$GPGGA,083507,3128.00000,N,12111.29202,E,3,11,0.77,-10.11,M,10.11,M,,*65
$GPRMC,083507,A,3128.00000,N,12111.29202,E,9.719,270.000,010720,0.000,E,A,V*6E
$GPGGA,083508,3128.00000,N,12111.28886,E,3,11,0.77,-10.11,M,10.11,M,,*6D
$GPRMC,083508,A,3128.00000,N,12111.28886,E,9.719,270.000,010720,0.000,E,A,V*66
$GPGGA,083509,3128.00000,N,12111.28570,E,3,11,0.77,-10.11,M,10.11,M,,*68
$GPRMC,083509,A,3128.00000,N,12111.28570,E,9.719,270.000,010720,0.000,E,A,V*63
$GPGGA,083510,3128.00000,N,12111.28255,E,3,11,0.77,-10.11,M,10.11,M,,*60
$GPRMC,083510,A,3128.00000,N,12111.28255,E,9.719,270.000,010720,0.000,E,A,V*6B
$GPGGA,083511,3128.00000,N,12111.27939,E,3,11,0.77,-10.11,M,10.11,M,,*6F
$GPRMC,083511,A,3128.00000,N,12111.27939,E,9.719,270.000,010720,0.000,E,A,V*64
$GPGGA,083512,3128.00000,N,12111.27623,E,3,11,0.77,-10.11,M,10.11,M,,*68
$GPRMC,083512,A,3128.00000,N,12111.27623,E,9.719,270.000,010720,0.000,E,A,V*63
$GPGGA,083513,3128.00000,N,12111.27308,E,3,11,0.77,-10.11,M,10.11,M,,*65
$GPRMC,083513,A,3128.00000,N,12111.27308,E,9.719,270.000,010720,0.000,E,A,V*6E
$GPGGA,083514,3128.00000,N,12111.26992,E,3,11,0.77,-10.11,M,10.11,M,,*6A
$GPRMC,083514,A,3128.00000,N,12111.26992,E,9.719,270.000,010720,0.000,E,A,V*61
$GPGGA,083515,3128.00000,N,12111.26676,E,3,11,0.77,-10.11,M,10.11,M,,*6E
$GPRMC,083515,A,3128.00000,N,12111.26676,E,9.719,270.000,010720,0.000,E,A,V*65
$GPGGA,083516,3128.00000,N,12111.26361,E,3,11,0.77,-10.11,M,10.11,M,,*6E
$GPRMC,083516,A,3128.00000,N,12111.26361,E,9.719,270.000,010720,0.000,E,A,V*65
$GPGGA,083517,3128.00000,N,12111.26045,E,3,11,0.77,-10.11,M,10.11,M,,*6A
$GPRMC,083517,A,3128.00000,N,12111.26045,E,9.719,270.000,010720,0.000,E,A,V*61
$GPGGA,083518,3128.00000,N,12111.25729,E,3,11,0.77,-10.11,M,10.11,M,,*6B
$GPRMC,083518,A,3128.00000,N,12111.25729,E,9.719,270.000,010720,0.000,E,A,V*60
$GPGGA,083519,3128.00000,N,12111.25414,E,3,11,0.77,-10.11,M,10.11,M,,*67
