$GPGGA,082236,3128.00000,N,12113.66270,E,3,11,0.78,-10.25,M,10.25,M,,*62
$GPRMC,082236,A,3128.00000,N,12113.66270,E,9.719,270.000,010720,0.000,E,A,V*66
$GPGGA,082237,3128.00000,N,12113.65954,E,3,11,0.78,-10.25,M,10.25,M,,*6D
$GPRMC,082237,A,3128.00000,N,12113.65954,E,9.719,270.000,010720,0.000,E,A,V*69
$GPGGA,082238,3128.00000,N,12113.65638,E,3,11,0.78,-10.25,M,10.25,M,,*67
$GPRMC,082238,A,3128.00000,N,12113.65638,E,9.719,270.000,010720,0.000,E,A,V*63
$GPGGA,082239,3128.00000,N,12113.65323,E,3,11,0.78,-10.25,M,10.25,M,,*69
$GPRMC,082239,A,3128.00000,N,12113.65323,E,9.719,270.000,010720,0.000,E,A,V*6D
$GPGGA,082240,3128.00000,N,12113.65007,E,3,11,0.78,-10.25,M,10.25,M,,*62
$GPRMC,082240,A,3128.00000,N,12113.65007,E,9.719,270.000,010720,0.000,E,A,V*66
$GPGGA,082241,3128.00000,N,12113.64691,E,3,11,0.78,-10.25,M,10.25,M,,*6B
$GPRMC,082241,A,3128.00000,N,12113.64691,E,9.719,270.000,010720,0.000,E,A,V*6F
$GPGGA,082242,3128.00000,N,12113.64376,E,3,11,0.78,-10.25,M,10.25,M,,*64
$GPRMC,082242,A,3128.00000,N,12113.64376,E,9.719,270.000,010720,0.000,E,A,V*60
$GPGGA,082243,3128.00000,N,12113.64060,E,3,11,0.78,-10.25,M,10.25,M,,*61
$GPRMC,082243,A,3128.00000,N,12113.64060,E,9.719,270.000,010720,0.000,E,A,V*65
$GPGGA,082244,3128.00000,N,12113.63744,E,3,11,0.78,-10.25,M,10.25,M,,*60
$GPRMC,082244,A,3128.00000,N,12113.63744,E,9.719,270.000,010720,0.000,E,A,V*64
$GPGGA,082245,3128.00000,N,12113.63429,E,3,11,0.78,-10.25,M,10.25,M,,*69
$GPRMC,082245,A,3128.00000,N,12113.63429,E,9.719,270.000,010720,0.000,E,A,V*6D
$GPGGA,082246,3128.00000,N,12113.63113,E,3,11,0.78,-10.25,M,10.25,M,,*66
$GPRMC,082246,A,3128.00000,N,12113.63113,E,9.719,270.000,010720,0.000,E,A,V*62
$GPGGA,082247,3128.00000,N,12113.62797,E,3,11,0.78,-10.25,M,10.25,M,,*6C
$GPRMC,082247,A,3128.00000,N,12113.62797,E,9.719,270.000,010720,0.000,E,A,V*68
$GPGGA,082248,3128.00000,N,12113.62482,E,3,11,0.78,-10.25,M,10.25,M,,*64
$GPRMC,082248,A,3128.00000,N,12113.62482,E,9.719,270.000,010720,0.000,E,A,V*60
$GPGGA,082249,3128.00000,N,12113.62166,E,3,11,0.78,-10.25,M,10.25,M,,*6A
$GPRMC,082249,A,3128.00000,N,12113.62166,E,9.719,270.000,010720,0.000,E,A,V*6E
$GPGGA,082250,3128.00000,N,12113.61850,E,3,11,0.78,-10.24,M,10.24,M,,*6D
$GPRMC,082250,A,3128.00000,N,12113.61850,E,9.719,270.000,010720,0.000,E,A,V*69
$GPGGA,082251,3128.00000,N,12113.61535,E,3,11,0.78,-10.24,M,10.24,M,,*62
$GPRMC,082251,A,3128.00000,N,12113.61535,E,9.719,270.000,010720,0.000,E,A,V*66
$GPGGA,082252,3128.00000,N,12113.61219,E,3,11,0.78,-10.24,M,10.24,M,,*68
$GPRMC,082252,A,3128.00000,N,12113.61219,E,9.719,270.000,010720,0.000,E,A,V*6C
$GPGGA,082253,3128.00000,N,12113.60903,E,3,11,0.78,-10.24,M,10.24,M,,*68
$GPRMC,082253,A,3128.00000,N,12113.60903,E,9.719,270.000,010720,0.000,E,A,V*6C
$GPGGA,082254,3128.00000,N,12113.60588,E,3,11,0.78,-10.24,M,10.24,M,,*60
$GPRMC,082254,A,3128.00000,N,12113.60588,E,9.719,270.000,010720,0.000,E,A,V*64
$GPGGA,082255,3128.00000,N,12113.60272,E,3,11,0.78,-10.24,M,10.24,M,,*63
$GPRMC,082255,A,3128.00000,N,12113.60272,E,9.719,270.000,010720,0.000,E,A,V*67
$GPGGA,082256,3128.00000,N,12113.59956,E,3,11,0.78,-10.24,M,10.24,M,,*67
$GPRMC,082256,A,3128.00000,N,12113.59956,E,9.719,270.000,010720,0.000,E,A,V*63
$GPGGA,082257,3128.00000,N,12113.59641,E,3,11,0.78,-10.24,M,10.24,M,,*6F
$GPRMC,082257,A,3128.00000,N,12113.59641,E,9.719,270.000,010720,0.000,E,A,V*6B
$GPGGA,082258,3128.00000,N,12113.59325,E,3,11,0.78,-10.24,M,10.24,M,,*67
$GPRMC,082258,A,3128.00000,N,12113.59325,E,9.719,270.000,010720,0.000,E,A,V*63
$GPGGA,082259,3128.00000,N,12113.59009,E,3,11,0.78,-10.24,M,10.24,M,,*6B
$GPRMC,082259,A,3128.00000,N,12113.59009,E,9.719,270.000,010720,0.000,E,A,V*6F
$GPGGA,082300,3128.00000,N,12113.58694,E,3,11,0.78,-10.24,M,10.24,M,,*65
$GPRMC,082300,A,3128.00000,N,12113.58694,E,9.719,270.000,010720,0.000,E,A,V*61
$GPGGA,082301,3128.00000,N,12113.58378,E,3,11,0.78,-10.24,M,10.24,M,,*63
$GPRMC,082301,A,3128.00000,N,12113.58378,E,9.719,270.000,010720,0.000,E,A,V*67
$GPGGA,082302,3128.00000,N,12113.58062,E,3,11,0.78,-10.24,M,10.24,M,,*68
$GPRMC,082302,A,3128.00000,N,12113.58062,E,9.719,270.000,010720,0.000,E,A,V*6C
$GPGGA,082303,3128.00000,N,12113.57747,E,3,11,0.78,-10.24,M,10.24,M,,*66
$GPRMC,082303,A,3128.00000,N,12113.57747,E,9.719,270.000,010720,0.000,E,A,V*62
$GPGGA,082304,3128.00000,N,12113.57431,E,3,11,0.78,-10.24,M,10.24,M,,*63
$GPRMC,082304,A,3128.00000,N,12113.57431,E,9.719,270.000,010720,0.000,E,A,V*67
$GPGGA,082305,3128.00000,N,12113.57115,E,3,11,0.78,-10.24,M,10.24,M,,*61
$GPRMC,082305,A,3128.00000,N,12113.57115,E,9.719,270.000,010720,0.000,E,A,V*65
$GPGGA,082306,3128.00000,N,12113.56800,E,3,11,0.78,-10.24,M,10.24,M,,*6E
$GPRMC,082306,A,3128.00000,N,12113.56800,E,9.719,270.000,010720,0.000,E,A,V*6A
$GPGGA,082307,3128.00000,N,12113.56484,E,3,11,0.78,-10.24,M,10.24,M,,*6F
$GPRMC,082307,A,3128.00000,N,12113.56484,E,9.719,270.000,010720,0.000,E,A,V*6B
$GPGGA,082308,3128.00000,N,12113.56168,E,3,11,0.78,-10.24,M,10.24,M,,*67
$GPRMC,082308,A,3128.00000,N,12113.56168,E,9.719,270.000,010720,0.000,E,A,V*63
$GPGGA,082309,3128.00000,N,12113.55853,E,3,11,0.78,-10.24,M,10.24,M,,*64
$GPRMC,082309,A,3128.00000,N,12113.55853,E,9.719,270.000,010720,0.000,E,A,V*60
$GPGGA,082310,3128.00000,N,12113.55537,E,3,11,0.78,-10.24,M,10.24,M,,*63
$GPRMC,082310,A,3128.00000,N,12113.55537,E,9.719,270.000,010720,0.000,E,A,V*67
$GPGGA,082311,3128.00000,N,12113.55221,E,3,11,0.78,-10.24,M,10.24,M,,*62
$GPRMC,082311,A,3128.00000,N,12113.55221,E,9.719,270.000,010720,0.000,E,A,V*66
$GPGGA,082312,3128.00000,N,12113.54906,E,3,11,0.78,-10.24,M,10.24,M,,*6E
$GPRMC,082312,A,3128.00000,N,12113.54906,E,9.719,270.000,010720,0.000,E,A,V*6A
$GPGGA,082313,3128.00000,N,12113.54590,E,3,11,0.78,-10.24,M,10.24,M,,*6C
$GPRMC,082313,A,3128.00000,N,12113.54590,E,9.719,270.000,010720,0.000,E,A,V*68
$GPGGA,082314,3128.00000,N,12113.54274,E,3,11,0.78,-10.24,M,10.24,M,,*66
$GPRMC,082314,A,3128.00000,N,12113.54274,E,9.719,270.000,010720,0.000,E,A,V*62
$GPGGA,082315,3128.00000,N,12113.53959,E,3,11,0.78,-10.24,M,10.24,M,,*64
$GPRMC,082315,A,3128.00000,N,12113.53959,E,9.719,270.000,010720,0.000,E,A,V*60
$GPGGA,082316,3128.00000,N,12113.53643,E,3,11,0.78,-10.24,M,10.24,M,,*63
$GPRMC,082316,A,3128.00000,N,12113.53643,E,9.719,270.000,010720,0.000,E,A,V*67
$GPGGA,082317,3128.00000,N,12113.53327,E,3,11,0.78,-10.24,M,10.24,M,,*65
$GPRMC,082317,A,3128.00000,N,12113.53327,E,9.719,270.000,010720,0.000,E,A,V*61
$GPGGA,082318,3128.00000,N,12113.53012,E,3,11,0.78,-10.24,M,10.24,M,,*6F
$GPRMC,082318,A,3128.00000,N,12113.53012,E,9.719,270.000,010720,0.000,E,A,V*6B
$GPGGA,082319,3128.00000,N,12113.52696,E,3,11,0.78,-10.24,M,10.24,M,,*65
$GPRMC,082319,A,3128.00000,N,12113.52696,E,9.719,270.000,010720,0.000,E,A,V*61
$GPGGA,082320,3128.00000,N,12113.52380,E,3,11,0.78,-10.24,M,10.24,M,,*6D
$GPRMC,082320,A,3128.00000,N,12113.52380,E,9.719,270.000,010720,0.000,E,A,V*69
$GPGGA,082321,3128.00000,N,12113.52065,E,3,11,0.78,-10.24,M,10.24,M,,*64
$GPRMC,082321,A,3128.00000,N,12113.52065,E,9.719,270.000,010720,0.000,E,A,V*60
$GPGGA,082322,3128.00000,N,12113.51749,E,3,11,0.78,-10.24,M,10.24,M,,*6D
$GPRMC,082322,A,3128.00000,N,12113.51749,E,9.719,270.000,010720,0.000,E,A,V*69
$GPGGA,082323,3128.00000,N,12113.51433,E,3,11,0.78,-10.24,M,10.24,M,,*62
$GPRMC,082323,A,3128.00000,N,12113.51433,E,9.719,270.000,010720,0.000,E,A,V*66
$GPGGA,082324,3128.00000,N,12113.51118,E,3,11,0.78,-10.24,M,10.24,M,,*69
$GPRMC,082324,A,3128.00000,N,12113.51118,E,9.719,270.000,010720,0.000,E,A,V*6D
$GPGGA,082325,3128.00000,N,12113.50802,E,3,11,0.78,-10.24,M,10.24,M,,*6B
$GPRMC,082325,A,3128.00000,N,12113.50802,E,9.719,270.000,010720,0.000,E,A,V*6F
$GPGGA,082326,3128.00000,N,12113.50486,E,3,11,0.78,-10.24,M,10.24,M,,*68
$GPRMC,082326,A,3128.00000,N,12113.50486,E,9.719,270.000,010720,0.000,E,A,V*6C
$GPGGA,082327,3128.00000,N,12113.50171,E,3,11,0.78,-10.24,M,10.24,M,,*64
$GPRMC,082327,A,3128.00000,N,12113.50171,E,9.719,270.000,010720,0.000,E,A,V*60
$GPGGA,082328,3128.00000,N,12113.49855,E,3,11,0.78,-10.24,M,10.24,M,,*6C
$GPRMC,082328,A,3128.00000,N,12113.49855,E,9.719,270.000,010720,0.000,E,A,V*68
$GPGGA,082329,3128.00000,N,12113.49539,E,3,11,0.78,-10.24,M,10.24,M,,*6A
$GPRMC,082329,A,3128.00000,N,12113.49539,E,9.719,270.000,010720,0.000,E,A,V*6E
$GPGGA,082330,3128.00000,N,12113.49224,E,3,11,0.78,-10.24,M,10.24,M,,*69
$GPRMC,082330,A,3128.00000,N,12113.49224,E,9.719,270.000,010720,0.000,E,A,V*6D
$GPGGA,082331,3128.00000,N,12113.48908,E,3,11,0.78,-10.24,M,10.24,M,,*6C
$GPRMC,082331,A,3128.00000,N,12113.48908,E,9.719,270.000,010720,0.000,E,A,V*68
$GPGGA,082332,3128.00000,N,12113.48592,E,3,11,0.78,-10.24,M,10.24,M,,*60
$GPRMC,082332,A,3128.00000,N,12113.48592,E,9.719,270.000,010720,0.000,E,A,V*64
$GPGGA,082333,3128.00000,N,12113.48276,E,3,11,0.78,-10.24,M,10.24,M,,*6C
$GPRMC,082333,A,3128.00000,N,12113.48276,E,9.719,270.000,010720,0.000,E,A,V*68
$GPGGA,082334,3128.00000,N,12113.47961,E,3,11,0.78,-10.24,M,10.24,M,,*69
$GPRMC,082334,A,3128.00000,N,12113.47961,E,9.719,270.000,010720,0.000,E,A,V*6D
$GPGGA,082335,3128.00000,N,12113.47645,E,3,11,0.78,-10.24,M,10.24,M,,*61
$GPRMC,082335,A,3128.00000,N,12113.47645,E,9.719,270.000,010720,0.000,E,A,V*65
$GPGGA,082336,3128.00000,N,12113.47329,E,3,11,0.78,-10.24,M,10.24,M,,*6D
$GPRMC,082336,A,3128.00000,N,12113.47329,E,9.719,270.000,010720,0.000,E,A,V*69
$GPGGA,082337,3128.00000,N,12113.47014,E,3,11,0.78,-10.24,M,10.24,M,,*61
$GPRMC,082337,A,3128.00000,N,12113.47014,E,9.719,270.000,010720,0.000,E,A,V*65
$GPGGA,082338,3128.00000,N,12113.46698,E,3,11,0.78,-10.24,M,10.24,M,,*6D
$GPRMC,082338,A,3128.00000,N,12113.46698,E,9.719,270.000,010720,0.000,E,A,V*69
$GPGGA,082339,3128.00000,N,12113.46382,E,3,11,0.78,-10.24,M,10.24,M,,*62
$GPRMC,082339,A,3128.00000,N,12113.46382,E,9.719,270.000,010720,0.000,E,A,V*66
$GPGGA,082340,3128.00000,N,12113.46067,E,3,11,0.78,-10.24,M,10.24,M,,*64
$GPRMC,082340,A,3128.00000,N,12113.46067,E,9.719,270.000,010720,0.000,E,A,V*60
$GPGGA,082341,3128.00000,N,12113.45751,E,3,11,0.78,-10.24,M,10.24,M,,*64
$GPRMC,082341,A,3128.00000,N,12113.45751,E,9.719,270.000,010720,0.000,E,A,V*60
$GPGGA,082342,3128.00000,N,12113.45435,E,3,11,0.78,-10.23,M,10.23,M,,*66
$GPRMC,082342,A,3128.00000,N,12113.45435,E,9.719,270.000,010720,0.000,E,A,V*62
$GPGGA,082343,3128.00000,N,12113.45120,E,3,11,0.78,-10.23,M,10.23,M,,*66
$GPRMC,082343,A,3128.00000,N,12113.45120,E,9.719,270.000,010720,0.000,E,A,V*62
$GPGGA,082344,3128.00000,N,12113.44804,E,3,11,0.78,-10.23,M,10.23,M,,*6F
$GPRMC,082344,A,3128.00000,N,12113.44804,E,9.719,270.000,010720,0.000,E,A,V*6B
$GPGGA,082345,3128.00000,N,12113.44488,E,3,11,0.78,-10.23,M,10.23,M,,*66
$GPRMC,082345,A,3128.00000,N,12113.44488,E,9.719,270.000,010720,0.000,E,A,V*62
$GPGGA,082346,3128.00000,N,12113.44173,E,3,11,0.78,-10.23,M,10.23,M,,*64
$GPRMC,082346,A,3128.00000,N,12113.44173,E,9.719,270.000,010720,0.000,E,A,V*60
$GPGGA,082347,3128.00000,N,12113.43857,E,3,11,0.78,-10.23,M,10.23,M,,*6D
$GPRMC,082347,A,3128.00000,N,12113.43857,E,9.719,270.000,010720,0.000,E,A,V*69
$GPGGA,082348,3128.00000,N,12113.43541,E,3,11,0.78,-10.23,M,10.23,M,,*68
$GPRMC,082348,A,3128.00000,N,12113.43541,E,9.719,270.000,010720,0.000,E,A,V*6C
$GPGGA,082349,3128.00000,N,12113.43226,E,3,11,0.78,-10.23,M,10.23,M,,*6F
$GPRMC,082349,A,3128.00000,N,12113.43226,E,9.719,270.000,010720,0.000,E,A,V*6B
$GPGGA,082350,3128.00000,N,12113.42910,E,3,11,0.78,-10.23,M,10.23,M,,*68
$GPRMC,082350,A,3128.00000,N,12113.42910,E,9.719,270.000,010720,0.000,E,A,V*6C
$GPGGA,082351,3128.00000,N,12113.42594,E,3,11,0.78,-10.23,M,10.23,M,,*69
$GPRMC,082351,A,3128.00000,N,12113.42594,E,9.719,270.000,010720,0.000,E,A,V*6D
$GPGGA,082352,3128.00000,N,12113.42279,E,3,11,0.78,-10.23,M,10.23,M,,*6E
$GPRMC,082352,A,3128.00000,N,12113.42279,E,9.719,270.000,010720,0.000,E,A,V*6A
$GPGGA,082353,3128.00000,N,12113.41963,E,3,11,0.78,-10.23,M,10.23,M,,*6C
$GPRMC,082353,A,3128.00000,N,12113.41963,E,9.719,270.000,010720,0.000,E,A,V*68
$GPGGA,082354,3128.00000,N,12113.41647,E,3,11,0.78,-10.23,M,10.23,M,,*62
$GPRMC,082354,A,3128.00000,N,12113.41647,E,9.719,270.000,010720,0.000,E,A,V*66
$GPGGA,082355,3128.00000,N,12113.41332,E,3,11,0.78,-10.23,M,10.23,M,,*64
$GPRMC,082355,A,3128.00000,N,12113.41332,E,9.719,270.000,010720,0.000,E,A,V*60
$GPGGA,082356,3128.00000,N,12113.41016,E,3,11,0.78,-10.23,M,10.23,M,,*62
$GPRMC,082356,A,3128.00000,N,12113.41016,E,9.719,270.000,010720,0.000,E,A,V*66
$GPGGA,082357,3128.00000,N,12113.40700,E,3,11,0.78,-10.23,M,10.23,M,,*62
$GPRMC,082357,A,3128.00000,N,12113.40700,E,9.719,270.000,010720,0.000,E,A,V*66
$GPGGA,082358,3128.00000,N,12113.40385,E,3,11,0.78,-10.23,M,10.23,M,,*64
$GPRMC,082358,A,3128.00000,N,12113.40385,E,9.719,270.000,010720,0.000,E,A,V*60
$GPGGA,082359,3128.00000,N,12113.40069,E,3,11,0.78,-10.23,M,10.23,M,,*64
$GPRMC,082359,A,3128.00000,N,12113.40069,E,9.719,270.000,010720,0.000,E,A,V*60
$GPGGA,082400,3128.00000,N,12113.39753,E,3,11,0.78,-10.23,M,10.23,M,,*6F
$GPRMC,082400,A,3128.00000,N,12113.39753,E,9.719,270.000,010720,0.000,E,A,V*6B
$GPGGA,082401,3128.00000,N,12113.39438,E,3,11,0.78,-10.23,M,10.23,M,,*60
$GPRMC,082401,A,3128.00000,N,12113.39438,E,9.719,270.000,010720,0.000,E,A,V*64
$GPGGA,082402,3128.00000,N,12113.39122,E,3,11,0.78,-10.23,M,10.23,M,,*6D
$GPRMC,082402,A,3128.00000,N,12113.39122,E,9.719,270.000,010720,0.000,E,A,V*69
$GPGGA,082403,3128.00000,N,12113.38806,E,3,11,0.78,-10.23,M,10.23,M,,*62
$GPRMC,082403,A,3128.00000,N,12113.38806,E,9.719,270.000,010720,0.000,E,A,V*66
$GPGGA,082404,3128.00000,N,12113.38491,E,3,11,0.78,-10.23,M,10.23,M,,*67
$GPRMC,082404,A,3128.00000,N,12113.38491,E,9.719,270.000,010720,0.000,E,A,V*63
$GPGGA,082405,3128.00000,N,12113.38175,E,3,11,0.78,-10.23,M,10.23,M,,*69
$GPRMC,082405,A,3128.00000,N,12113.38175,E,9.719,270.000,010720,0.000,E,A,V*6D
$GPGGA,082406,3128.00000,N,12113.37859,E,3,11,0.78,-10.23,M,10.23,M,,*62
$GPRMC,082406,A,3128.00000,N,12113.37859,E,9.719,270.000,010720,0.000,E,A,V*66
$GPGGA,082407,3128.00000,N,12113.37544,E,3,11,0.78,-10.23,M,10.23,M,,*62
$GPRMC,082407,A,3128.00000,N,12113.37544,E,9.719,270.000,010720,0.000,E,A,V*66
$GPGGA,082408,3128.00000,N,12113.37228,E,3,11,0.78,-10.23,M,10.23,M,,*60
$GPRMC,082408,A,3128.00000,N,12113.37228,E,9.719,270.000,010720,0.000,E,A,V*64
$GPGGA,082409,3128.00000,N,12113.36912,E,3,11,0.78,-10.23,M,10.23,M,,*62
$GPRMC,082409,A,3128.00000,N,12113.36912,E,9.719,270.000,010720,0.000,E,A,V*66
$GPGGA,082410,3128.00000,N,12113.36597,E,3,11,0.78,-10.23,M,10.23,M,,*6B
$GPRMC,082410,A,3128.00000,N,12113.36597,E,9.719,270.000,010720,0.000,E,A,V*6F
$GPGGA,082411,3128.00000,N,12113.36281,E,3,11,0.78,-10.23,M,10.23,M,,*6A
$GPRMC,082411,A,3128.00000,N,12113.36281,E,9.719,270.000,010720,0.000,E,A,V*6E
$GPGGA,082412,3128.00000,N,12113.35965,E,3,11,0.78,-10.23,M,10.23,M,,*6B
$GPRMC,082412,A,3128.00000,N,12113.35965,E,9.719,270.000,010720,0.000,E,A,V*6F
$GPGGA,082413,3128.00000,N,12113.35650,E,3,11,0.78,-10.23,M,10.23,M,,*63
$GPRMC,082413,A,3128.00000,N,12113.35650,E,9.719,270.000,010720,0.000,E,A,V*67
$GPGGA,082414,3128.00000,N,12113.35334,E,3,11,0.78,-10.23,M,10.23,M,,*63
$GPRMC,082414,A,3128.00000,N,12113.35334,E,9.719,270.000,010720,0.000,E,A,V*67
$GPGGA,082415,3128.00000,N,12113.35018,E,3,11,0.78,-10.23,M,10.23,M,,*6F
$GPRMC,082415,A,3128.00000,N,12113.35018,E,9.719,270.000,010720,0.000,E,A,V*6B
$GPGGA,082416,3128.00000,N,12113.34703,E,3,11,0.78,-10.23,M,10.23,M,,*60
$GPRMC,082416,A,3128.00000,N,12113.34703,E,9.719,270.000,010720,0.000,E,A,V*64
$GPGGA,082417,3128.00000,N,12113.34387,E,3,11,0.78,-10.23,M,10.23,M,,*69
$GPRMC,082417,A,3128.00000,N,12113.34387,E,9.719,270.000,010720,0.000,E,A,V*6D
$GPGGA,082418,3128.00000,N,12113.34071,E,3,11,0.78,-10.23,M,10.23,M,,*6C
$GPRMC,082418,A,3128.00000,N,12113.34071,E,9.719,270.000,010720,0.000,E,A,V*68
$GPGGA,082419,3128.00000,N,12113.33756,E,3,11,0.78,-10.23,M,10.23,M,,*68
$GPRMC,082419,A,3128.00000,N,12113.33756,E,9.719,270.000,010720,0.000,E,A,V*6C
$GPGGA,082420,3128.00000,N,12113.33440,E,3,11,0.78,-10.23,M,10.23,M,,*66
$GPRMC,082420,A,3128.00000,N,12113.33440,E,9.719,270.000,010720,0.000,E,A,V*62
$GPGGA,082421,3128.00000,N,12113.33124,E,3,11,0.78,-10.23,M,10.23,M,,*60
$GPRMC,082421,A,3128.00000,N,12113.33124,E,9.719,270.000,010720,0.000,E,A,V*64
$GPGGA,082422,3128.00000,N,12113.32809,E,3,11,0.78,-10.23,M,10.23,M,,*64
$GPRMC,082422,A,3128.00000,N,12113.32809,E,9.719,270.000,010720,0.000,E,A,V*60
$GPGGA,082423,3128.00000,N,12113.32493,E,3,11,0.78,-10.23,M,10.23,M,,*6A
$GPRMC,082423,A,3128.00000,N,12113.32493,E,9.719,270.000,010720,0.000,E,A,V*6E
$GPGGA,082424,3128.00000,N,12113.32177,E,3,11,0.78,-10.23,M,10.23,M,,*62
$GPRMC,082424,A,3128.00000,N,12113.32177,E,9.719,270.000,010720,0.000,E,A,V*66
$GPGGA,082425,3128.00000,N,12113.31862,E,3,11,0.78,-10.23,M,10.23,M,,*6D
$GPRMC,082425,A,3128.00000,N,12113.31862,E,9.719,270.000,010720,0.000,E,A,V*69
$GPGGA,082426,3128.00000,N,12113.31546,E,3,11,0.78,-10.23,M,10.23,M,,*65
$GPRMC,082426,A,3128.00000,N,12113.31546,E,9.719,270.000,010720,0.000,E,A,V*61
$GPGGA,082427,3128.00000,N,12113.31230,E,3,11,0.78,-10.23,M,10.23,M,,*62
$GPRMC,082427,A,3128.00000,N,12113.31230,E,9.719,270.000,010720,0.000,E,A,V*66
$GPGGA,082428,3128.00000,N,12113.30915,E,3,11,0.78,-10.23,M,10.23,M,,*60
$GPRMC,082428,A,3128.00000,N,12113.30915,E,9.719,270.000,010720,0.000,E,A,V*64
$GPGGA,082429,3128.00000,N,12113.30599,E,3,11,0.78,-10.23,M,10.23,M,,*69
$GPRMC,082429,A,3128.00000,N,12113.30599,E,9.719,270.000,010720,0.000,E,A,V*6D
$GPGGA,082430,3128.00000,N,12113.30283,E,3,11,0.78,-10.23,M,10.23,M,,*6D
$GPRMC,082430,A,3128.00000,N,12113.30283,E,9.719,270.000,010720,0.000,E,A,V*69
$GPGGA,082431,3128.00000,N,12113.29968,E,3,11,0.78,-10.23,M,10.23,M,,*6A
$GPRMC,082431,A,3128.00000,N,12113.29968,E,9.719,270.000,010720,0.000,E,A,V*6E
$GPGGA,082432,3128.00000,N,12113.29652,E,3,11,0.78,-10.23,M,10.23,M,,*6F
$GPRMC,082432,A,3128.00000,N,12113.29652,E,9.719,270.000,010720,0.000,E,A,V*6B
$GPGGA,082433,3128.00000,N,12113.29336,E,3,11,0.78,-10.22,M,10.22,M,,*69
$GPRMC,082433,A,3128.00000,N,12113.29336,E,9.719,270.000,010720,0.000,E,A,V*6D
$GPGGA,082434,3128.00000,N,12113.29021,E,3,11,0.78,-10.22,M,10.22,M,,*6B
$GPRMC,082434,A,3128.00000,N,12113.29021,E,9.719,270.000,010720,0.000,E,A,V*6F
$GPGGA,082435,3128.00000,N,12113.28705,E,3,11,0.78,-10.22,M,10.22,M,,*6A
$GPRMC,082435,A,3128.00000,N,12113.28705,E,9.719,270.000,010720,0.000,E,A,V*6E
$GPGGA,082436,3128.00000,N,12113.28389,E,3,11,0.78,-10.22,M,10.22,M,,*69
$GPRMC,082436,A,3128.00000,N,12113.28389,E,9.719,270.000,010720,0.000,E,A,V*6D
$GPGGA,082437,3128.00000,N,12113.28074,E,3,11,0.78,-10.22,M,10.22,M,,*69
$GPRMC,082437,A,3128.00000,N,12113.28074,E,9.719,270.000,010720,0.000,E,A,V*6D
$GPGGA,082438,3128.00000,N,12113.27758,E,3,11,0.78,-10.22,M,10.22,M,,*60
$GPRMC,082438,A,3128.00000,N,12113.27758,E,9.719,270.000,010720,0.000,E,A,V*64
$GPGGA,082439,3128.00000,N,12113.27442,E,3,11,0.78,-10.22,M,10.22,M,,*69
$GPRMC,082439,A,3128.00000,N,12113.27442,E,9.719,270.000,010720,0.000,E,A,V*6D
$GPGGA,082440,3128.00000,N,12113.27127,E,3,11,0.78,-10.22,M,10.22,M,,*61
$GPRMC,082440,A,3128.00000,N,12113.27127,E,9.719,270.000,010720,0.000,E,A,V*65
$GPGGA,082441,3128.00000,N,12113.26811,E,3,11,0.78,-10.22,M,10.22,M,,*6D
$GPRMC,082441,A,3128.00000,N,12113.26811,E,9.719,270.000,010720,0.000,E,A,V*69
$GPGGA,082442,3128.00000,N,12113.26495,E,3,11,0.78,-10.22,M,10.22,M,,*6E
$GPRMC,082442,A,3128.00000,N,12113.26495,E,9.719,270.000,010720,0.000,E,A,V*6A
$GPGGA,082443,3128.00000,N,12113.26180,E,3,11,0.78,-10.22,M,10.22,M,,*6E
$GPRMC,082443,A,3128.00000,N,12113.26180,E,9.719,270.000,010720,0.000,E,A,V*6A
$GPGGA,082444,3128.00000,N,12113.25864,E,3,11,0.78,-10.22,M,10.22,M,,*69
$GPRMC,082444,A,3128.00000,N,12113.25864,E,9.719,270.000,010720,0.000,E,A,V*6D
$GPGGA,082445,3128.00000,N,12113.25548,E,3,11,0.78,-10.22,M,10.22,M,,*6B
$GPRMC,082445,A,3128.00000,N,12113.25548,E,9.719,270.000,010720,0.000,E,A,V*6F
$GPGGA,082446,3128.00000,N,12113.25233,E,3,11,0.78,-10.22,M,10.22,M,,*63
$GPRMC,082446,A,3128.00000,N,12113.25233,E,9.719,270.000,010720,0.000,E,A,V*67
$GPGGA,082447,3128.00000,N,12113.24917,E,3,11,0.78,-10.22,M,10.22,M,,*6E
$GPRMC,082447,A,3128.00000,N,12113.24917,E,9.719,270.000,010720,0.000,E,A,V*6A
$GPGGA,082448,3128.00000,N,12113.24601,E,3,11,0.78,-10.22,M,10.22,M,,*69
$GPRMC,082448,A,3128.00000,N,12113.24601,E,9.719,270.000,010720,0.000,E,A,V*6D
$GPGGA,082449,3128.00000,N,12113.24286,E,3,11,0.78,-10.22,M,10.22,M,,*63
$GPRMC,082449,A,3128.00000,N,12113.24286,E,9.719,270.000,010720,0.000,E,A,V*67
$GPGGA,082450,3128.00000,N,12113.23970,E,3,11,0.78,-10.22,M,10.22,M,,*6E
$GPRMC,082450,A,3128.00000,N,12113.23970,E,9.719,270.000,010720,0.000,E,A,V*6A
$GPGGA,082451,3128.00000,N,12113.23654,E,3,11,0.78,-10.22,M,10.22,M,,*66
$GPRMC,082451,A,3128.00000,N,12113.23654,E,9.719,270.000,010720,0.000,E,A,V*62
$GPGGA,082452,3128.00000,N,12113.23339,E,3,11,0.78,-10.22,M,10.22,M,,*6B
$GPRMC,082452,A,3128.00000,N,12113.23339,E,9.719,270.000,010720,0.000,E,A,V*6F
$GPGGA,082453,3128.00000,N,12113.23023,E,3,11,0.78,-10.22,M,10.22,M,,*62
$GPRMC,082453,A,3128.00000,N,12113.23023,E,9.719,270.000,010720,0.000,E,A,V*66
$GPGGA,082454,3128.00000,N,12113.22707,E,3,11,0.78,-10.22,M,10.22,M,,*65
$GPRMC,082454,A,3128.00000,N,12113.22707,E,9.719,270.000,010720,0.000,E,A,V*61
$GPGGA,082455,3128.00000,N,12113.22392,E,3,11,0.78,-10.22,M,10.22,M,,*6C
$GPRMC,082455,A,3128.00000,N,12113.22392,E,9.719,270.000,010720,0.000,E,A,V*68
$GPGGA,082456,3128.00000,N,12113.22076,E,3,11,0.78,-10.22,M,10.22,M,,*66
$GPRMC,082456,A,3128.00000,N,12113.22076,E,9.719,270.000,010720,0.000,E,A,V*62
$GPGGA,082457,3128.00000,N,12113.21760,E,3,11,0.78,-10.22,M,10.22,M,,*64
$GPRMC,082457,A,3128.00000,N,12113.21760,E,9.719,270.000,010720,0.000,E,A,V*60
$GPGGA,082458,3128.00000,N,12113.21445,E,3,11,0.78,-10.22,M,10.22,M,,*6F
$GPRMC,082458,A,3128.00000,N,12113.21445,E,9.719,270.000,010720,0.000,E,A,V*6B
$GPGGA,082459,3128.00000,N,12113.21129,E,3,11,0.78,-10.22,M,10.22,M,,*61
$GPRMC,082459,A,3128.00000,N,12113.21129,E,9.719,270.000,010720,0.000,E,A,V*65
$GPGGA,082500,3128.00000,N,12113.20813,E,3,11,0.78,-10.22,M,10.22,M,,*6D
$GPRMC,082500,A,3128.00000,N,12113.20813,E,9.719,270.000,010720,0.000,E,A,V*69
$GPGGA,082501,3128.00000,N,12113.20498,E,3,11,0.78,-10.22,M,10.22,M,,*63
$GPRMC,082501,A,3128.00000,N,12113.20498,E,9.719,270.000,010720,0.000,E,A,V*67
$GPGGA,082502,3128.00000,N,12113.20182,E,3,11,0.78,-10.22,M,10.22,M,,*6E
$GPRMC,082502,A,3128.00000,N,12113.20182,E,9.719,270.000,010720,0.000,E,A,V*6A
$GPGGA,082503,3128.00000,N,12113.19866,E,3,11,0.78,-10.22,M,10.22,M,,*66
$GPRMC,082503,A,3128.00000,N,12113.19866,E,9.719,270.000,010720,0.000,E,A,V*62
$GPGGA,082504,3128.00000,N,12113.19551,E,3,11,0.78,-10.22,M,10.22,M,,*68
$GPRMC,082504,A,3128.00000,N,12113.19551,E,9.719,270.000,010720,0.000,E,A,V*6C
$GPGGA,082505,3128.00000,N,12113.19235,E,3,11,0.78,-10.22,M,10.22,M,,*6C
$GPRMC,082505,A,3128.00000,N,12113.19235,E,9.719,270.000,010720,0.000,E,A,V*68
$GPGGA,082506,3128.00000,N,12113.18919,E,3,11,0.78,-10.22,M,10.22,M,,*6B
$GPRMC,082506,A,3128.00000,N,12113.18919,E,9.719,270.000,010720,0.000,E,A,V*6F
$GPGGA,082507,3128.00000,N,12113.18604,E,3,11,0.78,-10.22,M,10.22,M,,*69
$GPRMC,082507,A,3128.00000,N,12113.18604,E,9.719,270.000,010720,0.000,E,A,V*6D
$GPGGA,082508,3128.00000,N,12113.18288,E,3,11,0.78,-10.22,M,10.22,M,,*66
$GPRMC,082508,A,3128.00000,N,12113.18288,E,9.719,270.000,010720,0.000,E,A,V*62
$GPGGA,082509,3128.00000,N,12113.17972,E,3,11,0.78,-10.22,M,10.22,M,,*66
$GPRMC,082509,A,3128.00000,N,12113.17972,E,9.719,270.000,010720,0.000,E,A,V*62
$GPGGA,082510,3128.00000,N,12113.17657,E,3,11,0.78,-10.22,M,10.22,M,,*66
$GPRMC,082510,A,3128.00000,N,12113.17657,E,9.719,270.000,010720,0.000,E,A,V*62
$GPGGA,082511,3128.00000,N,12113.17341,E,3,11,0.78,-10.22,M,10.22,M,,*65
$GPRMC,082511,A,3128.00000,N,12113.17341,E,9.719,270.000,010720,0.000,E,A,V*61
$GPGGA,082512,3128.00000,N,12113.17025,E,3,11,0.78,-10.22,M,10.22,M,,*67
$GPRMC,082512,A,3128.00000,N,12113.17025,E,9.719,270.000,010720,0.000,E,A,V*63
$GPGGA,082513,3128.00000,N,12113.16710,E,3,11,0.78,-10.22,M,10.22,M,,*66
$GPRMC,082513,A,3128.00000,N,12113.16710,E,9.719,270.000,010720,0.000,E,A,V*62
$GPGGA,082514,3128.00000,N,12113.16394,E,3,11,0.78,-10.22,M,10.22,M,,*69
$GPRMC,082514,A,3128.00000,N,12113.16394,E,9.719,270.000,010720,0.000,E,A,V*6D
$GPGGA,082515,3128.00000,N,12113.16078,E,3,11,0.78,-10.22,M,10.22,M,,*69
$GPRMC,082515,A,3128.00000,N,12113.16078,E,9.719,270.000,010720,0.000,E,A,V*6D
$GPGGA,082516,3128.00000,N,12113.15762,E,3,11,0.78,-10.22,M,10.22,M,,*65
$GPRMC,082516,A,3128.00000,N,12113.15762,E,9.719,270.000,010720,0.000,E,A,V*61
$GPGGA,082517,3128.00000,N,12113.15447,E,3,11,0.78,-10.22,M,10.22,M,,*60
$GPRMC,082517,A,3128.00000,N,12113.15447,E,9.719,270.000,010720,0.000,E,A,V*64
$GPGGA,082518,3128.00000,N,12113.15131,E,3,11,0.78,-10.22,M,10.22,M,,*6B
$GPRMC,082518,A,3128.00000,N,12113.15131,E,9.719,270.000,010720,0.000,E,A,V*6F
$GPGGA,082519,3128.00000,N,12113.14815,E,3,11,0.78,-10.22,M,10.22,M,,*64
$GPRMC,082519,A,3128.00000,N,12113.14815,E,9.719,270.000,010720,0.000,E,A,V*60
$GPGGA,082520,3128.00000,N,12113.14500,E,3,11,0.78,-10.22,M,10.22,M,,*67
$GPRMC,082520,A,3128.00000,N,12113.14500,E,9.719,270.000,010720,0.000,E,A,V*63
$GPGGA,082521,3128.00000,N,12113.14184,E,3,11,0.78,-10.22,M,10.22,M,,*6E
$GPRMC,082521,A,3128.00000,N,12113.14184,E,9.719,270.000,010720,0.000,E,A,V*6A
$GPGGA,082522,3128.00000,N,12113.13868,E,3,11,0.78,-10.22,M,10.22,M,,*61
$GPRMC,082522,A,3128.00000,N,12113.13868,E,9.719,270.000,010720,0.000,E,A,V*65
$GPGGA,082523,3128.00000,N,12113.13553,E,3,11,0.78,-10.22,M,10.22,M,,*65
$GPRMC,082523,A,3128.00000,N,12113.13553,E,9.719,270.000,010720,0.000,E,A,V*61
$GPGGA,082524,3128.00000,N,12113.13237,E,3,11,0.78,-10.22,M,10.22,M,,*67
$GPRMC,082524,A,3128.00000,N,12113.13237,E,9.719,270.000,010720,0.000,E,A,V*63
$GPGGA,082525,3128.00000,N,12113.12921,E,3,11,0.78,-10.22,M,10.22,M,,*6B
$GPRMC,082525,A,3128.00000,N,12113.12921,E,9.719,270.000,010720,0.000,E,A,V*6F
$GPGGA,082526,3128.00000,N,12113.12606,E,3,11,0.78,-10.21,M,10.21,M,,*62
$GPRMC,082526,A,3128.00000,N,12113.12606,E,9.719,270.000,010720,0.000,E,A,V*66
$GPGGA,082527,3128.00000,N,12113.12290,E,3,11,0.78,-10.21,M,10.21,M,,*68
$GPRMC,082527,A,3128.00000,N,12113.12290,E,9.719,270.000,010720,0.000,E,A,V*6C
$GPGGA,082528,3128.00000,N,12113.11974,E,3,11,0.78,-10.21,M,10.21,M,,*65
$GPRMC,082528,A,3128.00000,N,12113.11974,E,9.719,270.000,010720,0.000,E,A,V*61
$GPGGA,082529,3128.00000,N,12113.11659,E,3,11,0.78,-10.21,M,10.21,M,,*64
$GPRMC,082529,A,3128.00000,N,12113.11659,E,9.719,270.000,010720,0.000,E,A,V*60
$GPGGA,082530,3128.00000,N,12113.11343,E,3,11,0.78,-10.21,M,10.21,M,,*62
$GPRMC,082530,A,3128.00000,N,12113.11343,E,9.719,270.000,010720,0.000,E,A,V*66
$GPGGA,082531,3128.00000,N,12113.11027,E,3,11,0.78,-10.21,M,10.21,M,,*62
$GPRMC,082531,A,3128.00000,N,12113.11027,E,9.719,270.000,010720,0.000,E,A,V*66
$GPGGA,082532,3128.00000,N,12113.10712,E,3,11,0.78,-10.21,M,10.21,M,,*61
$GPRMC,082532,A,3128.00000,N,12113.10712,E,9.719,270.000,010720,0.000,E,A,V*65
$GPGGA,082533,3128.00000,N,12113.10396,E,3,11,0.78,-10.21,M,10.21,M,,*68
$GPRMC,082533,A,3128.00000,N,12113.10396,E,9.719,270.000,010720,0.000,E,A,V*6C
$GPGGA,082534,3128.00000,N,12113.10080,E,3,11,0.78,-10.21,M,10.21,M,,*6B
$GPRMC,082534,A,3128.00000,N,12113.10080,E,9.719,270.000,010720,0.000,E,A,V*6F
$GPGGA,082535,3128.00000,N,12113.09765,E,3,11,0.78,-10.21,M,10.21,M,,*6E
$GPRMC,082535,A,3128.00000,N,12113.09765,E,9.719,270.000,010720,0.000,E,A,V*6A
$GPGGA,082536,3128.00000,N,12113.09449,E,3,11,0.78,-10.21,M,10.21,M,,*60
$GPRMC,082536,A,3128.00000,N,12113.09449,E,9.719,270.000,010720,0.000,E,A,V*64
$GPGGA,082537,3128.00000,N,12113.09133,E,3,11,0.78,-10.21,M,10.21,M,,*69
$GPRMC,082537,A,3128.00000,N,12113.09133,E,9.719,270.000,010720,0.000,E,A,V*6D
$GPGGA,082538,3128.00000,N,12113.08818,E,3,11,0.78,-10.21,M,10.21,M,,*67
$GPRMC,082538,A,3128.00000,N,12113.08818,E,9.719,270.000,010720,0.000,E,A,V*63
$GPGGA,082539,3128.00000,N,12113.08502,E,3,11,0.78,-10.21,M,10.21,M,,*60
$GPRMC,082539,A,3128.00000,N,12113.08502,E,9.719,270.000,010720,0.000,E,A,V*64
$GPGGA,082540,3128.00000,N,12113.08186,E,3,11,0.78,-10.21,M,10.21,M,,*66
$GPRMC,082540,A,3128.00000,N,12113.08186,E,9.719,270.000,010720,0.000,E,A,V*62
$GPGGA,082541,3128.00000,N,12113.07871,E,3,11,0.78,-10.21,M,10.21,M,,*69
$GPRMC,082541,A,3128.00000,N,12113.07871,E,9.719,270.000,010720,0.000,E,A,V*6D
$GPGGA,082542,3128.00000,N,12113.07555,E,3,11,0.78,-10.21,M,10.21,M,,*61
$GPRMC,082542,A,3128.00000,N,12113.07555,E,9.719,270.000,010720,0.000,E,A,V*65
$GPGGA,082543,3128.00000,N,12113.07239,E,3,11,0.78,-10.21,M,10.21,M,,*6D
$GPRMC,082543,A,3128.00000,N,12113.07239,E,9.719,270.000,010720,0.000,E,A,V*69
$GPGGA,082544,3128.00000,N,12113.06924,E,3,11,0.78,-10.21,M,10.21,M,,*6C
$GPRMC,082544,A,3128.00000,N,12113.06924,E,9.719,270.000,010720,0.000,E,A,V*68
$GPGGA,082545,3128.00000,N,12113.06608,E,3,11,0.78,-10.21,M,10.21,M,,*6C
$GPRMC,082545,A,3128.00000,N,12113.06608,E,9.719,270.000,010720,0.000,E,A,V*68
$GPGGA,082546,3128.00000,N,12113.06292,E,3,11,0.78,-10.21,M,10.21,M,,*68
$GPRMC,082546,A,3128.00000,N,12113.06292,E,9.719,270.000,010720,0.000,E,A,V*6C
$GPGGA,082547,3128.00000,N,12113.05977,E,3,11,0.78,-10.21,M,10.21,M,,*6A
$GPRMC,082547,A,3128.00000,N,12113.05977,E,9.719,270.000,010720,0.000,E,A,V*6E
$GPGGA,082548,3128.00000,N,12113.05661,E,3,11,0.78,-10.21,M,10.21,M,,*6D
$GPRMC,082548,A,3128.00000,N,12113.05661,E,9.719,270.000,010720,0.000,E,A,V*69
$GPGGA,082549,3128.00000,N,12113.05345,E,3,11,0.78,-10.21,M,10.21,M,,*6F
$GPRMC,082549,A,3128.00000,N,12113.05345,E,9.719,270.000,010720,0.000,E,A,V*6B
$GPGGA,082550,3128.00000,N,12113.05030,E,3,11,0.78,-10.21,M,10.21,M,,*66
$GPRMC,082550,A,3128.00000,N,12113.05030,E,9.719,270.000,010720,0.000,E,A,V*62
$GPGGA,082551,3128.00000,N,12113.04714,E,3,11,0.78,-10.21,M,10.21,M,,*67
$GPRMC,082551,A,3128.00000,N,12113.04714,E,9.719,270.000,010720,0.000,E,A,V*63
$GPGGA,082552,3128.00000,N,12113.04398,E,3,11,0.78,-10.21,M,10.21,M,,*64
$GPRMC,082552,A,3128.00000,N,12113.04398,E,9.719,270.000,010720,0.000,E,A,V*60
$GPGGA,082553,3128.00000,N,12113.04083,E,3,11,0.78,-10.21,M,10.21,M,,*6C
$GPRMC,082553,A,3128.00000,N,12113.04083,E,9.719,270.000,010720,0.000,E,A,V*68
$GPGGA,082554,3128.00000,N,12113.03767,E,3,11,0.78,-10.21,M,10.21,M,,*61
$GPRMC,082554,A,3128.00000,N,12113.03767,E,9.719,270.000,010720,0.000,E,A,V*65
$GPGGA,082555,3128.00000,N,12113.03451,E,3,11,0.78,-10.21,M,10.21,M,,*66
$GPRMC,082555,A,3128.00000,N,12113.03451,E,9.719,270.000,010720,0.000,E,A,V*62
$GPGGA,082556,3128.00000,N,12113.03136,E,3,11,0.78,-10.21,M,10.21,M,,*61
$GPRMC,082556,A,3128.00000,N,12113.03136,E,9.719,270.000,010720,0.000,E,A,V*65
$GPGGA,082557,3128.00000,N,12113.02820,E,3,11,0.78,-10.21,M,10.21,M,,*6F
$GPRMC,082557,A,3128.00000,N,12113.02820,E,9.719,270.000,010720,0.000,E,A,V*6B
$GPGGA,082558,3128.00000,N,12113.02504,E,3,11,0.78,-10.21,M,10.21,M,,*6B
$GPRMC,082558,A,3128.00000,N,12113.02504,E,9.719,270.000,010720,0.000,E,A,V*6F
$GPGGA,082559,3128.00000,N,12113.02189,E,3,11,0.78,-10.21,M,10.21,M,,*6B
$GPRMC,082559,A,3128.00000,N,12113.02189,E,9.719,270.000,010720,0.000,E,A,V*6F
$GPGGA,082600,3128.00000,N,12113.01873,E,3,11,0.78,-10.21,M,10.21,M,,*6B
$GPRMC,082600,A,3128.00000,N,12113.01873,E,9.719,270.000,010720,0.000,E,A,V*6F
$GPGGA,082601,3128.00000,N,12113.01557,E,3,11,0.78,-10.21,M,10.21,M,,*61
$GPRMC,082601,A,3128.00000,N,12113.01557,E,9.719,270.000,010720,0.000,E,A,V*65
$GPGGA,082602,3128.00000,N,12113.01242,E,3,11,0.78,-10.21,M,10.21,M,,*61
$GPRMC,082602,A,3128.00000,N,12113.01242,E,9.719,270.000,010720,0.000,E,A,V*65
$GPGGA,082603,3128.00000,N,12113.00926,E,3,11,0.78,-10.21,M,10.21,M,,*68
$GPRMC,082603,A,3128.00000,N,12113.00926,E,9.719,270.000,010720,0.000,E,A,V*6C
$GPGGA,082604,3128.00000,N,12113.00610,E,3,11,0.78,-10.21,M,10.21,M,,*65
$GPRMC,082604,A,3128.00000,N,12113.00610,E,9.719,270.000,010720,0.000,E,A,V*61
$GPGGA,082605,3128.00000,N,12113.00295,E,3,11,0.78,-10.21,M,10.21,M,,*6D
$GPRMC,082605,A,3128.00000,N,12113.00295,E,9.719,270.000,010720,0.000,E,A,V*69
$GPGGA,082606,3128.00000,N,12112.99979,E,3,11,0.78,-10.21,M,10.21,M,,*66
$GPRMC,082606,A,3128.00000,N,12112.99979,E,9.719,270.000,010720,0.000,E,A,V*62
$GPGGA,082607,3128.00000,N,12112.99663,E,3,11,0.78,-10.21,M,10.21,M,,*63
$GPRMC,082607,A,3128.00000,N,12112.99663,E,9.719,270.000,010720,0.000,E,A,V*67
$GPGGA,082608,3128.00000,N,12112.99348,E,3,11,0.78,-10.21,M,10.21,M,,*60
$GPRMC,082608,A,3128.00000,N,12112.99348,E,9.719,270.000,010720,0.000,E,A,V*64
$GPGGA,082609,3128.00000,N,12112.99032,E,3,11,0.78,-10.21,M,10.21,M,,*6F
$GPRMC,082609,A,3128.00000,N,12112.99032,E,9.719,270.000,010720,0.000,E,A,V*6B
$GPGGA,082610,3128.00000,N,12112.98716,E,3,11,0.78,-10.21,M,10.21,M,,*67
$GPRMC,082610,A,3128.00000,N,12112.98716,E,9.719,270.000,010720,0.000,E,A,V*63
$GPGGA,082611,3128.00000,N,12112.98401,E,3,11,0.78,-10.21,M,10.21,M,,*63
$GPRMC,082611,A,3128.00000,N,12112.98401,E,9.719,270.000,010720,0.000,E,A,V*67
$GPGGA,082612,3128.00000,N,12112.98085,E,3,11,0.78,-10.21,M,10.21,M,,*68
$GPRMC,082612,A,3128.00000,N,12112.98085,E,9.719,270.000,010720,0.000,E,A,V*6C
$GPGGA,082613,3128.00000,N,12112.97769,E,3,11,0.78,-10.21,M,10.21,M,,*63
$GPRMC,082613,A,3128.00000,N,12112.97769,E,9.719,270.000,010720,0.000,E,A,V*67
$GPGGA,082614,3128.00000,N,12112.97454,E,3,11,0.78,-10.21,M,10.21,M,,*69
$GPRMC,082614,A,3128.00000,N,12112.97454,E,9.719,270.000,010720,0.000,E,A,V*6D
$GPGGA,082615,3128.00000,N,12112.97138,E,3,11,0.78,-10.21,M,10.21,M,,*67
$GPRMC,082615,A,3128.00000,N,12112.97138,E,9.719,270.000,010720,0.000,E,A,V*63
$GPGGA,082616,3128.00000,N,12112.96822,E,3,11,0.78,-10.21,M,10.21,M,,*67
$GPRMC,082616,A,3128.00000,N,12112.96822,E,9.719,270.000,010720,0.000,E,A,V*63
$GPGGA,082617,3128.00000,N,12112.96507,E,3,11,0.78,-10.21,M,10.21,M,,*6C
$GPRMC,082617,A,3128.00000,N,12112.96507,E,9.719,270.000,010720,0.000,E,A,V*68
$GPGGA,082618,3128.00000,N,12112.96191,E,3,11,0.78,-10.20,M,10.20,M,,*68
$GPRMC,082618,A,3128.00000,N,12112.96191,E,9.719,270.000,010720,0.000,E,A,V*6C
$GPGGA,082619,3128.00000,N,12112.95875,E,3,11,0.78,-10.20,M,10.20,M,,*69
$GPRMC,082619,A,3128.00000,N,12112.95875,E,9.719,270.000,010720,0.000,E,A,V*6D
$GPGGA,082620,3128.00000,N,12112.95560,E,3,11,0.78,-10.20,M,10.20,M,,*6A
$GPRMC,082620,A,3128.00000,N,12112.95560,E,9.719,270.000,010720,0.000,E,A,V*6E
$GPGGA,082621,3128.00000,N,12112.95244,E,3,11,0.78,-10.20,M,10.20,M,,*6A
$GPRMC,082621,A,3128.00000,N,12112.95244,E,9.719,270.000,010720,0.000,E,A,V*6E
$GPGGA,082622,3128.00000,N,12112.94928,E,3,11,0.78,-10.20,M,10.20,M,,*69
$GPRMC,082622,A,3128.00000,N,12112.94928,E,9.719,270.000,010720,0.000,E,A,V*6D
$GPGGA,082623,3128.00000,N,12112.94613,E,3,11,0.78,-10.20,M,10.20,M,,*6F
$GPRMC,082623,A,3128.00000,N,12112.94613,E,9.719,270.000,010720,0.000,E,A,V*6B
$GPGGA,082624,3128.00000,N,12112.94297,E,3,11,0.78,-10.20,M,10.20,M,,*60
$GPRMC,082624,A,3128.00000,N,12112.94297,E,9.719,270.000,010720,0.000,E,A,V*64
$GPGGA,082625,3128.00000,N,12112.93981,E,3,11,0.78,-10.20,M,10.20,M,,*6A
$GPRMC,082625,A,3128.00000,N,12112.93981,E,9.719,270.000,010720,0.000,E,A,V*6E
$GPGGA,082626,3128.00000,N,12112.93666,E,3,11,0.78,-10.20,M,10.20,M,,*6F
$GPRMC,082626,A,3128.00000,N,12112.93666,E,9.719,270.000,010720,0.000,E,A,V*6B
$GPGGA,082627,3128.00000,N,12112.93350,E,3,11,0.78,-10.20,M,10.20,M,,*6E
$GPRMC,082627,A,3128.00000,N,12112.93350,E,9.719,270.000,010720,0.000,E,A,V*6A
$GPGGA,082628,3128.00000,N,12112.93034,E,3,11,0.78,-10.20,M,10.20,M,,*60
$GPRMC,082628,A,3128.00000,N,12112.93034,E,9.719,270.000,010720,0.000,E,A,V*64
$GPGGA,082629,3128.00000,N,12112.92719,E,3,11,0.78,-10.20,M,10.20,M,,*68
$GPRMC,082629,A,3128.00000,N,12112.92719,E,9.719,270.000,010720,0.000,E,A,V*6C
$GPGGA,082630,3128.00000,N,12112.92403,E,3,11,0.78,-10.20,M,10.20,M,,*68
$GPRMC,082630,A,3128.00000,N,12112.92403,E,9.719,270.000,010720,0.000,E,A,V*6C
$GPGGA,082631,3128.00000,N,12112.92087,E,3,11,0.78,-10.20,M,10.20,M,,*61
$GPRMC,082631,A,3128.00000,N,12112.92087,E,9.719,270.000,010720,0.000,E,A,V*65
$GPGGA,082632,3128.00000,N,12112.91772,E,3,11,0.78,-10.20,M,10.20,M,,*6C
$GPRMC,082632,A,3128.00000,N,12112.91772,E,9.719,270.000,010720,0.000,E,A,V*68
$GPGGA,082633,3128.00000,N,12112.91456,E,3,11,0.78,-10.20,M,10.20,M,,*68
$GPRMC,082633,A,3128.00000,N,12112.91456,E,9.719,270.000,010720,0.000,E,A,V*6C
$GPGGA,082634,3128.00000,N,12112.91140,E,3,11,0.78,-10.20,M,10.20,M,,*6D
$GPRMC,082634,A,3128.00000,N,12112.91140,E,9.719,270.000,010720,0.000,E,A,V*69
$GPGGA,082635,3128.00000,N,12112.90825,E,3,11,0.78,-10.20,M,10.20,M,,*67
$GPRMC,082635,A,3128.00000,N,12112.90825,E,9.719,270.000,010720,0.000,E,A,V*63
$GPGGA,082636,3128.00000,N,12112.90509,E,3,11,0.78,-10.20,M,10.20,M,,*67
$GPRMC,082636,A,3128.00000,N,12112.90509,E,9.719,270.000,010720,0.000,E,A,V*63
$GPGGA,082637,3128.00000,N,12112.90193,E,3,11,0.78,-10.20,M,10.20,M,,*61
$GPRMC,082637,A,3128.00000,N,12112.90193,E,9.719,270.000,010720,0.000,E,A,V*65
$GPGGA,082638,3128.00000,N,12112.89878,E,3,11,0.78,-10.20,M,10.20,M,,*6A
$GPRMC,082638,A,3128.00000,N,12112.89878,E,9.719,270.000,010720,0.000,E,A,V*6E
$GPGGA,082639,3128.00000,N,12112.89562,E,3,11,0.78,-10.20,M,10.20,M,,*6D
$GPRMC,082639,A,3128.00000,N,12112.89562,E,9.719,270.000,010720,0.000,E,A,V*69
$GPGGA,082640,3128.00000,N,12112.89246,E,3,11,0.78,-10.20,M,10.20,M,,*62
$GPRMC,082640,A,3128.00000,N,12112.89246,E,9.719,270.000,010720,0.000,E,A,V*66
$GPGGA,082641,3128.00000,N,12112.88931,E,3,11,0.78,-10.20,M,10.20,M,,*69
$GPRMC,082641,A,3128.00000,N,12112.88931,E,9.719,270.000,010720,0.000,E,A,V*6D
$GPGGA,082642,3128.00000,N,12112.88615,E,3,11,0.78,-10.20,M,10.20,M,,*63
$GPRMC,082642,A,3128.00000,N,12112.88615,E,9.719,270.000,010720,0.000,E,A,V*67
$GPGGA,082643,3128.00000,N,12112.88299,E,3,11,0.78,-10.20,M,10.20,M,,*62
$GPRMC,082643,A,3128.00000,N,12112.88299,E,9.719,270.000,010720,0.000,E,A,V*66
$GPGGA,082644,3128.00000,N,12112.87984,E,3,11,0.78,-10.20,M,10.20,M,,*6D
$GPRMC,082644,A,3128.00000,N,12112.87984,E,9.719,270.000,010720,0.000,E,A,V*69
$GPGGA,082645,3128.00000,N,12112.87668,E,3,11,0.78,-10.20,M,10.20,M,,*61
$GPRMC,082645,A,3128.00000,N,12112.87668,E,9.719,270.000,010720,0.000,E,A,V*65
$GPGGA,082646,3128.00000,N,12112.87352,E,3,11,0.78,-10.20,M,10.20,M,,*6E
$GPRMC,082646,A,3128.00000,N,12112.87352,E,9.719,270.000,010720,0.000,E,A,V*6A
$GPGGA,082647,3128.00000,N,12112.87037,E,3,11,0.78,-10.20,M,10.20,M,,*6F
$GPRMC,082647,A,3128.00000,N,12112.87037,E,9.719,270.000,010720,0.000,E,A,V*6B
$GPGGA,082648,3128.00000,N,12112.86721,E,3,11,0.78,-10.20,M,10.20,M,,*61
$GPRMC,082648,A,3128.00000,N,12112.86721,E,9.719,270.000,010720,0.000,E,A,V*65
$GPGGA,082649,3128.00000,N,12112.86405,E,3,11,0.78,-10.20,M,10.20,M,,*65
$GPRMC,082649,A,3128.00000,N,12112.86405,E,9.719,270.000,010720,0.000,E,A,V*61
$GPGGA,082650,3128.00000,N,12112.86090,E,3,11,0.78,-10.20,M,10.20,M,,*65
$GPRMC,082650,A,3128.00000,N,12112.86090,E,9.719,270.000,010720,0.000,E,A,V*61
$GPGGA,082651,3128.00000,N,12112.85774,E,3,11,0.78,-10.20,M,10.20,M,,*6A
$GPRMC,082651,A,3128.00000,N,12112.85774,E,9.719,270.000,010720,0.000,E,A,V*6E
$GPGGA,082652,3128.00000,N,12112.85458,E,3,11,0.78,-10.20,M,10.20,M,,*64
$GPRMC,082652,A,3128.00000,N,12112.85458,E,9.719,270.000,010720,0.000,E,A,V*60
$GPGGA,082653,3128.00000,N,12112.85143,E,3,11,0.78,-10.20,M,10.20,M,,*6A
$GPRMC,082653,A,3128.00000,N,12112.85143,E,9.719,270.000,010720,0.000,E,A,V*6E
$GPGGA,082654,3128.00000,N,12112.84827,E,3,11,0.78,-10.20,M,10.20,M,,*67
$GPRMC,082654,A,3128.00000,N,12112.84827,E,9.719,270.000,010720,0.000,E,A,V*63
$GPGGA,082655,3128.00000,N,12112.84511,E,3,11,0.78,-10.20,M,10.20,M,,*6E
$GPRMC,082655,A,3128.00000,N,12112.84511,E,9.719,270.000,010720,0.000,E,A,V*6A
$GPGGA,082656,3128.00000,N,12112.84196,E,3,11,0.78,-10.20,M,10.20,M,,*66
$GPRMC,082656,A,3128.00000,N,12112.84196,E,9.719,270.000,010720,0.000,E,A,V*62
$GPGGA,082657,3128.00000,N,12112.83880,E,3,11,0.78,-10.20,M,10.20,M,,*6E
$GPRMC,082657,A,3128.00000,N,12112.83880,E,9.719,270.000,010720,0.000,E,A,V*6A
$GPGGA,082658,3128.00000,N,12112.83564,E,3,11,0.78,-10.20,M,10.20,M,,*66
$GPRMC,082658,A,3128.00000,N,12112.83564,E,9.719,270.000,010720,0.000,E,A,V*62
$GPGGA,082659,3128.00000,N,12112.83249,E,3,11,0.78,-10.20,M,10.20,M,,*6F
$GPRMC,082659,A,3128.00000,N,12112.83249,E,9.719,270.000,010720,0.000,E,A,V*6B
$GPGGA,082700,3128.00000,N,12112.82933,E,3,11,0.78,-10.20,M,10.20,M,,*65
$GPRMC,082700,A,3128.00000,N,12112.82933,E,9.719,270.000,010720,0.000,E,A,V*61
$GPGGA,082701,3128.00000,N,12112.82617,E,3,11,0.78,-10.20,M,10.20,M,,*6D
$GPRMC,082701,A,3128.00000,N,12112.82617,E,9.719,270.000,010720,0.000,E,A,V*69
$GPGGA,082702,3128.00000,N,12112.82301,E,3,11,0.78,-10.20,M,10.20,M,,*6C
$GPRMC,082702,A,3128.00000,N,12112.82301,E,9.719,270.000,010720,0.000,E,A,V*68
$GPGGA,082703,3128.00000,N,12112.81986,E,3,11,0.78,-10.20,M,10.20,M,,*6B
$GPRMC,082703,A,3128.00000,N,12112.81986,E,9.719,270.000,010720,0.000,E,A,V*6F
$GPGGA,082704,3128.00000,N,12112.81670,E,3,11,0.78,-10.20,M,10.20,M,,*6A
$GPRMC,082704,A,3128.00000,N,12112.81670,E,9.719,270.000,010720,0.000,E,A,V*6E
$GPGGA,082705,3128.00000,N,12112.81354,E,3,11,0.78,-10.20,M,10.20,M,,*68
$GPRMC,082705,A,3128.00000,N,12112.81354,E,9.719,270.000,010720,0.000,E,A,V*6C
$GPGGA,082706,3128.00000,N,12112.81039,E,3,11,0.78,-10.20,M,10.20,M,,*63
$GPRMC,082706,A,3128.00000,N,12112.81039,E,9.719,270.000,010720,0.000,E,A,V*67
$GPGGA,082707,3128.00000,N,12112.80723,E,3,11,0.78,-10.20,M,10.20,M,,*6F
$GPRMC,082707,A,3128.00000,N,12112.80723,E,9.719,270.000,010720,0.000,E,A,V*6B
$GPGGA,082708,3128.00000,N,12112.80407,E,3,11,0.78,-10.20,M,10.20,M,,*65
$GPRMC,082708,A,3128.00000,N,12112.80407,E,9.719,270.000,010720,0.000,E,A,V*61
$GPGGA,082709,3128.00000,N,12112.80092,E,3,11,0.78,-10.20,M,10.20,M,,*6C
$GPRMC,082709,A,3128.00000,N,12112.80092,E,9.719,270.000,010720,0.000,E,A,V*68
$GPGGA,082710,3128.00000,N,12112.79776,E,3,11,0.78,-10.20,M,10.20,M,,*6F
$GPRMC,082710,A,3128.00000,N,12112.79776,E,9.719,270.000,010720,0.000,E,A,V*6B
$GPGGA,082711,3128.00000,N,12112.79460,E,3,11,0.78,-10.20,M,10.20,M,,*6A
$GPRMC,082711,A,3128.00000,N,12112.79460,E,9.719,270.000,010720,0.000,E,A,V*6E
$GPGGA,082712,3128.00000,N,12112.79145,E,3,11,0.78,-10.19,M,10.19,M,,*6B
$GPRMC,082712,A,3128.00000,N,12112.79145,E,9.719,270.000,010720,0.000,E,A,V*6F
$GPGGA,082713,3128.00000,N,12112.78829,E,3,11,0.78,-10.19,M,10.19,M,,*68
$GPRMC,082713,A,3128.00000,N,12112.78829,E,9.719,270.000,010720,0.000,E,A,V*6C
$GPGGA,082714,3128.00000,N,12112.78513,E,3,11,0.78,-10.19,M,10.19,M,,*6B
$GPRMC,082714,A,3128.00000,N,12112.78513,E,9.719,270.000,010720,0.000,E,A,V*6F
$GPGGA,082715,3128.00000,N,12112.78198,E,3,11,0.78,-10.19,M,10.19,M,,*6D
$GPRMC,082715,A,3128.00000,N,12112.78198,E,9.719,270.000,010720,0.000,E,A,V*69
$GPGGA,082716,3128.00000,N,12112.77882,E,3,11,0.78,-10.19,M,10.19,M,,*63
$GPRMC,082716,A,3128.00000,N,12112.77882,E,9.719,270.000,010720,0.000,E,A,V*67
$GPGGA,082717,3128.00000,N,12112.77566,E,3,11,0.78,-10.19,M,10.19,M,,*65
$GPRMC,082717,A,3128.00000,N,12112.77566,E,9.719,270.000,010720,0.000,E,A,V*61
$GPGGA,082718,3128.00000,N,12112.77251,E,3,11,0.78,-10.19,M,10.19,M,,*69
$GPRMC,082718,A,3128.00000,N,12112.77251,E,9.719,270.000,010720,0.000,E,A,V*6D
$GPGGA,082719,3128.00000,N,12112.76935,E,3,11,0.78,-10.19,M,10.19,M,,*60
$GPRMC,082719,A,3128.00000,N,12112.76935,E,9.719,270.000,010720,0.000,E,A,V*64
$GPGGA,082720,3128.00000,N,12112.76619,E,3,11,0.78,-10.19,M,10.19,M,,*6B
$GPRMC,082720,A,3128.00000,N,12112.76619,E,9.719,270.000,010720,0.000,E,A,V*6F
$GPGGA,082721,3128.00000,N,12112.76304,E,3,11,0.78,-10.19,M,10.19,M,,*63
$GPRMC,082721,A,3128.00000,N,12112.76304,E,9.719,270.000,010720,0.000,E,A,V*67
$GPGGA,082722,3128.00000,N,12112.75988,E,3,11,0.78,-10.19,M,10.19,M,,*6D
$GPRMC,082722,A,3128.00000,N,12112.75988,E,9.719,270.000,010720,0.000,E,A,V*69
$GPGGA,082723,3128.00000,N,12112.75672,E,3,11,0.78,-10.19,M,10.19,M,,*66
$GPRMC,082723,A,3128.00000,N,12112.75672,E,9.719,270.000,010720,0.000,E,A,V*62
$GPGGA,082724,3128.00000,N,12112.75357,E,3,11,0.78,-10.19,M,10.19,M,,*63
$GPRMC,082724,A,3128.00000,N,12112.75357,E,9.719,270.000,010720,0.000,E,A,V*67
$GPGGA,082725,3128.00000,N,12112.75041,E,3,11,0.78,-10.19,M,10.19,M,,*66
$GPRMC,082725,A,3128.00000,N,12112.75041,E,9.719,270.000,010720,0.000,E,A,V*62
$GPGGA,082726,3128.00000,N,12112.74725,E,3,11,0.78,-10.19,M,10.19,M,,*61
$GPRMC,082726,A,3128.00000,N,12112.74725,E,9.719,270.000,010720,0.000,E,A,V*65
$GPGGA,082727,3128.00000,N,12112.74410,E,3,11,0.78,-10.19,M,10.19,M,,*65
$GPRMC,082727,A,3128.00000,N,12112.74410,E,9.719,270.000,010720,0.000,E,A,V*61
$GPGGA,082728,3128.00000,N,12112.74094,E,3,11,0.78,-10.19,M,10.19,M,,*62
$GPRMC,082728,A,3128.00000,N,12112.74094,E,9.719,270.000,010720,0.000,E,A,V*66
$GPGGA,082729,3128.00000,N,12112.73778,E,3,11,0.78,-10.19,M,10.19,M,,*61
$GPRMC,082729,A,3128.00000,N,12112.73778,E,9.719,270.000,010720,0.000,E,A,V*65
$GPGGA,082730,3128.00000,N,12112.73463,E,3,11,0.78,-10.19,M,10.19,M,,*60
$GPRMC,082730,A,3128.00000,N,12112.73463,E,9.719,270.000,010720,0.000,E,A,V*64
$GPGGA,082731,3128.00000,N,12112.73147,E,3,11,0.78,-10.19,M,10.19,M,,*62
$GPRMC,082731,A,3128.00000,N,12112.73147,E,9.719,270.000,010720,0.000,E,A,V*66
$GPGGA,082732,3128.00000,N,12112.72831,E,3,11,0.78,-10.19,M,10.19,M,,*68
$GPRMC,082732,A,3128.00000,N,12112.72831,E,9.719,270.000,010720,0.000,E,A,V*6C
$GPGGA,082733,3128.00000,N,12112.72516,E,3,11,0.78,-10.19,M,10.19,M,,*61
$GPRMC,082733,A,3128.00000,N,12112.72516,E,9.719,270.000,010720,0.000,E,A,V*65
$GPGGA,082734,3128.00000,N,12112.72200,E,3,11,0.78,-10.19,M,10.19,M,,*66
$GPRMC,082734,A,3128.00000,N,12112.72200,E,9.719,270.000,010720,0.000,E,A,V*62
$GPGGA,082735,3128.00000,N,12112.71884,E,3,11,0.78,-10.19,M,10.19,M,,*62
$GPRMC,082735,A,3128.00000,N,12112.71884,E,9.719,270.000,010720,0.000,E,A,V*66
$GPGGA,082736,3128.00000,N,12112.71569,E,3,11,0.78,-10.19,M,10.19,M,,*6F
$GPRMC,082736,A,3128.00000,N,12112.71569,E,9.719,270.000,010720,0.000,E,A,V*6B
$GPGGA,082737,3128.00000,N,12112.71253,E,3,11,0.78,-10.19,M,10.19,M,,*60
$GPRMC,082737,A,3128.00000,N,12112.71253,E,9.719,270.000,010720,0.000,E,A,V*64
$GPGGA,082738,3128.00000,N,12112.70937,E,3,11,0.78,-10.19,M,10.19,M,,*67
$GPRMC,082738,A,3128.00000,N,12112.70937,E,9.719,270.000,010720,0.000,E,A,V*63
$GPGGA,082739,3128.00000,N,12112.70622,E,3,11,0.78,-10.19,M,10.19,M,,*6D
$GPRMC,082739,A,3128.00000,N,12112.70622,E,9.719,270.000,010720,0.000,E,A,V*69
$GPGGA,082740,3128.00000,N,12112.70306,E,3,11,0.78,-10.19,M,10.19,M,,*60
$GPRMC,082740,A,3128.00000,N,12112.70306,E,9.719,270.000,010720,0.000,E,A,V*64
$GPGGA,082741,3128.00000,N,12112.69990,E,3,11,0.78,-10.19,M,10.19,M,,*6C
$GPRMC,082741,A,3128.00000,N,12112.69990,E,9.719,270.000,010720,0.000,E,A,V*68
$GPGGA,082742,3128.00000,N,12112.69675,E,3,11,0.78,-10.19,M,10.19,M,,*6B
$GPRMC,082742,A,3128.00000,N,12112.69675,E,9.719,270.000,010720,0.000,E,A,V*6F
$GPGGA,082743,3128.00000,N,12112.69359,E,3,11,0.78,-10.19,M,10.19,M,,*61
$GPRMC,082743,A,3128.00000,N,12112.69359,E,9.719,270.000,010720,0.000,E,A,V*65
$GPGGA,082744,3128.00000,N,12112.69043,E,3,11,0.78,-10.19,M,10.19,M,,*6E
$GPRMC,082744,A,3128.00000,N,12112.69043,E,9.719,270.000,010720,0.000,E,A,V*6A
$GPGGA,082745,3128.00000,N,12112.68728,E,3,11,0.78,-10.19,M,10.19,M,,*64
$GPRMC,082745,A,3128.00000,N,12112.68728,E,9.719,270.000,010720,0.000,E,A,V*60
$GPGGA,082746,3128.00000,N,12112.68412,E,3,11,0.78,-10.19,M,10.19,M,,*6D
$GPRMC,082746,A,3128.00000,N,12112.68412,E,9.719,270.000,010720,0.000,E,A,V*69
$GPGGA,082747,3128.00000,N,12112.68096,E,3,11,0.78,-10.19,M,10.19,M,,*64
$GPRMC,082747,A,3128.00000,N,12112.68096,E,9.719,270.000,010720,0.000,E,A,V*60
$GPGGA,082748,3128.00000,N,12112.67781,E,3,11,0.78,-10.19,M,10.19,M,,*65
$GPRMC,082748,A,3128.00000,N,12112.67781,E,9.719,270.000,010720,0.000,E,A,V*61
$GPGGA,082749,3128.00000,N,12112.67465,E,3,11,0.78,-10.19,M,10.19,M,,*6D
$GPRMC,082749,A,3128.00000,N,12112.67465,E,9.719,270.000,010720,0.000,E,A,V*69
$GPGGA,082750,3128.00000,N,12112.67149,E,3,11,0.78,-10.19,M,10.19,M,,*6E
$GPRMC,082750,A,3128.00000,N,12112.67149,E,9.719,270.000,010720,0.000,E,A,V*6A
$GPGGA,082751,3128.00000,N,12112.66834,E,3,11,0.78,-10.19,M,10.19,M,,*6D
$GPRMC,082751,A,3128.00000,N,12112.66834,E,9.719,270.000,010720,0.000,E,A,V*69
$GPGGA,082752,3128.00000,N,12112.66518,E,3,11,0.78,-10.19,M,10.19,M,,*6D
$GPRMC,082752,A,3128.00000,N,12112.66518,E,9.719,270.000,010720,0.000,E,A,V*69
$GPGGA,082753,3128.00000,N,12112.66202,E,3,11,0.78,-10.19,M,10.19,M,,*60
$GPRMC,082753,A,3128.00000,N,12112.66202,E,9.719,270.000,010720,0.000,E,A,V*64
$GPGGA,082754,3128.00000,N,12112.65887,E,3,11,0.78,-10.19,M,10.19,M,,*63
$GPRMC,082754,A,3128.00000,N,12112.65887,E,9.719,270.000,010720,0.000,E,A,V*67
$GPGGA,082755,3128.00000,N,12112.65571,E,3,11,0.78,-10.19,M,10.19,M,,*66
$GPRMC,082755,A,3128.00000,N,12112.65571,E,9.719,270.000,010720,0.000,E,A,V*62
$GPGGA,082756,3128.00000,N,12112.65255,E,3,11,0.78,-10.19,M,10.19,M,,*64
$GPRMC,082756,A,3128.00000,N,12112.65255,E,9.719,270.000,010720,0.000,E,A,V*60
$GPGGA,082757,3128.00000,N,12112.64940,E,3,11,0.78,-10.19,M,10.19,M,,*6B
$GPRMC,082757,A,3128.00000,N,12112.64940,E,9.719,270.000,010720,0.000,E,A,V*6F
$GPGGA,082758,3128.00000,N,12112.64624,E,3,11,0.78,-10.19,M,10.19,M,,*69
$GPRMC,082758,A,3128.00000,N,12112.64624,E,9.719,270.000,010720,0.000,E,A,V*6D
$GPGGA,082759,3128.00000,N,12112.64308,E,3,11,0.78,-10.19,M,10.19,M,,*63
$GPRMC,082759,A,3128.00000,N,12112.64308,E,9.719,270.000,010720,0.000,E,A,V*67
$GPGGA,082800,3128.00000,N,12112.63993,E,3,11,0.78,-10.19,M,10.19,M,,*6F
$GPRMC,082800,A,3128.00000,N,12112.63993,E,9.719,270.000,010720,0.000,E,A,V*6B
$GPGGA,082801,3128.00000,N,12112.63677,E,3,11,0.78,-10.19,M,10.19,M,,*6B
$GPRMC,082801,A,3128.00000,N,12112.63677,E,9.719,270.000,010720,0.000,E,A,V*6F
$GPGGA,082802,3128.00000,N,12112.63361,E,3,11,0.78,-10.19,M,10.19,M,,*6A
$GPRMC,082802,A,3128.00000,N,12112.63361,E,9.719,270.000,010720,0.000,E,A,V*6E
$GPGGA,082803,3128.00000,N,12112.63046,E,3,11,0.78,-10.19,M,10.19,M,,*6D
$GPRMC,082803,A,3128.00000,N,12112.63046,E,9.719,270.000,010720,0.000,E,A,V*69
$GPGGA,082804,3128.00000,N,12112.62730,E,3,11,0.78,-10.19,M,10.19,M,,*6D
$GPRMC,082804,A,3128.00000,N,12112.62730,E,9.719,270.000,010720,0.000,E,A,V*69
$GPGGA,082805,3128.00000,N,12112.62414,E,3,11,0.78,-10.18,M,10.18,M,,*69
$GPRMC,082805,A,3128.00000,N,12112.62414,E,9.719,270.000,010720,0.000,E,A,V*6D
$GPGGA,082806,3128.00000,N,12112.62099,E,3,11,0.78,-10.18,M,10.18,M,,*6B
$GPRMC,082806,A,3128.00000,N,12112.62099,E,9.719,270.000,010720,0.000,E,A,V*6F
$GPGGA,082807,3128.00000,N,12112.61783,E,3,11,0.78,-10.18,M,10.18,M,,*65
$GPRMC,082807,A,3128.00000,N,12112.61783,E,9.719,270.000,010720,0.000,E,A,V*61
$GPGGA,082808,3128.00000,N,12112.61467,E,3,11,0.78,-10.18,M,10.18,M,,*63
$GPRMC,082808,A,3128.00000,N,12112.61467,E,9.719,270.000,010720,0.000,E,A,V*67
$GPGGA,082809,3128.00000,N,12112.61152,E,3,11,0.78,-10.18,M,10.18,M,,*61
$GPRMC,082809,A,3128.00000,N,12112.61152,E,9.719,270.000,010720,0.000,E,A,V*65
$GPGGA,082810,3128.00000,N,12112.60836,E,3,11,0.78,-10.18,M,10.18,M,,*63
$GPRMC,082810,A,3128.00000,N,12112.60836,E,9.719,270.000,010720,0.000,E,A,V*67
$GPGGA,082811,3128.00000,N,12112.60520,E,3,11,0.78,-10.18,M,10.18,M,,*68
$GPRMC,082811,A,3128.00000,N,12112.60520,E,9.719,270.000,010720,0.000,E,A,V*6C
$GPGGA,082812,3128.00000,N,12112.60205,E,3,11,0.78,-10.18,M,10.18,M,,*6B
$GPRMC,082812,A,3128.00000,N,12112.60205,E,9.719,270.000,010720,0.000,E,A,V*6F
$GPGGA,082813,3128.00000,N,12112.59889,E,3,11,0.78,-10.18,M,10.18,M,,*6E
$GPRMC,082813,A,3128.00000,N,12112.59889,E,9.719,270.000,010720,0.000,E,A,V*6A
$GPGGA,082814,3128.00000,N,12112.59573,E,3,11,0.78,-10.18,M,10.18,M,,*61
$GPRMC,082814,A,3128.00000,N,12112.59573,E,9.719,270.000,010720,0.000,E,A,V*65
$GPGGA,082815,3128.00000,N,12112.59258,E,3,11,0.78,-10.18,M,10.18,M,,*6E
$GPRMC,082815,A,3128.00000,N,12112.59258,E,9.719,270.000,010720,0.000,E,A,V*6A
$GPGGA,082816,3128.00000,N,12112.58942,E,3,11,0.78,-10.18,M,10.18,M,,*6C
$GPRMC,082816,A,3128.00000,N,12112.58942,E,9.719,270.000,010720,0.000,E,A,V*68
