$GNRMC,082840.00,A,3128.000034,N,12112.513805,E,9.721,270.01,010720,,,A,V*05
$GNGGA,082840.00,3128.000034,N,12112.513805,E,1,08,1.01,-7.2,M,9.3,M,,*5A
$GNGSA,A,3,04,05,09,12,15,17,26,27,,,,,2.23,1.01,1.98,1*0A
$GNGSA,A,3,,,,,,,,,,,,,2.23,1.01,1.98,4*07
$GPGSV,3,1,12,02,08,153,48,04,15,115,48,05,22,268,49,09
,47,325,49,0*6B
$GPGSV,3,2,12,12,34,269,49,15,58,211,50,17,37,049,49,18,07,281,48,0*66
$GPGSV,3,3,12,26,47,180,49,27,28,109,49,28,09,059,48,30,02,256,,0*6C
$BDGSV,1,1,00,0*74

$GNRMC,082841.00,A,3128.000034,N,12112.510648,E,9.720,270.01,010720,,,A,V*01
$GNGGA,082841.00,3128.000034,N,12112.510648,E,1,08,1.01,-7.2,M,9.3,M,,*5F
$GNGSA,A,3,04,05,09,12,15,17,26,27,,,,,2.23,1.01,1.98,1*0A
$GNGSA,A,3,,,,,,,,,,,,,2.23,1.01,1.98,4*07
$GPGSV,3,1,12,02,08,153,48,04,15,115,48,05,22,268,49,09
,47,325,49,0*6B
$GPGSV,3,2,12,12,34,269,49,15,58,211,50,17,37,049,49,18,07,281,48,0*66
$GPGSV,3,3,12,26,47,180,49,27,28,109,49,28,09,059,48,30,02,256,,0*6C
$BDGSV,1,1,00,0*74

<??????????????>

$GNRMC,082842.00,A,3128.000034,N,12112.507492,E,9.719,270.01,010720,,,A,V*0B
$GNGGA,082842.00,3128.000034,N,12112.507492,E,1,08,1.01,-7.2,M,9.3,M,,*5F
$GNGSA,A,3,04,05,09,12,15,17,26,27,,,,,2.23,1.01,1.98,1*0A
$GNGSA,A,3,,,,,,,,,,,,,2.23,1.01,1.98,4*07
$GPGSV,3,1,12,02,08,153,48,04,15,115,48,05,22,268,49,09
,47,325,49,0*6B
$GPGSV,3,2,12,12,34,269,49,15,58,211,50,17,37,049,49,18,07,281,48,0*66
$GPGSV,3,3,12,26,47,180,49,27,28,109,49,28,09,059,48,30,02,256,,0*6C
$BDGSV,1,1,00,0*74

$GNRMC,082843.00,A,3128.000034,N,12112.504336,E,9.718,270.00,010720,,,A,V*00
$GNGGA,082843.00,3128.000034,N,12112.504336,E,1,08,1.01,-7.2,M,9.3,M,,*54
$GNGSA,A,3,04,05,09,12,15,17,26,27,,,,,2.23,1.01,1.98,1*0A
$GNGSA,A,3,,,,,,,,,,,,,2.23,1.01,1.98,4*07
$GPGSV,4,1,13,02,08,153,48,04,15,115,48,05,22,268,49,08
,00,112,,0*64
$GPGSV,4,2,13,09,47,325,49,12,34,269,49,15,58,211,50,17,37,049,49,0*6A
$GPGSV,4,3,13,18,07,281,48,26,47,180,49,27,28,109,49,28,09,059,48,0*63
$GPGSV,4,4,13,30,02,256,,0*57
$BDGSV,1,1,00,0*74

$GNRMC,082844.00,A,3128.000034,N,12112.501180,E,9.721,270.00,010720,,,A,V*07
$GNGGA,082844.00,3128.000034,N,12112.501180,E,1,08,1.01,-7.2,M,9.3,M,,*59
$GNGSA,A,3,04,05,09,12,15,17,26,27,,,,,2.23,1.01,1.98,1*0A
$GNGSA,A,3,,,,,,,,,,,,,2.23,1.01,1.98,4*07
$GPGSV,4,1,13,02,08,153,48,04,15,115,48,05,22,268,49,08
,00,112,,0*64
$GPGSV,4,2,13,09,47,325,49,12,34,269,49,15,58,211,50,17,37,049,49,0*6A
$GPGSV,4,3,13,18,07,281,48,26,47,180,49,27,28,109,49,28,09,059,48,0*63
$GPGSV,4,4,13,30,02,256,,0*57
$BDGSV,1,1,00,0*74

$GNRMC,082845.00,A,3128.000034,N,12112.498024,E,9.722,270.02,010720,,,A,V*09
$GNGGA,082845.00,3128.000034,N,12112.498024,E,1,08,1.01,-7.2,M,9.3,M,,*56
$GNGSA,A,3,04,05,09,12,15,17,26,27,,,,,2.23,1.01,1.98,1*0A
$GNGSA,A,3,,,,,,,,,,,,,2.23,1.01,1.98,4*07
$GPGSV,4,1,13,02,08,153,48,04,15,115,48,05,22,268,49,08
,00,112,,0*64
$GPGSV,4,2,13,09,47,325,49,12,34,269,49,15,58,211,50,17,37,049,49,0*6A
$GPGSV,4,3,13,18,07,281,48,26,47,180,49,27,28,109,49,28,09,059,48,0*63
$GPGSV,4,4,13,30,02,256,,0*57
$BDGSV,1,1,00,0*74

$GNRMC,082846.00,A,3128.000035,N,12112.494867,E,9.721,270.00,010720,,,A,V*09
$GNGGA,082846.00,3128.000035,N,12112.494867,E,1,08,1.01,-7.2,M,9.3,M,,*57
$GNGSA,A,3,04,05,09,12,15,17,26,27,,,,,2.23,1.01,1.98,1*0A
$GNGSA,A,3,,,,,,,,,,,,,2.23,1.01,1.98,4*07
$GPGSV,4,1,13,02,08,153,48,04,15,115,48,05,22,268,49,08
,00,112,,0*64
$GPGSV,4,2,13,09,47,325,49,12,34,269,49,15,58,211,50,17,37,049,49,0*6A
$GPGSV,4,3,13,18,07,281,48,26,47,180,49,27,28,109,49,28,09,059,48,0*63
$GPGSV,4,4,13,30,02,256,,0*57
$BDGSV,1,1,00,0*74

$GNRMC,082847.00,A,3128.000035,N,12112.491711,E,9.719,270.01,010720,,,A,V*09
$GNGGA,082847.00,3128.000035,N,12112.491711,E,1,08,1.01,-7.2,M,9.3,M,,*5D
$GNGSA,A,3,04,05,09,12,15,17,26,27,,,,,2.23,1.01,1.99,1*0B
$GNGSA,A,3,,,,,,,,,,,,,2.23,1.01,1.99,4*06
$GPGSV,4,1,14,02,08,153,48,04,15,115,48,05,22,268,49,08
,00,112,,0*63
$GPGSV,4,2,14,09,47,325,49,12,34,269,49,15,58,211,50,17,37,049,49,0*6D
$GPGSV,4,3,14,18,07,281,48,19,,,33,26,47,180,49,27,28,109,49,0*5F
$GPGSV,4,4,14,28,09,059,48,30,02,256,,0*63
$BDGSV,1,1,00,0*74

$GNRMC,082848.00,A,3128.000034,N,12112.488555,E,9.722,270.00,010720,,,A,V*04
$GNGGA,082848.00,3128.000034,N,12112.488555,E,1,08,1.01,-7.2,M,9.3,M,,*59
$GNGSA,A,3,04,05,09,12,15,17,26,27,,,,,2.23,1.01,1.99,1*0B
$GNGSA,A,3,,,,,,,,,,,,,2.23,1.01,1.99,4*06
$GPGSV,4,1,13,02,08,153,48,04,15,115,48,05,22,268,49,08,00,112,,0*64
$GPGSV,4,2,13,09,47,325,49,12,34,269,49,15,58,211,50,17,37,049,49,0*6A
$GPGSV,4,3,13,18,07,281,48,26,47,180,49,27,28,109,49,28,09,059,48,0*63
$GPGSV,4,4,13,30,02,256,,0*57
$BDGSV,1,1,00,0*74

$GNRMC,082849.00,A,3128.000034,N,12112.485399,E,9.720,270.01,010720,,,A,V*0D
$GNGGA,082849.00,3128.000034,N,12112.485399,E,1,08,1.01,-7.2,M,9.3,M,,*53
$GNGSA,A,3,04,05,09,12,15,17,26,27,,,,,2.23,1.01,1.99,1*0B
$GNGSA,A,3,,,,,,,,,,,,,2.23,1.01,1.99,4*06
$GPGSV,4,1,13,02,08,153,48,04,15,115,48,05,22,268,49,08
,00,112,,0*64
$GPGSV,4,2,13,09,47,325,49,12,34,269,49,15,58,211,50,17,37,049,49,0*6A
$GPGSV,4,3,13,18,07,281,48,26,47,180,49,27,28,109,49,28,09,059,48,0*63
$GPGSV,4,4,13,30,02,256,,0*57
$BDGSV,1,1,00,0*74

$GNRMC,082850.00,A,3128.000033,N,12112.482243,E,9.723,270.01,010720,,,A,V*00
$GNGGA,082850.00,3128.000033,N,12112.482243,E,1,08,1.01,-7.2,M,9.3,M,,*5D
$GNGSA,A,3,04,05,09,12,15,17,26,27,,,,,2.23,1.01,1.99,1*0B
$GNGSA,A,3,,,,,,,,,,,,,2.23,1.01,1.99,4*06
$GPGSV,4,1,13,02,08,153,48,04,15,115,48,05,22,268,49,08
,00,112,,0*64
$GPGSV,4,2,13,09,47,325,49,12,34,269,49,15,58,211,50,17,37,049,49,0*6A
$GPGSV,4,3,13,18,07,281,48,26,47,180,49,27,28,109,49,28,09,059,48,0*63
$GPGSV,4,4,13,30,02,256,,0*57
$BDGSV,1,1,00,0*74

$GNRMC,082851.00,A,3128.000032,N,12112.479086,E,9.721,270.01,010720,,,A,V*0D
$GNGGA,082851.00,3128.000032,N,12112.479086,E,1,08,1.01,-7.2,M,9.3,M,,*52
$GNGSA,A,3,04,05,09,12,15,17,26,27,,,,,2.23,1.01,1.99,1*0B
$GNGSA,A,3,,,,,,,,,,,,,2.23,1.01,1.99,4*06
$GPGSV,4,1,13,02,08,153,48,04,15,115,48,05,22,268,49,08
,00,112,,0*64
$GPGSV,4,2,13,09,47,325,49,12,34,269,49,15,58,211,50,17,37,049,49,0*6A
$GPGSV,4,3,13,18,07,281,48,26,47,180,49,27,28,109,49,28,09,059,48,0*63
$GPGSV,4,4,13,30,02,256,,0*57
$BDGSV,1,1,00,0*74

<????sim??????(SIM??:1)>
<????GSM????????(GSM:0)>
<????GPRS????????(GPRS:0)>
<????????????(SIGNAL:0)>
<????????????????(BER:0)>

<??????????????>

$GNRMC,082852.00,A,3128.000032,N,12112.475930,E,9.720,270.01,010720,,,A,V*07
$GNGGA,082852.00,3128.000032,N,12112.475930,E,1,08,1.01,-7.2,M,9.3,M,,*59
$GNGSA,A,3,04,05,09,12,15,17,26,27,,,,,2.23,1.01,1.99,1*0B
$GNGSA,A,3,,,,,,,,,,,,,2.23,1.01,1.99,4*06
$GPGSV,4,1,13,02,08,153,48,04,15,115,48,05,22,268,49,08
,00,112,,0*64
$GPGSV,4,2,13,09,47,325,49,12,34,269,49,15,58,211,50,17,37,049,49,0*6A
$GPGSV,4,3,13,18,07,281,48,26,47,180,49,27,28,109,49,28,09,059,48,0*63
$GPGSV,4,4,13,30,02,256,,0*57
$BDGSV,1,1,00,0*74

$GNRMC,082853.00,A,3128.000032,N,12112.472773,E,9.718,270.01,010720,,,A,V*03
$GNGGA,082853.00,3128.000032,N,12112.472773,E,1,08,1.01,-7.2,M,9.3,M,,*56
$GNGSA,A,3,04,05,09,12,15,17,26,27,,,,,2.23,1.01,1.99,1*0B
$GNGSA,A,3,,,,,,,,,,,,,2.23,1.01,1.99,4*06
$GPGSV,4,1,13,02,08,153,48,04,15,115,48,05,22,268,49,08
,00,112,,0*64
$GPGSV,4,2,13,09,47,325,49,12,34,269,49,15,58,211,50,17,37,049,49,0*6A
$GPGSV,4,3,13,18,07,281,48,26,47,180,49,27,28,109,49,28,09,059,48,0*63
$GPGSV,4,4,13,30,02,256,,0*57
$BDGSV,1,1,00,0*74

$GNRMC,082854.00,A,3128.000032,N,12112.469616,E,9.720,270.00,010720,,,A,V*06
$GNGGA,082854.00,3128.000032,N,12112.469616,E,1,08,1.01,-7.2,M,9.3,M,,*59
$GNGSA,A,3,04,05,09,12,15,17,26,27,,,,,2.23,1.01,1.99,1*0B
$GNGSA,A,3,,,,,,,,,,,,,2.23,1.01,1.99,4*06
$GPGSV,4,1,13,02,08,153,48,04,15,115,48,05,22,268,49,08
,00,112,,0*64
$GPGSV,4,2,13,09,47,325,49,12,34,269,49,15,58,211,50,17,37,049,49,0*6A
$GPGSV,4,3,13,18,07,281,48,26,47,180,49,27,28,109,49,28,09,059,48,0*63
$GPGSV,4,4,13,30,02,256,,0*57
$BDGSV,1,1,00,0*74

$GNRMC,082855.00,A,3128.000032,N,12112.466461,E,9.719,270.01,010720,,,A,V*01
$GNGGA,082855.00,3128.000032,N,12112.466461,E,1,08,1.01,-7.2,M,9.3,M,,*55
$GNGSA,A,3,04,05,09,12,15,17,26,27,,,,,2.23,1.01,1.99,1*0B
$GNGSA,A,3,,,,,,,,,,,,,2.23,1.01,1.99,4*06
$GPGSV,4,1,13,02,08,153,48,04,15,115,48,05,22,268,49,08
,00,112,,0*64
$GPGSV,4,2,13,09,47,325,49,12,34,269,49,15,58,211,50,17,37,049,49,0*6A
$GPGSV,4,3,13,18,07,281,48,26,47,180,49,27,28,109,49,28,09,059,48,0*63
$GPGSV,4,4,13,30,02,256,,0*57
$BDGSV,1,1,00,0*74

$GNRMC,082856.00,A,3128.000032,N,12112.463304,E,9.721,270.00,010720,,,A,V*09
$GNGGA,082856.00,3128.000032,N,12112.463304,E,1,08,1.01,-7.2,M,9.3,M,,*57
$GNGSA,A,3,04,05,09,12,15,17,26,27,,,,,2.23,1.01,1.99,1*0B
$GNGSA,A,3,,,,,,,,,,,,,2.23,1.01,1.99,4*06
$GPGSV,4,1,13,02,08,153,48,04,15,115,48,05,22,268,49,08
,00,112,,0*64
$GPGSV,4,2,13,09,47,325,49,12,34,269,49,15,58,211,50,17,37,049,49,0*6A
$GPGSV,4,3,13,18,07,281,48,26,47,180,49,27,28,109,49,28,09,059,48,0*63
$GPGSV,4,4,13,30,02,256,,0*57
$BDGSV,1,1,00,0*74

$GNRMC,082857.00,A,3128.000032,N,12112.460147,E,9.719,270.02,010720,,,A,V*07
$GNGGA,082857.00,3128.000032,N,12112.460147,E,1,08,1.01,-7.2,M,9.3,M,,*50
$GNGSA,A,3,04,05,09,12,15,17,26,27,,,,,2.23,1.01,1.99,1*0B
$GNGSA,A,3,,,,,,,,,,,,,2.23,1.01,1.99,4*06
$GPGSV,4,1,13,02,08,153,48,04,15,115,48,05,22,268,49,08
,00,112,,0*64
$GPGSV,4,2,13,09,47,325,49,12,34,269,49,15,58,210,50,17,37,049,49,0*6B
$GPGSV,4,3,13,18,07,281,48,26,47,180,49,27,28,109,49,28,09,059,48,0*63
$GPGSV,4,4,13,30,02,256,22,0*57
$BDGSV,1,1,00,0*74

$GNRMC,082858.00,A,3128.000031,N,12112.456991,E,9.721,270.00,010720,,,A,V*04
$GNGGA,082858.00,3128.000031,N,12112.456991,E,1,08,1.01,-7.2,M,9.3,M,,*5A
$GNGSA,A,3,04,05,09,12,15,17,26,27,,,,,2.23,1.01,1.99,1*0B
$GNGSA,A,3,,,,,,,,,,,,,2.23,1.01,1.99,4*06
$GPGSV,4,1,14,02,08,153,48,04,15,115,48,05,22,268,49,08
,00,112,,0*63
$GPGSV,4,2,14,09,47,325,49,10,,,31,12,34,269,49,15,58,210,50,0*5D
$GPGSV,4,3,14,17,37,049,49,18,07,281,48,26,47,180,49,27,28,109,49,0*65
$GPGSV,4,4,14,28,09,059,48,30,02,256,,0*63
$BDGSV,1,1,00,0*74

$GNRMC,082859.00,A,3128.000030,N,12112.453835,E,9.723,270.00,010720,,,A,V*0C
$GNGGA,082859.00,3128.000030,N,12112.453835,E,1,08,1.01,-7.2,M,9.3,M,,*50
$GNGSA,A,3,04,05,09,12,15,17,26,27,,,,,2.23,1.01,1.99,1*0B
$GNGSA,A,3,,,,,,,,,,,,,2.23,1.01,1.99,4*06
$GPGSV,4,1,13,02,08,153,48,04,15,115,48,05,22,268,49,08
,00,112,,0*64
$GPGSV,4,2,13,09,47,325,49,12,34,269,49,15,58,210,50,17,37,049,49,0*6B
$GPGSV,4,3,13,18,07,281,48,26,47,180,49,27,28,109,49,28,09,059,48,0*63
$GPGSV,4,4,13,30,02,256,,0*57
$BDGSV,1,1,00,0*74

$GNRMC,082900.00,A,3128.000029,N,12112.450679,E,9.720,270.01,010720,,,A,V*0E
$GNGGA,082900.00,3128.000029,N,12112.450679,E,1,08,1.01,-7.2,M,9.3,M,,*50
$GNGSA,A,3,04,05,09,12,15,17,26,27,,,,,2.24,1.01,1.99,1*0C
$GNGSA,A,3,,,,,,,,,,,,,2.24,1.01,1.99,4*01
$GPGSV,4,1,13,02,08,153,48,04,15,115,48,05,22,268,49,08
,00,112,,0*64
$GPGSV,4,2,13,09,47,325,49,12,34,269,49,15,58,210,50,17,37,049,49,0*6B
$GPGSV,4,3,13,18,07,281,48,26,47,180,49,27,28,109,49,28,09,059,48,0*63
$GPGSV,4,4,13,30,02,256,,0*57
$BDGSV,1,1,00,0*74

$GNRMC,082901.00,A,3128.000029,N,12112.447522,E,9.721,270.02,010720,,,A,V*06
$GNGGA,082901.00,3128.000029,N,12112.447522,E,1,08,1.01,-7.2,M,9.3,M,,*5A
$GNGSA,A,3,04,05,09,12,15,17,26,27,,,,,2.24,1.01,1.99,1*0C
$GNGSA,A,3,,,,,,,,,,,,,2.24,1.01,1.99,4*01
$GPGSV,4,1,14,02,08,153,48,04,15,115,48,05,22,268,49,08
,00,112,,0*63
$GPGSV,4,2,14,09,47,325,49,10,,,31,12,34,269,49,15,58,210,50,0*5D
$GPGSV,4,3,14,17,37,049,49,18,07,281,48,26,47,180,49,27,28,109,49,0*65
$GPGSV,4,4,14,28,09,059,48,30,02,256,,0*63
$BDGSV,1,1,00,0*74

<??????????????>

$GNRMC,082902.00,A,3128.000028,N,12112.444365,E,9.718,270.00,010720,,,A,V*0A
$GNGGA,082902.00,3128.000028,N,12112.444365,E,1,08,1.01,-7.2,M,9.3,M,,*5E
$GNGSA,A,3,04,05,09,12,15,17,26,27,,,,,2.24,1.01,1.99,1*0C
$GNGSA,A,3,,,,,,,,,,,,,2.24,1.01,1.99,4*01
$GPGSV,4,1,13,02,08,153,48,04,15,115,48,05,22,268,49,08
,00,112,,0*64
$GPGSV,4,2,13,09,47,325,49,12,34,269,49,15,58,210,50,17,37,049,49,0*6B
$GPGSV,4,3,13,18,07,281,48,26,47,180,49,27,28,109,49,28,09,059,48,0*63
$GPGSV,4,4,13,30,02,256,,0*57
$BDGSV,1,1,00,0*74

$GNRMC,082903.00,A,3128.000027,N,12112.441208,E,9.719,270.00,010720,,,A,V*0A
$GNGGA,082903.00,3128.000027,N,12112.441208,E,1,08,1.01,-7.2,M,9.3,M,,*5F
$GNGSA,A,3,04,05,09,12,15,17,26,27,,,,,2.24,1.01,1.99,1*0C
$GNGSA,A,3,,,,,,,,,,,,,2.24,1.01,1.99,4*01
$GPGSV,4,1,13,02,08,153,48,04,15,115,48,05,22,268,49,08
,00,112,,0*64
$GPGSV,4,2,13,09,47,325,49,12,34,269,49,15,58,210,50,17,37,049,49,0*6B
$GPGSV,4,3,13,18,07,281,48,26,47,180,49,27,28,109,49,28,09,059,48,0*63
$GPGSV,4,4,13,30,02,256,,0*57
$BDGSV,1,1,00,0*74

$GNRMC,082904.00,A,3128.000027,N,12112.438053,E,9.719,270.02,010720,,,A,V*0D
$GNGGA,082904.00,3128.000027,N,12112.438053,E,1,08,1.01,-7.2,M,9.3,M,,*5A
$GNGSA,A,3,04,05,09,12,15,17,26,27,,,,,2.24,1.01,1.99,1*0C
$GNGSA,A,3,,,,,,,,,,,,,2.24,1.01,1.99,4*01
$GPGSV,4,1,13,02,08,153,48,04,15,115,48,05,22,268,49,08
,00,112,,0*64
$GPGSV,4,2,13,09,47,325,49,12,34,269,49,15,58,210,50,17,37,049,49,0*6B
$GPGSV,4,3,13,18,07,281,48,26,47,180,49,27,28,109,49,28,09,059,48,0*63
$GPGSV,4,4,13,30,02,256,,0*57
$BDGSV,1,1,00,0*74

$GNRMC,082905.00,A,3128.000027,N,12112.434896,E,9.721,270.00,010720,,,A,V*08
$GNGGA,082905.00,3128.000027,N,12112.434896,E,1,08,1.01,-7.2,M,9.3,M,,*56
$GNGSA,A,3,04,05,09,12,15,17,26,27,,,,,2.24,1.01,1.99,1*0C
$GNGSA,A,3,,,,,,,,,,,,,2.24,1.01,1.99,4*01
$GPGSV,4,1,13,02,08,153,48,04,15,115,48,05,22,268,49,08
,00,112,,0*64
$GPGSV,4,2,13,09,47,325,49,12,34,269,49,15,58,210,50,17,37,049,49,0*6B
$GPGSV,4,3,13,18,07,281,48,26,47,180,49,27,28,109,49,28,09,059,48,0*63
$GPGSV,4,4,13,30,02,256,,0*57
$BDGSV,1,1,00,0*74


GPS HPregnss> E1 15 00 00 00 00 07 53 8F 3C 6C 00 00 00 1C 38 83 D5 8A 00 00 00 00 


$GNRMC,082906.00,A,3128.000026,N,12112.431739,E,9.719,270.01,010720,,,A,V*0F
$GNGGA,082906.00,3128.000026,N,12112.431739,E,1,08,1.01,-7.2,M,9.3,M,,*5B
$GNGSA,A,3,04,05,09,12,15,17,26,27,,,,,2.24,1.01,2.00,1*0F
$GNGSA,A,3,,,,,,,,,,,,,2.24,1.01,2.00,4*02
$GPGSV,4,1,13,02,08,153,48,04,15,115,48,05,22,268,49,08
,00,112,,0*64
$GPGSV,4,2,13,09,47,325,49,12,34,269,49,15,58,210,50,17,37,049,49,0*6B
$GPGSV,4,3,13,18,07,281,48,26,47,180,49,27,27,109,49,28,09,059,48,0*6C
$GPGSV,4,4,13,30,02,256,,0*57
$BDGSV,1,1,00,0*74

$GNRMC,082907.00,A,3128.000026,N,12112.428583,E,9.719,270.02,010720,,,A,V*06
$GNGGA,082907.00,3128.000026,N,12112.428583,E,1,08,1.01,-7.2,M,9.3,M,,*51
$GNGSA,A,3,04,05,09,12,15,17,26,27,,,,,2.24,1.01,2.00,1*0F
$GNGSA,A,3,,,,,,,,,,,,,2.24,1.01,2.00,4*02
$GPGSV,4,1,13,02,08,153,48,04,15,115,48,05,22,268,49,08
,00,112,,0*64
$GPGSV,4,2,13,09,47,325,49,12,34,269,49,15,58,210,50,17,37,049,49,0*6B
$GPGSV,4,3,13,18,07,281,48,26,47,180,49,27,27,109,49,28,09,059,48,0*6C
$GPGSV,4,4,13,30,02,256,,0*57
$BDGSV,1,1,00,0*74

$GNRMC,082908.00,A,3128.000026,N,12112.425426,E,9.719,270.00,010720,,,A,V*08
$GNGGA,082908.00,3128.000026,N,12112.425426,E,1,08,1.01,-7.2,M,9.3,M,,*5D
$GNGSA,A,3,04,05,09,12,15,17,26,27,,,,,2.24,1.01,2.00,1*0F
$GNGSA,A,3,,,,,,,,,,,,,2.24,1.01,2.00,4*02
$GPGSV,4,1,13,02,08,153,48,04,15,115,48,05,22,268,49,08
,00,112,,0*64
$GPGSV,4,2,13,09,47,325,49,12,34,269,49,15,58,210,50,17,37,049,49,0*6B
$GPGSV,4,3,13,18,07,281,48,26,47,180,49,27,27,109,49,28,09,059,48,0*6C
$GPGSV,4,4,13,30,02,256,,0*57
$BDGSV,1,1,00,0*74

$GNRMC,082909.00,A,3128.000027,N,12112.422270,E,9.721,270.03,010720,,,A,V*02
$GNGGA,082909.00,3128.000027,N,12112.422270,E,1,08,1.01,-7.2,M,9.3,M,,*5F
$GNGSA,A,3,04,05,09,12,15,17,26,27,,,,,2.24,1.01,2.00,1*0F
$GNGSA,A,3,,,,,,,,,,,,,2.24,1.01,2.00,4*02
$GPGSV,4,1,13,02,08,153,48,04,15,115,48,05,22,268,49,08,00,112,,0*64
$GPGSV,4,2,13,09,47,325,49,12,34,269,49,15,58,210,50,17,37,049,49,0*6B
$GPGSV,4,3,13,18,07,281,48,26,47,180,49,27,27,109,49,28,09,059,48,0*6C
$GPGSV,4,4,13,30,02,256,,0*57
$BDGSV,1,1,00,0*74

$GNRMC,082910.00,A,3128.000026,N,12112.419113,E,9.723,270.00,010720,,,A,V*04
$GNGGA,082910.00,3128.000026,N,12112.419113,E,1,08,1.01,-7.2,M,9.3,M,,*58
$GNGSA,A,3,04,05,09,12,15,17,26,27,,,,,2.24,1.01,2.00,1*0F
$GNGSA,A,3,,,,,,,,,,,,,2.24,1.01,2.00,4*02
$GPGSV,4,1,13,02,08,153,48,04,15,115,48,05,22,268,49,08
,00,112,,0*64
$GPGSV,4,2,13,09,47,325,49,12,34,269,49,15,58,210,50,17,37,049,49,0*6B
$GPGSV,4,3,13,18,07,281,48,26,47,180,49,27,27,109,49,28,09,059,48,0*6C
$GPGSV,4,4,13,30,02,256,,0*57
$BDGSV,1,1,00,0*74

$GNRMC,082911.00,A,3128.000026,N,12112.415956,E,9.720,270.01,010720,,,A,V*02
$GNGGA,082911.00,3128.000026,N,12112.415956,E,1,08,1.01,-7.2,M,9.3,M,,*5C
$GNGSA,A,3,04,05,09,12,15,17,26,27,,,,,2.24,1.01,2.00,1*0F
$GNGSA,A,3,,,,,,,,,,,,,2.24,1.01,2.00,4*02
$GPGSV,4,1,13,02,08,153,48,04,15,115,48,05,22,268,49,08
,00,112,,0*64
$GPGSV,4,2,13,09,47,325,49,12,34,269,49,15,58,210,50,17,37,049,49,0*6B
$GPGSV,4,3,13,18,07,281,48,26,47,180,49,27,27,109,49,28,09,059,48,0*6C
$GPGSV,4,4,13,30,02,256,,0*57
$BDGSV,1,1,00,0*74

<????sim??????(SIM??:1)>
<????GSM????????(GSM:0)>
<????GPRS????????(GPRS:0)>
<????????????(SIGNAL:0)>
<????????????????(BER:0)>

<??????????????>

$GNRMC,082912.00,A,3128.000024,N,12112.412799,E,9.720,270.00,010720,,,A,V*08
$GNGGA,082912.00,3128.000024,N,12112.412799,E,1,08,1.01,-7.2,M,9.3,M,,*57
$GNGSA,A,3,04,05,09,12,15,17,26,27,,,,,2.24,1.01,2.00,1*0F
$GNGSA,A,3,,,,,,,,,,,,,2.24,1.01,2.00,4*02
$GPGSV,4,1,13,02,08,153,48,04,15,115,48,05,22,268,49,08
,00,112,,0*64
$GPGSV,4,2,13,09,47,325,49,12,34,269,49,15,58,210,50,17,37,049,49,0*6B
$GPGSV,4,3,13,18,07,281,48,26,47,180,49,27,27,109,49,28,09,059,48,0*6C
$GPGSV,4,4,13,30,02,256,,0*57
$BDGSV,1,1,00,0*74

$GNRMC,082913.00,A,3128.000024,N,12112.409643,E,9.718,270.01,010720,,,A,V*0F
$GNGGA,082913.00,3128.000024,N,12112.409643,E,1,08,1.01,-7.2,M,9.3,M,,*5A
$GNGSA,A,3,04,05,09,12,15,17,26,27,,,,,2.24,1.01,2.00,1*0F
$GNGSA,A,3,,,,,,,,,,,,,2.24,1.01,2.00,4*02
$GPGSV,4,1,13,02,08,153,48,04,15,115,48,05,22,268,49,08
,00,112,,0*64
$GPGSV,4,2,13,09,48,325,49,12,34,269,49,15,58,210,50,17,37,049,49,0*64
$GPGSV,4,3,13,18,07,281,48,26,47,180,49,27,27,109,49,28,09,059,48,0*6C
$GPGSV,4,4,13,30,02,256,,0*57
$BDGSV,1,1,00,0*74

$GNRMC,082914.00,A,3128.000024,N,12112.406485,E,9.721,270.00,010720,,,A,V*04
$GNGGA,082914.00,3128.000024,N,12112.406485,E,1,08,1.01,-7.2,M,9.3,M,,*5A
$GNGSA,A,3,04,05,09,12,15,17,26,27,,,,,2.24,1.01,2.00,1*0F
$GNGSA,A,3,,,,,,,,,,,,,2.24,1.01,2.00,4*02
$GPGSV,4,1,13,02,08,153,48,04,15,115,48,05,22,268,49,08
,00,112,,0*64
$GPGSV,4,2,13,09,48,325,49,12,34,269,49,15,58,210,50,17,37,049,49,0*64
$GPGSV,4,3,13,18,07,281,48,26,47,180,49,27,27,109,49,28,09,059,48,0*6C
$GPGSV,4,4,13,30,02,256,,0*57
$BDGSV,1,1,00,0*74

$GNRMC,082915.00,A,3128.000025,N,12112.403329,E,9.719,270.01,010720,,,A,V*0A
$GNGGA,082915.00,3128.000025,N,12112.403329,E,1,08,1.01,-7.2,M,9.3,M,,*5E
$GNGSA,A,3,04,05,09,12,15,17,26,27,,,,,2.24,1.01,2.00,1*0F
$GNGSA,A,3,,,,,,,,,,,,,2.24,1.01,2.00,4*02
$GPGSV,4,1,13,02,08,153,48,04,15,115,48,05,22,268,49,08
,00,112,,0*64
$GPGSV,4,2,13,09,48,325,49,12,34,269,49,15,58,210,50,17,37,049,49,0*64
$GPGSV,4,3,13,18,07,281,48,26,47,180,49,27,27,109,49,28,09,059,48,0*6C
$GPGSV,4,4,13,30,02,256,,0*57
$BDGSV,1,1,00,0*74

$GNRMC,082916.00,A,3128.000025,N,12112.400172,E,9.720,270.01,010720,,,A,V*0C
$GNGGA,082916.00,3128.000025,N,12112.400172,E,1,08,1.01,-7.2,M,9.3,M,,*52
$GNGSA,A,3,04,05,09,12,15,17,26,27,,,,,2.24,1.01,2.00,1*0F
$GNGSA,A,3,,,,,,,,,,,,,2.24,1.01,2.00,4*02
$GPGSV,4,1,13,02,08,153,48,04,15,115,48,05,22,268,49,08
,00,112,,0*64
$GPGSV,4,2,13,09,48,325,49,12,34,269,49,15,58,210,50,17,37,049,49,0*64
$GPGSV,4,3,13,18,07,281,48,26,47,180,49,27,27,109,49,28,09,059,48,0*6C
$GPGSV,4,4,13,30,02,256,,0*57
$BDGSV,1,1,00,0*74

$GNRMC,082917.00,A,3128.000024,N,12112.397015,E,9.719,270.00,010720,,,A,V*0E
$GNGGA,082917.00,3128.000024,N,12112.397015,E,1,08,1.01,-7.2,M,9.3,M,,*5B
$GNGSA,A,3,04,05,09,12,15,17,26,27,,,,,2.24,1.01,2.00,1*0F
$GNGSA,A,3,,,,,,,,,,,,,2.24,1.01,2.00,4*02
$GPGSV,4,1,13,02,08,153,48,04,15,115,48,05,22,268,49,08
,00,112,,0*64
$GPGSV,4,2,13,09,48,325,49,12,34,269,49,15,58,210,50,17,37,049,49,0*64
$GPGSV,4,3,13,18,07,281,48,26,47,180,49,27,27,109,49,28,09,059,48,0*6C
$GPGSV,4,4,13,30,02,256,,0*57
$BDGSV,1,1,00,0*74

$GNRMC,082918.00,A,3128.000023,N,12112.393858,E,9.721,270.02,010720,,,A,V*0A
$GNGGA,082918.00,3128.000023,N,12112.393858,E,1,08,1.01,-7.2,M,9.3,M,,*56
$GNGSA,A,3,04,05,09,12,15,17,26,27,,,,,2.24,1.01,2.00,1*0F
$GNGSA,A,3,,,,,,,,,,,,,2.24,1.01,2.00,4*02
$GPGSV,4,1,13,02,08,153,48,04,15,115,48,05,22,268,49,08
,00,112,,0*64
$GPGSV,4,2,13,09,48,325,49,12,34,269,49,15,58,210,50,17,37,049,49,0*64
$GPGSV,4,3,13,18,07,281,48,26,47,180,49,27,27,109,49,28,09,059,48,0*6C
$GPGSV,4,4,13,30,02,256,,0*57
$BDGSV,1,1,00,0*74

$GNRMC,082919.00,A,3128.000023,N,12112.390702,E,9.722,270.01,010720,,,A,V*08
$GNGGA,082919.00,3128.000023,N,12112.390702,E,1,08,1.01,-7.2,M,9.3,M,,*54
$GNGSA,A,3,04,05,09,12,15,17,26,27,,,,,2.24,1.01,2.00,1*0F
$GNGSA,A,3,,,,,,,,,,,,,2.24,1.01,2.00,4*02
$GPGSV,4,1,13,02,08,153,48,04,15,115,48,05,22,268,49,08
,00,112,,0*64
$GPGSV,4,2,13,09,48,325,49,12,34,269,49,15,58,210,50,17,37,049,49,0*64
$GPGSV,4,3,13,18,07,281,48,26,47,180,49,27,27,109,49,28,09,059,48,0*6C
$GPGSV,4,4,13,30,02,256,,0*57
$BDGSV,1,1,00,0*74

$GNRMC,082920.00,A,3128.000024,N,12112.387545,E,9.722,270.00,010720,,,A,V*03
$GNGGA,082920.00,3128.000024,N,12112.387545,E,1,08,1.01,-7.2,M,9.3,M,,*5E
$GNGSA,A,3,04,05,09,12,15,17,26,27,,,,,2.24,1.01,2.00,1*0F
$GNGSA,A,3,,,,,,,,,,,,,2.24,1.01,2.00,4*02
$GPGSV,4,1,13,02,08,153,48,04,15,115,48,05,22,268,49,08
,00,112,,0*64
$GPGSV,4,2,13,09,48,325,49,12,34,269,49,15,58,210,50,17,37,049,49,0*64
$GPGSV,4,3,13,18,07,281,48,26,47,180,49,27,27,109,49,28,09,059,48,0*6C
$GPGSV,4,4,13,30,02,256,,0*57
$BDGSV,1,1,00,0*74

$GNRMC,082921.00,A,3128.000023,N,12112.384388,E,9.722,270.01,010720,,,A,V*00
$GNGGA,082921.00,3128.000023,N,12112.384388,E,1,08,1.01,-7.2,M,9.3,M,,*5C
$GNGSA,A,3,04,05,09,12,15,17,26,27,,,,,2.24,1.01,2.00,1*0F
$GNGSA,A,3,,,,,,,,,,,,,2.24,1.01,2.00,4*02
$GPGSV,4,1,13,02,08,153,48,04,15,115,48,05,22,268,49,08
,00,112,,0*64
$GPGSV,4,2,13,09,48,325,49,12,34,269,49,15,58,210,50,17,37,049,49,0*64
$GPGSV,4,3,13,18,07,281,48,26,47,180,49,27,27,109,49,28,09,059,48,0*6C
$GPGSV,4,4,13,30,02,256,,0*57
$BDGSV,1,1,00,0*74

<??????????????>

$GNRMC,082922.00,A,3128.000023,N,12112.381232,E,9.719,270.01,010720,,,A,V*0E
$GNGGA,082922.00,3128.000023,N,12112.381232,E,1,08,1.01,-7.2,M,9.3,M,,*5A
$GNGSA,A,3,04,05,09,12,15,17,26,27,,,,,2.24,1.01,2.00,1*0F
$GNGSA,A,3,,,,,,,,,,,,,2.24,1.01,2.00,4*02
$GPGSV,4,1,13,02,08,153,48,04,15,115,48,05,22,268,49,08
,00,112,,0*64
$GPGSV,4,2,13,09,48,325,49,12,34,269,49,15,58,210,50,17,37,049,49,0*64
$GPGSV,4,3,13,18,07,281,48,26,47,180,49,27,27,109,49,28,09,059,48,0*6C
$GPGSV,4,4,13,30,02,256,,0*57
$BDGSV,1,1,00,0*74

$GNRMC,082923.00,A,3128.000023,N,12112.378076,E,9.717,270.01,010720,,,A,V*05
$GNGGA,082923.00,3128.000023,N,12112.378076,E,1,08,1.01,-7.2,M,9.3,M,,*5F
$GNGSA,A,3,04,05,09,12,15,17,26,27,,,,,2.25,1.01,2.00,1*0E
$GNGSA,A,3,,,,,,,,,,,,,2.25,1.01,2.00,4*03
$GPGSV,4,1,13,02,08,153,48,04,15,115,48,05,22,268,49,08
,00,112,,0*64
$GPGSV,4,2,13,09,48,325,49,12,34,269,49,15,58,210,50,17,37,049,49,0*64
$GPGSV,4,3,13,18,07,281,48,26,47,180,49,27,27,109,49,28,09,059,48,0*6C
$GPGSV,4,4,13,30,02,256,,0*57
$BDGSV,1,1,00,0*74

$GNRMC,082924.00,A,3128.000023,N,12112.374918,E,9.723,270.01,010720,,,A,V*08
$GNGGA,082924.00,3128.000023,N,12112.374918,E,1,08,1.01,-7.2,M,9.3,M,,*55
$GNGSA,A,3,04,05,09,12,15,17,26,27,,,,,2.25,1.01,2.00,1*0E
$GNGSA,A,3,,,,,,,,,,,,,2.25,1.01,2.00,4*03
$GPGSV,4,1,13,02,08,153,48,04,15,115,48,05,22,268,49,08
,00,112,,0*64
$GPGSV,4,2,13,09,48,325,49,12,34,269,49,15,58,210,50,17,37,049,49,0*64
$GPGSV,4,3,13,18,07,281,48,26,47,180,49,27,27,109,49,28,09,059,48,0*6C
$GPGSV,4,4,13,30,02,256,,0*57
$BDGSV,1,1,00,0*74

$GNRMC,082925.00,A,3128.000023,N,12112.371763,E,9.718,270.01,010720,,,A,V*06
$GNGGA,082925.00,3128.000023,N,12112.371763,E,1,08,1.01,-7.2,M,9.3,M,,*53
$GNGSA,A,3,04,05,09,12,15,17,26,27,,,,,2.25,1.01,2.01,1*0F
$GNGSA,A,3,,,,,,,,,,,,,2.25,1.01,2.01,4*02
$GPGSV,4,1,13,02,08,153,48,04,15,115,48,05,22,268,49,08
,00,112,,0*64
$GPGSV,4,2,13,09,48,325,49,12,34,269,49,15,58,210,50,17,37,049,49,0*64
$GPGSV,4,3,13,18,07,281,48,26,47,180,49,27,27,109,49,28,09,059,48,0*6C
$GPGSV,4,4,13,30,02,256,,0*57
$BDGSV,1,1,00,0*74

$GNRMC,082926.00,A,3128.000024,N,12112.368607,E,9.720,270.01,010720,,,A,V*02
$GNGGA,082926.00,3128.000024,N,12112.368607,E,1,08,1.01,-7.2,M,9.3,M,,*5C
$GNGSA,A,3,04,05,09,12,15,17,26,27,,,,,2.25,1.01,2.01,1*0F
$GNGSA,A,3,,,,,,,,,,,,,2.25,1.01,2.01,4*02
$GPGSV,4,1,13,02,08,153,48,04,15,115,48,05,22,268,49,08
,00,112,,0*64
$GPGSV,4,2,13,09,48,325,49,12,34,269,49,15,58,210,50,17,37,049,49,0*64
$GPGSV,4,3,13,18,07,281,48,26,47,180,49,27,27,109,49,28,09,059,48,0*6C
$GPGSV,4,4,13,30,02,256,,0*57
$BDGSV,1,1,00,0*74

$GNRMC,082927.00,A,3128.000024,N,12112.365450,E,9.720,270.02,010720,,,A,V*0D
$GNGGA,082927.00,3128.000024,N,12112.365450,E,1,08,1.01,-7.2,M,9.3,M,,*50
$GNGSA,A,3,04,05,09,12,15,17,26,27,,,,,2.25,1.01,2.01,1*0F
$GNGSA,A,3,,,,,,,,,,,,,2.25,1.01,2.01,4*02
$GPGSV,4,1,13,02,08,153,48,04,15,115,48,05,22,268,49,08
,00,112,,0*64
$GPGSV,4,2,13,09,48,325,49,12,34,269,49,15,58,210,50,17,37,049,49,0*64
$GPGSV,4,3,13,18,07,281,48,26,47,180,49,27,27,109,49,28,09,059,48,0*6C
$GPGSV,4,4,13,30,02,256,,0*57
$BDGSV,1,1,00,0*74

$GNRMC,082928.00,A,3128.000023,N,12112.362293,E,9.720,270.01,010720,,,A,V*08
$GNGGA,082928.00,3128.000023,N,12112.362293,E,1,08,1.01,-7.2,M,9.3,M,,*56
$GNGSA,A,3,04,05,09,12,15,17,26,27,,,,,2.25,1.01,2.01,1*0F
$GNGSA,A,3,,,,,,,,,,,,,2.25,1.01,2.01,4*02
$GPGSV,4,1,13,02,08,153,48,04,15,115,48,05,22,268,49,08
,00,112,,0*64
$GPGSV,4,2,13,09,48,325,49,12,34,269,49,15,58,210,50,17,37,049,49,0*64
$GPGSV,4,3,13,18,07,281,48,26,47,180,49,27,27,109,49,28,09,059,48,0*6C
$GPGSV,4,4,13,30,02,256,,0*57
$BDGSV,1,1,00,0*74

$GNRMC,082929.00,A,3128.000022,N,12112.359136,E,9.722,270.00,010720,,,A,V*0F
$GNGGA,082929.00,3128.000022,N,12112.359136,E,1,08,1.01,-7.2,M,9.3,M,,*52
$GNGSA,A,3,04,05,09,12,15,17,26,27,,,,,2.25,1.01,2.01,1*0F
$GNGSA,A,3,,,,,,,,,,,,,2.25,1.01,2.01,4*02
$GPGSV,4,1,13,02,08,153,48,04,15,115,48,05,22,268,49,08
,00,112,,0*64
$GPGSV,4,2,13,09,48,325,49,12,34,269,49,15,58,210,50,17,37,049,49,0*64
$GPGSV,4,3,13,18,07,281,48,26,47,180,49,27,27,109,49,28,09,059,48,0*6C
$GPGSV,4,4,13,30,02,256,,0*57
$BDGSV,1,1,00,0*74

$GNRMC,082930.00,A,3128.000022,N,12112.355980,E,9.721,270.01,010720,,,A,V*0C
$GNGGA,082930.00,3128.000022,N,12112.355980,E,1,08,1.01,-7.2,M,9.3,M,,*53
$GNGSA,A,3,04,05,09,12,15,17,26,27,,,,,2.25,1.01,2.01,1*0F
$GNGSA,A,3,,,,,,,,,,,,,2.25,1.01,2.01,4*02
$GPGSV,4,1,13,02,08,153,48,04,15,115,48,05,22,268,49,08
,00,112,,0*64
$GPGSV,4,2,13,09,48,325,49,12,34,269,49,15,58,210,50,17,37,049,49,0*64
$GPGSV,4,3,13,18,07,281,48,26,47,180,49,27,27,109,49,28,09,059,48,0*6C
$GPGSV,4,4,13,30,02,256,,0*57
$BDGSV,1,1,00,0*74

$GNRMC,082931.00,A,3128.000020,N,12112.352822,E,9.723,270.00,010720,,,A,V*02
$GNGGA,082931.00,3128.000020,N,12112.352822,E,1,08,1.01,-7.2,M,9.3,M,,*5E
$GNGSA,A,3,04,05,09,12,15,17,26,27,,,,,2.25,1.01,2.01,1*0F
$GNGSA,A,3,,,,,,,,,,,,,2.25,1.01,2.01,4*02
$GPGSV,4,1,13,02,08,153,48,04,15,115,48,05,22,268,49,08
,00,112,,0*64
$GPGSV,4,2,13,09,48,325,49,12,34,269,49,15,58,210,50,17,37,049,49,0*64
$GPGSV,4,3,13,18,07,281,48,26,47,180,49,27,27,109,49,28,09,059,48,0*6C
$GPGSV,4,4,13,30,02,256,,0*57
$BDGSV,1,1,00,0*74

<????sim??????(SIM??:1)>
<????GSM????????(GSM:0)>
<????GPRS????????(GPRS:0)>
<????????????(SIGNAL:0)>
<????????????????(BER:0)>

<??????????????>

$GNRMC,082932.00,A,3128.000020,N,12112.349666,E,9.717,270.01,010720,,,A,V*03
$GNGGA,082932.00,3128.000020,N,12112.349666,E,1,08,1.01,-7.2,M,9.3,M,,*59
$GNGSA,A,3,04,05,09,12,15,17,26,27,,,,,2.25,1.01,2.01,1*0F
$GNGSA,A,3,,,,,,,,,,,,,2.25,1.01,2.01,4*02
$GPGSV,4,1,13,02,08,153,48,04,15,115,48,05,22,268,49,08
,00,112,,0*64
$GPGSV,4,2,13,09,48,325,49,12,34,269,49,15,58,210,50,17,37,049,49,0*64
$GPGSV,4,3,13,18,07,281,48,26,47,180,49,27,27,109,49,28,09,059,48,0*6C
$GPGSV,4,4,13,30,02,256,,0*57
$BDGSV,1,1,00,0*74

$GNRMC,082933.00,A,3128.000021,N,12112.346510,E,9.717,270.02,010720,,,A,V*0D
$GNGGA,082933.00,3128.000021,N,12112.346510,E,1,08,1.01,-7.2,M,9.3,M,,*54
$GNGSA,A,3,04,05,09,12,15,17,26,27,,,,,2.25,1.01,2.01,1*0F
$GNGSA,A,3,,,,,,,,,,,,,2.25,1.01,2.01,4*02
$GPGSV,4,1,13,02,08,153,48,04,15,115,48,05,22,268,49,08
,00,112,,0*64
$GPGSV,4,2,13,09,48,325,49,12,34,269,49,15,58,210,50,17,37,049,49,0*64
$GPGSV,4,3,13,18,07,281,48,26,47,180,49,27,27,109,49,28,09,059,48,0*6C
$GPGSV,4,4,13,30,02,256,,0*57
$BDGSV,1,1,00,0*74

$GNRMC,082934.00,A,3128.000020,N,12112.343352,E,9.722,269.98,010720,,,A,V*03
$GNGGA,082934.00,3128.000020,N,12112.343352,E,1,08,1.01,-7.2,M,9.3,M,,*57
$GNGSA,A,3,04,05,09,12,15,17,26,27,,,,,2.25,1.01,2.01,1*0F
$GNGSA,A,3,,,,,,,,,,,,,2.25,1.01,2.01,4*02
$GPGSV,4,1,13,02,08,153,48,04,15,115,48,05,22,268,49,08
,00,112,,0*64
$GPGSV,4,2,13,09,48,325,49,12,34,269,49,15,58,210,50,17,37,049,49,0*64
$GPGSV,4,3,13,18,07,281,48,26,47,180,49,27,27,109,49,28,09,059,48,0*6C
$GPGSV,4,4,13,30,02,256,,0*57
$BDGSV,1,1,00,0*74

$GNRMC,082935.00,A,3128.000021,N,12112.340197,E,9.719,270.01,010720,,,A,V*0B
$GNGGA,082935.00,3128.000021,N,12112.340197,E,1,08,1.01,-7.2,M,9.3,M,,*5F
$GNGSA,A,3,04,05,09,12,15,17,26,27,,,,,2.25,1.01,2.01,1*0F
$GNGSA,A,3,,,,,,,,,,,,,2.25,1.01,2.01,4*02
$GPGSV,4,1,13,02,08,153,48,04,15,115,48,05,22,268,49,08
,00,112,,0*64
$GPGSV,4,2,13,09,48,325,49,12,34,269,49,15,58,210,50,17,37,049,49,0*64
$GPGSV,4,3,13,18,07,281,48,26,47,180,49,27,27,109,49,28,08,059,48,0*6D
$GPGSV,4,4,13,30,02,256,,0*57
$BDGSV,1,1,00,0*74


GPS HPregnss> E1 15 00 00 00 00 07 53 8F 3C 08 00 00 00 1C 38 6B C0 3E 00 00 00 00 


$GNRMC,082936.00,A,3128.000022,N,12112.337041,E,9.718,270.03,010720,,,A,V*02
$GNGGA,082936.00,3128.000022,N,12112.337041,E,1,08,1.01,-7.2,M,9.3,M,,*55
$GNGSA,A,3,04,05,09,12,15,17,26,27,,,,,2.25,1.01,2.01,1*0F
$GNGSA,A,3,,,,,,,,,,,,,2.25,1.01,2.01,4*02
$GPGSV,4,1,13,02,08,153,48,04,15,115,48,05,22,268,49,08
,00,112,,0*64
$GPGSV,4,2,13,09,48,325,49,12,34,269,49,15,58,210,50,17,37,049,49,0*64
$GPGSV,4,3,13,18,07,281,48,26,47,180,49,27,27,109,49,28,08,059,48,0*6D
$GPGSV,4,4,13,30,02,256,,0*57
$BDGSV,1,1,00,0*74

$GNRMC,082937.00,A,3128.000021,N,12112.333883,E,9.724,269.99,010720,,,A,V*06
$GNGGA,082937.00,3128.000021,N,12112.333883,E,1,08,1.01,-7.2,M,9.3,M,,*55
$GNGSA,A,3,04,05,09,12,15,17,26,27,,,,,2.25,1.01,2.01,1*0F
$GNGSA,A,3,,,,,,,,,,,,,2.25,1.01,2.01,4*02
$GPGSV,4,1,13,02,08,153,48,04,15,115,48,05,22,268,49,08
,00,112,,0*64
$GPGSV,4,2,13,09,48,325,49,12,34,269,49,15,58,210,50,17,37,049,49,0*64
$GPGSV,4,3,13,18,07,281,48,26,47,180,49,27,27,109,49,28,08,059,48,0*6D
$GPGSV,4,4,13,30,02,256,,0*57
$BDGSV,1,1,00,0*74

$GNRMC,082938.00,A,3128.000021,N,12112.330727,E,9.718,270.01,010720,,,A,V*0D
$GNGGA,082938.00,3128.000021,N,12112.330727,E,1,08,1.01,-7.2,M,9.3,M,,*58
$GNGSA,A,3,04,05,09,12,15,17,26,27,,,,,2.25,1.01,2.01,1*0F
$GNGSA,A,3,,,,,,,,,,,,,2.25,1.01,2.01,4*02
$GPGSV,4,1,13,02,08,153,48,04,15,115,48,05,22,268,49,08
,00,112,,0*64
$GPGSV,4,2,13,09,48,325,49,12,34,269,49,15,58,210,50,17,37,049,49,0*64
$GPGSV,4,3,13,18,07,281,48,26,47,180,49,27,27,109,49,28,08,059,48,0*6D
$GPGSV,4,4,13,30,02,256,,0*57
$BDGSV,1,1,00,0*74

$GNRMC,082939.00,A,3128.000020,N,12112.327572,E,9.720,270.00,010720,,,A,V*03
$GNGGA,082939.00,3128.000020,N,12112.327572,E,1,08,1.01,-7.1,M,9.3,M,,*5F
$GNGSA,A,3,04,05,09,12,15,17,26,27,,,,,2.25,1.01,2.01,1*0F
$GNGSA,A,3,,,,,,,,,,,,,2.25,1.01,2.01,4*02
$GPGSV,4,1,13,02,08,153,48,04,15,115,48,05,22,268,49,08
,00,112,,0*64
$GPGSV,4,2,13,09,48,325,49,12,34,269,49,15,58,210,50,17,37,049,49,0*64
$GPGSV,4,3,13,18,07,281,48,26,47,180,49,27,27,109,49,28,08,059,48,0*6D
$GPGSV,4,4,13,30,02,256,,0*57
$BDGSV,1,1,00,0*74

$GNRMC,082940.00,A,3128.000019,N,12112.324414,E,9.722,270.01,010720,,,A,V*06
$GNGGA,082940.00,3128.000019,N,12112.324414,E,1,08,1.01,-7.2,M,9.3,M,,*5A
$GNGSA,A,3,04,05,09,12,15,17,26,27,,,,,2.25,1.01,2.01,1*0F
$GNGSA,A,3,,,,,,,,,,,,,2.25,1.01,2.01,4*02
$GPGSV,4,1,13,02,08,153,48,04,15,115,48,05,22,268,49,08
,00,112,,0*64
$GPGSV,4,2,13,09,48,325,49,12,34,269,49,15,58,210,50,17,37,049,49,0*64
$GPGSV,4,3,13,18,07,281,48,26,47,180,49,27,27,109,49,28,08,059,48,0*6D
$GPGSV,4,4,13,30,02,256,,0*57
$BDGSV,1,1,00,0*74

$GNRMC,082941.00,A,3128.000020,N,12112.321259,E,9.718,270.02,010720,,,A,V*0D
$GNGGA,082941.00,3128.000020,N,12112.321259,E,1,08,1.01,-7.1,M,9.3,M,,*58
$GNGSA,A,3,04,05,09,12,15,17,26,27,,,,,2.25,1.01,2.01,1*0F
$GNGSA,A,3,,,,,,,,,,,,,2.25,1.01,2.01,4*02
$GPGSV,4,1,13,02,08,153,48,04,15,115,48,05,22,268,49,08
,00,112,,0*64
$GPGSV,4,2,13,09,48,325,49,12,34,269,49,15,58,210,50,17,37,049,49,0*64
$GPGSV,4,3,13,18,07,281,48,26,47,180,49,27,27,109,49,28,08,059,48,0*6D
$GPGSV,4,4,13,30,02,256,,0*57
$BDGSV,1,1,00,0*74

<??????????????>

$GNRMC,082942.00,A,3128.000018,N,12112.318101,E,9.723,269.98,010720,,,A,V*02
$GNGGA,082942.00,3128.000018,N,12112.318101,E,1,08,1.01,-7.1,M,9.3,M,,*54
$GNGSA,A,3,04,05,09,12,15,17,26,27,,,,,2.25,1.01,2.01,1*0F
$GNGSA,A,3,,,,,,,,,,,,,2.25,1.01,2.01,4*02
$GPGSV,4,1,13,02,08,153,48,04,15,115,48,05,22,268,49,08
,00,112,,0*64
$GPGSV,4,2,13,09,48,325,49,12,34,269,49,15,58,210,50,17,37,049,49,0*64
$GPGSV,4,3,13,18,07,281,48,26,47,180,49,27,27,109,49,28,08,059,48,0*6D
$GPGSV,4,4,13,30,02,256,,0*57
$BDGSV,1,1,00,0*74

$GNRMC,082943.00,A,3128.000019,N,12112.314945,E,9.718,270.04,010720,,,A,V*03
$GNGGA,082943.00,3128.000019,N,12112.314945,E,1,08,1.01,-7.1,M,9.3,M,,*50
$GNGSA,A,3,04,05,09,12,15,17,26,27,,,,,2.25,1.01,2.01,1*0F
$GNGSA,A,3,,,,,,,,,,,,,2.25,1.01,2.01,4*02
$GPGSV,4,1,13,02,08,153,48,04,15,115,48,05,22,268,49,08
,00,112,,0*64
$GPGSV,4,2,13,09,48,325,49,12,34,269,49,15,58,210,50,17,37,049,49,0*64
$GPGSV,4,3,13,18,07,281,48,26,47,180,49,27,27,109,49,28,08,059,48,0*6D
$GPGSV,4,4,13,30,02,256,,0*57
$BDGSV,1,1,00,0*74

$GNRMC,082944.00,A,3128.000018,N,12112.311788,E,9.722,269.99,010720,,,A,V*0A
$GNGGA,082944.00,3128.000018,N,12112.311788,E,1,08,1.01,-7.1,M,9.3,M,,*5C
$GNGSA,A,3,04,05,09,12,15,17,26,27,,,,,2.25,1.01,2.02,1*0C
$GNGSA,A,3,,,,,,,,,,,,,2.25,1.01,2.02,4*01
$GPGSV,4,1,13,02,08,152,48,04,15,115,48,05,22,268,49,08
,00,112,,0*65
$GPGSV,4,2,13,09,48,325,49,12,34,269,49,15,58,210,50,17,37,049,49,0*64
$GPGSV,4,3,13,18,07,281,48,26,47,180,49,27,27,109,49,28,08,059,48,0*6D
$GPGSV,4,4,13,30,02,256,,0*57
$BDGSV,1,1,00,0*74

$GNRMC,082945.00,A,3128.000017,N,12112.308631,E,9.719,270.02,010720,,,A,V*0D
$GNGGA,082945.00,3128.000017,N,12112.308631,E,1,08,1.01,-7.1,M,9.3,M,,*59
$GNGSA,A,3,04,05,09,12,15,17,26,27,,,,,2.26,1.01,2.02,1*0F
$GNGSA,A,3,,,,,,,,,,,,,2.26,1.01,2.02,4*02
$GPGSV,4,1,13,02,08,152,48,04,15,115,48,05,22,268,49,08
,00,112,,0*65
$GPGSV,4,2,13,09,48,325,49,12,34,269,49,15,58,210,50,17,37,049,49,0*64
$GPGSV,4,3,13,18,07,281,48,26,47,180,49,27,27,109,49,28,08,059,48,0*6D
$GPGSV,4,4,13,30,02,256,,0*57
$BDGSV,1,1,00,0*74

$GNRMC,082946.00,A,3128.000016,N,12112.305474,E,9.723,269.98,010720,,,A,V*03
$GNGGA,082946.00,3128.000016,N,12112.305474,E,1,08,1.01,-7.2,M,9.3,M,,*56
$GNGSA,A,3,04,05,09,12,15,17,26,27,,,,,2.26,1.01,2.02,1*0F
$GNGSA,A,3,,,,,,,,,,,,,2.26,1.01,2.02,4*02
$GPGSV,4,1,13,02,08,152,48,04,15,115,48,05,22,268,49,08
,00,112,,0*65
$GPGSV,4,2,13,09,48,325,49,12,34,269,49,15,58,210,50,17,37,049,49,0*64
$GPGSV,4,3,13,18,07,281,48,26,47,180,49,27,27,109,49,28,08,059,48,0*6D
$GPGSV,4,4,13,30,02,256,,0*57
$BDGSV,1,1,00,0*74

$GNRMC,082947.00,A,3128.000015,N,12112.302319,E,9.718,270.01,010720,,,A,V*0A
$GNGGA,082947.00,3128.000015,N,12112.302319,E,1,08,1.01,-7.1,M,9.3,M,,*5C
$GNGSA,A,3,04,05,09,12,15,17,26,27,,,,,2.26,1.01,2.02,1*0F
$GNGSA,A,3,,,,,,,,,,,,,2.26,1.01,2.02,4*02
$GPGSV,4,1,13,02,08,152,48,04,15,115,48,05,22,269,49,08
,00,112,,0*64
$GPGSV,4,2,13,09,48,325,49,12,34,269,49,15,58,210,50,17,37,049,49,0*64
$GPGSV,4,3,13,18,07,281,48,26,47,180,49,27,27,109,49,28,08,059,48,0*6D
$GPGSV,4,4,13,30,02,256,,0*57
$BDGSV,1,1,00,0*74

$GNRMC,082948.00,A,3128.000016,N,12112.299163,E,9.719,270.01,010720,,,A,V*0B
$GNGGA,082948.00,3128.000016,N,12112.299163,E,1,08,1.01,-7.1,M,9.3,M,,*5C
$GNGSA,A,3,04,05,09,12,15,17,26,27,,,,,2.26,1.01,2.02,1*0F
$GNGSA,A,3,,,,,,,,,,,,,2.26,1.01,2.02,4*02
$GPGSV,4,1,13,02,08,152,48,04,15,115,48,05,22,269,49,08
,00,112,,0*64
$GPGSV,4,2,13,09,48,325,49,12,34,269,49,15,58,210,50,17,37,049,49,0*64
$GPGSV,4,3,13,18,07,281,48,26,47,180,49,27,27,109,49,28,08,059,48,0*6D
$GPGSV,4,4,13,30,02,256,,0*57
$BDGSV,1,1,00,0*74

$GNRMC,082949.00,A,3128.000016,N,12112.296007,E,9.720,270.02,010720,,,A,V*0F
$GNGGA,082949.00,3128.000016,N,12112.296007,E,1,08,1.01,-7.1,M,9.3,M,,*51
$GNGSA,A,3,04,05,09,12,15,17,26,27,,,,,2.26,1.01,2.02,1*0F
$GNGSA,A,3,,,,,,,,,,,,,2.26,1.01,2.02,4*02
$GPGSV,4,1,13,02,08,152,48,04,15,115,48,05,22,269,49,08
,00,112,,0*64
$GPGSV,4,2,13,09,48,325,49,12,34,269,49,15,58,210,50,17,37,049,49,0*64
$GPGSV,4,3,13,18,07,281,48,26,47,180,49,27,27,109,49,28,08,059,48,0*6D
$GPGSV,4,4,13,30,02,256,,0*57
$BDGSV,1,1,00,0*74

$GNRMC,082950.00,A,3128.000016,N,12112.292849,E,9.722,270.00,010720,,,A,V*01
$GNGGA,082950.00,3128.000016,N,12112.292849,E,1,08,1.01,-7.1,M,9.3,M,,*5F
$GNGSA,A,3,04,05,09,12,15,17,26,27,,,,,2.26,1.01,2.02,1*0F
$GNGSA,A,3,,,,,,,,,,,,,2.26,1.01,2.02,4*02
$GPGSV,3,1,12,02,08,152,48,04,15,115,48,05,22,269,49,09
,48,325,49,0*64
$GPGSV,3,2,12,12,34,269,49,15,58,210,50,17,37,049,49,18,07,281,48,0*67
$GPGSV,3,3,12,26,47,180,49,27,27,109,49,28,08,059,48,30,02,256,,0*62
$BDGSV,1,1,00,0*74

$GNRMC,082951.00,A,3128.000016,N,12112.289691,E,9.722,270.01,010720,,,A,V*00
$GNGGA,082951.00,3128.000016,N,12112.289691,E,1,08,1.01,-7.1,M,9.3,M,,*5F
$GNGSA,A,3,04,05,09,12,15,17,26,27,,,,,2.26,1.01,2.02,1*0F
$GNGSA,A,3,,,,,,,,,,,,,2.26,1.01,2.02,4*02
$GPGSV,3,1,12,02,08,152,48,04,15,115,48,05,22,269,49,09
,48,325,49,0*64
$GPGSV,3,2,12,12,34,269,49,15,58,210,50,17,37,049,49,18,07,281,48,0*67
$GPGSV,3,3,12,26,47,180,49,27,27,109,49,28,08,059,48,30,02,256,,0*62
$BDGSV,1,1,00,0*74

$GNRMC,082952.00,A,3128.000016,N,12112.286534,E,9.718,270.00,010720,,,A,V*08
$GNGGA,082952.00,3128.000016,N,12112.286534,E,1,08,1.01,-7.1,M,9.3,M,,*5F
$GNGSA,A,3,04,05,09,12,15,17,26,27,,,,,2.26,1.01,2.02,1*0F
$GNGSA,A,3,,,,,,,,,,,,,2.26,1.01,2.02,4*02
$GPGSV,3,1,12,02,08,152,48,04,15,115,48,05,22,269,49,09
,48,325,49,0*64
$GPGSV,3,2,12,12,34,269,49,15,58,210,50,17,37,049,49,18,07,281,48,0*67
$GPGSV,3,3,12,26,47,180,49,27,27,109,49,28,08,059,48,30,02,256,,0*62
$BDGSV,1,1,00,0*74
<????sim??????(SIM??:1)>
<????GSM????????(GSM:0)>
<????GPRS????????(GPRS:0)>
<????????????(SIGNAL:0)>
<????????????????(BER:0)>


<??????????????>

$GNRMC,082953.00,A,3128.000017,N,12112.283377,E,9.721,270.02,010720,,,A,V*04
$GNGGA,082953.00,3128.000017,N,12112.283377,E,1,08,1.01,-7.1,M,9.3,M,,*5B
$GNGSA,A,3,04,05,09,12,15,17,26,27,,,,,2.26,1.01,2.02,1*0F
$GNGSA,A,3,,,,,,,,,,,,,2.26,1.01,2.02,4*02
$GPGSV,3,1,12,02,08,152,48,04,15,115,48,05,22,269,49,09
,48,325,49,0*64
$GPGSV,3,2,12,12,34,269,49,15,58,210,50,17,37,049,49,18,07,281,48,0*67
$GPGSV,3,3,12,26,47,180,49,27,27,109,49,28,08,059,48,30,02,256,,0*62
$BDGSV,1,1,00,0*74

$GNRMC,082954.00,A,3128.000016,N,12112.280220,E,9.718,270.00,010720,,,A,V*0A
$GNGGA,082954.00,3128.000016,N,12112.280220,E,1,08,1.01,-7.1,M,9.3,M,,*5D
$GNGSA,A,3,04,05,09,12,15,17,26,27,,,,,2.26,1.01,2.02,1*0F
$GNGSA,A,3,,,,,,,,,,,,,2.26,1.01,2.02,4*02
$GPGSV,3,1,12,02,08,152,48,04,15,115,48,05,22,269,49,09
,48,325,49,0*64
$GPGSV,3,2,12,12,34,269,49,15,58,210,50,17,37,049,49,18,07,281,48,0*67
$GPGSV,3,3,12,26,47,180,49,27,27,109,49,28,08,059,48,30,02,256,,0*62
$BDGSV,1,1,00,0*74

$GNRMC,082955.00,A,3128.000016,N,12112.277062,E,9.721,270.01,010720,,,A,V*0C
$GNGGA,082955.00,3128.000016,N,12112.277062,E,1,08,1.01,-7.1,M,9.3,M,,*50
$GNGSA,A,3,04,05,09,12,15,17,26,27,,,,,2.26,1.01,2.02,1*0F
$GNGSA,A,3,,,,,,,,,,,,,2.26,1.01,2.02,4*02
$GPGSV,3,1,12,02,08,152,48,04,15,115,48,05,22,269,49,09
,48,325,49,0*64
$GPGSV,3,2,12,12,34,269,49,15,58,210,50,17,37,049,49,18,07,281,48,0*67
$GPGSV,3,3,12,26,47,180,49,27,27,109,49,28,08,059,48,30,02,256,,0*62
$BDGSV,1,1,00,0*74

$GNRMC,082956.00,A,3128.000017,N,12112.273905,E,9.719,270.02,010720,,,A,V*0A
$GNGGA,082956.00,3128.000017,N,12112.273905,E,1,08,1.01,-7.1,M,9.3,M,,*5E
$GNGSA,A,3,04,05,09,12,15,17,26,27,,,,,2.26,1.01,2.02,1*0F
$GNGSA,A,3,,,,,,,,,,,,,2.26,1.01,2.02,4*02
$GPGSV,3,1,12,02,08,152,48,04,15,115,48,05,22,269,49,09
,48,325,49,0*64
$GPGSV,3,2,12,12,34,269,49,15,58,210,49,17,37,049,49,18,07,281,48,0*6F
$GPGSV,3,3,12,26,47,180,49,27,27,109,49,28,08,059,48,30,02,256,,0*62
$BDGSV,1,1,00,0*74

$GNRMC,082957.00,A,3128.000017,N,12112.270747,E,9.723,270.01,010720,,,A,V*0A
$GNGGA,082957.00,3128.000017,N,12112.270747,E,1,08,1.01,-7.1,M,9.3,M,,*54
$GNGSA,A,3,04,05,09,12,15,17,26,27,,,,,2.26,1.01,2.02,1*0F
$GNGSA,A,3,,,,,,,,,,,,,2.26,1.01,2.02,4*02
$GPGSV,3,1,12,02,08,152,48,04,15,115,48,05,22,269,49,09
,48,325,49,0*64
$GPGSV,3,2,12,12,34,269,49,15,58,210,50,17,37,049,49,18,07,281,48,0*67
$GPGSV,3,3,12,26,47,180,49,27,27,109,49,28,08,059,48,30,02,256,,0*62
$BDGSV,1,1,00,0*74

$GNRMC,082958.00,A,3128.000016,N,12112.267590,E,9.717,270.01,010720,,,A,V*0D
$GNGGA,082958.00,3128.000016,N,12112.267590,E,1,08,1.01,-7.1,M,9.3,M,,*54
$GNGSA,A,3,04,05,09,12,15,17,26,27,,,,,2.26,1.01,2.02,1*0F
$GNGSA,A,3,,,,,,,,,,,,,2.26,1.01,2.02,4*02
$GPGSV,4,1,13,02,08,152,48,04,15,115,48,05,22,269,49,09
,48,325,49,0*62
$GPGSV,4,2,13,11,,,29,12,34,269,49,15,58,210,50,17,37,049,49,0*53
$GPGSV,4,3,13,18,07,281,48,26,47,180,49,27,27,109,49,28,08,059,48,0*6D
$GPGSV,4,4,13,30,02,256,,0*57
$BDGSV,1,1,00,0*74

$GNRMC,082959.00,A,3128.000015,N,12112.264432,E,9.720,270.01,010720,,,A,V*01
$GNGGA,082959.00,3128.000015,N,12112.264432,E,1,08,1.01,-7.1,M,9.3,M,,*5C
$GNGSA,A,3,04,05,09,12,15,17,26,27,,,,,2.26,1.01,2.02,1*0F
$GNGSA,A,3,,,,,,,,,,,,,2.26,1.01,2.02,4*02
$GPGSV,4,1,13,02,08,152,48,04,15,115,48,05,22,269,49,09
,48,325,49,0*62
$GPGSV,4,2,13,11,,,30,12,34,269,49,15,58,210,50,17,37,049,49,0*5B
$GPGSV,4,3,13,18,07,281,48,26,47,180,49,27,27,109,49,28,08,059,48,0*6D
$GPGSV,4,4,13,30,02,256,,0*57
$BDGSV,1,1,00,0*74

$GNRMC,083000.00,A,3128.000015,N,12112.261275,E,9.722,270.02,010720,,,A,V*04
$GNGGA,083000.00,3128.000015,N,12112.261275,E,1,08,1.01,-7.1,M,9.3,M,,*58
$GNGSA,A,3,04,05,09,12,15,17,26,27,,,,,2.26,1.01,2.02,1*0F
$GNGSA,A,3,,,,,,,,,,,,,2.26,1.01,2.02,4*02
$GPGSV,3,1,12,02,08,152,48,04,15,115,48,05,22,269,49,09
,48,325,49,0*64
$GPGSV,3,2,12,12,34,269,49,15,58,210,50,17,37,049,49,18,07,281,48,0*67
$GPGSV,3,3,12,26,47,180,49,27,27,109,49,28,08,059,48,30,02,256,,0*62
$BDGSV,1,1,00,0*74

$GNRMC,083001.00,A,3128.000015,N,12112.258119,E,9.720,270.00,010720,,,A,V*06
$GNGGA,083001.00,3128.000015,N,12112.258119,E,1,08,1.01,-7.1,M,9.3,M,,*5A
$GNGSA,A,3,04,05,09,12,15,17,26,27,,,,,2.26,1.01,2.02,1*0F
$GNGSA,A,3,,,,,,,,,,,,,2.26,1.01,2.02,4*02
$GPGSV,3,1,12,02,08,152,48,04,15,115,48,05,22,269,49,09
,48,325,49,0*64
$GPGSV,3,2,12,12,34,269,49,15,58,210,50,17,37,049,49,18,07,281,48,0*67
$GPGSV,3,3,12,26,47,180,49,27,27,109,49,28,08,059,48,30,02,256,,0*62
$BDGSV,1,1,00,0*74

$GNRMC,083002.00,A,3128.000016,N,12112.254962,E,9.722,270.02,010720,,,A,V*0E
$GNGGA,083002.00,3128.000016,N,12112.254962,E,1,08,1.01,-7.1,M,9.3,M,,*52
$GNGSA,A,3,04,05,09,12,15,17,26,27,,,,,2.26,1.01,2.02,1*0F
$GNGSA,A,3,,,,,,,,,,,,,2.26,1.01,2.02,4*02
$GPGSV,3,1,12,02,08,152,48,04,15,115,48,05,22,269,49,09
,48,325,49,0*64
$GPGSV,3,2,12,12,34,269,49,15,58,210,50,17,37,049,49,18,07,281,48,0*67
$GPGSV,3,3,12,26,46,180,49,27,27,109,49,28,08,059,48,30,02,256,,0*63
$BDGSV,1,1,00,0*74
<??????????????>

$GNRMC,083003.00,A,3128.000015,N,12112.251806,E,9.720,269.99,010720,,,A,V*02
$GNGGA,083003.00,3128.000015,N,12112.251806,E,1,08,1.01,-7.1,M,9.3,M,,*56
$GNGSA,A,3,04,05,09,12,15,17,26,27,,,,,2.26,1.01,2.03,1*0E
$GNGSA,A,3,,,,,,,,,,,,,2.26,1.01,2.03,4*03
$GPGSV,3,1,12,02,08,152,48,04,15,115,48,05,22,269,49,09
,48,325,49,0*64
$GPGSV,3,2,12,12,34,269,49,15,58,210,50,17,37,049,49,18,07,281,48,0*67
$GPGSV,3,3,12,26,46,180,49,27,27,109,49,28,08,059,48,30,02,256,,0*63
$BDGSV,1,1,00,0*74

$GNRMC,083004.00,A,3128.000015,N,12112.248649,E,9.719,270.01,010720,,,A,V*0B
$GNGGA,083004.00,3128.000015,N,12112.248649,E,1,08,1.01,-7.1,M,9.3,M,,*5C
$GNGSA,A,3,04,05,09,12,15,17,26,27,,,,,2.26,1.01,2.03,1*0E
$GNGSA,A,3,,,,,,,,,,,,,2.26,1.01,2.03,4*03
$GPGSV,3,1,12,02,08,152,48,04,15,115,48,05,22,269,49,09
,48,325,49,0*64
$GPGSV,3,2,12,12,34,269,49,15,58,210,50,17,37,049,49,18,07,281,48,0*67
$GPGSV,3,3,12,26,46,180,49,27,27,109,49,28,08,059,48,30,02,256,,0*63
$BDGSV,1,1,00,0*74

$GNRMC,083005.00,A,3128.000015,N,12112.245493,E,9.719,270.01,010720,,,A,V*02
$GNGGA,083005.00,3128.000015,N,12112.245493,E,1,08,1.01,-7.1,M,9.3,M,,*55
$GNGSA,A,3,04,05,09,12,15,17,26,27,,,,,2.26,1.01,2.03,1*0E
$GNGSA,A,3,,,,,,,,,,,,,2.26,1.01,2.03,4*03
$GPGSV,3,1,12,02,08,152,48,04,15,115,48,05,22,269,49,09
,48,325,49,0*64
$GPGSV,3,2,12,12,34,269,49,15,58,210,50,17,37,049,49,18,07,281,48,0*67
$GPGSV,3,3,12,26,46,180,49,27,27,109,49,28,08,059,48,30,02,256,,0*63
$BDGSV,1,1,00,0*74

GPS HPregnss> E1 15 00 00 00 00 07 53 8F 3B A4 00 00 00 1C 38 53 AA 9E 00 00 00 00 


$GNRMC,083006.00,A,3128.000015,N,12112.242336,E,9.719,270.02,010720,,,A,V*0D
$GNGGA,083006.00,3128.000015,N,12112.242336,E,1,08,1.01,-7.1,M,9.3,M,,*59
$GNGSA,A,3,04,05,09,12,15,17,26,27,,,,,2.26,1.01,2.03,1*0E
$GNGSA,A,3,,,,,,,,,,,,,2.26,1.01,2.03,4*03
$GPGSV,3,1,12,02,08,152,48,04,15,115,48,05,22,269,49,09
,48,325,49,0*64
$GPGSV,3,2,12,12,34,269,49,15,58,210,50,17,37,049,49,18,07,281,48,0*67
$GPGSV,3,3,12,26,46,180,49,27,27,109,49,28,08,059,48,30,02,256,,0*63
$BDGSV,1,1,00,0*74

$GNRMC,083007.00,A,3128.000014,N,12112.239180,E,9.720,270.01,010720,,,A,V*07
$GNGGA,083007.00,3128.000014,N,12112.239180,E,1,08,1.01,-7.1,M,9.3,M,,*5A
$GNGSA,A,3,04,05,09,12,15,17,26,27,,,,,2.27,1.01,2.03,1*0F
$GNGSA,A,3,,,,,,,,,,,,,2.27,1.01,2.03,4*02
$GPGSV,3,1,12,02,08,152,48,04,15,115,48,05,22,269,49,09
,48,325,49,0*64
$GPGSV,3,2,12,12,34,269,49,15,58,210,50,17,37,049,49,18,07,281,48,0*67
$GPGSV,3,3,12,26,46,180,49,27,27,109,49,28,08,059,48,30,02,256,,0*63
$BDGSV,1,1,00,0*74

$GNRMC,083008.00,A,3128.000015,N,12112.236023,E,9.720,270.00,010720,,,A,V*0F
$GNGGA,083008.00,3128.000015,N,12112.236023,E,1,08,1.01,-7.1,M,9.3,M,,*53
$GNGSA,A,3,04,05,09,12,15,17,26,27,,,,,2.27,1.01,2.03,1*0F
$GNGSA,A,3,,,,,,,,,,,,,2.27,1.01,2.03,4*02
$GPGSV,3,1,12,02,08,152,48,04,15,115,48,05,22,269,49,09
,48,325,49,0*64
$GPGSV,3,2,12,12,34,269,49,15,58,210,50,17,37,049,49,18,07,281,48,0*67
$GPGSV,3,3,12,26,46,180,49,27,27,109,49,28,08,059,48,30,02,256,,0*63
$BDGSV,1,1,00,0*74

$GNRMC,083009.00,A,3128.000015,N,12112.232866,E,9.722,270.01,010720,,,A,V*00
$GNGGA,083009.00,3128.000015,N,12112.232866,E,1,08,1.01,-7.1,M,9.3,M,,*5F
$GNGSA,A,3,04,05,09,12,15,17,26,27,,,,,2.27,1.01,2.03,1*0F
$GNGSA,A,3,,,,,,,,,,,,,2.27,1.01,2.03,4*02
$GPGSV,3,1,12,02,08,152,48,04,15,115,48,05,22,269,49,09
,48,325,49,0*64
$GPGSV,3,2,12,12,34,269,49,15,58,210,50,17,37,049,49,18,07,281,48,0*67
$GPGSV,3,3,12,26,46,180,49,27,27,109,49,28,08,059,48,30,02,256,,0*63
$BDGSV,1,1,00,0*74

$GNRMC,083010.00,A,3128.000014,N,12112.229710,E,9.721,269.99,010720,,,A,V*07
$GNGGA,083010.00,3128.000014,N,12112.229710,E,1,08,1.01,-7.1,M,9.3,M,,*52
$GNGSA,A,3,04,05,09,12,15,17,26,27,,,,,2.27,1.01,2.03,1*0F
$GNGSA,A,3,,,,,,,,,,,,,2.27,1.01,2.03,4*02
$GPGSV,3,1,12,02,08,152,48,04,15,115,48,05,22,269,49,09
,48,325,49,0*64
$GPGSV,3,2,12,12,34,269,49,15,58,210,50,17,37,049,49,18,07,281,48,0*67
$GPGSV,3,3,12,26,46,180,49,27,27,109,49,28,08,059,48,30,02,256,32,0*62
$BDGSV,1,1,00,0*74

$GNRMC,083011.00,A,3128.000014,N,12112.226553,E,9.721,270.01,010720,,,A,V*05
$GNGGA,083011.00,3128.000014,N,12112.226553,E,1,08,1.01,-7.1,M,9.3,M,,*59
$GNGSA,A,3,04,05,09,12,15,17,26,27,,,,,2.27,1.01,2.03,1*0F
$GNGSA,A,3,,,,,,,,,,,,,2.27,1.01,2.03,4*02
$GPGSV,3,1,12,02,08,152,48,04,15,115,48,05,22,269,49,09
,48,325,49,0*64
$GPGSV,3,2,12,12,34,269,49,15,58,210,50,17,37,049,49,18,07,281,48,0*67
$GPGSV,3,3,12,26,46,180,49,27,27,109,49,28,08,059,48,30,02,256,,0*63
$BDGSV,1,1,00,0*74

$GNRMC,083012.00,A,3128.000015,N,12112.223396,E,9.719,270.02,010720,,,A,V*05
$GNGGA,083012.00,3128.000015,N,12112.223396,E,1,08,1.01,-7.1,M,9.3,M,,*51
$GNGSA,A,3,04,05,09,12,15,17,26,27,,,,,2.27,1.01,2.03,1*0F
$GNGSA,A,3,,,,,,,,,,,,,2.27,1.01,2.03,4*02
$GPGSV,3,1,12,02,08,152,48,04,15,115,48,05,22,269,49,09
,48,325,49,0*64
$GPGSV,3,2,12,12,34,269,49,15,58,210,50,17,37,049,49,18,07,281,48,0*67
$GPGSV,3,3,12,26,46,180,49,27,27,109,49,28,08,059,48,30,02,256,,0*63
$BDGSV,1,1,00,0*74
<????sim??????(SIM??:1)>
<????GSM????????(GSM:0)>
<????GPRS????????(GPRS:0)>
<????????????(SIGNAL:0)>
<????????????????(BER:0)>


<??????????????>

$GNRMC,083013.00,A,3128.000015,N,12112.220239,E,9.720,270.01,010720,,,A,V*0A
$GNGGA,083013.00,3128.000015,N,12112.220239,E,1,08,1.01,-7.1,M,9.3,M,,*57
$GNGSA,A,3,04,05,09,12,15,17,26,27,,,,,2.27,1.01,2.03,1*0F
$GNGSA,A,3,,,,,,,,,,,,,2.27,1.01,2.03,4*02
$GPGSV,3,1,12,02,08,152,48,04,15,115,48,05,22,269,49,09
,48,325,49,0*64
$GPGSV,3,2,12,12,34,269,49,15,58,210,50,17,37,049,49,18,07,281,48,0*67
$GPGSV,3,3,12,26,46,180,49,27,27,109,49,28,08,059,48,30,02,256,,0*63
$BDGSV,1,1,00,0*74

$GNRMC,083014.00,A,3128.000017,N,12112.217081,E,9.720,270.01,010720,,,A,V*0A
$GNGGA,083014.00,3128.000017,N,12112.217081,E,1,08,1.01,-7.1,M,9.3,M,,*57
$GNGSA,A,3,04,05,09,12,15,17,26,27,,,,,2.27,1.01,2.03,1*0F
$GNGSA,A,3,,,,,,,,,,,,,2.27,1.01,2.03,4*02
$GPGSV,3,1,12,02,08,152,48,04,15,115,48,05,22,269,49,09
,48,325,49,0*64
$GPGSV,3,2,12,12,34,269,49,15,58,210,50,17,37,049,49,18,07,281,48,0*67
$GPGSV,3,3,12,26,46,180,49,27,27,109,49,28,08,059,48,30,02,256,,0*63
$BDGSV,1,1,00,0*74

$GNRMC,083015.00,A,3128.000017,N,12112.213924,E,9.720,270.00,010720,,,A,V*08
$GNGGA,083015.00,3128.000017,N,12112.213924,E,1,08,1.01,-7.1,M,9.3,M,,*54
$GNGSA,A,3,04,05,09,12,15,17,26,27,,,,,2.27,1.01,2.03,1*0F
$GNGSA,A,3,,,,,,,,,,,,,2.27,1.01,2.03,4*02
$GPGSV,3,1,12,02,08,152,48,04,16,114,48,05,22,269,49,09
,48,325,49,0*66
$GPGSV,3,2,12,12,34,269,49,15,58,210,50,17,37,049,49,18,07,281,48,0*67
$GPGSV,3,3,12,26,46,180,49,27,27,109,49,28,08,059,48,30,02,256,,0*63
$BDGSV,1,1,00,0*74

$GNRMC,083016.00,A,3128.000017,N,12112.210766,E,9.721,270.01,010720,,,A,V*00
$GNGGA,083016.00,3128.000017,N,12112.210766,E,1,08,1.01,-7.1,M,9.3,M,,*5C
$GNGSA,A,3,04,05,09,12,15,17,26,27,,,,,2.27,1.01,2.03,1*0F
$GNGSA,A,3,,,,,,,,,,,,,2.27,1.01,2.03,4*02
$GPGSV,3,1,12,02,08,152,48,04,16,114,48,05,23,269,49,09
,48,325,49,0*67
$GPGSV,3,2,12,12,34,269,49,15,58,210,50,17,37,049,49,18,07,281,48,0*67
$GPGSV,3,3,12,26,46,180,49,27,27,109,49,28,08,059,48,30,02,256,,0*63
$BDGSV,1,1,00,0*74

$GNRMC,083017.00,A,3128.000017,N,12112.207609,E,9.717,270.01,010720,,,A,V*0A
$GNGGA,083017.00,3128.000017,N,12112.207609,E,1,08,1.01,-7.1,M,9.3,M,,*53
$GNGSA,A,3,04,05,09,12,15,17,26,27,,,,,2.27,1.01,2.03,1*0F
$GNGSA,A,3,,,,,,,,,,,,,2.27,1.01,2.03,4*02
$GPGSV,3,1,12,02,08,152,48,04,16,114,48,05,23,269,49,09
,48,325,49,0*67
$GPGSV,3,2,12,12,34,269,49,15,58,210,50,17,37,049,49,18,07,281,48,0*67
$GPGSV,3,3,12,26,46,180,49,27,27,109,49,28,08,059,48,30,02,256,,0*63
$BDGSV,1,1,00,0*74

$GNRMC,083018.00,A,3128.000016,N,12112.204452,E,9.720,270.01,010720,,,A,V*0F
$GNGGA,083018.00,3128.000016,N,12112.204452,E,1,08,1.01,-7.1,M,9.3,M,,*52
$GNGSA,A,3,04,05,09,12,15,17,26,27,,,,,2.27,1.01,2.03,1*0F
$GNGSA,A,3,,,,,,,,,,,,,2.27,1.01,2.03,4*02
$GPGSV,3,1,12,02,08,152,48,04,16,114,48,05,23,269,49,09
,48,325,49,0*67
$GPGSV,3,2,12,12,34,269,49,15,58,210,50,17,37,049,49,18,07,281,48,0*67
$GPGSV,3,3,12,26,46,180,49,27,27,109,49,28,08,059,48,30,02,256,,0*63
$BDGSV,1,1,00,0*74

$GNRMC,083019.00,A,3128.000016,N,12112.201296,E,9.719,270.01,010720,,,A,V*0F
$GNGGA,083019.00,3128.000016,N,12112.201296,E,1,08,1.01,-7.1,M,9.3,M,,*58
$GNGSA,A,3,04,05,09,12,15,17,26,27,,,,,2.27,1.01,2.03,1*0F
$GNGSA,A,3,,,,,,,,,,,,,2.27,1.01,2.03,4*02
$GPGSV,3,1,12,02,08,152,48,04,16,114,48,05,23,269,49,09
,48,325,49,0*67
$GPGSV,3,2,12,12,34,269,49,15,58,210,50,17,37,049,49,18,07,281,48,0*67
$GPGSV,3,3,12,26,46,180,49,27,27,109,49,28,08,059,48,30,02,256,,0*63
$BDGSV,1,1,00,0*74

$GNRMC,083020.00,A,3128.000016,N,12112.198138,E,9.722,270.01,010720,,,A,V*09
$GNGGA,083020.00,3128.000016,N,12112.198138,E,1,08,1.01,-7.1,M,9.3,M,,*56
$GNGSA,A,3,04,05,09,12,15,17,26,27,,,,,2.27,1.01,2.03,1*0F
$GNGSA,A,3,,,,,,,,,,,,,2.27,1.01,2.03,4*02
$GPGSV,3,1,12,02,08,152,48,04,16,114,48,05,23,269,49,09
,48,325,49,0*67
$GPGSV,3,2,12,12,34,269,49,15,58,210,50,17,37,049,49,18,07,281,48,0*67
$GPGSV,3,3,12,26,46,180,49,27,27,109,49,28,08,059,48,30,02,256,,0*63
$BDGSV,1,1,00,0*74

$GNRMC,083021.00,A,3128.000015,N,12112.194981,E,9.719,270.00,010720,,,A,V*04
$GNGGA,083021.00,3128.000015,N,12112.194981,E,1,08,1.01,-7.1,M,9.3,M,,*52
$GNGSA,A,3,04,05,09,12,15,17,26,27,,,,,2.27,1.01,2.04,1*08
$GNGSA,A,3,,,,,,,,,,,,,2.27,1.01,2.04,4*05
$GPGSV,3,1,12,02,08,152,48,04,16,114,48,05,23,269,49,09
,48,325,49,0*67
$GPGSV,3,2,12,12,34,269,49,15,58,210,50,17,37,049,49,18,07,281,48,0*67
$GPGSV,3,3,12,26,46,180,49,27,27,109,49,28,08,059,48,30,02,256,,0*63
$BDGSV,1,1,00,0*74

$GNRMC,083022.00,A,3128.000014,N,12112.191823,E,9.722,270.02,010720,,,A,V*00
$GNGGA,083022.00,3128.000014,N,12112.191823,E,1,08,1.01,-7.1,M,9.3,M,,*5C
$GNGSA,A,3,04,05,09,12,15,17,26,27,,,,,2.27,1.01,2.04,1*08
$GNGSA,A,3,,,,,,,,,,,,,2.27,1.01,2.04,4*05
$GPGSV,4,1,13,02,08,152,48,04,16,114,48,05,23,269,49,09
,48,325,49,0*61
$GPGSV,4,2,13,12,34,269,49,14,,,26,15,58,210,50,17,37,049,49,0*59
$GPGSV,4,3,13,18,07,281,48,26,46,180,49,27,27,109,49,28,08,059,48,0*6C
$GPGSV,4,4,13,30,02,256,,0*57
$BDGSV,1,1,00,0*74
<??????????????>

$GNRMC,083023.00,A,3128.000014,N,12112.188667,E,9.719,270.01,010720,,,A,V*0C
$GNGGA,083023.00,3128.000014,N,12112.188667,E,1,08,1.01,-7.1,M,9.3,M,,*5B
$GNGSA,A,3,04,05,09,12,15,17,26,27,,,,,2.27,1.01,2.04,1*08
$GNGSA,A,3,,,,,,,,,,,,,2.27,1.01,2.04,4*05
$GPGSV,4,1,13,02,08,152,48,04,16,114,48,05,23,269,49,09
,48,325,49,0*61
$GPGSV,4,2,13,12,34,269,49,14,,,32,15,58,210,50,17,37,049,49,0*5C
$GPGSV,4,3,13,18,07,281,48,26,46,180,49,27,27,109,49,28,08,059,48,0*6C
$GPGSV,4,4,13,30,02,256,,0*57
$BDGSV,1,1,00,0*74

$GNRMC,083024.00,A,3128.000013,N,12112.185509,E,9.722,270.00,010720,,,A,V*03
$GNGGA,083024.00,3128.000013,N,12112.185509,E,1,08,1.01,-7.1,M,9.3,M,,*5D
$GNGSA,A,3,04,05,09,12,15,17,26,27,,,,,2.27,1.01,2.04,1*08
$GNGSA,A,3,,,,,,,,,,,,,2.27,1.01,2.04,4*05
$GPGSV,3,1,12,02,08,152,48,04,16,114,48,05,23,269,49,09
,48,325,49,0*67
$GPGSV,3,2,12,12,34,269,49,15,57,210,50,17,37,049,49,18,07,281,48,0*68
$GPGSV,3,3,12,26,46,180,49,27,27,109,49,28,08,059,48,30,02,256,,0*63
$BDGSV,1,1,00,0*74

$GNRMC,083025.00,A,3128.000013,N,12112.182354,E,9.717,270.01,010720,,,A,V*0C
$GNGGA,083025.00,3128.000013,N,12112.182354,E,1,08,1.01,-7.1,M,9.3,M,,*55
$GNGSA,A,3,04,05,09,12,15,17,26,27,,,,,2.27,1.01,2.04,1*08
$GNGSA,A,3,,,,,,,,,,,,,2.27,1.01,2.04,4*05
$GPGSV,3,1,12,02,08,152,48,04,16,114,48,05,23,269,49,09
,48,325,49,0*67
$GPGSV,3,2,12,12,34,269,49,15,57,210,50,17,36,049,49,18,07,281,48,0*69
$GPGSV,3,3,12,26,46,180,49,27,27,109,49,28,08,059,48,30,02,256,,0*63
$BDGSV,1,1,00,0*74

$GNRMC,083026.00,A,3128.000012,N,12112.179197,E,9.721,270.00,010720,,,A,V*03
$GNGGA,083026.00,3128.000012,N,12112.179197,E,1,08,1.01,-7.1,M,9.3,M,,*5E
$GNGSA,A,3,04,05,09,12,15,17,26,27,,,,,2.27,1.01,2.04,1*08
$GNGSA,A,3,,,,,,,,,,,,,2.27,1.01,2.04,4*05
$GPGSV,3,1,12,02,08,152,48,04,16,114,48,05,23,269,49,09
,48,325,49,0*67
$GPGSV,3,2,12,12,34,269,49,15,57,210,50,17,36,049,49,18,07,281,48,0*69
$GPGSV,3,3,12,26,46,180,49,27,27,109,49,28,08,059,48,30,02,256,,0*63
$BDGSV,1,1,00,0*74

$GNRMC,083027.00,A,3128.000012,N,12112.176041,E,9.720,270.02,010720,,,A,V*04
$GNGGA,083027.00,3128.000012,N,12112.176041,E,1,08,1.01,-7.1,M,9.3,M,,*5A
$GNGSA,A,3,04,05,09,12,15,17,26,27,,,,,2.27,1.01,2.04,1*08
$GNGSA,A,3,,,,,,,,,,,,,2.27,1.01,2.04,4*05
$GPGSV,3,1,12,02,08,152,48,04,16,114,48,05,23,269,49,09
,48,325,49,0*67
$GPGSV,3,2,12,12,34,269,49,15,57,210,50,17,36,049,49,18,07,281,48,0*69
$GPGSV,3,3,12,26,46,180,49,27,27,109,49,28,08,059,48,30,02,256,,0*63
$BDGSV,1,1,00,0*74

$GNRMC,083028.00,A,3128.000012,N,12112.172884,E,9.721,270.01,010720,,,A,V*0C
$GNGGA,083028.00,3128.000012,N,12112.172884,E,1,08,1.01,-7.1,M,9.3,M,,*50
$GNGSA,A,3,04,05,09,12,15,17,26,27,,,,,2.28,1.01,2.04,1*07
$GNGSA,A,3,,,,,,,,,,,,,2.28,1.01,2.04,4*0A
$GPGSV,3,1,12,02,08,152,48,04,16,114,48,05,23,269,49,09
,48,325,49,0*67
$GPGSV,3,2,12,12,34,269,49,15,57,210,50,17,36,049,49,18,07,281,48,0*69
$GPGSV,3,3,12,26,46,180,49,27,27,109,49,28,08,059,48,30,02,256,,0*63
$BDGSV,1,1,00,0*74

$GNRMC,083029.00,A,3128.000013,N,12112.169727,E,9.722,270.00,010720,,,A,V*02
$GNGGA,083029.00,3128.000013,N,12112.169727,E,1,08,1.01,-7.1,M,9.3,M,,*5C
$GNGSA,A,3,04,05,09,12,15,17,26,27,,,,,2.28,1.01,2.04,1*07
$GNGSA,A,3,,,,,,,,,,,,,2.28,1.01,2.04,4*0A
$GPGSV,3,1,12,02,08,152,48,04,16,114,48,05,23,269,49,09
,48,325,49,0*67
$GPGSV,3,2,12,12,34,269,49,15,57,210,50,17,36,049,49,18,07,281,48,0*69
$GPGSV,3,3,12,26,46,180,49,27,27,109,49,28,08,059,48,30,02,256,,0*63
$BDGSV,1,1,00,0*74

$GNRMC,083030.00,A,3128.000015,N,12112.166569,E,9.721,270.01,010720,,,A,V*09
$GNGGA,083030.00,3128.000015,N,12112.166569,E,1,08,1.01,-7.1,M,9.3,M,,*55
$GNGSA,A,3,04,05,09,12,15,17,26,27,,,,,2.28,1.01,2.04,1*07
$GNGSA,A,3,,,,,,,,,,,,,2.28,1.01,2.04,4*0A
$GPGSV,3,1,12,02,08,152,48,04,16,114,48,05,23,269,49,09
,48,325,49,0*67
$GPGSV,3,2,12,12,34,269,49,15,57,210,50,17,36,049,49,18,07,281,48,0*69
$GPGSV,3,3,12,26,46,180,49,27,27,109,49,28,08,059,48,30,02,256,,0*63
$BDGSV,1,1,00,0*74

$GNRMC,083031.00,A,3128.000016,N,12112.163412,E,9.720,270.01,010720,,,A,V*02
$GNGGA,083031.00,3128.000016,N,12112.163412,E,1,08,1.01,-7.1,M,9.3,M,,*5F
$GNGSA,A,3,04,05,09,12,15,17,26,27,,,,,2.28,1.01,2.04,1*07
$GNGSA,A,3,,,,,,,,,,,,,2.28,1.01,2.04,4*0A
$GPGSV,3,1,12,02,08,152,48,04,16,114,48,05,23,269,49,09
,48,325,49,0*67
$GPGSV,3,2,12,12,34,269,49,15,57,210,50,17,36,049,49,18,07,281,48,0*69
$GPGSV,3,3,12,26,46,180,49,27,27,109,49,28,08,059,48,30,02,256,,0*63
$BDGSV,1,1,00,0*74

$GNRMC,083032.00,A,3128.000016,N,12112.160255,E,9.718,270.01,010720,,,A,V*0C
$GNGGA,083032.00,3128.000016,N,12112.160255,E,1,08,1.01,-7.1,M,9.3,M,,*5A
$GNGSA,A,3,04,05,09,12,15,17,26,27,,,,,2.28,1.01,2.04,1*07
$GNGSA,A,3,,,,,,,,,,,,,2.28,1.01,2.04,4*0A
$GPGSV,3,1,12,02,08,152,48,04,16,114,48,05,23,269,49,09
,48,325,49,0*67
$GPGSV,3,2,12,12,34,269,49,15,57,210,50,17,36,049,49,18,07,281,48,0*69
$GPGSV,3,3,12,26,46,180,49,27,27,109,49,28,08,059,48,30,02,256,,0*63
$BDGSV,1,1,00,0*74
<????sim??????(SIM??:1)>
<????GSM????????(GSM:0)>
<????GPRS????????(GPRS:0)>
<????????????(SIGNAL:0)>
<????????????????(BER:0)>

<??????????????>

$GNRMC,083033.00,A,3128.000017,N,12112.157097,E,9.724,270.02,010720,,,A,V*08
$GNGGA,083033.00,3128.000017,N,12112.157097,E,1,08,1.01,-7.1,M,9.3,M,,*52
$GNGSA,A,3,04,05,09,12,15,17,26,27,,,,,2.28,1.01,2.04,1*07
$GNGSA,A,3,,,,,,,,,,,,,2.28,1.01,2.04,4*0A
$GPGSV,3,1,12,02,08,152,48,04,16,114,48,05,23,269,49,09
,48,325,49,0*67
$GPGSV,3,2,12,12,34,269,49,15,57,210,50,17,36,049,49,18,07,281,48,0*69
$GPGSV,3,3,12,26,46,180,49,27,27,110,49,28,08,059,48,30,02,256,,0*6B
$BDGSV,1,1,00,0*74

