$GNRMC,083628.00,A,3128.000038,N,12111.036314,E,9.722,270.01,010720,,,A,V*01
$GNGGA,083628.00,3128.000038,N,12111.036314,E,1,08,1.00,-9.6,M,9.3,M,,*56
$GNGSA,A,3,04,05,09,12,17,15,26,27,,,,,2.45,1.00,2.24,1*0F
$GNGSA,A,3,,,,,,,,,,,,,2.45,1.00,2.24,4*02
$GPGSV,3,1,11,02,10,150,48,04,17,112,48,05,24,271,49,09
,50,327,49,0*6D
$GPGSV,3,2,11,12,36,272,49,15,55,207,50,17,34,047,49,18,06,278,48,0*6D
$GPGSV,3,3,11,26,43,180,49,27,25,112,49,28,06,061,48,0*58
$BDGSV,1,1,00,0*74

$GNRMC,083629.00,A,3128.000039,N,12111.033156,E,9.721,270.01,010720,,,A,V*03
$GNGGA,083629.00,3128.000039,N,12111.033156,E,1,08,1.00,-9.6,M,9.3,M,,*57
$GNGSA,A,3,04,05,09,12,17,15,26,27,,,,,2.45,1.00,2.24,1*0F
$GNGSA,A,3,,,,,,,,,,,,,2.45,1.00,2.24,4*02
$GPGSV,3,1,11,02,10,150,48,04,17,112,49,05,24,271,49,09
,50,327,49,0*6C
$GPGSV,3,2,11,12,36,272,49,15,55,207,50,17,34,047,49,18,06,278,48,0*6D
$GPGSV,3,3,11,26,43,180,49,27,25,112,49,28,06,061,48,0*58
$BDGSV,1,1,00,0*74

$GNRMC,083630.00,A,3128.000039,N,12111.029998,E,9.722,270.00,010720,,,A,V*08
$GNGGA,083630.00,3128.000039,N,12111.029998,E,1,08,1.00,-9.6,M,9.3,M,,*5E
$GNGSA,A,3,04,05,09,12,17,15,26,27,,,,,2.45,1.00,2.24,1*0F
$GNGSA,A,3,,,,,,,,,,,,,2.45,1.00,2.24,4*02
$GPGSV,3,1,11,02,10,150,48,04,17,112,48,05,24,271,49,09
,50,327,50,0*65
$GPGSV,3,2,11,12,36,272,49,15,55,207,50,17,34,047,49,18,06,278,48,0*6D
$GPGSV,3,3,11,26,43,180,49,27,25,112,49,28,06,061,48,0*58
$BDGSV,1,1,00,0*74

$GNRMC,083631.00,A,3128.000039,N,12111.026841,E,9.720,270.02,010720,,,A,V*03
$GNGGA,083631.00,3128.000039,N,12111.026841,E,1,08,1.00,-9.6,M,9.3,M,,*55
$GNGSA,A,3,04,05,09,12,17,15,26,27,,,,,2.45,1.00,2.24,1*0F
$GNGSA,A,3,,,,,,,,,,,,,2.45,1.00,2.24,4*02
$GPGSV,3,1,11,02,10,150,48,04,17,112,48,05,24,271,49,09
,50,327,49,0*6D
$GPGSV,3,2,11,12,36,272,49,15,55,207,50,17,34,047,49,18,06,278,48,0*6D
$GPGSV,3,3,11,26,43,180,49,27,25,112,49,28,06,061,48,0*58
$BDGSV,1,1,00,0*74

$GNRMC,083632.00,A,3128.000039,N,12111.023683,E,9.721,270.01,010720,,,A,V*07
$GNGGA,083632.00,3128.000039,N,12111.023683,E,1,08,1.00,-9.6,M,9.3,M,,*53
$GNGSA,A,3,04,05,09,12,17,15,26,27,,,,,2.45,1.00,2.24,1*0F
$GNGSA,A,3,,,,,,,,,,,,,2.45,1.00,2.24,4*02
$GPGSV,3,1,11,02,10,150,48,04,17,112,48,05,24,271,49,09
,50,327,49,0*6D
$GPGSV,3,2,11,12,36,272,49,15,55,207,50,17,34,047,49,18,06,278,48,0*6D
$GPGSV,3,3,11,26,43,180,49,27,25,112,49,28,06,061,48,0*58
$BDGSV,1,1,00,0*74

$GNRMC,083633.00,A,3128.000039,N,12111.020526,E,9.724,270.01,010720,,,A,V*0C
$GNGGA,083633.00,3128.000039,N,12111.020526,E,1,08,1.00,-9.6,M,9.3,M,,*5D
$GNGSA,A,3,04,05,09,12,17,15,26,27,,,,,2.45,1.00,2.24,1*0F
$GNGSA,A,3,,,,,,,,,,,,,2.45,1.00,2.24,4*02
$GPGSV,3,1,11,02,10,150,48,04,17,112,48,05,24,271,49,09
,50,327,49,0*6D
$GPGSV,3,2,11,12,36,272,49,15,55,207,50,17,34,047,49,18,06,278,48,0*6D
$GPGSV,3,3,11,26,43,180,49,27,25,112,49,28,06,061,48,0*58
$BDGSV,1,1,00,0*74

$GNRMC,083634.00,A,3128.000038,N,12111.017369,E,9.724,270.00,010720,,,A,V*02
$GNGGA,083634.00,3128.000038,N,12111.017369,E,1,08,1.00,-9.6,M,9.3,M,,*52
$GNGSA,A,3,04,05,09,12,17,15,26,27,,,,,2.45,1.00,2.24,1*0F
$GNGSA,A,3,,,,,,,,,,,,,2.45,1.00,2.24,4*02
$GPGSV,3,1,11,02,10,150,48,04,17,112,48,05,24,271,49,09
,50,327,49,0*6D
$GPGSV,3,2,11,12,36,272,49,15,55,207,50,17,34,047,49,18,06,278,48,0*6D
$GPGSV,3,3,11,26,43,180,49,27,25,112,49,28,06,061,48,0*58
$BDGSV,1,1,00,0*74

$GNRMC,083635.00,A,3128.000037,N,12111.014212,E,9.719,270.01,010720,,,A,V*0D
$GNGGA,083635.00,3128.000037,N,12111.014212,E,1,08,1.00,-9.6,M,9.3,M,,*52
$GNGSA,A,3,04,05,09,12,17,15,26,27,,,,,2.45,1.00,2.24,1*0F
$GNGSA,A,3,,,,,,,,,,,,,2.45,1.00,2.24,4*02
$GPGSV,3,1,11,02,10,150,48,04,17,112,48,05,24,271,49,09
,50,327,49,0*6D
$GPGSV,3,2,11,12,36,272,49,15,55,207,50,17,34,047,49,18,06,278,48,0*6D
$GPGSV,3,3,11,26,43,180,49,27,25,112,49,28,06,061,48,0*58
$BDGSV,1,1,00,0*74
<????sim??????(SIM??:1)>
<????GSM????????(GSM:0)>
<????GPRS????????(GPRS:0)>
<????????????(SIGNAL:0)>
<????????????????(BER:0)>

<????????
??????>

GPS HPregnss> E1 15 00 00 00 00 07 53 8F 3D 13 00 00 00 1C 37 1A 89 18 00 00 00 00 


$GNRMC,083636.00,A,3128.000036,N,12111.011056,E,9.719,270.01,010720,,,A,V*08
$GNGGA,083636.00,3128.000036,N,12111.011056,E,1,08,1.00,-9.6,M,9.3,M,,*57
$GNGSA,A,3,04,05,09,12,17,15,26,27,,,,,2.46,1.00,2.24,1*0C
$GNGSA,A,3,,,,,,,,,,,,,2.46,1.00,2.24,4*01
$GPGSV,3,1,11,02,10,150,48,04,17,112,48,05,24,271,49,09
,50,327,49,0*6D
$GPGSV,3,2,11,12,36,272,49,15,55,207,50,17,34,047,49,18,06,278,48,0*6D
$GPGSV,3,3,11,26,43,180,49,27,25,112,49,28,06,061,48,0*58
$BDGSV,1,1,00,0*74

$GNRMC,083637.00,A,3128.000036,N,12111.007899,E,9.719,270.01,010720,,,A,V*05
$GNGGA,083637.00,3128.000036,N,12111.007899,E,1,08,1.00,-9.6,M,9.3,M,,*5A
$GNGSA,A,3,04,05,09,12,17,15,26,27,,,,,2.46,1.00,2.24,1*0C
$GNGSA,A,3,,,,,,,,,,,,,2.46,1.00,2.24,4*01
$GPGSV,3,1,11,02,10,150,48,04,17,112,49,05,24,271,49,09
,50,327,49,0*6C
$GPGSV,3,2,11,12,36,272,49,15,55,207,50,17,34,047,49,18,06,278,48,0*6D
$GPGSV,3,3,11,26,43,180,49,27,25,112,49,28,06,061,48,0*58
$BDGSV,1,1,00,0*74

$GNRMC,083638.00,A,3128.000036,N,12111.004742,E,9.720,270.02,010720,,,A,V*09
$GNGGA,083638.00,3128.000036,N,12111.004742,E,1,08,1.00,-9.6,M,9.3,M,,*5F
$GNGSA,A,3,04,05,09,12,17,15,26,27,,,,,2.46,1.00,2.24,1*0C
$GNGSA,A,3,,,,,,,,,,,,,2.46,1.00,2.24,4*01
$GPGSV,3,1,11,02,10,150,48,04,17,112,48,05,24,271,49,09
,50,327,49,0*6D
$GPGSV,3,2,11,12,36,272,49,15,55,207,50,17,34,047,49,18,06,278,48,0*6D
$GPGSV,3,3,11,26,43,180,49,27,25,112,49,28,06,061,48,0*58
$BDGSV,1,1,00,0*74

$GNRMC,083639.00,A,3128.000035,N,12111.001585,E,9.721,270.01,010720,,,A,V*05
$GNGGA,083639.00,3128.000035,N,12111.001585,E,1,08,1.00,-9.6,M,9.3,M,,*51
$GNGSA,A,3,04,05,09,12,17,15,26,27,,,,,2.46,1.00,2.24,1*0C
$GNGSA,A,3,,,,,,,,,,,,,2.46,1.00,2.24,4*01
$GPGSV,3,1,11,02,10,150,48,04,17,112,48,05,24,271,49,09
,50,327,49,0*6D
$GPGSV,3,2,11,12,36,272,49,15,55,207,50,17,34,047,49,18,06,278,48,0*6D
$GPGSV,3,3,11,26,43,180,49,27,25,112,49,28,06,061,48,0*58
$BDGSV,1,1,00,0*74

$GNRMC,083640.00,A,3128.000034,N,12110.998428,E,9.719,270.02,010720,,,A,V*0C
$GNGGA,083640.00,3128.000034,N,12110.998428,E,1,08,1.00,-9.6,M,9.3,M,,*50
$GNGSA,A,3,04,05,09,12,17,15,26,27,,,,,2.46,1.00,2.25,1*0D
$GNGSA,A,3,,,,,,,,,,,,,2.46,1.00,2.25,4*00
$GPGSV,3,1,11,02,10,150,48,04,17,112,48,05,24,271,49,09
,50,327,49,0*6D
$GPGSV,3,2,11,12,36,272,49,15,55,207,50,17,34,047,49,18,06,278,48,0*6D
$GPGSV,3,3,11,26,43,180,49,27,25,112,49,28,06,061,48,0*58
$BDGSV,1,1,00,0*74

$GNRMC,083641.00,A,3128.000033,N,12110.995270,E,9.721,270.01,010720,,,A,V*04
$GNGGA,083641.00,3128.000033,N,12110.995270,E,1,08,1.00,-9.6,M,9.3,M,,*50
$GNGSA,A,3,04,05,09,12,17,15,26,27,,,,,2.46,1.00,2.25,1*0D
$GNGSA,A,3,,,,,,,,,,,,,2.46,1.00,2.25,4*00
$GPGSV,3,1,11,02,10,150,48,04,17,112,48,05,24,271,49,09
,50,327,49,0*6D
$GPGSV,3,2,11,12,36,272,49,15,55,207,50,17,34,047,49,18,06,278,48,0*6D
$GPGSV,3,3,11,26,43,180,49,27,25,112,49,28,06,061,48,0*58
$BDGSV,1,1,00,0*74

$GNRMC,083642.00,A,3128.000033,N,12110.992114,E,9.723,270.01,010720,,,A,V*03
$GNGGA,083642.00,3128.000033,N,12110.992114,E,1,08,1.00,-9.6,M,9.3,M,,*55
$GNGSA,A,3,04,05,09,12,17,15,26,27,,,,,2.46,1.00,2.25,1*0D
$GNGSA,A,3,,,,,,,,,,,,,2.46,1.00,2.25,4*00
$GPGSV,3,1,11,02,10,150,48,04,17,112,48,05,24,271,49,09
,50,327,49,0*6D
$GPGSV,3,2,11,12,36,272,49,15,55,207,50,17,34,047,49,18,06,278,48,0*6D
$GPGSV,3,3,11,26,43,180,49,27,25,112,49,28,06,061,48,0*58
$BDGSV,1,1,00,0*74

$GNRMC,083643.00,A,3128.000033,N,12110.988958,E,9.725,270.01,010720,,,A,V*0F
$GNGGA,083643.00,3128.000033,N,12110.988958,E,1,08,1.00,-9.6,M,9.3,M,,*5F
$GNGSA,A,3,04,05,09,12,17,15,26,27,,,,,2.46,1.00,2.25,1*0D
$GNGSA,A,3,,,,,,,,,,,,,2.46,1.00,2.25,4*00
$GPGSV,3,1,11,02,10,150,48,04,17,112,49,05,24,271,49,09
,50,327,49,0*6C
$GPGSV,3,2,11,12,36,272,49,15,55,207,50,17,34,047,49,18,06,278,48,0*6D
$GPGSV,3,3,11,26,43,180,49,27,25,112,49,28,06,061,48,0*58
$BDGSV,1,1,00,0*74

$GNRMC,083644.00,A,3128.000034,N,12110.985801,E,9.723,270.01,010720,,,A,V*09
$GNGGA,083644.00,3128.000034,N,12110.985801,E,1,08,1.00,-9.6,M,9.3,M,,*5F
$GNGSA,A,3,04,05,09,12,17,15,26,27,,,,,2.46,1.00,2.25,1*0D
$GNGSA,A,3,,,,,,,,,,,,,2.46,1.00,2.25,4*00
$GPGSV,3,1,12,02,10,150,48,04,17,112,48,05,24,271,49,06
,,,30,0*5C
$GPGSV,3,2,12,09,50,327,49,12,36,272,49,15,55,207,50,17,34,047,49,0*67
$GPGSV,3,3,12,18,06,278,48,26,43,180,49,27,25,112,49,28,06,061,48,0*65
$BDGSV,1,1,00,0*74

$GNRMC,083645.00,A,3128.000034,N,12110.982645,E,9.720,270.02,010720,,,A,V*01
$GNGGA,083645.00,3128.000034,N,12110.982645,E,1,08,1.00,-9.6,M,9.3,M,,*57
$GNGSA,A,3,04,05,09,12,17,15,26,27,,,,,2.46,1.00,2.25,1*0D
$GNGSA,A,3,,,,,,,,,,,,,2.46,1.00,2.25,4*00
$GPGSV,3,1,11,02,10,150,48,04,17,112,48,05,24,271,49,09
,50,327,50,0*65
$GPGSV,3,2,11,12,36,272,49,15,55,207,50,17,34,047,49,18,06,278,48,0*6D
$GPGSV,3,3,11,26,43,180,49,27,25,112,49,28,06,061,48,0*58
$BDGSV,1,1,00,0*74

<??????????????>

$GNRMC,083646.00,A,3128.000034,N,12110.979488,E,9.720,270.02,010720,,,A,V*05
$GNGGA,083646.00,3128.000034,N,12110.979488,E,1,08,1.00,-9.6,M,9.3,M,,*53
$GNGSA,A,3,04,05,09,12,17,15,26,27,,,,,2.46,1.00,2.25,1*0D
$GNGSA,A,3,,,,,,,,,,,,,2.46,1.00,2.25,4*00
$GPGSV,3,1,11,02,10,150,48,04,17,112,49,05,24,271,49,09
,50,327,49,0*6C
$GPGSV,3,2,11,12,36,272,49,15,55,207,50,17,34,047,49,18,06,278,48,0*6D
$GPGSV,3,3,11,26,43,180,49,27,25,112,49,28,06,061,48,0*58
$BDGSV,1,1,00,0*74

$GNRMC,083647.00,A,3128.000034,N,12110.976332,E,9.718,270.01,010720,,,A,V*05
$GNGGA,083647.00,3128.000034,N,12110.976332,E,1,08,1.00,-9.6,M,9.3,M,,*5B
$GNGSA,A,3,04,05,09,12,17,15,26,27,,,,,2.46,1.00,2.25,1*0D
$GNGSA,A,3,,,,,,,,,,,,,2.46,1.00,2.25,4*00
$GPGSV,3,1,11,02,10,150,48,04,17,112,49,05,24,271,49,09
,50,327,50,0*64
$GPGSV,3,2,11,12,36,272,49,15,55,207,50,17,34,047,49,18,06,278,48,0*6D
$GPGSV,3,3,11,26,43,180,49,27,25,112,49,28,06,061,48,0*58
$BDGSV,1,1,00,0*74

$GNRMC,083648.00,A,3128.000033,N,12110.973174,E,9.722,270.01,010720,,,A,V*01
$GNGGA,083648.00,3128.000033,N,12110.973174,E,1,08,1.00,-9.6,M,9.3,M,,*56
$GNGSA,A,3,04,05,09,12,17,15,26,27,,,,,2.46,1.00,2.25,1*0D
$GNGSA,A,3,,,,,,,,,,,,,2.46,1.00,2.25,4*00
$GPGSV,3,1,11,02,10,150,48,04,17,112,49,05,24,271,49,09
,50,327,50,0*64
$GPGSV,3,2,11,12,36,272,49,15,55,207,50,17,34,047,49,18,06,278,48,0*6D
$GPGSV,3,3,11,26,43,180,49,27,25,112,49,28,06,061,48,0*58
$BDGSV,1,1,00,0*74

$GNRMC,083649.00,A,3128.000033,N,12110.970016,E,9.720,270.01,010720,,,A,V*04
$GNGGA,083649.00,3128.000033,N,12110.970016,E,1,08,1.00,-9.6,M,9.3,M,,*51
$GNGSA,A,3,04,05,09,12,17,15,26,27,,,,,2.46,1.00,2.25,1*0D
$GNGSA,A,3,,,,,,,,,,,,,2.46,1.00,2.25,4*00
$GPGSV,3,1,11,02,10,150,48,04,17,112,49,05,24,271,49,09
,50,327,50,0*64
$GPGSV,3,2,11,12,36,272,49,15,55,207,50,17,34,047,49,18,06,278,48,0*6D
$GPGSV,3,3,11,26,43,180,49,27,25,112,49,28,06,061,48,0*58
$BDGSV,1,1,00,0*74

$GNRMC,083650.00,A,3128.000034,N,12110.966857,E,9.721,270.03,010720,,,A,V*02
$GNGGA,083650.00,3128.000034,N,12110.966857,E,1,08,1.00,-9.6,M,9.3,M,,*54
$GNGSA,A,3,04,05,09,12,17,15,26,27,,,,,2.46,1.00,2.25,1*0D
$GNGSA,A,3,,,,,,,,,,,,,2.46,1.00,2.25,4*00
$GPGSV,3,1,11,02,10,150,48,04,17,112,49,05,24,271,49,09
,50,327,50,0*64
$GPGSV,3,2,11,12,36,272,49,15,55,207,50,17,34,047,49,18,06,278,48,0*6D
$GPGSV,3,3,11,26,43,180,49,27,25,112,49,28,06,061,48,0*58
$BDGSV,1,1,00,0*74

$GNRMC,083651.00,A,3128.000033,N,12110.963699,E,9.720,270.01,010720,,,A,V*0E
$GNGGA,083651.00,3128.000033,N,12110.963699,E,1,08,1.00,-9.6,M,9.3,M,,*5B
$GNGSA,A,3,04,05,09,12,17,15,26,27,,,,,2.46,1.00,2.25,1*0D
$GNGSA,A,3,,,,,,,,,,,,,2.46,1.00,2.25,4*00
$GPGSV,3,1,11,02,10,150,48,04,17,112,48,05,24,271,49,09,50,327,49,0*6D
$GPGSV,3,2,11,12,36,272,49,15,55,207,50,17,34,047,49,18,06,278,48,0*6D
$GPGSV,3,3,11,26,43,180,49,27,25,112,49,28,06,061,48,0*58
$BDGSV,1,1,00,0*74

$GNRMC,083652.00,A,3128.000033,N,12110.960542,E,9.721,270.01,010720,,,A,V*0A
$GNGGA,083652.00,3128.000033,N,12110.960542,E,1,08,1.00,-9.6,M,9.3,M,,*5E
$GNGSA,A,3,04,05,09,12,17,15,26,27,,,,,2.46,1.00,2.25,1*0D
$GNGSA,A,3,,,,,,,,,,,,,2.46,1.00,2.25,4*00
$GPGSV,3,1,11,02,10,150,48,04,17,112,49,05,24,271,49,09
,50,327,50,0*64
$GPGSV,3,2,11,12,36,272,49,15,55,207,50,17,34,047,49,18,06,278,48,0*6D
$GPGSV,3,3,11,26,43,180,49,27,25,112,49,28,06,061,48,0*58
$BDGSV,1,1,00,0*74

$GNRMC,083653.00,A,3128.000034,N,12110.957385,E,9.725,270.02,010720,,,A,V*02
$GNGGA,083653.00,3128.000034,N,12110.957385,E,1,08,1.00,-9.6,M,9.3,M,,*51
$GNGSA,A,3,04,05,09,12,17,15,26,27,,,,,2.46,1.00,2.25,1*0D
$GNGSA,A,3,,,,,,,,,,,,,2.46,1.00,2.25,4*00
$GPGSV,3,1,11,02,10,150,48,04,17,112,48,05,24,271,49,09
,50,327,50,0*65
$GPGSV,3,2,11,12,36,272,49,15,55,207,50,17,34,047,49,18,06,278,48,0*6D
$GPGSV,3,3,11,26,43,180,49,27,25,112,49,28,06,061,48,0*58
$BDGSV,1,1,00,0*74

$GNRMC,083654.00,A,3128.000034,N,12110.954228,E,9.721,270.02,010720,,,A,V*04
$GNGGA,083654.00,3128.000034,N,12110.954228,E,1,08,1.00,-9.6,M,9.3,M,,*53
$GNGSA,A,3,04,05,09,12,17,15,26,27,,,,,2.46,1.00,2.25,1*0D
$GNGSA,A,3,,,,,,,,,,,,,2.46,1.00,2.25,4*00
$GPGSV,3,1,11,02,10,150,48,04,17,112,48,05,24,271,49,09
,50,327,50,0*65
$GPGSV,3,2,11,12,36,272,49,15,55,207,50,17,34,047,49,18,06,278,48,0*6D
$GPGSV,3,3,11,26,43,180,49,27,25,112,49,28,06,061,48,0*58
$BDGSV,1,1,00,0*74

$GNRMC,083655.00,A,3128.000034,N,12110.951071,E,9.720,270.02,010720,,,A,V*0F
$GNGGA,083655.00,3128.000034,N,12110.951071,E,1,08,1.00,-9.6,M,9.3,M,,*59
$GNGSA,A,3,04,05,09,12,17,15,26,27,,,,,2.46,1.00,2.25,1*0D
$GNGSA,A,3,,,,,,,,,,,,,2.46,1.00,2.25,4*00
$GPGSV,3,1,11,02,10,150,48,04,17,112,48,05,24,271,49,09
,50,327,49,0*6D
$GPGSV,3,2,11,12,36,272,49,15,55,207,49,17,34,047,49,18,06,278,48,0*65
$GPGSV,3,3,11,26,43,180,49,27,25,112,49,28,06,061,48,0*58
$BDGSV,1,1,00,0*74

<????sim??????(SIM??:1)>
<????GSM????????(GSM:0)>
<????GPRS????????(GPRS:0)>
<????????????(SIGNAL:0)>
<????????????????(BER:0)>

<??????????????>

$GNRMC,083656.00,A,3128.000032,N,12110.947915,E,9.719,270.00,010720,,,A,V*0E
$GNGGA,083656.00,3128.000032,N,12110.947915,E,1,08,1.00,-9.6,M,9.3,M,,*50
$GNGSA,A,3,04,05,09,12,17,15,26,27,,,,,2.47,1.00,2.25,1*0C
$GNGSA,A,3,,,,,,,,,,,,,2.47,1.00,2.25,4*01
$GPGSV,3,1,11,02,10,150,48,04,17,112,48,05,24,271,49,09
,50,327,49,0*6D
$GPGSV,3,2,11,12,36,272,49,15,55,207,50,17,34,047,49,18,06,278,48,0*6D
$GPGSV,3,3,11,26,43,180,49,27,25,112,49,28,06,061,48,0*58
$BDGSV,1,1,00,0*74

$GNRMC,083657.00,A,3128.000033,N,12110.944758,E,9.719,270.01,010720,,,A,V*0B
$GNGGA,083657.00,3128.000033,N,12110.944758,E,1,08,1.00,-9.6,M,9.3,M,,*54
$GNGSA,A,3,04,05,09,12,17,15,26,27,,,,,2.47,1.00,2.26,1*0F
$GNGSA,A,3,,,,,,,,,,,,,2.47,1.00,2.26,4*02
$GPGSV,3,1,11,02,10,150,48,04,17,112,49,05,24,271,49,09
,50,327,49,0*6C
$GPGSV,3,2,11,12,36,272,49,15,55,207,50,17,34,047,49,18,06,278,48,0*6D
$GPGSV,3,3,11,26,43,180,49,27,25,112,49,28,06,061,48,0*58
$BDGSV,1,1,00,0*74

$GNRMC,083658.00,A,3128.000033,N,12110.941601,E,9.722,270.02,010720,,,A,V*07
$GNGGA,083658.00,3128.000033,N,12110.941601,E,1,08,1.00,-9.6,M,9.3,M,,*53
$GNGSA,A,3,04,05,09,12,17,15,26,27,,,,,2.47,1.00,2.26,1*0F
$GNGSA,A,3,,,,,,,,,,,,,2.47,1.00,2.26,4*02
$GPGSV,3,1,11,02,10,150,48,04,17,112,49,05,24,272,49,09
,50,327,49,0*6F
$GPGSV,3,2,11,12,36,272,49,15,55,207,50,17,34,047,49,18,06,278,48,0*6D
$GPGSV,3,3,11,26,43,180,49,27,25,112,49,28,06,061,48,0*58
$BDGSV,1,1,00,0*74

$GNRMC,083659.00,A,3128.000032,N,12110.938444,E,9.723,270.02,010720,,,A,V*0B
$GNGGA,083659.00,3128.000032,N,12110.938444,E,1,08,1.00,-9.6,M,9.3,M,,*5E
$GNGSA,A,3,04,05,09,12,17,15,26,27,,,,,2.47,1.00,2.26,1*0F
$GNGSA,A,3,,,,,,,,,,,,,2.47,1.00,2.26,4*02
$GPGSV,3,1,11,02,10,150,48,04,17,112,49,05,24,272,49,09
,51,327,50,0*66
$GPGSV,3,2,11,12,36,272,49,15,55,207,50,17,34,047,49,18,06,278,48,0*6D
$GPGSV,3,3,11,26,43,180,49,27,25,112,49,28,06,061,48,0*58
$BDGSV,1,1,00,0*74

$GNRMC,083700.00,A,3128.000031,N,12110.935286,E,9.721,270.00,010720,,,A,V*00
$GNGGA,083700.00,3128.000031,N,12110.935286,E,1,08,1.00,-9.6,M,9.3,M,,*55
$GNGSA,A,3,04,05,09,12,17,15,26,27,,,,,2.47,1.00,2.26,1*0F
$GNGSA,A,3,,,,,,,,,,,,,2.47,1.00,2.26,4*02
$GPGSV,3,1,11,02,10,150,48,04,17,112,49,05,24,272,49,09
,51,327,50,0*66
$GPGSV,3,2,11,12,36,273,49,15,55,207,50,17,34,047,49,18,06,278,48,0*6C
$GPGSV,3,3,11,26,43,180,49,27,25,112,49,28,06,061,48,0*58
$BDGSV,1,1,00,0*74

$GNRMC,083701.00,A,3128.000032,N,12110.932129,E,9.720,270.01,010720,,,A,V*03
$GNGGA,083701.00,3128.000032,N,12110.932129,E,1,08,1.00,-9.6,M,9.3,M,,*56
$GNGSA,A,3,04,05,09,12,17,15,26,27,,,,,2.47,1.00,2.26,1*0F
$GNGSA,A,3,,,,,,,,,,,,,2.47,1.00,2.26,4*02
$GPGSV,3,1,11,02,10,150,48,04,17,112,48,05,24,272,49,09
,51,327,49,0*6F
$GPGSV,3,2,11,12,36,273,49,15,54,207,50,17,34,047,49,18,06,278,48,0*6D
$GPGSV,3,3,11,26,43,180,49,27,25,112,49,28,06,061,48,0*58
$BDGSV,1,1,00,0*74

$GNRMC,083702.00,A,3128.000033,N,12110.928972,E,9.720,270.02,010720,,,A,V*0F
$GNGGA,083702.00,3128.000033,N,12110.928972,E,1,08,1.00,-9.6,M,9.3,M,,*59
$GNGSA,A,3,04,05,09,12,17,15,26,27,,,,,2.47,1.00,2.26,1*0F
$GNGSA,A,3,,,,,,,,,,,,,2.47,1.00,2.26,4*02
$GPGSV,3,1,11,02,10,150,48,04,17,112,48,05,24,272,49,09
,51,327,49,0*6F
$GPGSV,3,2,11,12,36,273,49,15,54,207,50,17,34,047,49,18,06,278,48,0*6D
$GPGSV,3,3,11,26,43,180,49,27,25,112,49,28,06,061,48,0*58
$BDGSV,1,1,00,0*74

$GNRMC,083703.00,A,3128.000034,N,12110.925814,E,9.723,270.01,010720,,,A,V*05
$GNGGA,083703.00,3128.000034,N,12110.925814,E,1,08,1.00,-9.6,M,9.3,M,,*53
$GNGSA,A,3,04,05,09,12,17,15,26,27,,,,,2.47,1.00,2.26,1*0F
$GNGSA,A,3,,,,,,,,,,,,,2.47,1.00,2.26,4*02
$GPGSV,3,1,11,02,10,150,48,04,17,112,48,05,24,272,49,09
,51,327,49,0*6F
$GPGSV,3,2,11,12,36,273,49,15,54,207,50,17,34,047,49,18,06,278,48,0*6D
$GPGSV,3,3,11,26,43,180,49,27,25,112,49,28,06,061,48,0*58
$BDGSV,1,1,00,0*74

$GNRMC,083704.00,A,3128.000034,N,12110.922656,E,9.723,270.02,010720,,,A,V*0E
$GNGGA,083704.00,3128.000034,N,12110.922656,E,1,08,1.00,-9.6,M,9.3,M,,*5B
$GNGSA,A,3,04,05,09,12,17,15,26,27,,,,,2.47,1.00,2.26,1*0F
$GNGSA,A,3,,,,,,,,,,,,,2.47,1.00,2.26,4*02
$GPGSV,3,1,11,02,10,150,48,04,17,112,48,05,24,272,49,09
,51,327,50,0*67
$GPGSV,3,2,11,12,36,273,49,15,54,207,50,17,34,047,49,18,06,278,48,0*6D
$GPGSV,3,3,11,26,43,180,49,27,25,112,49,28,06,061,48,0*58
$BDGSV,1,1,00,0*74

$GNRMC,083705.00,A,3128.000035,N,12110.919500,E,9.721,270.02,010720,,,A,V*04
$GNGGA,083705.00,3128.000035,N,12110.919500,E,1,08,1.00,-9.6,M,9.3,M,,*53
$GNGSA,A,3,04,05,09,12,17,15,26,27,,,,,2.47,1.00,2.26,1*0F
$GNGSA,A,3,,,,,,,,,,,,,2.47,1.00,2.26,4*02
$GPGSV,3,1,11,02,10,150,48,04,17,112,48,05,24,272,49,09
,51,327,50,0*67
$GPGSV,3,2,11,12,36,273,49,15,54,207,50,17,34,047,49,18,06,278,48,0*6D
$GPGSV,3,3,11,26,43,180,49,27,25,112,49,28,06,061,48,0*58
$BDGSV,1,1,00,0*74

<??????????????>

GPS HPregnss> E1 15 00 00 00 00 07 53 8F 3C F2 00 00 00 1C 37 02 72 F2 00 00 00 00 


$GNRMC,083706.00,A,3128.000035,N,12110.916342,E,9.719,270.00,010720,,,A,V*01
$GNGGA,083706.00,3128.000035,N,12110.916342,E,1,08,1.00,-9.6,M,9.3,M,,*5F
$GNGSA,A,3,04,05,09,12,17,15,26,27,,,,,2.47,1.00,2.26,1*0F
$GNGSA,A,3,,,,,,,,,,,,,2.47,1.00,2.26,4*02
$GPGSV,3,1,11,02,10,150,48,04,17,112,48,05,24,272,49,09
,51,327,49,0*6F
$GPGSV,3,2,11,12,36,273,49,15,54,207,50,17,34,047,49,18,06,278,48,0*6D
$GPGSV,3,3,11,26,43,180,49,27,25,112,49,28,06,061,48,0*58
$BDGSV,1,1,00,0*74

$GNRMC,083707.00,A,3128.000035,N,12110.913185,E,9.720,270.01,010720,,,A,V*07
$GNGGA,083707.00,3128.000035,N,12110.913185,E,1,08,1.00,-9.6,M,9.3,M,,*52
$GNGSA,A,3,04,05,09,12,17,15,26,27,,,,,2.47,1.00,2.26,1*0F
$GNGSA,A,3,,,,,,,,,,,,,2.47,1.00,2.26,4*02
$GPGSV,3,1,11,02,10,150,48,04,17,112,48,05,24,272,49,09
,51,327,49,0*6F
$GPGSV,3,2,11,12,36,273,49,15,54,207,50,17,34,047,49,18,06,278,48,0*6D
$GPGSV,3,3,11,26,43,180,49,27,25,112,49,28,06,061,48,0*58
$BDGSV,1,1,00,0*74

$GNRMC,083708.00,A,3128.000037,N,12110.910028,E,9.719,270.03,010720,,,A,V*07
$GNGGA,083708.00,3128.000037,N,12110.910028,E,1,08,1.00,-9.6,M,9.3,M,,*5A
$GNGSA,A,3,04,05,09,12,17,15,26,27,,,,,2.47,1.00,2.26,1*0F
$GNGSA,A,3,,,,,,,,,,,,,2.47,1.00,2.26,4*02
$GPGSV,3,1,11,02,10,150,48,04,17,112,48,05,24,272,49,09
,51,327,49,0*6F
$GPGSV,3,2,11,12,36,273,49,15,54,207,50,17,34,047,49,18,06,278,48,0*6D
$GPGSV,3,3,11,26,43,180,49,27,25,112,49,28,06,061,48,0*58
$BDGSV,1,1,00,0*74

$GNRMC,083709.00,A,3128.000036,N,12110.906870,E,9.721,270.00,010720,,,A,V*0D
$GNGGA,083709.00,3128.000036,N,12110.906870,E,1,08,1.00,-9.6,M,9.3,M,,*58
$GNGSA,A,3,04,05,09,12,17,15,26,27,,,,,2.47,1.00,2.26,1*0F
$GNGSA,A,3,,,,,,,,,,,,,2.47,1.00,2.26,4*02
$GPGSV,3,1,11,02,10,150,48,04,17,112,48,05,24,272,49,09
,51,327,49,0*6F
$GPGSV,3,2,11,12,36,273,49,15,54,207,50,17,34,047,49,18,06,278,48,0*6D
$GPGSV,3,3,11,26,43,180,49,27,25,112,49,28,06,061,48,0*58
$BDGSV,1,1,00,0*74

$GNRMC,083710.00,A,3128.000036,N,12110.903713,E,9.719,270.00,010720,,,A,V*01
$GNGGA,083710.00,3128.000036,N,12110.903713,E,1,08,1.00,-9.6,M,9.3,M,,*5F
$GNGSA,A,3,04,05,09,12,17,15,26,27,,,,,2.47,1.00,2.26,1*0F
$GNGSA,A,3,,,,,,,,,,,,,2.47,1.00,2.26,4*02
$GPGSV,3,1,11,02,10,150,48,04,17,112,48,05,24,272,49,09
,51,327,49,0*6F
$GPGSV,3,2,11,12,36,273,49,15,54,207,50,17,34,047,49,18,06,278,48,0*6D
$GPGSV,3,3,11,26,43,180,49,27,25,112,49,28,06,061,48,0*58
$BDGSV,1,1,00,0*74

$GNRMC,083711.00,A,3128.000036,N,12110.900556,E,9.721,270.02,010720,,,A,V*09
$GNGGA,083711.00,3128.000036,N,12110.900556,E,1,08,1.00,-9.6,M,9.3,M,,*5E
$GNGSA,A,3,04,05,09,12,17,15,26,27,,,,,2.47,1.00,2.26,1*0F
$GNGSA,A,3,,,,,,,,,,,,,2.47,1.00,2.26,4*02
$GPGSV,3,1,11,02,10,150,48,04,17,112,48,05,24,272,49,09
,51,327,49,0*6F
$GPGSV,3,2,11,12,36,273,49,15,54,207,50,17,34,047,49,18,06,278,48,0*6D
$GPGSV,3,3,11,26,43,180,49,27,25,112,49,28,06,061,48,0*58
$BDGSV,1,1,00,0*74

$GNRMC,083712.00,A,3128.000037,N,12110.897399,E,9.720,270.01,010720,,,A,V*03
$GNGGA,083712.00,3128.000037,N,12110.897399,E,1,08,1.00,-9.6,M,9.3,M,,*56
$GNGSA,A,3,04,05,09,12,17,15,26,27,,,,,2.47,1.00,2.26,1*0F
$GNGSA,A,3,,,,,,,,,,,,,2.47,1.00,2.26,4*02
$GPGSV,3,1,11,02,10,150,48,04,17,112,48,05,24,272,49,09
,51,327,49,0*6F
$GPGSV,3,2,11,12,36,273,49,15,54,207,50,17,34,047,49,18,06,278,48,0*6D
$GPGSV,3,3,11,26,43,180,49,27,25,112,49,28,06,061,48,0*58
$BDGSV,1,1,00,0*74

$GNRMC,083713.00,A,3128.000037,N,12110.894242,E,9.722,270.01,010720,,,A,V*04
$GNGGA,083713.00,3128.000037,N,12110.894242,E,1,08,1.00,-9.6,M,9.3,M,,*53
$GNGSA,A,3,04,05,09,12,17,15,26,27,,,,,2.47,1.00,2.26,1*0F
$GNGSA,A,3,,,,,,,,,,,,,2.47,1.00,2.26,4*02
$GPGSV,3,1,11,02,10,150,48,04,17,112,49,05,24,272,49,09
,51,327,49,0*6E
$GPGSV,3,2,11,12,36,273,49,15,54,207,50,17,34,047,49,18,06,278,48,0*6D
$GPGSV,3,3,11,26,43,180,49,27,25,112,49,28,06,061,48,0*58
$BDGSV,1,1,00,0*74

$GNRMC,083714.00,A,3128.000038,N,12110.891085,E,9.724,270.02,010720,,,A,V*05
$GNGGA,083714.00,3128.000038,N,12110.891085,E,1,08,1.00,-9.6,M,9.3,M,,*57
$GNGSA,A,3,04,05,09,12,17,15,26,27,,,,,2.47,1.00,2.26,1*0F
$GNGSA,A,3,,,,,,,,,,,,,2.47,1.00,2.26,4*02
$GPGSV,3,1,11,02,10,150,48,04,17,112,48,05,24,272,49,09
,51,327,50,0*67
$GPGSV,3,2,11,12,36,273,49,15,54,207,50,17,34,047,49,18,06,278,48,0*6D
$GPGSV,3,3,11,26,43,180,49,27,25,112,49,28,06,061,48,0*58
$BDGSV,1,1,00,0*74

$GNRMC,083715.00,A,3128.000037,N,12110.887928,E,9.722,270.00,010720,,,A,V*06
$GNGGA,083715.00,3128.000037,N,12110.887928,E,1,08,1.00,-9.6,M,9.3,M,,*50
$GNGSA,A,3,04,05,09,12,17,15,26,27,,,,,2.48,1.00,2.27,1*01
$GNGSA,A,3,,,,,,,,,,,,,2.48,1.00,2.27,4*0C
$GPGSV,3,1,11,02,10,150,48,04,17,112,48,05,24,272,49,09
,51,327,50,0*67
$GPGSV,3,2,11,12,36,273,49,15,54,207,50,17,34,047,49,18,06,278,48,0*6D
$GPGSV,3,3,11,26,43,180,49,27,25,112,49,28,06,061,48,0*58
$BDGSV,1,1,00,0*74

<????sim??????(SIM??:1)>
<????GSM????????(GSM:0)>
<????GPRS????????(GPRS:0)>
<????????????(SIGNAL:0)>
<????????????????(BER:0)>

<??????????????>

$GNRMC,083716.00,A,3128.000036,N,12110.884771,E,9.719,270.01,010720,,,A,V*0C
$GNGGA,083716.00,3128.000036,N,12110.884771,E,1,08,1.00,-9.6,M,9.3,M,,*53
$GNGSA,A,3,04,05,09,12,17,15,26,27,,,,,2.48,1.00,2.27,1*01
$GNGSA,A,3,,,,,,,,,,,,,2.48,1.00,2.27,4*0C
$GPGSV,3,1,11,02,10,150,48,04,17,112,48,05,24,272,49,09
,51,327,50,0*67
$GPGSV,3,2,11,12,36,273,49,15,54,207,50,17,34,047,49,18,06,278,48,0*6D
$GPGSV,3,3,11,26,43,180,49,27,25,112,49,28,06,061,48,0*58
$BDGSV,1,1,00,0*74

$GNRMC,083717.00,A,3128.000036,N,12110.881613,E,9.721,270.01,010720,,,A,V*06
$GNGGA,083717.00,3128.000036,N,12110.881613,E,1,08,1.00,-9.6,M,9.3,M,,*52
$GNGSA,A,3,04,05,09,12,17,15,26,27,,,,,2.48,1.00,2.27,1*01
$GNGSA,A,3,,,,,,,,,,,,,2.48,1.00,2.27,4*0C
$GPGSV,3,1,11,02,10,150,48,04,17,112,48,05,24,272,49,09
,51,327,50,0*67
$GPGSV,3,2,11,12,36,273,49,15,54,207,50,17,34,047,49,18,06,278,48,0*6D
$GPGSV,3,3,11,26,43,180,49,27,25,112,49,28,06,061,48,0*58
$BDGSV,1,1,00,0*74

$GNRMC,083718.00,A,3128.000036,N,12110.878457,E,9.721,270.01,010720,,,A,V*0D
$GNGGA,083718.00,3128.000036,N,12110.878457,E,1,08,1.00,-9.6,M,9.3,M,,*59
$GNGSA,A,3,04,05,09,12,17,15,26,27,,,,,2.48,1.00,2.27,1*01
$GNGSA,A,3,,,,,,,,,,,,,2.48,1.00,2.27,4*0C
$GPGSV,3,1,11,02,10,150,48,04,17,112,48,05,24,272,49,09
,51,327,50,0*67
$GPGSV,3,2,11,12,36,273,49,15,54,207,50,17,34,047,49,18,06,278,48,0*6D
$GPGSV,3,3,11,26,43,180,49,27,25,112,49,28,06,061,48,0*58
$BDGSV,1,1,00,0*74

$GNRMC,083719.00,A,3128.000036,N,12110.875300,E,9.721,270.01,010720,,,A,V*04
$GNGGA,083719.00,3128.000036,N,12110.875300,E,1,08,1.00,-9.6,M,9.3,M,,*50
$GNGSA,A,3,04,05,09,12,17,15,26,27,,,,,2.48,1.00,2.27,1*01
$GNGSA,A,3,,,,,,,,,,,,,2.48,1.00,2.27,4*0C
$GPGSV,3,1,11,02,10,150,48,04,17,112,48,05,24,272,49,09
,51,327,50,0*67
$GPGSV,3,2,11,12,36,273,49,15,54,207,50,17,34,047,49,18,06,278,48,0*6D
$GPGSV,3,3,11,26,43,180,49,27,25,112,49,28,06,061,48,0*58
$BDGSV,1,1,00,0*74

$GNRMC,083720.00,A,3128.000038,N,12110.872142,E,9.723,270.03,010720,,,A,V*03
$GNGGA,083720.00,3128.000038,N,12110.872142,E,1,08,1.00,-9.6,M,9.3,M,,*57
$GNGSA,A,3,04,05,09,12,17,15,26,27,,,,,2.48,1.00,2.27,1*01
$GNGSA,A,3,,,,,,,,,,,,,2.48,1.00,2.27,4*0C
$GPGSV,3,1,11,02,10,150,48,04,17,112,48,05,24,272,49,09
,51,327,50,0*67
$GPGSV,3,2,11,12,36,273,49,15,54,207,50,17,34,047,49,18,06,278,48,0*6D
$GPGSV,3,3,11,26,43,180,49,27,25,112,49,28,06,061,48,0*58
$BDGSV,1,1,00,0*74

$GNRMC,083721.00,A,3128.000037,N,12110.868986,E,9.720,270.01,010720,,,A,V*07
$GNGGA,083721.00,3128.000037,N,12110.868986,E,1,08,1.00,-9.6,M,9.3,M,,*52
$GNGSA,A,3,04,05,09,12,17,15,26,27,,,,,2.48,1.00,2.27,1*01
$GNGSA,A,3,,,,,,,,,,,,,2.48,1.00,2.27,4*0C
$GPGSV,3,1,11,02,10,150,48,04,17,112,48,05,24,272,49,09
,51,327,50,0*67
$GPGSV,3,2,11,12,36,273,49,15,54,207,50,17,34,047,49,18,06,278,48,0*6D
$GPGSV,3,3,11,26,43,180,49,27,25,112,49,28,06,061,48,0*58
$BDGSV,1,1,00,0*74

$GNRMC,083722.00,A,3128.000036,N,12110.865830,E,9.720,269.99,010720,,,A,V*0D
$GNGGA,083722.00,3128.000036,N,12110.865830,E,1,08,1.00,-9.6,M,9.3,M,,*51
$GNGSA,A,3,04,05,09,12,17,15,26,27,,,,,2.48,1.00,2.27,1*01
$GNGSA,A,3,,,,,,,,,,,,,2.48,1.00,2.27,4*0C
$GPGSV,3,1,11,02,10,150,48,04,17,112,48,05,24,272,49,09
,51,327,49,0*6F
$GPGSV,3,2,11,12,36,273,49,15,54,206,50,17,34,047,49,18,06,278,48,0*6C
$GPGSV,3,3,11,26,43,180,49,27,25,112,49,28,06,061,48,0*58
$BDGSV,1,1,00,0*74

$GNRMC,083723.00,A,3128.000035,N,12110.862673,E,9.724,270.01,010720,,,A,V*0C
$GNGGA,083723.00,3128.000035,N,12110.862673,E,1,08,1.00,-9.6,M,9.3,M,,*5D
$GNGSA,A,3,04,05,09,12,17,15,26,27,,,,,2.48,1.00,2.27,1*01
$GNGSA,A,3,,,,,,,,,,,,,2.48,1.00,2.27,4*0C
$GPGSV,3,1,11,02,10,150,48,04,17,112,48,05,24,272,49,09
,51,327,49,0*6F
$GPGSV,3,2,11,12,36,273,49,15,54,206,50,17,34,047,49,18,06,278,48,0*6C
$GPGSV,3,3,11,26,43,180,49,27,25,112,49,28,06,061,48,0*58
$BDGSV,1,1,00,0*74

$GNRMC,083724.00,A,3128.000034,N,12110.859515,E,9.725,270.02,010720,,,A,V*03
$GNGGA,083724.00,3128.000034,N,12110.859515,E,1,08,1.00,-9.6,M,9.3,M,,*50
$GNGSA,A,3,04,05,09,12,17,15,26,27,,,,,2.48,1.00,2.27,1*01
$GNGSA,A,3,,,,,,,,,,,,,2.48,1.00,2.27,4*0C
$GPGSV,3,1,11,02,10,150,48,04,17,112,48,05,24,272,49,09
,51,327,50,0*67
$GPGSV,3,2,11,12,36,273,49,15,54,206,49,17,34,047,49,18,06,278,48,0*64
$GPGSV,3,3,11,26,43,180,49,27,25,112,49,28,06,061,48,0*58
$BDGSV,1,1,00,0*74

$GNRMC,083725.00,A,3128.000033,N,12110.856357,E,9.721,270.01,010720,,,A,V*0D
$GNGGA,083725.00,3128.000033,N,12110.856357,E,1,08,1.00,-9.6,M,9.3,M,,*59
$GNGSA,A,3,04,05,09,12,17,15,26,27,,,,,2.48,1.00,2.27,1*01
$GNGSA,A,3,,,,,,,,,,,,,2.48,1.00,2.27,4*0C
$GPGSV,3,1,11,02,10,150,48,04,17,112,48,05,24,272,49,09
,51,327,49,0*6F
$GPGSV,3,2,11,12,36,273,49,15,54,206,49,17,34,047,49,18,06,278,48,0*64
$GPGSV,3,3,11,26,43,180,49,27,25,112,49,28,06,061,48,0*58
$BDGSV,1,1,00,0*74

<??????????????>

$GNRMC,083726.00,A,3128.000032,N,12110.853199,E,9.721,270.01,010720,,,A,V*0A
$GNGGA,083726.00,3128.000032,N,12110.853199,E,1,08,1.00,-9.6,M,9.3,M,,*5E
$GNGSA,A,3,04,05,09,12,17,15,26,27,,,,,2.48,1.00,2.27,1*01
$GNGSA,A,3,,,,,,,,,,,,,2.48,1.00,2.27,4*0C
$GPGSV,3,1,11,02,10,150,48,04,17,112,48,05,24,272,49,09
,51,327,49,0*6F
$GPGSV,3,2,11,12,36,273,49,15,54,206,50,17,34,047,49,18,06,278,48,0*6C
$GPGSV,3,3,11,26,43,180,49,27,25,112,49,28,06,061,48,0*58
$BDGSV,1,1,00,0*74

$GNRMC,083727.00,A,3128.000032,N,12110.850042,E,9.719,270.03,010720,,,A,V*06
$GNGGA,083727.00,3128.000032,N,12110.850042,E,1,08,1.00,-9.6,M,9.3,M,,*5B
$GNGSA,A,3,04,05,09,12,17,15,26,27,,,,,2.48,1.00,2.27,1*01
$GNGSA,A,3,,,,,,,,,,,,,2.48,1.00,2.27,4*0C
$GPGSV,3,1,11,02,10,150,48,04,17,112,49,05,24,272,49,09
,51,327,49,0*6E
$GPGSV,3,2,11,12,36,273,49,15,54,206,49,17,34,047,49,18,06,278,48,0*64
$GPGSV,3,3,11,26,43,180,49,27,25,112,49,28,06,061,48,0*58
$BDGSV,1,1,00,0*74

$GNRMC,083728.00,A,3128.000032,N,12110.846886,E,9.719,270.00,010720,,,A,V*0D
$GNGGA,083728.00,3128.000032,N,12110.846886,E,1,08,1.00,-9.6,M,9.3,M,,*53
$GNGSA,A,3,04,05,09,12,17,15,26,27,,,,,2.48,1.00,2.27,1*01
$GNGSA,A,3,,,,,,,,,,,,,2.48,1.00,2.27,4*0C
$GPGSV,3,1,11,02,10,150,48,04,17,112,48,05,24,272,49,09
,51,327,49,0*6F
$GPGSV,3,2,11,12,36,273,49,15,54,206,50,17,34,047,49,18,06,278,48,0*6C
$GPGSV,3,3,11,26,43,180,49,27,25,112,49,28,06,061,48,0*58
$BDGSV,1,1,00,0*74

$GNRMC,083729.00,A,3128.000031,N,12110.843729,E,9.721,270.00,010720,,,A,V*0B
$GNGGA,083729.00,3128.000031,N,12110.843729,E,1,08,1.00,-9.6,M,9.3,M,,*5E
$GNGSA,A,3,04,05,09,12,17,15,26,27,,,,,2.48,1.00,2.27,1*01
$GNGSA,A,3,,,,,,,,,,,,,2.48,1.00,2.27,4*0C
$GPGSV,3,1,11,02,10,150,48,04,17,112,49,05,24,272,49,09
,51,327,49,0*6E
$GPGSV,3,2,11,12,36,273,49,15,54,206,50,17,34,047,49,18,06,278,48,0*6C
$GPGSV,3,3,11,26,43,180,49,27,25,112,49,28,06,061,48,0*58
$BDGSV,1,1,00,0*74

$GNRMC,083730.00,A,3128.000031,N,12110.840572,E,9.722,270.01,010720,,,A,V*0E
$GNGGA,083730.00,3128.000031,N,12110.840572,E,1,08,1.00,-9.6,M,9.3,M,,*59
$GNGSA,A,3,04,05,09,12,17,15,26,27,,,,,2.48,1.00,2.27,1*01
$GNGSA,A,3,,,,,,,,,,,,,2.48,1.00,2.27,4*0C
$GPGSV,3,1,11,02,10,150,48,04,17,112,49,05,24,272,49,09
,51,327,50,0*66
$GPGSV,3,2,11,12,36,273,49,15,54,206,50,17,34,047,49,18,06,278,48,0*6C
$GPGSV,3,3,11,26,43,180,49,27,25,112,49,28,06,061,48,0*58
$BDGSV,1,1,00,0*74

$GNRMC,083731.00,A,3128.000032,N,12110.837414,E,9.719,270.02,010720,,,A,V*06
$GNGGA,083731.00,3128.000032,N,12110.837414,E,1,08,1.00,-9.6,M,9.3,M,,*5A
$GNGSA,A,3,04,05,09,12,17,15,26,27,,,,,2.48,1.00,2.27,1*01
$GNGSA,A,3,,,,,,,,,,,,,2.48,1.00,2.27,4*0C
$GPGSV,3,1,11,02,10,150,48,04,17,112,49,05,24,272,49,09
,51,327,50,0*66
$GPGSV,3,2,11,12,36,273,49,15,54,206,50,17,34,047,49,18,06,278,48,0*6C
$GPGSV,3,3,11,26,43,180,49,27,25,112,49,28,06,061,48,0*58
$BDGSV,1,1,00,0*74

$GNRMC,083732.00,A,3128.000031,N,12110.834258,E,9.720,270.01,010720,,,A,V*02
$GNGGA,083732.00,3128.000031,N,12110.834258,E,1,08,1.00,-9.6,M,9.3,M,,*57
$GNGSA,A,3,04,05,09,12,17,15,26,27,,,,,2.48,1.00,2.27,1*01
$GNGSA,A,3,,,,,,,,,,,,,2.48,1.00,2.27,4*0C
$GPGSV,3,1,11,02,10,150,48,04,17,112,49,05,24,272,49,09
,51,327,49,0*6E
$GPGSV,3,2,11,12,36,273,49,15,54,206,50,17,34,047,49,18,06,278,48,0*6C
$GPGSV,3,3,11,26,43,180,49,27,25,112,49,28,06,061,48,0*58
$BDGSV,1,1,00,0*74

$GNRMC,083733.00,A,3128.000030,N,12110.831101,E,9.727,270.01,010720,,,A,V*0F
$GNGGA,083733.00,3128.000030,N,12110.831101,E,1,08,1.00,-9.6,M,9.3,M,,*5D
$GNGSA,A,3,04,05,09,12,17,15,26,27,,,,,2.48,1.00,2.28,1*0E
$GNGSA,A,3,,,,,,,,,,,,,2.48,1.00,2.28,4*03
$GPGSV,3,1,11,02,10,150,48,04,17,112,48,05,24,272,49,09
,51,327,49,0*6F
$GPGSV,3,2,11,12,36,273,49,15,54,206,50,17,34,047,49,18,06,278,48,0*6C
$GPGSV,3,3,11,26,43,180,49,27,25,112,49,28,06,061,48,0*58
$BDGSV,1,1,00,0*74

$GNRMC,083734.00,A,3128.000031,N,12110.827945,E,9.723,270.01,010720,,,A,V*02
$GNGGA,083734.00,3128.000031,N,12110.827945,E,1,08,1.00,-9.6,M,9.3,M,,*54
$GNGSA,A,3,04,05,09,12,17,15,26,27,,,,,2.48,1.00,2.28,1*0E
$GNGSA,A,3,,,,,,,,,,,,,2.48,1.00,2.28,4*03
$GPGSV,3,1,11,02,10,150,48,04,17,112,48,05,24,272,49,09
,51,327,49,0*6F
$GPGSV,3,2,11,12,36,273,49,15,54,206,50,17,34,047,49,18,06,278,48,0*6C
$GPGSV,3,3,11,26,43,180,49,27,25,112,49,28,06,061,48,0*58
$BDGSV,1,1,00,0*74


GPS HPregnss> E1 15 00 00 00 00 07 53 8F 3C AF 00 00 00 1C 36 EB 2A 56 00 00 00 00 


$GNRMC,083735.00,A,3128.000031,N,12110.824789,E,9.719,270.01,010720,,,A,V*07
$GNGGA,083735.00,3128.000031,N,12110.824789,E,1,08,1.00,-9.6,M,9.3,M,,*58
$GNGSA,A,3,04,05,09,12,17,15,26,27,,,,,2.49,1.00,2.28,1*0F
$GNGSA,A,3,,,,,,,,,,,,,2.49,1.00,2.28,4*02
$GPGSV,3,1,11,02,10,150,48,04,17,112,48,05,24,272,49,09
,51,327,49,0*6F
$GPGSV,3,2,11,12,36,273,49,15,54,206,50,17,34,047,49,18,06,278,48,0*6C
$GPGSV,3,3,11,26,43,180,49,27,25,112,49,28,06,061,48,0*58
$BDGSV,1,1,00,0*74

<????sim??????(SIM??:1)>
<????GSM????????(GSM:0)>
<????GPRS????????(GPRS:0)>
<????????????(SIGNAL:0)>
<????????????????(BER:0)>

<??????????????>

$GNRMC,083736.00,A,3128.000030,N,12110.821633,E,9.717,270.00,010720,,,A,V*0F
$GNGGA,083736.00,3128.000030,N,12110.821633,E,1,08,1.00,-9.6,M,9.3,M,,*5F
$GNGSA,A,3,04,05,09,12,17,15,26,27,,,,,2.49,1.00,2.28,1*0F
$GNGSA,A,3,,,,,,,,,,,,,2.49,1.00,2.28,4*02
$GPGSV,3,1,11,02,10,150,48,04,17,112,49,05,24,272,49,09
,51,327,50,0*66
$GPGSV,3,2,11,12,36,273,49,15,54,206,50,17,34,047,49,18,06,278,48,0*6C
$GPGSV,3,3,11,26,43,180,49,27,25,112,49,28,06,061,48,0*58
$BDGSV,1,1,00,0*74

$GNRMC,083737.00,A,3128.000030,N,12110.818477,E,9.716,270.02,010720,,,A,V*05
$GNGGA,083737.00,3128.000030,N,12110.818477,E,1,08,1.00,-9.6,M,9.3,M,,*56
$GNGSA,A,3,04,05,09,12,17,15,26,27,,,,,2.49,1.00,2.28,1*0F
$GNGSA,A,3,,,,,,,,,,,,,2.49,1.00,2.28,4*02
$GPGSV,3,1,11,02,10,150,48,04,17,112,49,05,24,272,49,09
,51,327,49,0*6E
$GPGSV,3,2,11,12,36,273,49,15,54,206,50,17,34,047,49,18,06,278,48,0*6C
$GPGSV,3,3,11,26,43,180,49,27,25,112,49,28,06,061,48,0*58
$BDGSV,1,1,00,0*74

$GNRMC,083738.00,A,3128.000029,N,12110.815320,E,9.723,270.00,010720,,,A,V*0E
$GNGGA,083738.00,3128.000029,N,12110.815320,E,1,08,1.00,-9.6,M,9.3,M,,*59
$GNGSA,A,3,04,05,09,12,17,15,26,27,,,,,2.49,1.00,2.28,1*0F
$GNGSA,A,3,,,,,,,,,,,,,2.49,1.00,2.28,4*02
$GPGSV,3,1,11,02,10,150,48,04,17,112,49,05,24,272,49,09
,51,327,49,0*6E
$GPGSV,3,2,11,12,36,273,49,15,54,206,50,17,34,047,49,18,06,278,48,0*6C
$GPGSV,3,3,11,26,43,180,49,27,25,112,49,28,06,061,48,0*58
$BDGSV,1,1,00,0*74

$GNRMC,083739.00,A,3128.000029,N,12110.812163,E,9.721,270.01,010720,,,A,V*0E
$GNGGA,083739.00,3128.000029,N,12110.812163,E,1,08,1.00,-9.6,M,9.3,M,,*5A
$GNGSA,A,3,04,05,09,12,17,15,26,27,,,,,2.49,1.00,2.28,1*0F
$GNGSA,A,3,,,,,,,,,,,,,2.49,1.00,2.28,4*02
$GPGSV,3,1,11,02,10,150,48,04,17,111,49,05,24,272,49,09
,51,327,50,0*65
$GPGSV,3,2,11,12,36,273,49,15,54,206,50,17,34,047,49,18,06,278,48,0*6C
$GPGSV,3,3,11,26,43,180,49,27,25,112,49,28,06,061,48,0*58
$BDGSV,1,1,00,0*74

$GNRMC,083740.00,A,3128.000029,N,12110.809006,E,9.721,270.02,010720,,,A,V*0B
$GNGGA,083740.00,3128.000029,N,12110.809006,E,1,08,1.00,-9.6,M,9.3,M,,*5C
$GNGSA,A,3,04,05,09,12,17,15,26,27,,,,,2.49,1.00,2.28,1*0F
$GNGSA,A,3,,,,,,,,,,,,,2.49,1.00,2.28,4*02
$GPGSV,3,1,11,02,10,150,48,04,17,111,49,05,24,272,49,09
,51,327,49,0*6D
$GPGSV,3,2,11,12,36,273,49,15,54,206,50,17,34,047,49,18,06,278,48,0*6C
$GPGSV,3,3,11,26,43,180,49,27,25,112,49,28,06,061,48,0*58
$BDGSV,1,1,00,0*74

$GNRMC,083741.00,A,3128.000030,N,12110.805849,E,9.718,270.00,010720,,,A,V*05
$GNGGA,083741.00,3128.000030,N,12110.805849,E,1,08,1.00,-9.6,M,9.3,M,,*5A
$GNGSA,A,3,04,05,09,12,17,15,26,27,,,,,2.49,1.00,2.28,1*0F
$GNGSA,A,3,,,,,,,,,,,,,2.49,1.00,2.28,4*02
$GPGSV,3,1,11,02,10,150,48,04,17,111,49,05,24,272,49,09
,51,328,49,0*62
$GPGSV,3,2,11,12,36,273,49,15,54,206,50,17,34,047,49,18,06,278,48,0*6C
$GPGSV,3,3,11,26,43,180,49,27,25,112,49,28,06,061,48,0*58
$BDGSV,1,1,00,0*74

$GNRMC,083742.00,A,3128.000030,N,12110.802693,E,9.718,270.01,010720,,,A,V*09
$GNGGA,083742.00,3128.000030,N,12110.802693,E,1,08,1.00,-9.6,M,9.3,M,,*57
$GNGSA,A,3,04,05,09,12,17,15,26,27,,,,,2.49,1.00,2.28,1*0F
$GNGSA,A,3,,,,,,,,,,,,,2.49,1.00,2.28,4*02
$GPGSV,3,1,12,02,10,150,48,04,17,111,49,05,24,272,49,09
,51,328,50,0*69
$GPGSV,3,2,12,12,36,273,49,15,54,206,50,17,34,047,49,18,06,278,48,0*6F
$GPGSV,3,3,12,26,43,180,49,27,25,112,49,28,06,061,48,32,,,31,0*58
$BDGSV,1,1,00,0*74

$GNRMC,083743.00,A,3128.000030,N,12110.799535,E,9.724,270.02,010720,,,A,V*06
$GNGGA,083743.00,3128.000030,N,12110.799535,E,1,08,1.00,-9.6,M,9.3,M,,*54
$GNGSA,A,3,04,05,09,12,17,15,26,27,,,,,2.49,1.00,2.28,1*0F
$GNGSA,A,3,,,,,,,,,,,,,2.49,1.00,2.28,4*02
$GPGSV,3,1,11,02,10,150,48,04,17,111,48,05,24,272,49,09
,51,328,49,0*63
$GPGSV,3,2,11,12,36,273,49,15,54,206,50,17,34,047,49,18,06,278,48,0*6C
$GPGSV,3,3,11,26,43,180,49,27,25,112,49,28,06,061,48,0*58
$BDGSV,1,1,00,0*74

$GNRMC,083744.00,A,3128.000031,N,12110.796378,E,9.724,270.01,010720,,,A,V*03
$GNGGA,083744.00,3128.000031,N,12110.796378,E,1,08,1.00,-9.6,M,9.3,M,,*52
$GNGSA,A,3,04,05,09,12,17,15,26,27,,,,,2.49,1.00,2.28,1*0F
$GNGSA,A,3,,,,,,,,,,,,,2.49,1.00,2.28,4*02
$GPGSV,3,1,11,02,10,150,48,04,17,111,49,05,24,272,49,09
,51,328,49,0*62
$GPGSV,3,2,11,12,36,273,49,15,54,206,50,17,34,047,49,18,06,278,48,0*6C
$GPGSV,3,3,11,26,43,180,49,27,25,112,49,28,06,061,48,0*58
$BDGSV,1,1,00,0*74

$GNRMC,083745.00,A,3128.000030,N,12110.793222,E,9.723,270.00,010720,,,A,V*0E
$GNGGA,083745.00,3128.000030,N,12110.793222,E,1,08,1.00,-9.6,M,9.3,M,,*59
$GNGSA,A,3,04,05,09,12,17,15,26,27,,,,,2.49,1.00,2.28,1*0F
$GNGSA,A,3,,,,,,,,,,,,,2.49,1.00,2.28,4*02
$GPGSV,3,1,11,02,10,150,48,04,17,111,48,05,24,272,49,09
,51,328,49,0*63
$GPGSV,3,2,11,12,36,273,49,15,54,206,50,17,34,047,49,18,06,278,48,0*6C
$GPGSV,3,3,11,26,43,180,49,27,25,112,49,28,06,061,48,0*58
$BDGSV,1,1,00,0*74

<??????????????>

$GNRMC,083746.00,A,3128.000031,N,12110.790064,E,9.718,270.02,010720,,,A,V*05
$GNGGA,083746.00,3128.000031,N,12110.790064,E,1,08,1.00,-9.6,M,9.3,M,,*58
$GNGSA,A,3,04,05,09,12,17,15,26,27,,,,,2.49,1.00,2.28,1*0F
$GNGSA,A,3,,,,,,,,,,,,,2.49,1.00,2.28,4*02
$GPGSV,3,1,11,02,10,150,48,04,17,111,48,05,24,272,49,09
,51,328,49,0*63
$GPGSV,3,2,11,12,36,273,49,15,54,206,50,17,34,047,49,18,06,278,48,0*6C
$GPGSV,3,3,11,26,43,180,49,27,25,112,49,28,06,061,48,0*58
$BDGSV,1,1,00,0*74

$GNRMC,083747.00,A,3128.000030,N,12110.786907,E,9.717,270.00,010720,,,A,V*03
$GNGGA,083747.00,3128.000030,N,12110.786907,E,1,08,1.00,-9.6,M,9.3,M,,*53
$GNGSA,A,3,04,05,09,12,17,15,26,27,,,,,2.49,1.00,2.28,1*0F
$GNGSA,A,3,,,,,,,,,,,,,2.49,1.00,2.28,4*02
$GPGSV,3,1,11,02,10,150,48,04,17,111,49,05,24,272,49,09
,51,328,49,0*62
$GPGSV,3,2,11,12,36,273,49,15,54,206,50,17,34,047,49,18,06,278,48,0*6C
$GPGSV,3,3,11,26,43,180,50,27,25,112,49,28,06,061,48,0*50
$BDGSV,1,1,00,0*74

$GNRMC,083748.00,A,3128.000031,N,12110.783750,E,9.720,270.01,010720,,,A,V*01
$GNGGA,083748.00,3128.000031,N,12110.783750,E,1,08,1.00,-9.6,M,9.3,M,,*54
$GNGSA,A,3,04,05,09,12,17,15,26,27,,,,,2.49,1.00,2.28,1*0F
$GNGSA,A,3,,,,,,,,,,,,,2.49,1.00,2.28,4*02
$GPGSV,3,1,11,02,10,150,48,04,17,111,48,05,24,272,49,09
,51,328,49,0*63
$GPGSV,3,2,11,12,36,273,49,15,54,206,50,17,34,047,49,18,06,278,48,0*6C
$GPGSV,3,3,11,26,43,180,49,27,25,112,49,28,06,061,48,0*58
$BDGSV,1,1,00,0*74

$GNRMC,083749.00,A,3128.000031,N,12110.780594,E,9.721,270.01,010720,,,A,V*08
$GNGGA,083749.00,3128.000031,N,12110.780594,E,1,08,1.00,-9.6,M,9.3,M,,*5C
$GNGSA,A,3,04,05,09,12,17,15,26,27,,,,,2.49,1.00,2.28,1*0F
$GNGSA,A,3,,,,,,,,,,,,,2.49,1.00,2.28,4*02
$GPGSV,3,1,11,02,10,150,48,04,17,111,49,05,24,272,49,09
,51,328,50,0*6A
$GPGSV,3,2,11,12,36,273,49,15,54,206,50,17,34,047,49,18,06,278,48,0*6C
$GPGSV,3,3,11,26,43,180,49,27,25,112,49,28,06,061,48,0*58
$BDGSV,1,1,00,0*74

$GNRMC,083750.00,A,3128.000031,N,12110.777437,E,9.723,270.01,010720,,,A,V*02
$GNGGA,083750.00,3128.000031,N,12110.777437,E,1,08,1.00,-9.6,M,9.3,M,,*54
$GNGSA,A,3,04,05,09,12,17,15,26,27,,,,,2.49,1.00,2.29,1*0E
$GNGSA,A,3,,,,,,,,,,,,,2.49,1.00,2.29,4*03
$GPGSV,3,1,11,02,10,150,48,04,17,111,48,05,24,272,49,09
,51,328,50,0*6B
$GPGSV,3,2,11,12,36,273,49,15,54,206,50,17,34,047,49,18,06,278,48,0*6C
$GPGSV,3,3,11,26,43,180,49,27,25,112,49,28,06,061,48,0*58
$BDGSV,1,1,00,0*74

$GNRMC,083751.00,A,3128.000032,N,12110.774281,E,9.722,270.03,010720,,,A,V*0B
$GNGGA,083751.00,3128.000032,N,12110.774281,E,1,08,1.00,-9.6,M,9.3,M,,*5E
$GNGSA,A,3,04,05,09,12,17,15,26,27,,,,,2.49,1.00,2.29,1*0E
$GNGSA,A,3,,,,,,,,,,,,,2.49,1.00,2.29,4*03
$GPGSV,3,1,11,02,10,150,48,04,17,111,48,05,24,272,49,09
,51,328,50,0*6B
$GPGSV,3,2,11,12,36,273,49,15,54,206,50,17,34,047,49,18,06,278,48,0*6C
$GPGSV,3,3,11,26,43,180,49,27,25,112,49,28,06,061,48,0*58
$BDGSV,1,1,00,0*74

$GNRMC,083752.00,A,3128.000032,N,12110.771123,E,9.723,270.01,010720,,,A,V*05
$GNGGA,083752.00,3128.000032,N,12110.771123,E,1,08,1.00,-9.6,M,9.3,M,,*53
$GNGSA,A,3,04,05,09,12,17,15,26,27,,,,,2.49,1.00,2.29,1*0E
$GNGSA,A,3,,,,,,,,,,,,,2.49,1.00,2.29,4*03
$GPGSV,3,1,11,02,10,150,48,04,17,111,49,05,24,272,49,09
,51,328,49,0*62
$GPGSV,3,2,11,12,36,273,49,15,54,206,50,17,34,047,49,18,06,278,48,0*6C
$GPGSV,3,3,11,26,42,180,49,27,25,112,49,28,06,061,48,0*59
$BDGSV,1,1,00,0*74

$GNRMC,083753.00,A,3128.000031,N,12110.767965,E,9.727,270.01,010720,,,A,V*0E
$GNGGA,083753.00,3128.000031,N,12110.767965,E,1,08,1.00,-9.6,M,9.3,M,,*5C
$GNGSA,A,3,04,05,09,12,17,15,26,27,,,,,2.49,1.00,2.29,1*0E
$GNGSA,A,3,,,,,,,,,,,,,2.49,1.00,2.29,4*03
$GPGSV,3,1,11,02,10,150,48,04,17,111,48,05,24,272,49,09
,51,328,49,0*63
$GPGSV,3,2,11,12,36,273,49,15,54,206,50,17,34,047,49,18,06,278,48,0*6C
$GPGSV,3,3,11,26,42,180,49,27,25,113,49,28,06,061,48,0*58
$BDGSV,1,1,00,0*74

$GNRMC,083754.00,A,3128.000030,N,12110.764808,E,9.721,269.99,010720,,,A,V*0E
$GNGGA,083754.00,3128.000030,N,12110.764808,E,1,08,1.00,-9.6,M,9.3,M,,*53
$GNGSA,A,3,04,05,09,12,17,15,26,27,,,,,2.50,1.00,2.29,1*06
$GNGSA,A,3,,,,,,,,,,,,,2.50,1.00,2.29,4*0B
$GPGSV,3,1,11,02,10,150,48,04,17,111,48,05,24,272,49,09
,51,328,49,0*63
$GPGSV,3,2,11,12,36,273,49,15,54,206,50,17,34,047,49,18,06,278,48,0*6C
$GPGSV,3,3,11,26,42,180,49,27,25,113,49,28,06,061,48,0*58
$BDGSV,1,1,00,0*74

$GNRMC,083755.00,A,3128.000029,N,12110.761651,E,9.721,270.00,010720,,,A,V*08
$GNGGA,083755.00,3128.000029,N,12110.761651,E,1,08,1.00,-9.6,M,9.3,M,,*5D
$GNGSA,A,3,04,05,09,12,17,15,26,27,,,,,2.50,1.00,2.29,1*06
$GNGSA,A,3,,,,,,,,,,,,,2.50,1.00,2.29,4*0B
$GPGSV,3,1,11,02,10,150,48,04,17,111,48,05,24,272,49,09
,51,328,50,0*6B
$GPGSV,3,2,11,12,36,273,49,15,54,206,50,17,34,047,49,18,06,278,48,0*6C
$GPGSV,3,3,11,26,42,180,49,27,25,113,49,28,06,061,48,0*58
$BDGSV,1,1,00,0*74

<????sim??????(SIM??:1)>
<????GSM????????(GSM:0)>
<????GPRS????????(GPRS:0)>
<????????????(SIGNAL:0)>
<????????????????(BER:0)>

<??????????????>

$GNRMC,083756.00,A,3128.000030,N,12110.758494,E,9.718,270.04,010720,,,A,V*0C
$GNGGA,083756.00,3128.000030,N,12110.758494,E,1,08,1.00,-9.6,M,9.3,M,,*57
$GNGSA,A,3,04,05,09,12,17,15,26,27,,,,,2.50,1.00,2.29,1*06
$GNGSA,A,3,,,,,,,,,,,,,2.50,1.00,2.29,4*0B
$GPGSV,3,1,11,02,10,150,48,04,17,111,48,05,24,272,49,09
,51,328,49,0*63
$GPGSV,3,2,11,12,36,273,49,15,54,206,50,17,34,047,49,18,06,278,48,0*6C
$GPGSV,3,3,11,26,42,180,49,27,25,113,49,28,06,061,48,0*58
$BDGSV,1,1,00,0*74

$GNRMC,083757.00,A,3128.000030,N,12110.755336,E,9.721,270.02,010720,,,A,V*03
$GNGGA,083757.00,3128.000030,N,12110.755336,E,1,08,1.00,-9.6,M,9.3,M,,*54
$GNGSA,A,3,04,05,09,12,17,15,26,27,,,,,2.50,1.00,2.29,1*06
$GNGSA,A,3,,,,,,,,,,,,,2.50,1.00,2.29,4*0B
$GPGSV,3,1,11,02,10,150,48,04,17,111,49,05,24,272,49,09
,51,328,49,0*62
$GPGSV,3,2,11,12,36,273,49,15,54,206,50,17,34,047,49,18,06,278,48,0*6C
$GPGSV,3,3,11,26,42,180,49,27,25,113,49,28,06,061,48,0*58
$BDGSV,1,1,00,0*74

$GNRMC,083758.00,A,3128.000030,N,12110.752179,E,9.720,270.00,010720,,,A,V*01
$GNGGA,083758.00,3128.000030,N,12110.752179,E,1,08,1.00,-9.6,M,9.3,M,,*55
$GNGSA,A,3,04,05,09,12,17,15,26,27,,,,,2.50,1.00,2.29,1*06
$GNGSA,A,3,,,,,,,,,,,,,2.50,1.00,2.29,4*0B
$GPGSV,3,1,11,02,10,150,48,04,17,111,48,05,24,272,49,09
,51,328,49,0*63
$GPGSV,3,2,11,12,36,273,49,15,54,206,50,17,34,047,49,18,06,278,48,0*6C
$GPGSV,3,3,11,26,42,180,49,27,25,113,49,28,06,061,48,0*58
$BDGSV,1,1,00,0*74

$GNRMC,083759.00,A,3128.000029,N,12110.749023,E,9.721,270.00,010720,,,A,V*0D
$GNGGA,083759.00,3128.000029,N,12110.749023,E,1,08,1.00,-9.6,M,9.3,M,,*58
$GNGSA,A,3,04,05,09,12,17,15,26,27,,,,,2.50,1.00,2.29,1*06
$GNGSA,A,3,,,,,,,,,,,,,2.50,1.00,2.29,4*0B
$GPGSV,3,1,11,02,10,150,48,04,17,111,48,05,24,272,49,09
,51,328,49,0*63
$GPGSV,3,2,11,12,36,273,49,15,54,206,50,17,34,047,49,18,06,278,48,0*6C
$GPGSV,3,3,11,26,42,180,49,27,25,113,49,28,06,061,48,0*58
$BDGSV,1,1,00,0*74

$GNRMC,083800.00,A,3128.000029,N,12110.745868,E,9.717,270.00,010720,,,A,V*00
$GNGGA,083800.00,3128.000029,N,12110.745868,E,1,08,1.00,-9.6,M,9.3,M,,*50
$GNGSA,A,3,04,05,09,12,17,15,26,27,,,,,2.50,1.00,2.29,1*06
$GNGSA,A,3,,,,,,,,,,,,,2.50,1.00,2.29,4*0B
$GPGSV,3,1,11,02,10,150,48,04,17,111,48,05,24,272,49,09
,51,328,49,0*63
$GPGSV,3,2,11,12,36,273,49,15,54,206,50,17,34,047,49,18,06,278,48,0*6C
$GPGSV,3,3,11,26,42,180,49,27,25,113,49,28,06,061,48,0*58
$BDGSV,1,1,00,0*74

$GNRMC,083801.00,A,3128.000031,N,12110.742712,E,9.724,270.04,010720,,,A,V*09
$GNGGA,083801.00,3128.000031,N,12110.742712,E,1,08,1.00,-9.6,M,9.3,M,,*5D
$GNGSA,A,3,04,05,09,12,17,15,26,27,,,,,2.50,1.00,2.29,1*06
$GNGSA,A,3,,,,,,,,,,,,,2.50,1.00,2.29,4*0B
$GPGSV,3,1,11,02,10,150,48,04,17,111,48,05,24,272,49,09
,51,328,49,0*63
$GPGSV,3,2,11,12,36,273,49,15,54,206,50,17,34,047,49,18,06,278,48,0*6C
$GPGSV,3,3,11,26,42,180,49,27,25,113,49,28,06,061,48,0*58
$BDGSV,1,1,00,0*74

$GNRMC,083802.00,A,3128.000030,N,12110.739556,E,9.721,270.00,010720,,,A,V*04
$GNGGA,083802.00,3128.000030,N,12110.739556,E,1,08,1.00,-9.6,M,9.3,M,,*51
$GNGSA,A,3,04,05,09,12,17,15,26,27,,,,,2.50,1.00,2.29,1*06
$GNGSA,A,3,,,,,,,,,,,,,2.50,1.00,2.29,4*0B
$GPGSV,3,1,11,02,10,150,48,04,17,111,48,05,25,272,49,09
,51,328,49,0*62
$GPGSV,3,2,11,12,36,273,49,15,54,206,50,17,34,047,49,18,06,278,48,0*6C
$GPGSV,3,3,11,26,42,180,49,27,25,113,49,28,06,061,48,0*58
$BDGSV,1,1,00,0*74

$GNRMC,083803.00,A,3128.000030,N,12110.736400,E,9.723,270.01,010720,,,A,V*0B
$GNGGA,083803.00,3128.000030,N,12110.736400,E,1,08,1.00,-9.6,M,9.3,M,,*5D
$GNGSA,A,3,04,05,09,12,17,15,26,27,,,,,2.50,1.00,2.29,1*06
$GNGSA,A,3,,,,,,,,,,,,,2.50,1.00,2.29,4*0B
$GPGSV,3,1,11,02,10,150,48,04,17,111,48,05,25,272,49,09
,51,328,49,0*62
$GPGSV,3,2,11,12,36,273,49,15,54,206,50,17,34,047,49,18,06,278,48,0*6C
$GPGSV,3,3,11,26,42,180,49,27,25,113,49,28,06,061,48,0*58
$BDGSV,1,1,00,0*74

$GNRMC,083804.00,A,3128.000032,N,12110.733243,E,9.725,270.03,010720,,,A,V*0E
$GNGGA,083804.00,3128.000032,N,12110.733243,E,1,08,1.00,-9.6,M,9.3,M,,*5C
$GNGSA,A,3,04,05,09,12,17,15,26,27,,,,,2.50,1.00,2.29,1*06
$GNGSA,A,3,,,,,,,,,,,,,2.50,1.00,2.29,4*0B
$GPGSV,3,1,11,02,10,150,48,04,17,111,48,05,25,272,49,09
,51,328,50,0*6A
$GPGSV,3,2,11,12,36,273,49,15,54,206,50,17,34,047,49,18,06,278,48,0*6C
$GPGSV,3,3,11,26,42,180,49,27,25,113,49,28,06,061,48,0*58
$BDGSV,1,1,00,0*74


GPS HPregnss> E1 15 00 00 00 00 07 53 8F 3C C0 00 00 00 1C 36 D3 14 D7 00 00 00 00 


$GNRMC,083805.00,A,3128.000033,N,12110.730086,E,9.723,270.02,010720,,,A,V*01
$GNGGA,083805.00,3128.000033,N,12110.730086,E,1,08,1.00,-9.6,M,9.3,M,,*54
$GNGSA,A,3,04,05,09,12,17,15,26,27,,,,,2.50,1.00,2.29,1*06
$GNGSA,A,3,,,,,,,,,,,,,2.50,1.00,2.29,4*0B
$GPGSV,3,1,11,02,10,150,48,04,17,111,48,05,25,272,49,09
,51,328,50,0*6A
$GPGSV,3,2,11,12,36,273,49,15,54,206,50,17,34,047,49,18,06,278,48,0*6C
$GPGSV,3,3,11,26,42,180,49,27,25,113,49,28,06,061,48,0*58
$BDGSV,1,1,00,0*74

<??????????????>

$GNRMC,083806.00,A,3128.000033,N,12110.726928,E,9.719,269.99,010720,,,A,V*0B
$GNGGA,083806.00,3128.000033,N,12110.726928,E,1,08,1.00,-9.6,M,9.3,M,,*5D
$GNGSA,A,3,04,05,09,12,17,15,26,27,,,,,2.50,1.00,2.29,1*06
$GNGSA,A,3,,,,,,,,,,,,,2.50,1.00,2.29,4*0B
$GPGSV,3,1,11,02,10,150,48,04,17,111,48,05,25,272,49,09
,51,328,49,0*62
$GPGSV,3,2,11,12,36,273,49,15,54,206,50,17,34,047,49,18,06,278,48,0*6C
$GPGSV,3,3,11,26,42,180,49,27,25,113,49,28,06,061,48,0*58
$BDGSV,1,1,00,0*74

$GNRMC,083807.00,A,3128.000033,N,12110.723770,E,9.720,270.03,010720,,,A,V*0D
$GNGGA,083807.00,3128.000033,N,12110.723770,E,1,08,1.00,-9.7,M,9.3,M,,*5B
$GNGSA,A,3,04,05,09,12,17,15,26,27,,,,,2.50,1.00,2.29,1*06
$GNGSA,A,3,,,,,,,,,,,,,2.50,1.00,2.29,4*0B
$GPGSV,3,1,11,02,10,150,48,04,17,111,48,05,25,272,49,09
,51,328,49,0*62
$GPGSV,3,2,11,12,36,273,49,15,54,206,50,17,34,047,49,18,06,277,48,0*63
$GPGSV,3,3,11,26,42,180,49,27,25,113,49,28,06,061,48,0*58
$BDGSV,1,1,00,0*74

$GNRMC,083808.00,A,3128.000032,N,12110.720613,E,9.721,270.01,010720,,,A,V*07
$GNGGA,083808.00,3128.000032,N,12110.720613,E,1,08,1.00,-9.7,M,9.3,M,,*52
$GNGSA,A,3,04,05,09,12,17,15,26,27,,,,,2.50,1.00,2.30,1*0E
$GNGSA,A,3,,,,,,,,,,,,,2.50,1.00,2.30,4*03
$GPGSV,3,1,11,02,10,150,48,04,17,111,48,05,25,272,49,09
,51,328,49,0*62
$GPGSV,3,2,11,12,36,273,49,15,54,206,50,17,34,047,49,18,06,277,48,0*63
$GPGSV,3,3,11,26,42,180,49,27,25,113,49,28,06,061,48,0*58
$BDGSV,1,1,00,0*74

$GNRMC,083809.00,A,3128.000031,N,12110.717457,E,9.716,270.00,010720,,,A,V*06
$GNGGA,083809.00,3128.000031,N,12110.717457,E,1,08,1.00,-9.7,M,9.3,M,,*56
$GNGSA,A,3,04,05,09,12,17,15,26,27,,,,,2.50,1.00,2.30,1*0E
$GNGSA,A,3,,,,,,,,,,,,,2.50,1.00,2.30,4*03
$GPGSV,3,1,11,02,10,150,48,04,17,111,49,05,25,272,49,09
,51,328,49,0*63
$GPGSV,3,2,11,12,36,273,49,15,54,206,50,17,34,047,49,18,06,277,48,0*63
$GPGSV,3,3,11,26,42,180,49,27,25,113,49,28,06,061,48,0*58
$BDGSV,1,1,00,0*74

$GNRMC,083810.00,A,3128.000031,N,12110.714299,E,9.722,270.01,010720,,,A,V*0F
$GNGGA,083810.00,3128.000031,N,12110.714299,E,1,08,1.00,-9.7,M,9.3,M,,*59
$GNGSA,A,3,04,05,09,12,17,15,26,27,,,,,2.50,1.00,2.30,1*0E
$GNGSA,A,3,,,,,,,,,,,,,2.50,1.00,2.30,4*03
$GPGSV,3,1,11,02,10,150,48,04,17,111,49,05,25,272,49,09
,51,328,49,0*63
$GPGSV,3,2,11,12,36,273,49,15,54,206,50,17,34,047,49,18,06,277,48,0*63
$GPGSV,3,3,11,26,42,180,49,27,25,113,49,28,06,061,48,0*58
$BDGSV,1,1,00,0*74

$GNRMC,083811.00,A,3128.000032,N,12110.711143,E,9.721,270.01,010720,,,A,V*0F
$GNGGA,083811.00,3128.000032,N,12110.711143,E,1,08,1.00,-9.7,M,9.3,M,,*5A
$GNGSA,A,3,04,05,09,12,17,15,26,27,,,,,2.50,1.00,2.30,1*0E
$GNGSA,A,3,,,,,,,,,,,,,2.50,1.00,2.30,4*03
$GPGSV,3,1,11,02,10,150,48,04,17,111,48,05,25,272,49,09
,51,328,50,0*6A
$GPGSV,3,2,11,12,36,273,49,15,54,206,50,17,34,047,49,18,06,277,48,0*63
$GPGSV,3,3,11,26,42,180,49,27,25,113,49,28,06,061,48,0*58
$BDGSV,1,1,00,0*74

$GNRMC,083812.00,A,3128.000030,N,12110.707987,E,9.718,270.00,010720,,,A,V*02
$GNGGA,083812.00,3128.000030,N,12110.707987,E,1,08,1.00,-9.7,M,9.3,M,,*5C
$GNGSA,A,3,04,05,09,12,17,15,26,27,,,,,2.50,1.00,2.30,1*0E
$GNGSA,A,3,,,,,,,,,,,,,2.50,1.00,2.30,4*03
$GPGSV,3,1,11,02,10,150,48,04,17,111,48,05,25,272,49,09
,51,328,49,0*62
$GPGSV,3,2,11,12,36,273,49,15,54,206,50,17,34,047,49,18,06,277,48,0*63
$GPGSV,3,3,11,26,42,180,49,27,25,113,49,28,06,061,48,0*58
$BDGSV,1,1,00,0*74

$GNRMC,083813.00,A,3128.000029,N,12110.704830,E,9.724,270.01,010720,,,A,V*0B
$GNGGA,083813.00,3128.000029,N,12110.704830,E,1,08,1.00,-9.7,M,9.3,M,,*5B
$GNGSA,A,3,04,05,09,12,17,15,26,27,,,,,2.50,1.00,2.30,1*0E
$GNGSA,A,3,,,,,,,,,,,,,2.50,1.00,2.30,4*03
$GPGSV,3,1,11,02,11,150,48,04,17,111,48,05,25,272,49,09
,51,328,50,0*6B
$GPGSV,3,2,11,12,36,273,49,15,54,206,50,17,34,047,49,18,06,277,48,0*63
$GPGSV,3,3,11,26,42,180,49,27,25,113,49,28,06,061,48,0*58
$BDGSV,1,1,00,0*74

$GNRMC,083814.00,A,3128.000030,N,12110.701675,E,9.723,270.02,010720,,,A,V*0A
$GNGGA,083814.00,3128.000030,N,12110.701675,E,1,08,1.00,-9.6,M,9.3,M,,*5F
$GNGSA,A,3,04,05,09,12,17,15,26,27,,,,,2.51,1.00,2.30,1*0F
$GNGSA,A,3,,,,,,,,,,,,,2.51,1.00,2.30,4*02
$GPGSV,3,1,11,02,11,150,48,04,17,111,48,05,25,272,49,09
,51,328,50,0*6B
$GPGSV,3,2,11,12,36,273,49,15,54,206,50,17,34,047,49,18,06,277,48,0*63
$GPGSV,3,3,11,26,42,180,49,27,25,113,49,28,06,061,48,0*58
$BDGSV,1,1,00,0*74

$GNRMC,083815.00,A,3128.000029,N,12110.698517,E,9.724,270.01,010720,,,A,V*01
$GNGGA,083815.00,3128.000029,N,12110.698517,E,1,08,1.00,-9.7,M,9.3,M,,*51
$GNGSA,A,3,04,05,09,12,17,15,26,27,,,,,2.51,1.00,2.30,1*0F
$GNGSA,A,3,,,,,,,,,,,,,2.51,1.00,2.30,4*02
$GPGSV,3,1,11,02,11,150,48,04,17,111,48,05,25,272,49,09
,51,328,49,0*63
$GPGSV,3,2,11,12,36,273,49,15,54,206,50,17,34,047,49,18,06,277,48,0*63
$GPGSV,3,3,11,26,42,180,49,27,25,113,49,28,06,061,48,0*58
$BDGSV,1,1,00,0*74

<????sim??????(SIM??:1)>
<????GSM????????(GSM:0)>
<????GPRS????????(GPRS:0)>
<????????????(SIGNAL:0)>
<????????????????(BER:0)>

<??????????????>

$GNRMC,083816.00,A,3128.000029,N,12110.695361,E,9.719,270.01,010720,,,A,V*06
$GNGGA,083816.00,3128.000029,N,12110.695361,E,1,08,1.00,-9.7,M,9.3,M,,*58
$GNGSA,A,3,04,05,09,12,17,15,26,27,,,,,2.51,1.00,2.30,1*0F
$GNGSA,A,3,,,,,,,,,,,,,2.51,1.00,2.30,4*02
$GPGSV,3,1,11,02,11,150,48,04,17,111,48,05,25,272,49,09
,51,328,49,0*63
$GPGSV,3,2,11,12,36,273,49,15,54,206,50,17,34,047,49,18,06,277,48,0*63
$GPGSV,3,3,11,26,42,180,49,27,25,113,49,28,06,061,48,0*58
$BDGSV,1,1,00,0*74

$GNRMC,083817.00,A,3128.000029,N,12110.692204,E,9.719,270.01,010720,,,A,V*02
$GNGGA,083817.00,3128.000029,N,12110.692204,E,1,08,1.00,-9.7,M,9.3,M,,*5C
$GNGSA,A,3,04,05,09,12,17,15,26,27,,,,,2.51,1.00,2.30,1*0F
$GNGSA,A,3,,,,,,,,,,,,,2.51,1.00,2.30,4*02
$GPGSV,3,1,11,02,11,150,48,04,17,111,48,05,25,272,49,09
,51,328,49,0*63
$GPGSV,3,2,11,12,36,273,49,15,54,206,50,17,34,047,49,18,06,277,48,0*63
$GPGSV,3,3,11,26,42,180,49,27,25,113,49,28,06,061,48,0*58
$BDGSV,1,1,00,0*74

$GNRMC,083818.00,A,3128.000029,N,12110.689048,E,9.722,270.01,010720,,,A,V*05
$GNGGA,083818.00,3128.000029,N,12110.689048,E,1,08,1.00,-9.7,M,9.3,M,,*53
$GNGSA,A,3,04,05,09,12,17,15,26,27,,,,,2.51,1.00,2.30,1*0F
$GNGSA,A,3,,,,,,,,,,,,,2.51,1.00,2.30,4*02
$GPGSV,3,1,11,02,11,150,48,04,17,111,49,05,25,272,49,09
,51,328,49,0*62
$GPGSV,3,2,11,12,36,273,49,15,54,206,50,17,34,047,49,18,06,277,48,0*63
$GPGSV,3,3,11,26,42,180,49,27,25,113,49,28,06,061,48,0*58
$BDGSV,1,1,00,0*74

$GNRMC,083819.00,A,3128.000029,N,12110.685892,E,9.719,270.02,010720,,,A,V*0C
$GNGGA,083819.00,3128.000029,N,12110.685892,E,1,08,1.00,-9.6,M,9.3,M,,*50
$GNGSA,A,3,04,05,09,12,17,15,26,27,,,,,2.51,1.00,2.30,1*0F
$GNGSA,A,3,,,,,,,,,,,,,2.51,1.00,2.30,4*02
$GPGSV,3,1,11,02,11,150,48,04,17,111,49,05,25,272,49,09
,51,328,50,0*6A
$GPGSV,3,2,11,12,36,273,49,15,54,206,50,17,34,047,49,18,06,277,48,0*63
$GPGSV,3,3,11,26,42,180,49,27,25,113,49,28,06,061,48,0*58
$BDGSV,1,1,00,0*74

$GNRMC,083820.00,A,3128.000029,N,12110.682737,E,9.721,270.01,010720,,,A,V*09
$GNGGA,083820.00,3128.000029,N,12110.682737,E,1,08,1.00,-9.6,M,9.3,M,,*5D
$GNGSA,A,3,04,05,09,12,17,15,26,27,,,,,2.51,1.00,2.30,1*0F
$GNGSA,A,3,,,,,,,,,,,,,2.51,1.00,2.30,4*02
$GPGSV,3,1,11,02,11,150,48,04,17,111,49,05,25,272,49,09
,51,328,49,0*62
$GPGSV,3,2,11,12,36,273,49,15,54,206,50,17,34,047,49,18,06,277,48,0*63
$GPGSV,3,3,11,26,42,180,49,27,25,113,49,28,06,061,48,0*58
$BDGSV,1,1,00,0*74

$GNRMC,083821.00,A,3128.000028,N,12110.679581,E,9.720,270.01,010720,,,A,V*03
$GNGGA,083821.00,3128.000028,N,12110.679581,E,1,08,1.00,-9.6,M,9.3,M,,*56
$GNGSA,A,3,04,05,09,12,17,15,26,27,,,,,2.51,1.00,2.30,1*0F
$GNGSA,A,3,,,,,,,,,,,,,2.51,1.00,2.30,4*02
$GPGSV,3,1,11,02,11,150,48,04,17,111,48,05,25,272,49,09
,51,328,49,0*63
$GPGSV,3,2,11,12,36,273,49,15,54,206,50,17,34,047,49,18,06,277,48,0*63
$GPGSV,3,3,11,26,42,180,49,27,25,113,49,28,06,061,48,0*58
$BDGSV,1,1,00,0*74

$GNRMC,083822.00,A,3128.000028,N,12110.676425,E,9.719,270.01,010720,,,A,V*0A
$GNGGA,083822.00,3128.000028,N,12110.676425,E,1,08,1.00,-9.6,M,9.3,M,,*55
$GNGSA,A,3,04,05,09,12,17,15,26,27,,,,,2.51,1.00,2.30,1*0F
$GNGSA,A,3,,,,,,,,,,,,,2.51,1.00,2.30,4*02
$GPGSV,3,1,11,02,11,150,48,04,17,111,48,05,25,272,49,09
,51,328,49,0*63
$GPGSV,3,2,11,12,36,273,49,15,54,206,50,17,34,047,49,18,06,277,48,0*63
$GPGSV,3,3,11,26,42,180,49,27,25,113,49,28,06,061,48,0*58
$BDGSV,1,1,00,0*74

$GNRMC,083823.00,A,3128.000028,N,12110.673267,E,9.727,270.00,010720,,,A,V*02
$GNGGA,083823.00,3128.000028,N,12110.673267,E,1,08,1.00,-9.6,M,9.3,M,,*51
$GNGSA,A,3,04,05,09,12,17,15,26,27,,,,,2.51,1.00,2.30,1*0F
$GNGSA,A,3,,,,,,,,,,,,,2.51,1.00,2.30,4*02
$GPGSV,3,1,11,02,11,150,48,04,17,111,48,05,25,272,49,09
,51,328,49,0*63
$GPGSV,3,2,11,12,36,273,49,15,54,206,50,17,34,047,49,18,06,277,48,0*63
$GPGSV,3,3,11,26,42,180,49,27,25,113,49,28,06,061,48,0*58
$BDGSV,1,1,00,0*74

$GNRMC,083824.00,A,3128.000028,N,12110.670112,E,9.724,270.03,010720,,,A,V*07
$GNGGA,083824.00,3128.000028,N,12110.670112,E,1,08,1.00,-9.6,M,9.3,M,,*54
$GNGSA,A,3,04,05,09,12,17,15,26,27,,,,,2.51,1.00,2.30,1*0F
$GNGSA,A,3,,,,,,,,,,,,,2.51,1.00,2.30,4*02
$GPGSV,3,1,11,02,11,150,48,04,17,111,48,05,25,272,49,09
,51,328,49,0*63
$GPGSV,3,2,11,12,36,273,49,15,54,206,50,17,34,047,49,18,06,277,48,0*63
$GPGSV,3,3,11,26,42,180,49,27,25,113,49,28,06,061,48,0*58
$BDGSV,1,1,00,0*74

$GNRMC,083825.00,A,3128.000028,N,12110.666955,E,9.722,269.99,010720,,,A,V*07
$GNGGA,083825.00,3128.000028,N,12110.666955,E,1,08,1.00,-9.6,M,9.3,M,,*59
$GNGSA,A,3,04,05,09,12,17,15,26,27,,,,,2.51,1.00,2.30,1*0F
$GNGSA,A,3,,,,,,,,,,,,,2.51,1.00,2.30,4*02
$GPGSV,3,1,12,02,11,150,48,04,17,111,48,05,25,272,49,09
,51,328,49,0*60
$GPGSV,3,2,12,11,,,29,12,36,273,49,15,54,206,50,17,34,047,49,0*5A
$GPGSV,3,3,12,18,06,277,48,26,42,180,49,27,25,113,49,28,06,061,48,0*6A
$BDGSV,1,1,00,0*74

<??????????????>

$GNRMC,083826.00,A,3128.000030,N,12110.663799,E,9.719,270.03,010720,,,A,V*05
$GNGGA,083826.00,3128.000030,N,12110.663799,E,1,08,1.00,-9.6,M,9.3,M,,*58
$GNGSA,A,3,04,05,09,12,17,15,26,27,,,,,2.51,1.00,2.31,1*0E
$GNGSA,A,3,,,,,,,,,,,,,2.51,1.00,2.31,4*03
$GPGSV,3,1,11,02,11,150,48,04,17,111,48,05,25,272,49,09
,51,328,50,0*6B
$GPGSV,3,2,11,12,36,273,49,15,54,206,50,17,34,047,49,18,06,277,48,0*63
$GPGSV,3,3,11,26,42,180,49,27,25,113,49,28,06,061,48,0*58
$BDGSV,1,1,00,0*74

$GNRMC,083827.00,A,3128.000030,N,12110.660643,E,9.722,270.00,010720,,,A,V*0A
$GNGGA,083827.00,3128.000030,N,12110.660643,E,1,08,1.00,-9.6,M,9.3,M,,*5C
$GNGSA,A,3,04,05,09,12,17,15,26,27,,,,,2.51,1.00,2.31,1*0E
$GNGSA,A,3,,,,,,,,,,,,,2.51,1.00,2.31,4*03
$GPGSV,3,1,11,02,11,150,48,04,17,111,49,05,25,272,49,09
,51,328,50,0*6A
$GPGSV,3,2,11,12,36,273,49,15,54,206,50,17,34,047,49,18,06,277,48,0*63
$GPGSV,3,3,11,26,42,180,49,27,25,113,49,28,06,061,48,0*58
$BDGSV,1,1,00,0*74

$GNRMC,083828.00,A,3128.000030,N,12110.657485,E,9.722,270.01,010720,,,A,V*08
$GNGGA,083828.00,3128.000030,N,12110.657485,E,1,08,1.00,-9.6,M,9.3,M,,*5F
$GNGSA,A,3,04,05,09,12,17,15,26,27,,,,,2.51,1.00,2.31,1*0E
$GNGSA,A,3,,,,,,,,,,,,,2.51,1.00,2.31,4*03
$GPGSV,3,1,11,02,11,150,48,04,17,111,49,05,25,272,49,09
,51,328,50,0*6A
$GPGSV,3,2,11,12,36,273,49,15,54,206,50,17,34,047,49,18,06,277,48,0*63
$GPGSV,3,3,11,26,42,180,49,27,25,113,49,28,06,061,48,0*58
$BDGSV,1,1,00,0*74

$GNRMC,083829.00,A,3128.000030,N,12110.654328,E,9.722,270.01,010720,,,A,V*0A
$GNGGA,083829.00,3128.000030,N,12110.654328,E,1,08,1.00,-9.6,M,9.3,M,,*5D
$GNGSA,A,3,04,05,09,12,17,15,26,27,,,,,2.51,1.00,2.31,1*0E
$GNGSA,A,3,,,,,,,,,,,,,2.51,1.00,2.31,4*03
$GPGSV,3,1,11,02,11,150,48,04,17,111,48,05,25,272,49,09
,51,328,50,0*6B
$GPGSV,3,2,11,12,36,273,49,15,54,206,50,17,33,047,49,18,06,277,48,0*64
$GPGSV,3,3,11,26,42,180,49,27,25,113,49,28,06,061,48,0*58
$BDGSV,1,1,00,0*74

$GNRMC,083830.00,A,3128.000029,N,12110.651172,E,9.717,270.01,010720,,,A,V*04
$GNGGA,083830.00,3128.000029,N,12110.651172,E,1,08,1.00,-9.6,M,9.3,M,,*55
$GNGSA,A,3,04,05,09,12,17,15,26,27,,,,,2.51,1.00,2.31,1*0E
$GNGSA,A,3,,,,,,,,,,,,,2.51,1.00,2.31,4*03
$GPGSV,3,1,11,02,11,150,48,04,17,111,49,05,25,272,49,09
,51,328,50,0*6A
$GPGSV,3,2,11,12,36,273,49,15,54,206,50,17,33,047,49,18,05,277,48,0*67
$GPGSV,3,3,11,26,42,180,49,27,25,113,49,28,06,061,48,0*58
$BDGSV,1,1,00,0*74

$GNRMC,083831.00,A,3128.000029,N,12110.648015,E,9.719,270.02,010720,,,A,V*00
$GNGGA,083831.00,3128.000029,N,12110.648015,E,1,08,1.00,-9.6,M,9.3,M,,*5C
$GNGSA,A,3,04,05,09,12,17,15,26,27,,,,,2.51,1.00,2.31,1*0E
$GNGSA,A,3,,,,,,,,,,,,,2.51,1.00,2.31,4*03
$GPGSV,3,1,11,02,11,150,48,04,17,111,48,05,25,272,49,09
,51,328,49,0*63
