$GPGGA,085942,3128.00000,N,12118.00000,E,3,10,0.87,-10.54,M,10.54,M,,*62
$GPRMC,085942,A,3128.00000,N,12118.00000,E,9.719,270.000,130221,0.000,E,A,V*60
$GPGGA,085943,3128.00000,N,12117.99687,E,3,10,0.87,-10.54,M,10.54,M,,*65
$GPRMC,085943,A,3128.00000,N,12117.99687,E,9.558,270.000,130221,0.000,E,A,V*60
$GPGGA,085944,3128.00000,N,12117.99379,E,3,10,0.87,-10.54,M,10.54,M,,*66
$GPRMC,085944,A,3128.00000,N,12117.99379,E,9.396,270.000,130221,0.000,E,A,V*67
$GPGGA,085945,3128.00000,N,12117.99077,E,3,10,0.87,-10.54,M,10.54,M,,*6A
$GPRMC,085945,A,3128.00000,N,12117.99077,E,9.234,270.000,130221,0.000,E,A,V*62
$GPGGA,085946,3128.00000,N,12117.98779,E,3,10,0.87,-10.54,M,10.54,M,,*61
$GPRMC,085946,A,3128.00000,N,12117.98779,E,9.072,270.000,130221,0.000,E,A,V*69
$GPGGA,085947,3128.00000,N,12117.98487,E,3,10,0.87,-10.54,M,10.54,M,,*62
$GPRMC,085947,A,3128.00000,N,12117.98487,E,8.910,270.000,130221,0.000,E,A,V*66
$GPGGA,085948,3128.00000,N,12117.98201,E,3,10,0.87,-10.54,M,10.54,M,,*65
$GPRMC,085948,A,3128.00000,N,12117.98201,E,8.748,270.000,130221,0.000,E,A,V*62
$GPGGA,085949,3128.00000,N,12117.97919,E,3,10,0.87,-10.54,M,10.54,M,,*69
$GPRMC,085949,A,3128.00000,N,12117.97919,E,8.586,270.000,130221,0.000,E,A,V*6E
$GPGGA,085950,3128.00000,N,12117.97643,E,3,10,0.87,-10.54,M,10.54,M,,*61
$GPRMC,085950,A,3128.00000,N,12117.97643,E,8.424,270.000,130221,0.000,E,A,V*6F
$GPGGA,085951,3128.00000,N,12117.97372,E,3,10,0.87,-10.54,M,10.54,M,,*67
$GPRMC,085951,A,3128.00000,N,12117.97372,E,8.262,270.000,130221,0.000,E,A,V*6D
$GPGGA,085952,3128.00000,N,12117.97106,E,3,10,0.87,-10.54,M,10.54,M,,*65
$GPRMC,085952,A,3128.00000,N,12117.97106,E,8.100,270.000,130221,0.000,E,A,V*68
$GPGGA,085953,3128.00000,N,12117.96846,E,3,10,0.87,-10.54,M,10.54,M,,*68
$GPRMC,085953,A,3128.00000,N,12117.96846,E,7.938,270.000,130221,0.000,E,A,V*69
$GPGGA,085954,3128.00000,N,12117.96591,E,3,10,0.87,-10.54,M,10.54,M,,*68
$GPRMC,085954,A,3128.00000,N,12117.96591,E,7.776,270.000,130221,0.000,E,A,V*6D
$GPGGA,085955,3128.00000,N,12117.96341,E,3,10,0.87,-10.54,M,10.54,M,,*62
$GPRMC,085955,A,3128.00000,N,12117.96341,E,7.614,270.000,130221,0.000,E,A,V*62
$GPGGA,085956,3128.00000,N,12117.96096,E,3,10,0.87,-10.54,M,10.54,M,,*68
$GPRMC,085956,A,3128.00000,N,12117.96096,E,7.452,270.000,130221,0.000,E,A,V*68
$GPGGA,085957,3128.00000,N,12117.95857,E,3,10,0.87,-10.54,M,10.54,M,,*6F
$GPRMC,085957,A,3128.00000,N,12117.95857,E,7.290,270.000,130221,0.000,E,A,V*67
$GPGGA,085958,3128.00000,N,12117.95622,E,3,10,0.87,-10.54,M,10.54,M,,*6C
$GPRMC,085958,A,3128.00000,N,12117.95622,E,7.128,270.000,130221,0.000,E,A,V*64
$GPGGA,085959,3128.00000,N,12117.95394,E,3,10,0.87,-10.54,M,10.54,M,,*65
$GPRMC,085959,A,3128.00000,N,12117.95394,E,6.966,270.000,130221,0.000,E,A,V*6E
$GPGGA,090000,3128.00000,N,12117.95170,E,3,10,0.87,-10.54,M,10.54,M,,*6C
$GPRMC,090000,A,3128.00000,N,12117.95170,E,6.804,270.000,130221,0.000,E,A,V*62
$GPGGA,090001,3128.00000,N,12117.94952,E,3,10,0.87,-10.54,M,10.54,M,,*64
$GPRMC,090001,A,3128.00000,N,12117.94952,E,6.642,270.000,130221,0.000,E,A,V*66
$GPGGA,090002,3128.00000,N,12117.94738,E,3,10,0.87,-10.54,M,10.54,M,,*65
$GPRMC,090002,A,3128.00000,N,12117.94738,E,6.480,270.000,130221,0.000,E,A,V*6B
$GPGGA,090003,3128.00000,N,12117.94531,E,3,10,0.87,-10.54,M,10.54,M,,*6F
$GPRMC,090003,A,3128.00000,N,12117.94531,E,6.318,270.000,130221,0.000,E,A,V*67
$GPGGA,090004,3128.00000,N,12117.94328,E,3,10,0.87,-10.54,M,10.54,M,,*66
$GPRMC,090004,A,3128.00000,N,12117.94328,E,6.156,270.000,130221,0.000,E,A,V*66
$GPGGA,090005,3128.00000,N,12117.94131,E,3,10,0.87,-10.54,M,10.54,M,,*6D
$GPRMC,090005,A,3128.00000,N,12117.94131,E,5.994,270.000,130221,0.000,E,A,V*68
$GPGGA,090006,3128.00000,N,12117.93939,E,3,10,0.87,-10.54,M,10.54,M,,*69
$GPRMC,090006,A,3128.00000,N,12117.93939,E,5.832,270.000,130221,0.000,E,A,V*61
$GPGGA,090007,3128.00000,N,12117.93752,E,3,10,0.87,-10.54,M,10.54,M,,*6B
$GPRMC,090007,A,3128.00000,N,12117.93752,E,5.670,270.000,130221,0.000,E,A,V*6B
$GPGGA,090008,3128.00000,N,12117.93570,E,3,10,0.87,-10.54,M,10.54,M,,*66
$GPRMC,090008,A,3128.00000,N,12117.93570,E,5.508,270.000,130221,0.000,E,A,V*6A
$GPGGA,090009,3128.00000,N,12117.93394,E,3,10,0.87,-10.54,M,10.54,M,,*6B
$GPRMC,090009,A,3128.00000,N,12117.93394,E,5.346,270.000,130221,0.000,E,A,V*6B
$GPGGA,090010,3128.00000,N,12117.93223,E,3,10,0.87,-10.54,M,10.54,M,,*6E
$GPRMC,090010,A,3128.00000,N,12117.93223,E,5.184,270.000,130221,0.000,E,A,V*62
$GPGGA,090011,3128.00000,N,12117.93058,E,3,10,0.87,-10.54,M,10.54,M,,*61
$GPRMC,090011,A,3128.00000,N,12117.93058,E,5.022,270.000,130221,0.000,E,A,V*60
$GPGGA,090012,3128.00000,N,12117.92897,E,3,10,0.87,-10.54,M,10.54,M,,*68
$GPRMC,090012,A,3128.00000,N,12117.92897,E,4.860,270.000,130221,0.000,E,A,V*66
$GPGGA,090013,3128.00000,N,12117.92742,E,3,10,0.87,-10.54,M,10.54,M,,*6E
$GPRMC,090013,A,3128.00000,N,12117.92742,E,4.698,270.000,130221,0.000,E,A,V*69
$GPGGA,090014,3128.00000,N,12117.92592,E,3,10,0.87,-10.54,M,10.54,M,,*66
$GPRMC,090014,A,3128.00000,N,12117.92592,E,4.536,270.000,130221,0.000,E,A,V*66
$GPGGA,090015,3128.00000,N,12117.92447,E,3,10,0.87,-10.54,M,10.54,M,,*6E
$GPRMC,090015,A,3128.00000,N,12117.92447,E,4.374,270.000,130221,0.000,E,A,V*6E
$GPGGA,090016,3128.00000,N,12117.92308,E,3,10,0.87,-10.54,M,10.54,M,,*61
$GPRMC,090016,A,3128.00000,N,12117.92308,E,4.212,270.000,130221,0.000,E,A,V*60
$GPGGA,090017,3128.00000,N,12117.92174,E,3,10,0.87,-10.54,M,10.54,M,,*69
$GPRMC,090017,A,3128.00000,N,12117.92174,E,4.050,270.000,130221,0.000,E,A,V*6C
$GPGGA,090018,3128.00000,N,12117.92045,E,3,10,0.87,-10.54,M,10.54,M,,*65
$GPRMC,090018,A,3128.00000,N,12117.92045,E,3.888,270.000,130221,0.000,E,A,V*6A
$GPGGA,090019,3128.00000,N,12117.91921,E,3,10,0.87,-10.54,M,10.54,M,,*6C
$GPRMC,090019,A,3128.00000,N,12117.91921,E,3.726,270.000,130221,0.000,E,A,V*68
$GPGGA,090020,3128.00000,N,12117.91803,E,3,10,0.87,-10.54,M,10.54,M,,*67
$GPRMC,090020,A,3128.00000,N,12117.91803,E,3.563,270.000,130221,0.000,E,A,V*60
$GPGGA,090021,3128.00000,N,12117.91690,E,3,10,0.87,-10.54,M,10.54,M,,*62
$GPRMC,090021,A,3128.00000,N,12117.91690,E,3.401,270.000,130221,0.000,E,A,V*60
$GPGGA,090022,3128.00000,N,12117.91582,E,3,10,0.87,-10.54,M,10.54,M,,*61
$GPRMC,090022,A,3128.00000,N,12117.91582,E,3.239,270.000,130221,0.000,E,A,V*6E
$GPGGA,090023,3128.00000,N,12117.91479,E,3,10,0.87,-10.54,M,10.54,M,,*65
$GPRMC,090023,A,3128.00000,N,12117.91479,E,3.077,270.000,130221,0.000,E,A,V*62
$GPGGA,090024,3128.00000,N,12117.91382,E,3,10,0.87,-10.54,M,10.54,M,,*61
$GPRMC,090024,A,3128.00000,N,12117.91382,E,2.915,270.000,130221,0.000,E,A,V*6A
$GPGGA,090025,3128.00000,N,12117.91290,E,3,10,0.87,-10.54,M,10.54,M,,*62
$GPRMC,090025,A,3128.00000,N,12117.91290,E,2.753,270.000,130221,0.000,E,A,V*65
$GPGGA,090026,3128.00000,N,12117.91203,E,3,10,0.87,-10.54,M,10.54,M,,*6B
$GPRMC,090026,A,3128.00000,N,12117.91203,E,2.591,270.000,130221,0.000,E,A,V*60
$GPGGA,090027,3128.00000,N,12117.91121,E,3,10,0.87,-10.54,M,10.54,M,,*69
$GPRMC,090027,A,3128.00000,N,12117.91121,E,2.429,270.000,130221,0.000,E,A,V*60
$GPGGA,090028,3128.00000,N,12117.91045,E,3,10,0.87,-10.54,M,10.54,M,,*65
$GPRMC,090028,A,3128.00000,N,12117.91045,E,2.267,270.000,130221,0.000,E,A,V*60
$GPGGA,090029,3128.00000,N,12117.90974,E,3,10,0.87,-10.54,M,10.54,M,,*6E
$GPRMC,090029,A,3128.00000,N,12117.90974,E,2.105,270.000,130221,0.000,E,A,V*6C
$GPGGA,090030,3128.00000,N,12117.90908,E,3,10,0.87,-10.54,M,10.54,M,,*6D
$GPRMC,090030,A,3128.00000,N,12117.90908,E,1.943,270.000,130221,0.000,E,A,V*66
$GPGGA,090031,3128.00000,N,12117.90848,E,3,10,0.87,-10.54,M,10.54,M,,*69
$GPRMC,090031,A,3128.00000,N,12117.90848,E,1.781,270.000,130221,0.000,E,A,V*62
$GPGGA,090032,3128.00000,N,12117.90793,E,3,10,0.87,-10.54,M,10.54,M,,*63
$GPRMC,090032,A,3128.00000,N,12117.90793,E,1.619,270.000,130221,0.000,E,A,V*68
$GPGGA,090033,3128.00000,N,12117.90743,E,3,10,0.87,-10.54,M,10.54,M,,*6F
$GPRMC,090033,A,3128.00000,N,12117.90743,E,1.457,270.000,130221,0.000,E,A,V*6C
$GPGGA,090034,3128.00000,N,12117.90698,E,3,10,0.87,-10.54,M,10.54,M,,*6F
$GPRMC,090034,A,3128.00000,N,12117.90698,E,1.295,270.000,130221,0.000,E,A,V*64
$GPGGA,090035,3128.00000,N,12117.90659,E,3,10,0.87,-10.54,M,10.54,M,,*63
$GPRMC,090035,A,3128.00000,N,12117.90659,E,1.133,270.000,130221,0.000,E,A,V*67
$GPGGA,090036,3128.00000,N,12117.90624,E,3,10,0.87,-10.54,M,10.54,M,,*6A
$GPRMC,090036,A,3128.00000,N,12117.90624,E,0.971,270.000,130221,0.000,E,A,V*61
$GPGGA,090037,3128.00000,N,12117.90596,E,3,10,0.87,-10.54,M,10.54,M,,*61
$GPRMC,090037,A,3128.00000,N,12117.90596,E,0.809,270.000,130221,0.000,E,A,V*64
$GPGGA,090038,3128.00000,N,12117.90572,E,3,10,0.87,-10.54,M,10.54,M,,*64
$GPRMC,090038,A,3128.00000,N,12117.90572,E,0.647,270.000,130221,0.000,E,A,V*65
$GPGGA,090039,3128.00000,N,12117.90554,E,3,10,0.87,-10.54,M,10.54,M,,*61
$GPRMC,090039,A,3128.00000,N,12117.90554,E,0.485,270.000,130221,0.000,E,A,V*6C
$GPGGA,090040,3128.00000,N,12117.90540,E,3,10,0.87,-10.54,M,10.54,M,,*6A
$GPRMC,090040,A,3128.00000,N,12117.90540,E,0.323,270.000,130221,0.000,E,A,V*6C
$GPGGA,090041,3128.00000,N,12117.90533,E,3,10,0.87,-10.54,M,10.54,M,,*6F
$GPRMC,090041,A,3128.00000,N,12117.90533,E,0.161,270.000,130221,0.000,E,A,V*6D
$GPGGA,090042,3128.00000,N,12117.90530,E,3,10,0.87,-10.54,M,10.54,M,,*6F
$GPRMC,090042,A,3128.00000,N,12117.90530,E,0.000,270.000,130221,0.000,E,A,V*6B
$GPGGA,090043,3128.00000,N,12117.90409,E,3,10,0.87,-10.54,M,10.54,M,,*65
$GPRMC,090043,A,3128.00000,N,12117.90409,E,7.658,270.000,130221,0.000,E,A,V*6D
$GPGGA,090044,3128.00000,N,12117.90032,E,3,10,0.87,-10.54,M,10.54,M,,*6E
$GPRMC,090044,A,3128.00000,N,12117.90032,E,15.511,270.000,130221,0.000,E,A,V*5B
$GPGGA,090045,3128.00000,N,12117.89401,E,3,10,0.87,-10.54,M,10.54,M,,*63
$GPRMC,090045,A,3128.00000,N,12117.89401,E,23.365,270.000,130221,0.000,E,A,V*56
$GPGGA,090046,3128.00000,N,12117.88515,E,3,10,0.87,-10.54,M,10.54,M,,*65
$GPRMC,090046,A,3128.00000,N,12117.88515,E,31.219,270.000,130221,0.000,E,A,V*59
$GPGGA,090047,3128.00000,N,12117.87373,E,3,10,0.87,-10.54,M,10.54,M,,*6D
$GPRMC,090047,A,3128.00000,N,12117.87373,E,38.877,270.000,130221,0.000,E,A,V*5A
$GPGGA,090048,3128.00000,N,12117.86111,E,3,10,0.87,-10.53,M,10.53,M,,*65
$GPRMC,090048,A,3128.00000,N,12117.86111,E,38.877,270.000,130221,0.000,E,A,V*52
$GPGGA,090049,3128.00000,N,12117.84848,E,3,10,0.87,-10.53,M,10.53,M,,*63
$GPRMC,090049,A,3128.00000,N,12117.84848,E,38.877,270.000,130221,0.000,E,A,V*54
$GPGGA,090050,3128.00000,N,12117.83585,E,3,10,0.87,-10.53,M,10.53,M,,*60
$GPRMC,090050,A,3128.00000,N,12117.83585,E,38.877,270.000,130221,0.000,E,A,V*57
$GPGGA,090051,3128.00000,N,12117.82322,E,3,10,0.87,-10.53,M,10.53,M,,*6B
$GPRMC,090051,A,3128.00000,N,12117.82322,E,38.877,270.000,130221,0.000,E,A,V*5C
$GPGGA,090052,3128.00000,N,12117.81060,E,3,10,0.87,-10.53,M,10.53,M,,*6E
$GPRMC,090052,A,3128.00000,N,12117.81060,E,38.877,270.000,130221,0.000,E,A,V*59
$GPGGA,090053,3128.00000,N,12117.79797,E,3,10,0.87,-10.53,M,10.53,M,,*67
$GPRMC,090053,A,3128.00000,N,12117.79797,E,38.877,270.000,130221,0.000,E,A,V*50
$GPGGA,090054,3128.00000,N,12117.78534,E,3,10,0.87,-10.53,M,10.53,M,,*6A
$GPRMC,090054,A,3128.00000,N,12117.78534,E,38.877,270.000,130221,0.000,E,A,V*5D
$GPGGA,090055,3128.00000,N,12117.77272,E,3,10,0.87,-10.53,M,10.53,M,,*61
$GPRMC,090055,A,3128.00000,N,12117.77272,E,38.877,270.000,130221,0.000,E,A,V*56
$GPGGA,090056,3128.00000,N,12117.76009,E,3,10,0.87,-10.53,M,10.53,M,,*6D
$GPRMC,090056,A,3128.00000,N,12117.76009,E,38.877,270.000,130221,0.000,E,A,V*5A
$GPGGA,090057,3128.00000,N,12117.74746,E,3,10,0.87,-10.53,M,10.53,M,,*62
$GPRMC,090057,A,3128.00000,N,12117.74746,E,38.877,270.000,130221,0.000,E,A,V*55
$GPGGA,090058,3128.00000,N,12117.73484,E,3,10,0.87,-10.52,M,10.52,M,,*67
$GPRMC,090058,A,3128.00000,N,12117.73484,E,38.877,270.000,130221,0.000,E,A,V*50
$GPGGA,090059,3128.00000,N,12117.72221,E,3,10,0.87,-10.52,M,10.52,M,,*6E
$GPRMC,090059,A,3128.00000,N,12117.72221,E,38.877,270.000,130221,0.000,E,A,V*59
$GPGGA,090100,3128.00000,N,12117.70958,E,3,10,0.87,-10.52,M,10.52,M,,*64
$GPRMC,090100,A,3128.00000,N,12117.70958,E,38.877,270.000,130221,0.000,E,A,V*53
$GPGGA,090101,3128.00000,N,12117.69696,E,3,10,0.87,-10.52,M,10.52,M,,*60
$GPRMC,090101,A,3128.00000,N,12117.69696,E,38.877,270.000,130221,0.000,E,A,V*57
$GPGGA,090102,3128.00000,N,12117.68433,E,3,10,0.87,-10.52,M,10.52,M,,*6F
$GPRMC,090102,A,3128.00000,N,12117.68433,E,38.877,270.000,130221,0.000,E,A,V*58
$GPGGA,090103,3128.00000,N,12117.67170,E,3,10,0.87,-10.52,M,10.52,M,,*63
$GPRMC,090103,A,3128.00000,N,12117.67170,E,38.877,270.000,130221,0.000,E,A,V*54
$GPGGA,090104,3128.00000,N,12117.65908,E,3,10,0.88,-10.52,M,10.52,M,,*6E
$GPRMC,090104,A,3128.00000,N,12117.65908,E,38.877,270.000,130221,0.000,E,A,V*56
$GPGGA,090105,3128.00000,N,12117.64645,E,3,10,0.88,-10.52,M,10.52,M,,*68
$GPRMC,090105,A,3128.00000,N,12117.64645,E,38.877,270.000,130221,0.000,E,A,V*50
$GPGGA,090106,3128.00000,N,12117.63382,E,3,10,0.88,-10.52,M,10.52,M,,*62
$GPRMC,090106,A,3128.00000,N,12117.63382,E,38.877,270.000,130221,0.000,E,A,V*5A
$GPGGA,090107,3128.00000,N,12117.62120,E,3,10,0.88,-10.52,M,10.52,M,,*68
$GPRMC,090107,A,3128.00000,N,12117.62120,E,38.877,270.000,130221,0.000,E,A,V*50
$GPGGA,090108,3128.00000,N,12117.60857,E,3,10,0.88,-10.52,M,10.52,M,,*6C
$GPRMC,090108,A,3128.00000,N,12117.60857,E,38.877,270.000,130221,0.000,E,A,V*54
$GPGGA,090109,3128.00000,N,12117.59594,E,3,10,0.88,-10.51,M,10.51,M,,*65
$GPRMC,090109,A,3128.00000,N,12117.59594,E,38.877,270.000,130221,0.000,E,A,V*5D
$GPGGA,090110,3128.00000,N,12117.58332,E,3,10,0.88,-10.51,M,10.51,M,,*66
$GPRMC,090110,A,3128.00000,N,12117.58332,E,38.877,270.000,130221,0.000,E,A,V*5E
$GPGGA,090111,3128.00000,N,12117.57069,E,3,10,0.88,-10.51,M,10.51,M,,*65
$GPRMC,090111,A,3128.00000,N,12117.57069,E,38.877,270.000,130221,0.000,E,A,V*5D
$GPGGA,090112,3128.00000,N,12117.55806,E,3,10,0.88,-10.51,M,10.51,M,,*65
$GPRMC,090112,A,3128.00000,N,12117.55806,E,38.877,270.000,130221,0.000,E,A,V*5D
$GPGGA,090113,3128.00000,N,12117.54544,E,3,10,0.88,-10.51,M,10.51,M,,*6E
$GPRMC,090113,A,3128.00000,N,12117.54544,E,38.877,270.000,130221,0.000,E,A,V*56
$GPGGA,090114,3128.00000,N,12117.53281,E,3,10,0.88,-10.51,M,10.51,M,,*60
$GPRMC,090114,A,3128.00000,N,12117.53281,E,38.877,270.000,130221,0.000,E,A,V*58
$GPGGA,090115,3128.00000,N,12117.52018,E,3,10,0.88,-10.51,M,10.51,M,,*62
$GPRMC,090115,A,3128.00000,N,12117.52018,E,38.877,270.000,130221,0.000,E,A,V*5A
$GPGGA,090116,3128.00000,N,12117.50756,E,3,10,0.88,-10.51,M,10.51,M,,*6E
$GPRMC,090116,A,3128.00000,N,12117.50756,E,38.877,270.000,130221,0.000,E,A,V*56
$GPGGA,090117,3128.00000,N,12117.49493,E,3,10,0.88,-10.51,M,10.51,M,,*6D
$GPRMC,090117,A,3128.00000,N,12117.49493,E,38.877,270.000,130221,0.000,E,A,V*55
$GPGGA,090118,3128.00000,N,12117.48230,E,3,10,0.88,-10.51,M,10.51,M,,*6C
$GPRMC,090118,A,3128.00000,N,12117.48230,E,38.877,270.000,130221,0.000,E,A,V*54
$GPGGA,090119,3128.00000,N,12117.46967,E,3,10,0.88,-10.51,M,10.51,M,,*6A
$GPRMC,090119,A,3128.00000,N,12117.46967,E,38.877,270.000,130221,0.000,E,A,V*52
$GPGGA,090120,3128.00000,N,12117.45705,E,3,10,0.88,-10.50,M,10.50,M,,*69
$GPRMC,090120,A,3128.00000,N,12117.45705,E,38.877,270.000,130221,0.000,E,A,V*51
$GPGGA,090121,3128.00000,N,12117.44442,E,3,10,0.88,-10.50,M,10.50,M,,*69
$GPRMC,090121,A,3128.00000,N,12117.44442,E,38.877,270.000,130221,0.000,E,A,V*51
$GPGGA,090122,3128.00000,N,12117.43179,E,3,10,0.88,-10.50,M,10.50,M,,*60
$GPRMC,090122,A,3128.00000,N,12117.43179,E,38.877,270.000,130221,0.000,E,A,V*58
$GPGGA,090123,3128.00000,N,12117.41917,E,3,10,0.88,-10.50,M,10.50,M,,*63
$GPRMC,090123,A,3128.00000,N,12117.41917,E,38.877,270.000,130221,0.000,E,A,V*5B
$GPGGA,090124,3128.00000,N,12117.40654,E,3,10,0.88,-10.50,M,10.50,M,,*6D
$GPRMC,090124,A,3128.00000,N,12117.40654,E,38.877,270.000,130221,0.000,E,A,V*55
$GPGGA,090125,3128.00000,N,12117.39391,E,3,10,0.88,-10.50,M,10.50,M,,*6E
$GPRMC,090125,A,3128.00000,N,12117.39391,E,38.877,270.000,130221,0.000,E,A,V*56
$GPGGA,090126,3128.00000,N,12117.38129,E,3,10,0.88,-10.50,M,10.50,M,,*6D
$GPRMC,090126,A,3128.00000,N,12117.38129,E,38.877,270.000,130221,0.000,E,A,V*55
$GPGGA,090127,3128.00000,N,12117.36866,E,3,10,0.88,-10.50,M,10.50,M,,*60
$GPRMC,090127,A,3128.00000,N,12117.36866,E,38.877,270.000,130221,0.000,E,A,V*58
$GPGGA,090128,3128.00000,N,12117.35603,E,3,10,0.88,-10.50,M,10.50,M,,*61
$GPRMC,090128,A,3128.00000,N,12117.35603,E,38.877,270.000,130221,0.000,E,A,V*59
$GPGGA,090129,3128.00000,N,12117.34341,E,3,10,0.88,-10.50,M,10.50,M,,*62
$GPRMC,090129,A,3128.00000,N,12117.34341,E,38.877,270.000,130221,0.000,E,A,V*5A
$GPGGA,090130,3128.00000,N,12117.33078,E,3,10,0.88,-10.50,M,10.50,M,,*64
$GPRMC,090130,A,3128.00000,N,12117.33078,E,38.877,270.000,130221,0.000,E,A,V*5C
$GPGGA,090131,3128.00000,N,12117.31815,E,3,10,0.88,-10.49,M,10.49,M,,*64
$GPRMC,090131,A,3128.00000,N,12117.31815,E,38.877,270.000,130221,0.000,E,A,V*5C
$GPGGA,090132,3128.00000,N,12117.30553,E,3,10,0.88,-10.49,M,10.49,M,,*69
$GPRMC,090132,A,3128.00000,N,12117.30553,E,38.877,270.000,130221,0.000,E,A,V*51
$GPGGA,090133,3128.00000,N,12117.29290,E,3,10,0.88,-10.49,M,10.49,M,,*68
$GPRMC,090133,A,3128.00000,N,12117.29290,E,38.877,270.000,130221,0.000,E,A,V*50
$GPGGA,090134,3128.00000,N,12117.28027,E,3,10,0.88,-10.49,M,10.49,M,,*60
$GPRMC,090134,A,3128.00000,N,12117.28027,E,38.877,270.000,130221,0.000,E,A,V*58
$GPGGA,090135,3128.00000,N,12117.26765,E,3,10,0.88,-10.49,M,10.49,M,,*6E
$GPRMC,090135,A,3128.00000,N,12117.26765,E,38.877,270.000,130221,0.000,E,A,V*56
$GPGGA,090136,3128.00000,N,12117.25502,E,3,10,0.88,-10.49,M,10.49,M,,*6D
$GPRMC,090136,A,3128.00000,N,12117.25502,E,38.877,270.000,130221,0.000,E,A,V*55
$GPGGA,090137,3128.00000,N,12117.24239,E,3,10,0.88,-10.49,M,10.49,M,,*62
$GPRMC,090137,A,3128.00000,N,12117.24239,E,38.877,270.000,130221,0.000,E,A,V*5A
$GPGGA,090138,3128.00000,N,12117.22977,E,3,10,0.88,-10.49,M,10.49,M,,*6A
$GPRMC,090138,A,3128.00000,N,12117.22977,E,38.877,270.000,130221,0.000,E,A,V*52
$GPGGA,090139,3128.00000,N,12117.21714,E,3,10,0.88,-10.49,M,10.49,M,,*63
$GPRMC,090139,A,3128.00000,N,12117.21714,E,38.877,270.000,130221,0.000,E,A,V*5B
$GPGGA,090140,3128.00000,N,12117.20451,E,3,10,0.88,-10.49,M,10.49,M,,*6E
$GPRMC,090140,A,3128.00000,N,12117.20451,E,38.877,270.000,130221,0.000,E,A,V*56
$GPGGA,090141,3128.00000,N,12117.19189,E,3,10,0.88,-10.49,M,10.49,M,,*65
$GPRMC,090141,A,3128.00000,N,12117.19189,E,38.877,270.000,130221,0.000,E,A,V*5D
$GPGGA,090142,3128.00000,N,12117.17926,E,3,10,0.88,-10.48,M,10.48,M,,*65
$GPRMC,090142,A,3128.00000,N,12117.17926,E,38.877,270.000,130221,0.000,E,A,V*5D
$GPGGA,090143,3128.00000,N,12117.16663,E,3,10,0.88,-10.48,M,10.48,M,,*6B
$GPRMC,090143,A,3128.00000,N,12117.16663,E,38.877,270.000,130221,0.000,E,A,V*53
$GPGGA,090144,3128.00000,N,12117.15400,E,3,10,0.88,-10.48,M,10.48,M,,*68
$GPRMC,090144,A,3128.00000,N,12117.15400,E,38.877,270.000,130221,0.000,E,A,V*50
$GPGGA,090145,3128.00000,N,12117.14138,E,3,10,0.88,-10.48,M,10.48,M,,*66
$GPRMC,090145,A,3128.00000,N,12117.14138,E,38.877,270.000,130221,0.000,E,A,V*5E
$GPGGA,090146,3128.00000,N,12117.12875,E,3,10,0.88,-10.48,M,10.48,M,,*63
$GPRMC,090146,A,3128.00000,N,12117.12875,E,38.877,270.000,130221,0.000,E,A,V*5B
$GPGGA,090147,3128.00000,N,12117.11612,E,3,10,0.88,-10.48,M,10.48,M,,*6E
$GPRMC,090147,A,3128.00000,N,12117.11612,E,38.877,270.000,130221,0.000,E,A,V*56
$GPGGA,090148,3128.00000,N,12117.10350,E,3,10,0.88,-10.48,M,10.48,M,,*63
$GPRMC,090148,A,3128.00000,N,12117.10350,E,38.877,270.000,130221,0.000,E,A,V*5B
$GPGGA,090149,3128.00000,N,12117.09087,E,3,10,0.88,-10.48,M,10.48,M,,*63
$GPRMC,090149,A,3128.00000,N,12117.09087,E,38.877,270.000,130221,0.000,E,A,V*5B
$GPGGA,090150,3128.00000,N,12117.07824,E,3,10,0.88,-10.48,M,10.48,M,,*64
$GPRMC,090150,A,3128.00000,N,12117.07824,E,38.877,270.000,130221,0.000,E,A,V*5C
$GPGGA,090151,3128.00000,N,12117.06562,E,3,10,0.88,-10.48,M,10.48,M,,*6B
$GPRMC,090151,A,3128.00000,N,12117.06562,E,38.877,270.000,130221,0.000,E,A,V*53
$GPGGA,090152,3128.00000,N,12117.05299,E,3,10,0.88,-10.48,M,10.48,M,,*68
$GPRMC,090152,A,3128.00000,N,12117.05299,E,38.877,270.000,130221,0.000,E,A,V*50
$GPGGA,090153,3128.00000,N,12117.04036,E,3,10,0.88,-10.47,M,10.47,M,,*6F
$GPRMC,090153,A,3128.00000,N,12117.04036,E,38.877,270.000,130221,0.000,E,A,V*57
$GPGGA,090154,3128.00000,N,12117.02774,E,3,10,0.88,-10.47,M,10.47,M,,*6F
$GPRMC,090154,A,3128.00000,N,12117.02774,E,38.877,270.000,130221,0.000,E,A,V*57
$GPGGA,090155,3128.00000,N,12117.01511,E,3,10,0.88,-10.47,M,10.47,M,,*6C
$GPRMC,090155,A,3128.00000,N,12117.01511,E,38.877,270.000,130221,0.000,E,A,V*54
$GPGGA,090156,3128.00000,N,12117.00248,E,3,10,0.88,-10.47,M,10.47,M,,*65
$GPRMC,090156,A,3128.00000,N,12117.00248,E,38.877,270.000,130221,0.000,E,A,V*5D
$GPGGA,090157,3128.00000,N,12116.98986,E,3,10,0.88,-10.47,M,10.47,M,,*6D
$GPRMC,090157,A,3128.00000,N,12116.98986,E,38.877,270.000,130221,0.000,E,A,V*55
$GPGGA,090158,3128.00000,N,12116.97723,E,3,10,0.88,-10.47,M,10.47,M,,*6C
$GPRMC,090158,A,3128.00000,N,12116.97723,E,38.877,270.000,130221,0.000,E,A,V*54
$GPGGA,090159,3128.00000,N,12116.96460,E,3,10,0.88,-10.47,M,10.47,M,,*68
$GPRMC,090159,A,3128.00000,N,12116.96460,E,38.877,270.000,130221,0.000,E,A,V*50
$GPGGA,090200,3128.00000,N,12116.95198,E,3,10,0.88,-10.47,M,10.47,M,,*66
$GPRMC,090200,A,3128.00000,N,12116.95198,E,38.877,270.000,130221,0.000,E,A,V*5E
$GPGGA,090201,3128.00000,N,12116.93935,E,3,10,0.88,-10.47,M,10.47,M,,*6E
$GPRMC,090201,A,3128.00000,N,12116.93935,E,38.877,270.000,130221,0.000,E,A,V*56
$GPGGA,090202,3128.00000,N,12116.92672,E,3,10,0.88,-10.47,M,10.47,M,,*60
$GPRMC,090202,A,3128.00000,N,12116.92672,E,38.877,270.000,130221,0.000,E,A,V*58
$GPGGA,090203,3128.00000,N,12116.91410,E,3,10,0.88,-10.47,M,10.47,M,,*64
$GPRMC,090203,A,3128.00000,N,12116.91410,E,38.877,270.000,130221,0.000,E,A,V*5C
$GPGGA,090204,3128.00000,N,12116.90147,E,3,10,0.88,-10.46,M,10.46,M,,*65
$GPRMC,090204,A,3128.00000,N,12116.90147,E,38.877,270.000,130221,0.000,E,A,V*5D
$GPGGA,090205,3128.00000,N,12116.88884,E,3,10,0.88,-10.46,M,10.46,M,,*6B
$GPRMC,090205,A,3128.00000,N,12116.88884,E,38.877,270.000,130221,0.000,E,A,V*53
$GPGGA,090206,3128.00000,N,12116.87622,E,3,10,0.88,-10.46,M,10.46,M,,*65
$GPRMC,090206,A,3128.00000,N,12116.87622,E,38.877,270.000,130221,0.000,E,A,V*5D
$GPGGA,090207,3128.00000,N,12116.86359,E,3,10,0.88,-10.46,M,10.46,M,,*6C
$GPRMC,090207,A,3128.00000,N,12116.86359,E,38.877,270.000,130221,0.000,E,A,V*54
$GPGGA,090208,3128.00000,N,12116.85096,E,3,10,0.88,-10.46,M,10.46,M,,*60
$GPRMC,090208,A,3128.00000,N,12116.85096,E,38.877,270.000,130221,0.000,E,A,V*58
$GPGGA,090209,3128.00000,N,12116.83834,E,3,10,0.88,-10.46,M,10.46,M,,*67
$GPRMC,090209,A,3128.00000,N,12116.83834,E,38.877,270.000,130221,0.000,E,A,V*5F
$GPGGA,090210,3128.00000,N,12116.82571,E,3,10,0.88,-10.46,M,10.46,M,,*62
$GPRMC,090210,A,3128.00000,N,12116.82571,E,38.877,270.000,130221,0.000,E,A,V*5A
$GPGGA,090211,3128.00000,N,12116.81308,E,3,10,0.88,-10.46,M,10.46,M,,*68
$GPRMC,090211,A,3128.00000,N,12116.81308,E,38.877,270.000,130221,0.000,E,A,V*50
$GPGGA,090212,3128.00000,N,12116.80045,E,3,10,0.88,-10.46,M,10.46,M,,*60
$GPRMC,090212,A,3128.00000,N,12116.80045,E,38.877,270.000,130221,0.000,E,A,V*58
$GPGGA,090213,3128.00000,N,12116.78783,E,3,10,0.88,-10.46,M,10.46,M,,*6B
$GPRMC,090213,A,3128.00000,N,12116.78783,E,38.877,270.000,130221,0.000,E,A,V*53
$GPGGA,090214,3128.00000,N,12116.77520,E,3,10,0.88,-10.46,M,10.46,M,,*68
$GPRMC,090214,A,3128.00000,N,12116.77520,E,38.877,270.000,130221,0.000,E,A,V*50
$GPGGA,090215,3128.00000,N,12116.76257,E,3,10,0.88,-10.45,M,10.45,M,,*6F
$GPRMC,090215,A,3128.00000,N,12116.76257,E,38.877,270.000,130221,0.000,E,A,V*57
$GPGGA,090216,3128.00000,N,12116.74995,E,3,10,0.88,-10.45,M,10.45,M,,*6B
$GPRMC,090216,A,3128.00000,N,12116.74995,E,38.877,270.000,130221,0.000,E,A,V*53
$GPGGA,090217,3128.00000,N,12116.73732,E,3,10,0.88,-10.45,M,10.45,M,,*6E
$GPRMC,090217,A,3128.00000,N,12116.73732,E,38.877,270.000,130221,0.000,E,A,V*56
$GPGGA,090218,3128.00000,N,12116.72469,E,3,10,0.88,-10.45,M,10.45,M,,*6D
$GPRMC,090218,A,3128.00000,N,12116.72469,E,38.877,270.000,130221,0.000,E,A,V*55
$GPGGA,090219,3128.00000,N,12116.71207,E,3,10,0.88,-10.45,M,10.45,M,,*61
$GPRMC,090219,A,3128.00000,N,12116.71207,E,38.877,270.000,130221,0.000,E,A,V*59
$GPGGA,090220,3128.00000,N,12116.69944,E,3,10,0.88,-10.45,M,10.45,M,,*6E
$GPRMC,090220,A,3128.00000,N,12116.69944,E,38.877,270.000,130221,0.000,E,A,V*56
$GPGGA,090221,3128.00000,N,12116.68681,E,3,10,0.88,-10.45,M,10.45,M,,*68
$GPRMC,090221,A,3128.00000,N,12116.68681,E,38.877,270.000,130221,0.000,E,A,V*50
$GPGGA,090222,3128.00000,N,12116.67419,E,3,10,0.88,-10.45,M,10.45,M,,*67
$GPRMC,090222,A,3128.00000,N,12116.67419,E,38.877,270.000,130221,0.000,E,A,V*5F
$GPGGA,090223,3128.00000,N,12116.66156,E,3,10,0.88,-10.45,M,10.45,M,,*69
$GPRMC,090223,A,3128.00000,N,12116.66156,E,38.877,270.000,130221,0.000,E,A,V*51
$GPGGA,090224,3128.00000,N,12116.64893,E,3,10,0.88,-10.45,M,10.45,M,,*6C
$GPRMC,090224,A,3128.00000,N,12116.64893,E,38.877,270.000,130221,0.000,E,A,V*54
$GPGGA,090225,3128.00000,N,12116.63631,E,3,10,0.88,-10.45,M,10.45,M,,*6C
$GPRMC,090225,A,3128.00000,N,12116.63631,E,38.877,270.000,130221,0.000,E,A,V*54
$GPGGA,090226,3128.00000,N,12116.62368,E,3,10,0.88,-10.44,M,10.44,M,,*67
$GPRMC,090226,A,3128.00000,N,12116.62368,E,38.877,270.000,130221,0.000,E,A,V*5F
$GPGGA,090227,3128.00000,N,12116.61105,E,3,10,0.88,-10.44,M,10.44,M,,*6C
$GPRMC,090227,A,3128.00000,N,12116.61105,E,38.877,270.000,130221,0.000,E,A,V*54
$GPGGA,090228,3128.00000,N,12116.59843,E,3,10,0.88,-10.44,M,10.44,M,,*63
$GPRMC,090228,A,3128.00000,N,12116.59843,E,38.877,270.000,130221,0.000,E,A,V*5B
$GPGGA,090229,3128.00000,N,12116.58580,E,3,10,0.88,-10.44,M,10.44,M,,*61
$GPRMC,090229,A,3128.00000,N,12116.58580,E,38.877,270.000,130221,0.000,E,A,V*59
$GPGGA,090230,3128.00000,N,12116.57317,E,3,10,0.88,-10.44,M,10.44,M,,*6E
$GPRMC,090230,A,3128.00000,N,12116.57317,E,38.877,270.000,130221,0.000,E,A,V*56
$GPGGA,090231,3128.00000,N,12116.56055,E,3,10,0.88,-10.44,M,10.44,M,,*6B
$GPRMC,090231,A,3128.00000,N,12116.56055,E,38.877,270.000,130221,0.000,E,A,V*53
$GPGGA,090232,3128.00000,N,12116.54792,E,3,10,0.88,-10.44,M,10.44,M,,*66
$GPRMC,090232,A,3128.00000,N,12116.54792,E,38.877,270.000,130221,0.000,E,A,V*5E
$GPGGA,090233,3128.00000,N,12116.53529,E,3,10,0.88,-10.44,M,10.44,M,,*62
$GPRMC,090233,A,3128.00000,N,12116.53529,E,38.877,270.000,130221,0.000,E,A,V*5A
$GPGGA,090234,3128.00000,N,12116.52267,E,3,10,0.88,-10.44,M,10.44,M,,*69
$GPRMC,090234,A,3128.00000,N,12116.52267,E,38.877,270.000,130221,0.000,E,A,V*51
$GPGGA,090235,3128.00000,N,12116.51004,E,3,10,0.88,-10.44,M,10.44,M,,*6C
$GPRMC,090235,A,3128.00000,N,12116.51004,E,38.877,270.000,130221,0.000,E,A,V*54
$GPGGA,090236,3128.00000,N,12116.49741,E,3,10,0.88,-10.44,M,10.44,M,,*60
$GPRMC,090236,A,3128.00000,N,12116.49741,E,38.877,270.000,130221,0.000,E,A,V*58
$GPGGA,090237,3128.00000,N,12116.48478,E,3,10,0.88,-10.43,M,10.43,M,,*69
$GPRMC,090237,A,3128.00000,N,12116.48478,E,38.877,270.000,130221,0.000,E,A,V*51
$GPGGA,090238,3128.00000,N,12116.47216,E,3,10,0.88,-10.43,M,10.43,M,,*67
$GPRMC,090238,A,3128.00000,N,12116.47216,E,38.877,270.000,130221,0.000,E,A,V*5F
$GPGGA,090239,3128.00000,N,12116.45953,E,3,10,0.88,-10.43,M,10.43,M,,*6E
$GPRMC,090239,A,3128.00000,N,12116.45953,E,38.877,270.000,130221,0.000,E,A,V*56
$GPGGA,090240,3128.00000,N,12116.44690,E,3,10,0.88,-10.43,M,10.43,M,,*61
$GPRMC,090240,A,3128.00000,N,12116.44690,E,38.877,270.000,130221,0.000,E,A,V*59
$GPGGA,090241,3128.00000,N,12116.43428,E,3,10,0.88,-10.43,M,10.43,M,,*66
$GPRMC,090241,A,3128.00000,N,12116.43428,E,38.877,270.000,130221,0.000,E,A,V*5E
$GPGGA,090242,3128.00000,N,12116.42165,E,3,10,0.88,-10.43,M,10.43,M,,*68
$GPRMC,090242,A,3128.00000,N,12116.42165,E,38.877,270.000,130221,0.000,E,A,V*50
$GPGGA,090243,3128.00000,N,12116.40902,E,3,10,0.88,-10.43,M,10.43,M,,*62
$GPRMC,090243,A,3128.00000,N,12116.40902,E,38.877,270.000,130221,0.000,E,A,V*5A
$GPGGA,090244,3128.00000,N,12116.39640,E,3,10,0.88,-10.43,M,10.43,M,,*62
$GPRMC,090244,A,3128.00000,N,12116.39640,E,38.877,270.000,130221,0.000,E,A,V*5A
$GPGGA,090245,3128.00000,N,12116.38377,E,3,10,0.88,-10.43,M,10.43,M,,*63
$GPRMC,090245,A,3128.00000,N,12116.38377,E,38.877,270.000,130221,0.000,E,A,V*5B
$GPGGA,090246,3128.00000,N,12116.37114,E,3,10,0.88,-10.43,M,10.43,M,,*68
$GPRMC,090246,A,3128.00000,N,12116.37114,E,38.877,270.000,130221,0.000,E,A,V*50
$GPGGA,090247,3128.00000,N,12116.35852,E,3,10,0.88,-10.43,M,10.43,M,,*60
$GPRMC,090247,A,3128.00000,N,12116.35852,E,38.877,270.000,130221,0.000,E,A,V*58
$GPGGA,090248,3128.00000,N,12116.34589,E,3,10,0.88,-10.43,M,10.43,M,,*65
$GPRMC,090248,A,3128.00000,N,12116.34589,E,38.877,270.000,130221,0.000,E,A,V*5D
$GPGGA,090249,3128.00000,N,12116.33326,E,3,10,0.88,-10.42,M,10.42,M,,*60
$GPRMC,090249,A,3128.00000,N,12116.33326,E,38.877,270.000,130221,0.000,E,A,V*58
$GPGGA,090250,3128.00000,N,12116.32064,E,3,10,0.88,-10.42,M,10.42,M,,*6C
$GPRMC,090250,A,3128.00000,N,12116.32064,E,38.877,270.000,130221,0.000,E,A,V*54
$GPGGA,090251,3128.00000,N,12116.30801,E,3,10,0.88,-10.42,M,10.42,M,,*64
$GPRMC,090251,A,3128.00000,N,12116.30801,E,38.877,270.000,130221,0.000,E,A,V*5C
$GPGGA,090252,3128.00000,N,12116.29538,E,3,10,0.88,-10.42,M,10.42,M,,*68
$GPRMC,090252,A,3128.00000,N,12116.29538,E,38.877,270.000,130221,0.000,E,A,V*50
$GPGGA,090253,3128.00000,N,12116.28276,E,3,10,0.88,-10.42,M,10.42,M,,*65
$GPRMC,090253,A,3128.00000,N,12116.28276,E,38.877,270.000,130221,0.000,E,A,V*5D
$GPGGA,090254,3128.00000,N,12116.27013,E,3,10,0.88,-10.42,M,10.42,M,,*6C
$GPRMC,090254,A,3128.00000,N,12116.27013,E,38.877,270.000,130221,0.000,E,A,V*54
$GPGGA,090255,3128.00000,N,12116.25750,E,3,10,0.88,-10.42,M,10.42,M,,*6F
$GPRMC,090255,A,3128.00000,N,12116.25750,E,38.877,270.000,130221,0.000,E,A,V*57
$GPGGA,090256,3128.00000,N,12116.24488,E,3,10,0.88,-10.42,M,10.42,M,,*6B
$GPRMC,090256,A,3128.00000,N,12116.24488,E,38.877,270.000,130221,0.000,E,A,V*53
$GPGGA,090257,3128.00000,N,12116.23225,E,3,10,0.88,-10.42,M,10.42,M,,*6C
$GPRMC,090257,A,3128.00000,N,12116.23225,E,38.877,270.000,130221,0.000,E,A,V*54
$GPGGA,090258,3128.00000,N,12116.21962,E,3,10,0.88,-10.42,M,10.42,M,,*69
$GPRMC,090258,A,3128.00000,N,12116.21962,E,38.877,270.000,130221,0.000,E,A,V*51
$GPGGA,090259,3128.00000,N,12116.20700,E,3,10,0.88,-10.42,M,10.42,M,,*63
$GPRMC,090259,A,3128.00000,N,12116.20700,E,38.877,270.000,130221,0.000,E,A,V*5B
$GPGGA,090300,3128.00000,N,12116.19437,E,3,10,0.88,-10.41,M,10.41,M,,*63
$GPRMC,090300,A,3128.00000,N,12116.19437,E,38.877,270.000,130221,0.000,E,A,V*5B
$GPGGA,090301,3128.00000,N,12116.18174,E,3,10,0.88,-10.41,M,10.41,M,,*61
$GPRMC,090301,A,3128.00000,N,12116.18174,E,38.877,270.000,130221,0.000,E,A,V*59
$GPGGA,090302,3128.00000,N,12116.16912,E,3,10,0.88,-10.41,M,10.41,M,,*64
$GPRMC,090302,A,3128.00000,N,12116.16912,E,38.877,270.000,130221,0.000,E,A,V*5C
$GPGGA,090303,3128.00000,N,12116.15649,E,3,10,0.88,-10.41,M,10.41,M,,*67
$GPRMC,090303,A,3128.00000,N,12116.15649,E,38.877,270.000,130221,0.000,E,A,V*5F
$GPGGA,090304,3128.00000,N,12116.14386,E,3,10,0.88,-10.41,M,10.41,M,,*67
$GPRMC,090304,A,3128.00000,N,12116.14386,E,38.877,270.000,130221,0.000,E,A,V*5F
$GPGGA,090305,3128.00000,N,12116.13123,E,3,10,0.88,-10.41,M,10.41,M,,*6C
$GPRMC,090305,A,3128.00000,N,12116.13123,E,38.877,270.000,130221,0.000,E,A,V*54
$GPGGA,090306,3128.00000,N,12116.11861,E,3,10,0.88,-10.41,M,10.41,M,,*62
$GPRMC,090306,A,3128.00000,N,12116.11861,E,38.877,270.000,130221,0.000,E,A,V*5A
$GPGGA,090307,3128.00000,N,12116.10598,E,3,10,0.88,-10.41,M,10.41,M,,*69
$GPRMC,090307,A,3128.00000,N,12116.10598,E,38.877,270.000,130221,0.000,E,A,V*51
$GPGGA,090308,3128.00000,N,12116.09335,E,3,10,0.88,-10.41,M,10.41,M,,*6F
$GPRMC,090308,A,3128.00000,N,12116.09335,E,38.877,270.000,130221,0.000,E,A,V*57
$GPGGA,090309,3128.00000,N,12116.08073,E,3,10,0.88,-10.41,M,10.41,M,,*6E
$GPRMC,090309,A,3128.00000,N,12116.08073,E,38.877,270.000,130221,0.000,E,A,V*56
$GPGGA,090310,3128.00000,N,12116.06810,E,3,10,0.88,-10.41,M,10.41,M,,*65
$GPRMC,090310,A,3128.00000,N,12116.06810,E,38.877,270.000,130221,0.000,E,A,V*5D
$GPGGA,090311,3128.00000,N,12116.05547,E,3,10,0.88,-10.40,M,10.40,M,,*68
$GPRMC,090311,A,3128.00000,N,12116.05547,E,38.877,270.000,130221,0.000,E,A,V*50
$GPGGA,090312,3128.00000,N,12116.04285,E,3,10,0.88,-10.40,M,10.40,M,,*63
$GPRMC,090312,A,3128.00000,N,12116.04285,E,38.877,270.000,130221,0.000,E,A,V*5B
$GPGGA,090313,3128.00000,N,12116.03022,E,3,10,0.88,-10.40,M,10.40,M,,*6A
$GPRMC,090313,A,3128.00000,N,12116.03022,E,38.877,270.000,130221,0.000,E,A,V*52
$GPGGA,090314,3128.00000,N,12116.01759,E,3,10,0.88,-10.40,M,10.40,M,,*64
$GPRMC,090314,A,3128.00000,N,12116.01759,E,38.877,270.000,130221,0.000,E,A,V*5C
$GPGGA,090315,3128.00000,N,12116.00497,E,3,10,0.88,-10.40,M,10.40,M,,*65
$GPRMC,090315,A,3128.00000,N,12116.00497,E,38.877,270.000,130221,0.000,E,A,V*5D
$GPGGA,090316,3128.00000,N,12115.99234,E,3,10,0.88,-10.40,M,10.40,M,,*6A
$GPRMC,090316,A,3128.00000,N,12115.99234,E,38.877,270.000,130221,0.000,E,A,V*52
$GPGGA,090317,3128.00000,N,12115.97971,E,3,10,0.88,-10.40,M,10.40,M,,*6F
$GPRMC,090317,A,3128.00000,N,12115.97971,E,38.877,270.000,130221,0.000,E,A,V*57
$GPGGA,090318,3128.00000,N,12115.96709,E,3,10,0.88,-10.40,M,10.40,M,,*60
$GPRMC,090318,A,3128.00000,N,12115.96709,E,38.877,270.000,130221,0.000,E,A,V*58
$GPGGA,090319,3128.00000,N,12115.95446,E,3,10,0.88,-10.40,M,10.40,M,,*6A
$GPRMC,090319,A,3128.00000,N,12115.95446,E,38.877,270.000,130221,0.000,E,A,V*52
$GPGGA,090320,3128.00000,N,12115.94183,E,3,10,0.88,-10.40,M,10.40,M,,*6D
$GPRMC,090320,A,3128.00000,N,12115.94183,E,38.877,270.000,130221,0.000,E,A,V*55
$GPGGA,090321,3128.00000,N,12115.92921,E,3,10,0.88,-10.40,M,10.40,M,,*6A
$GPRMC,090321,A,3128.00000,N,12115.92921,E,38.877,270.000,130221,0.000,E,A,V*52
$GPGGA,090322,3128.00000,N,12115.91658,E,3,10,0.88,-10.40,M,10.40,M,,*6B
$GPRMC,090322,A,3128.00000,N,12115.91658,E,38.877,270.000,130221,0.000,E,A,V*53
$GPGGA,090323,3128.00000,N,12115.90395,E,3,10,0.88,-10.39,M,10.39,M,,*6F
$GPRMC,090323,A,3128.00000,N,12115.90395,E,38.877,270.000,130221,0.000,E,A,V*57
$GPGGA,090324,3128.00000,N,12115.89133,E,3,10,0.88,-10.39,M,10.39,M,,*6E
$GPRMC,090324,A,3128.00000,N,12115.89133,E,38.877,270.000,130221,0.000,E,A,V*56
$GPGGA,090325,3128.00000,N,12115.87870,E,3,10,0.88,-10.39,M,10.39,M,,*6F
$GPRMC,090325,A,3128.00000,N,12115.87870,E,38.877,270.000,130221,0.000,E,A,V*57
$GPGGA,090326,3128.00000,N,12115.86607,E,3,10,0.88,-10.39,M,10.39,M,,*63
$GPRMC,090326,A,3128.00000,N,12115.86607,E,38.877,270.000,130221,0.000,E,A,V*5B
$GPGGA,090327,3128.00000,N,12115.85345,E,3,10,0.88,-10.39,M,10.39,M,,*62
$GPRMC,090327,A,3128.00000,N,12115.85345,E,38.877,270.000,130221,0.000,E,A,V*5A
$GPGGA,090328,3128.00000,N,12115.84082,E,3,10,0.88,-10.39,M,10.39,M,,*64
$GPRMC,090328,A,3128.00000,N,12115.84082,E,38.877,270.000,130221,0.000,E,A,V*5C
$GPGGA,090329,3128.00000,N,12115.82819,E,3,10,0.88,-10.39,M,10.39,M,,*69
$GPRMC,090329,A,3128.00000,N,12115.82819,E,38.877,270.000,130221,0.000,E,A,V*51
$GPGGA,090330,3128.00000,N,12115.81556,E,3,10,0.88,-10.39,M,10.39,M,,*64
$GPRMC,090330,A,3128.00000,N,12115.81556,E,38.877,270.000,130221,0.000,E,A,V*5C
$GPGGA,090331,3128.00000,N,12115.80294,E,3,10,0.88,-10.39,M,10.39,M,,*6D
$GPRMC,090331,A,3128.00000,N,12115.80294,E,38.877,270.000,130221,0.000,E,A,V*55
$GPGGA,090332,3128.00000,N,12115.79031,E,3,10,0.88,-10.39,M,10.39,M,,*65
$GPRMC,090332,A,3128.00000,N,12115.79031,E,38.877,270.000,130221,0.000,E,A,V*5D
$GPGGA,090333,3128.00000,N,12115.77768,E,3,10,0.88,-10.39,M,10.39,M,,*61
$GPRMC,090333,A,3128.00000,N,12115.77768,E,38.877,270.000,130221,0.000,E,A,V*59
$GPGGA,090334,3128.00000,N,12115.76506,E,3,10,0.88,-10.38,M,10.38,M,,*6D
$GPRMC,090334,A,3128.00000,N,12115.76506,E,38.877,270.000,130221,0.000,E,A,V*55
$GPGGA,090335,3128.00000,N,12115.75243,E,3,10,0.88,-10.38,M,10.38,M,,*69
$GPRMC,090335,A,3128.00000,N,12115.75243,E,38.877,270.000,130221,0.000,E,A,V*51
$GPGGA,090336,3128.00000,N,12115.73980,E,3,10,0.88,-10.38,M,10.38,M,,*68
$GPRMC,090336,A,3128.00000,N,12115.73980,E,38.877,270.000,130221,0.000,E,A,V*50
$GPGGA,090337,3128.00000,N,12115.72718,E,3,10,0.88,-10.38,M,10.38,M,,*67
$GPRMC,090337,A,3128.00000,N,12115.72718,E,38.877,270.000,130221,0.000,E,A,V*5F
$GPGGA,090338,3128.00000,N,12115.71455,E,3,10,0.88,-10.38,M,10.38,M,,*61
$GPRMC,090338,A,3128.00000,N,12115.71455,E,38.877,270.000,130221,0.000,E,A,V*59
$GPGGA,090339,3128.00000,N,12115.70192,E,3,10,0.88,-10.38,M,10.38,M,,*6F
$GPRMC,090339,A,3128.00000,N,12115.70192,E,38.877,270.000,130221,0.000,E,A,V*57
$GPGGA,090340,3128.00000,N,12115.68930,E,3,10,0.88,-10.38,M,10.38,M,,*68
$GPRMC,090340,A,3128.00000,N,12115.68930,E,38.877,270.000,130221,0.000,E,A,V*50
$GPGGA,090341,3128.00000,N,12115.67667,E,3,10,0.88,-10.38,M,10.38,M,,*6B
$GPRMC,090341,A,3128.00000,N,12115.67667,E,38.877,270.000,130221,0.000,E,A,V*53
$GPGGA,090342,3128.00000,N,12115.66404,E,3,10,0.88,-10.38,M,10.38,M,,*6E
$GPRMC,090342,A,3128.00000,N,12115.66404,E,38.877,270.000,130221,0.000,E,A,V*56
$GPGGA,090343,3128.00000,N,12115.65142,E,3,10,0.88,-10.38,M,10.38,M,,*6B
$GPRMC,090343,A,3128.00000,N,12115.65142,E,38.877,270.000,130221,0.000,E,A,V*53
$GPGGA,090344,3128.00000,N,12115.63879,E,3,10,0.88,-10.38,M,10.38,M,,*6B
$GPRMC,090344,A,3128.00000,N,12115.63879,E,38.877,270.000,130221,0.000,E,A,V*53
$GPGGA,090345,3128.00000,N,12115.62616,E,3,10,0.88,-10.38,M,10.38,M,,*6C
$GPRMC,090345,A,3128.00000,N,12115.62616,E,38.877,270.000,130221,0.000,E,A,V*54
$GPGGA,090346,3128.00000,N,12115.61354,E,3,10,0.88,-10.37,M,10.37,M,,*6F
$GPRMC,090346,A,3128.00000,N,12115.61354,E,38.877,270.000,130221,0.000,E,A,V*57
$GPGGA,090347,3128.00000,N,12115.60091,E,3,10,0.88,-10.37,M,10.37,M,,*65
$GPRMC,090347,A,3128.00000,N,12115.60091,E,38.877,270.000,130221,0.000,E,A,V*5D
$GPGGA,090348,3128.00000,N,12115.58828,E,3,10,0.88,-10.37,M,10.37,M,,*6B
$GPRMC,090348,A,3128.00000,N,12115.58828,E,38.877,270.000,130221,0.000,E,A,V*53
$GPGGA,090349,3128.00000,N,12115.57566,E,3,10,0.88,-10.37,M,10.37,M,,*62
$GPRMC,090349,A,3128.00000,N,12115.57566,E,38.877,270.000,130221,0.000,E,A,V*5A
$GPGGA,090350,3128.00000,N,12115.56303,E,3,10,0.88,-10.37,M,10.37,M,,*6E
$GPRMC,090350,A,3128.00000,N,12115.56303,E,38.877,270.000,130221,0.000,E,A,V*56
$GPGGA,090351,3128.00000,N,12115.55040,E,3,10,0.88,-10.37,M,10.37,M,,*68
$GPRMC,090351,A,3128.00000,N,12115.55040,E,38.877,270.000,130221,0.000,E,A,V*50
$GPGGA,090352,3128.00000,N,12115.53778,E,3,10,0.88,-10.37,M,10.37,M,,*61
$GPRMC,090352,A,3128.00000,N,12115.53778,E,38.877,270.000,130221,0.000,E,A,V*59
$GPGGA,090353,3128.00000,N,12115.52515,E,3,10,0.88,-10.37,M,10.37,M,,*68
$GPRMC,090353,A,3128.00000,N,12115.52515,E,38.877,270.000,130221,0.000,E,A,V*50
$GPGGA,090354,3128.00000,N,12115.51252,E,3,10,0.88,-10.37,M,10.37,M,,*68
$GPRMC,090354,A,3128.00000,N,12115.51252,E,38.877,270.000,130221,0.000,E,A,V*50
$GPGGA,090355,3128.00000,N,12115.49990,E,3,10,0.88,-10.37,M,10.37,M,,*65
$GPRMC,090355,A,3128.00000,N,12115.49990,E,38.877,270.000,130221,0.000,E,A,V*5D
$GPGGA,090356,3128.00000,N,12115.48727,E,3,10,0.88,-10.37,M,10.37,M,,*65
$GPRMC,090356,A,3128.00000,N,12115.48727,E,38.877,270.000,130221,0.000,E,A,V*5D
$GPGGA,090357,3128.00000,N,12115.47464,E,3,10,0.88,-10.37,M,10.37,M,,*6F
$GPRMC,090357,A,3128.00000,N,12115.47464,E,38.877,270.000,130221,0.000,E,A,V*57
$GPGGA,090358,3128.00000,N,12115.46201,E,3,10,0.88,-10.36,M,10.36,M,,*64
$GPRMC,090358,A,3128.00000,N,12115.46201,E,38.877,270.000,130221,0.000,E,A,V*5C
$GPGGA,090359,3128.00000,N,12115.44939,E,3,10,0.88,-10.36,M,10.36,M,,*67
$GPRMC,090359,A,3128.00000,N,12115.44939,E,38.877,270.000,130221,0.000,E,A,V*5F
$GPGGA,090400,3128.00000,N,12115.43676,E,3,10,0.88,-10.36,M,10.36,M,,*6F
$GPRMC,090400,A,3128.00000,N,12115.43676,E,38.877,270.000,130221,0.000,E,A,V*57
$GPGGA,090401,3128.00000,N,12115.42413,E,3,10,0.88,-10.36,M,10.36,M,,*6E
$GPRMC,090401,A,3128.00000,N,12115.42413,E,38.877,270.000,130221,0.000,E,A,V*56
$GPGGA,090402,3128.00000,N,12115.41151,E,3,10,0.88,-10.36,M,10.36,M,,*6D
$GPRMC,090402,A,3128.00000,N,12115.41151,E,38.877,270.000,130221,0.000,E,A,V*55
$GPGGA,090403,3128.00000,N,12115.39888,E,3,10,0.88,-10.36,M,10.36,M,,*6E
$GPRMC,090403,A,3128.00000,N,12115.39888,E,38.877,270.000,130221,0.000,E,A,V*56
$GPGGA,090404,3128.00000,N,12115.38625,E,3,10,0.88,-10.36,M,10.36,M,,*61
$GPRMC,090404,A,3128.00000,N,12115.38625,E,38.877,270.000,130221,0.000,E,A,V*59
$GPGGA,090405,3128.00000,N,12115.37363,E,3,10,0.88,-10.36,M,10.36,M,,*68
$GPRMC,090405,A,3128.00000,N,12115.37363,E,38.877,270.000,130221,0.000,E,A,V*50
$GPGGA,090406,3128.00000,N,12115.36100,E,3,10,0.88,-10.36,M,10.36,M,,*6D
$GPRMC,090406,A,3128.00000,N,12115.36100,E,38.877,270.000,130221,0.000,E,A,V*55
$GPGGA,085942,3128.00000,N,12118.00000,E,3,10,0.87,-10.54,M,10.54,M,,*62
$GPRMC,085942,A,3128.00000,N,12118.00000,E,9.719,270.000,130221,0.000,E,A,V*60
$GPGGA,085943,3128.00000,N,12117.99687,E,3,10,0.87,-10.54,M,10.54,M,,*65
$GPRMC,085943,A,3128.00000,N,12117.99687,E,9.558,270.000,130221,0.000,E,A,V*60
$GPGGA,085944,3128.00000,N,12117.99379,E,3,10,0.87,-10.54,M,10.54,M,,*66
$GPRMC,085944,A,3128.00000,N,12117.99379,E,9.396,270.000,130221,0.000,E,A,V*67
$GPGGA,085945,3128.00000,N,12117.99077,E,3,10,0.87,-10.54,M,10.54,M,,*6A
$GPRMC,085945,A,3128.00000,N,12117.99077,E,9.234,270.000,130221,0.000,E,A,V*62
$GPGGA,085946,3128.00000,N,12117.98779,E,3,10,0.87,-10.54,M,10.54,M,,*61
$GPRMC,085946,A,3128.00000,N,12117.98779,E,9.072,270.000,130221,0.000,E,A,V*69
$GPGGA,085947,3128.00000,N,12117.98487,E,3,10,0.87,-10.54,M,10.54,M,,*62
$GPRMC,085947,A,3128.00000,N,12117.98487,E,8.910,270.000,130221,0.000,E,A,V*66
$GPGGA,085948,3128.00000,N,12117.98201,E,3,10,0.87,-10.54,M,10.54,M,,*65
$GPRMC,085948,A,3128.00000,N,12117.98201,E,8.748,270.000,130221,0.000,E,A,V*62
$GPGGA,085949,3128.00000,N,12117.97919,E,3,10,0.87,-10.54,M,10.54,M,,*69
$GPRMC,085949,A,3128.00000,N,12117.97919,E,8.586,270.000,130221,0.000,E,A,V*6E
$GPGGA,085950,3128.00000,N,12117.97643,E,3,10,0.87,-10.54,M,10.54,M,,*61
$GPRMC,085950,A,3128.00000,N,12117.97643,E,8.424,270.000,130221,0.000,E,A,V*6F
$GPGGA,085951,3128.00000,N,12117.97372,E,3,10,0.87,-10.54,M,10.54,M,,*67
$GPRMC,085951,A,3128.00000,N,12117.97372,E,8.262,270.000,130221,0.000,E,A,V*6D
$GPGGA,085952,3128.00000,N,12117.97106,E,3,10,0.87,-10.54,M,10.54,M,,*65
$GPRMC,085952,A,3128.00000,N,12117.97106,E,8.100,270.000,130221,0.000,E,A,V*68
$GPGGA,085953,3128.00000,N,12117.96846,E,3,10,0.87,-10.54,M,10.54,M,,*68
$GPRMC,085953,A,3128.00000,N,12117.96846,E,7.938,270.000,130221,0.000,E,A,V*69
$GPGGA,085954,3128.00000,N,12117.96591,E,3,10,0.87,-10.54,M,10.54,M,,*68
$GPRMC,085954,A,3128.00000,N,12117.96591,E,7.776,270.000,130221,0.000,E,A,V*6D
$GPGGA,085955,3128.00000,N,12117.96341,E,3,10,0.87,-10.54,M,10.54,M,,*62
$GPRMC,085955,A,3128.00000,N,12117.96341,E,7.614,270.000,130221,0.000,E,A,V*62
$GPGGA,085956,3128.00000,N,12117.96096,E,3,10,0.87,-10.54,M,10.54,M,,*68
$GPRMC,085956,A,3128.00000,N,12117.96096,E,7.452,270.000,130221,0.000,E,A,V*68
$GPGGA,085957,3128.00000,N,12117.95857,E,3,10,0.87,-10.54,M,10.54,M,,*6F
$GPRMC,085957,A,3128.00000,N,12117.95857,E,7.290,270.000,130221,0.000,E,A,V*67
$GPGGA,085958,3128.00000,N,12117.95622,E,3,10,0.87,-10.54,M,10.54,M,,*6C
$GPRMC,085958,A,3128.00000,N,12117.95622,E,7.128,270.000,130221,0.000,E,A,V*64
$GPGGA,085959,3128.00000,N,12117.95394,E,3,10,0.87,-10.54,M,10.54,M,,*65
$GPRMC,085959,A,3128.00000,N,12117.95394,E,6.966,270.000,130221,0.000,E,A,V*6E
$GPGGA,090000,3128.00000,N,12117.95170,E,3,10,0.87,-10.54,M,10.54,M,,*6C
$GPRMC,090000,A,3128.00000,N,12117.95170,E,6.804,270.000,130221,0.000,E,A,V*62
$GPGGA,090001,3128.00000,N,12117.94952,E,3,10,0.87,-10.54,M,10.54,M,,*64
$GPRMC,090001,A,3128.00000,N,12117.94952,E,6.642,270.000,130221,0.000,E,A,V*66
$GPGGA,090002,3128.00000,N,12117.94738,E,3,10,0.87,-10.54,M,10.54,M,,*65
$GPRMC,090002,A,3128.00000,N,12117.94738,E,6.480,270.000,130221,0.000,E,A,V*6B
$GPGGA,090003,3128.00000,N,12117.94531,E,3,10,0.87,-10.54,M,10.54,M,,*6F
$GPRMC,090003,A,3128.00000,N,12117.94531,E,6.318,270.000,130221,0.000,E,A,V*67
$GPGGA,090004,3128.00000,N,12117.94328,E,3,10,0.87,-10.54,M,10.54,M,,*66
$GPRMC,090004,A,3128.00000,N,12117.94328,E,6.156,270.000,130221,0.000,E,A,V*66
$GPGGA,090005,3128.00000,N,12117.94131,E,3,10,0.87,-10.54,M,10.54,M,,*6D
$GPRMC,090005,A,3128.00000,N,12117.94131,E,5.994,270.000,130221,0.000,E,A,V*68
$GPGGA,090006,3128.00000,N,12117.93939,E,3,10,0.87,-10.54,M,10.54,M,,*69
$GPRMC,090006,A,3128.00000,N,12117.93939,E,5.832,270.000,130221,0.000,E,A,V*61
$GPGGA,090007,3128.00000,N,12117.93752,E,3,10,0.87,-10.54,M,10.54,M,,*6B
$GPRMC,090007,A,3128.00000,N,12117.93752,E,5.670,270.000,130221,0.000,E,A,V*6B
$GPGGA,090008,3128.00000,N,12117.93570,E,3,10,0.87,-10.54,M,10.54,M,,*66
$GPRMC,090008,A,3128.00000,N,12117.93570,E,5.508,270.000,130221,0.000,E,A,V*6A
$GPGGA,090009,3128.00000,N,12117.93394,E,3,10,0.87,-10.54,M,10.54,M,,*6B
$GPRMC,090009,A,3128.00000,N,12117.93394,E,5.346,270.000,130221,0.000,E,A,V*6B
$GPGGA,090010,3128.00000,N,12117.93223,E,3,10,0.87,-10.54,M,10.54,M,,*6E
$GPRMC,090010,A,3128.00000,N,12117.93223,E,5.184,270.000,130221,0.000,E,A,V*62
$GPGGA,090011,3128.00000,N,12117.93058,E,3,10,0.87,-10.54,M,10.54,M,,*61
$GPRMC,090011,A,3128.00000,N,12117.93058,E,5.022,270.000,130221,0.000,E,A,V*60
$GPGGA,090012,3128.00000,N,12117.92897,E,3,10,0.87,-10.54,M,10.54,M,,*68
$GPRMC,090012,A,3128.00000,N,12117.92897,E,4.860,270.000,130221,0.000,E,A,V*66
$GPGGA,090013,3128.00000,N,12117.92742,E,3,10,0.87,-10.54,M,10.54,M,,*6E
$GPRMC,090013,A,3128.00000,N,12117.92742,E,4.698,270.000,130221,0.000,E,A,V*69
$GPGGA,090014,3128.00000,N,12117.92592,E,3,10,0.87,-10.54,M,10.54,M,,*66
$GPRMC,090014,A,3128.00000,N,12117.92592,E,4.536,270.000,130221,0.000,E,A,V*66
$GPGGA,090015,3128.00000,N,12117.92447,E,3,10,0.87,-10.54,M,10.54,M,,*6E
$GPRMC,090015,A,3128.00000,N,12117.92447,E,4.374,270.000,130221,0.000,E,A,V*6E
$GPGGA,090016,3128.00000,N,12117.92308,E,3,10,0.87,-10.54,M,10.54,M,,*61
$GPRMC,090016,A,3128.00000,N,12117.92308,E,4.212,270.000,130221,0.000,E,A,V*60
$GPGGA,090017,3128.00000,N,12117.92174,E,3,10,0.87,-10.54,M,10.54,M,,*69
$GPRMC,090017,A,3128.00000,N,12117.92174,E,4.050,270.000,130221,0.000,E,A,V*6C
$GPGGA,090018,3128.00000,N,12117.92045,E,3,10,0.87,-10.54,M,10.54,M,,*65
$GPRMC,090018,A,3128.00000,N,12117.92045,E,3.888,270.000,130221,0.000,E,A,V*6A
$GPGGA,090019,3128.00000,N,12117.91921,E,3,10,0.87,-10.54,M,10.54,M,,*6C
$GPRMC,090019,A,3128.00000,N,12117.91921,E,3.726,270.000,130221,0.000,E,A,V*68
$GPGGA,090020,3128.00000,N,12117.91803,E,3,10,0.87,-10.54,M,10.54,M,,*67
$GPRMC,090020,A,3128.00000,N,12117.91803,E,3.563,270.000,130221,0.000,E,A,V*60
$GPGGA,090021,3128.00000,N,12117.91690,E,3,10,0.87,-10.54,M,10.54,M,,*62
$GPRMC,090021,A,3128.00000,N,12117.91690,E,3.401,270.000,130221,0.000,E,A,V*60
$GPGGA,090022,3128.00000,N,12117.91582,E,3,10,0.87,-10.54,M,10.54,M,,*61
$GPRMC,090022,A,3128.00000,N,12117.91582,E,3.239,270.000,130221,0.000,E,A,V*6E
$GPGGA,090023,3128.00000,N,12117.91479,E,3,10,0.87,-10.54,M,10.54,M,,*65
$GPRMC,090023,A,3128.00000,N,12117.91479,E,3.077,270.000,130221,0.000,E,A,V*62
$GPGGA,090024,3128.00000,N,12117.91382,E,3,10,0.87,-10.54,M,10.54,M,,*61
$GPRMC,090024,A,3128.00000,N,12117.91382,E,2.915,270.000,130221,0.000,E,A,V*6A
$GPGGA,090025,3128.00000,N,12117.91290,E,3,10,0.87,-10.54,M,10.54,M,,*62
$GPRMC,090025,A,3128.00000,N,12117.91290,E,2.753,270.000,130221,0.000,E,A,V*65
$GPGGA,090026,3128.00000,N,12117.91203,E,3,10,0.87,-10.54,M,10.54,M,,*6B
$GPRMC,090026,A,3128.00000,N,12117.91203,E,2.591,270.000,130221,0.000,E,A,V*60
$GPGGA,090027,3128.00000,N,12117.91121,E,3,10,0.87,-10.54,M,10.54,M,,*69
$GPRMC,090027,A,3128.00000,N,12117.91121,E,2.429,270.000,130221,0.000,E,A,V*60
$GPGGA,090028,3128.00000,N,12117.91045,E,3,10,0.87,-10.54,M,10.54,M,,*65
$GPRMC,090028,A,3128.00000,N,12117.91045,E,2.267,270.000,130221,0.000,E,A,V*60
$GPGGA,090029,3128.00000,N,12117.90974,E,3,10,0.87,-10.54,M,10.54,M,,*6E
$GPRMC,090029,A,3128.00000,N,12117.90974,E,2.105,270.000,130221,0.000,E,A,V*6C
$GPGGA,090030,3128.00000,N,12117.90908,E,3,10,0.87,-10.54,M,10.54,M,,*6D
$GPRMC,090030,A,3128.00000,N,12117.90908,E,1.943,270.000,130221,0.000,E,A,V*66
$GPGGA,090031,3128.00000,N,12117.90848,E,3,10,0.87,-10.54,M,10.54,M,,*69
$GPRMC,090031,A,3128.00000,N,12117.90848,E,1.781,270.000,130221,0.000,E,A,V*62
$GPGGA,090032,3128.00000,N,12117.90793,E,3,10,0.87,-10.54,M,10.54,M,,*63
$GPRMC,090032,A,3128.00000,N,12117.90793,E,1.619,270.000,130221,0.000,E,A,V*68
$GPGGA,090033,3128.00000,N,12117.90743,E,3,10,0.87,-10.54,M,10.54,M,,*6F
$GPRMC,090033,A,3128.00000,N,12117.90743,E,1.457,270.000,130221,0.000,E,A,V*6C
$GPGGA,090034,3128.00000,N,12117.90698,E,3,10,0.87,-10.54,M,10.54,M,,*6F
$GPRMC,090034,A,3128.00000,N,12117.90698,E,1.295,270.000,130221,0.000,E,A,V*64
$GPGGA,090035,3128.00000,N,12117.90659,E,3,10,0.87,-10.54,M,10.54,M,,*63
$GPRMC,090035,A,3128.00000,N,12117.90659,E,1.133,270.000,130221,0.000,E,A,V*67
$GPGGA,090036,3128.00000,N,12117.90624,E,3,10,0.87,-10.54,M,10.54,M,,*6A
$GPRMC,090036,A,3128.00000,N,12117.90624,E,0.971,270.000,130221,0.000,E,A,V*61
$GPGGA,090037,3128.00000,N,12117.90596,E,3,10,0.87,-10.54,M,10.54,M,,*61
$GPRMC,090037,A,3128.00000,N,12117.90596,E,0.809,270.000,130221,0.000,E,A,V*64
$GPGGA,090038,3128.00000,N,12117.90572,E,3,10,0.87,-10.54,M,10.54,M,,*64
$GPRMC,090038,A,3128.00000,N,12117.90572,E,0.647,270.000,130221,0.000,E,A,V*65
$GPGGA,090039,3128.00000,N,12117.90554,E,3,10,0.87,-10.54,M,10.54,M,,*61
$GPRMC,090039,A,3128.00000,N,12117.90554,E,0.485,270.000,130221,0.000,E,A,V*6C
$GPGGA,090040,3128.00000,N,12117.90540,E,3,10,0.87,-10.54,M,10.54,M,,*6A
$GPRMC,090040,A,3128.00000,N,12117.90540,E,0.323,270.000,130221,0.000,E,A,V*6C
$GPGGA,090041,3128.00000,N,12117.90533,E,3,10,0.87,-10.54,M,10.54,M,,*6F
$GPRMC,090041,A,3128.00000,N,12117.90533,E,0.161,270.000,130221,0.000,E,A,V*6D
$GPGGA,090042,3128.00000,N,12117.90530,E,3,10,0.87,-10.54,M,10.54,M,,*6F
$GPRMC,090042,A,3128.00000,N,12117.90530,E,0.000,270.000,130221,0.000,E,A,V*6B
$GPGGA,090043,3128.00000,N,12117.90409,E,3,10,0.87,-10.54,M,10.54,M,,*65
$GPRMC,090043,A,3128.00000,N,12117.90409,E,7.658,270.000,130221,0.000,E,A,V*6D
$GPGGA,090044,3128.00000,N,12117.90032,E,3,10,0.87,-10.54,M,10.54,M,,*6E
$GPRMC,090044,A,3128.00000,N,12117.90032,E,15.511,270.000,130221,0.000,E,A,V*5B
$GPGGA,090045,3128.00000,N,12117.89401,E,3,10,0.87,-10.54,M,10.54,M,,*63
$GPRMC,090045,A,3128.00000,N,12117.89401,E,23.365,270.000,130221,0.000,E,A,V*56
$GPGGA,090046,3128.00000,N,12117.88515,E,3,10,0.87,-10.54,M,10.54,M,,*65
$GPRMC,090046,A,3128.00000,N,12117.88515,E,31.219,270.000,130221,0.000,E,A,V*59
$GPGGA,090047,3128.00000,N,12117.87373,E,3,10,0.87,-10.54,M,10.54,M,,*6D
$GPRMC,090047,A,3128.00000,N,12117.87373,E,38.877,270.000,130221,0.000,E,A,V*5A
$GPGGA,090048,3128.00000,N,12117.86111,E,3,10,0.87,-10.53,M,10.53,M,,*65
$GPRMC,090048,A,3128.00000,N,12117.86111,E,38.877,270.000,130221,0.000,E,A,V*52
$GPGGA,090049,3128.00000,N,12117.84848,E,3,10,0.87,-10.53,M,10.53,M,,*63
$GPRMC,090049,A,3128.00000,N,12117.84848,E,38.877,270.000,130221,0.000,E,A,V*54
$GPGGA,090050,3128.00000,N,12117.83585,E,3,10,0.87,-10.53,M,10.53,M,,*60
$GPRMC,090050,A,3128.00000,N,12117.83585,E,38.877,270.000,130221,0.000,E,A,V*57
$GPGGA,090051,3128.00000,N,12117.82322,E,3,10,0.87,-10.53,M,10.53,M,,*6B
$GPRMC,090051,A,3128.00000,N,12117.82322,E,38.877,270.000,130221,0.000,E,A,V*5C
$GPGGA,090052,3128.00000,N,12117.81060,E,3,10,0.87,-10.53,M,10.53,M,,*6E
$GPRMC,090052,A,3128.00000,N,12117.81060,E,38.877,270.000,130221,0.000,E,A,V*59
$GPGGA,090053,3128.00000,N,12117.79797,E,3,10,0.87,-10.53,M,10.53,M,,*67
$GPRMC,090053,A,3128.00000,N,12117.79797,E,38.877,270.000,130221,0.000,E,A,V*50
$GPGGA,090054,3128.00000,N,12117.78534,E,3,10,0.87,-10.53,M,10.53,M,,*6A
$GPRMC,090054,A,3128.00000,N,12117.78534,E,38.877,270.000,130221,0.000,E,A,V*5D
$GPGGA,090055,3128.00000,N,12117.77272,E,3,10,0.87,-10.53,M,10.53,M,,*61
$GPRMC,090055,A,3128.00000,N,12117.77272,E,38.877,270.000,130221,0.000,E,A,V*56
$GPGGA,090056,3128.00000,N,12117.76009,E,3,10,0.87,-10.53,M,10.53,M,,*6D
$GPRMC,090056,A,3128.00000,N,12117.76009,E,38.877,270.000,130221,0.000,E,A,V*5A
$GPGGA,090057,3128.00000,N,12117.74746,E,3,10,0.87,-10.53,M,10.53,M,,*62
$GPRMC,090057,A,3128.00000,N,12117.74746,E,38.877,270.000,130221,0.000,E,A,V*55
$GPGGA,090058,3128.00000,N,12117.73484,E,3,10,0.87,-10.52,M,10.52,M,,*67
$GPRMC,090058,A,3128.00000,N,12117.73484,E,38.877,270.000,130221,0.000,E,A,V*50
$GPGGA,090059,3128.00000,N,12117.72221,E,3,10,0.87,-10.52,M,10.52,M,,*6E
$GPRMC,090059,A,3128.00000,N,12117.72221,E,38.877,270.000,130221,0.000,E,A,V*59
$GPGGA,090100,3128.00000,N,12117.70958,E,3,10,0.87,-10.52,M,10.52,M,,*64
$GPRMC,090100,A,3128.00000,N,12117.70958,E,38.877,270.000,130221,0.000,E,A,V*53
$GPGGA,090101,3128.00000,N,12117.69696,E,3,10,0.87,-10.52,M,10.52,M,,*60
$GPRMC,090101,A,3128.00000,N,12117.69696,E,38.877,270.000,130221,0.000,E,A,V*57
$GPGGA,090102,3128.00000,N,12117.68433,E,3,10,0.87,-10.52,M,10.52,M,,*6F
$GPRMC,090102,A,3128.00000,N,12117.68433,E,38.877,270.000,130221,0.000,E,A,V*58
$GPGGA,090103,3128.00000,N,12117.67170,E,3,10,0.87,-10.52,M,10.52,M,,*63
$GPRMC,090103,A,3128.00000,N,12117.67170,E,38.877,270.000,130221,0.000,E,A,V*54
$GPGGA,090104,3128.00000,N,12117.65908,E,3,10,0.88,-10.52,M,10.52,M,,*6E
$GPRMC,090104,A,3128.00000,N,12117.65908,E,38.877,270.000,130221,0.000,E,A,V*56
$GPGGA,090105,3128.00000,N,12117.64645,E,3,10,0.88,-10.52,M,10.52,M,,*68
$GPRMC,090105,A,3128.00000,N,12117.64645,E,38.877,270.000,130221,0.000,E,A,V*50
$GPGGA,090106,3128.00000,N,12117.63382,E,3,10,0.88,-10.52,M,10.52,M,,*62
$GPRMC,090106,A,3128.00000,N,12117.63382,E,38.877,270.000,130221,0.000,E,A,V*5A
$GPGGA,090107,3128.00000,N,12117.62120,E,3,10,0.88,-10.52,M,10.52,M,,*68
$GPRMC,090107,A,3128.00000,N,12117.62120,E,38.877,270.000,130221,0.000,E,A,V*50
$GPGGA,090108,3128.00000,N,12117.60857,E,3,10,0.88,-10.52,M,10.52,M,,*6C
$GPRMC,090108,A,3128.00000,N,12117.60857,E,38.877,270.000,130221,0.000,E,A,V*54
$GPGGA,090109,3128.00000,N,12117.59594,E,3,10,0.88,-10.51,M,10.51,M,,*65
$GPRMC,090109,A,3128.00000,N,12117.59594,E,38.877,270.000,130221,0.000,E,A,V*5D
$GPGGA,090110,3128.00000,N,12117.58332,E,3,10,0.88,-10.51,M,10.51,M,,*66
$GPRMC,090110,A,3128.00000,N,12117.58332,E,38.877,270.000,130221,0.000,E,A,V*5E
$GPGGA,090111,3128.00000,N,12117.57069,E,3,10,0.88,-10.51,M,10.51,M,,*65
$GPRMC,090111,A,3128.00000,N,12117.57069,E,38.877,270.000,130221,0.000,E,A,V*5D
$GPGGA,090112,3128.00000,N,12117.55806,E,3,10,0.88,-10.51,M,10.51,M,,*65
$GPRMC,090112,A,3128.00000,N,12117.55806,E,38.877,270.000,130221,0.000,E,A,V*5D
$GPGGA,090113,3128.00000,N,12117.54544,E,3,10,0.88,-10.51,M,10.51,M,,*6E
$GPRMC,090113,A,3128.00000,N,12117.54544,E,38.877,270.000,130221,0.000,E,A,V*56
$GPGGA,090114,3128.00000,N,12117.53281,E,3,10,0.88,-10.51,M,10.51,M,,*60
$GPRMC,090114,A,3128.00000,N,12117.53281,E,38.877,270.000,130221,0.000,E,A,V*58
$GPGGA,090115,3128.00000,N,12117.52018,E,3,10,0.88,-10.51,M,10.51,M,,*62
$GPRMC,090115,A,3128.00000,N,12117.52018,E,38.877,270.000,130221,0.000,E,A,V*5A
$GPGGA,090116,3128.00000,N,12117.50756,E,3,10,0.88,-10.51,M,10.51,M,,*6E
$GPRMC,090116,A,3128.00000,N,12117.50756,E,38.877,270.000,130221,0.000,E,A,V*56
$GPGGA,090117,3128.00000,N,12117.49493,E,3,10,0.88,-10.51,M,10.51,M,,*6D
$GPRMC,090117,A,3128.00000,N,12117.49493,E,38.877,270.000,130221,0.000,E,A,V*55
$GPGGA,090118,3128.00000,N,12117.48230,E,3,10,0.88,-10.51,M,10.51,M,,*6C
$GPRMC,090118,A,3128.00000,N,12117.48230,E,38.877,270.000,130221,0.000,E,A,V*54
$GPGGA,090119,3128.00000,N,12117.46967,E,3,10,0.88,-10.51,M,10.51,M,,*6A
$GPRMC,090119,A,3128.00000,N,12117.46967,E,38.877,270.000,130221,0.000,E,A,V*52
$GPGGA,090120,3128.00000,N,12117.45705,E,3,10,0.88,-10.50,M,10.50,M,,*69
$GPRMC,090120,A,3128.00000,N,12117.45705,E,38.877,270.000,130221,0.000,E,A,V*51
$GPGGA,090121,3128.00000,N,12117.44442,E,3,10,0.88,-10.50,M,10.50,M,,*69
$GPRMC,090121,A,3128.00000,N,12117.44442,E,38.877,270.000,130221,0.000,E,A,V*51
$GPGGA,090122,3128.00000,N,12117.43179,E,3,10,0.88,-10.50,M,10.50,M,,*60
$GPRMC,090122,A,3128.00000,N,12117.43179,E,38.877,270.000,130221,0.000,E,A,V*58
$GPGGA,090123,3128.00000,N,12117.41917,E,3,10,0.88,-10.50,M,10.50,M,,*63
$GPRMC,090123,A,3128.00000,N,12117.41917,E,38.877,270.000,130221,0.000,E,A,V*5B
$GPGGA,090124,3128.00000,N,12117.40654,E,3,10,0.88,-10.50,M,10.50,M,,*6D
$GPRMC,090124,A,3128.00000,N,12117.40654,E,38.877,270.000,130221,0.000,E,A,V*55
$GPGGA,090125,3128.00000,N,12117.39391,E,3,10,0.88,-10.50,M,10.50,M,,*6E
$GPRMC,090125,A,3128.00000,N,12117.39391,E,38.877,270.000,130221,0.000,E,A,V*56
$GPGGA,090126,3128.00000,N,12117.38129,E,3,10,0.88,-10.50,M,10.50,M,,*6D
$GPRMC,090126,A,3128.00000,N,12117.38129,E,38.877,270.000,130221,0.000,E,A,V*55
$GPGGA,090127,3128.00000,N,12117.36866,E,3,10,0.88,-10.50,M,10.50,M,,*60
$GPRMC,090127,A,3128.00000,N,12117.36866,E,38.877,270.000,130221,0.000,E,A,V*58
$GPGGA,090128,3128.00000,N,12117.35603,E,3,10,0.88,-10.50,M,10.50,M,,*61
$GPRMC,090128,A,3128.00000,N,12117.35603,E,38.877,270.000,130221,0.000,E,A,V*59
$GPGGA,090129,3128.00000,N,12117.34341,E,3,10,0.88,-10.50,M,10.50,M,,*62
$GPRMC,090129,A,3128.00000,N,12117.34341,E,38.877,270.000,130221,0.000,E,A,V*5A
$GPGGA,090130,3128.00000,N,12117.33078,E,3,10,0.88,-10.50,M,10.50,M,,*64
$GPRMC,090130,A,3128.00000,N,12117.33078,E,38.877,270.000,130221,0.000,E,A,V*5C
$GPGGA,090131,3128.00000,N,12117.31815,E,3,10,0.88,-10.49,M,10.49,M,,*64
$GPRMC,090131,A,3128.00000,N,12117.31815,E,38.877,270.000,130221,0.000,E,A,V*5C
$GPGGA,090132,3128.00000,N,12117.30553,E,3,10,0.88,-10.49,M,10.49,M,,*69
$GPRMC,090132,A,3128.00000,N,12117.30553,E,38.877,270.000,130221,0.000,E,A,V*51
$GPGGA,090133,3128.00000,N,12117.29290,E,3,10,0.88,-10.49,M,10.49,M,,*68
$GPRMC,090133,A,3128.00000,N,12117.29290,E,38.877,270.000,130221,0.000,E,A,V*50
$GPGGA,090134,3128.00000,N,12117.28027,E,3,10,0.88,-10.49,M,10.49,M,,*60
$GPRMC,090134,A,3128.00000,N,12117.28027,E,38.877,270.000,130221,0.000,E,A,V*58
$GPGGA,090135,3128.00000,N,12117.26765,E,3,10,0.88,-10.49,M,10.49,M,,*6E
$GPRMC,090135,A,3128.00000,N,12117.26765,E,38.877,270.000,130221,0.000,E,A,V*56
$GPGGA,090136,3128.00000,N,12117.25502,E,3,10,0.88,-10.49,M,10.49,M,,*6D
$GPRMC,090136,A,3128.00000,N,12117.25502,E,38.877,270.000,130221,0.000,E,A,V*55
$GPGGA,090137,3128.00000,N,12117.24239,E,3,10,0.88,-10.49,M,10.49,M,,*62
$GPRMC,090137,A,3128.00000,N,12117.24239,E,38.877,270.000,130221,0.000,E,A,V*5A
$GPGGA,090138,3128.00000,N,12117.22977,E,3,10,0.88,-10.49,M,10.49,M,,*6A
$GPRMC,090138,A,3128.00000,N,12117.22977,E,38.877,270.000,130221,0.000,E,A,V*52
$GPGGA,090139,3128.00000,N,12117.21714,E,3,10,0.88,-10.49,M,10.49,M,,*63
$GPRMC,090139,A,3128.00000,N,12117.21714,E,38.877,270.000,130221,0.000,E,A,V*5B
$GPGGA,090140,3128.00000,N,12117.20451,E,3,10,0.88,-10.49,M,10.49,M,,*6E
$GPRMC,090140,A,3128.00000,N,12117.20451,E,38.877,270.000,130221,0.000,E,A,V*56
$GPGGA,090141,3128.00000,N,12117.19189,E,3,10,0.88,-10.49,M,10.49,M,,*65
$GPRMC,090141,A,3128.00000,N,12117.19189,E,38.877,270.000,130221,0.000,E,A,V*5D
$GPGGA,090142,3128.00000,N,12117.17926,E,3,10,0.88,-10.48,M,10.48,M,,*65
$GPRMC,090142,A,3128.00000,N,12117.17926,E,38.877,270.000,130221,0.000,E,A,V*5D
$GPGGA,090143,3128.00000,N,12117.16663,E,3,10,0.88,-10.48,M,10.48,M,,*6B
$GPRMC,090143,A,3128.00000,N,12117.16663,E,38.877,270.000,130221,0.000,E,A,V*53
$GPGGA,090144,3128.00000,N,12117.15400,E,3,10,0.88,-10.48,M,10.48,M,,*68
$GPRMC,090144,A,3128.00000,N,12117.15400,E,38.877,270.000,130221,0.000,E,A,V*50
$GPGGA,090145,3128.00000,N,12117.14138,E,3,10,0.88,-10.48,M,10.48,M,,*66
$GPRMC,090145,A,3128.00000,N,12117.14138,E,38.877,270.000,130221,0.000,E,A,V*5E
$GPGGA,090146,3128.00000,N,12117.12875,E,3,10,0.88,-10.48,M,10.48,M,,*63
$GPRMC,090146,A,3128.00000,N,12117.12875,E,38.877,270.000,130221,0.000,E,A,V*5B
$GPGGA,090147,3128.00000,N,12117.11612,E,3,10,0.88,-10.48,M,10.48,M,,*6E
$GPRMC,090147,A,3128.00000,N,12117.11612,E,38.877,270.000,130221,0.000,E,A,V*56
$GPGGA,090148,3128.00000,N,12117.10350,E,3,10,0.88,-10.48,M,10.48,M,,*63
$GPRMC,090148,A,3128.00000,N,12117.10350,E,38.877,270.000,130221,0.000,E,A,V*5B
$GPGGA,090149,3128.00000,N,12117.09087,E,3,10,0.88,-10.48,M,10.48,M,,*63
