
$´®¿Ú³õÊ¼»¯£º20210219 14:12:09$
$GPGGA,075957,3128.00000,N,12117.95857,E,3,10,0.88,-10.54,M,10.54,M,,*6F
$GPRMC,075957,A,3128.00000,N,12117.95857,E,7.290,270.000,010321,0.000,E,A,V*6A
$GPGGA,075958,3128.00000,N,12117.95622,E,3,10,0.88,-10.54,M,10.54,M,,*6C
$GPRMC,075958,A,3128.00000,N,12117.95622,E,7.128,270.000,010321,0.000,E,A,V*69
$GPGGA,075959,3128.00000,N,12117.95394,E,3,10,0.88,-10.54,M,10.54,M,,*65
$GPRMC,075959,A,3128.00000,N,12117.95394,E,6.966,270.000,010321,0.000,E,A,V*63
$GPGGA,080000,3128.00000,N,12117.95170,E,3,10,0.88,-10.54,M,10.54,M,,*62
$GPRMC,080000,A,3128.00000,N,12117.95170,E,6.804,270.000,010321,0.000,E,A,V*61
$GPGGA,080001,3128.00000,N,12117.94952,E,3,10,0.88,-10.54,M,10.54,M,,*6A
$GPRMC,080001,A,3128.00000,N,12117.94952,E,6.642,270.000,010321,0.000,E,A,V*65
$GPGGA,080002,3128.00000,N,12117.94738,E,3,10,0.88,-10.54,M,10.54,M,,*6B
$GPRMC,080002,A,3128.00000,N,12117.94738,E,6.480,270.000,010321,0.000,E,A,V*68
$GPGGA,080003,3128.00000,N,12117.94531,E,3,10,0.88,-10.54,M,10.54,M,,*61
$GPRMC,080003,A,3128.00000,N,12117.94531,E,6.318,270.000,010321,0.000,E,A,V*64
$GPGGA,080004,3128.00000,N,12117.94328,E,3,10,0.88,-10.54,M,10.54,M,,*68
$GPRMC,080004,A,3128.00000,N,12117.94328,E,6.156,270.000,010321,0.000,E,A,V*65
$GPGGA,080005,3128.00000,N,12117.94131,E,3,10,0.88,-10.54,M,10.54,M,,*63
$GPRMC,080005,A,3128.00000,N,12117.94131,E,5.994,270.000,010321,0.000,E,A,V*6B
$GPGGA,080006,3128.00000,N,12117.93939,E,3,10,0.88,-10.54,M,10.54,M,,*67
$GPRMC,080006,A,3128.00000,N,12117.93939,E,5.832,270.000,010321,0.000,E,A,V*62
$GPGGA,080007,3128.00000,N,12117.93752,E,3,10,0.88,-10.54,M,10.54,M,,*65
$GPRMC,080007,A,3128.00000,N,12117.93752,E,5.670,270.000,010321,0.000,E,A,V*68
$GPGGA,080008,3128.00000,N,12117.93570,E,3,10,0.88,-10.54,M,10.54,M,,*68
$GPRMC,080008,A,3128.00000,N,12117.93570,E,5.508,270.000,010321,0.000,E,A,V*69
$GPGGA,080009,3128.00000,N,12117.93394,E,3,10,0.88,-10.54,M,10.54,M,,*65
$GPRMC,080009,A,3128.00000,N,12117.93394,E,5.346,270.000,010321,0.000,E,A,V*68
$GPGGA,080010,3128.00000,N,12117.93223,E,3,10,0.88,-10.54,M,10.54,M,,*60
$GPRMC,080010,A,3128.00000,N,12117.93223,E,5.184,270.000,010321,0.000,E,A,V*61
$GPGGA,080011,3128.00000,N,12117.93058,E,3,10,0.88,-10.54,M,10.54,M,,*6F
$GPRMC,080011,A,3128.00000,N,12117.93058,E,5.022,270.000,010321,0.000,E,A,V*63
$GPGGA,080012,3128.00000,N,12117.92897,E,3,10,0.88,-10.54,M,10.54,M,,*66
$GPRMC,080012,A,3128.00000,N,12117.92897,E,4.860,270.000,010321,0.000,E,A,V*65
$GPGGA,080013,3128.00000,N,12117.92742,E,3,10,0.88,-10.54,M,10.54,M,,*60
$GPRMC,080013,A,3128.00000,N,12117.92742,E,4.698,270.000,010321,0.000,E,A,V*6A
$GPGGA,080014,3128.00000,N,12117.92592,E,3,10,0.88,-10.54,M,10.54,M,,*68
$GPRMC,080014,A,3128.00000,N,12117.92592,E,4.536,270.000,010321,0.000,E,A,V*65
$GPGGA,080015,3128.00000,N,12117.92447,E,3,10,0.88,-10.54,M,10.54,M,,*60
$GPRMC,080015,A,3128.00000,N,12117.92447,E,4.374,270.000,010321,0.000,E,A,V*6D
$GPGGA,080016,3128.00000,N,12117.92308,E,3,10,0.88,-10.54,M,10.54,M,,*6F
$GPRMC,080016,A,3128.00000,N,12117.92308,E,4.212,270.000,010321,0.000,E,A,V*63
$GPGGA,080017,3128.00000,N,12117.92174,E,3,10,0.88,-10.54,M,10.54,M,,*67
$GPRMC,080017,A,3128.00000,N,12117.92174,E,4.050,270.000,010321,0.000,E,A,V*6F
$GPGGA,080018,3128.00000,N,12117.92045,E,3,10,0.88,-10.54,M,10.54,M,,*6B
$GPRMC,080018,A,3128.00000,N,12117.92045,E,3.888,270.000,010321,0.000,E,A,V*69
$GPGGA,080019,3128.00000,N,12117.91921,E,3,10,0.88,-10.54,M,10.54,M,,*62
$GPRMC,080019,A,3128.00000,N,12117.91921,E,3.726,270.000,010321,0.000,E,A,V*6B
$GPGGA,080020,3128.00000,N,12117.91803,E,3,10,0.88,-10.54,M,10.54,M,,*69
$GPRMC,080020,A,3128.00000,N,12117.91803,E,3.563,270.000,010321,0.000,E,A,V*63
$GPGGA,080021,3128.00000,N,12117.91690,E,3,10,0.88,-10.54,M,10.54,M,,*6C
$GPRMC,080021,A,3128.00000,N,12117.91690,E,3.401,270.000,010321,0.000,E,A,V*63
$GPGGA,080022,3128.00000,N,12117.91582,E,3,10,0.88,-10.54,M,10.54,M,,*6F
$GPRMC,080022,A,3128.00000,N,12117.91582,E,3.239,270.000,010321,0.000,E,A,V*6D
$GPGGA,080023,3128.00000,N,12117.91479,E,3,10,0.88,-10.54,M,10.54,M,,*6B
$GPRMC,080023,A,3128.00000,N,12117.91479,E,3.077,270.000,010321,0.000,E,A,V*61
$GPGGA,080024,3128.00000,N,12117.91382,E,3,10,0.88,-10.54,M,10.54,M,,*6F
$GPRMC,080024,A,3128.00000,N,12117.91382,E,2.915,270.000,010321,0.000,E,A,V*69
$GPGGA,080025,3128.00000,N,12117.91290,E,3,10,0.88,-10.54,M,10.54,M,,*6C
$GPRMC,080025,A,3128.00000,N,12117.91290,E,2.753,270.000,010321,0.000,E,A,V*66
$GPGGA,080026,3128.00000,N,12117.91203,E,3,10,0.88,-10.54,M,10.54,M,,*65
$GPRMC,080026,A,3128.00000,N,12117.91203,E,2.591,270.000,010321,0.000,E,A,V*63
$GPGGA,080027,3128.00000,N,12117.91121,E,3,10,0.88,-10.54,M,10.54,M,,*67
$GPRMC,080027,A,3128.00000,N,12117.91121,E,2.429,270.000,010321,0.000,E,A,V*63
$GPGGA,080028,3128.00000,N,12117.91045,E,3,10,0.88,-10.54,M,10.54,M,,*6B
$GPRMC,080028,A,3128.00000,N,12117.91045,E,2.267,270.000,010321,0.000,E,A,V*63
$GPGGA,080029,3128.00000,N,12117.90974,E,3,10,0.88,-10.54,M,10.54,M,,*60
$GPRMC,080029,A,3128.00000,N,12117.90974,E,2.105,270.000,010321,0.000,E,A,V*6F
$GPGGA,080030,3128.00000,N,12117.90908,E,3,10,0.88,-10.54,M,10.54,M,,*63
$GPRMC,080030,A,3128.00000,N,12117.90908,E,1.943,270.000,010321,0.000,E,A,V*65
$GPGGA,080031,3128.00000,N,12117.90848,E,3,10,0.88,-10.54,M,10.54,M,,*67
$GPRMC,080031,A,3128.00000,N,12117.90848,E,1.781,270.000,010321,0.000,E,A,V*61
$GPGGA,080032,3128.00000,N,12117.90793,E,3,10,0.88,-10.54,M,10.54,M,,*6D
$GPRMC,080032,A,3128.00000,N,12117.90793,E,1.619,270.000,010321,0.000,E,A,V*6B
$GPGGA,080033,3128.00000,N,12117.90743,E,3,10,0.88,-10.54,M,10.54,M,,*61
$GPRMC,080033,A,3128.00000,N,12117.90743,E,1.457,270.000,010321,0.000,E,A,V*6F
$GPGGA,080034,3128.00000,N,12117.90698,E,3,10,0.88,-10.54,M,10.54,M,,*61
$GPRMC,080034,A,3128.00000,N,12117.90698,E,1.295,270.000,010321,0.000,E,A,V*67
$GPGGA,080035,3128.00000,N,12117.90659,E,3,10,0.88,-10.54,M,10.54,M,,*6D
$GPRMC,080035,A,3128.00000,N,12117.90659,E,1.133,270.000,010321,0.000,E,A,V*64
$GPGGA,080036,3128.00000,N,12117.90624,E,3,10,0.88,-10.54,M,10.54,M,,*64
$GPRMC,080036,A,3128.00000,N,12117.90624,E,0.971,270.000,010321,0.000,E,A,V*62
$GPGGA,080037,3128.00000,N,12117.90596,E,3,10,0.88,-10.54,M,10.54,M,,*6F
$GPRMC,080037,A,3128.00000,N,12117.90596,E,0.809,270.000,010321,0.000,E,A,V*67
$GPGGA,080038,3128.00000,N,12117.90572,E,3,10,0.88,-10.54,M,10.54,M,,*6A
$GPRMC,080038,A,3128.00000,N,12117.90572,E,0.647,270.000,010321,0.000,E,A,V*66
$GPGGA,080039,3128.00000,N,12117.90554,E,3,10,0.88,-10.54,M,10.54,M,,*6F
$GPRMC,080039,A,3128.00000,N,12117.90554,E,0.485,270.000,010321,0.000,E,A,V*6F
$GPGGA,080040,3128.00000,N,12117.90540,E,3,10,0.88,-10.54,M,10.54,M,,*64
$GPRMC,080040,A,3128.00000,N,12117.90540,E,0.323,270.000,010321,0.000,E,A,V*6F
$GPGGA,080041,3128.00000,N,12117.90533,E,3,10,0.88,-10.54,M,10.54,M,,*61
$GPRMC,080041,A,3128.00000,N,12117.90533,E,0.161,270.000,010321,0.000,E,A,V*6E
$GPGGA,080042,3128.00000,N,12117.90530,E,3,10,0.88,-10.54,M,10.54,M,,*61
$GPRMC,080042,A,3128.00000,N,12117.90530,E,0.000,270.000,010321,0.000,E,A,V*68
$GPGGA,080043,3128.00000,N,12117.90409,E,3,10,0.88,-10.54,M,10.54,M,,*6B
$GPRMC,080043,A,3128.00000,N,12117.90409,E,7.658,270.000,010321,0.000,E,A,V*6E
$GPGGA,080044,3128.00000,N,12117.90032,E,3,10,0.88,-10.54,M,10.54,M,,*60
$GPRMC,080044,A,3128.00000,N,12117.90032,E,15.511,270.000,010321,0.000,E,A,V*58
$GPGGA,080045,3128.00000,N,12117.89401,E,3,10,0.88,-10.54,M,10.54,M,,*6D
$GPRMC,080045,A,3128.00000,N,12117.89401,E,23.365,270.000,010321,0.000,E,A,V*55
$GPGGA,080046,3128.00000,N,12117.88515,E,3,10,0.88,-10.54,M,10.54,M,,*6B
$GPRMC,080046,A,3128.00000,N,12117.88515,E,31.219,270.000,010321,0.000,E,A,V*5A
$GPGGA,080047,3128.00000,N,12117.87373,E,3,10,0.88,-10.54,M,10.54,M,,*63
$GPRMC,080047,A,3128.00000,N,12117.87373,E,38.877,270.000,010321,0.000,E,A,V*59
$GPGGA,080048,3128.00000,N,12117.86111,E,3,10,0.88,-10.53,M,10.53,M,,*6B
$GPRMC,080048,A,3128.00000,N,12117.86111,E,38.877,270.000,010321,0.000,E,A,V*51
$GPGGA,080049,3128.00000,N,12117.84848,E,3,10,0.88,-10.53,M,10.53,M,,*6D
$GPRMC,080049,A,3128.00000,N,12117.84848,E,38.877,270.000,010321,0.000,E,A,V*57
$GPGGA,080050,3128.00000,N,12117.83585,E,3,10,0.88,-10.53,M,10.53,M,,*6E
$GPRMC,080050,A,3128.00000,N,12117.83585,E,38.877,270.000,010321,0.000,E,A,V*54
$GPGGA,080051,3128.00000,N,12117.82322,E,3,10,0.88,-10.53,M,10.53,M,,*65
$GPRMC,080051,A,3128.00000,N,12117.82322,E,38.877,270.000,010321,0.000,E,A,V*5F
$GPGGA,080052,3128.00000,N,12117.81060,E,3,10,0.88,-10.53,M,10.53,M,,*60
$GPRMC,080052,A,3128.00000,N,12117.81060,E,38.877,270.000,010321,0.000,E,A,V*5A
$GPGGA,080053,3128.00000,N,12117.79797,E,3,10,0.88,-10.53,M,10.53,M,,*69
$GPRMC,080053,A,3128.00000,N,12117.79797,E,38.877,270.000,010321,0.000,E,A,V*53
$GPGGA,080054,3128.00000,N,12117.78534,E,3,10,0.88,-10.53,M,10.53,M,,*64
$GPRMC,080054,A,3128.00000,N,12117.78534,E,38.877,270.000,010321,0.000,E,A,V*5E
$GPGGA,080055,3128.00000,N,12117.77272,E,3,10,0.88,-10.53,M,10.53,M,,*6F
$GPRMC,080055,A,3128.00000,N,12117.77272,E,38.877,270.000,010321,0.000,E,A,V*55
$GPGGA,080056,3128.00000,N,12117.76009,E,3,10,0.88,-10.53,M,10.53,M,,*63
$GPRMC,080056,A,3128.00000,N,12117.76009,E,38.877,270.000,010321,0.000,E,A,V*59
$GPGGA,080057,3128.00000,N,12117.74746,E,3,10,0.88,-10.53,M,10.53,M,,*6C
$GPRMC,080057,A,3128.00000,N,12117.74746,E,38.877,270.000,010321,0.000,E,A,V*56
$GPGGA,080058,3128.00000,N,12117.73484,E,3,10,0.88,-10.52,M,10.52,M,,*69
$GPRMC,080058,A,3128.00000,N,12117.73484,E,38.877,270.000,010321,0.000,E,A,V*53
$GPGGA,080059,3128.00000,N,12117.72221,E,3,10,0.88,-10.52,M,10.52,M,,*60
$GPRMC,080059,A,3128.00000,N,12117.72221,E,38.877,270.000,010321,0.000,E,A,V*5A
$GPGGA,080100,3128.00000,N,12117.70958,E,3,10,0.88,-10.52,M,10.52,M,,*6A
$GPRMC,080100,A,3128.00000,N,12117.70958,E,38.877,270.000,010321,0.000,E,A,V*50
$GPGGA,080101,3128.00000,N,12117.69696,E,3,10,0.88,-10.52,M,10.52,M,,*6E
$GPRMC,080101,A,3128.00000,N,12117.69696,E,38.877,270.000,010321,0.000,E,A,V*54
$GPGGA,080102,3128.00000,N,12117.68433,E,3,10,0.88,-10.52,M,10.52,M,,*61
$GPRMC,080102,A,3128.00000,N,12117.68433,E,38.877,270.000,010321,0.000,E,A,V*5B
$GPGGA,080103,3128.00000,N,12117.67170,E,3,10,0.88,-10.52,M,10.52,M,,*6D
$GPRMC,080103,A,3128.00000,N,12117.67170,E,38.877,270.000,010321,0.000,E,A,V*57
$GPGGA,080104,3128.00000,N,12117.65908,E,3,10,0.88,-10.52,M,10.52,M,,*6F
$GPRMC,080104,A,3128.00000,N,12117.65908,E,38.877,270.000,010321,0.000,E,A,V*55
$GPGGA,080105,3128.00000,N,12117.64645,E,3,10,0.88,-10.52,M,10.52,M,,*69
$GPRMC,080105,A,3128.00000,N,12117.64645,E,38.877,270.000,010321,0.000,E,A,V*53
$GPGGA,080106,3128.00000,N,12117.63382,E,3,10,0.88,-10.52,M,10.52,M,,*63
$GPRMC,080106,A,3128.00000,N,12117.63382,E,38.877,270.000,010321,0.000,E,A,V*59
$GPGGA,080107,3128.00000,N,12117.62120,E,3,10,0.88,-10.52,M,10.52,M,,*69
$GPRMC,080107,A,3128.00000,N,12117.62120,E,38.877,270.000,010321,0.000,E,A,V*53
$GPGGA,080108,3128.00000,N,12117.60857,E,3,10,0.88,-10.52,M,10.52,M,,*6D
$GPRMC,080108,A,3128.00000,N,12117.60857,E,38.877,270.000,010321,0.000,E,A,V*57
$GPGGA,080109,3128.00000,N,12117.59594,E,3,10,0.88,-10.51,M,10.51,M,,*64
$GPRMC,080109,A,3128.00000,N,12117.59594,E,38.877,270.000,010321,0.000,E,A,V*5E
$GPGGA,080110,3128.00000,N,12117.58332,E,3,10,0.88,-10.51,M,10.51,M,,*67
$GPRMC,080110,A,3128.00000,N,12117.58332,E,38.877,270.000,010321,0.000,E,A,V*5D
$GPGGA,080111,3128.00000,N,12117.57069,E,3,10,0.88,-10.51,M,10.51,M,,*64
$GPRMC,080111,A,3128.00000,N,12117.57069,E,38.877,270.000,010321,0.000,E,A,V*5E
$GPGGA,080112,3128.00000,N,12117.55806,E,3,10,0.88,-10.51,M,10.51,M,,*64
$GPRMC,080112,A,3128.00000,N,12117.55806,E,38.877,270.000,010321,0.000,E,A,V*5E
$GPGGA,080113,3128.00000,N,12117.54544,E,3,10,0.88,-10.51,M,10.51,M,,*6F
$GPRMC,080113,A,3128.00000,N,12117.54544,E,38.877,270.000,010321,0.000,E,A,V*55
$GPGGA,080114,3128.00000,N,12117.53281,E,3,10,0.88,-10.51,M,10.51,M,,*61
$GPRMC,080114,A,3128.00000,N,12117.53281,E,38.877,270.000,010321,0.000,E,A,V*5B
$GPGGA,080115,3128.00000,N,12117.52018,E,3,10,0.88,-10.51,M,10.51,M,,*63
$GPRMC,080115,A,3128.00000,N,12117.52018,E,38.877,270.000,010321,0.000,E,A,V*59
$GPGGA,080116,3128.00000,N,12117.50756,E,3,10,0.88,-10.51,M,10.51,M,,*6F
$GPRMC,080116,A,3128.00000,N,12117.50756,E,38.877,270.000,010321,0.000,E,A,V*55
$GPGGA,080117,3128.00000,N,12117.49493,E,3,10,0.88,-10.51,M,10.51,M,,*6C
$GPRMC,080117,A,3128.00000,N,12117.49493,E,38.877,270.000,010321,0.000,E,A,V*56
$GPGGA,080118,3128.00000,N,12117.48230,E,3,10,0.88,-10.51,M,10.51,M,,*6D
$GPRMC,080118,A,3128.00000,N,12117.48230,E,38.877,270.000,010321,0.000,E,A,V*57
$GPGGA,080119,3128.00000,N,12117.46967,E,3,10,0.88,-10.51,M,10.51,M,,*6B
$GPRMC,080119,A,3128.00000,N,12117.46967,E,38.877,270.000,010321,0.000,E,A,V*51
$GPGGA,080120,3128.00000,N,12117.45705,E,3,10,0.88,-10.50,M,10.50,M,,*68
$GPRMC,080120,A,3128.00000,N,12117.45705,E,38.877,270.000,010321,0.000,E,A,V*52
$GPGGA,080121,3128.00000,N,12117.44442,E,3,10,0.88,-10.50,M,10.50,M,,*68
$GPRMC,080121,A,3128.00000,N,12117.44442,E,38.877,270.000,010321,0.000,E,A,V*52
$GPGGA,080122,3128.00000,N,12117.43179,E,3,10,0.88,-10.50,M,10.50,M,,*61
$GPRMC,080122,A,3128.00000,N,12117.43179,E,38.877,270.000,010321,0.000,E,A,V*5B
$GPGGA,080123,3128.00000,N,12117.41917,E,3,10,0.88,-10.50,M,10.50,M,,*62
$GPRMC,080123,A,3128.00000,N,12117.41917,E,38.877,270.000,010321,0.000,E,A,V*58
$GPGGA,080124,3128.00000,N,12117.40654,E,3,10,0.88,-10.50,M,10.50,M,,*6C
$GPRMC,080124,A,3128.00000,N,12117.40654,E,38.877,270.000,010321,0.000,E,A,V*56
$GPGGA,080125,3128.00000,N,12117.39391,E,3,10,0.88,-10.50,M,10.50,M,,*6F
$GPRMC,080125,A,3128.00000,N,12117.39391,E,38.877,270.000,010321,0.000,E,A,V*55
$GPGGA,080126,3128.00000,N,12117.38129,E,3,10,0.88,-10.50,M,10.50,M,,*6C
$GPRMC,080126,A,3128.00000,N,12117.38129,E,38.877,270.000,010321,0.000,E,A,V*56
$GPGGA,080127,3128.00000,N,12117.36866,E,3,10,0.88,-10.50,M,10.50,M,,*61
$GPRMC,080127,A,3128.00000,N,12117.36866,E,38.877,270.000,010321,0.000,E,A,V*5B
$GPGGA,080128,3128.00000,N,12117.35603,E,3,10,0.88,-10.50,M,10.50,M,,*60
$GPRMC,080128,A,3128.00000,N,12117.35603,E,38.877,270.000,010321,0.000,E,A,V*5A
$GPGGA,080129,3128.00000,N,12117.34341,E,3,10,0.88,-10.50,M,10.50,M,,*63
$GPRMC,080129,A,3128.00000,N,12117.34341,E,38.877,270.000,010321,0.000,E,A,V*59
$GPGGA,080130,3128.00000,N,12117.33078,E,3,10,0.88,-10.50,M,10.50,M,,*65
$GPRMC,080130,A,3128.00000,N,12117.33078,E,38.877,270.000,010321,0.000,E,A,V*5F
$GPGGA,080131,3128.00000,N,12117.31815,E,3,10,0.88,-10.49,M,10.49,M,,*65
$GPRMC,080131,A,3128.00000,N,12117.31815,E,38.877,270.000,010321,0.000,E,A,V*5F
$GPGGA,080132,3128.00000,N,12117.30553,E,3,10,0.88,-10.49,M,10.49,M,,*68
$GPRMC,080132,A,3128.00000,N,12117.30553,E,38.877,270.000,010321,0.000,E,A,V*52
$GPGGA,080133,3128.00000,N,12117.29290,E,3,10,0.88,-10.49,M,10.49,M,,*69
$GPRMC,080133,A,3128.00000,N,12117.29290,E,38.877,270.000,010321,0.000,E,A,V*53
$GPGGA,080134,3128.00000,N,12117.28027,E,3,10,0.88,-10.49,M,10.49,M,,*61
$GPRMC,080134,A,3128.00000,N,12117.28027,E,38.877,270.000,010321,0.000,E,A,V*5B
$GPGGA,080135,3128.00000,N,12117.26765,E,3,10,0.88,-10.49,M,10.49,M,,*6F
$GPRMC,080135,A,3128.00000,N,12117.26765,E,38.877,270.000,010321,0.000,E,A,V*55
$GPGGA,080136,3128.00000,N,12117.25502,E,3,10,0.88,-10.49,M,10.49,M,,*6C
$GPRMC,080136,A,3128.00000,N,12117.25502,E,38.877,270.000,010321,0.000,E,A,V*56
$GPGGA,080137,3128.00000,N,12117.24239,E,3,10,0.88,-10.49,M,10.49,M,,*63
$GPRMC,080137,A,3128.00000,N,12117.24239,E,38.877,270.000,010321,0.000,E,A,V*59
$GPGGA,080138,3128.00000,N,12117.22977,E,3,10,0.88,-10.49,M,10.49,M,,*6B
$GPRMC,080138,A,3128.00000,N,12117.22977,E,38.877,270.000,010321,0.000,E,A,V*51
$GPGGA,080139,3128.00000,N,12117.21714,E,3,10,0.88,-10.49,M,10.49,M,,*62
$GPRMC,080139,A,3128.00000,N,12117.21714,E,38.877,270.000,010321,0.000,E,A,V*58
$GPGGA,080140,3128.00000,N,12117.20451,E,3,10,0.88,-10.49,M,10.49,M,,*6F
$GPRMC,080140,A,3128.00000,N,12117.20451,E,38.877,270.000,010321,0.000,E,A,V*55
$GPGGA,080141,3128.00000,N,12117.19189,E,3,10,0.88,-10.49,M,10.49,M,,*64
$GPRMC,080141,A,3128.00000,N,12117.19189,E,38.877,270.000,010321,0.000,E,A,V*5E
$GPGGA,080142,3128.00000,N,12117.17926,E,3,10,0.88,-10.48,M,10.48,M,,*64
$GPRMC,080142,A,3128.00000,N,12117.17926,E,38.877,270.000,010321,0.000,E,A,V*5E
$GPGGA,080143,3128.00000,N,12117.16663,E,3,10,0.88,-10.48,M,10.48,M,,*6A
$GPRMC,080143,A,3128.00000,N,12117.16663,E,38.877,270.000,010321,0.000,E,A,V*50
$GPGGA,080144,3128.00000,N,12117.15400,E,3,10,0.88,-10.48,M,10.48,M,,*69
$GPRMC,080144,A,3128.00000,N,12117.15400,E,38.877,270.000,010321,0.000,E,A,V*53
$GPGGA,080145,3128.00000,N,12117.14138,E,3,10,0.88,-10.48,M,10.48,M,,*67
$GPRMC,080145,A,3128.00000,N,12117.14138,E,38.877,270.000,010321,0.000,E,A,V*5D
$GPGGA,080146,3128.00000,N,12117.12875,E,3,10,0.88,-10.48,M,10.48,M,,*62
$GPRMC,080146,A,3128.00000,N,12117.12875,E,38.877,270.000,010321,0.000,E,A,V*58
$GPGGA,080147,3128.00000,N,12117.11612,E,3,10,0.88,-10.48,M,10.48,M,,*6F
$GPRMC,080147,A,3128.00000,N,12117.11612,E,38.877,270.000,010321,0.000,E,A,V*55
$GPGGA,080148,3128.00000,N,12117.10350,E,3,10,0.88,-10.48,M,10.48,M,,*62
$GPRMC,080148,A,3128.00000,N,12117.10350,E,38.877,270.000,010321,0.000,E,A,V*58
$GPGGA,080149,3128.00000,N,12117.09087,E,3,10,0.88,-10.48,M,10.48,M,,*62
$GPRMC,080149,A,3128.00000,N,12117.09087,E,38.877,270.000,010321,0.000,E,A,V*58
$GPGGA,080150,3128.00000,N,12117.07824,E,3,10,0.88,-10.48,M,10.48,M,,*65
$GPRMC,080150,A,3128.00000,N,12117.07824,E,38.877,270.000,010321,0.000,E,A,V*5F
$GPGGA,080151,3128.00000,N,12117.06562,E,3,10,0.88,-10.48,M,10.48,M,,*6A
$GPRMC,080151,A,3128.00000,N,12117.06562,E,38.877,270.000,010321,0.000,E,A,V*50
$GPGGA,080152,3128.00000,N,12117.05299,E,3,10,0.88,-10.48,M,10.48,M,,*69
$GPRMC,080152,A,3128.00000,N,12117.05299,E,38.877,270.000,010321,0.000,E,A,V*53
$GPGGA,080153,3128.00000,N,12117.04036,E,3,10,0.88,-10.47,M,10.47,M,,*6E
$GPRMC,080153,A,3128.00000,N,12117.04036,E,38.877,270.000,010321,0.000,E,A,V*54
$GPGGA,080154,3128.00000,N,12117.02774,E,3,10,0.88,-10.47,M,10.47,M,,*6E
$GPRMC,080154,A,3128.00000,N,12117.02774,E,38.877,270.000,010321,0.000,E,A,V*54
$GPGGA,080155,3128.00000,N,12117.01511,E,3,10,0.88,-10.47,M,10.47,M,,*6D
$GPRMC,080155,A,3128.00000,N,12117.01511,E,38.877,270.000,010321,0.000,E,A,V*57
$GPGGA,080156,3128.00000,N,12117.00248,E,3,10,0.88,-10.47,M,10.47,M,,*64
$GPRMC,080156,A,3128.00000,N,12117.00248,E,38.877,270.000,010321,0.000,E,A,V*5E
$GPGGA,080157,3128.00000,N,12116.98986,E,3,10,0.88,-10.47,M,10.47,M,,*6C
$GPRMC,080157,A,3128.00000,N,12116.98986,E,38.877,270.000,010321,0.000,E,A,V*56
$GPGGA,080158,3128.00000,N,12116.97723,E,3,10,0.88,-10.47,M,10.47,M,,*6D
$GPRMC,080158,A,3128.00000,N,12116.97723,E,38.877,270.000,010321,0.000,E,A,V*57
$GPGGA,080159,3128.00000,N,12116.96460,E,3,10,0.88,-10.47,M,10.47,M,,*69
$GPRMC,080159,A,3128.00000,N,12116.96460,E,38.877,270.000,010321,0.000,E,A,V*53
$GPGGA,080200,3128.00000,N,12116.95198,E,3,10,0.88,-10.47,M,10.47,M,,*67
$GPRMC,080200,A,3128.00000,N,12116.95198,E,38.877,270.000,010321,0.000,E,A,V*5D
$GPGGA,080201,3128.00000,N,12116.93935,E,3,10,0.88,-10.47,M,10.47,M,,*6F
$GPRMC,080201,A,3128.00000,N,12116.93935,E,38.877,270.000,010321,0.000,E,A,V*55
$GPGGA,080202,3128.00000,N,12116.92672,E,3,10,0.88,-10.47,M,10.47,M,,*61
$GPRMC,080202,A,3128.00000,N,12116.92672,E,38.877,270.000,010321,0.000,E,A,V*5B
$GPGGA,080203,3128.00000,N,12116.91410,E,3,10,0.88,-10.47,M,10.47,M,,*65
$GPRMC,080203,A,3128.00000,N,12116.91410,E,38.877,270.000,010321,0.000,E,A,V*5F
$GPGGA,080204,3128.00000,N,12116.90147,E,3,10,0.88,-10.46,M,10.46,M,,*64
$GPRMC,080204,A,3128.00000,N,12116.90147,E,38.877,270.000,010321,0.000,E,A,V*5E
$GPGGA,080205,3128.00000,N,12116.88884,E,3,10,0.88,-10.46,M,10.46,M,,*6A
$GPRMC,080205,A,3128.00000,N,12116.88884,E,38.877,270.000,010321,0.000,E,A,V*50
$GPGGA,080206,3128.00000,N,12116.87622,E,3,10,0.88,-10.46,M,10.46,M,,*64
$GPRMC,080206,A,3128.00000,N,12116.87622,E,38.877,270.000,010321,0.000,E,A,V*5E
$GPGGA,080207,3128.00000,N,12116.86359,E,3,10,0.88,-10.46,M,10.46,M,,*6D
$GPRMC,080207,A,3128.00000,N,12116.86359,E,38.877,270.000,010321,0.000,E,A,V*57
$GPGGA,080208,3128.00000,N,12116.85096,E,3,10,0.88,-10.46,M,10.46,M,,*61
$GPRMC,080208,A,3128.00000,N,12116.85096,E,38.877,270.000,010321,0.000,E,A,V*5B
$GPGGA,080209,3128.00000,N,12116.83834,E,3,10,0.88,-10.46,M,10.46,M,,*66
$GPRMC,080209,A,3128.00000,N,12116.83834,E,38.877,270.000,010321,0.000,E,A,V*5C
$GPGGA,080210,3128.00000,N,12116.82571,E,3,10,0.88,-10.46,M,10.46,M,,*63
$GPRMC,080210,A,3128.00000,N,12116.82571,E,38.877,270.000,010321,0.000,E,A,V*59
$GPGGA,080211,3128.00000,N,12116.81308,E,3,10,0.88,-10.46,M,10.46,M,,*69
$GPRMC,080211,A,3128.00000,N,12116.81308,E,38.877,270.000,010321,0.000,E,A,V*53
$GPGGA,080212,3128.00000,N,12116.80045,E,3,10,0.88,-10.46,M,10.46,M,,*61
$GPRMC,080212,A,3128.00000,N,12116.80045,E,38.877,270.000,010321,0.000,E,A,V*5B
$GPGGA,080213,3128.00000,N,12116.78783,E,3,10,0.88,-10.46,M,10.46,M,,*6A
$GPRMC,080213,A,3128.00000,N,12116.78783,E,38.877,270.000,010321,0.000,E,A,V*50
$GPGGA,080214,3128.00000,N,12116.77520,E,3,10,0.88,-10.46,M,10.46,M,,*69
$GPRMC,080214,A,3128.00000,N,12116.77520,E,38.877,270.000,010321,0.000,E,A,V*53
$GPGGA,080215,3128.00000,N,12116.76257,E,3,10,0.88,-10.45,M,10.45,M,,*6E
$GPRMC,080215,A,3128.00000,N,12116.76257,E,38.877,270.000,010321,0.000,E,A,V*54
$GPGGA,080216,3128.00000,N,12116.74995,E,3,10,0.88,-10.45,M,10.45,M,,*6A
$GPRMC,080216,A,3128.00000,N,12116.74995,E,38.877,270.000,010321,0.000,E,A,V*50
$GPGGA,080217,3128.00000,N,12116.73732,E,3,10,0.88,-10.45,M,10.45,M,,*6F
$GPRMC,080217,A,3128.00000,N,12116.73732,E,38.877,270.000,010321,0.000,E,A,V*55
$GPGGA,080218,3128.00000,N,12116.72469,E,3,10,0.88,-10.45,M,10.45,M,,*6C
$GPRMC,080218,A,3128.00000,N,12116.72469,E,38.877,270.000,010321,0.000,E,A,V*56
$GPGGA,080219,3128.00000,N,12116.71207,E,3,10,0.88,-10.45,M,10.45,M,,*60
$GPRMC,080219,A,3128.00000,N,12116.71207,E,38.877,270.000,010321,0.000,E,A,V*5A
$GPGGA,080220,3128.00000,N,12116.69944,E,3,10,0.88,-10.45,M,10.45,M,,*6F
$GPRMC,080220,A,3128.00000,N,12116.69944,E,38.877,270.000,010321,0.000,E,A,V*55
$GPGGA,080221,3128.00000,N,12116.68681,E,3,10,0.88,-10.45,M,10.45,M,,*69
$GPRMC,080221,A,3128.00000,N,12116.68681,E,38.877,270.000,010321,0.000,E,A,V*53
$GPGGA,080222,3128.00000,N,12116.67419,E,3,10,0.88,-10.45,M,10.45,M,,*66
$GPRMC,080222,A,3128.00000,N,12116.67419,E,38.877,270.000,010321,0.000,E,A,V*5C
$GPGGA,080223,3128.00000,N,12116.66156,E,3,10,0.88,-10.45,M,10.45,M,,*68
$GPRMC,080223,A,3128.00000,N,12116.66156,E,38.877,270.000,010321,0.000,E,A,V*52
$GPGGA,080224,3128.00000,N,12116.64893,E,3,10,0.88,-10.45,M,10.45,M,,*6D
$GPRMC,080224,A,3128.00000,N,12116.64893,E,38.877,270.000,010321,0.000,E,A,V*57
$GPGGA,080225,3128.00000,N,12116.63631,E,3,10,0.88,-10.45,M,10.45,M,,*6D
$GPRMC,080225,A,3128.00000,N,12116.63631,E,38.877,270.000,010321,0.000,E,A,V*57
$GPGGA,080226,3128.00000,N,12116.62368,E,3,10,0.88,-10.44,M,10.44,M,,*66
$GPRMC,080226,A,3128.00000,N,12116.62368,E,38.877,270.000,010321,0.000,E,A,V*5C
$GPGGA,080227,3128.00000,N,12116.61105,E,3,10,0.88,-10.44,M,10.44,M,,*6D
$GPRMC,080227,A,3128.00000,N,12116.61105,E,38.877,270.000,010321,0.000,E,A,V*57
$GPGGA,080228,3128.00000,N,12116.59843,E,3,10,0.89,-10.44,M,10.44,M,,*63
$GPRMC,080228,A,3128.00000,N,12116.59843,E,38.877,270.000,010321,0.000,E,A,V*58
$GPGGA,080229,3128.00000,N,12116.58580,E,3,10,0.89,-10.44,M,10.44,M,,*61
$GPRMC,080229,A,3128.00000,N,12116.58580,E,38.877,270.000,010321,0.000,E,A,V*5A
$GPGGA,080230,3128.00000,N,12116.57317,E,3,10,0.89,-10.44,M,10.44,M,,*6E
$GPRMC,080230,A,3128.00000,N,12116.57317,E,38.877,270.000,010321,0.000,E,A,V*55
$GPGGA,080231,3128.00000,N,12116.56055,E,3,10,0.89,-10.44,M,10.44,M,,*6B
$GPRMC,080231,A,3128.00000,N,12116.56055,E,38.877,270.000,010321,0.000,E,A,V*50
$GPGGA,080232,3128.00000,N,12116.54792,E,3,10,0.89,-10.44,M,10.44,M,,*66
$GPRMC,080232,A,3128.00000,N,12116.54792,E,38.877,270.000,010321,0.000,E,A,V*5D
$GPGGA,080233,3128.00000,N,12116.53529,E,3,10,0.89,-10.44,M,10.44,M,,*62
$GPRMC,080233,A,3128.00000,N,12116.53529,E,38.877,270.000,010321,0.000,E,A,V*59
$GPGGA,080234,3128.00000,N,12116.52267,E,3,10,0.89,-10.44,M,10.44,M,,*69
$GPRMC,080234,A,3128.00000,N,12116.52267,E,38.877,270.000,010321,0.000,E,A,V*52
$GPGGA,080235,3128.00000,N,12116.51004,E,3,10,0.89,-10.44,M,10.44,M,,*6C
$GPRMC,080235,A,3128.00000,N,12116.51004,E,38.877,270.000,010321,0.000,E,A,V*57
$GPGGA,080236,3128.00000,N,12116.49741,E,3,10,0.89,-10.44,M,10.44,M,,*60
$GPRMC,080236,A,3128.00000,N,12116.49741,E,38.877,270.000,010321,0.000,E,A,V*5B
$GPGGA,080237,3128.00000,N,12116.48478,E,3,10,0.89,-10.43,M,10.43,M,,*69
$GPRMC,080237,A,3128.00000,N,12116.48478,E,38.877,270.000,010321,0.000,E,A,V*52
$GPGGA,080238,3128.00000,N,12116.47216,E,3,10,0.89,-10.43,M,10.43,M,,*67
$GPRMC,080238,A,3128.00000,N,12116.47216,E,38.877,270.000,010321,0.000,E,A,V*5C
$GPGGA,080239,3128.00000,N,12116.45953,E,3,10,0.89,-10.43,M,10.43,M,,*6E
$GPRMC,080239,A,3128.00000,N,12116.45953,E,38.877,270.000,010321,0.000,E,A,V*55
$GPGGA,080240,3128.00000,N,12116.44690,E,3,10,0.89,-10.43,M,10.43,M,,*61
$GPRMC,080240,A,3128.00000,N,12116.44690,E,38.877,270.000,010321,0.000,E,A,V*5A
$GPGGA,080241,3128.00000,N,12116.43428,E,3,10,0.89,-10.43,M,10.43,M,,*66
$GPRMC,080241,A,3128.00000,N,12116.43428,E,38.877,270.000,010321,0.000,E,A,V*5D
$GPGGA,080242,3128.00000,N,12116.42165,E,3,10,0.89,-10.43,M,10.43,M,,*68
$GPRMC,080242,A,3128.00000,N,12116.42165,E,38.877,270.000,010321,0.000,E,A,V*53
$GPGGA,080243,3128.00000,N,12116.40902,E,3,10,0.89,-10.43,M,10.43,M,,*62
$GPRMC,080243,A,3128.00000,N,12116.40902,E,38.877,270.000,010321,0.000,E,A,V*59
$GPGGA,080244,3128.00000,N,12116.39640,E,3,10,0.89,-10.43,M,10.43,M,,*62
$GPRMC,080244,A,3128.00000,N,12116.39640,E,38.877,270.000,010321,0.000,E,A,V*59
$GPGGA,080245,3128.00000,N,12116.38377,E,3,10,0.89,-10.43,M,10.43,M,,*63
$GPRMC,080245,A,3128.00000,N,12116.38377,E,38.877,270.000,010321,0.000,E,A,V*58
$GPGGA,080246,3128.00000,N,12116.37114,E,3,10,0.89,-10.43,M,10.43,M,,*68
$GPRMC,080246,A,3128.00000,N,12116.37114,E,38.877,270.000,010321,0.000,E,A,V*53
$GPGGA,080247,3128.00000,N,12116.35852,E,3,10,0.89,-10.43,M,10.43,M,,*60
$GPRMC,080247,A,3128.00000,N,12116.35852,E,38.877,270.000,010321,0.000,E,A,V*5B
$GPGGA,080248,3128.00000,N,12116.34589,E,3,10,0.89,-10.43,M,10.43,M,,*65
$GPRMC,080248,A,3128.00000,N,12116.34589,E,38.877,270.000,010321,0.000,E,A,V*5E
$GPGGA,080249,3128.00000,N,12116.33326,E,3,10,0.89,-10.42,M,10.42,M,,*60
$GPRMC,080249,A,3128.00000,N,12116.33326,E,38.877,270.000,010321,0.000,E,A,V*5B
$GPGGA,080250,3128.00000,N,12116.32064,E,3,10,0.89,-10.42,M,10.42,M,,*6C
$GPRMC,080250,A,3128.00000,N,12116.32064,E,38.877,270.000,010321,0.000,E,A,V*57
$GPGGA,080251,3128.00000,N,12116.30801,E,3,10,0.89,-10.42,M,10.42,M,,*64
$GPRMC,080251,A,3128.00000,N,12116.30801,E,38.877,270.000,010321,0.000,E,A,V*5F
$GPGGA,080252,3128.00000,N,12116.29538,E,3,10,0.89,-10.42,M,10.42,M,,*68
$GPRMC,080252,A,3128.00000,N,12116.29538,E,38.877,270.000,010321,0.000,E,A,V*53
$GPGGA,080253,3128.00000,N,12116.28276,E,3,10,0.89,-10.42,M,10.42,M,,*65
$GPRMC,080253,A,3128.00000,N,12116.28276,E,38.877,270.000,010321,0.000,E,A,V*5E
$GPGGA,080254,3128.00000,N,12116.27013,E,3,10,0.89,-10.42,M,10.42,M,,*6C
$GPRMC,080254,A,3128.00000,N,12116.27013,E,38.877,270.000,010321,0.000,E,A,V*57
$GPGGA,080255,3128.00000,N,12116.25750,E,3,10,0.89,-10.42,M,10.42,M,,*6F
$GPRMC,080255,A,3128.00000,N,12116.25750,E,38.877,270.000,010321,0.000,E,A,V*54
$GPGGA,080256,3128.00000,N,12116.24488,E,3,10,0.89,-10.42,M,10.42,M,,*6B
$GPRMC,080256,A,3128.00000,N,12116.24488,E,38.877,270.000,010321,0.000,E,A,V*50
$GPGGA,080257,3128.00000,N,12116.23225,E,3,10,0.89,-10.42,M,10.42,M,,*6C
$GPRMC,080257,A,3128.00000,N,12116.23225,E,38.877,270.000,010321,0.000,E,A,V*57
$GPGGA,080258,3128.00000,N,12116.21962,E,3,10,0.89,-10.42,M,10.42,M,,*69
$GPRMC,080258,A,3128.00000,N,12116.21962,E,38.877,270.000,010321,0.000,E,A,V*52
$GPGGA,080259,3128.00000,N,12116.20700,E,3,10,0.89,-10.42,M,10.42,M,,*63
$GPRMC,080259,A,3128.00000,N,12116.20700,E,38.877,270.000,010321,0.000,E,A,V*58
$GPGGA,080300,3128.00000,N,12116.19437,E,3,10,0.89,-10.41,M,10.41,M,,*63
$GPRMC,080300,A,3128.00000,N,12116.19437,E,38.877,270.000,010321,0.000,E,A,V*58
$GPGGA,080301,3128.00000,N,12116.18174,E,3,10,0.89,-10.41,M,10.41,M,,*61
$GPRMC,080301,A,3128.00000,N,12116.18174,E,38.877,270.000,010321,0.000,E,A,V*5A
$GPGGA,080302,3128.00000,N,12116.16912,E,3,10,0.89,-10.41,M,10.41,M,,*64
$GPRMC,080302,A,3128.00000,N,12116.16912,E,38.877,270.000,010321,0.000,E,A,V*5F
$GPGGA,080303,3128.00000,N,12116.15649,E,3,10,0.89,-10.41,M,10.41,M,,*67
$GPRMC,080303,A,3128.00000,N,12116.15649,E,38.877,270.000,010321,0.000,E,A,V*5C
$GPGGA,080304,3128.00000,N,12116.14386,E,3,10,0.89,-10.41,M,10.41,M,,*67
$GPRMC,080304,A,3128.00000,N,12116.14386,E,38.877,270.000,010321,0.000,E,A,V*5C
$GPGGA,080305,3128.00000,N,12116.13123,E,3,10,0.89,-10.41,M,10.41,M,,*6C
$GPRMC,080305,A,3128.00000,N,12116.13123,E,38.877,270.000,010321,0.000,E,A,V*57
$GPGGA,080306,3128.00000,N,12116.11861,E,3,10,0.89,-10.41,M,10.41,M,,*62
$GPRMC,080306,A,3128.00000,N,12116.11861,E,38.877,270.000,010321,0.000,E,A,V*59
$GPGGA,080307,3128.00000,N,12116.10598,E,3,10,0.89,-10.41,M,10.41,M,,*69
$GPRMC,080307,A,3128.00000,N,12116.10598,E,38.877,270.000,010321,0.000,E,A,V*52
$GPGGA,080308,3128.00000,N,12116.09335,E,3,10,0.89,-10.41,M,10.41,M,,*6F
$GPRMC,080308,A,3128.00000,N,12116.09335,E,38.877,270.000,010321,0.000,E,A,V*54
$GPGGA,080309,3128.00000,N,12116.08073,E,3,10,0.89,-10.41,M,10.41,M,,*6E
$GPRMC,080309,A,3128.00000,N,12116.08073,E,38.877,270.000,010321,0.000,E,A,V*55
$GPGGA,080310,3128.00000,N,12116.06810,E,3,10,0.89,-10.41,M,10.41,M,,*65
$GPRMC,080310,A,3128.00000,N,12116.06810,E,38.877,270.000,010321,0.000,E,A,V*5E
$GPGGA,080311,3128.00000,N,12116.05547,E,3,10,0.89,-10.40,M,10.40,M,,*68
$GPRMC,080311,A,3128.00000,N,12116.05547,E,38.877,270.000,010321,0.000,E,A,V*53
$GPGGA,080312,3128.00000,N,12116.04285,E,3,10,0.89,-10.40,M,10.40,M,,*63
$GPRMC,080312,A,3128.00000,N,12116.04285,E,38.877,270.000,010321,0.000,E,A,V*58
$GPGGA,080313,3128.00000,N,12116.03022,E,3,10,0.89,-10.40,M,10.40,M,,*6A
$GPRMC,080313,A,3128.00000,N,12116.03022,E,38.877,270.000,010321,0.000,E,A,V*51
$GPGGA,080314,3128.00000,N,12116.01759,E,3,10,0.89,-10.40,M,10.40,M,,*64
$GPRMC,080314,A,3128.00000,N,12116.01759,E,38.877,270.000,010321,0.000,E,A,V*5F
$GPGGA,080315,3128.00000,N,12116.00497,E,3,10,0.89,-10.40,M,10.40,M,,*65
$GPRMC,080315,A,3128.00000,N,12116.00497,E,38.877,270.000,010321,0.000,E,A,V*5E
$GPGGA,080316,3128.00000,N,12115.99234,E,3,10,0.89,-10.40,M,10.40,M,,*6A
$GPRMC,080316,A,3128.00000,N,12115.99234,E,38.877,270.000,010321,0.000,E,A,V*51
$GPGGA,080317,3128.00000,N,12115.97971,E,3,10,0.89,-10.40,M,10.40,M,,*6F
$GPRMC,080317,A,3128.00000,N,12115.97971,E,38.877,270.000,010321,0.000,E,A,V*54
$GPGGA,080318,3128.00000,N,12115.96709,E,3,10,0.89,-10.40,M,10.40,M,,*60
$GPRMC,080318,A,3128.00000,N,12115.96709,E,38.877,270.000,010321,0.000,E,A,V*5B
$GPGGA,080319,3128.00000,N,12115.95446,E,3,10,0.89,-10.40,M,10.40,M,,*6A
$GPRMC,080319,A,3128.00000,N,12115.95446,E,38.877,270.000,010321,0.000,E,A,V*51
$GPGGA,080320,3128.00000,N,12115.94183,E,3,10,0.89,-10.40,M,10.40,M,,*6D
$GPRMC,080320,A,3128.00000,N,12115.94183,E,38.877,270.000,010321,0.000,E,A,V*56
$GPGGA,080321,3128.00000,N,12115.92921,E,3,10,0.89,-10.40,M,10.40,M,,*6A
$GPRMC,080321,A,3128.00000,N,12115.92921,E,38.877,270.000,010321,0.000,E,A,V*51
$GPGGA,080322,3128.00000,N,12115.91658,E,3,10,0.89,-10.40,M,10.40,M,,*6B
$GPRMC,080322,A,3128.00000,N,12115.91658,E,38.877,270.000,010321,0.000,E,A,V*50
$GPGGA,080323,3128.00000,N,12115.90395,E,3,10,0.89,-10.39,M,10.39,M,,*6F
$GPRMC,080323,A,3128.00000,N,12115.90395,E,38.877,270.000,010321,0.000,E,A,V*54
$GPGGA,080324,3128.00000,N,12115.89133,E,3,10,0.89,-10.39,M,10.39,M,,*6E
$GPRMC,080324,A,3128.00000,N,12115.89133,E,38.877,270.000,010321,0.000,E,A,V*55
$GPGGA,080325,3128.00000,N,12115.87870,E,3,10,0.89,-10.39,M,10.39,M,,*6F
$GPRMC,080325,A,3128.00000,N,12115.87870,E,38.877,270.000,010321,0.000,E,A,V*54
$GPGGA,080326,3128.00000,N,12115.86607,E,3,10,0.89,-10.39,M,10.39,M,,*63
$GPRMC,080326,A,3128.00000,N,12115.86607,E,38.877,270.000,010321,0.000,E,A,V*58
$GPGGA,080327,3128.00000,N,12115.85345,E,3,10,0.89,-10.39,M,10.39,M,,*62
$GPRMC,080327,A,3128.00000,N,12115.85345,E,38.877,270.000,010321,0.000,E,A,V*59
$GPGGA,080328,3128.00000,N,12115.84082,E,3,10,0.89,-10.39,M,10.39,M,,*64
$GPRMC,080328,A,3128.00000,N,12115.84082,E,38.877,270.000,010321,0.000,E,A,V*5F
$GPGGA,080329,3128.00000,N,12115.82819,E,3,10,0.89,-10.39,M,10.39,M,,*69
$GPRMC,080329,A,3128.00000,N,12115.82819,E,38.877,270.000,010321,0.000,E,A,V*52
$GPGGA,080330,3128.00000,N,12115.81556,E,3,10,0.89,-10.39,M,10.39,M,,*64
$GPRMC,080330,A,3128.00000,N,12115.81556,E,38.877,270.000,010321,0.000,E,A,V*5F
$GPGGA,080331,3128.00000,N,12115.80294,E,3,10,0.89,-10.39,M,10.39,M,,*6D
$GPRMC,080331,A,3128.00000,N,12115.80294,E,38.877,270.000,010321,0.000,E,A,V*56
$GPGGA,080332,3128.00000,N,12115.79031,E,3,10,0.89,-10.39,M,10.39,M,,*65
$GPRMC,080332,A,3128.00000,N,12115.79031,E,38.877,270.000,010321,0.000,E,A,V*5E
$GPGGA,080333,3128.00000,N,12115.77768,E,3,10,0.89,-10.39,M,10.39,M,,*61
$GPRMC,080333,A,3128.00000,N,12115.77768,E,38.877,270.000,010321,0.000,E,A,V*5A
$GPGGA,080334,3128.00000,N,12115.76506,E,3,10,0.89,-10.38,M,10.38,M,,*6D
$GPRMC,080334,A,3128.00000,N,12115.76506,E,38.877,270.000,010321,0.000,E,A,V*56
$GPGGA,080335,3128.00000,N,12115.75243,E,3,10,0.89,-10.38,M,10.38,M,,*69
$GPRMC,080335,A,3128.00000,N,12115.75243,E,38.877,270.000,010321,0.000,E,A,V*52
$GPGGA,080336,3128.00000,N,12115.73980,E,3,10,0.89,-10.38,M,10.38,M,,*68
$GPRMC,080336,A,3128.00000,N,12115.73980,E,38.877,270.000,010321,0.000,E,A,V*53
$GPGGA,080337,3128.00000,N,12115.72718,E,3,10,0.89,-10.38,M,10.38,M,,*67
$GPRMC,080337,A,3128.00000,N,12115.72718,E,38.877,270.000,010321,0.000,E,A,V*5C
$GPGGA,080338,3128.00000,N,12115.71455,E,3,10,0.89,-10.38,M,10.38,M,,*61
$GPRMC,080338,A,3128.00000,N,12115.71455,E,38.877,270.000,010321,0.000,E,A,V*5A
$GPGGA,080339,3128.00000,N,12115.70192,E,3,10,0.89,-10.38,M,10.38,M,,*6F
$GPRMC,080339,A,3128.00000,N,12115.70192,E,38.877,270.000,010321,0.000,E,A,V*54
$GPGGA,080340,3128.00000,N,12115.68930,E,3,10,0.89,-10.38,M,10.38,M,,*68
$GPRMC,080340,A,3128.00000,N,12115.68930,E,38.877,270.000,010321,0.000,E,A,V*53
$GPGGA,080341,3128.00000,N,12115.67667,E,3,10,0.89,-10.38,M,10.38,M,,*6B
$GPRMC,080341,A,3128.00000,N,12115.67667,E,38.877,270.000,010321,0.000,E,A,V*50
$GPGGA,080342,3128.00000,N,12115.66404,E,3,10,0.89,-10.38,M,10.38,M,,*6E
$GPRMC,080342,A,3128.00000,N,12115.66404,E,38.877,270.000,010321,0.000,E,A,V*55
$GPGGA,080343,3128.00000,N,12115.65142,E,3,10,0.89,-10.38,M,10.38,M,,*6B
$GPRMC,080343,A,3128.00000,N,12115.65142,E,38.877,270.000,010321,0.000,E,A,V*50
$GPGGA,080344,3128.00000,N,12115.63879,E,3,10,0.89,-10.38,M,10.38,M,,*6B
$GPRMC,080344,A,3128.00000,N,12115.63879,E,38.877,270.000,010321,0.000,E,A,V*50
$GPGGA,080345,3128.00000,N,12115.62616,E,3,10,0.89,-10.38,M,10.38,M,,*6C
$GPRMC,080345,A,3128.00000,N,12115.62616,E,38.877,270.000,010321,0.000,E,A,V*57
$GPGGA,080346,3128.00000,N,12115.61354,E,3,10,0.89,-10.37,M,10.37,M,,*6F
$GPRMC,080346,A,3128.00000,N,12115.61354,E,38.877,270.000,010321,0.000,E,A,V*54
$GPGGA,080347,3128.00000,N,12115.60091,E,3,10,0.89,-10.37,M,10.37,M,,*65
$GPRMC,080347,A,3128.00000,N,12115.60091,E,38.877,270.000,010321,0.000,E,A,V*5E
$GPGGA,080348,3128.00000,N,12115.58828,E,3,10,0.89,-10.37,M,10.37,M,,*6B
$GPRMC,080348,A,3128.00000,N,12115.58828,E,38.877,270.000,010321,0.000,E,A,V*50
$GPGGA,080349,3128.00000,N,12115.57566,E,3,10,0.89,-10.37,M,10.37,M,,*62
$GPRMC,080349,A,3128.00000,N,12115.57566,E,38.877,270.000,010321,0.000,E,A,V*59
$GPGGA,080350,3128.00000,N,12115.56303,E,3,10,0.89,-10.37,M,10.37,M,,*6E
$GPRMC,080350,A,3128.00000,N,12115.56303,E,38.877,270.000,010321,0.000,E,A,V*55
$GPGGA,080351,3128.00000,N,12115.55040,E,3,10,0.89,-10.37,M,10.37,M,,*68
$GPRMC,080351,A,3128.00000,N,12115.55040,E,38.877,270.000,010321,0.000,E,A,V*53
$GPGGA,080352,3128.00000,N,12115.53778,E,3,10,0.89,-10.37,M,10.37,M,,*61
$GPRMC,080352,A,3128.00000,N,12115.53778,E,38.877,270.000,010321,0.000,E,A,V*5A
$GPGGA,080353,3128.00000,N,12115.52515,E,3,10,0.89,-10.37,M,10.37,M,,*68
$GPRMC,080353,A,3128.00000,N,12115.52515,E,38.877,270.000,010321,0.000,E,A,V*53
$GPGGA,080354,3128.00000,N,12115.51252,E,3,10,0.89,-10.37,M,10.37,M,,*68
$GPRMC,080354,A,3128.00000,N,12115.51252,E,38.877,270.000,010321,0.000,E,A,V*53
$GPGGA,080355,3128.00000,N,12115.49990,E,3,10,0.89,-10.37,M,10.37,M,,*65
$GPRMC,080355,A,3128.00000,N,12115.49990,E,38.877,270.000,010321,0.000,E,A,V*5E
$GPGGA,080356,3128.00000,N,12115.48727,E,3,10,0.89,-10.37,M,10.37,M,,*65
$GPRMC,080356,A,3128.00000,N,12115.48727,E,38.877,270.000,010321,0.000,E,A,V*5E
$GPGGA,080357,3128.00000,N,12115.47464,E,3,10,0.89,-10.37,M,10.37,M,,*6F
$GPRMC,080357,A,3128.00000,N,12115.47464,E,38.877,270.000,010321,0.000,E,A,V*54
$GPGGA,080358,3128.00000,N,12115.46201,E,3,10,0.89,-10.36,M,10.36,M,,*64
$GPRMC,080358,A,3128.00000,N,12115.46201,E,38.877,270.000,010321,0.000,E,A,V*5F
$GPGGA,080359,3128.00000,N,12115.44939,E,3,10,0.89,-10.36,M,10.36,M,,*67
$GPRMC,080359,A,3128.00000,N,12115.44939,E,38.877,270.000,010321,0.000,E,A,V*5C
$GPGGA,080400,3128.00000,N,12115.43676,E,3,10,0.89,-10.36,M,10.36,M,,*6F
$GPRMC,080400,A,3128.00000,N,12115.43676,E,38.877,270.000,010321,0.000,E,A,V*54
$GPGGA,080401,3128.00000,N,12115.42413,E,3,10,0.89,-10.36,M,10.36,M,,*6E
$GPRMC,080401,A,3128.00000,N,12115.42413,E,38.877,270.000,010321,0.000,E,A,V*55
$GPGGA,080402,3128.00000,N,12115.41151,E,3,10,0.89,-10.36,M,10.36,M,,*6D
$GPRMC,080402,A,3128.00000,N,12115.41151,E,38.877,270.000,010321,0.000,E,A,V*56
$GPGGA,080403,3128.00000,N,12115.39888,E,3,10,0.89,-10.36,M,10.36,M,,*6E
$GPRMC,080403,A,3128.00000,N,12115.39888,E,38.877,270.000,010321,0.000,E,A,V*55
$GPGGA,080404,3128.00000,N,12115.38625,E,3,10,0.89,-10.36,M,10.36,M,,*61
$GPRMC,080404,A,3128.00000,N,12115.38625,E,38.877,270.000,010321,0.000,E,A,V*5A
$GPGGA,080405,3128.00000,N,12115.37363,E,3,10,0.89,-10.36,M,10.36,M,,*68
$GPRMC,080405,A,3128.00000,N,12115.37363,E,38.877,270.000,010321,0.000,E,A,V*53
$GPGGA,080406,3128.00000,N,12115.36100,E,3,10,0.89,-10.36,M,10.36,M,,*6D
$GPRMC,080406,A,3128.00000,N,12115.36100,E,38.877,270.000,010321,0.000,E,A,V*56
$GPGGA,080407,3128.00000,N,12115.34837,E,3,10,0.89,-10.36,M,10.36,M,,*63
$GPRMC,080407,A,3128.00000,N,12115.34837,E,38.877,270.000,010321,0.000,E,A,V*58
$GPGGA,080408,3128.00000,N,12115.33575,E,3,10,0.89,-10.36,M,10.36,M,,*60
$GPRMC,080408,A,3128.00000,N,12115.33575,E,38.877,270.000,010321,0.000,E,A,V*5B
$GPGGA,080409,3128.00000,N,12115.32312,E,3,10,0.89,-10.36,M,10.36,M,,*67
$GPRMC,080409,A,3128.00000,N,12115.32312,E,38.877,270.000,010321,0.000,E,A,V*5C
$GPGGA,080410,3128.00000,N,12115.31049,E,3,10,0.89,-10.35,M,10.35,M,,*61
$GPRMC,080410,A,3128.00000,N,12115.31049,E,38.877,270.000,010321,0.000,E,A,V*5A
$GPGGA,080411,3128.00000,N,12115.29787,E,3,10,0.89,-10.35,M,10.35,M,,*6C
$GPRMC,080411,A,3128.00000,N,12115.29787,E,38.877,270.000,010321,0.000,E,A,V*57
$GPGGA,080412,3128.00000,N,12115.28524,E,3,10,0.89,-10.35,M,10.35,M,,*65
$GPRMC,080412,A,3128.00000,N,12115.28524,E,38.877,270.000,010321,0.000,E,A,V*5E
$GPGGA,080413,3128.00000,N,12115.27261,E,3,10,0.89,-10.35,M,10.35,M,,*6D
$GPRMC,080413,A,3128.00000,N,12115.27261,E,38.877,270.000,010321,0.000,E,A,V*56
$GPGGA,080414,3128.00000,N,12115.25999,E,3,10,0.89,-10.35,M,10.35,M,,*64
$GPRMC,080414,A,3128.00000,N,12115.25999,E,38.877,270.000,010321,0.000,E,A,V*5F
$GPGGA,080415,3128.00000,N,12115.24736,E,3,10,0.89,-10.35,M,10.35,M,,*6F
$GPRMC,080415,A,3128.00000,N,12115.24736,E,38.877,270.000,010321,0.000,E,A,V*54
$GPGGA,080416,3128.00000,N,12115.23473,E,3,10,0.89,-10.35,M,10.35,M,,*69
$GPRMC,080416,A,3128.00000,N,12115.23473,E,38.877,270.000,010321,0.000,E,A,V*52
$GPGGA,080417,3128.00000,N,12115.22211,E,3,10,0.89,-10.35,M,10.35,M,,*6B
$GPRMC,080417,A,3128.00000,N,12115.22211,E,38.877,270.000,010321,0.000,E,A,V*50
$GPGGA,080418,3128.00000,N,12115.20948,E,3,10,0.89,-10.35,M,10.35,M,,*61
$GPRMC,080418,A,3128.00000,N,12115.20948,E,38.877,270.000,010321,0.000,E,A,V*5A
$GPGGA,080419,3128.00000,N,12115.19685,E,3,10,0.89,-10.35,M,10.35,M,,*64
$GPRMC,080419,A,3128.00000,N,12115.19685,E,38.877,270.000,010321,0.000,E,A,V*5F
$GPGGA,080420,3128.00000,N,12115.18423,E,3,10,0.89,-10.35,M,10.35,M,,*61
$GPRMC,080420,A,3128.00000,N,12115.18423,E,38.877,270.000,010321,0.000,E,A,V*5A
$GPGGA,080421,3128.00000,N,12115.17160,E,3,10,0.89,-10.34,M,10.34,M,,*6D
$GPRMC,080421,A,3128.00000,N,12115.17160,E,38.877,270.000,010321,0.000,E,A,V*56
$GPGGA,080422,3128.00000,N,12115.15897,E,3,10,0.89,-10.34,M,10.34,M,,*6D
$GPRMC,080422,A,3128.00000,N,12115.15897,E,38.877,270.000,010321,0.000,E,A,V*56
$GPGGA,080423,3128.00000,N,12115.14634,E,3,10,0.89,-10.34,M,10.34,M,,*6A
$GPRMC,080423,A,3128.00000,N,12115.14634,E,38.877,270.000,010321,0.000,E,A,V*51
$GPGGA,080424,3128.00000,N,12115.13372,E,3,10,0.89,-10.34,M,10.34,M,,*6D
$GPRMC,080424,A,3128.00000,N,12115.13372,E,38.877,270.000,010321,0.000,E,A,V*56
$GPGGA,080425,3128.00000,N,12115.12109,E,3,10,0.89,-10.34,M,10.34,M,,*63
$GPRMC,080425,A,3128.00000,N,12115.12109,E,38.877,270.000,010321,0.000,E,A,V*58
$GPGGA,080426,3128.00000,N,12115.10846,E,3,10,0.89,-10.34,M,10.34,M,,*60
$GPRMC,080426,A,3128.00000,N,12115.10846,E,38.877,270.000,010321,0.000,E,A,V*5B
$GPGGA,080427,3128.00000,N,12115.09584,E,3,10,0.89,-10.34,M,10.34,M,,*6A
$GPRMC,080427,A,3128.00000,N,12115.09584,E,38.877,270.000,010321,0.000,E,A,V*51
$GPGGA,080428,3128.00000,N,12115.08321,E,3,10,0.89,-10.34,M,10.34,M,,*6D
$GPRMC,080428,A,3128.00000,N,12115.08321,E,38.877,270.000,010321,0.000,E,A,V*56
$GPGGA,080429,3128.00000,N,12115.07058,E,3,10,0.89,-10.34,M,10.34,M,,*6E
$GPRMC,080429,A,3128.00000,N,12115.07058,E,38.877,270.000,010321,0.000,E,A,V*55
$GPGGA,080430,3128.00000,N,12115.05796,E,3,10,0.89,-10.34,M,10.34,M,,*61
$GPRMC,080430,A,3128.00000,N,12115.05796,E,38.877,270.000,010321,0.000,E,A,V*5A
$GPGGA,080431,3128.00000,N,12115.04533,E,3,10,0.89,-10.34,M,10.34,M,,*6C
$GPRMC,080431,A,3128.00000,N,12115.04533,E,38.877,270.000,010321,0.000,E,A,V*57
$GPGGA,080432,3128.00000,N,12115.03270,E,3,10,0.89,-10.34,M,10.34,M,,*68
$GPRMC,080432,A,3128.00000,N,12115.03270,E,38.877,270.000,010321,0.000,E,A,V*53
$GPGGA,080433,3128.00000,N,12115.02008,E,3,10,0.89,-10.33,M,10.33,M,,*65
$GPRMC,080433,A,3128.00000,N,12115.02008,E,38.877,270.000,010321,0.000,E,A,V*5E
$GPGGA,080434,3128.00000,N,12115.00745,E,3,10,0.89,-10.33,M,10.33,M,,*6E
$GPRMC,080434,A,3128.00000,N,12115.00745,E,38.877,270.000,010321,0.000,E,A,V*55
$GPGGA,080435,3128.00000,N,12114.99482,E,3,10,0.89,-10.33,M,10.33,M,,*66
$GPRMC,080435,A,3128.00000,N,12114.99482,E,38.877,270.000,010321,0.000,E,A,V*5D
$GPGGA,080436,3128.00000,N,12114.98220,E,3,10,0.89,-10.33,M,10.33,M,,*6A
$GPRMC,080436,A,3128.00000,N,12114.98220,E,38.877,270.000,010321,0.000,E,A,V*51
$GPGGA,080437,3128.00000,N,12114.96957,E,3,10,0.89,-10.33,M,10.33,M,,*6E
$GPRMC,080437,A,3128.00000,N,12114.96957,E,38.877,270.000,010321,0.000,E,A,V*55
$GPGGA,080438,3128.00000,N,12114.95694,E,3,10,0.89,-10.33,M,10.33,M,,*62
$GPRMC,080438,A,3128.00000,N,12114.95694,E,38.877,270.000,010321,0.000,E,A,V*59
$GPGGA,080439,3128.00000,N,12114.94432,E,3,10,0.89,-10.33,M,10.33,M,,*6C
$GPRMC,080439,A,3128.00000,N,12114.94432,E,38.877,270.000,010321,0.000,E,A,V*57
$GPGGA,080440,3128.00000,N,12114.93169,E,3,10,0.89,-10.33,M,10.33,M,,*6E
$GPRMC,080440,A,3128.00000,N,12114.93169,E,38.877,270.000,010321,0.000,E,A,V*55
$GPGGA,080441,3128.00000,N,12114.91906,E,3,10,0.89,-10.33,M,10.33,M,,*6C
$GPRMC,080441,A,3128.00000,N,12114.91906,E,38.877,270.000,010321,0.000,E,A,V*57
$GPGGA,080442,3128.00000,N,12114.90644,E,3,10,0.89,-10.33,M,10.33,M,,*67
$GPRMC,080442,A,3128.00000,N,12114.90644,E,38.877,270.000,010321,0.000,E,A,V*5C
$GPGGA,080443,3128.00000,N,12114.89381,E,3,10,0.89,-10.33,M,10.33,M,,*62
$GPRMC,080443,A,3128.00000,N,12114.89381,E,38.877,270.000,010321,0.000,E,A,V*59
$GPGGA,080444,3128.00000,N,12114.88118,E,3,10,0.89,-10.33,M,10.33,M,,*66
$GPRMC,080444,A,3128.00000,N,12114.88118,E,38.877,270.000,010321,0.000,E,A,V*5D
$GPGGA,080445,3128.00000,N,12114.86856,E,3,10,0.89,-10.32,M,10.32,M,,*6A
$GPRMC,080445,A,3128.00000,N,12114.86856,E,38.877,270.000,010321,0.000,E,A,V*51
$GPGGA,080446,3128.00000,N,12114.85593,E,3,10,0.89,-10.32,M,10.32,M,,*6E
$GPRMC,080446,A,3128.00000,N,12114.85593,E,38.877,270.000,010321,0.000,E,A,V*55
$GPGGA,080447,3128.00000,N,12114.84330,E,3,10,0.89,-10.32,M,10.32,M,,*61
$GPRMC,080447,A,3128.00000,N,12114.84330,E,38.877,270.000,010321,0.000,E,A,V*5A
$GPGGA,080448,3128.00000,N,12114.83067,E,3,10,0.89,-10.32,M,10.32,M,,*68
$GPRMC,080448,A,3128.00000,N,12114.83067,E,38.877,270.000,010321,0.000,E,A,V*53
$GPGGA,080449,3128.00000,N,12114.81805,E,3,10,0.89,-10.32,M,10.32,M,,*67
$GPRMC,080449,A,3128.00000,N,12114.81805,E,38.877,270.000,010321,0.000,E,A,V*5C
$GPGGA,080450,3128.00000,N,12114.80542,E,3,10,0.89,-10.32,M,10.32,M,,*60
$GPRMC,080450,A,3128.00000,N,12114.80542,E,38.877,270.000,010321,0.000,E,A,V*5B
$GPGGA,080451,3128.00000,N,12114.79279,E,3,10,0.89,-10.32,M,10.32,M,,*68
$GPRMC,080451,A,3128.00000,N,12114.79279,E,38.877,270.000,010321,0.000,E,A,V*53
$GPGGA,080452,3128.00000,N,12114.78017,E,3,10,0.89,-10.32,M,10.32,M,,*60
$GPRMC,080452,A,3128.00000,N,12114.78017,E,38.877,270.000,010321,0.000,E,A,V*5B
$GPGGA,080453,3128.00000,N,12114.76754,E,3,10,0.89,-10.32,M,10.32,M,,*6F
$GPRMC,080453,A,3128.00000,N,12114.76754,E,38.877,270.000,010321,0.000,E,A,V*54
$GPGGA,080454,3128.00000,N,12114.75491,E,3,10,0.89,-10.32,M,10.32,M,,*61
$GPRMC,080454,A,3128.00000,N,12114.75491,E,38.877,270.000,010321,0.000,E,A,V*5A
$GPGGA,080455,3128.00000,N,12114.74229,E,3,10,0.89,-10.32,M,10.32,M,,*64
$GPRMC,080455,A,3128.00000,N,12114.74229,E,38.877,270.000,010321,0.000,E,A,V*5F
$GPGGA,080456,3128.00000,N,12114.72966,E,3,10,0.89,-10.32,M,10.32,M,,*61
$GPRMC,080456,A,3128.00000,N,12114.72966,E,38.877,270.000,010321,0.000,E,A,V*5A
$GPGGA,080457,3128.00000,N,12114.71703,E,3,10,0.89,-10.31,M,10.31,M,,*6E
$GPRMC,080457,A,3128.00000,N,12114.71703,E,38.877,270.000,010321,0.000,E,A,V*55
$GPGGA,080458,3128.00000,N,12114.70441,E,3,10,0.89,-10.31,M,10.31,M,,*65
$GPRMC,080458,A,3128.00000,N,12114.70441,E,38.877,270.000,010321,0.000,E,A,V*5E
$GPGGA,080459,3128.00000,N,12114.69178,E,3,10,0.89,-10.31,M,10.31,M,,*63
$GPRMC,080459,A,3128.00000,N,12114.69178,E,38.877,270.000,010321,0.000,E,A,V*58
$GPGGA,080500,3128.00000,N,12114.67915,E,3,10,0.89,-10.31,M,10.31,M,,*63
$GPRMC,080500,A,3128.00000,N,12114.67915,E,38.877,270.000,010321,0.000,E,A,V*58
$GPGGA,080501,3128.00000,N,12114.66653,E,3,10,0.89,-10.31,M,10.31,M,,*6E
$GPRMC,080501,A,3128.00000,N,12114.66653,E,38.877,270.000,010321,0.000,E,A,V*55
$GPGGA,080502,3128.00000,N,12114.65390,E,3,10,0.89,-10.31,M,10.31,M,,*64
$GPRMC,080502,A,3128.00000,N,12114.65390,E,38.877,270.000,010321,0.000,E,A,V*5F
$GPGGA,080503,3128.00000,N,12114.64127,E,3,10,0.89,-10.31,M,10.31,M,,*6A
$GPRMC,080503,A,3128.00000,N,12114.64127,E,38.877,270.000,010321,0.000,E,A,V*51
$GPGGA,080504,3128.00000,N,12114.62865,E,3,10,0.89,-10.31,M,10.31,M,,*64
$GPRMC,080504,A,3128.00000,N,12114.62865,E,38.877,270.000,010321,0.000,E,A,V*5F
$GPGGA,080505,3128.00000,N,12114.61602,E,3,10,0.89,-10.31,M,10.31,M,,*69
$GPRMC,080505,A,3128.00000,N,12114.61602,E,38.877,270.000,010321,0.000,E,A,V*52
$GPGGA,080506,3128.00000,N,12114.60339,E,3,10,0.89,-10.31,M,10.31,M,,*66
$GPRMC,080506,A,3128.00000,N,12114.60339,E,38.877,270.000,010321,0.000,E,A,V*5D
$GPGGA,080507,3128.00000,N,12114.59077,E,3,10,0.89,-10.31,M,10.31,M,,*64
$GPRMC,080507,A,3128.00000,N,12114.59077,E,38.877,270.000,010321,0.000,E,A,V*5F
$GPGGA,080508,3128.00000,N,12114.57814,E,3,10,0.89,-10.31,M,10.31,M,,*68
$GPRMC,080508,A,3128.00000,N,12114.57814,E,38.877,270.000,010321,0.000,E,A,V*53
$GPGGA,080509,3128.00000,N,12114.56551,E,3,10,0.89,-10.31,M,10.31,M,,*64
$GPRMC,080509,A,3128.00000,N,12114.56551,E,38.877,270.000,010321,0.000,E,A,V*5F
$GPGGA,080510,3128.00000,N,12114.55289,E,3,10,0.89,-10.30,M,10.30,M,,*6D
$GPRMC,080510,A,3128.00000,N,12114.55289,E,38.877,270.000,010321,0.000,E,A,V*56
$GPGGA,080511,3128.00000,N,12114.54026,E,3,10,0.89,-10.30,M,10.30,M,,*6A
$GPRMC,080511,A,3128.00000,N,12114.54026,E,38.877,270.000,010321,0.000,E,A,V*51
$GPGGA,080512,3128.00000,N,12114.52763,E,3,10,0.89,-10.30,M,10.30,M,,*69
$GPRMC,080512,A,3128.00000,N,12114.52763,E,38.877,270.000,010321,0.000,E,A,V*52
$GPGGA,080513,3128.00000,N,12114.51501,E,3,10,0.89,-10.30,M,10.30,M,,*6D
$GPRMC,080513,A,3128.00000,N,12114.51501,E,38.877,270.000,010321,0.000,E,A,V*56
$GPGGA,080514,3128.00000,N,12114.50238,E,3,10,0.89,-10.30,M,10.30,M,,*66
$GPRMC,080514,A,3128.00000,N,12114.50238,E,38.877,270.000,010321,0.000,E,A,V*5D
$GPGGA,080515,3128.00000,N,12114.48975,E,3,10,0.89,-10.30,M,10.30,M,,*6C
$GPRMC,080515,A,3128.00000,N,12114.48975,E,38.877,270.000,010321,0.000,E,A,V*57
$GPGGA,080516,3128.00000,N,12114.47712,E,3,10,0.89,-10.30,M,10.30,M,,*6F
$GPRMC,080516,A,3128.00000,N,12114.47712,E,38.877,270.000,010321,0.000,E,A,V*54
$GPGGA,080517,3128.00000,N,12114.46450,E,3,10,0.89,-10.30,M,10.30,M,,*6A
$GPRMC,080517,A,3128.00000,N,12114.46450,E,38.877,270.000,010321,0.000,E,A,V*51
$GPGGA,080518,3128.00000,N,12114.45187,E,3,10,0.89,-10.30,M,10.30,M,,*69
$GPRMC,080518,A,3128.00000,N,12114.45187,E,38.877,270.000,010321,0.000,E,A,V*52
$GPGGA,080519,3128.00000,N,12114.43924,E,3,10,0.89,-10.30,M,10.30,M,,*6F
$GPRMC,080519,A,3128.00000,N,12114.43924,E,38.877,270.000,010321,0.000,E,A,V*54
$GPGGA,080520,3128.00000,N,12114.42662,E,3,10,0.89,-10.30,M,10.30,M,,*69
$GPRMC,080520,A,3128.00000,N,12114.42662,E,38.877,270.000,010321,0.000,E,A,V*52
$GPGGA,080521,3128.00000,N,12114.41399,E,3,10,0.89,-10.30,M,10.30,M,,*6A
$GPRMC,080521,A,3128.00000,N,12114.41399,E,38.877,270.000,010321,0.000,E,A,V*51
$GPGGA,080522,3128.00000,N,12114.40136,E,3,10,0.89,-10.29,M,10.29,M,,*6F
$GPRMC,080522,A,3128.00000,N,12114.40136,E,38.877,270.000,010321,0.000,E,A,V*54
$GPGGA,080523,3128.00000,N,12114.38874,E,3,10,0.89,-10.29,M,10.29,M,,*6E
$GPRMC,080523,A,3128.00000,N,12114.38874,E,38.877,270.000,010321,0.000,E,A,V*55
$GPGGA,080524,3128.00000,N,12114.37611,E,3,10,0.89,-10.29,M,10.29,M,,*6B
$GPRMC,080524,A,3128.00000,N,12114.37611,E,38.877,270.000,010321,0.000,E,A,V*50
$GPGGA,080525,3128.00000,N,12114.36348,E,3,10,0.89,-10.29,M,10.29,M,,*62
$GPRMC,080525,A,3128.00000,N,12114.36348,E,38.877,270.000,010321,0.000,E,A,V*59
$GPGGA,080526,3128.00000,N,12114.35086,E,3,10,0.89,-10.29,M,10.29,M,,*63
$GPRMC,080526,A,3128.00000,N,12114.35086,E,38.877,270.000,010321,0.000,E,A,V*58
$GPGGA,080527,3128.00000,N,12114.33823,E,3,10,0.89,-10.29,M,10.29,M,,*63
$GPRMC,080527,A,3128.00000,N,12114.33823,E,38.877,270.000,010321,0.000,E,A,V*58
$GPGGA,080528,3128.00000,N,12114.32560,E,3,10,0.89,-10.29,M,10.29,M,,*67
$GPRMC,080528,A,3128.00000,N,12114.32560,E,38.877,270.000,010321,0.000,E,A,V*5C
$GPGGA,080529,3128.00000,N,12114.31298,E,3,10,0.89,-10.29,M,10.29,M,,*65
$GPRMC,080529,A,3128.00000,N,12114.31298,E,38.877,270.000,010321,0.000,E,A,V*5E
$GPGGA,080530,3128.00000,N,12114.30035,E,3,10,0.89,-10.29,M,10.29,M,,*69
$GPRMC,080530,A,3128.00000,N,12114.30035,E,38.877,270.000,010321,0.000,E,A,V*52
$GPGGA,080531,3128.00000,N,12114.28772,E,3,10,0.89,-10.29,M,10.29,M,,*65
$GPRMC,080531,A,3128.00000,N,12114.28772,E,38.877,270.000,010321,0.000,E,A,V*5E
$GPGGA,080532,3128.00000,N,12114.27510,E,3,10,0.89,-10.29,M,10.29,M,,*6F
$GPRMC,080532,A,3128.00000,N,12114.27510,E,38.877,270.000,010321,0.000,E,A,V*54
$GPGGA,080533,3128.00000,N,12114.26247,E,3,10,0.89,-10.29,M,10.29,M,,*6A
$GPRMC,080533,A,3128.00000,N,12114.26247,E,38.877,270.000,010321,0.000,E,A,V*51
$GPGGA,080534,3128.00000,N,12114.24984,E,3,10,0.89,-10.28,M,10.28,M,,*6B
$GPRMC,080534,A,3128.00000,N,12114.24984,E,38.877,270.000,010321,0.000,E,A,V*50
$GPGGA,080535,3128.00000,N,12114.23722,E,3,10,0.89,-10.28,M,10.28,M,,*6F
$GPRMC,080535,A,3128.00000,N,12114.23722,E,38.877,270.000,010321,0.000,E,A,V*54
$GPGGA,080536,3128.00000,N,12114.22459,E,3,10,0.89,-10.28,M,10.28,M,,*62
$GPRMC,080536,A,3128.00000,N,12114.22459,E,38.877,270.000,010321,0.000,E,A,V*59
$GPGGA,080537,3128.00000,N,12114.21196,E,3,10,0.89,-10.28,M,10.28,M,,*66
$GPRMC,080537,A,3128.00000,N,12114.21196,E,38.877,270.000,010321,0.000,E,A,V*5D
$GPGGA,080538,3128.00000,N,12114.19934,E,3,10,0.89,-10.28,M,10.28,M,,*62
$GPRMC,080538,A,3128.00000,N,12114.19934,E,38.877,270.000,010321,0.000,E,A,V*59
$GPGGA,080539,3128.00000,N,12114.18671,E,3,10,0.89,-10.28,M,10.28,M,,*6C
$GPRMC,080539,A,3128.00000,N,12114.18671,E,38.877,270.000,010321,0.000,E,A,V*57
$GPGGA,080540,3128.00000,N,12114.17408,E,3,10,0.89,-10.28,M,10.28,M,,*61
$GPRMC,080540,A,3128.00000,N,12114.17408,E,38.877,270.000,010321,0.000,E,A,V*5A
$GPGGA,080541,3128.00000,N,12114.16146,E,3,10,0.89,-10.28,M,10.28,M,,*6E
$GPRMC,080541,A,3128.00000,N,12114.16146,E,38.877,270.000,010321,0.000,E,A,V*55
$GPGGA,080542,3128.00000,N,12114.14883,E,3,10,0.89,-10.28,M,10.28,M,,*6F
$GPRMC,080542,A,3128.00000,N,12114.14883,E,38.877,270.000,010321,0.000,E,A,V*54
$GPGGA,080543,3128.00000,N,12114.13620,E,3,10,0.89,-10.28,M,10.28,M,,*6E
$GPRMC,080543,A,3128.00000,N,12114.13620,E,38.877,270.000,010321,0.000,E,A,V*55
$GPGGA,080544,3128.00000,N,12114.12357,E,3,10,0.89,-10.28,M,10.28,M,,*6D
$GPRMC,080544,A,3128.00000,N,12114.12357,E,38.877,270.000,010321,0.000,E,A,V*56
$GPGGA,080545,3128.00000,N,12114.11095,E,3,10,0.89,-10.28,M,10.28,M,,*62
$GPRMC,080545,A,3128.00000,N,12114.11095,E,38.877,270.000,010321,0.000,E,A,V*59
$GPGGA,080546,3128.00000,N,12114.09832,E,3,10,0.89,-10.28,M,10.28,M,,*6D
$GPRMC,080546,A,3128.00000,N,12114.09832,E,38.877,270.000,010321,0.000,E,A,V*56
$GPGGA,080547,3128.00000,N,12114.08569,E,3,10,0.89,-10.27,M,10.27,M,,*6E
$GPRMC,080547,A,3128.00000,N,12114.08569,E,38.877,270.000,010321,0.000,E,A,V*55
$GPGGA,080548,3128.00000,N,12114.07307,E,3,10,0.89,-10.27,M,10.27,M,,*60
$GPRMC,080548,A,3128.00000,N,12114.07307,E,38.877,270.000,010321,0.000,E,A,V*5B
$GPGGA,080549,3128.00000,N,12114.06044,E,3,10,0.89,-10.27,M,10.27,M,,*64
$GPRMC,080549,A,3128.00000,N,12114.06044,E,38.877,270.000,010321,0.000,E,A,V*5F
$GPGGA,080550,3128.00000,N,12114.04781,E,3,10,0.89,-10.27,M,10.27,M,,*60
$GPRMC,080550,A,3128.00000,N,12114.04781,E,38.877,270.000,010321,0.000,E,A,V*5B
$GPGGA,080551,3128.00000,N,12114.03519,E,3,10,0.89,-10.27,M,10.27,M,,*65
$GPRMC,080551,A,3128.00000,N,12114.03519,E,38.877,270.000,010321,0.000,E,A,V*5E
$GPGGA,080552,3128.00000,N,12114.02256,E,3,10,0.89,-10.27,M,10.27,M,,*6B
$GPRMC,080552,A,3128.00000,N,12114.02256,E,38.877,270.000,010321,0.000,E,A,V*50
$GPGGA,080553,3128.00000,N,12114.00993,E,3,10,0.89,-10.27,M,10.27,M,,*6A
$GPRMC,080553,A,3128.00000,N,12114.00993,E,38.877,270.000,010321,0.000,E,A,V*51
$GPGGA,080554,3128.00000,N,12113.99731,E,3,10,0.89,-10.27,M,10.27,M,,*6C
$GPRMC,080554,A,3128.00000,N,12113.99731,E,38.877,270.000,010321,0.000,E,A,V*57
$GPGGA,080555,3128.00000,N,12113.98468,E,3,10,0.89,-10.27,M,10.27,M,,*63
$GPRMC,080555,A,3128.00000,N,12113.98468,E,38.877,270.000,010321,0.000,E,A,V*58
$GPGGA,080556,3128.00000,N,12113.97205,E,3,10,0.89,-10.27,M,10.27,M,,*62
$GPRMC,080556,A,3128.00000,N,12113.97205,E,38.877,270.000,010321,0.000,E,A,V*59
$GPGGA,080557,3128.00000,N,12113.95943,E,3,10,0.89,-10.27,M,10.27,M,,*68
$GPRMC,080557,A,3128.00000,N,12113.95943,E,38.877,270.000,010321,0.000,E,A,V*53
$GPGGA,080558,3128.00000,N,12113.94680,E,3,10,0.89,-10.27,M,10.27,M,,*66
$GPRMC,080558,A,3128.00000,N,12113.94680,E,38.877,270.000,010321,0.000,E,A,V*5D
$GPGGA,080559,3128.00000,N,12113.93417,E,3,10,0.89,-10.26,M,10.26,M,,*6C
$GPRMC,080559,A,3128.00000,N,12113.93417,E,38.877,270.000,010321,0.000,E,A,V*57
$GPGGA,080600,3128.00000,N,12113.92155,E,3,10,0.89,-10.26,M,10.26,M,,*61
$GPRMC,080600,A,3128.00000,N,12113.92155,E,38.877,270.000,010321,0.000,E,A,V*5A
$GPGGA,080601,3128.00000,N,12113.90892,E,3,10,0.89,-10.26,M,10.26,M,,*60
$GPRMC,080601,A,3128.00000,N,12113.90892,E,38.877,270.000,010321,0.000,E,A,V*5B
$GPGGA,080602,3128.00000,N,12113.89629,E,3,10,0.89,-10.26,M,10.26,M,,*65
$GPRMC,080602,A,3128.00000,N,12113.89629,E,38.877,270.000,010321,0.000,E,A,V*5E
$GPGGA,080603,3128.00000,N,12113.88367,E,3,10,0.89,-10.26,M,10.26,M,,*6A
$GPRMC,080603,A,3128.00000,N,12113.88367,E,38.877,270.000,010321,0.000,E,A,V*51
$GPGGA,080604,3128.00000,N,12113.87104,E,3,10,0.89,-10.26,M,10.26,M,,*65
$GPRMC,080604,A,3128.00000,N,12113.87104,E,38.877,270.000,010321,0.000,E,A,V*5E
$GPGGA,080605,3128.00000,N,12113.85841,E,3,10,0.89,-10.26,M,10.26,M,,*6E
$GPRMC,080605,A,3128.00000,N,12113.85841,E,38.877,270.000,010321,0.000,E,A,V*55
$GPGGA,080606,3128.00000,N,12113.84579,E,3,10,0.89,-10.26,M,10.26,M,,*6A
$GPRMC,080606,A,3128.00000,N,12113.84579,E,38.877,270.000,010321,0.000,E,A,V*51
$GPGGA,080607,3128.00000,N,12113.83316,E,3,10,0.89,-10.26,M,10.26,M,,*63
$GPRMC,080607,A,3128.00000,N,12113.83316,E,38.877,270.000,010321,0.000,E,A,V*58
$GPGGA,080608,3128.00000,N,12113.82053,E,3,10,0.89,-10.26,M,10.26,M,,*6F
$GPRMC,080608,A,3128.00000,N,12113.82053,E,38.877,270.000,010321,0.000,E,A,V*54
$GPGGA,080609,3128.00000,N,12113.80790,E,3,10,0.89,-10.26,M,10.26,M,,*64
$GPRMC,080609,A,3128.00000,N,12113.80790,E,38.877,270.000,010321,0.000,E,A,V*5F
$GPGGA,080610,3128.00000,N,12113.79528,E,3,10,0.89,-10.26,M,10.26,M,,*6B
$GPRMC,080610,A,3128.00000,N,12113.79528,E,38.877,270.000,010321,0.000,E,A,V*50
$GPGGA,080611,3128.00000,N,12113.78265,E,3,10,0.89,-10.26,M,10.26,M,,*65
$GPRMC,080611,A,3128.00000,N,12113.78265,E,38.877,270.000,010321,0.000,E,A,V*5E
$GPGGA,080612,3128.00000,N,12113.77002,E,3,10,0.89,-10.25,M,10.25,M,,*6A
$GPRMC,080612,A,3128.00000,N,12113.77002,E,38.877,270.000,010321,0.000,E,A,V*51
$GPGGA,080613,3128.00000,N,12113.75740,E,3,10,0.89,-10.25,M,10.25,M,,*68
$GPRMC,080613,A,3128.00000,N,12113.75740,E,38.877,270.000,010321,0.000,E,A,V*53
$GPGGA,080614,3128.00000,N,12113.74477,E,3,10,0.89,-10.25,M,10.25,M,,*69
$GPRMC,080614,A,3128.00000,N,12113.74477,E,38.877,270.000,010321,0.000,E,A,V*52
$GPGGA,080615,3128.00000,N,12113.73214,E,3,10,0.89,-10.25,M,10.25,M,,*6C
$GPRMC,080615,A,3128.00000,N,12113.73214,E,38.877,270.000,010321,0.000,E,A,V*57
$GPGGA,080616,3128.00000,N,12113.71952,E,3,10,0.89,-10.25,M,10.25,M,,*64
$GPRMC,080616,A,3128.00000,N,12113.71952,E,38.877,270.000,010321,0.000,E,A,V*5F
$GPGGA,080617,3128.00000,N,12113.70689,E,3,10,0.89,-10.25,M,10.25,M,,*6D
$GPRMC,080617,A,3128.00000,N,12113.70689,E,38.877,270.000,010321,0.000,E,A,V*56
$GPGGA,080618,3128.00000,N,12113.69426,E,3,10,0.89,-10.25,M,10.25,M,,*6D
$GPRMC,080618,A,3128.00000,N,12113.69426,E,38.877,270.000,010321,0.000,E,A,V*56
$GPGGA,080619,3128.00000,N,12113.68164,E,3,10,0.89,-10.25,M,10.25,M,,*6E
$GPRMC,080619,A,3128.00000,N,12113.68164,E,38.877,270.000,010321,0.000,E,A,V*55
$GPGGA,080620,3128.00000,N,12113.66901,E,3,10,0.89,-10.25,M,10.25,M,,*61
$GPRMC,080620,A,3128.00000,N,12113.66901,E,38.877,270.000,010321,0.000,E,A,V*5A
$GPGGA,080621,3128.00000,N,12113.65638,E,3,10,0.89,-10.25,M,10.25,M,,*66
$GPRMC,080621,A,3128.00000,N,12113.65638,E,38.877,270.000,010321,0.000,E,A,V*5D
$GPGGA,080622,3128.00000,N,12113.64376,E,3,10,0.89,-10.25,M,10.25,M,,*6B
$GPRMC,080622,A,3128.00000,N,12113.64376,E,38.877,270.000,010321,0.000,E,A,V*50
$GPGGA,080623,3128.00000,N,12113.63113,E,3,10,0.89,-10.25,M,10.25,M,,*6C
$GPRMC,080623,A,3128.00000,N,12113.63113,E,38.877,270.000,010321,0.000,E,A,V*57
$GPGGA,080624,3128.00000,N,12113.61850,E,3,10,0.89,-10.24,M,10.24,M,,*67
$GPRMC,080624,A,3128.00000,N,12113.61850,E,38.877,270.000,010321,0.000,E,A,V*5C
$GPGGA,080625,3128.00000,N,12113.60588,E,3,10,0.89,-10.24,M,10.24,M,,*6F
$GPRMC,080625,A,3128.00000,N,12113.60588,E,38.877,270.000,010321,0.000,E,A,V*54
$GPGGA,080626,3128.00000,N,12113.59325,E,3,10,0.89,-10.24,M,10.24,M,,*67
$GPRMC,080626,A,3128.00000,N,12113.59325,E,38.877,270.000,010321,0.000,E,A,V*5C
$GPGGA,080627,3128.00000,N,12113.58062,E,3,10,0.89,-10.24,M,10.24,M,,*67
$GPRMC,080627,A,3128.00000,N,12113.58062,E,38.877,270.000,010321,0.000,E,A,V*5C
$GPGGA,080628,3128.00000,N,12113.56800,E,3,10,0.89,-10.24,M,10.24,M,,*6A
$GPRMC,080628,A,3128.00000,N,12113.56800,E,38.877,270.000,010321,0.000,E,A,V*51
