$GNRMC,090010.00,A,3128.00000,N,12117.93219,E,5.220,270.03,010321,,,A,V*0C
$GNVTG,270.03,T,,M,5.220,N,9.668,K,A*21
$GNGGA,090010.00,3128.00000,N,12117.93219,E,1,10,0.89,-9.8,M,9.3,M,,*50
$GNGSA,A,3,16,23,25,01,20,08,13,04,07,02,,,1.49,0.89,1.20,1*06
$GNGSA,A,3,,,,,,,,,,,,,1.49,0.89,1.20,4*0A
$GPGSV,3,1,11,01,15,113,52,02,20,314,52,04,50,279,53,07,64,190,53,0*67
$GPGSV,3,2,11,08,25,206,52,13,62,358,53,16,09,056,52,17,00,225,,0*6F
$GPGSV,3,3,11,20,40,110,53,23,44,042,53,25,83,133,53,0*5F
$GBGSV,1,1,00,0*77
$GNGLL,3128.00000,N,12117.93219,E,090010.00,A,A*73
$GNRMC,090011.00,A,3128.00000,N,12117.93053,E,5.058,269.97,010321,,,A,V*09
$GNVTG,269.97,T,,M,5.058,N,9.368,K,A*2C
$GNGGA,090011.00,3128.00000,N,12117.93053,E,1,10,0.89,-9.8,M,9.3,M,,*5D
$GNGSA,A,3,16,23,25,01,20,08,13,04,07,02,,,1.49,0.89,1.20,1*06
$GNGSA,A,3,,,,,,,,,,,,,1.49,0.89,1.20,4*0A
$GPGSV,3,1,11,01,15,113,52,02,20,314,52,04,50,279,53,07,64,190,53,0*67
$GPGSV,3,2,11,08,25,206,52,13,62,358,53,16,09,056,52,17,00,225,,0*6F
$GPGSV,3,3,11,20,40,110,53,23,44,042,53,25,83,133,53,0*5F
$GBGSV,1,1,00,0*77
$GNGLL,3128.00000,N,12117.93053,E,090011.00,A,A*7E
$GNRMC,090012.00,A,3128.00001,N,12117.92893,E,4.891,270.02,010321,,,A,V*06
$GNVTG,270.02,T,,M,4.891,N,9.058,K,A*24
$GNGGA,090012.00,3128.00001,N,12117.92893,E,1,10,0.89,-9.8,M,9.3,M,,*5A
$GNGSA,A,3,16,23,25,01,20,08,13,04,07,02,,,1.49,0.89,1.20,1*06
$GNGSA,A,3,,,,,,,,,,,,,1.49,0.89,1.20,4*0A
$GPGSV,3,1,11,01,15,113,52,02,20,314,52,04,50,279,53,07,64,190,53,0*67
$GPGSV,3,2,11,08,25,206,52,13,62,358,53,16,09,056,51,17,00,225,,0*6C
$GPGSV,3,3,11,20,40,110,52,23,44,042,53,25,83,133,53,0*5E
$GBGSV,1,1,00,0*77
$GNGLL,3128.00001,N,12117.92893,E,090012.00,A,A*79
$GNRMC,090013.00,A,3128.00001,N,12117.92739,E,4.737,270.02,010321,,,A,V*0B
$GNVTG,270.02,T,,M,4.737,N,8.774,K,A*2F
$GNGGA,090013.00,3128.00001,N,12117.92739,E,1,10,0.89,-9.7,M,9.3,M,,*5B
$GNGSA,A,3,16,23,25,01,20,08,13,04,07,02,,,1.49,0.89,1.20,1*06
$GNGSA,A,3,,,,,,,,,,,,,1.49,0.89,1.20,4*0A
$GPGSV,3,1,11,01,15,113,52,02,20,314,52,04,50,279,53,07,64,190,53,0*67
$GPGSV,3,2,11,08,25,206,52,13,62,358,53,16,09,056,51,17,00,225,,0*6C
$GPGSV,3,3,11,20,40,110,52,23,44,042,53,25,83,133,53,0*5E
$GBGSV,1,1,00,0*77
$GNGLL,3128.00001,N,12117.92739,E,090013.00,A,A*77
$GNRMC,090014.00,A,3128.00001,N,12117.92589,E,4.572,270.01,010321,,,A,V*05
$GNVTG,270.01,T,,M,4.572,N,8.468,K,A*21
$GNGGA,090014.00,3128.00001,N,12117.92589,E,1,10,0.89,-9.7,M,9.3,M,,*55
$GNGSA,A,3,16,23,25,01,20,08,13,04,07,02,,,1.49,0.89,1.20,1*06
$GNGSA,A,3,,,,,,,,,,,,,1.49,0.89,1.20,4*0A
$GPGSV,3,1,11,01,15,113,52,02,20,314,52,04,50,279,53,07,64,190,53,0*67
$GPGSV,3,2,11,08,25,206,52,13,62,358,53,16,09,056,51,17,00,225,,0*6C
$GPGSV,3,3,11,20,40,110,53,23,44,042,53,25,83,133,53,0*5F
$GBGSV,1,1,00,0*77
$GNGLL,3128.00001,N,12117.92589,E,090014.00,A,A*79
$GNRMC,090015.00,A,3128.00001,N,12117.92445,E,4.407,269.99,010321,,,A,V*0F
$GNVTG,269.99,T,,M,4.407,N,8.163,K,A*25
$GNGGA,090015.00,3128.00001,N,12117.92445,E,1,10,0.89,-9.7,M,9.3,M,,*55
$GNGSA,A,3,16,23,25,01,20,08,13,04,07,02,,,1.50,0.89,1.20,1*0E
$GNGSA,A,3,,,,,,,,,,,,,1.50,0.89,1.20,4*02
$GPGSV,3,1,11,01,15,113,52,02,20,314,52,04,50,279,53,07,64,190,53,0*67
$GPGSV,3,2,11,08,25,206,52,13,62,358,53,16,09,056,51,17,00,225,,0*6C
$GPGSV,3,3,11,20,40,110,53,23,44,042,53,25,83,133,53,0*5F
$GBGSV,1,1,00,0*77
$GNGLL,3128.00001,N,12117.92445,E,090015.00,A,A*79
$GNRMC,090016.00,A,3128.00001,N,12117.92306,E,4.246,270.08,010321,,,A,V*0F
$GNVTG,270.08,T,,M,4.246,N,7.863,K,A*20
$GNGGA,090016.00,3128.00001,N,12117.92306,E,1,10,0.89,-9.7,M,9.3,M,,*56
$GNGSA,A,3,16,23,25,01,20,08,13,04,07,02,,,1.50,0.89,1.20,1*0E
$GNGSA,A,3,,,,,,,,,,,,,1.50,0.89,1.20,4*02
$GPGSV,3,1,11,01,15,113,52,02,20,314,52,04,50,279,53,07,64,190,53,0*67
$GPGSV,3,2,11,08,25,206,52,13,62,358,53,16,09,056,51,17,00,225,,0*6C
$GPGSV,3,3,11,20,40,110,53,23,44,042,53,25,83,133,53,0*5F
$GBGSV,1,1,00,0*77
$GNGLL,3128.00001,N,12117.92306,E,090016.00,A,A*7A
$GNRMC,090017.00,A,3128.00001,N,12117.92172,E,4.083,269.99,010321,,,A,V*04
$GNVTG,269.99,T,,M,4.083,N,7.561,K,A*24
$GNGGA,090017.00,3128.00001,N,12117.92172,E,1,10,0.89,-9.7,M,9.3,M,,*56
$GNGSA,A,3,16,23,25,01,20,08,13,04,07,02,,,1.50,0.89,1.20,1*0E
$GNGSA,A,3,,,,,,,,,,,,,1.50,0.89,1.20,4*02
$GPGSV,3,1,11,01,15,113,51,02,20,314,51,04,50,279,52,07,64,190,53,0*66
$GPGSV,3,2,11,08,25,206,52,13,62,358,52,16,09,056,51,17,00,225,,0*6D
$GPGSV,3,3,11,20,40,110,52,23,44,042,52,25,83,133,53,0*5F
$GBGSV,1,1,00,0*77
$GNGLL,3128.00001,N,12117.92172,E,090017.00,A,A*7A
$GNRMC,090018.00,A,3128.00001,N,12117.92043,E,3.922,269.99,010321,,,A,V*0D
$GNVTG,269.99,T,,M,3.922,N,7.264,K,A*23
$GNGGA,090018.00,3128.00001,N,12117.92043,E,1,10,0.89,-9.7,M,9.3,M,,*5A
$GNGSA,A,3,16,23,25,01,20,08,13,04,07,02,,,1.50,0.89,1.20,1*0E
$GNGSA,A,3,,,,,,,,,,,,,1.50,0.89,1.20,4*02
$GPGSV,3,1,11,01,15,113,51,02,20,314,51,04,50,279,52,07,64,190,53,0*66
$GPGSV,3,2,11,08,25,206,52,13,62,358,52,16,09,056,51,17,00,225,,0*6D
$GPGSV,3,3,11,20,40,110,52,23,44,042,52,25,83,133,53,0*5F
$GBGSV,1,1,00,0*77
$GNGLL,3128.00001,N,12117.92043,E,090018.00,A,A*76
$GNRMC,090019.00,A,3128.00002,N,12117.91920,E,3.756,269.98,010321,,,A,V*0C
$GNVTG,269.98,T,,M,3.756,N,6.957,K,A*25
$GNGGA,090019.00,3128.00002,N,12117.91920,E,1,10,0.89,-9.6,M,9.3,M,,*56
$GNGSA,A,3,16,23,25,01,20,08,13,04,07,02,,,1.50,0.89,1.20,1*0E
$GNGSA,A,3,,,,,,,,,,,,,1.50,0.89,1.20,4*02
$GPGSV,3,1,11,01,15,113,51,02,20,314,51,04,50,279,52,07,64,190,53,0*66
$GPGSV,3,2,11,08,25,206,52,13,62,358,53,16,09,056,51,17,00,225,,0*6C
$GPGSV,3,3,11,20,40,110,52,23,44,042,52,25,83,133,53,0*5F
$GBGSV,1,1,00,0*77
$GNGLL,3128.00002,N,12117.91920,E,090019.00,A,A*7B
$GNRMC,090020.00,A,3128.00002,N,12117.91802,E,3.600,270.08,010321,,,A,V*04
$GNVTG,270.08,T,,M,3.600,N,6.667,K,A*2A
$GNGGA,090020.00,3128.00002,N,12117.91802,E,1,10,0.89,-9.6,M,9.3,M,,*5D
$GNGSA,A,3,16,23,25,01,20,08,13,04,07,02,,,1.50,0.89,1.20,1*0E
$GNGSA,A,3,,,,,,,,,,,,,1.50,0.89,1.20,4*02
$GPGSV,3,1,11,01,15,113,51,02,20,314,51,04,50,279,52,07,64,190,53,0*66
$GPGSV,3,2,11,08,25,206,52,13,62,358,52,16,09,056,51,17,00,225,,0*6D
$GPGSV,3,3,11,20,40,110,52,23,44,042,52,25,83,133,53,0*5F
$GBGSV,1,1,00,0*77
$GNGLL,3128.00002,N,12117.91802,E,090020.00,A,A*70
$GNRMC,090021.00,A,3128.00002,N,12117.91689,E,3.438,270.00,010321,,,A,V*09
$GNVTG,270.00,T,,M,3.438,N,6.367,K,A*2E
$GNGGA,090021.00,3128.00002,N,12117.91689,E,1,10,0.89,-9.6,M,9.3,M,,*51
$GNGSA,A,3,16,23,25,01,20,08,13,04,07,02,,,1.50,0.89,1.20,1*0E
$GNGSA,A,3,,,,,,,,,,,,,1.50,0.89,1.20,4*02
$GPGSV,3,1,11,01,15,113,51,02,20,314,51,04,50,279,52,07,64,190,53,0*66
$GPGSV,3,2,11,08,25,206,52,13,62,358,53,16,09,056,51,17,00,225,,0*6C
$GPGSV,3,3,11,20,40,110,52,23,44,042,52,25,83,133,53,0*5F
$GBGSV,1,1,00,0*77
$GNGLL,3128.00002,N,12117.91689,E,090021.00,A,A*7C
$GNRMC,090022.00,A,3128.00002,N,12117.91581,E,3.271,269.98,010321,,,A,V*03
$GNVTG,269.98,T,,M,3.271,N,6.057,K,A*2C
$GNGGA,090022.00,3128.00002,N,12117.91581,E,1,10,0.89,-9.6,M,9.3,M,,*59
$GNGSA,A,3,16,23,25,01,20,08,13,04,07,02,,,1.50,0.89,1.20,1*0E
$GNGSA,A,3,,,,,,,,,,,,,1.50,0.89,1.20,4*02
$GPGSV,3,1,11,01,15,113,51,02,20,314,51,04,50,279,52,07,64,190,53,0*66
$GPGSV,3,2,11,08,25,206,51,13,62,358,52,16,09,056,51,17,00,225,,0*6E
$GPGSV,3,3,11,20,40,110,52,23,44,042,52,25,83,133,53,0*5F
$GBGSV,1,1,00,0*77
$GNGLL,3128.00002,N,12117.91581,E,090022.00,A,A*74
$GNRMC,090023.00,A,3128.00002,N,12117.91479,E,3.110,269.98,010321,,,A,V*00
$GNVTG,269.98,T,,M,3.110,N,5.759,K,A*22
$GNGGA,090023.00,3128.00002,N,12117.91479,E,1,10,0.89,-9.6,M,9.3,M,,*5E
$GNGSA,A,3,16,23,25,01,20,08,13,04,07,02,,,1.50,0.89,1.20,1*0E
$GNGSA,A,3,,,,,,,,,,,,,1.50,0.89,1.20,4*02
$GPGSV,3,1,11,01,14,113,51,02,20,314,51,04,50,279,52,07,64,190,53,0*67
$GPGSV,3,2,11,08,25,206,51,13,62,358,52,16,09,056,51,17,00,225,,0*6E
$GPGSV,3,3,11,20,40,110,52,23,44,042,52,25,83,133,53,0*5F
$GBGSV,1,1,00,0*77
$GNGLL,3128.00002,N,12117.91479,E,090023.00,A,A*73
$GNRMC,090024.00,A,3128.00002,N,12117.91382,E,2.948,269.99,010321,,,A,V*01
$GNVTG,269.99,T,,M,2.948,N,5.461,K,A*2F
$GNGGA,090024.00,3128.00002,N,12117.91382,E,1,10,0.89,-9.6,M,9.3,M,,*5A
$GNGSA,A,3,16,23,25,01,20,08,13,04,07,02,,,1.50,0.89,1.20,1*0E
$GNGSA,A,3,,,,,,,,,,,,,1.50,0.89,1.20,4*02
$GPGSV,3,1,11,01,14,113,51,02,20,314,51,04,50,279,52,07,64,190,53,0*67
$GPGSV,3,2,11,08,25,206,52,13,62,358,52,16,09,056,51,17,00,225,,0*6D
$GPGSV,3,3,11,20,40,110,52,23,44,042,52,25,83,133,53,0*5F
$GBGSV,1,1,00,0*77
$GNGLL,3128.00002,N,12117.91382,E,090024.00,A,A*77
$GNRMC,090025.00,A,3128.00002,N,12117.91290,E,2.788,269.96,010321,,,A,V*0F
$GNVTG,269.96,T,,M,2.788,N,5.163,K,A*25
$GNGGA,090025.00,3128.00002,N,12117.91290,E,1,10,0.89,-9.6,M,9.3,M,,*59
$GNGSA,A,3,16,23,25,01,20,08,13,04,07,02,,,1.50,0.89,1.20,1*0E
$GNGSA,A,3,,,,,,,,,,,,,1.50,0.89,1.20,4*02
$GPGSV,3,1,11,01,14,113,51,02,20,314,51,04,50,279,52,07,64,190,53,0*67
$GPGSV,3,2,11,08,25,206,52,13,62,358,52,16,09,056,51,17,00,225,,0*6D
$GPGSV,3,3,11,20,40,110,52,23,44,042,52,25,83,133,53,0*5F
$GBGSV,1,1,00,0*77
$GNGLL,3128.00002,N,12117.91290,E,090025.00,A,A*74
$GNRMC,090026.00,A,3128.00001,N,12117.91203,E,2.622,269.96,010321,,,A,V*04
$GNVTG,269.96,T,,M,2.622,N,4.855,K,A*29
$GNGGA,090026.00,3128.00001,N,12117.91203,E,1,10,0.89,-9.6,M,9.3,M,,*53
$GNGSA,A,3,16,23,25,01,20,08,13,04,07,02,,,1.50,0.89,1.20,1*0E
$GNGSA,A,3,,,,,,,,,,,,,1.50,0.89,1.20,4*02
$GPGSV,3,1,11,01,14,113,51,02,20,314,51,04,50,279,52,07,64,190,53,0*67
$GPGSV,3,2,11,08,25,206,52,13,62,358,52,16,09,056,51,17,00,225,,0*6D
$GPGSV,3,3,11,20,40,110,52,23,44,042,52,25,83,133,53,0*5F
$GBGSV,1,1,00,0*77
$GNGLL,3128.00001,N,12117.91203,E,090026.00,A,A*7E
$GNRMC,090027.00,A,3128.00001,N,12117.91203,E,0.000,,010321,,,A,V*1D
$GNVTG,,T,,M,0.000,N,0.000,K,A*3D
$GNGGA,090027.00,3128.00001,N,12117.91203,E,1,10,0.89,-9.6,M,9.3,M,,*52
$GNGSA,A,3,16,23,25,01,20,08,13,04,07,02,,,1.50,0.89,1.20,1*0E
$GNGSA,A,3,,,,,,,,,,,,,1.50,0.89,1.20,4*02
$GPGSV,3,1,11,01,14,113,51,02,20,314,51,04,50,279,52,07,64,190,53,0*67
$GPGSV,3,2,11,08,25,206,52,13,62,358,53,16,09,056,51,17,00,225,,0*6C
$GPGSV,3,3,11,20,40,110,52,23,44,042,52,25,83,133,53,0*5F
$GBGSV,1,1,00,0*77
$GNGLL,3128.00001,N,12117.91203,E,090027.00,A,A*7F
$GNRMC,090028.00,A,3128.00001,N,12117.91203,E,0.000,,010321,,,A,V*12
$GNVTG,,T,,M,0.000,N,0.000,K,A*3D
$GNGGA,090028.00,3128.00001,N,12117.91203,E,1,10,0.89,-9.6,M,9.3,M,,*5D
$GNGSA,A,3,16,23,25,01,20,08,13,04,07,02,,,1.50,0.89,1.20,1*0E
$GNGSA,A,3,,,,,,,,,,,,,1.50,0.89,1.20,4*02
$GPGSV,3,1,11,01,14,113,51,02,20,314,51,04,50,279,52,07,64,190,53,0*67
$GPGSV,3,2,11,08,25,206,52,13,62,358,52,16,09,056,51,17,00,225,,0*6D
$GPGSV,3,3,11,20,40,110,52,23,44,042,52,25,83,133,53,0*5F
$GBGSV,1,1,00,0*77
$GNGLL,3128.00001,N,12117.91203,E,090028.00,A,A*70
$GNRMC,090029.00,A,3128.00001,N,12117.91203,E,0.000,,010321,,,A,V*13
$GNVTG,,T,,M,0.000,N,0.000,K,A*3D
$GNGGA,090029.00,3128.00001,N,12117.91203,E,1,10,0.89,-9.6,M,9.3,M,,*5C
$GNGSA,A,3,16,23,25,01,20,08,13,04,07,02,,,1.50,0.89,1.20,1*0E
$GNGSA,A,3,,,,,,,,,,,,,1.50,0.89,1.20,4*02
$GPGSV,3,1,11,01,14,113,51,02,20,314,51,04,50,279,52,07,65,190,53,0*66
$GPGSV,3,2,11,08,25,206,52,13,62,358,53,16,09,056,51,17,00,225,,0*6C
$GPGSV,3,3,11,20,40,110,52,23,44,042,52,25,83,133,53,0*5F
$GBGSV,1,1,00,0*77
$GNGLL,3128.00001,N,12117.91203,E,090029.00,A,A*71
$GNRMC,090030.00,A,3128.00001,N,12117.91203,E,0.000,,010321,,,A,V*1B
$GNVTG,,T,,M,0.000,N,0.000,K,A*3D
$GNGGA,090030.00,3128.00001,N,12117.91203,E,1,10,0.89,-9.6,M,9.3,M,,*54
$GNGSA,A,3,16,23,25,01,20,08,13,04,07,02,,,1.50,0.89,1.20,1*0E
$GNGSA,A,3,,,,,,,,,,,,,1.50,0.89,1.20,4*02
$GPGSV,3,1,11,01,14,113,51,02,20,314,51,04,50,279,52,07,65,190,53,0*66
$GPGSV,3,2,11,08,25,206,52,13,62,358,53,16,09,056,51,17,00,225,,0*6C
$GPGSV,3,3,11,20,40,110,52,23,44,042,52,25,83,133,53,0*5F
$GBGSV,1,1,00,0*77
$GNGLL,3128.00001,N,12117.91203,E,090030.00,A,A*79
$GNRMC,090031.00,A,3128.00001,N,12117.91203,E,0.000,,010321,,,A,V*1A
$GNVTG,,T,,M,0.000,N,0.000,K,A*3D
$GNGGA,090031.00,3128.00001,N,12117.91203,E,1,10,0.89,-9.6,M,9.3,M,,*55
$GNGSA,A,3,16,23,25,01,20,08,13,04,07,02,,,1.50,0.89,1.20,1*0E
$GNGSA,A,3,,,,,,,,,,,,,1.50,0.89,1.20,4*02
$GPGSV,3,1,11,01,14,113,51,02,20,314,51,04,50,279,52,07,65,190,53,0*66
$GPGSV,3,2,11,08,25,206,52,13,62,358,52,16,09,056,51,17,00,225,,0*6D
$GPGSV,3,3,11,20,40,110,52,23,44,042,52,25,83,133,53,0*5F
$GBGSV,1,1,00,0*77
$GNGLL,3128.00001,N,12117.91203,E,090031.00,A,A*78
$GNRMC,090032.00,A,3128.00001,N,12117.91203,E,0.000,,010321,,,A,V*19
$GNVTG,,T,,M,0.000,N,0.000,K,A*3D
$GNGGA,090032.00,3128.00001,N,12117.91203,E,1,10,0.89,-9.6,M,9.3,M,,*56
$GNGSA,A,3,16,23,25,01,20,08,13,04,07,02,,,1.50,0.89,1.20,1*0E
$GNGSA,A,3,,,,,,,,,,,,,1.50,0.89,1.20,4*02
$GPGSV,3,1,11,01,14,113,51,02,20,314,51,04,50,279,52,07,65,190,53,0*66
$GPGSV,3,2,11,08,25,206,52,13,62,358,52,16,09,056,51,17,00,225,,0*6D
$GPGSV,3,3,11,20,40,110,52,23,44,042,52,25,83,133,53,0*5F
$GBGSV,1,1,00,0*77
$GNGLL,3128.00001,N,12117.91203,E,090032.00,A,A*7B
$GNRMC,090033.00,A,3128.00001,N,12117.91203,E,0.000,,010321,,,A,V*18
$GNVTG,,T,,M,0.000,N,0.000,K,A*3D
$GNGGA,090033.00,3128.00001,N,12117.91203,E,1,10,0.89,-9.6,M,9.3,M,,*57
$GNGSA,A,3,16,23,25,01,20,08,13,04,07,02,,,1.50,0.89,1.20,1*0E
$GNGSA,A,3,,,,,,,,,,,,,1.50,0.89,1.20,4*02
$GPGSV,3,1,11,01,14,113,51,02,20,314,51,04,50,279,52,07,65,190,53,0*66
$GPGSV,3,2,11,08,25,206,51,13,62,358,53,16,09,056,51,17,00,225,,0*6F
$GPGSV,3,3,11,20,40,110,52,23,44,042,52,25,83,133,53,0*5F
$GBGSV,1,1,00,0*77
$GNGLL,3128.00001,N,12117.91203,E,090033.00,A,A*7A
$GNRMC,090034.00,A,3128.00001,N,12117.91203,E,0.000,,010321,,,A,V*1F
$GNVTG,,T,,M,0.000,N,0.000,K,A*3D
$GNGGA,090034.00,3128.00001,N,12117.91203,E,1,10,0.89,-9.6,M,9.3,M,,*50
$GNGSA,A,3,16,23,25,01,20,08,13,04,07,02,,,1.50,0.89,1.20,1*0E
$GNGSA,A,3,,,,,,,,,,,,,1.50,0.89,1.20,4*02
$GPGSV,3,1,11,01,14,113,51,02,20,314,51,04,50,279,52,07,65,190,53,0*66
$GPGSV,3,2,11,08,25,206,51,13,62,358,53,16,09,056,51,17,00,225,,0*6F
$GPGSV,3,3,11,20,40,110,52,23,44,042,52,25,83,133,53,0*5F
$GBGSV,1,1,00,0*77
$GNGLL,3128.00001,N,12117.91203,E,090034.00,A,A*7D
$GNRMC,090035.00,A,3128.00001,N,12117.91203,E,0.000,,010321,,,A,V*1E
$GNVTG,,T,,M,0.000,N,0.000,K,A*3D
$GNGGA,090035.00,3128.00001,N,12117.91203,E,1,10,0.89,-9.6,M,9.3,M,,*51
$GNGSA,A,3,16,23,25,01,20,08,13,04,07,02,,,1.50,0.89,1.20,1*0E
$GNGSA,A,3,,,,,,,,,,,,,1.50,0.89,1.20,4*02
$GPGSV,3,1,11,01,14,113,51,02,20,314,51,04,50,279,52,07,65,190,53,0*66
$GPGSV,3,2,11,08,25,206,52,13,62,358,53,16,09,056,51,17,00,225,,0*6C
$GPGSV,3,3,11,20,40,110,52,23,44,042,52,25,83,133,53,0*5F
$GBGSV,1,1,00,0*77
$GNGLL,3128.00001,N,12117.91203,E,090035.00,A,A*7C
$GNRMC,090036.00,A,3128.00001,N,12117.91203,E,0.000,,010321,,,A,V*1D
$GNVTG,,T,,M,0.000,N,0.000,K,A*3D
$GNGGA,090036.00,3128.00001,N,12117.91203,E,1,10,0.89,-9.6,M,9.3,M,,*52
$GNGSA,A,3,16,23,25,01,20,08,13,04,07,02,,,1.50,0.89,1.20,1*0E
$GNGSA,A,3,,,,,,,,,,,,,1.50,0.89,1.20,4*02
$GPGSV,3,1,11,01,14,113,51,02,20,314,51,04,50,279,52,07,65,190,53,0*66
$GPGSV,3,2,11,08,25,206,52,13,62,358,53,16,09,056,51,17,00,225,,0*6C
$GPGSV,3,3,11,20,40,110,52,23,44,042,52,25,83,133,53,0*5F
$GBGSV,1,1,00,0*77
$GNGLL,3128.00001,N,12117.91203,E,090036.00,A,A*7F
$GNRMC,090037.00,A,3128.00001,N,12117.91203,E,0.000,,010321,,,A,V*1C
$GNVTG,,T,,M,0.000,N,0.000,K,A*3D
$GNGGA,090037.00,3128.00001,N,12117.91203,E,1,10,0.89,-9.6,M,9.3,M,,*53
$GNGSA,A,3,16,23,25,01,20,08,13,04,07,02,,,1.50,0.89,1.20,1*0E
$GNGSA,A,3,,,,,,,,,,,,,1.50,0.89,1.20,4*02
$GPGSV,3,1,11,01,14,113,51,02,20,314,51,04,50,279,52,07,65,190,53,0*66
$GPGSV,3,2,11,08,25,206,52,13,62,358,53,16,09,056,51,17,00,225,,0*6C
$GPGSV,3,3,11,20,40,110,52,23,44,042,52,25,83,133,53,0*5F
$GBGSV,1,1,00,0*77
$GNGLL,3128.00001,N,12117.91203,E,090037.00,A,A*7E
$GNRMC,090038.00,A,3128.00001,N,12117.91203,E,0.000,,010321,,,A,V*13
$GNVTG,,T,,M,0.000,N,0.000,K,A*3D
$GNGGA,090038.00,3128.00001,N,12117.91203,E,1,10,0.89,-9.6,M,9.3,M,,*5C
$GNGSA,A,3,16,23,25,01,20,08,13,04,07,02,,,1.50,0.89,1.20,1*0E
$GNGSA,A,3,,,,,,,,,,,,,1.50,0.89,1.20,4*02
$GPGSV,3,1,11,01,14,113,51,02,20,314,51,04,50,279,52,07,65,190,53,0*66
$GPGSV,3,2,11,08,25,206,51,13,62,358,52,16,09,056,51,17,00,225,,0*6E
$GPGSV,3,3,11,20,40,110,52,23,44,042,52,25,83,133,53,0*5F
$GBGSV,1,1,00,0*77
$GNGLL,3128.00001,N,12117.91203,E,090038.00,A,A*71
$GNRMC,090039.00,A,3128.00001,N,12117.91203,E,0.000,,010321,,,A,V*12
$GNVTG,,T,,M,0.000,N,0.000,K,A*3D
$GNGGA,090039.00,3128.00001,N,12117.91203,E,1,10,0.89,-9.6,M,9.3,M,,*5D
$GNGSA,A,3,16,23,25,01,20,08,13,04,07,02,,,1.50,0.89,1.20,1*0E
$GNGSA,A,3,,,,,,,,,,,,,1.50,0.89,1.20,4*02
$GPGSV,3,1,11,01,14,113,51,02,20,314,51,04,50,279,52,07,65,190,53,0*66
$GPGSV,3,2,11,08,25,206,51,13,62,358,52,16,09,056,51,17,00,224,,0*6F
$GPGSV,3,3,11,20,40,110,52,23,44,042,52,25,83,133,53,0*5F
$GBGSV,1,1,00,0*77
$GNGLL,3128.00001,N,12117.91203,E,090039.00,A,A*70
$GNRMC,090040.00,A,3128.00001,N,12117.91203,E,0.000,,010321,,,A,V*1C
$GNVTG,,T,,M,0.000,N,0.000,K,A*3D
$GNGGA,090040.00,3128.00001,N,12117.91203,E,1,10,0.89,-9.6,M,9.3,M,,*53
$GNGSA,A,3,16,23,25,01,20,08,13,04,07,02,,,1.50,0.89,1.20,1*0E
$GNGSA,A,3,,,,,,,,,,,,,1.50,0.89,1.20,4*02
$GPGSV,3,1,11,01,14,113,51,02,20,314,51,04,50,279,52,07,65,190,53,0*66
$GPGSV,3,2,11,08,25,206,51,13,62,358,52,16,09,056,51,17,00,224,,0*6F
$GPGSV,3,3,11,20,40,110,52,23,44,042,52,25,83,133,53,0*5F
$GBGSV,1,1,00,0*77
$GNGLL,3128.00001,N,12117.91203,E,090040.00,A,A*7E
$GNRMC,090041.00,A,3128.00001,N,12117.91203,E,0.000,,010321,,,A,V*1D
$GNVTG,,T,,M,0.000,N,0.000,K,A*3D
$GNGGA,090041.00,3128.00001,N,12117.91203,E,1,10,0.89,-9.6,M,9.3,M,,*52
$GNGSA,A,3,16,23,25,01,20,08,13,04,07,02,,,1.50,0.89,1.20,1*0E
$GNGSA,A,3,,,,,,,,,,,,,1.50,0.89,1.20,4*02
$GPGSV,3,1,11,01,14,113,51,02,20,314,51,04,50,279,52,07,65,190,53,0*66
$GPGSV,3,2,11,08,25,206,51,13,62,358,52,16,09,056,51,17,00,224,,0*6F
$GPGSV,3,3,11,20,40,110,52,23,44,042,52,25,83,133,53,0*5F
$GBGSV,1,1,00,0*77
$GNGLL,3128.00001,N,12117.91203,E,090041.00,A,A*7F
$GNRMC,090042.00,A,3128.00001,N,12117.91203,E,0.000,,010321,,,A,V*1E
$GNVTG,,T,,M,0.000,N,0.000,K,A*3D
$GNGGA,090042.00,3128.00001,N,12117.91203,E,1,10,0.89,-9.6,M,9.3,M,,*51
$GNGSA,A,3,16,23,25,01,20,08,13,04,07,02,,,1.50,0.89,1.20,1*0E
$GNGSA,A,3,,,,,,,,,,,,,1.50,0.89,1.20,4*02
$GPGSV,3,1,11,01,14,113,51,02,20,314,51,04,50,279,52,07,65,190,53,0*66
$GPGSV,3,2,11,08,25,206,51,13,62,358,52,16,09,056,51,17,00,224,,0*6F
$GPGSV,3,3,11,20,39,111,52,23,44,042,52,25,83,133,53,0*50
$GBGSV,1,1,00,0*77
$GNGLL,3128.00001,N,12117.91203,E,090042.00,A,A*7C
$GNRMC,090043.00,A,3128.00001,N,12117.91203,E,0.000,,010321,,,A,V*1F
$GNVTG,,T,,M,0.000,N,0.000,K,A*3D
$GNGGA,090043.00,3128.00001,N,12117.91203,E,1,10,0.89,-9.6,M,9.3,M,,*50
$GNGSA,A,3,16,23,25,01,20,08,13,04,07,02,,,1.50,0.89,1.20,1*0E
$GNGSA,A,3,,,,,,,,,,,,,1.50,0.89,1.20,4*02
$GPGSV,3,1,11,01,14,113,51,02,20,314,51,04,50,279,52,07,65,190,53,0*66
$GPGSV,3,2,11,08,25,206,51,13,62,358,52,16,09,056,51,17,00,224,,0*6F
$GPGSV,3,3,11,20,39,111,52,23,44,042,52,25,83,133,53,0*50
$GBGSV,1,1,00,0*77
$GNGLL,3128.00001,N,12117.91203,E,090043.00,A,A*7D
$GNRMC,090044.00,A,3128.00001,N,12117.90949,E,13.941,270.00,010321,,,A,V*39
$GNVTG,270.00,T,,M,13.941,N,25.819,K,A*2F
$GNGGA,090044.00,3128.00001,N,12117.90949,E,1,10,0.89,-9.6,M,9.3,M,,*53
$GNGSA,A,3,16,23,25,01,20,08,13,04,07,02,,,1.50,0.89,1.20,1*0E
$GNGSA,A,3,,,,,,,,,,,,,1.50,0.89,1.20,4*02
$GPGSV,3,1,11,01,14,113,51,02,20,314,51,04,50,279,52,07,65,190,53,0*66
$GPGSV,3,2,11,08,25,206,52,13,62,358,52,16,09,056,51,17,00,224,,0*6C
$GPGSV,3,3,11,20,39,111,52,23,44,042,52,25,83,133,53,0*50
$GBGSV,1,1,00,0*77
$GNGLL,3128.00001,N,12117.90949,E,090044.00,A,A*7E
$GNRMC,090045.00,A,3128.00003,N,12117.90256,E,21.788,270.00,010321,,,A,V*35
$GNVTG,270.00,T,,M,21.788,N,40.352,K,A*22
$GNGGA,090045.00,3128.00003,N,12117.90256,E,1,10,0.89,-9.6,M,9.3,M,,*55
$GNGSA,A,3,16,23,25,01,20,08,13,04,07,02,,,1.50,0.89,1.20,1*0E
$GNGSA,A,3,,,,,,,,,,,,,1.50,0.89,1.20,4*02
$GPGSV,3,1,11,01,14,113,51,02,20,314,51,04,50,279,52,07,65,190,53,0*66
$GPGSV,3,2,11,08,25,206,52,13,62,358,52,16,09,056,51,17,00,224,,0*6C
$GPGSV,3,3,11,20,39,111,52,23,44,042,52,25,83,133,53,0*50
$GBGSV,1,1,00,0*77
$GNGLL,3128.00003,N,12117.90256,E,090045.00,A,A*78
$GNRMC,090046.00,A,3128.00001,N,12117.89317,E,29.649,270.00,010321,,,A,V*3C
$GNVTG,270.00,T,,M,29.649,N,54.910,K,A*2F
$GNGGA,090046.00,3128.00001,N,12117.89317,E,1,10,0.89,-9.5,M,9.3,M,,*5B
$GNGSA,A,3,16,23,25,01,20,08,13,04,07,02,,,1.50,0.89,1.20,1*0E
$GNGSA,A,3,,,,,,,,,,,,,1.50,0.89,1.20,4*02
$GPGSV,3,1,11,01,14,113,51,02,20,314,51,04,50,279,52,07,65,190,53,0*66
$GPGSV,3,2,11,08,25,206,51,13,62,358,52,16,09,056,51,17,00,224,,0*6F
$GPGSV,3,3,11,20,39,111,52,23,44,042,52,25,83,133,53,0*50
$GBGSV,1,1,00,0*77
$GNGLL,3128.00001,N,12117.89317,E,090046.00,A,A*75
$GNRMC,090047.00,A,3128.00001,N,12117.88129,E,37.490,270.00,010321,,,A,V*3A
$GNVTG,270.00,T,,M,37.490,N,69.431,K,A*26
$GNGGA,090047.00,3128.00001,N,12117.88129,E,1,10,0.89,-9.5,M,9.3,M,,*54
$GNGSA,A,3,16,23,25,01,20,08,13,04,07,02,,,1.50,0.89,1.20,1*0E
$GNGSA,A,3,,,,,,,,,,,,,1.50,0.89,1.20,4*02
$GPGSV,3,1,11,01,14,113,51,02,20,314,51,04,50,279,52,07,65,190,53,0*66
$GPGSV,3,2,11,08,25,206,51,13,62,358,52,16,09,056,51,17,00,224,,0*6F
$GPGSV,3,3,11,20,39,111,52,23,44,042,52,25,84,130,53,0*54
$GBGSV,1,1,00,0*77
$GNGLL,3128.00001,N,12117.88129,E,090047.00,A,A*7A
$GNRMC,090048.00,A,3128.00000,N,12117.86836,E,38.882,270.00,010321,,,A,V*3D
$GNVTG,270.00,T,,M,38.882,N,72.009,K,A*23
$GNGGA,090048.00,3128.00000,N,12117.86836,E,1,10,0.89,-9.4,M,9.3,M,,*52
$GNGSA,A,3,16,23,25,01,20,08,13,04,07,02,,,1.50,0.89,1.20,1*0E
$GNGSA,A,3,,,,,,,,,,,,,1.50,0.89,1.20,4*02
$GPGSV,3,1,11,01,14,113,51,02,20,314,51,04,50,279,52,07,65,190,53,0*66
$GPGSV,3,2,11,08,25,206,51,13,62,358,52,16,09,056,51,17,00,224,,0*6F
$GPGSV,3,3,11,20,39,111,52,23,44,042,52,25,84,130,53,0*54
$GBGSV,1,1,00,0*77
$GNGLL,3128.00000,N,12117.86836,E,090048.00,A,A*7D
$GNRMC,090049.00,A,3128.00000,N,12117.85532,E,38.887,270.00,010321,,,A,V*33
$GNVTG,270.00,T,,M,38.887,N,72.018,K,A*26
$GNGGA,090049.00,3128.00000,N,12117.85532,E,1,10,0.89,-9.3,M,9.3,M,,*5E
$GNGSA,A,3,16,23,25,01,20,08,13,04,07,02,,,1.50,0.89,1.20,1*0E
$GNGSA,A,3,,,,,,,,,,,,,1.50,0.89,1.20,4*02
$GPGSV,3,1,12,01,14,113,51,02,20,314,51,04,50,279,52,07,65,190,53,0*65
$GPGSV,3,2,12,08,25,206,52,13,62,358,52,16,09,056,51,17,00,224,,0*6F
$GPGSV,3,3,12,20,39,111,52,23,44,042,52,25,84,130,53,27,00,216,,0*67
$GBGSV,1,1,00,0*77
$GNGLL,3128.00000,N,12117.85532,E,090049.00,A,A*76
$GNRMC,090050.00,A,3127.99999,N,12117.84234,E,38.879,270.01,010321,,,A,V*3D
$GNVTG,270.01,T,,M,38.879,N,72.004,K,A*2B
$GNGGA,090050.00,3127.99999,N,12117.84234,E,1,10,0.89,-9.2,M,9.3,M,,*51
$GNGSA,A,3,16,23,25,01,20,08,13,04,07,02,,,1.50,0.89,1.20,1*0E
$GNGSA,A,3,,,,,,,,,,,,,1.50,0.89,1.20,4*02
$GPGSV,3,1,12,01,14,113,51,02,20,314,51,04,50,279,52,07,65,190,53,0*65
$GPGSV,3,2,12,08,25,206,52,13,62,358,53,16,09,056,51,17,00,224,,0*6E
$GPGSV,3,3,12,20,39,111,52,23,44,042,52,25,84,130,53,27,00,216,,0*67
$GBGSV,1,1,00,0*77
$GNGLL,3127.99999,N,12117.84234,E,090050.00,A,A*78
$GNRMC,090051.00,A,3127.99998,N,12117.82942,E,38.880,270.00,010321,,,A,V*36
$GNVTG,270.00,T,,M,38.880,N,72.006,K,A*2E
$GNGGA,090051.00,3127.99998,N,12117.82942,E,1,10,0.89,-9.2,M,9.3,M,,*5D
$GNGSA,A,3,16,23,25,01,20,08,13,04,07,02,,,1.50,0.89,1.20,1*0E
$GNGSA,A,3,,,,,,,,,,,,,1.50,0.89,1.20,4*02
$GPGSV,3,1,12,01,14,113,51,02,20,314,51,04,50,279,52,07,65,190,53,0*65
$GPGSV,3,2,12,08,25,206,52,13,62,358,53,16,09,056,51,17,00,224,,0*6E
$GPGSV,3,3,12,20,39,111,52,23,44,042,52,25,84,130,53,27,00,216,,0*67
$GBGSV,1,1,00,0*77
$GNGLL,3127.99998,N,12117.82942,E,090051.00,A,A*74
$GNRMC,090052.00,A,3127.99999,N,12117.81652,E,38.882,270.00,010321,,,A,V*3B
$GNVTG,270.00,T,,M,38.882,N,72.010,K,A*2B
$GNGGA,090052.00,3127.99999,N,12117.81652,E,1,10,0.89,-9.1,M,9.3,M,,*51
$GNGSA,A,3,16,23,25,01,20,08,13,04,07,02,,,1.50,0.89,1.20,1*0E
$GNGSA,A,3,,,,,,,,,,,,,1.50,0.89,1.20,4*02
$GPGSV,3,1,12,01,14,113,51,02,20,314,51,04,50,279,52,07,65,190,53,0*65
$GPGSV,3,2,12,08,25,206,52,13,62,358,53,16,09,056,51,17,00,224,,0*6E
$GPGSV,3,3,12,20,39,111,52,23,44,042,52,25,84,130,53,27,00,216,,0*67
$GBGSV,1,1,00,0*77
$GNGLL,3127.99999,N,12117.81652,E,090052.00,A,A*7B
$GNRMC,090053.00,A,3127.99999,N,12117.80362,E,38.885,270.00,010321,,,A,V*3A
$GNVTG,270.00,T,,M,38.885,N,72.015,K,A*29
$GNGGA,090053.00,3127.99999,N,12117.80362,E,1,10,0.89,-9.1,M,9.3,M,,*57
$GNGSA,A,3,16,23,25,01,20,08,13,04,07,02,,,1.50,0.89,1.20,1*0E
$GNGSA,A,3,,,,,,,,,,,,,1.50,0.89,1.20,4*02
$GPGSV,3,1,12,01,14,113,51,02,20,314,51,04,50,279,52,07,65,190,53,0*65
$GPGSV,3,2,12,08,25,206,52,13,62,358,53,16,09,056,51,17,00,224,,0*6E
$GPGSV,3,3,12,20,39,111,52,23,44,042,52,25,84,130,53,27,00,216,,0*67
$GBGSV,1,1,00,0*77
$GNGLL,3127.99999,N,12117.80362,E,090053.00,A,A*7D
$GNRMC,090054.00,A,3127.99998,N,12117.79076,E,38.880,270.00,010321,,,A,V*39
$GNVTG,270.00,T,,M,38.880,N,72.005,K,A*2D
$GNGGA,090054.00,3127.99998,N,12117.79076,E,1,10,0.89,-9.0,M,9.3,M,,*50
$GNGSA,A,3,16,23,25,01,20,08,13,04,07,02,,,1.50,0.89,1.20,1*0E
$GNGSA,A,3,,,,,,,,,,,,,1.50,0.89,1.20,4*02
$GPGSV,3,1,12,01,14,113,51,02,20,314,51,04,50,279,52,07,65,190,53,0*65
$GPGSV,3,2,12,08,25,206,52,13,62,358,53,16,09,056,51,17,00,224,,0*6E
$GPGSV,3,3,12,20,39,111,52,23,44,042,52,25,84,130,53,27,00,216,,0*67
$GBGSV,1,1,00,0*77
$GNGLL,3127.99998,N,12117.79076,E,090054.00,A,A*7B
$GNRMC,090055.00,A,3127.99998,N,12117.77792,E,38.881,270.00,010321,,,A,V*3A
$GNVTG,270.00,T,,M,38.881,N,72.007,K,A*2E
$GNGGA,090055.00,3127.99998,N,12117.77792,E,1,10,0.89,-9.0,M,9.3,M,,*52
$GNGSA,A,3,16,23,25,01,20,08,13,04,07,02,,,1.50,0.89,1.20,1*0E
$GNGSA,A,3,,,,,,,,,,,,,1.50,0.89,1.20,4*02
$GPGSV,3,1,12,01,14,113,51,02,20,314,51,04,50,279,52,07,65,190,53,0*65
$GPGSV,3,2,12,08,25,206,51,13,62,358,52,16,09,056,51,17,00,224,,0*6C
$GPGSV,3,3,12,20,39,111,52,23,44,042,52,25,84,130,53,27,00,216,,0*67
$GBGSV,1,1,00,0*77
$GNGLL,3127.99998,N,12117.77792,E,090055.00,A,A*79
$GNRMC,090056.00,A,3127.99998,N,12117.76509,E,38.883,269.98,010321,,,A,V*33
$GNVTG,269.98,T,,M,38.883,N,72.011,K,A*22
$GNGGA,090056.00,3127.99998,N,12117.76509,E,1,10,0.89,-9.0,M,9.3,M,,*50
$GNGSA,A,3,16,23,25,01,20,08,13,04,07,02,,,1.50,0.89,1.20,1*0E
$GNGSA,A,3,,,,,,,,,,,,,1.50,0.89,1.20,4*02
$GPGSV,3,1,12,01,14,113,51,02,20,314,51,04,50,279,52,07,65,190,53,0*65
$GPGSV,3,2,12,08,25,206,51,13,62,358,52,16,09,056,51,17,00,224,,0*6C
$GPGSV,3,3,12,20,39,111,52,23,44,042,52,25,84,130,53,27,00,216,,0*67
$GBGSV,1,1,00,0*77
$GNGLL,3127.99998,N,12117.76509,E,090056.00,A,A*7B
$GNRMC,090057.00,A,3127.99999,N,12117.75227,E,38.876,270.00,010321,,,A,V*38
$GNVTG,270.00,T,,M,38.876,N,71.999,K,A*2B
$GNGGA,090057.00,3127.99999,N,12117.75227,E,1,10,0.89,-9.0,M,9.3,M,,*58
$GNGSA,A,3,16,23,25,01,20,08,13,04,07,02,,,1.50,0.89,1.20,1*0E
$GNGSA,A,3,,,,,,,,,,,,,1.50,0.89,1.20,4*02
$GPGSV,3,1,12,01,14,113,51,02,20,314,51,04,50,279,52,07,65,190,53,0*65
$GPGSV,3,2,12,08,25,206,52,13,62,358,53,16,09,056,51,17,00,224,,0*6E
$GPGSV,3,3,12,20,39,111,52,23,44,042,52,25,84,130,53,27,00,216,,0*67
$GBGSV,1,1,00,0*77
$GNGLL,3127.99999,N,12117.75227,E,090057.00,A,A*73
$GNRMC,090058.00,A,3128.00000,N,12117.73945,E,38.881,270.00,010321,,,A,V*30
$GNVTG,270.00,T,,M,38.881,N,72.008,K,A*21
$GNGGA,090058.00,3128.00000,N,12117.73945,E,1,10,0.89,-8.9,M,9.3,M,,*50
$GNGSA,A,3,16,23,25,01,20,08,13,04,07,02,,,1.50,0.89,1.20,1*0E
$GNGSA,A,3,,,,,,,,,,,,,1.50,0.89,1.20,4*02
$GPGSV,3,1,12,01,14,113,51,02,20,314,51,04,50,279,52,07,65,190,53,0*65
$GPGSV,3,2,12,08,25,206,52,13,62,358,52,16,09,056,51,17,00,224,,0*6F
$GPGSV,3,3,12,20,39,111,52,23,44,042,52,25,84,130,53,27,00,216,,0*67
$GBGSV,1,1,00,0*77
$GNGLL,3128.00000,N,12117.73945,E,090058.00,A,A*73
$GNRMC,090059.00,A,3128.00001,N,12117.72665,E,38.884,270.01,010321,,,A,V*38
$GNVTG,270.01,T,,M,38.884,N,72.013,K,A*2F
$GNGGA,090059.00,3128.00001,N,12117.72665,E,1,10,0.89,-8.9,M,9.3,M,,*5C
$GNGSA,A,3,16,23,25,01,20,08,13,04,07,02,,,1.50,0.89,1.20,1*0E
$GNGSA,A,3,,,,,,,,,,,,,1.50,0.89,1.20,4*02
$GPGSV,3,1,12,01,14,113,51,02,20,314,51,04,50,279,52,07,65,190,53,0*65
$GPGSV,3,2,12,08,25,206,52,13,62,358,52,16,09,056,51,17,00,224,,0*6F
$GPGSV,3,3,12,20,39,111,52,23,44,042,52,25,84,130,53,27,00,216,,0*67
$GBGSV,1,1,00,0*77
$GNGLL,3128.00001,N,12117.72665,E,090059.00,A,A*7F
$GNRMC,090100.00,A,3128.00002,N,12117.71386,E,38.879,270.02,010321,,,A,V*3C
$GNVTG,270.02,T,,M,38.879,N,72.004,K,A*28
$GNGGA,090100.00,3128.00002,N,12117.71386,E,1,10,0.89,-8.9,M,9.3,M,,*59
$GNGSA,A,3,16,23,25,01,20,08,13,04,07,02,,,1.50,0.89,1.20,1*0E
$GNGSA,A,3,,,,,,,,,,,,,1.50,0.89,1.20,4*02
$GPGSV,3,1,12,01,14,113,51,02,20,314,51,04,50,279,52,07,65,190,53,0*65
$GPGSV,3,2,12,08,25,206,52,13,62,358,52,16,09,056,51,17,00,224,,0*6F
$GPGSV,3,3,12,20,39,111,52,23,44,042,52,25,84,130,53,27,00,216,,0*67
$GBGSV,1,1,00,0*77
$GNGLL,3128.00002,N,12117.71386,E,090100.00,A,A*7A
$GNRMC,090101.00,A,3128.00002,N,12117.70108,E,38.886,269.99,010321,,,A,V*32
$GNVTG,269.99,T,,M,38.886,N,72.017,K,A*20
$GNGGA,090101.00,3128.00002,N,12117.70108,E,1,10,0.89,-8.9,M,9.3,M,,*5D
$GNGSA,A,3,16,23,25,01,20,08,13,04,07,02,,,1.50,0.89,1.20,1*0E
$GNGSA,A,3,,,,,,,,,,,,,1.50,0.89,1.20,4*02
$GPGSV,3,1,12,01,14,113,51,02,20,314,51,04,50,279,52,07,65,190,53,0*65
$GPGSV,3,2,12,08,25,206,52,13,62,358,52,16,09,056,51,17,00,224,,0*6F
$GPGSV,3,3,12,20,39,111,52,23,44,042,52,25,84,130,53,27,00,216,,0*67
$GBGSV,1,1,00,0*77
$GNGLL,3128.00002,N,12117.70108,E,090101.00,A,A*7E
$GNRMC,090102.00,A,3128.00002,N,12117.68832,E,38.882,270.01,010321,,,A,V*35
$GNVTG,270.01,T,,M,38.882,N,72.009,K,A*22
$GNGGA,090102.00,3128.00002,N,12117.68832,E,1,10,0.89,-8.9,M,9.3,M,,*57
$GNGSA,A,3,16,23,25,01,20,08,13,04,07,02,,,1.50,0.89,1.20,1*0E
$GNGSA,A,3,,,,,,,,,,,,,1.50,0.89,1.20,4*02
$GPGSV,3,1,12,01,14,113,51,02,20,314,51,04,50,279,52,07,65,190,53,0*65
$GPGSV,3,2,12,08,25,206,51,13,62,358,52,16,09,056,51,17,00,224,,0*6C
$GPGSV,3,3,12,20,39,111,52,23,44,042,52,25,84,130,53,27,00,216,,0*67
$GBGSV,1,1,00,0*77
$GNGLL,3128.00002,N,12117.68832,E,090102.00,A,A*74
$GNRMC,090103.00,A,3128.00003,N,12117.67556,E,38.879,269.99,010321,,,A,V*38
$GNVTG,269.99,T,,M,38.879,N,72.004,K,A*22
$GNGGA,090103.00,3128.00003,N,12117.67556,E,1,10,0.89,-8.9,M,9.3,M,,*57
$GNGSA,A,3,16,23,25,01,20,08,13,04,07,02,,,1.50,0.89,1.20,1*0E
$GNGSA,A,3,,,,,,,,,,,,,1.50,0.89,1.20,4*02
$GPGSV,3,1,12,01,14,113,51,02,20,314,51,04,50,279,52,07,65,190,53,0*65
$GPGSV,3,2,12,08,25,206,51,13,62,358,52,16,09,056,51,17,00,224,,0*6C
$GPGSV,3,3,12,20,39,111,52,23,44,042,52,25,84,130,53,27,00,216,,0*67
$GBGSV,1,1,00,0*77
$GNGLL,3128.00003,N,12117.67556,E,090103.00,A,A*74
$GNRMC,090104.00,A,3128.00002,N,12117.66282,E,38.876,269.99,010321,,,A,V*3E
$GNVTG,269.99,T,,M,38.876,N,71.999,K,A*23
$GNGGA,090104.00,3128.00002,N,12117.66282,E,1,10,0.89,-8.9,M,9.3,M,,*5E
$GNGSA,A,3,16,23,25,01,20,08,13,04,07,02,,,1.50,0.89,1.20,1*0E
$GNGSA,A,3,,,,,,,,,,,,,1.50,0.89,1.20,4*02
$GPGSV,3,1,12,01,14,113,51,02,21,314,51,04,50,279,52,07,65,190,53,0*64
$GPGSV,3,2,12,08,25,206,51,13,62,358,52,16,09,056,51,17,00,224,,0*6C
$GPGSV,3,3,12,20,39,111,52,23,44,042,52,25,84,130,53,27,00,216,,0*67
$GBGSV,1,1,00,0*77
$GNGLL,3128.00002,N,12117.66282,E,090104.00,A,A*7D
$GNRMC,090105.00,A,3128.00002,N,12117.65008,E,38.884,270.00,010321,,,A,V*39
$GNVTG,270.00,T,,M,38.884,N,72.012,K,A*2F
$GNGGA,090105.00,3128.00002,N,12117.65008,E,1,10,0.89,-8.9,M,9.3,M,,*5C
$GNGSA,A,3,16,23,25,01,20,08,13,04,07,02,,,1.50,0.89,1.20,1*0E
$GNGSA,A,3,,,,,,,,,,,,,1.50,0.89,1.20,4*02
$GPGSV,3,1,12,01,14,113,51,02,21,314,51,04,50,279,52,07,65,190,53,0*64
$GPGSV,3,2,12,08,25,206,52,13,62,358,52,16,09,056,51,17,00,224,,0*6F
$GPGSV,3,3,12,20,39,111,52,23,44,042,52,25,84,130,53,27,00,216,,0*67
$GBGSV,1,1,00,0*77
$GNGLL,3128.00002,N,12117.65008,E,090105.00,A,A*7F
$GNRMC,090106.00,A,3128.00002,N,12117.63735,E,38.881,270.00,010321,,,A,V*30
$GNVTG,270.00,T,,M,38.881,N,72.007,K,A*2E
$GNGGA,090106.00,3128.00002,N,12117.63735,E,1,10,0.89,-8.9,M,9.3,M,,*50
$GNGSA,A,3,16,23,25,01,20,08,13,04,07,02,,,1.50,0.89,1.20,1*0E
$GNGSA,A,3,,,,,,,,,,,,,1.50,0.89,1.20,4*02
$GPGSV,3,1,12,01,14,113,51,02,21,314,51,04,50,278,52,07,65,190,53,0*65
$GPGSV,3,2,12,08,25,206,52,13,62,358,52,16,09,056,51,17,00,224,,0*6F
$GPGSV,3,3,12,20,39,111,52,23,44,042,52,25,84,130,53,27,00,216,,0*67
$GBGSV,1,1,00,0*77
$GNGLL,3128.00002,N,12117.63735,E,090106.00,A,A*73
$GNRMC,090107.00,A,3128.00002,N,12117.62462,E,38.881,270.00,010321,,,A,V*31
$GNVTG,270.00,T,,M,38.881,N,72.007,K,A*2E
$GNGGA,090107.00,3128.00002,N,12117.62462,E,1,10,0.89,-8.9,M,9.3,M,,*51
$GNGSA,A,3,16,23,25,01,20,08,13,04,07,02,,,1.50,0.89,1.20,1*0E
$GNGSA,A,3,,,,,,,,,,,,,1.50,0.89,1.20,4*02
$GPGSV,3,1,12,01,14,113,51,02,21,314,51,04,50,278,52,07,65,190,53,0*65
$GPGSV,3,2,12,08,25,206,52,13,62,358,52,16,09,056,51,17,00,224,,0*6F
$GPGSV,3,3,12,20,39,111,52,23,44,042,52,25,84,130,53,27,00,216,,0*67
$GBGSV,1,1,00,0*77
$GNGLL,3128.00002,N,12117.62462,E,090107.00,A,A*72
$GNRMC,090108.00,A,3128.00002,N,12117.61190,E,38.879,270.01,010321,,,A,V*33
$GNVTG,270.01,T,,M,38.879,N,72.004,K,A*2B
$GNGGA,090108.00,3128.00002,N,12117.61190,E,1,10,0.89,-8.8,M,9.3,M,,*54
$GNGSA,A,3,16,23,25,01,20,08,13,04,07,02,,,1.50,0.89,1.20,1*0E
$GNGSA,A,3,,,,,,,,,,,,,1.50,0.89,1.20,4*02
$GPGSV,3,1,12,01,14,113,51,02,21,314,51,04,50,278,52,07,65,190,53,0*65
$GPGSV,3,2,12,08,25,206,52,13,62,358,53,16,09,056,51,17,00,224,,0*6E
$GPGSV,3,3,12,20,39,111,52,23,44,042,52,25,84,130,53,27,00,216,,0*67
$GBGSV,1,1,00,0*77
$GNGLL,3128.00002,N,12117.61190,E,090108.00,A,A*76
$GNRMC,090109.00,A,3128.00002,N,12117.59918,E,38.878,270.00,010321,,,A,V*31
$GNVTG,270.00,T,,M,38.878,N,72.001,K,A*2E
$GNGGA,090109.00,3128.00002,N,12117.59918,E,1,10,0.89,-8.8,M,9.3,M,,*56
$GNGSA,A,3,16,23,25,01,20,08,13,04,07,02,,,1.50,0.89,1.20,1*0E
$GNGSA,A,3,,,,,,,,,,,,,1.50,0.89,1.20,4*02
$GPGSV,3,1,12,01,14,113,51,02,21,314,51,04,50,278,52,07,65,190,53,0*65
$GPGSV,3,2,12,08,25,206,52,13,62,358,53,16,09,056,51,17,00,224,,0*6E
$GPGSV,3,3,12,20,39,111,52,23,44,042,52,25,84,130,53,27,00,216,,0*67
$GBGSV,1,1,00,0*77
$GNGLL,3128.00002,N,12117.59918,E,090109.00,A,A*74
$GNRMC,090110.00,A,3128.00003,N,12117.58647,E,38.878,270.01,010321,,,A,V*3D
$GNVTG,270.01,T,,M,38.878,N,72.003,K,A*2D
$GNGGA,090110.00,3128.00003,N,12117.58647,E,1,10,0.89,-8.8,M,9.3,M,,*5B
$GNGSA,A,3,16,23,25,01,20,08,13,04,07,02,,,1.50,0.89,1.20,1*0E
$GNGSA,A,3,,,,,,,,,,,,,1.50,0.89,1.20,4*02
$GPGSV,3,1,12,01,14,113,51,02,21,314,51,04,50,278,52,07,65,190,53,0*65
$GPGSV,3,2,12,08,26,206,52,13,62,358,52,16,09,056,51,17,00,224,,0*6C
$GPGSV,3,3,12,20,39,111,52,23,44,042,52,25,84,130,53,27,00,216,,0*67
$GBGSV,1,1,00,0*77
$GNGLL,3128.00003,N,12117.58647,E,090110.00,A,A*79
$GNRMC,090111.00,A,3128.00003,N,12117.57376,E,38.883,270.00,010321,,,A,V*31
$GNVTG,270.00,T,,M,38.883,N,72.011,K,A*2B
$GNGGA,090111.00,3128.00003,N,12117.57376,E,1,10,0.89,-8.8,M,9.3,M,,*52
$GNGSA,A,3,16,23,25,01,20,08,13,04,07,02,,,1.50,0.89,1.20,1*0E
$GNGSA,A,3,,,,,,,,,,,,,1.50,0.89,1.20,4*02
$GPGSV,3,1,12,01,14,113,51,02,21,314,51,04,50,278,52,07,65,190,53,0*65
$GPGSV,3,2,12,08,26,206,52,13,62,358,52,16,09,056,51,17,00,224,,0*6C
$GPGSV,3,3,12,20,39,111,52,23,44,042,52,25,84,130,53,27,00,216,,0*67
$GBGSV,1,1,00,0*77
$GNGLL,3128.00003,N,12117.57376,E,090111.00,A,A*70
$GNRMC,090112.00,A,3128.00003,N,12117.56105,E,38.878,269.99,010321,,,A,V*39
$GNVTG,269.99,T,,M,38.878,N,72.001,K,A*26
$GNGGA,090112.00,3128.00003,N,12117.56105,E,1,10,0.89,-8.8,M,9.3,M,,*56
$GNGSA,A,3,16,23,25,01,20,08,13,04,07,02,,,1.50,0.89,1.20,1*0E
$GNGSA,A,3,,,,,,,,,,,,,1.50,0.89,1.20,4*02
$GPGSV,3,1,12,01,14,113,51,02,21,314,51,04,50,278,52,07,65,190,53,0*65
$GPGSV,3,2,12,08,26,206,52,13,62,358,52,16,09,056,51,17,00,224,,0*6C
$GPGSV,3,3,12,20,39,111,52,23,44,042,52,25,84,130,53,27,00,216,,0*67
$GBGSV,1,1,00,0*77
$GNGLL,3128.00003,N,12117.56105,E,090112.00,A,A*74
$GNRMC,090113.00,A,3128.00003,N,12117.54834,E,38.877,269.99,010321,,,A,V*3E
$GNVTG,269.99,T,,M,38.877,N,72.000,K,A*28
$GNGGA,090113.00,3128.00003,N,12117.54834,E,1,10,0.89,-8.8,M,9.3,M,,*5E
$GNGSA,A,3,16,23,25,01,20,08,13,04,07,02,,,1.50,0.89,1.20,1*0E
$GNGSA,A,3,,,,,,,,,,,,,1.50,0.89,1.20,4*02
$GPGSV,3,1,12,01,14,113,51,02,21,314,51,04,50,278,52,07,65,190,53,0*65
$GPGSV,3,2,12,08,26,206,51,13,62,358,52,16,09,056,51,17,00,224,,0*6F
$GPGSV,3,3,12,20,39,111,52,23,44,042,52,25,84,130,53,27,00,216,,0*67
$GBGSV,1,1,00,0*77
$GNGLL,3128.00003,N,12117.54834,E,090113.00,A,A*7C
$GNRMC,090114.00,A,3128.00002,N,12117.53565,E,38.876,269.97,010321,,,A,V*39
$GNVTG,269.97,T,,M,38.876,N,71.999,K,A*2D
$GNGGA,090114.00,3128.00002,N,12117.53565,E,1,10,0.89,-8.8,M,9.3,M,,*56
$GNGSA,A,3,16,23,25,01,20,08,13,04,07,02,,,1.50,0.89,1.20,1*0E
$GNGSA,A,3,,,,,,,,,,,,,1.50,0.89,1.20,4*02
$GPGSV,3,1,12,01,14,113,51,02,21,314,51,04,50,278,52,07,65,190,53,0*65
$GPGSV,3,2,12,08,26,206,51,13,62,358,52,16,09,056,51,17,00,224,,0*6F
$GPGSV,3,3,12,20,39,111,52,23,44,042,52,25,84,130,53,27,00,216,,0*67
$GBGSV,1,1,00,0*77
$GNGLL,3128.00002,N,12117.53565,E,090114.00,A,A*74
$GNRMC,090115.00,A,3128.00002,N,12117.52295,E,38.879,270.00,010321,,,A,V*38
$GNVTG,270.00,T,,M,38.879,N,72.005,K,A*2B
$GNGGA,090115.00,3128.00002,N,12117.52295,E,1,10,0.89,-8.8,M,9.3,M,,*5E
$GNGSA,A,3,16,23,25,01,20,08,13,04,07,02,,,1.50,0.89,1.20,1*0E
$GNGSA,A,3,,,,,,,,,,,,,1.50,0.89,1.20,4*02
$GPGSV,3,1,12,01,14,113,51,02,21,314,51,04,50,278,52,07,65,190,53,0*65
$GPGSV,3,2,12,08,26,206,51,13,62,359,53,16,09,056,51,17,00,224,,0*6F
$GPGSV,3,3,12,20,39,111,52,23,44,042,52,25,84,130,53,27,00,216,,0*67
$GBGSV,1,1,00,0*77
$GNGLL,3128.00002,N,12117.52295,E,090115.00,A,A*7C
$GNRMC,090116.00,A,3128.00002,N,12117.51026,E,38.875,270.00,010321,,,A,V*3E
$GNVTG,270.00,T,,M,38.875,N,71.997,K,A*26
$GNGGA,090116.00,3128.00002,N,12117.51026,E,1,10,0.89,-8.8,M,9.3,M,,*54
$GNGSA,A,3,16,23,25,01,20,08,13,04,07,02,,,1.50,0.89,1.20,1*0E
$GNGSA,A,3,,,,,,,,,,,,,1.50,0.89,1.20,4*02
$GPGSV,3,1,12,01,14,113,51,02,21,314,51,04,50,278,52,07,65,190,53,0*65
$GPGSV,3,2,12,08,26,206,51,13,62,359,52,16,09,056,51,17,00,224,,0*6E
$GPGSV,3,3,12,20,39,111,52,23,44,042,52,25,84,130,53,27,00,216,,0*67
$GBGSV,1,1,00,0*77
$GNGLL,3128.00002,N,12117.51026,E,090116.00,A,A*76
$GNRMC,090117.00,A,3128.00003,N,12117.49757,E,38.876,270.01,010321,,,A,V*34
$GNVTG,270.01,T,,M,38.876,N,71.998,K,A*2B
$GNGGA,090117.00,3128.00003,N,12117.49757,E,1,10,0.89,-8.8,M,9.3,M,,*5C
$GNGSA,A,3,16,23,25,01,20,08,13,04,07,02,,,1.50,0.89,1.20,1*0E
$GNGSA,A,3,,,,,,,,,,,,,1.50,0.89,1.20,4*02
$GPGSV,3,1,12,01,14,113,51,02,21,314,51,04,50,278,52,07,65,190,53,0*65
$GPGSV,3,2,12,08,26,206,52,13,62,359,53,16,09,056,51,17,00,224,,0*6C
$GPGSV,3,3,12,20,39,111,52,23,44,042,52,25,84,130,53,27,00,216,,0*67
$GBGSV,1,1,00,0*77
$GNGLL,3128.00003,N,12117.49757,E,090117.00,A,A*7E
$GNRMC,090118.00,A,3128.00003,N,12117.48488,E,38.880,270.00,010321,,,A,V*33
$GNVTG,270.00,T,,M,38.880,N,72.005,K,A*2D
$GNGGA,090118.00,3128.00003,N,12117.48488,E,1,10,0.89,-8.8,M,9.3,M,,*53
$GNGSA,A,3,16,23,25,01,20,08,13,04,07,02,,,1.50,0.89,1.20,1*0E
$GNGSA,A,3,,,,,,,,,,,,,1.50,0.89,1.20,4*02
$GPGSV,3,1,12,01,14,113,51,02,21,314,51,04,50,278,52,07,65,190,53,0*65
$GPGSV,3,2,12,08,26,206,52,13,62,359,52,16,09,055,51,17,00,224,,0*6E
$GPGSV,3,3,12,20,39,111,52,23,44,042,52,25,84,130,53,27,00,216,,0*67
$GBGSV,1,1,00,0*77
$GNGLL,3128.00003,N,12117.48488,E,090118.00,A,A*71
$GNRMC,090119.00,A,3128.00003,N,12117.47220,E,38.882,270.00,010321,,,A,V*3B
$GNVTG,270.00,T,,M,38.882,N,72.010,K,A*2B
$GNGGA,090119.00,3128.00003,N,12117.47220,E,1,10,0.89,-8.8,M,9.3,M,,*59
$GNGSA,A,3,16,23,25,01,20,08,13,04,07,02,,,1.50,0.89,1.20,1*0E
$GNGSA,A,3,,,,,,,,,,,,,1.50,0.89,1.20,4*02
$GPGSV,3,1,12,01,14,113,51,02,21,314,51,04,50,278,52,07,65,190,53,0*65
$GPGSV,3,2,12,08,26,206,52,13,62,359,53,16,09,055,51,17,00,224,,0*6F
$GPGSV,3,3,12,20,39,111,52,23,44,042,52,25,84,130,53,27,00,216,,0*67
$GBGSV,1,1,00,0*77
$GNGLL,3128.00003,N,12117.47220,E,090119.00,A,A*7B
$GNRMC,090120.00,A,3128.00003,N,12117.45951,E,38.875,270.00,010321,,,A,V*36
$GNVTG,270.00,T,,M,38.875,N,71.997,K,A*26
$GNGGA,090120.00,3128.00003,N,12117.45951,E,1,10,0.89,-8.8,M,9.3,M,,*5C
$GNGSA,A,3,16,23,25,01,20,08,13,04,07,02,,,1.50,0.89,1.20,1*0E
$GNGSA,A,3,,,,,,,,,,,,,1.50,0.89,1.20,4*02
$GPGSV,3,1,12,01,14,113,51,02,21,314,51,04,50,278,52,07,65,190,53,0*65
$GPGSV,3,2,12,08,26,206,51,13,62,359,53,16,09,055,51,17,00,224,,0*6C
$GPGSV,3,3,12,20,39,111,52,23,44,042,52,25,84,130,53,27,00,216,,0*67
$GBGSV,1,1,00,0*77
$GNGLL,3128.00003,N,12117.45951,E,090120.00,A,A*7E
$GNRMC,090121.00,A,3128.00003,N,12117.44683,E,38.883,270.00,010321,,,A,V*3F
$GNVTG,270.00,T,,M,38.883,N,72.012,K,A*28
$GNGGA,090121.00,3128.00003,N,12117.44683,E,1,10,0.89,-8.8,M,9.3,M,,*5C
$GNGSA,A,3,16,23,25,01,20,08,13,04,07,02,,,1.50,0.89,1.20,1*0E
$GNGSA,A,3,,,,,,,,,,,,,1.50,0.89,1.20,4*02
$GPGSV,3,1,12,01,14,113,51,02,21,314,51,04,50,278,52,07,65,190,53,0*65
$GPGSV,3,2,12,08,26,206,51,13,62,359,52,16,09,055,51,17,00,224,,0*6D
$GPGSV,3,3,12,20,39,111,52,23,44,042,52,25,84,130,53,27,00,216,,0*67
$GBGSV,1,1,00,0*77
$GNGLL,3128.00003,N,12117.44683,E,090121.00,A,A*7E
$GNRMC,090122.00,A,3128.00003,N,12117.43415,E,38.879,270.01,010321,,,A,V*32
$GNVTG,270.01,T,,M,38.879,N,72.004,K,A*2B
$GNGGA,090122.00,3128.00003,N,12117.43415,E,1,10,0.89,-8.8,M,9.3,M,,*55
$GNGSA,A,3,16,23,25,01,20,08,13,04,07,02,,,1.50,0.89,1.20,1*0E
$GNGSA,A,3,,,,,,,,,,,,,1.50,0.89,1.20,4*02
$GPGSV,3,1,12,01,14,113,51,02,21,314,51,04,50,278,52,07,65,190,53,0*65
$GPGSV,3,2,12,08,26,206,51,13,62,359,53,16,09,055,51,17,00,224,,0*6C
$GPGSV,3,3,12,20,39,111,52,23,44,042,52,25,84,130,53,27,00,216,,0*67
$GBGSV,1,1,00,0*77
$GNGLL,3128.00003,N,12117.43415,E,090122.00,A,A*77
$GNRMC,090123.00,A,3128.00003,N,12117.42147,E,38.878,270.00,010321,,,A,V*30
$GNVTG,270.00,T,,M,38.878,N,72.002,K,A*2D
$GNGGA,090123.00,3128.00003,N,12117.42147,E,1,10,0.89,-8.8,M,9.3,M,,*57
$GNGSA,A,3,16,23,25,01,20,08,13,04,07,02,,,1.50,0.89,1.20,1*0E
$GNGSA,A,3,,,,,,,,,,,,,1.50,0.89,1.20,4*02
$GPGSV,3,1,12,01,14,113,51,02,21,314,51,04,50,278,52,07,65,190,53,0*65
$GPGSV,3,2,12,08,26,206,52,13,62,359,53,16,09,055,51,17,00,224,,0*6F
$GPGSV,3,3,12,20,39,111,52,23,44,042,52,25,84,130,53,27,00,216,,0*67
$GBGSV,1,1,00,0*77
$GNGLL,3128.00003,N,12117.42147,E,090123.00,A,A*75
$GNRMC,090124.00,A,3128.00003,N,12117.40879,E,38.882,269.99,010321,,,A,V*3C
$GNVTG,269.99,T,,M,38.882,N,72.010,K,A*23
$GNGGA,090124.00,3128.00003,N,12117.40879,E,1,10,0.89,-8.8,M,9.3,M,,*56
$GNGSA,A,3,16,23,25,01,20,08,13,04,07,02,,,1.50,0.89,1.20,1*0E
$GNGSA,A,3,,,,,,,,,,,,,1.50,0.89,1.20,4*02
$GPGSV,3,1,12,01,14,113,51,02,21,314,51,04,50,278,52,07,65,190,53,0*65
$GPGSV,3,2,12,08,26,206,52,13,62,359,52,16,09,055,51,17,00,224,,0*6E
$GPGSV,3,3,12,20,39,111,52,23,44,042,52,25,84,130,53,27,00,216,,0*67
$GBGSV,1,1,00,0*77
$GNGLL,3128.00003,N,12117.40879,E,090124.00,A,A*74
$GNRMC,090125.00,A,3128.00003,N,12117.39612,E,38.876,270.01,010321,,,A,V*32
$GNVTG,270.01,T,,M,38.876,N,71.999,K,A*2A
$GNGGA,090125.00,3128.00003,N,12117.39612,E,1,10,0.89,-8.8,M,9.3,M,,*5A
$GNGSA,A,3,16,23,25,01,20,08,13,04,07,02,,,1.50,0.89,1.20,1*0E
$GNGSA,A,3,,,,,,,,,,,,,1.50,0.89,1.20,4*02
$GPGSV,3,1,12,01,14,113,51,02,21,314,51,04,50,278,52,07,65,190,53,0*65
$GPGSV,3,2,12,08,26,206,51,13,62,359,52,16,09,055,51,17,00,224,,0*6D
$GPGSV,3,3,12,20,39,111,52,23,43,042,52,25,84,130,53,27,00,216,,0*60
$GBGSV,1,1,00,0*77
$GNGLL,3128.00003,N,12117.39612,E,090125.00,A,A*78
$GNRMC,090126.00,A,3128.00003,N,12117.38344,E,38.881,270.00,010321,,,A,V*3F
$GNVTG,270.00,T,,M,38.881,N,72.008,K,A*21
$GNGGA,090126.00,3128.00003,N,12117.38344,E,1,10,0.89,-8.8,M,9.3,M,,*5E
$GNGSA,A,3,16,23,25,01,20,08,13,04,07,02,,,1.50,0.89,1.20,1*0E
$GNGSA,A,3,,,,,,,,,,,,,1.50,0.89,1.20,4*02
$GPGSV,3,1,12,01,14,113,51,02,21,314,51,04,50,278,52,07,65,190,53,0*65
$GPGSV,3,2,12,08,26,206,51,13,62,359,52,16,09,055,51,17,00,224,,0*6D
$GPGSV,3,3,12,20,39,111,52,23,43,042,52,25,84,130,53,27,00,216,,0*60
$GBGSV,1,1,00,0*77
$GNGLL,3128.00003,N,12117.38344,E,090126.00,A,A*7C
$GNRMC,090127.00,A,3128.00003,N,12117.37077,E,38.877,270.01,010321,,,A,V*3A
$GNVTG,270.01,T,,M,38.877,N,72.001,K,A*20
$GNGGA,090127.00,3128.00003,N,12117.37077,E,1,10,0.89,-8.8,M,9.3,M,,*53
$GNGSA,A,3,16,23,25,01,20,08,13,04,07,02,,,1.50,0.89,1.20,1*0E
$GNGSA,A,3,,,,,,,,,,,,,1.50,0.89,1.20,4*02
$GPGSV,3,1,12,01,14,113,51,02,21,314,51,04,50,278,52,07,65,190,53,0*65
$GPGSV,3,2,12,08,26,206,51,13,62,359,52,16,09,055,51,17,00,224,,0*6D
$GPGSV,3,3,12,20,39,111,52,23,43,042,52,25,84,127,53,27,00,216,,0*66
$GBGSV,1,1,00,0*77
$GNGLL,3128.00003,N,12117.37077,E,090127.00,A,A*71
$GNRMC,090128.00,A,3128.00003,N,12117.35810,E,38.882,270.00,010321,,,A,V*35
$GNVTG,270.00,T,,M,38.882,N,72.009,K,A*23
$GNGGA,090128.00,3128.00003,N,12117.35810,E,1,10,0.89,-8.8,M,9.3,M,,*57
$GNGSA,A,3,16,23,25,01,20,08,13,04,07,02,,,1.50,0.89,1.20,1*0E
$GNGSA,A,3,,,,,,,,,,,,,1.50,0.89,1.20,4*02
$GPGSV,3,1,12,01,14,113,51,02,21,314,51,04,50,278,52,07,65,190,53,0*65
$GPGSV,3,2,12,08,26,206,51,13,62,359,52,16,09,055,51,17,00,224,,0*6D
$GPGSV,3,3,12,20,39,111,52,23,43,042,52,25,84,127,53,27,00,216,,0*66
$GBGSV,1,1,00,0*77
$GNGLL,3128.00003,N,12117.35810,E,090128.00,A,A*75
$GNRMC,090129.00,A,3128.00003,N,12117.34543,E,38.881,270.00,010321,,,A,V*3D
$GNVTG,270.00,T,,M,38.881,N,72.007,K,A*2E
$GNGGA,090129.00,3128.00003,N,12117.34543,E,1,10,0.89,-8.8,M,9.3,M,,*5C
$GNGSA,A,3,16,23,25,01,20,08,13,04,07,02,,,1.50,0.89,1.20,1*0E
$GNGSA,A,3,,,,,,,,,,,,,1.50,0.89,1.20,4*02
$GPGSV,3,1,12,01,14,113,51,02,21,314,51,04,50,278,52,07,65,190,53,0*65
$GPGSV,3,2,12,08,26,206,51,13,62,359,52,16,09,055,51,17,00,224,,0*6D
$GPGSV,3,3,12,20,39,111,52,23,43,042,52,25,84,127,53,27,00,216,,0*66
$GBGSV,1,1,00,0*77
$GNGLL,3128.00003,N,12117.34543,E,090129.00,A,A*7E
$GNRMC,090130.00,A,3128.00003,N,12117.33276,E,38.883,270.00,010321,,,A,V*31
$GNVTG,270.00,T,,M,38.883,N,72.011,K,A*2B
$GNGGA,090130.00,3128.00003,N,12117.33276,E,1,10,0.89,-8.8,M,9.3,M,,*52
$GNGSA,A,3,16,23,25,01,20,08,13,04,07,02,,,1.50,0.89,1.20,1*0E
$GNGSA,A,3,,,,,,,,,,,,,1.50,0.89,1.20,4*02
$GPGSV,3,1,12,01,14,113,51,02,21,314,51,04,50,278,52,07,65,190,53,0*65
$GPGSV,3,2,12,08,26,206,51,13,62,359,52,16,09,055,51,17,00,224,,0*6D
$GPGSV,3,3,12,20,39,111,52,23,43,042,52,25,84,127,53,27,00,216,,0*66
$GBGSV,1,1,00,0*77
$GNGLL,3128.00003,N,12117.33276,E,090130.00,A,A*70
$GNRMC,090131.00,A,3128.00003,N,12117.32010,E,38.878,270.01,010321,,,A,V*36
$GNVTG,270.01,T,,M,38.878,N,72.002,K,A*2C
$GNGGA,090131.00,3128.00003,N,12117.32010,E,1,10,0.89,-8.8,M,9.3,M,,*50
$GNGSA,A,3,16,23,25,01,20,08,13,04,07,02,,,1.50,0.89,1.20,1*0E
$GNGSA,A,3,,,,,,,,,,,,,1.50,0.89,1.20,4*02
$GPGSV,3,1,12,01,14,113,51,02,21,314,51,04,50,278,52,07,65,190,53,0*65
$GPGSV,3,2,12,08,26,206,52,13,62,359,52,16,09,055,51,17,00,224,,0*6E
$GPGSV,3,3,12,20,39,111,52,23,43,042,52,25,84,127,53,27,00,216,,0*66
$GBGSV,1,1,00,0*77
$GNGLL,3128.00003,N,12117.32010,E,090131.00,A,A*72
$GNRMC,090132.00,A,3128.00003,N,12117.30744,E,38.880,270.00,010321,,,A,V*37
$GNVTG,270.00,T,,M,38.880,N,72.005,K,A*2D
$GNGGA,090132.00,3128.00003,N,12117.30744,E,1,10,0.89,-8.8,M,9.3,M,,*57
$GNGSA,A,3,16,23,25,01,20,08,13,04,07,02,,,1.50,0.89,1.20,1*0E
$GNGSA,A,3,,,,,,,,,,,,,1.50,0.89,1.20,4*02
$GPGSV,3,1,12,01,14,113,51,02,21,314,51,04,50,278,52,07,65,190,53,0*65
$GPGSV,3,2,12,08,26,206,51,13,62,359,52,16,09,055,51,17,00,224,,0*6D
$GPGSV,3,3,12,20,39,111,52,23,43,042,52,25,84,127,53,27,00,216,,0*66
$GBGSV,1,1,00,0*77
$GNGLL,3128.00003,N,12117.30744,E,090132.00,A,A*75
$GNRMC,090133.00,A,3128.00003,N,12117.29477,E,38.879,270.01,010321,,,A,V*3A
$GNVTG,270.01,T,,M,38.879,N,72.003,K,A*2C
$GNGGA,090133.00,3128.00003,N,12117.29477,E,1,10,0.89,-8.8,M,9.3,M,,*5D
$GNGSA,A,3,16,23,25,01,20,08,13,04,07,02,,,1.50,0.89,1.20,1*0E
$GNGSA,A,3,,,,,,,,,,,,,1.50,0.89,1.20,4*02
$GPGSV,3,1,12,01,14,113,51,02,21,314,51,04,50,278,52,07,65,190,53,0*65
$GPGSV,3,2,12,08,26,206,51,13,62,359,52,16,09,055,51,17,00,224,,0*6D
$GPGSV,3,3,12,20,39,111,52,23,43,042,52,25,84,127,53,27,00,216,,0*66
$GBGSV,1,1,00,0*77
$GNGLL,3128.00003,N,12117.29477,E,090133.00,A,A*7F
$GNRMC,090134.00,A,3128.00003,N,12117.28211,E,38.880,270.00,010321,,,A,V*3D
$GNVTG,270.00,T,,M,38.880,N,72.005,K,A*2D
$GNGGA,090134.00,3128.00003,N,12117.28211,E,1,10,0.89,-8.8,M,9.3,M,,*5D
$GNGSA,A,3,16,23,25,01,20,08,13,04,07,02,,,1.50,0.89,1.20,1*0E
$GNGSA,A,3,,,,,,,,,,,,,1.50,0.89,1.20,4*02
$GPGSV,3,1,12,01,14,113,51,02,21,314,51,04,50,278,52,07,65,190,53,0*65
$GPGSV,3,2,12,08,26,206,51,13,62,359,52,16,09,055,51,17,00,224,,0*6D
$GPGSV,3,3,12,20,39,111,52,23,43,042,52,25,84,127,53,27,00,216,,0*66
$GBGSV,1,1,00,0*77
$GNGLL,3128.00003,N,12117.28211,E,090134.00,A,A*7F
$GNRMC,090135.00,A,3128.00003,N,12117.26944,E,38.882,269.99,010321,,,A,V*33
$GNVTG,269.99,T,,M,38.882,N,72.009,K,A*2B
$GNGGA,090135.00,3128.00003,N,12117.26944,E,1,10,0.89,-8.8,M,9.3,M,,*59
$GNGSA,A,3,16,23,25,01,20,08,13,04,07,02,,,1.50,0.89,1.20,1*0E
$GNGSA,A,3,,,,,,,,,,,,,1.50,0.89,1.20,4*02
$GPGSV,3,1,12,01,14,113,51,02,21,314,51,04,50,278,52,07,65,190,53,0*65
$GPGSV,3,2,12,08,26,206,51,13,62,359,52,16,09,055,51,17,00,224,,0*6D
$GPGSV,3,3,12,20,39,111,52,23,43,042,52,25,84,127,53,27,00,216,,0*66
$GBGSV,1,1,00,0*77
$GNGLL,3128.00003,N,12117.26944,E,090135.00,A,A*7B
$GNRMC,090136.00,A,3128.00002,N,12117.25678,E,38.878,270.00,010321,,,A,V*3F
$GNVTG,270.00,T,,M,38.878,N,72.002,K,A*2D
$GNGGA,090136.00,3128.00002,N,12117.25678,E,1,10,0.89,-8.8,M,9.3,M,,*58
$GNGSA,A,3,16,23,25,01,20,08,13,04,07,02,,,1.50,0.89,1.20,1*0E
$GNGSA,A,3,,,,,,,,,,,,,1.50,0.89,1.20,4*02
$GPGSV,3,1,12,01,14,113,51,02,21,314,51,04,50,278,52,07,65,190,53,0*65
$GPGSV,3,2,12,08,26,206,51,13,62,359,52,16,09,055,51,17,00,224,,0*6D
$GPGSV,3,3,12,20,39,111,52,23,43,042,52,25,84,127,53,27,00,216,,0*66
$GBGSV,1,1,00,0*77
$GNGLL,3128.00002,N,12117.25678,E,090136.00,A,A*7A
$GNRMC,090137.00,A,3128.00002,N,12117.24413,E,38.878,270.00,010321,,,A,V*30
$GNVTG,270.00,T,,M,38.878,N,72.001,K,A*2E
$GNGGA,090137.00,3128.00002,N,12117.24413,E,1,10,0.89,-8.8,M,9.3,M,,*57
$GNGSA,A,3,16,23,25,01,20,08,13,04,07,02,,,1.50,0.89,1.20,1*0E
$GNGSA,A,3,,,,,,,,,,,,,1.50,0.89,1.20,4*02
$GPGSV,3,1,12,01,14,113,51,02,21,314,51,04,50,278,52,07,65,190,53,0*65
$GPGSV,3,2,12,08,26,206,51,13,62,359,52,16,09,055,51,17,00,224,,0*6D
$GPGSV,3,3,12,20,39,111,52,23,43,042,52,25,84,127,53,27,00,216,,0*66
$GBGSV,1,1,00,0*77
$GNGLL,3128.00002,N,12117.24413,E,090137.00,A,A*75
$GNRMC,090138.00,A,3128.00002,N,12117.23147,E,38.883,270.00,010321,,,A,V*38
$GNVTG,270.00,T,,M,38.883,N,72.011,K,A*2B
$GNGGA,090138.00,3128.00002,N,12117.23147,E,1,10,0.89,-8.8,M,9.3,M,,*5B
$GNGSA,A,3,16,23,25,01,20,08,13,04,07,02,,,1.50,0.89,1.20,1*0E
$GNGSA,A,3,,,,,,,,,,,,,1.50,0.89,1.20,4*02
$GPGSV,3,1,12,01,14,113,51,02,21,314,51,04,50,278,52,07,65,190,52,0*64
$GPGSV,3,2,12,08,26,206,51,13,62,359,52,16,09,055,51,17,00,224,,0*6D
$GPGSV,3,3,12,20,39,111,52,23,43,042,52,25,84,127,53,27,00,216,,0*66
$GBGSV,1,1,00,0*77
$GNGLL,3128.00002,N,12117.23147,E,090138.00,A,A*79
$GNRMC,090139.00,A,3128.00002,N,12117.21881,E,38.882,270.01,010321,,,A,V*38
$GNVTG,270.01,T,,M,38.882,N,72.009,K,A*22
$GNGGA,090139.00,3128.00002,N,12117.21881,E,1,10,0.89,-8.8,M,9.3,M,,*5B
$GNGSA,A,3,16,23,25,01,20,08,13,04,07,02,,,1.50,0.89,1.20,1*0E
$GNGSA,A,3,,,,,,,,,,,,,1.50,0.89,1.20,4*02
$GPGSV,3,1,12,01,14,113,51,02,21,314,51,04,50,278,52,07,65,190,52,0*64
$GPGSV,3,2,12,08,26,206,52,13,62,359,52,16,09,055,51,17,00,224,,0*6E
$GPGSV,3,3,12,20,39,111,52,23,43,042,52,25,84,127,53,27,00,216,,0*66
$GBGSV,1,1,00,0*77
$GNGLL,3128.00002,N,12117.21881,E,090139.00,A,A*79
$GNRMC,090140.00,A,3128.00002,N,12117.20615,E,38.881,270.00,010321,,,A,V*36
$GNVTG,270.00,T,,M,38.881,N,72.008,K,A*21
$GNGGA,090140.00,3128.00002,N,12117.20615,E,1,10,0.89,-8.8,M,9.3,M,,*57
$GNGSA,A,3,16,23,25,01,20,08,13,04,07,02,,,1.50,0.89,1.20,1*0E
$GNGSA,A,3,,,,,,,,,,,,,1.50,0.89,1.20,4*02
$GPGSV,3,1,12,01,14,113,51,02,21,314,51,04,50,278,52,07,65,190,52,0*64
$GPGSV,3,2,12,08,26,206,52,13,62,359,52,16,09,055,51,17,00,224,,0*6E
$GPGSV,3,3,12,20,39,111,52,23,43,042,52,25,84,127,53,27,00,216,,0*66
$GBGSV,1,1,00,0*77
$GNGLL,3128.00002,N,12117.20615,E,090140.00,A,A*75
$GNRMC,090141.00,A,3128.00002,N,12117.19349,E,38.880,270.01,010321,,,A,V*31
$GNVTG,270.01,T,,M,38.880,N,72.006,K,A*2F
$GNGGA,090141.00,3128.00002,N,12117.19349,E,1,10,0.89,-8.8,M,9.3,M,,*50
$GNGSA,A,3,16,23,25,01,20,08,13,04,07,02,,,1.50,0.89,1.20,1*0E
$GNGSA,A,3,,,,,,,,,,,,,1.50,0.89,1.20,4*02
$GPGSV,3,1,12,01,14,113,51,02,21,314,51,04,50,278,52,07,65,190,53,0*65
$GPGSV,3,2,12,08,26,206,52,13,62,359,52,16,09,055,51,17,00,224,,0*6E
$GPGSV,3,3,12,20,39,111,52,23,43,042,52,25,84,127,53,27,00,216,,0*66
$GBGSV,1,1,00,0*77
$GNGLL,3128.00002,N,12117.19349,E,090141.00,A,A*72
$GNRMC,090142.00,A,3128.00002,N,12117.18084,E,38.883,270.01,010321,,,A,V*32
$GNVTG,270.01,T,,M,38.883,N,72.012,K,A*29
$GNGGA,090142.00,3128.00002,N,12117.18084,E,1,10,0.89,-8.8,M,9.3,M,,*50
$GNGSA,A,3,16,23,25,01,20,08,13,04,07,02,,,1.50,0.89,1.20,1*0E
$GNGSA,A,3,,,,,,,,,,,,,1.50,0.89,1.20,4*02
$GPGSV,3,1,12,01,14,113,51,02,21,314,51,04,50,278,52,07,65,190,53,0*65
$GPGSV,3,2,12,08,26,206,52,13,62,359,52,16,09,055,51,17,00,224,,0*6E
$GPGSV,3,3,12,20,39,111,52,23,43,042,52,25,84,127,53,27,00,216,,0*66
$GBGSV,1,1,00,0*77
$GNGLL,3128.00002,N,12117.18084,E,090142.00,A,A*72
$GNRMC,090143.00,A,3128.00002,N,12117.16818,E,38.874,270.01,010321,,,A,V*38
$GNVTG,270.01,T,,M,38.874,N,71.995,K,A*24
$GNGGA,090143.00,3128.00002,N,12117.16818,E,1,10,0.89,-8.8,M,9.3,M,,*52
$GNGSA,A,3,16,23,25,01,20,08,13,04,07,02,,,1.50,0.89,1.20,1*0E
$GNGSA,A,3,,,,,,,,,,,,,1.50,0.89,1.20,4*02
$GPGSV,3,1,12,01,14,113,51,02,21,314,51,04,50,278,52,07,65,190,53,0*65
$GPGSV,3,2,12,08,26,206,52,13,62,359,53,16,09,055,51,17,00,224,,0*6F
$GPGSV,3,3,12,20,39,111,52,23,43,042,52,25,84,127,53,27,00,216,,0*66
$GBGSV,1,1,00,0*77
$GNGLL,3128.00002,N,12117.16818,E,090143.00,A,A*70
$GNRMC,090144.00,A,3128.00002,N,12117.15553,E,38.881,270.01,010321,,,A,V*34
$GNVTG,270.01,T,,M,38.881,N,72.007,K,A*2F
$GNGGA,090144.00,3128.00002,N,12117.15553,E,1,10,0.89,-8.8,M,9.3,M,,*54
$GNGSA,A,3,16,23,25,01,20,08,13,04,07,02,,,1.50,0.89,1.20,1*0E
$GNGSA,A,3,,,,,,,,,,,,,1.50,0.89,1.20,4*02
$GPGSV,3,1,12,01,14,113,51,02,21,314,51,04,50,278,52,07,65,190,53,0*65
$GPGSV,3,2,12,08,26,206,51,13,62,359,52,16,09,055,51,17,00,224,,0*6D
$GPGSV,3,3,12,20,39,111,52,23,43,042,52,25,84,127,53,27,00,216,,0*66
$GBGSV,1,1,00,0*77
$GNGLL,3128.00002,N,12117.15553,E,090144.00,A,A*76
$GNRMC,090145.00,A,3128.00002,N,12117.14287,E,38.881,270.02,010321,,,A,V*39
$GNVTG,270.02,T,,M,38.881,N,72.008,K,A*23
$GNGGA,090145.00,3128.00002,N,12117.14287,E,1,10,0.89,-8.8,M,9.3,M,,*5A
$GNGSA,A,3,16,23,25,01,20,08,13,04,07,02,,,1.50,0.89,1.20,1*0E
$GNGSA,A,3,,,,,,,,,,,,,1.50,0.89,1.20,4*02
$GPGSV,3,1,12,01,14,113,51,02,21,314,51,04,50,278,52,07,65,190,53,0*65
$GPGSV,3,2,12,08,26,206,51,13,62,359,52,16,09,055,51,17,00,224,,0*6D
$GPGSV,3,3,12,20,39,111,52,23,43,042,52,25,84,127,53,27,00,216,,0*66
$GBGSV,1,1,00,0*77
$GNGLL,3128.00002,N,12117.14287,E,090145.00,A,A*78
$GNRMC,090146.00,A,3128.00002,N,12117.13021,E,38.875,269.99,010321,,,A,V*32
$GNVTG,269.99,T,,M,38.875,N,71.996,K,A*2F
$GNGGA,090146.00,3128.00002,N,12117.13021,E,1,10,0.89,-8.8,M,9.3,M,,*50
$GNGSA,A,3,16,23,25,01,20,08,13,04,07,02,,,1.50,0.89,1.20,1*0E
$GNGSA,A,3,,,,,,,,,,,,,1.50,0.89,1.20,4*02
$GPGSV,3,1,12,01,14,113,51,02,21,314,51,04,50,278,52,07,65,190,53,0*65
$GPGSV,3,2,12,08,26,206,51,13,62,359,52,16,09,055,51,17,00,224,,0*6D
$GPGSV,3,3,12,20,39,111,52,23,43,042,52,25,84,127,53,27,00,216,,0*66
$GBGSV,1,1,00,0*77
$GNGLL,3128.00002,N,12117.13021,E,090146.00,A,A*72
$GNRMC,090147.00,A,3128.00002,N,12117.11756,E,38.879,270.00,010321,,,A,V*32
$GNVTG,270.00,T,,M,38.879,N,72.004,K,A*2A
$GNGGA,090147.00,3128.00002,N,12117.11756,E,1,10,0.89,-8.8,M,9.3,M,,*54
$GNGSA,A,3,16,23,25,01,20,08,13,04,07,02,,,1.50,0.89,1.20,1*0E
$GNGSA,A,3,,,,,,,,,,,,,1.50,0.89,1.20,4*02
$GPGSV,3,1,12,01,14,113,51,02,21,314,51,04,50,278,52,07,65,190,53,0*65
$GPGSV,3,2,12,08,26,206,51,13,62,359,52,16,09,055,51,17,00,224,,0*6D
$GPGSV,3,3,12,20,39,111,52,23,43,042,52,25,84,127,53,27,00,216,,0*66
$GBGSV,1,1,00,0*77
$GNGLL,3128.00002,N,12117.11756,E,090147.00,A,A*76
$GNRMC,090148.00,A,3128.00002,N,12117.10491,E,38.877,270.01,010321,,,A,V*3B
$GNVTG,270.01,T,,M,38.877,N,72.000,K,A*21
$GNGGA,090148.00,3128.00002,N,12117.10491,E,1,10,0.89,-8.8,M,9.3,M,,*52
$GNGSA,A,3,16,23,25,01,20,08,13,04,07,02,,,1.50,0.89,1.20,1*0E
$GNGSA,A,3,,,,,,,,,,,,,1.50,0.89,1.20,4*02
$GPGSV,3,1,12,01,14,113,51,02,21,314,51,04,50,278,52,07,65,190,53,0*65
$GPGSV,3,2,12,08,26,206,51,13,62,359,52,16,09,055,51,17,00,224,,0*6D
$GPGSV,3,3,12,20,39,111,52,23,43,042,52,25,84,127,53,27,00,216,,0*66
$GBGSV,1,1,00,0*77
$GNGLL,3128.00002,N,12117.10491,E,090148.00,A,A*70
$GNRMC,090149.00,A,3128.00002,N,12117.09226,E,38.883,270.00,010321,,,A,V*32
$GNVTG,270.00,T,,M,38.883,N,72.012,K,A*28
$GNGGA,090149.00,3128.00002,N,12117.09226,E,1,10,0.89,-8.8,M,9.3,M,,*51
$GNGSA,A,3,16,23,25,01,20,08,13,04,07,02,,,1.50,0.89,1.20,1*0E
$GNGSA,A,3,,,,,,,,,,,,,1.50,0.89,1.20,4*02
$GPGSV,3,1,12,01,14,113,51,02,21,314,51,04,50,278,52,07,65,190,53,0*65
$GPGSV,3,2,12,08,26,206,51,13,62,359,52,16,09,055,51,17,00,224,,0*6D
$GPGSV,3,3,12,20,39,111,52,23,43,042,52,25,84,127,53,27,00,216,,0*66
$GBGSV,1,1,00,0*77
$GNGLL,3128.00002,N,12117.09226,E,090149.00,A,A*73
$GNRMC,090150.00,A,3128.00002,N,12117.07961,E,38.881,270.01,010321,,,A,V*3F
$GNVTG,270.01,T,,M,38.881,N,72.008,K,A*20
$GNGGA,090150.00,3128.00002,N,12117.07961,E,1,10,0.89,-8.8,M,9.3,M,,*5F
$GNGSA,A,3,16,23,25,01,20,08,13,04,07,02,,,1.50,0.89,1.20,1*0E
$GNGSA,A,3,,,,,,,,,,,,,1.50,0.89,1.20,4*02
$GPGSV,3,1,12,01,14,113,51,02,21,314,51,04,50,278,52,07,65,190,52,0*64
$GPGSV,3,2,12,08,26,206,51,13,62,359,52,16,09,055,51,17,00,224,,0*6D
$GPGSV,3,3,12,20,39,111,52,23,43,042,52,25,84,127,53,27,00,216,,0*66
$GBGSV,1,1,00,0*77
$GNGLL,3128.00002,N,12117.07961,E,090150.00,A,A*7D
$GNRMC,090151.00,A,3128.00002,N,12117.06696,E,38.884,270.00,010321,,,A,V*3C
$GNVTG,270.00,T,,M,38.884,N,72.013,K,A*2E
$GNGGA,090151.00,3128.00002,N,12117.06696,E,1,10,0.89,-8.8,M,9.3,M,,*58
$GNGSA,A,3,16,23,25,01,20,08,13,04,07,02,,,1.50,0.89,1.20,1*0E
$GNGSA,A,3,,,,,,,,,,,,,1.50,0.89,1.20,4*02
$GPGSV,3,1,12,01,14,113,51,02,21,314,51,04,50,278,52,07,65,190,52,0*64
$GPGSV,3,2,12,08,26,206,51,13,62,359,52,16,09,055,51,17,00,224,,0*6D
$GPGSV,3,3,12,20,39,111,52,23,43,042,52,25,84,127,53,27,00,216,,0*66
$GBGSV,1,1,00,0*77
$GNGLL,3128.00002,N,12117.06696,E,090151.00,A,A*7A
$GNRMC,090152.00,A,3128.00002,N,12117.05430,E,38.878,270.00,010321,,,A,V*31
$GNVTG,270.00,T,,M,38.878,N,72.002,K,A*2D
$GNGGA,090152.00,3128.00002,N,12117.05430,E,1,10,0.89,-8.8,M,9.3,M,,*56
$GNGSA,A,3,16,23,25,01,20,08,13,04,07,02,,,1.50,0.89,1.20,1*0E
$GNGSA,A,3,,,,,,,,,,,,,1.50,0.89,1.20,4*02
$GPGSV,3,1,12,01,14,113,51,02,21,314,51,04,50,278,52,07,65,190,53,0*65
$GPGSV,3,2,12,08,26,206,51,13,62,359,52,16,09,055,51,17,00,224,,0*6D
$GPGSV,3,3,12,20,39,111,52,23,43,042,52,25,84,127,53,27,00,216,,0*66
$GBGSV,1,1,00,0*77
$GNGLL,3128.00002,N,12117.05430,E,090152.00,A,A*74
$GNRMC,090153.00,A,3128.00002,N,12117.04165,E,38.877,270.00,010321,,,A,V*3B
$GNVTG,270.00,T,,M,38.877,N,72.000,K,A*20
$GNGGA,090153.00,3128.00002,N,12117.04165,E,1,10,0.89,-8.8,M,9.3,M,,*53
$GNGSA,A,3,16,23,25,01,20,08,13,04,07,02,,,1.50,0.89,1.20,1*0E
$GNGSA,A,3,,,,,,,,,,,,,1.50,0.89,1.20,4*02
$GPGSV,3,1,12,01,14,113,51,02,21,314,51,04,50,278,52,07,65,190,53,0*65
$GPGSV,3,2,12,08,26,206,51,13,62,359,52,16,09,055,51,17,00,224,,0*6D
$GPGSV,3,3,12,20,39,111,52,23,43,042,52,25,84,127,53,27,00,216,,0*66
$GBGSV,1,1,00,0*77
$GNGLL,3128.00002,N,12117.04165,E,090153.00,A,A*71
$GNRMC,090154.00,A,3128.00002,N,12117.02900,E,38.881,270.00,010321,,,A,V*38
$GNVTG,270.00,T,,M,38.881,N,72.007,K,A*2E
$GNGGA,090154.00,3128.00002,N,12117.02900,E,1,10,0.89,-8.8,M,9.3,M,,*59
$GNGSA,A,3,16,23,25,01,20,08,13,04,07,02,,,1.50,0.89,1.20,1*0E
$GNGSA,A,3,,,,,,,,,,,,,1.50,0.89,1.20,4*02
$GPGSV,3,1,12,01,14,113,51,02,21,314,51,04,50,278,52,07,65,190,53,0*65
$GPGSV,3,2,12,08,26,206,52,13,62,359,52,16,09,055,51,17,00,224,,0*6E
$GPGSV,3,3,12,20,39,111,52,23,43,042,52,25,84,127,53,27,00,216,,0*66
$GBGSV,1,1,00,0*77
$GNGLL,3128.00002,N,12117.02900,E,090154.00,A,A*7B
$GNRMC,090155.00,A,3128.00002,N,12117.01636,E,38.873,270.00,010321,,,A,V*3D
$GNVTG,270.00,T,,M,38.873,N,71.993,K,A*24
$GNGGA,090155.00,3128.00002,N,12117.01636,E,1,10,0.89,-8.9,M,9.3,M,,*50
$GNGSA,A,3,16,23,25,01,20,08,13,04,07,02,,,1.50,0.89,1.20,1*0E
$GNGSA,A,3,,,,,,,,,,,,,1.50,0.89,1.20,4*02
