$GNRMC,080228.00,A,3128.00005,N,12116.59846,E,38.875,270.01,010321,,,A,V*30
$GNVTG,270.01,T,,M,38.875,N,71.997,K,A*27
$GNGGA,080228.00,3128.00005,N,12116.59846,E,1,10,0.88,-9.3,M,9.3,M,,*50
$GNGSA,A,3,16,23,25,01,20,11,13,17,04,07,,,1.55,0.88,1.27,1*01
$GNGSA,A,3,,,,,,,,,,,,,1.55,0.88,1.27,4*01
$GPGSV,3,1,10,01,31,090,52,04,37,310,52,07,35,188,52,11,21,171,52,0*6A
$GPGSV,3,2,10,13,65,294,53,16,06,080,51,17,14,245,52,20,55,074,53,0*60
$GPGSV,3,3,10,23,62,011,53,25,56,179,53,0*6A
$GBGSV,1,1,00,0*77
$GNGLL,3128.00005,N,12116.59846,E,080228.00,A,A*79
$GNRMC,080229.00,A,3128.00005,N,12116.58583,E,38.872,270.01,010321,,,A,V*33
$GNVTG,270.01,T,,M,38.872,N,71.991,K,A*26
$GNGGA,080229.00,3128.00005,N,12116.58583,E,1,10,0.89,-9.3,M,9.3,M,,*55
$GNGSA,A,3,16,23,25,01,20,11,13,17,04,07,,,1.55,0.89,1.27,1*00
$GNGSA,A,3,,,,,,,,,,,,,1.55,0.89,1.27,4*00
$GPGSV,3,1,10,01,31,090,52,04,37,310,52,07,35,188,52,11,21,171,52,0*6A
$GPGSV,3,2,10,13,65,294,53,16,06,080,51,17,14,245,52,20,55,074,53,0*60
$GPGSV,3,3,10,23,62,011,53,25,56,179,53,0*6A
$GBGSV,1,1,00,0*77
$GNGLL,3128.00005,N,12116.58583,E,080229.00,A,A*7D
$GNRMC,080230.00,A,3128.00004,N,12116.57320,E,38.869,269.99,010321,,,A,V*39
$GNVTG,269.99,T,,M,38.869,N,71.985,K,A*20
$GNGGA,080230.00,3128.00004,N,12116.57320,E,1,10,0.89,-9.3,M,9.3,M,,*5C
$GNGSA,A,3,16,23,25,01,20,11,13,17,04,07,,,1.55,0.89,1.27,1*00
$GNGSA,A,3,,,,,,,,,,,,,1.55,0.89,1.27,4*00
$GPGSV,3,1,10,01,31,090,52,04,37,310,53,07,35,188,52,11,21,171,52,0*6B
$GPGSV,3,2,10,13,65,294,53,16,06,080,51,17,14,245,52,20,55,074,53,0*60
$GPGSV,3,3,10,23,62,011,53,25,56,179,53,0*6A
$GBGSV,1,1,00,0*77
$GNGLL,3128.00004,N,12116.57320,E,080230.00,A,A*74
$GNRMC,080231.00,A,3128.00004,N,12116.56058,E,38.875,270.00,010321,,,A,V*30
$GNVTG,270.00,T,,M,38.875,N,71.996,K,A*27
$GNGGA,080231.00,3128.00004,N,12116.56058,E,1,10,0.89,-9.3,M,9.3,M,,*50
$GNGSA,A,3,16,23,25,01,20,11,13,17,04,07,,,1.55,0.89,1.27,1*00
$GNGSA,A,3,,,,,,,,,,,,,1.55,0.89,1.27,4*00
$GPGSV,3,1,10,01,31,090,52,04,37,310,52,07,35,188,52,11,21,171,52,0*6A
$GPGSV,3,2,10,13,65,294,53,16,06,080,51,17,14,245,52,20,55,074,53,0*60
$GPGSV,3,3,10,23,62,011,53,25,56,179,53,0*6A
$GBGSV,1,1,00,0*77
$GNGLL,3128.00004,N,12116.56058,E,080231.00,A,A*78
$GNRMC,080232.00,A,3128.00004,N,12116.54795,E,38.873,270.00,010321,,,A,V*31
$GNVTG,270.00,T,,M,38.873,N,71.993,K,A*24
$GNGGA,080232.00,3128.00004,N,12116.54795,E,1,10,0.89,-9.3,M,9.3,M,,*57
$GNGSA,A,3,16,23,25,01,20,11,13,17,04,07,,,1.55,0.89,1.27,1*00
$GNGSA,A,3,,,,,,,,,,,,,1.55,0.89,1.27,4*00
$GPGSV,3,1,10,01,31,090,52,04,37,310,52,07,35,188,52,11,21,171,52,0*6A
$GPGSV,3,2,10,13,65,294,53,16,06,080,51,17,14,245,51,20,55,074,53,0*63
$GPGSV,3,3,10,23,62,011,53,25,56,179,53,0*6A
$GBGSV,1,1,00,0*77
$GNGLL,3128.00004,N,12116.54795,E,080232.00,A,A*7F
$GNRMC,080233.00,A,3128.00004,N,12116.53532,E,38.878,270.00,010321,,,A,V*33
$GNVTG,270.00,T,,M,38.878,N,72.002,K,A*2D
$GNGGA,080233.00,3128.00004,N,12116.53532,E,1,10,0.89,-9.3,M,9.3,M,,*5E
$GNGSA,A,3,16,23,25,01,20,11,13,17,04,07,,,1.55,0.89,1.27,1*00
$GNGSA,A,3,,,,,,,,,,,,,1.55,0.89,1.27,4*00
$GPGSV,3,1,10,01,31,090,52,04,37,310,52,07,35,188,52,11,21,171,52,0*6A
$GPGSV,3,2,10,13,65,294,53,16,06,080,51,17,14,245,52,20,55,074,53,0*60
$GPGSV,3,3,10,23,62,011,53,25,56,179,53,0*6A
$GBGSV,1,1,00,0*77
$GNGLL,3128.00004,N,12116.53532,E,080233.00,A,A*76
$GNRMC,080234.00,A,3128.00004,N,12116.52270,E,38.876,270.00,010321,,,A,V*3A
$GNVTG,270.00,T,,M,38.876,N,71.999,K,A*2B
$GNGGA,080234.00,3128.00004,N,12116.52270,E,1,10,0.89,-9.3,M,9.3,M,,*59
$GNGSA,A,3,16,23,25,01,20,11,13,17,04,07,,,1.55,0.89,1.27,1*00
$GNGSA,A,3,,,,,,,,,,,,,1.55,0.89,1.27,4*00
$GPGSV,3,1,10,01,31,090,52,04,37,310,52,07,35,188,52,11,21,171,52,0*6A
$GPGSV,3,2,10,13,65,294,53,16,06,080,51,17,14,245,52,20,55,075,53,0*61
$GPGSV,3,3,10,23,62,011,53,25,56,179,53,0*6A
$GBGSV,1,1,00,0*77
$GNGLL,3128.00004,N,12116.52270,E,080234.00,A,A*71
$GNRMC,080235.00,A,3128.00004,N,12116.51007,E,38.875,270.00,010321,,,A,V*39
$GNVTG,270.00,T,,M,38.875,N,71.996,K,A*27
$GNGGA,080235.00,3128.00004,N,12116.51007,E,1,10,0.89,-9.3,M,9.3,M,,*59
$GNGSA,A,3,16,23,25,01,20,11,13,17,04,07,,,1.55,0.89,1.27,1*00
$GNGSA,A,3,,,,,,,,,,,,,1.55,0.89,1.27,4*00
$GPGSV,3,1,10,01,31,090,52,04,37,310,52,07,35,188,52,11,21,171,52,0*6A
$GPGSV,3,2,10,13,65,294,53,16,06,080,51,17,14,245,52,20,55,075,53,0*61
$GPGSV,3,3,10,23,62,012,53,25,56,179,53,0*69
$GBGSV,1,1,00,0*77
$GNGLL,3128.00004,N,12116.51007,E,080235.00,A,A*71
$GNRMC,080236.00,A,3128.00004,N,12116.49744,E,38.872,270.00,010321,,,A,V*34
$GNVTG,270.00,T,,M,38.872,N,71.991,K,A*27
$GNGGA,080236.00,3128.00004,N,12116.49744,E,1,10,0.89,-9.3,M,9.3,M,,*53
$GNGSA,A,3,16,23,25,01,20,11,13,17,04,07,,,1.55,0.89,1.27,1*00
$GNGSA,A,3,,,,,,,,,,,,,1.55,0.89,1.27,4*00
$GPGSV,3,1,10,01,31,090,52,04,37,310,52,07,35,188,52,11,21,171,52,0*6A
$GPGSV,3,2,10,13,65,294,53,16,06,080,51,17,14,245,51,20,55,075,53,0*62
$GPGSV,3,3,10,23,62,012,53,25,56,179,53,0*69
$GBGSV,1,1,00,0*77
$GNGLL,3128.00004,N,12116.49744,E,080236.00,A,A*7B
$GNRMC,080237.00,A,3128.00004,N,12116.48481,E,38.877,270.00,010321,,,A,V*3B
$GNVTG,270.00,T,,M,38.877,N,71.999,K,A*2A
$GNGGA,080237.00,3128.00004,N,12116.48481,E,1,10,0.89,-9.3,M,9.3,M,,*59
$GNGSA,A,3,16,23,25,01,20,11,13,17,04,07,,,1.55,0.89,1.27,1*00
$GNGSA,A,3,,,,,,,,,,,,,1.55,0.89,1.27,4*00
$GPGSV,3,1,10,01,31,090,52,04,37,310,52,07,35,188,52,11,21,171,52,0*6A
$GPGSV,3,2,10,13,65,294,53,16,06,080,51,17,14,245,51,20,55,075,53,0*62
$GPGSV,3,3,10,23,62,012,53,25,56,179,53,0*69
$GBGSV,1,1,00,0*77
$GNGLL,3128.00004,N,12116.48481,E,080237.00,A,A*71
$GNRMC,080238.00,A,3128.00004,N,12116.47219,E,38.878,270.01,010321,,,A,V*32
$GNVTG,270.01,T,,M,38.878,N,72.003,K,A*2D
$GNGGA,080238.00,3128.00004,N,12116.47219,E,1,10,0.89,-9.3,M,9.3,M,,*5E
$GNGSA,A,3,16,23,25,01,20,11,13,17,04,07,,,1.55,0.89,1.27,1*00
$GNGSA,A,3,,,,,,,,,,,,,1.55,0.89,1.27,4*00
$GPGSV,3,1,10,01,31,090,52,04,37,310,52,07,35,188,52,11,21,171,52,0*6A
$GPGSV,3,2,10,13,65,294,53,16,06,080,51,17,14,245,51,20,55,075,53,0*62
$GPGSV,3,3,10,23,62,012,53,25,56,179,53,0*69
$GBGSV,1,1,00,0*77
$GNGLL,3128.00004,N,12116.47219,E,080238.00,A,A*76
$GNRMC,080239.00,A,3128.00004,N,12116.45956,E,38.873,270.00,010321,,,A,V*3B
$GNVTG,270.00,T,,M,38.873,N,71.994,K,A*23
$GNGGA,080239.00,3128.00004,N,12116.45956,E,1,10,0.89,-9.3,M,9.3,M,,*5D
$GNGSA,A,3,16,23,25,01,20,11,13,17,04,07,,,1.55,0.89,1.27,1*00
$GNGSA,A,3,,,,,,,,,,,,,1.55,0.89,1.27,4*00
$GPGSV,3,1,10,01,31,090,52,04,37,310,52,07,35,188,52,11,21,171,52,0*6A
$GPGSV,3,2,10,13,65,294,53,16,06,080,51,17,14,245,51,20,55,075,53,0*62
$GPGSV,3,3,10,23,62,012,53,25,56,179,53,0*69
$GBGSV,1,1,00,0*77
$GNGLL,3128.00004,N,12116.45956,E,080239.00,A,A*75
$GNRMC,080240.00,A,3128.00003,N,12116.44693,E,38.871,270.00,010321,,,A,V*37
$GNVTG,270.00,T,,M,38.871,N,71.990,K,A*25
$GNGGA,080240.00,3128.00003,N,12116.44693,E,1,10,0.89,-9.3,M,9.3,M,,*53
$GNGSA,A,3,16,23,25,01,20,11,13,17,04,07,,,1.55,0.89,1.27,1*00
$GNGSA,A,3,,,,,,,,,,,,,1.55,0.89,1.27,4*00
$GPGSV,3,1,10,01,31,090,52,04,37,310,52,07,35,188,52,11,21,171,52,0*6A
$GPGSV,3,2,10,13,65,294,53,16,06,080,51,17,14,245,51,20,55,075,53,0*62
$GPGSV,3,3,10,23,62,012,53,25,56,179,53,0*69
$GBGSV,1,1,00,0*77
$GNGLL,3128.00003,N,12116.44693,E,080240.00,A,A*7B
$GNRMC,080241.00,A,3128.00003,N,12116.43430,E,38.871,270.00,010321,,,A,V*3A
$GNVTG,270.00,T,,M,38.871,N,71.989,K,A*2D
$GNGGA,080241.00,3128.00003,N,12116.43430,E,1,10,0.89,-9.3,M,9.3,M,,*5E
$GNGSA,A,3,16,23,25,01,20,11,13,17,04,07,,,1.55,0.89,1.27,1*00
$GNGSA,A,3,,,,,,,,,,,,,1.55,0.89,1.27,4*00
$GPGSV,3,1,10,01,31,090,52,04,37,310,52,07,35,188,52,11,21,171,52,0*6A
$GPGSV,3,2,10,13,65,294,53,16,06,080,51,17,14,245,51,20,55,075,53,0*62
$GPGSV,3,3,10,23,62,012,53,25,56,179,53,0*69
$GBGSV,1,1,00,0*77
$GNGLL,3128.00003,N,12116.43430,E,080241.00,A,A*76
$GNRMC,080242.00,A,3128.00003,N,12116.42168,E,38.877,270.01,010321,,,A,V*37
$GNVTG,270.01,T,,M,38.877,N,72.001,K,A*20
$GNGGA,080242.00,3128.00003,N,12116.42168,E,1,10,0.89,-9.3,M,9.3,M,,*54
$GNGSA,A,3,16,23,25,01,20,11,13,17,04,07,,,1.55,0.89,1.27,1*00
$GNGSA,A,3,,,,,,,,,,,,,1.55,0.89,1.27,4*00
$GPGSV,3,1,10,01,31,090,52,04,37,310,52,07,35,188,52,11,21,171,52,0*6A
$GPGSV,3,2,10,13,65,294,53,16,06,080,51,17,14,245,51,20,55,075,53,0*62
$GPGSV,3,3,10,23,62,012,53,25,56,179,53,0*69
$GBGSV,1,1,00,0*77
$GNGLL,3128.00003,N,12116.42168,E,080242.00,A,A*7C
$GNRMC,080243.00,A,3128.00003,N,12116.40905,E,38.872,270.00,010321,,,A,V*33
$GNVTG,270.00,T,,M,38.872,N,71.991,K,A*27
$GNGGA,080243.00,3128.00003,N,12116.40905,E,1,10,0.89,-9.3,M,9.3,M,,*54
$GNGSA,A,3,16,23,25,01,20,11,13,17,04,07,,,1.55,0.89,1.27,1*00
$GNGSA,A,3,,,,,,,,,,,,,1.55,0.89,1.27,4*00
$GPGSV,3,1,10,01,31,090,52,04,37,310,52,07,35,188,52,11,21,171,52,0*6A
$GPGSV,3,2,10,13,65,294,53,16,06,080,51,17,14,245,51,20,55,075,53,0*62
$GPGSV,3,3,10,23,62,012,53,25,56,179,53,0*69
$GBGSV,1,1,00,0*77
$GNGLL,3128.00003,N,12116.40905,E,080243.00,A,A*7C
$GNRMC,080244.00,A,3128.00003,N,12116.39643,E,38.875,270.00,010321,,,A,V*30
$GNVTG,270.00,T,,M,38.875,N,71.996,K,A*27
$GNGGA,080244.00,3128.00003,N,12116.39643,E,1,10,0.89,-9.3,M,9.3,M,,*50
$GNGSA,A,3,16,23,25,01,20,11,13,17,04,07,,,1.55,0.89,1.27,1*00
$GNGSA,A,3,,,,,,,,,,,,,1.55,0.89,1.27,4*00
$GPGSV,3,1,10,01,31,090,52,04,37,310,52,07,35,188,52,11,21,171,52,0*6A
$GPGSV,3,2,10,13,65,294,53,16,06,080,51,17,14,245,51,20,55,075,53,0*62
$GPGSV,3,3,10,23,62,012,53,25,56,179,53,0*69
$GBGSV,1,1,00,0*77
$GNGLL,3128.00003,N,12116.39643,E,080244.00,A,A*78
$GNRMC,080245.00,A,3128.00003,N,12116.38380,E,38.876,270.00,010321,,,A,V*39
$GNVTG,270.00,T,,M,38.876,N,71.999,K,A*2B
$GNGGA,080245.00,3128.00003,N,12116.38380,E,1,10,0.89,-9.3,M,9.3,M,,*5A
$GNGSA,A,3,16,23,25,01,20,11,13,17,04,07,,,1.55,0.89,1.27,1*00
$GNGSA,A,3,,,,,,,,,,,,,1.55,0.89,1.27,4*00
$GPGSV,3,1,10,01,31,090,52,04,37,310,52,07,35,188,52,11,21,171,52,0*6A
$GPGSV,3,2,10,13,65,294,53,16,06,080,51,17,14,245,51,20,55,075,53,0*62
$GPGSV,3,3,10,23,62,012,53,25,56,179,53,0*69
$GBGSV,1,1,00,0*77
$GNGLL,3128.00003,N,12116.38380,E,080245.00,A,A*72
$GNRMC,080246.00,A,3128.00003,N,12116.37117,E,38.873,269.99,010321,,,A,V*34
$GNVTG,269.99,T,,M,38.873,N,71.992,K,A*2D
$GNGGA,080246.00,3128.00003,N,12116.37117,E,1,10,0.89,-9.3,M,9.3,M,,*5A
$GNGSA,A,3,16,23,25,01,20,11,13,17,04,07,,,1.55,0.89,1.27,1*00
$GNGSA,A,3,,,,,,,,,,,,,1.55,0.89,1.27,4*00
$GPGSV,3,1,10,01,31,090,52,04,37,310,52,07,35,188,52,11,21,171,52,0*6A
$GPGSV,3,2,10,13,65,294,53,16,06,080,51,17,14,245,51,20,55,075,53,0*62
$GPGSV,3,3,10,23,62,012,53,25,56,179,53,0*69
$GBGSV,1,1,00,0*77
$GNGLL,3128.00003,N,12116.37117,E,080246.00,A,A*72
$GNRMC,080247.00,A,3128.00003,N,12116.35855,E,38.873,270.00,010321,,,A,V*30
$GNVTG,270.00,T,,M,38.873,N,71.993,K,A*24
$GNGGA,080247.00,3128.00003,N,12116.35855,E,1,10,0.89,-9.3,M,9.3,M,,*56
$GNGSA,A,3,16,23,25,01,20,11,13,17,04,07,,,1.55,0.89,1.27,1*00
$GNGSA,A,3,,,,,,,,,,,,,1.55,0.89,1.27,4*00
$GPGSV,3,1,10,01,31,090,52,04,37,310,52,07,35,188,52,11,21,171,52,0*6A
$GPGSV,3,2,10,13,65,294,53,16,06,080,51,17,14,245,51,20,55,075,53,0*62
$GPGSV,3,3,10,23,62,012,53,25,56,179,53,0*69
$GBGSV,1,1,00,0*77
$GNGLL,3128.00003,N,12116.35855,E,080247.00,A,A*7E
$GNRMC,080248.00,A,3128.00003,N,12116.34592,E,38.875,270.00,010321,,,A,V*3E
$GNVTG,270.00,T,,M,38.875,N,71.996,K,A*27
$GNGGA,080248.00,3128.00003,N,12116.34592,E,1,10,0.89,-9.3,M,9.3,M,,*5E
$GNGSA,A,3,16,23,25,01,20,11,13,17,04,07,,,1.55,0.89,1.27,1*00
$GNGSA,A,3,,,,,,,,,,,,,1.55,0.89,1.27,4*00
$GPGSV,3,1,10,01,31,090,52,04,37,310,52,07,35,188,52,11,21,171,52,0*6A
$GPGSV,3,2,10,13,65,294,53,16,06,080,51,17,14,245,51,20,55,075,53,0*62
$GPGSV,3,3,10,23,62,012,53,25,56,179,53,0*69
$GBGSV,1,1,00,0*77
$GNGLL,3128.00003,N,12116.34592,E,080248.00,A,A*76
$GNRMC,080249.00,A,3128.00003,N,12116.33329,E,38.876,270.00,010321,,,A,V*3D
$GNVTG,270.00,T,,M,38.876,N,71.999,K,A*2B
$GNGGA,080249.00,3128.00003,N,12116.33329,E,1,10,0.89,-9.3,M,9.3,M,,*5E
$GNGSA,A,3,16,23,25,01,20,11,13,17,04,07,,,1.55,0.89,1.27,1*00
$GNGSA,A,3,,,,,,,,,,,,,1.55,0.89,1.27,4*00
$GPGSV,3,1,10,01,31,090,52,04,37,310,52,07,36,188,52,11,21,171,52,0*69
$GPGSV,3,2,10,13,65,294,53,16,06,080,51,17,14,245,51,20,55,075,53,0*62
$GPGSV,3,3,10,23,62,012,53,25,56,179,53,0*69
$GBGSV,1,1,00,0*77
$GNGLL,3128.00003,N,12116.33329,E,080249.00,A,A*76
$GNRMC,080250.00,A,3128.00003,N,12116.32067,E,38.869,269.99,010321,,,A,V*3B
$GNVTG,269.99,T,,M,38.869,N,71.985,K,A*20
$GNGGA,080250.00,3128.00003,N,12116.32067,E,1,10,0.89,-9.3,M,9.3,M,,*5E
$GNGSA,A,3,16,23,25,01,20,11,13,17,04,07,,,1.55,0.89,1.27,1*00
$GNGSA,A,3,,,,,,,,,,,,,1.55,0.89,1.27,4*00
$GPGSV,3,1,10,01,31,090,52,04,37,310,52,07,36,188,52,11,21,171,52,0*69
$GPGSV,3,2,10,13,65,294,53,16,06,080,51,17,14,245,51,20,55,075,53,0*62
$GPGSV,3,3,10,23,62,012,53,25,56,179,53,0*69
$GBGSV,1,1,00,0*77
$GNGLL,3128.00003,N,12116.32067,E,080250.00,A,A*76
$GNRMC,080251.00,A,3128.00002,N,12116.30804,E,38.880,270.00,010321,,,A,V*3B
$GNVTG,270.00,T,,M,38.880,N,72.005,K,A*2D
$GNGGA,080251.00,3128.00002,N,12116.30804,E,1,10,0.89,-9.3,M,9.3,M,,*51
$GNGSA,A,3,16,23,25,01,20,11,13,17,04,07,,,1.55,0.89,1.27,1*00
$GNGSA,A,3,,,,,,,,,,,,,1.55,0.89,1.27,4*00
$GPGSV,3,1,10,01,31,090,52,04,37,310,52,07,36,188,52,11,21,171,52,0*69
$GPGSV,3,2,10,13,65,295,53,16,06,080,51,17,14,245,51,20,55,075,53,0*63
$GPGSV,3,3,10,23,62,012,53,25,56,179,53,0*69
$GBGSV,1,1,00,0*77
$GNGLL,3128.00002,N,12116.30804,E,080251.00,A,A*79
$GNRMC,080252.00,A,3128.00002,N,12116.29541,E,38.876,270.01,010321,,,A,V*34
$GNVTG,270.01,T,,M,38.876,N,71.999,K,A*2A
$GNGGA,080252.00,3128.00002,N,12116.29541,E,1,10,0.89,-9.3,M,9.3,M,,*56
$GNGSA,A,3,16,23,25,01,20,11,13,17,04,07,,,1.55,0.89,1.27,1*00
$GNGSA,A,3,,,,,,,,,,,,,1.55,0.89,1.27,4*00
$GPGSV,3,1,10,01,31,090,52,04,37,310,52,07,36,188,52,11,21,171,52,0*69
$GPGSV,3,2,10,13,65,295,53,16,07,080,51,17,14,245,51,20,55,075,53,0*62
$GPGSV,3,3,10,23,62,012,53,25,56,179,53,0*69
$GBGSV,1,1,00,0*77
$GNGLL,3128.00002,N,12116.29541,E,080252.00,A,A*7E
$GNRMC,080253.00,A,3128.00003,N,12116.28279,E,38.875,270.01,010321,,,A,V*3A
$GNVTG,270.01,T,,M,38.875,N,71.997,K,A*27
$GNGGA,080253.00,3128.00003,N,12116.28279,E,1,10,0.89,-9.3,M,9.3,M,,*5B
$GNGSA,A,3,16,23,25,01,20,11,13,17,04,07,,,1.55,0.89,1.27,1*00
$GNGSA,A,3,,,,,,,,,,,,,1.55,0.89,1.27,4*00
$GPGSV,3,1,10,01,31,090,52,04,37,310,52,07,36,188,52,11,21,171,52,0*69
$GPGSV,3,2,10,13,65,295,53,16,07,080,51,17,14,245,51,20,55,075,53,0*62
$GPGSV,3,3,10,23,62,012,53,25,56,179,53,0*69
$GBGSV,1,1,00,0*77
$GNGLL,3128.00003,N,12116.28279,E,080253.00,A,A*73
$GNRMC,080254.00,A,3128.00003,N,12116.27016,E,38.871,270.00,010321,,,A,V*3C
$GNVTG,270.00,T,,M,38.871,N,71.990,K,A*25
$GNGGA,080254.00,3128.00003,N,12116.27016,E,1,10,0.89,-9.3,M,9.3,M,,*58
$GNGSA,A,3,16,23,25,01,20,11,13,17,04,07,,,1.55,0.89,1.27,1*00
$GNGSA,A,3,,,,,,,,,,,,,1.55,0.89,1.27,4*00
$GPGSV,3,1,10,01,31,090,52,04,37,310,52,07,36,188,52,11,21,171,52,0*69
$GPGSV,3,2,10,13,65,295,53,16,07,080,51,17,14,245,51,20,55,075,53,0*62
$GPGSV,3,3,10,23,62,012,53,25,56,179,53,0*69
$GBGSV,1,1,00,0*77
$GNGLL,3128.00003,N,12116.27016,E,080254.00,A,A*70
$GNRMC,080255.00,A,3128.00003,N,12116.25754,E,38.876,270.01,010321,,,A,V*38
$GNVTG,270.01,T,,M,38.876,N,71.998,K,A*2B
$GNGGA,080255.00,3128.00003,N,12116.25754,E,1,10,0.89,-9.3,M,9.3,M,,*5A
$GNGSA,A,3,16,23,25,01,20,11,13,17,04,07,,,1.55,0.89,1.27,1*00
$GNGSA,A,3,,,,,,,,,,,,,1.55,0.89,1.27,4*00
$GPGSV,3,1,10,01,31,090,52,04,37,310,52,07,36,188,52,11,21,171,52,0*69
$GPGSV,3,2,10,13,65,295,53,16,07,080,51,17,14,245,51,20,55,075,53,0*62
$GPGSV,3,3,10,23,62,012,53,25,56,179,53,0*69
$GBGSV,1,1,00,0*77
$GNGLL,3128.00003,N,12116.25754,E,080255.00,A,A*72
$GNRMC,080256.00,A,3128.00003,N,12116.24491,E,38.872,269.99,010321,,,A,V*3D
$GNVTG,269.99,T,,M,38.872,N,71.991,K,A*2F
$GNGGA,080256.00,3128.00003,N,12116.24491,E,1,10,0.89,-9.3,M,9.3,M,,*52
$GNGSA,A,3,16,23,25,01,20,11,13,17,04,07,,,1.54,0.89,1.27,1*01
$GNGSA,A,3,,,,,,,,,,,,,1.54,0.89,1.27,4*01
$GPGSV,3,1,10,01,31,090,52,04,37,310,52,07,36,188,52,11,21,171,51,0*6A
$GPGSV,3,2,10,13,65,295,53,16,07,080,51,17,14,245,51,20,55,075,53,0*62
$GPGSV,3,3,10,23,62,012,53,25,56,179,53,0*69
$GBGSV,1,1,00,0*77
$GNGLL,3128.00003,N,12116.24491,E,080256.00,A,A*7A
$GNRMC,080257.00,A,3128.00003,N,12116.23228,E,38.877,270.01,010321,,,A,V*33
$GNVTG,270.01,T,,M,38.877,N,72.000,K,A*21
$GNGGA,080257.00,3128.00003,N,12116.23228,E,1,10,0.89,-9.3,M,9.3,M,,*50
$GNGSA,A,3,16,23,25,01,20,11,13,17,04,07,,,1.54,0.89,1.27,1*01
$GNGSA,A,3,,,,,,,,,,,,,1.54,0.89,1.27,4*01
$GPGSV,3,1,10,01,31,090,52,04,37,310,52,07,36,188,52,11,21,171,52,0*69
$GPGSV,3,2,10,13,65,295,53,16,07,080,51,17,14,245,51,20,55,075,52,0*63
$GPGSV,3,3,10,23,62,012,53,25,56,179,53,0*69
$GBGSV,1,1,00,0*77
$GNGLL,3128.00003,N,12116.23228,E,080257.00,A,A*78
$GNRMC,080258.00,A,3128.00003,N,12116.21966,E,38.876,270.01,010321,,,A,V*3E
$GNVTG,270.01,T,,M,38.876,N,71.999,K,A*2A
$GNGGA,080258.00,3128.00003,N,12116.21966,E,1,10,0.89,-9.3,M,9.3,M,,*5C
$GNGSA,A,3,16,23,25,01,20,11,13,17,04,07,,,1.54,0.89,1.27,1*01
$GNGSA,A,3,,,,,,,,,,,,,1.54,0.89,1.27,4*01
$GPGSV,3,1,10,01,31,090,52,04,37,310,52,07,36,188,52,11,21,171,52,0*69
$GPGSV,3,2,10,13,65,295,53,16,07,080,51,17,14,245,51,20,55,075,53,0*62
$GPGSV,3,3,10,23,62,012,53,25,56,179,53,0*69
$GBGSV,1,1,00,0*77
$GNGLL,3128.00003,N,12116.21966,E,080258.00,A,A*74
$GNRMC,080259.00,A,3128.00003,N,12116.20703,E,38.875,270.00,010321,,,A,V*31
$GNVTG,270.00,T,,M,38.875,N,71.996,K,A*27
$GNGGA,080259.00,3128.00003,N,12116.20703,E,1,10,0.89,-9.3,M,9.3,M,,*51
$GNGSA,A,3,16,23,25,01,20,11,13,17,04,07,,,1.54,0.89,1.27,1*01
$GNGSA,A,3,,,,,,,,,,,,,1.54,0.89,1.27,4*01
$GPGSV,3,1,10,01,31,090,52,04,37,310,52,07,36,188,52,11,21,171,52,0*69
$GPGSV,3,2,10,13,65,295,53,16,07,080,51,17,14,245,51,20,55,075,52,0*63
$GPGSV,3,3,10,23,62,012,53,25,56,179,53,0*69
$GBGSV,1,1,00,0*77
$GNGLL,3128.00003,N,12116.20703,E,080259.00,A,A*79
$GNRMC,080300.00,A,3128.00003,N,12116.19441,E,38.876,269.99,010321,,,A,V*38
$GNVTG,269.99,T,,M,38.876,N,71.998,K,A*22
$GNGGA,080300.00,3128.00003,N,12116.19441,E,1,10,0.89,-9.3,M,9.3,M,,*53
$GNGSA,A,3,16,23,25,01,20,11,13,17,04,07,,,1.54,0.89,1.27,1*01
$GNGSA,A,3,,,,,,,,,,,,,1.54,0.89,1.27,4*01
$GPGSV,3,1,10,01,31,090,52,04,37,310,52,07,36,188,52,11,21,171,51,0*6A
$GPGSV,3,2,10,13,65,295,53,16,07,080,51,17,14,245,51,20,55,075,52,0*63
$GPGSV,3,3,10,23,62,012,53,25,56,179,53,0*69
$GBGSV,1,1,00,0*77
$GNGLL,3128.00003,N,12116.19441,E,080300.00,A,A*7B
$GNRMC,080301.00,A,3128.00003,N,12116.18178,E,38.874,270.00,010321,,,A,V*3D
$GNVTG,270.00,T,,M,38.874,N,71.995,K,A*25
$GNGGA,080301.00,3128.00003,N,12116.18178,E,1,10,0.89,-9.3,M,9.3,M,,*5C
$GNGSA,A,3,16,23,25,01,20,11,13,17,04,07,,,1.54,0.89,1.27,1*01
$GNGSA,A,3,,,,,,,,,,,,,1.54,0.89,1.27,4*01
$GPGSV,3,1,10,01,31,090,52,04,37,310,52,07,36,188,52,11,21,171,52,0*69
$GPGSV,3,2,10,13,65,295,53,16,07,080,51,17,14,245,51,20,55,075,53,0*62
$GPGSV,3,3,10,23,62,012,53,25,56,179,53,0*69
$GBGSV,1,1,00,0*77
$GNGLL,3128.00003,N,12116.18178,E,080301.00,A,A*74
$GNRMC,080302.00,A,3128.00002,N,12116.16915,E,38.875,270.00,010321,,,A,V*33
$GNVTG,270.00,T,,M,38.875,N,71.997,K,A*26
$GNGGA,080302.00,3128.00002,N,12116.16915,E,1,10,0.89,-9.3,M,9.3,M,,*53
$GNGSA,A,3,16,23,25,01,20,11,13,17,04,07,,,1.54,0.89,1.27,1*01
$GNGSA,A,3,,,,,,,,,,,,,1.54,0.89,1.27,4*01
$GPGSV,3,1,10,01,31,090,52,04,37,310,52,07,36,188,52,11,21,171,52,0*69
$GPGSV,3,2,10,13,65,295,53,16,07,080,51,17,14,245,51,20,55,075,52,0*63
$GPGSV,3,3,10,23,62,012,53,25,56,179,53,0*69
$GBGSV,1,1,00,0*77
$GNGLL,3128.00002,N,12116.16915,E,080302.00,A,A*7B
$GNRMC,080303.00,A,3128.00002,N,12116.15652,E,38.877,270.01,010321,,,A,V*3E
$GNVTG,270.01,T,,M,38.877,N,72.000,K,A*21
$GNGGA,080303.00,3128.00002,N,12116.15652,E,1,10,0.89,-9.3,M,9.3,M,,*5D
$GNGSA,A,3,16,23,25,01,20,11,13,17,04,07,,,1.54,0.89,1.27,1*01
$GNGSA,A,3,,,,,,,,,,,,,1.54,0.89,1.27,4*01
$GPGSV,3,1,10,01,31,090,52,04,37,310,52,07,36,188,52,11,21,171,52,0*69
$GPGSV,3,2,10,13,65,295,53,16,07,080,51,17,14,245,51,20,55,075,52,0*63
$GPGSV,3,3,10,23,62,012,53,25,56,179,53,0*69
$GBGSV,1,1,00,0*77
$GNGLL,3128.00002,N,12116.15652,E,080303.00,A,A*75
$GNRMC,080304.00,A,3128.00002,N,12116.14390,E,38.873,270.01,010321,,,A,V*37
$GNVTG,270.01,T,,M,38.873,N,71.993,K,A*25
$GNGGA,080304.00,3128.00002,N,12116.14390,E,1,10,0.89,-9.3,M,9.3,M,,*50
$GNGSA,A,3,16,23,25,01,20,11,13,17,04,07,,,1.54,0.89,1.27,1*01
$GNGSA,A,3,,,,,,,,,,,,,1.54,0.89,1.27,4*01
$GPGSV,3,1,10,01,31,090,52,04,37,310,52,07,36,188,52,11,21,171,52,0*69
$GPGSV,3,2,10,13,65,295,53,16,07,080,51,17,14,245,51,20,55,075,52,0*63
$GPGSV,3,3,10,23,62,012,53,25,56,179,53,0*69
$GBGSV,1,1,00,0*77
$GNGLL,3128.00002,N,12116.14390,E,080304.00,A,A*78
$GNRMC,080305.00,A,3128.00002,N,12116.13127,E,38.874,270.00,010321,,,A,V*39
$GNVTG,270.00,T,,M,38.874,N,71.995,K,A*25
$GNGGA,080305.00,3128.00002,N,12116.13127,E,1,10,0.89,-9.3,M,9.3,M,,*58
$GNGSA,A,3,16,23,25,01,20,11,13,17,04,07,,,1.54,0.89,1.27,1*01
$GNGSA,A,3,,,,,,,,,,,,,1.54,0.89,1.27,4*01
$GPGSV,3,1,10,01,31,090,52,04,37,310,52,07,36,188,52,11,21,171,52,0*69
$GPGSV,3,2,10,13,65,295,53,16,07,080,51,17,14,245,51,20,55,075,52,0*63
$GPGSV,3,3,10,23,62,012,53,25,56,179,52,0*68
$GBGSV,1,1,00,0*77
$GNGLL,3128.00002,N,12116.13127,E,080305.00,A,A*70
$GNRMC,080306.00,A,3128.00002,N,12116.11864,E,38.872,269.99,010321,,,A,V*38
$GNVTG,269.99,T,,M,38.872,N,71.990,K,A*2E
$GNGGA,080306.00,3128.00002,N,12116.11864,E,1,10,0.89,-9.3,M,9.3,M,,*57
$GNGSA,A,3,16,23,25,01,20,11,13,17,04,07,,,1.54,0.89,1.27,1*01
$GNGSA,A,3,,,,,,,,,,,,,1.54,0.89,1.27,4*01
$GPGSV,3,1,10,01,31,090,52,04,37,310,52,07,36,188,52,11,21,171,52,0*69
$GPGSV,3,2,10,13,65,295,53,16,07,080,51,17,14,245,51,20,55,075,52,0*63
$GPGSV,3,3,10,23,62,012,53,25,56,179,52,0*68
$GBGSV,1,1,00,0*77
$GNGLL,3128.00002,N,12116.11864,E,080306.00,A,A*7F
$GNRMC,080307.00,A,3128.00002,N,12116.10602,E,38.873,270.00,010321,,,A,V*3F
$GNVTG,270.00,T,,M,38.873,N,71.993,K,A*24
$GNGGA,080307.00,3128.00002,N,12116.10602,E,1,10,0.89,-9.3,M,9.3,M,,*59
$GNGSA,A,3,16,23,25,01,20,11,13,17,04,07,,,1.54,0.89,1.27,1*01
$GNGSA,A,3,,,,,,,,,,,,,1.54,0.89,1.27,4*01
$GPGSV,3,1,10,01,31,090,52,04,37,310,52,07,36,188,52,11,21,171,52,0*69
$GPGSV,3,2,10,13,65,295,53,16,07,080,51,17,14,245,51,20,55,075,52,0*63
$GPGSV,3,3,10,23,62,012,53,25,56,179,52,0*68
$GBGSV,1,1,00,0*77
$GNGLL,3128.00002,N,12116.10602,E,080307.00,A,A*71
$GNRMC,080308.00,A,3128.00002,N,12116.09339,E,38.879,270.00,010321,,,A,V*3F
$GNVTG,270.00,T,,M,38.879,N,72.005,K,A*2B
$GNGGA,080308.00,3128.00002,N,12116.09339,E,1,10,0.89,-9.3,M,9.3,M,,*53
$GNGSA,A,3,16,23,25,01,20,11,13,17,04,07,,,1.54,0.89,1.27,1*01
$GNGSA,A,3,,,,,,,,,,,,,1.54,0.89,1.27,4*01
$GPGSV,3,1,10,01,31,090,52,04,37,310,52,07,36,188,52,11,21,171,52,0*69
$GPGSV,3,2,10,13,65,295,53,16,07,080,51,17,14,245,51,20,55,075,52,0*63
$GPGSV,3,3,10,23,62,012,53,25,56,179,52,0*68
$GBGSV,1,1,00,0*77
$GNGLL,3128.00002,N,12116.09339,E,080308.00,A,A*7B
$GNRMC,080309.00,A,3128.00002,N,12116.08076,E,38.873,270.00,010321,,,A,V*3D
$GNVTG,270.00,T,,M,38.873,N,71.993,K,A*24
$GNGGA,080309.00,3128.00002,N,12116.08076,E,1,10,0.89,-9.3,M,9.3,M,,*5B
$GNGSA,A,3,16,23,25,01,20,11,13,17,04,07,,,1.54,0.89,1.27,1*01
$GNGSA,A,3,,,,,,,,,,,,,1.54,0.89,1.27,4*01
$GPGSV,3,1,10,01,31,090,52,04,37,310,52,07,36,188,52,11,21,171,52,0*69
$GPGSV,3,2,10,13,65,295,53,16,07,080,51,17,14,245,51,20,55,075,52,0*63
$GPGSV,3,3,10,23,62,012,53,25,56,179,52,0*68
$GBGSV,1,1,00,0*77
$GNGLL,3128.00002,N,12116.08076,E,080309.00,A,A*73
$GNRMC,080310.00,A,3128.00002,N,12116.06814,E,38.870,269.99,010321,,,A,V*3C
$GNVTG,269.99,T,,M,38.870,N,71.988,K,A*25
$GNGGA,080310.00,3128.00002,N,12116.06814,E,1,10,0.89,-9.2,M,9.3,M,,*50
$GNGSA,A,3,16,23,25,01,20,11,13,17,04,07,,,1.54,0.89,1.27,1*01
$GNGSA,A,3,,,,,,,,,,,,,1.54,0.89,1.27,4*01
$GPGSV,3,1,10,01,31,090,52,04,37,310,52,07,36,188,52,11,21,171,51,0*6A
$GPGSV,3,2,10,13,65,295,53,16,07,080,51,17,14,245,51,20,55,075,52,0*63
$GPGSV,3,3,10,23,62,012,53,25,56,179,52,0*68
$GBGSV,1,1,00,0*77
$GNGLL,3128.00002,N,12116.06814,E,080310.00,A,A*79
$GNRMC,080311.00,A,3128.00002,N,12116.05551,E,38.872,270.00,010321,,,A,V*38
$GNVTG,270.00,T,,M,38.872,N,71.991,K,A*27
$GNGGA,080311.00,3128.00002,N,12116.05551,E,1,10,0.89,-9.2,M,9.3,M,,*5E
$GNGSA,A,3,16,23,25,01,20,11,13,17,04,07,,,1.54,0.89,1.27,1*01
$GNGSA,A,3,,,,,,,,,,,,,1.54,0.89,1.27,4*01
$GPGSV,3,1,10,01,31,090,52,04,37,310,52,07,36,188,52,11,21,171,51,0*6A
$GPGSV,3,2,10,13,65,295,53,16,07,080,51,17,14,245,51,20,55,075,52,0*63
$GPGSV,3,3,10,23,62,012,53,25,56,179,52,0*68
$GBGSV,1,1,00,0*77
$GNGLL,3128.00002,N,12116.05551,E,080311.00,A,A*77
$GNRMC,080312.00,A,3128.00002,N,12116.04289,E,38.873,270.00,010321,,,A,V*39
$GNVTG,270.00,T,,M,38.873,N,71.992,K,A*25
$GNGGA,080312.00,3128.00002,N,12116.04289,E,1,10,0.89,-9.2,M,9.3,M,,*5E
$GNGSA,A,3,16,23,25,01,20,11,13,17,04,07,,,1.54,0.89,1.27,1*01
$GNGSA,A,3,,,,,,,,,,,,,1.54,0.89,1.27,4*01
$GPGSV,3,1,10,01,31,090,52,04,37,310,52,07,36,188,52,11,21,171,51,0*6A
$GPGSV,3,2,10,13,65,295,53,16,07,080,51,17,14,245,51,20,55,075,52,0*63
$GPGSV,3,3,10,23,62,012,53,25,56,179,52,0*68
$GBGSV,1,1,00,0*77
$GNGLL,3128.00002,N,12116.04289,E,080312.00,A,A*77
$GNRMC,080313.00,A,3128.00002,N,12116.03026,E,38.878,270.00,010321,,,A,V*33
$GNVTG,270.00,T,,M,38.878,N,72.003,K,A*2C
$GNGGA,080313.00,3128.00002,N,12116.03026,E,1,10,0.89,-9.2,M,9.3,M,,*5F
$GNGSA,A,3,16,23,25,01,20,11,13,17,04,07,,,1.54,0.89,1.26,1*00
$GNGSA,A,3,,,,,,,,,,,,,1.54,0.89,1.26,4*00
$GPGSV,3,1,10,01,31,090,52,04,37,310,52,07,36,188,52,11,21,170,51,0*6B
$GPGSV,3,2,10,13,65,295,53,16,07,080,51,17,14,245,51,20,55,075,52,0*63
$GPGSV,3,3,10,23,62,012,53,25,56,179,52,0*68
$GBGSV,1,1,00,0*77
$GNGLL,3128.00002,N,12116.03026,E,080313.00,A,A*76
$GNRMC,080314.00,A,3128.00002,N,12116.01763,E,38.876,270.00,010321,,,A,V*3E
$GNVTG,270.00,T,,M,38.876,N,71.999,K,A*2B
$GNGGA,080314.00,3128.00002,N,12116.01763,E,1,10,0.89,-9.2,M,9.3,M,,*5C
$GNGSA,A,3,16,23,25,01,20,11,13,17,04,07,,,1.54,0.89,1.26,1*00
$GNGSA,A,3,,,,,,,,,,,,,1.54,0.89,1.26,4*00
$GPGSV,3,1,10,01,31,090,52,04,37,310,52,07,36,188,52,11,21,170,51,0*6B
$GPGSV,3,2,10,13,65,295,53,16,07,080,51,17,14,245,51,20,55,075,52,0*63
$GPGSV,3,3,10,23,62,012,53,25,56,179,52,0*68
$GBGSV,1,1,00,0*77
$GNGLL,3128.00002,N,12116.01763,E,080314.00,A,A*75
$GNRMC,080315.00,A,3128.00002,N,12116.00500,E,38.877,270.00,010321,,,A,V*38
$GNVTG,270.00,T,,M,38.877,N,72.001,K,A*21
$GNGGA,080315.00,3128.00002,N,12116.00500,E,1,10,0.89,-9.2,M,9.3,M,,*5B
$GNGSA,A,3,16,23,25,01,20,11,13,17,04,07,,,1.54,0.89,1.26,1*00
$GNGSA,A,3,,,,,,,,,,,,,1.54,0.89,1.26,4*00
$GPGSV,3,1,10,01,31,090,52,04,37,310,52,07,36,188,52,11,21,170,52,0*68
$GPGSV,3,2,10,13,65,295,53,16,07,080,51,17,14,245,51,20,55,075,52,0*63
$GPGSV,3,3,10,23,62,012,53,25,56,179,52,0*68
$GBGSV,1,1,00,0*77
$GNGLL,3128.00002,N,12116.00500,E,080315.00,A,A*72
$GNRMC,080316.00,A,3128.00002,N,12115.99237,E,38.874,269.99,010321,,,A,V*30
$GNVTG,269.99,T,,M,38.874,N,71.995,K,A*2D
$GNGGA,080316.00,3128.00002,N,12115.99237,E,1,10,0.89,-9.2,M,9.3,M,,*58
$GNGSA,A,3,16,23,25,01,20,11,13,17,04,07,,,1.54,0.89,1.26,1*00
$GNGSA,A,3,,,,,,,,,,,,,1.54,0.89,1.26,4*00
$GPGSV,3,1,10,01,31,090,52,04,37,310,52,07,36,188,52,11,21,170,51,0*6B
$GPGSV,3,2,10,13,65,295,53,16,07,080,51,17,14,245,51,20,55,075,52,0*63
$GPGSV,3,3,10,23,62,012,53,25,56,179,52,0*68
$GBGSV,1,1,00,0*77
$GNGLL,3128.00002,N,12115.99237,E,080316.00,A,A*71
$GNRMC,080317.00,A,3128.00001,N,12115.97975,E,38.873,269.99,010321,,,A,V*36
$GNVTG,269.99,T,,M,38.873,N,71.994,K,A*2B
$GNGGA,080317.00,3128.00001,N,12115.97975,E,1,10,0.89,-9.2,M,9.3,M,,*59
$GNGSA,A,3,16,23,25,01,20,11,13,17,04,07,,,1.54,0.89,1.26,1*00
$GNGSA,A,3,,,,,,,,,,,,,1.54,0.89,1.26,4*00
$GPGSV,3,1,10,01,31,090,52,04,37,310,52,07,36,188,52,11,21,170,51,0*6B
$GPGSV,3,2,10,13,65,295,53,16,07,080,51,17,14,245,51,20,55,075,52,0*63
$GPGSV,3,3,10,23,62,012,53,25,56,179,52,0*68
$GBGSV,1,1,00,0*77
$GNGLL,3128.00001,N,12115.97975,E,080317.00,A,A*70
$GNRMC,080318.00,A,3128.00001,N,12115.96712,E,38.874,270.00,010321,,,A,V*38
$GNVTG,270.00,T,,M,38.874,N,71.994,K,A*24
$GNGGA,080318.00,3128.00001,N,12115.96712,E,1,10,0.89,-9.2,M,9.3,M,,*58
$GNGSA,A,3,16,23,25,01,20,11,13,17,04,07,,,1.54,0.89,1.26,1*00
$GNGSA,A,3,,,,,,,,,,,,,1.54,0.89,1.26,4*00
$GPGSV,3,1,10,01,31,090,52,04,37,310,52,07,36,188,52,11,21,170,51,0*6B
$GPGSV,3,2,10,13,65,295,53,16,07,080,51,17,14,245,51,20,55,075,52,0*63
$GPGSV,3,3,10,23,62,012,53,25,56,179,52,0*68
$GBGSV,1,1,00,0*77
$GNGLL,3128.00001,N,12115.96712,E,080318.00,A,A*71
$GNRMC,080319.00,A,3128.00001,N,12115.95450,E,38.873,270.00,010321,,,A,V*38
$GNVTG,270.00,T,,M,38.873,N,71.994,K,A*23
$GNGGA,080319.00,3128.00001,N,12115.95450,E,1,10,0.89,-9.2,M,9.3,M,,*5F
$GNGSA,A,3,16,23,25,01,20,11,13,17,04,07,,,1.54,0.89,1.26,1*00
$GNGSA,A,3,,,,,,,,,,,,,1.54,0.89,1.26,4*00
$GPGSV,3,1,10,01,31,090,52,04,37,310,52,07,36,188,52,11,21,170,51,0*6B
$GPGSV,3,2,10,13,65,295,53,16,07,080,51,17,14,245,51,20,55,075,52,0*63
$GPGSV,3,3,10,23,62,012,53,25,56,179,52,0*68
$GBGSV,1,1,00,0*77
$GNGLL,3128.00001,N,12115.95450,E,080319.00,A,A*76
$GNRMC,080320.00,A,3128.00001,N,12115.94187,E,38.876,270.00,010321,,,A,V*39
$GNVTG,270.00,T,,M,38.876,N,71.998,K,A*2A
$GNGGA,080320.00,3128.00001,N,12115.94187,E,1,10,0.89,-9.2,M,9.3,M,,*5B
$GNGSA,A,3,16,23,25,01,20,11,13,17,04,07,,,1.54,0.89,1.26,1*00
$GNGSA,A,3,,,,,,,,,,,,,1.54,0.89,1.26,4*00
$GPGSV,3,1,10,01,31,090,52,04,37,310,52,07,36,188,52,11,21,170,51,0*6B
$GPGSV,3,2,10,13,65,295,53,16,07,080,51,17,14,245,51,20,55,075,52,0*63
$GPGSV,3,3,10,23,62,012,53,25,56,179,53,0*69
$GBGSV,1,1,00,0*77
$GNGLL,3128.00001,N,12115.94187,E,080320.00,A,A*72
$GNRMC,080321.00,A,3128.00001,N,12115.92925,E,38.879,270.00,010321,,,A,V*31
$GNVTG,270.00,T,,M,38.879,N,72.005,K,A*2B
$GNGGA,080321.00,3128.00001,N,12115.92925,E,1,10,0.89,-9.2,M,9.3,M,,*5C
$GNGSA,A,3,16,23,25,01,20,11,13,17,04,07,,,1.54,0.89,1.26,1*00
$GNGSA,A,3,,,,,,,,,,,,,1.54,0.89,1.26,4*00
$GPGSV,3,1,10,01,31,090,52,04,37,310,52,07,36,188,52,11,21,170,51,0*6B
$GPGSV,3,2,10,13,65,295,53,16,07,080,51,17,14,245,51,20,55,075,52,0*63
$GPGSV,3,3,10,23,62,012,53,25,56,179,52,0*68
$GBGSV,1,1,00,0*77
$GNGLL,3128.00001,N,12115.92925,E,080321.00,A,A*75
$GNRMC,080322.00,A,3128.00001,N,12115.91662,E,38.876,270.00,010321,,,A,V*32
$GNVTG,270.00,T,,M,38.876,N,71.998,K,A*2A
$GNGGA,080322.00,3128.00001,N,12115.91662,E,1,10,0.89,-9.2,M,9.3,M,,*50
$GNGSA,A,3,16,23,25,01,20,11,13,17,04,07,,,1.54,0.89,1.26,1*00
$GNGSA,A,3,,,,,,,,,,,,,1.54,0.89,1.26,4*00
$GPGSV,3,1,10,01,31,090,52,04,37,310,52,07,36,188,52,11,21,170,51,0*6B
$GPGSV,3,2,10,13,65,295,53,16,07,080,51,17,14,245,51,20,55,075,52,0*63
$GPGSV,3,3,10,23,62,012,53,25,56,179,52,0*68
$GBGSV,1,1,00,0*77
$GNGLL,3128.00001,N,12115.91662,E,080322.00,A,A*79
$GNRMC,080323.00,A,3128.00001,N,12115.90399,E,38.880,270.01,010321,,,A,V*3B
$GNVTG,270.01,T,,M,38.880,N,72.006,K,A*2F
$GNGGA,080323.00,3128.00001,N,12115.90399,E,1,10,0.89,-9.2,M,9.3,M,,*51
$GNGSA,A,3,16,23,25,01,20,11,13,17,04,07,,,1.54,0.89,1.26,1*00
$GNGSA,A,3,,,,,,,,,,,,,1.54,0.89,1.26,4*00
$GPGSV,3,1,10,01,31,090,52,04,37,310,52,07,36,188,52,11,21,170,51,0*6B
$GPGSV,3,2,10,13,65,295,53,16,07,080,51,17,14,245,51,20,55,075,52,0*63
$GPGSV,3,3,10,23,62,012,53,25,56,179,52,0*68
$GBGSV,1,1,00,0*77
$GNGLL,3128.00001,N,12115.90399,E,080323.00,A,A*78
$GNRMC,080324.00,A,3128.00001,N,12115.89136,E,38.876,270.01,010321,,,A,V*3A
$GNVTG,270.01,T,,M,38.876,N,71.999,K,A*2A
$GNGGA,080324.00,3128.00001,N,12115.89136,E,1,10,0.89,-9.2,M,9.3,M,,*59
$GNGSA,A,3,16,23,25,01,20,11,13,17,04,07,,,1.54,0.89,1.26,1*00
$GNGSA,A,3,,,,,,,,,,,,,1.54,0.89,1.26,4*00
$GPGSV,3,1,10,01,31,090,52,04,37,310,52,07,36,188,52,11,21,170,51,0*6B
$GPGSV,3,2,10,13,65,295,53,16,07,080,51,17,14,245,51,20,55,075,52,0*63
$GPGSV,3,3,10,23,62,012,53,25,56,179,52,0*68
$GBGSV,1,1,00,0*77
$GNGLL,3128.00001,N,12115.89136,E,080324.00,A,A*70
$GNRMC,080325.00,A,3128.00001,N,12115.87874,E,38.877,270.01,010321,,,A,V*3B
$GNVTG,270.01,T,,M,38.877,N,72.000,K,A*21
$GNGGA,080325.00,3128.00001,N,12115.87874,E,1,10,0.89,-9.2,M,9.3,M,,*59
$GNGSA,A,3,16,23,25,01,20,11,13,17,04,07,,,1.54,0.89,1.26,1*00
$GNGSA,A,3,,,,,,,,,,,,,1.54,0.89,1.26,4*00
$GPGSV,3,1,10,01,31,090,52,04,37,310,52,07,36,188,52,11,21,170,51,0*6B
$GPGSV,3,2,10,13,65,295,53,16,07,080,51,17,14,245,51,20,55,075,52,0*63
$GPGSV,3,3,10,23,62,012,53,25,56,179,52,0*68
$GBGSV,1,1,00,0*77
$GNGLL,3128.00001,N,12115.87874,E,080325.00,A,A*70
$GNRMC,080326.00,A,3128.00001,N,12115.86611,E,38.874,269.99,010321,,,A,V*3E
$GNVTG,269.99,T,,M,38.874,N,71.994,K,A*2C
$GNGGA,080326.00,3128.00001,N,12115.86611,E,1,10,0.89,-9.2,M,9.3,M,,*56
$GNGSA,A,3,16,23,25,01,20,11,13,17,04,07,,,1.54,0.89,1.26,1*00
$GNGSA,A,3,,,,,,,,,,,,,1.54,0.89,1.26,4*00
$GPGSV,3,1,10,01,31,090,52,04,37,310,52,07,36,188,52,11,21,170,51,0*6B
$GPGSV,3,2,10,13,65,295,53,16,07,080,51,17,14,245,51,20,55,075,52,0*63
$GPGSV,3,3,10,23,62,012,53,25,56,179,52,0*68
$GBGSV,1,1,00,0*77
$GNGLL,3128.00001,N,12115.86611,E,080326.00,A,A*7F
$GNRMC,080327.00,A,3128.00001,N,12115.85348,E,38.877,270.01,010321,,,A,V*3F
$GNVTG,270.01,T,,M,38.877,N,72.000,K,A*21
$GNGGA,080327.00,3128.00001,N,12115.85348,E,1,10,0.89,-9.2,M,9.3,M,,*5D
$GNGSA,A,3,16,23,25,01,20,11,13,17,04,07,,,1.54,0.89,1.26,1*00
$GNGSA,A,3,,,,,,,,,,,,,1.54,0.89,1.26,4*00
$GPGSV,3,1,10,01,31,090,52,04,37,310,52,07,36,188,52,11,21,170,51,0*6B
$GPGSV,3,2,10,13,65,295,53,16,07,080,51,17,14,245,51,20,55,075,52,0*63
$GPGSV,3,3,10,23,62,012,53,25,56,179,52,0*68
$GBGSV,1,1,00,0*77
$GNGLL,3128.00001,N,12115.85348,E,080327.00,A,A*74
$GNRMC,080328.00,A,3128.00001,N,12115.84086,E,38.880,270.02,010321,,,A,V*3B
$GNVTG,270.02,T,,M,38.880,N,72.006,K,A*2C
$GNGGA,080328.00,3128.00001,N,12115.84086,E,1,10,0.89,-9.2,M,9.3,M,,*52
$GNGSA,A,3,16,23,25,01,20,11,13,17,04,07,,,1.54,0.89,1.26,1*00
$GNGSA,A,3,,,,,,,,,,,,,1.54,0.89,1.26,4*00
$GPGSV,3,1,10,01,31,090,52,04,37,310,52,07,36,188,52,11,21,170,51,0*6B
$GPGSV,3,2,10,13,65,295,53,16,07,080,51,17,14,245,51,20,55,075,52,0*63
$GPGSV,3,3,10,23,62,012,53,25,56,179,52,0*68
$GBGSV,1,1,00,0*77
$GNGLL,3128.00001,N,12115.84086,E,080328.00,A,A*7B
$GNRMC,080329.00,A,3128.00001,N,12115.82823,E,38.876,270.01,010321,,,A,V*31
$GNVTG,270.01,T,,M,38.876,N,71.999,K,A*2A
$GNGGA,080329.00,3128.00001,N,12115.82823,E,1,10,0.89,-9.2,M,9.3,M,,*52
$GNGSA,A,3,16,23,25,01,20,11,13,17,04,07,,,1.54,0.89,1.26,1*00
$GNGSA,A,3,,,,,,,,,,,,,1.54,0.89,1.26,4*00
$GPGSV,3,1,10,01,31,090,52,04,37,310,52,07,36,188,52,11,21,170,51,0*6B
$GPGSV,3,2,10,13,65,295,53,16,07,080,51,17,14,245,51,20,55,075,52,0*63
$GPGSV,3,3,10,23,62,012,53,25,56,179,52,0*68
$GBGSV,1,1,00,0*77
$GNGLL,3128.00001,N,12115.82823,E,080329.00,A,A*7B
$GNRMC,080330.00,A,3128.00002,N,12115.81560,E,38.872,270.00,010321,,,A,V*36
$GNVTG,270.00,T,,M,38.872,N,71.990,K,A*26
$GNGGA,080330.00,3128.00002,N,12115.81560,E,1,10,0.89,-9.2,M,9.3,M,,*50
$GNGSA,A,3,16,23,25,01,20,11,13,17,04,07,,,1.54,0.89,1.26,1*00
$GNGSA,A,3,,,,,,,,,,,,,1.54,0.89,1.26,4*00
$GPGSV,3,1,10,01,31,090,52,04,37,310,52,07,36,188,52,11,21,170,51,0*6B
$GPGSV,3,2,10,13,65,295,53,16,07,080,51,17,14,245,51,20,55,075,52,0*63
$GPGSV,3,3,10,23,62,012,53,25,56,179,52,0*68
$GBGSV,1,1,00,0*77
$GNGLL,3128.00002,N,12115.81560,E,080330.00,A,A*79
$GNRMC,080331.00,A,3128.00001,N,12115.80298,E,38.875,270.00,010321,,,A,V*32
$GNVTG,270.00,T,,M,38.875,N,71.997,K,A*26
$GNGGA,080331.00,3128.00001,N,12115.80298,E,1,10,0.89,-9.2,M,9.3,M,,*53
$GNGSA,A,3,16,23,25,01,20,11,13,17,04,07,,,1.54,0.89,1.26,1*00
$GNGSA,A,3,,,,,,,,,,,,,1.54,0.89,1.26,4*00
$GPGSV,3,1,10,01,31,090,52,04,37,310,52,07,36,188,52,11,21,170,51,0*6B
$GPGSV,3,2,10,13,65,295,53,16,07,080,51,17,14,245,51,20,55,075,52,0*63
$GPGSV,3,3,10,23,62,012,53,25,56,179,52,0*68
$GBGSV,1,1,00,0*77
$GNGLL,3128.00001,N,12115.80298,E,080331.00,A,A*7A
$GNRMC,080332.00,A,3128.00001,N,12115.79035,E,38.876,270.01,010321,,,A,V*30
$GNVTG,270.01,T,,M,38.876,N,71.999,K,A*2A
$GNGGA,080332.00,3128.00001,N,12115.79035,E,1,10,0.89,-9.2,M,9.3,M,,*53
$GNGSA,A,3,16,23,25,01,20,11,13,17,04,07,,,1.54,0.89,1.26,1*00
$GNGSA,A,3,,,,,,,,,,,,,1.54,0.89,1.26,4*00
$GPGSV,3,1,10,01,31,090,52,04,37,310,52,07,36,188,52,11,21,170,51,0*6B
$GPGSV,3,2,10,13,65,295,53,16,07,080,51,17,14,245,51,20,55,075,52,0*63
$GPGSV,3,3,10,23,62,012,53,25,56,179,52,0*68
$GBGSV,1,1,00,0*77
$GNGLL,3128.00001,N,12115.79035,E,080332.00,A,A*7A
$GNRMC,080333.00,A,3128.00001,N,12115.77772,E,38.873,270.00,010321,,,A,V*3F
$GNVTG,270.00,T,,M,38.873,N,71.994,K,A*23
$GNGGA,080333.00,3128.00001,N,12115.77772,E,1,10,0.89,-9.2,M,9.3,M,,*58
$GNGSA,A,3,16,23,25,01,20,11,13,17,04,07,,,1.54,0.89,1.26,1*00
$GNGSA,A,3,,,,,,,,,,,,,1.54,0.89,1.26,4*00
$GPGSV,3,1,10,01,31,090,52,04,37,310,52,07,36,188,52,11,21,170,51,0*6B
$GPGSV,3,2,10,13,65,295,53,16,07,080,51,17,14,245,51,20,55,075,52,0*63
$GPGSV,3,3,10,23,62,012,53,25,56,179,52,0*68
$GBGSV,1,1,00,0*77
$GNGLL,3128.00001,N,12115.77772,E,080333.00,A,A*71
$GNRMC,080334.00,A,3128.00001,N,12115.76510,E,38.874,270.00,010321,,,A,V*38
$GNVTG,270.00,T,,M,38.874,N,71.994,K,A*24
$GNGGA,080334.00,3128.00001,N,12115.76510,E,1,10,0.89,-9.2,M,9.3,M,,*58
$GNGSA,A,3,16,23,25,01,20,11,13,17,04,07,,,1.54,0.89,1.26,1*00
$GNGSA,A,3,,,,,,,,,,,,,1.54,0.89,1.26,4*00
$GPGSV,3,1,10,01,31,090,52,04,37,310,52,07,36,188,52,11,21,170,51,0*6B
$GPGSV,3,2,10,13,65,295,53,16,07,080,51,17,14,245,51,20,55,075,52,0*63
$GPGSV,3,3,10,23,62,012,53,25,56,179,52,0*68
$GBGSV,1,1,00,0*77
$GNGLL,3128.00001,N,12115.76510,E,080334.00,A,A*71
$GNRMC,080335.00,A,3128.00001,N,12115.75247,E,38.873,270.00,010321,,,A,V*38
$GNVTG,270.00,T,,M,38.873,N,71.994,K,A*23
$GNGGA,080335.00,3128.00001,N,12115.75247,E,1,10,0.89,-9.2,M,9.3,M,,*5F
$GNGSA,A,3,16,23,25,01,20,11,13,17,04,07,,,1.54,0.89,1.26,1*00
$GNGSA,A,3,,,,,,,,,,,,,1.54,0.89,1.26,4*00
$GPGSV,3,1,10,01,31,090,52,04,37,310,52,07,36,188,52,11,21,170,51,0*6B
$GPGSV,3,2,10,13,65,295,53,16,07,080,51,17,14,245,51,20,55,075,52,0*63
$GPGSV,3,3,10,23,62,012,53,25,56,179,52,0*68
$GBGSV,1,1,00,0*77
$GNGLL,3128.00001,N,12115.75247,E,080335.00,A,A*76
$GNRMC,080336.00,A,3128.00001,N,12115.73985,E,38.872,270.00,010321,,,A,V*39
$GNVTG,270.00,T,,M,38.872,N,71.991,K,A*27
$GNGGA,080336.00,3128.00001,N,12115.73985,E,1,10,0.89,-9.2,M,9.3,M,,*5F
$GNGSA,A,3,16,23,25,01,20,11,13,17,04,07,,,1.54,0.89,1.26,1*00
$GNGSA,A,3,,,,,,,,,,,,,1.54,0.89,1.26,4*00
$GPGSV,3,1,10,01,31,090,52,04,37,310,52,07,36,188,52,11,21,170,51,0*6B
$GPGSV,3,2,10,13,65,295,53,16,07,080,51,17,14,245,51,20,55,075,52,0*63
$GPGSV,3,3,10,23,62,012,53,25,56,179,52,0*68
$GBGSV,1,1,00,0*77
$GNGLL,3128.00001,N,12115.73985,E,080336.00,A,A*76
$GNRMC,080337.00,A,3128.00001,N,12115.72722,E,38.869,270.00,010321,,,A,V*30
$GNVTG,270.00,T,,M,38.869,N,71.985,K,A*28
$GNGGA,080337.00,3128.00001,N,12115.72722,E,1,10,0.89,-9.2,M,9.3,M,,*5C
$GNGSA,A,3,16,23,25,01,20,11,13,17,04,07,,,1.54,0.89,1.26,1*00
$GNGSA,A,3,,,,,,,,,,,,,1.54,0.89,1.26,4*00
$GPGSV,3,1,10,01,31,090,52,04,37,310,52,07,36,188,52,11,21,170,51,0*6B
$GPGSV,3,2,10,13,65,295,53,16,07,080,51,17,14,245,51,20,55,075,52,0*63
$GPGSV,3,3,10,23,62,012,53,25,56,179,52,0*68
$GBGSV,1,1,00,0*77
$GNGLL,3128.00001,N,12115.72722,E,080337.00,A,A*75
$GNRMC,080338.00,A,3128.00001,N,12115.71459,E,38.877,270.00,010321,,,A,V*3C
$GNVTG,270.00,T,,M,38.877,N,72.000,K,A*20
$GNGGA,080338.00,3128.00001,N,12115.71459,E,1,10,0.89,-9.2,M,9.3,M,,*5F
$GNGSA,A,3,16,23,25,01,20,11,13,17,04,07,,,1.54,0.89,1.26,1*00
$GNGSA,A,3,,,,,,,,,,,,,1.54,0.89,1.26,4*00
$GPGSV,3,1,10,01,31,090,52,04,37,310,52,07,36,188,52,11,21,170,51,0*6B
$GPGSV,3,2,10,13,65,296,53,16,07,080,51,17,14,245,51,20,55,075,52,0*60
$GPGSV,3,3,10,23,62,012,53,25,56,179,52,0*68
$GBGSV,1,1,00,0*77
$GNGLL,3128.00001,N,12115.71459,E,080338.00,A,A*76
$GNRMC,080339.00,A,3128.00001,N,12115.70197,E,38.875,270.01,010321,,,A,V*38
$GNVTG,270.01,T,,M,38.875,N,71.997,K,A*27
$GNGGA,080339.00,3128.00001,N,12115.70197,E,1,10,0.89,-9.2,M,9.3,M,,*58
$GNGSA,A,3,16,23,25,01,20,11,13,17,04,07,,,1.54,0.89,1.26,1*00
$GNGSA,A,3,,,,,,,,,,,,,1.54,0.89,1.26,4*00
$GPGSV,3,1,10,01,31,090,52,04,37,310,52,07,36,188,52,11,21,170,51,0*6B
$GPGSV,3,2,10,13,65,296,53,16,07,080,51,17,14,245,51,20,55,075,52,0*60
$GPGSV,3,3,10,23,62,012,53,25,56,179,52,0*68
$GBGSV,1,1,00,0*77
$GNGLL,3128.00001,N,12115.70197,E,080339.00,A,A*71
$GNRMC,080340.00,A,3128.00001,N,12115.68934,E,38.872,269.99,010321,,,A,V*30
$GNVTG,269.99,T,,M,38.872,N,71.990,K,A*2E
$GNGGA,080340.00,3128.00001,N,12115.68934,E,1,10,0.89,-9.2,M,9.3,M,,*5E
$GNGSA,A,3,16,23,25,01,20,11,13,17,04,07,,,1.54,0.89,1.26,1*00
$GNGSA,A,3,,,,,,,,,,,,,1.54,0.89,1.26,4*00
$GPGSV,3,1,10,01,31,090,52,04,37,310,52,07,36,188,52,11,21,170,51,0*6B
$GPGSV,3,2,10,13,65,296,53,16,07,080,51,17,14,245,51,20,55,075,52,0*60
$GPGSV,3,3,10,23,62,012,53,25,56,179,52,0*68
$GBGSV,1,1,00,0*77
$GNGLL,3128.00001,N,12115.68934,E,080340.00,A,A*77
$GNRMC,080341.00,A,3128.00001,N,12115.67671,E,38.874,270.00,010321,,,A,V*3E
$GNVTG,270.00,T,,M,38.874,N,71.994,K,A*24
$GNGGA,080341.00,3128.00001,N,12115.67671,E,1,10,0.89,-9.2,M,9.3,M,,*5E
$GNGSA,A,3,16,23,25,01,20,11,13,17,04,07,,,1.54,0.89,1.26,1*00
$GNGSA,A,3,,,,,,,,,,,,,1.54,0.89,1.26,4*00
$GPGSV,3,1,10,01,31,090,52,04,37,310,52,07,36,188,52,11,21,170,51,0*6B
$GPGSV,3,2,10,13,65,296,53,16,07,080,51,17,14,245,51,20,55,075,52,0*60
$GPGSV,3,3,10,23,62,012,53,25,56,179,52,0*68
$GBGSV,1,1,00,0*77
$GNGLL,3128.00001,N,12115.67671,E,080341.00,A,A*77
$GNRMC,080342.00,A,3128.00001,N,12115.66409,E,38.876,270.00,010321,,,A,V*33
$GNVTG,270.00,T,,M,38.876,N,71.998,K,A*2A
$GNGGA,080342.00,3128.00001,N,12115.66409,E,1,10,0.89,-9.2,M,9.3,M,,*51
$GNGSA,A,3,16,23,25,01,20,11,13,17,04,07,,,1.54,0.89,1.26,1*00
$GNGSA,A,3,,,,,,,,,,,,,1.54,0.89,1.26,4*00
$GPGSV,3,1,10,01,31,090,52,04,37,310,52,07,36,188,52,11,21,170,52,0*68
$GPGSV,3,2,10,13,65,296,53,16,07,080,51,17,14,245,51,20,55,075,52,0*60
$GPGSV,3,3,10,23,62,012,53,25,56,179,53,0*69
$GBGSV,1,1,00,0*77
$GNGLL,3128.00001,N,12115.66409,E,080342.00,A,A*78
$GNRMC,080343.00,A,3128.00001,N,12115.65146,E,38.874,270.01,010321,,,A,V*3C
$GNVTG,270.01,T,,M,38.874,N,71.994,K,A*25
$GNGGA,080343.00,3128.00001,N,12115.65146,E,1,10,0.89,-9.2,M,9.3,M,,*5D
$GNGSA,A,3,16,23,25,01,20,11,13,17,04,07,,,1.54,0.89,1.26,1*00
$GNGSA,A,3,,,,,,,,,,,,,1.54,0.89,1.26,4*00
$GPGSV,3,1,10,01,31,090,52,04,37,310,52,07,36,188,52,11,21,170,52,0*68
$GPGSV,3,2,10,13,65,296,53,16,07,080,51,17,14,245,51,20,55,075,52,0*60
$GPGSV,3,3,10,23,62,013,53,25,56,179,53,0*68
$GBGSV,1,1,00,0*77
$GNGLL,3128.00001,N,12115.65146,E,080343.00,A,A*74
$GNRMC,080344.00,A,3128.00001,N,12115.63884,E,38.875,270.00,010321,,,A,V*3A
$GNVTG,270.00,T,,M,38.875,N,71.996,K,A*27
$GNGGA,080344.00,3128.00001,N,12115.63884,E,1,10,0.89,-9.2,M,9.3,M,,*5B
$GNGSA,A,3,16,23,25,01,20,11,13,17,04,07,,,1.54,0.89,1.26,1*00
$GNGSA,A,3,,,,,,,,,,,,,1.54,0.89,1.26,4*00
$GPGSV,3,1,10,01,31,090,52,04,37,310,52,07,36,188,52,11,21,170,51,0*6B
$GPGSV,3,2,10,13,65,296,53,16,07,080,51,17,14,245,51,20,55,075,52,0*60
$GPGSV,3,3,10,23,62,013,53,25,56,179,52,0*69
$GBGSV,1,1,00,0*77
$GNGLL,3128.00001,N,12115.63884,E,080344.00,A,A*72
$GNRMC,080345.00,A,3128.00001,N,12115.62621,E,38.876,270.01,010321,,,A,V*39
$GNVTG,270.01,T,,M,38.876,N,71.998,K,A*2B
$GNGGA,080345.00,3128.00001,N,12115.62621,E,1,10,0.89,-9.2,M,9.3,M,,*5A
$GNGSA,A,3,16,23,25,01,20,11,13,17,04,07,,,1.54,0.89,1.26,1*00
$GNGSA,A,3,,,,,,,,,,,,,1.54,0.89,1.26,4*00
$GPGSV,3,1,10,01,31,090,52,04,37,310,52,07,36,188,52,11,21,170,51,0*6B
$GPGSV,3,2,10,13,65,296,53,16,07,080,51,17,14,245,51,20,55,075,52,0*60
$GPGSV,3,3,10,23,62,013,53,25,56,179,52,0*69
$GBGSV,1,1,00,0*77
$GNGLL,3128.00001,N,12115.62621,E,080345.00,A,A*73
$GNRMC,080346.00,A,3128.00001,N,12115.61358,E,38.872,269.99,010321,,,A,V*3F
$GNVTG,269.99,T,,M,38.872,N,71.990,K,A*2E
$GNGGA,080346.00,3128.00001,N,12115.61358,E,1,10,0.89,-9.2,M,9.3,M,,*51
$GNGSA,A,3,16,23,25,01,20,11,13,17,04,07,,,1.54,0.89,1.26,1*00
$GNGSA,A,3,,,,,,,,,,,,,1.54,0.89,1.26,4*00
$GPGSV,3,1,10,01,31,090,52,04,37,310,52,07,36,188,52,11,21,170,51,0*6B
$GPGSV,3,2,10,13,65,296,53,16,07,080,51,17,14,245,51,20,55,075,52,0*60
$GPGSV,3,3,10,23,62,013,53,25,56,179,52,0*69
$GBGSV,1,1,00,0*77
$GNGLL,3128.00001,N,12115.61358,E,080346.00,A,A*78
$GNRMC,080347.00,A,3128.00001,N,12115.60096,E,38.874,270.01,010321,,,A,V*31
$GNVTG,270.01,T,,M,38.874,N,71.994,K,A*25
$GNGGA,080347.00,3128.00001,N,12115.60096,E,1,10,0.89,-9.2,M,9.3,M,,*50
$GNGSA,A,3,16,23,25,01,20,11,13,17,04,07,,,1.54,0.89,1.26,1*00
$GNGSA,A,3,,,,,,,,,,,,,1.54,0.89,1.26,4*00
$GPGSV,3,1,10,01,31,090,52,04,37,310,52,07,36,188,52,11,21,170,51,0*6B
$GPGSV,3,2,10,13,65,296,53,16,07,080,51,17,14,245,51,20,55,075,52,0*60
$GPGSV,3,3,10,23,62,013,53,25,56,179,52,0*69
$GBGSV,1,1,00,0*77
$GNGLL,3128.00001,N,12115.60096,E,080347.00,A,A*79
$GNRMC,080348.00,A,3128.00002,N,12115.58833,E,38.877,270.01,010321,,,A,V*32
$GNVTG,270.01,T,,M,38.877,N,72.001,K,A*20
$GNGGA,080348.00,3128.00002,N,12115.58833,E,1,10,0.89,-9.2,M,9.3,M,,*50
$GNGSA,A,3,16,23,25,01,20,11,13,17,04,07,,,1.54,0.89,1.26,1*00
$GNGSA,A,3,,,,,,,,,,,,,1.54,0.89,1.26,4*00
$GPGSV,3,1,10,01,31,090,52,04,37,310,52,07,36,188,52,11,21,170,51,0*6B
$GPGSV,3,2,10,13,65,296,53,16,07,080,51,17,14,245,51,20,55,075,52,0*60
$GPGSV,3,3,10,23,62,013,53,25,56,179,52,0*69
$GBGSV,1,1,00,0*77
$GNGLL,3128.00002,N,12115.58833,E,080348.00,A,A*79
$GNRMC,080349.00,A,3128.00002,N,12115.57571,E,38.874,270.00,010321,,,A,V*35
$GNVTG,270.00,T,,M,38.874,N,71.994,K,A*24
$GNGGA,080349.00,3128.00002,N,12115.57571,E,1,10,0.89,-9.2,M,9.3,M,,*55
$GNGSA,A,3,16,23,25,01,20,11,13,17,04,07,,,1.54,0.89,1.26,1*00
$GNGSA,A,3,,,,,,,,,,,,,1.54,0.89,1.26,4*00
$GPGSV,3,1,10,01,31,090,52,04,37,310,52,07,36,188,52,11,21,170,51,0*6B
$GPGSV,3,2,10,13,65,296,53,16,07,080,51,17,14,245,51,20,55,075,52,0*60
$GPGSV,3,3,10,23,62,013,52,25,56,179,52,0*68
$GBGSV,1,1,00,0*77
$GNGLL,3128.00002,N,12115.57571,E,080349.00,A,A*7C
$GNRMC,080350.00,A,3128.00002,N,12115.56308,E,38.873,270.00,010321,,,A,V*33
$GNVTG,270.00,T,,M,38.873,N,71.993,K,A*24
$GNGGA,080350.00,3128.00002,N,12115.56308,E,1,10,0.89,-9.2,M,9.3,M,,*54
$GNGSA,A,3,16,23,25,01,20,11,13,17,04,07,,,1.54,0.89,1.26,1*00
$GNGSA,A,3,,,,,,,,,,,,,1.54,0.89,1.26,4*00
$GPGSV,3,1,10,01,31,090,52,04,37,310,52,07,36,188,52,11,21,170,51,0*6B
$GPGSV,3,2,10,13,65,296,53,16,07,080,51,17,14,245,51,20,55,075,52,0*60
$GPGSV,3,3,10,23,62,013,53,25,56,179,52,0*69
$GBGSV,1,1,00,0*77
$GNGLL,3128.00002,N,12115.56308,E,080350.00,A,A*7D
$GNRMC,080351.00,A,3128.00002,N,12115.55045,E,38.872,270.01,010321,,,A,V*3B
$GNVTG,270.01,T,,M,38.872,N,71.990,K,A*27
$GNGGA,080351.00,3128.00002,N,12115.55045,E,1,10,0.89,-9.2,M,9.3,M,,*5C
$GNGSA,A,3,16,23,25,01,20,11,13,17,04,07,,,1.54,0.89,1.26,1*00
$GNGSA,A,3,,,,,,,,,,,,,1.54,0.89,1.26,4*00
$GPGSV,3,1,10,01,31,090,52,04,37,310,52,07,36,188,52,11,21,170,51,0*6B
$GPGSV,3,2,10,13,65,296,53,16,07,080,51,17,14,245,51,20,55,075,52,0*60
$GPGSV,3,3,10,23,62,013,53,25,56,179,52,0*69
$GBGSV,1,1,00,0*77
$GNGLL,3128.00002,N,12115.55045,E,080351.00,A,A*75
$GNRMC,080352.00,A,3128.00002,N,12115.53783,E,38.871,270.00,010321,,,A,V*31
$GNVTG,270.00,T,,M,38.871,N,71.989,K,A*2D
$GNGGA,080352.00,3128.00002,N,12115.53783,E,1,10,0.89,-9.2,M,9.3,M,,*54
$GNGSA,A,3,16,23,25,01,20,11,13,17,04,07,,,1.54,0.89,1.26,1*00
$GNGSA,A,3,,,,,,,,,,,,,1.54,0.89,1.26,4*00
$GPGSV,3,1,10,01,31,090,52,04,37,310,52,07,36,188,52,11,21,170,51,0*6B
$GPGSV,3,2,10,13,65,296,53,16,07,080,51,17,14,245,51,20,55,075,52,0*60
$GPGSV,3,3,10,23,62,013,52,25,56,179,52,0*68
$GBGSV,1,1,00,0*77
$GNGLL,3128.00002,N,12115.53783,E,080352.00,A,A*7D
$GNRMC,080353.00,A,3128.00002,N,12115.52520,E,38.877,270.01,010321,,,A,V*3D
$GNVTG,270.01,T,,M,38.877,N,72.001,K,A*20
$GNGGA,080353.00,3128.00002,N,12115.52520,E,1,10,0.89,-9.2,M,9.3,M,,*5F
$GNGSA,A,3,16,23,25,01,20,11,13,17,04,07,,,1.54,0.89,1.26,1*00
$GNGSA,A,3,,,,,,,,,,,,,1.54,0.89,1.26,4*00
$GPGSV,3,1,10,01,31,090,52,04,37,310,52,07,36,188,52,11,21,170,51,0*6B
$GPGSV,3,2,10,13,65,296,53,16,07,080,51,17,14,245,51,20,55,075,52,0*60
$GPGSV,3,3,10,23,62,013,52,25,56,179,52,0*68
$GBGSV,1,1,00,0*77
$GNGLL,3128.00002,N,12115.52520,E,080353.00,A,A*76
$GNRMC,080354.00,A,3128.00002,N,12115.51257,E,38.874,270.00,010321,,,A,V*3C
$GNVTG,270.00,T,,M,38.874,N,71.995,K,A*25
$GNGGA,080354.00,3128.00002,N,12115.51257,E,1,10,0.89,-9.2,M,9.3,M,,*5C
$GNGSA,A,3,16,23,25,01,20,11,13,17,04,07,,,1.54,0.89,1.26,1*00
$GNGSA,A,3,,,,,,,,,,,,,1.54,0.89,1.26,4*00
$GPGSV,3,1,10,01,31,090,52,04,37,310,52,07,36,188,52,11,21,170,51,0*6B
$GPGSV,3,2,10,13,65,296,53,16,07,080,51,17,14,245,51,20,55,075,52,0*60
$GPGSV,3,3,10,23,62,013,52,25,56,179,52,0*68
$GBGSV,1,1,00,0*77
$GNGLL,3128.00002,N,12115.51257,E,080354.00,A,A*75
$GNRMC,080355.00,A,3128.00002,N,12115.49995,E,38.871,270.00,010321,,,A,V*34
$GNVTG,270.00,T,,M,38.871,N,71.989,K,A*2D
$GNGGA,080355.00,3128.00002,N,12115.49995,E,1,10,0.89,-9.2,M,9.3,M,,*51
$GNGSA,A,3,16,23,25,01,20,11,13,17,04,07,,,1.54,0.89,1.26,1*00
$GNGSA,A,3,,,,,,,,,,,,,1.54,0.89,1.26,4*00
$GPGSV,3,1,10,01,31,090,52,04,37,310,52,07,36,188,52,11,21,170,51,0*6B
$GPGSV,3,2,10,13,65,296,53,16,07,080,51,17,14,245,51,20,55,075,52,0*60
$GPGSV,3,3,10,23,62,013,52,25,56,179,52,0*68
$GBGSV,1,1,00,0*77
$GNGLL,3128.00002,N,12115.49995,E,080355.00,A,A*78
$GNRMC,080356.00,A,3128.00002,N,12115.48732,E,38.875,270.00,010321,,,A,V*31
$GNVTG,270.00,T,,M,38.875,N,71.996,K,A*27
$GNGGA,080356.00,3128.00002,N,12115.48732,E,1,10,0.89,-9.2,M,9.3,M,,*50
$GNGSA,A,3,16,23,25,01,20,11,13,17,04,07,,,1.54,0.89,1.26,1*00
$GNGSA,A,3,,,,,,,,,,,,,1.54,0.89,1.26,4*00
$GPGSV,3,1,10,01,31,090,52,04,37,310,52,07,36,188,52,11,21,170,51,0*6B
$GPGSV,3,2,10,13,65,296,53,16,07,080,51,17,14,245,51,20,55,075,52,0*60
$GPGSV,3,3,10,23,62,013,52,25,56,179,52,0*68
$GBGSV,1,1,00,0*77
$GNGLL,3128.00002,N,12115.48732,E,080356.00,A,A*79
$GNRMC,080357.00,A,3128.00002,N,12115.47469,E,38.879,270.01,010321,,,A,V*3F
$GNVTG,270.01,T,,M,38.879,N,72.003,K,A*2C
$GNGGA,080357.00,3128.00002,N,12115.47469,E,1,10,0.89,-9.1,M,9.3,M,,*50
$GNGSA,A,3,16,23,25,01,20,11,13,17,04,07,,,1.54,0.89,1.26,1*00
$GNGSA,A,3,,,,,,,,,,,,,1.54,0.89,1.26,4*00
$GPGSV,3,1,10,01,31,090,52,04,37,310,52,07,36,188,52,11,21,170,51,0*6B
$GPGSV,3,2,10,13,65,296,53,16,07,080,51,17,14,245,51,20,55,075,52,0*60
$GPGSV,3,3,10,23,62,013,53,25,56,179,52,0*69
$GBGSV,1,1,00,0*77
$GNGLL,3128.00002,N,12115.47469,E,080357.00,A,A*7A
$GNRMC,080358.00,A,3128.00001,N,12115.46207,E,38.873,270.00,010321,,,A,V*37
$GNVTG,270.00,T,,M,38.873,N,71.992,K,A*25
$GNGGA,080358.00,3128.00001,N,12115.46207,E,1,10,0.89,-9.1,M,9.3,M,,*53
$GNGSA,A,3,16,23,25,01,20,11,13,17,04,07,,,1.54,0.89,1.26,1*00
$GNGSA,A,3,,,,,,,,,,,,,1.54,0.89,1.26,4*00
$GPGSV,3,1,10,01,30,091,52,04,37,310,52,07,36,188,52,11,21,170,51,0*6B
$GPGSV,3,2,10,13,65,296,53,16,07,080,51,17,14,245,51,20,55,075,52,0*60
$GPGSV,3,3,10,23,62,013,53,25,56,179,52,0*69
$GBGSV,1,1,00,0*77
$GNGLL,3128.00001,N,12115.46207,E,080358.00,A,A*79
$GNRMC,080359.00,A,3128.00001,N,12115.44944,E,38.876,270.01,010321,,,A,V*3C
$GNVTG,270.01,T,,M,38.876,N,71.998,K,A*2B
$GNGGA,080359.00,3128.00001,N,12115.44944,E,1,10,0.89,-9.1,M,9.3,M,,*5C
$GNGSA,A,3,16,23,25,01,20,11,13,17,04,07,,,1.54,0.89,1.26,1*00
$GNGSA,A,3,,,,,,,,,,,,,1.54,0.89,1.26,4*00
$GPGSV,3,1,10,01,30,091,52,04,37,310,52,07,36,188,52,11,21,170,52,0*68
$GPGSV,3,2,10,13,65,296,53,16,07,080,51,17,14,245,51,20,55,075,52,0*60
$GPGSV,3,3,10,23,62,013,53,25,56,179,52,0*69
$GBGSV,1,1,00,0*77
$GNGLL,3128.00001,N,12115.44944,E,080359.00,A,A*76
$GNRMC,080400.00,A,3128.00001,N,12115.43681,E,38.872,270.00,010321,,,A,V*33
$GNVTG,270.00,T,,M,38.872,N,71.991,K,A*27
$GNGGA,080400.00,3128.00001,N,12115.43681,E,1,10,0.89,-9.1,M,9.2,M,,*57
$GNGSA,A,3,16,23,25,01,20,11,13,17,04,07,,,1.54,0.89,1.26,1*00
$GNGSA,A,3,,,,,,,,,,,,,1.54,0.89,1.26,4*00
$GPGSV,3,1,10,01,30,091,52,04,37,310,52,07,36,188,52,11,21,170,52,0*68
$GPGSV,3,2,10,13,65,296,53,16,07,080,51,17,14,245,51,20,55,075,52,0*60
$GPGSV,3,3,10,23,62,013,53,25,56,179,52,0*69
$GBGSV,1,1,00,0*77
$GNGLL,3128.00001,N,12115.43681,E,080400.00,A,A*7C
$GNRMC,080401.00,A,3128.00002,N,12115.42419,E,38.877,270.01,010321,,,A,V*37
$GNVTG,270.01,T,,M,38.877,N,72.000,K,A*21
$GNGGA,080401.00,3128.00002,N,12115.42419,E,1,10,0.89,-9.1,M,9.2,M,,*57
$GNGSA,A,3,16,23,25,01,20,11,13,17,04,07,,,1.54,0.89,1.26,1*00
$GNGSA,A,3,,,,,,,,,,,,,1.54,0.89,1.26,4*00
$GPGSV,3,1,10,01,30,091,52,04,37,310,52,07,36,188,52,11,20,170,51,0*6A
$GPGSV,3,2,10,13,65,296,53,16,07,080,51,17,14,245,51,20,55,075,52,0*60
$GPGSV,3,3,10,23,62,013,52,25,56,179,52,0*68
$GBGSV,1,1,00,0*77
$GNGLL,3128.00002,N,12115.42419,E,080401.00,A,A*7C
$GNRMC,080402.00,A,3128.00002,N,12115.41156,E,38.878,270.01,010321,,,A,V*36
$GNVTG,270.01,T,,M,38.878,N,72.002,K,A*2C
$GNGGA,080402.00,3128.00002,N,12115.41156,E,1,10,0.89,-9.1,M,9.2,M,,*59
$GNGSA,A,3,16,23,25,01,20,11,13,17,04,07,,,1.54,0.89,1.26,1*00
$GNGSA,A,3,,,,,,,,,,,,,1.54,0.89,1.26,4*00
$GPGSV,3,1,10,01,30,091,52,04,37,310,52,07,36,188,52,11,20,170,51,0*6A
$GPGSV,3,2,10,13,65,296,53,16,07,080,51,17,14,245,51,20,55,075,52,0*60
$GPGSV,3,3,10,23,62,013,52,25,56,179,52,0*68
$GBGSV,1,1,00,0*77
$GNGLL,3128.00002,N,12115.41156,E,080402.00,A,A*72
$GNRMC,080403.00,A,3128.00002,N,12115.39893,E,38.874,270.01,010321,,,A,V*34
$GNVTG,270.01,T,,M,38.874,N,71.994,K,A*25
$GNGGA,080403.00,3128.00002,N,12115.39893,E,1,10,0.89,-9.1,M,9.2,M,,*57
$GNGSA,A,3,16,23,25,01,20,11,13,17,04,07,,,1.54,0.89,1.26,1*00
$GNGSA,A,3,,,,,,,,,,,,,1.54,0.89,1.26,4*00
$GPGSV,3,1,10,01,30,091,52,04,37,310,52,07,36,188,52,11,20,170,51,0*6A
$GPGSV,3,2,10,13,65,296,53,16,07,079,51,17,14,245,51,20,55,075,52,0*66
$GPGSV,3,3,10,23,62,013,53,25,56,179,52,0*69
$GBGSV,1,1,00,0*77
$GNGLL,3128.00002,N,12115.39893,E,080403.00,A,A*7C
$GNRMC,080404.00,A,3128.00002,N,12115.38630,E,38.877,270.02,010321,,,A,V*35
$GNVTG,270.02,T,,M,38.877,N,72.000,K,A*22
$GNGGA,080404.00,3128.00002,N,12115.38630,E,1,10,0.89,-9.1,M,9.2,M,,*56
$GNGSA,A,3,16,23,25,01,20,11,13,17,04,07,,,1.54,0.89,1.26,1*00
$GNGSA,A,3,,,,,,,,,,,,,1.54,0.89,1.26,4*00
$GPGSV,3,1,10,01,30,091,52,04,37,310,52,07,36,188,52,11,20,170,51,0*6A
$GPGSV,3,2,10,13,65,296,53,16,07,079,51,17,14,245,51,20,55,075,52,0*66
$GPGSV,3,3,10,23,62,013,53,25,56,179,52,0*69
$GBGSV,1,1,00,0*77
$GNGLL,3128.00002,N,12115.38630,E,080404.00,A,A*7D
$GNRMC,080405.00,A,3128.00002,N,12115.37368,E,38.875,269.99,010321,,,A,V*3B
$GNVTG,269.99,T,,M,38.875,N,71.997,K,A*2E
$GNGGA,080405.00,3128.00002,N,12115.37368,E,1,10,0.89,-9.1,M,9.2,M,,*50
$GNGSA,A,3,16,23,25,01,20,11,13,17,04,07,,,1.54,0.89,1.26,1*00
$GNGSA,A,3,,,,,,,,,,,,,1.54,0.89,1.26,4*00
$GPGSV,3,1,10,01,30,091,52,04,37,310,52,07,36,188,52,11,20,170,51,0*6A
$GPGSV,3,2,10,13,65,296,53,16,07,079,51,17,14,245,51,20,55,075,52,0*66
$GPGSV,3,3,10,23,62,013,53,25,56,179,52,0*69
$GBGSV,1,1,00,0*77
$GNGLL,3128.00002,N,12115.37368,E,080405.00,A,A*7B
$GNRMC,080406.00,A,3128.00002,N,12115.36105,E,38.875,270.00,010321,,,A,V*38
$GNVTG,270.00,T,,M,38.875,N,71.996,K,A*27
$GNGGA,080406.00,3128.00002,N,12115.36105,E,1,10,0.89,-9.2,M,9.2,M,,*58
$GNGSA,A,3,16,23,25,01,20,11,13,17,04,07,,,1.54,0.89,1.26,1*00
$GNGSA,A,3,,,,,,,,,,,,,1.54,0.89,1.26,4*00
$GPGSV,3,1,10,01,30,091,52,04,37,310,52,07,36,188,52,11,20,170,51,0*6A
$GPGSV,3,2,10,13,65,296,53,16,07,079,51,17,14,245,51,20,55,075,52,0*66
$GPGSV,3,3,10,23,62,013,53,25,56,179,52,0*69
$GBGSV,1,1,00,0*77
$GNGLL,3128.00002,N,12115.36105,E,080406.00,A,A*70
$GNRMC,080407.00,A,3128.00002,N,12115.34842,E,38.876,270.00,010321,,,A,V*32
$GNVTG,270.00,T,,M,38.876,N,71.998,K,A*2A
$GNGGA,080407.00,3128.00002,N,12115.34842,E,1,10,0.89,-9.2,M,9.2,M,,*51
$GNGSA,A,3,16,23,25,01,20,11,13,17,04,07,,,1.54,0.89,1.26,1*00
$GNGSA,A,3,,,,,,,,,,,,,1.54,0.89,1.26,4*00
$GPGSV,3,1,10,01,30,091,52,04,37,310,52,07,36,188,52,11,20,170,51,0*6A
$GPGSV,3,2,10,13,65,296,53,16,07,079,51,17,14,245,51,20,55,076,52,0*65
$GPGSV,3,3,10,23,62,013,53,25,56,179,52,0*69
$GBGSV,1,1,00,0*77
$GNGLL,3128.00002,N,12115.34842,E,080407.00,A,A*79
$GNRMC,080408.00,A,3128.00002,N,12115.33580,E,38.878,270.01,010321,,,A,V*36
$GNVTG,270.01,T,,M,38.878,N,72.001,K,A*2F
$GNGGA,080408.00,3128.00002,N,12115.33580,E,1,10,0.89,-9.2,M,9.2,M,,*5A
$GNGSA,A,3,16,23,25,01,20,11,13,17,04,07,,,1.54,0.89,1.26,1*00
$GNGSA,A,3,,,,,,,,,,,,,1.54,0.89,1.26,4*00
$GPGSV,3,1,10,01,30,091,52,04,37,310,52,07,36,188,52,11,20,170,52,0*69
$GPGSV,3,2,10,13,65,296,53,16,07,079,51,17,14,245,51,20,55,076,52,0*65
$GPGSV,3,3,10,23,62,013,53,25,56,179,52,0*69
$GBGSV,1,1,00,0*77
$GNGLL,3128.00002,N,12115.33580,E,080408.00,A,A*72
$GNRMC,080409.00,A,3128.00002,N,12115.32317,E,38.872,270.00,010321,,,A,V*35
$GNVTG,270.00,T,,M,38.872,N,71.992,K,A*24
$GNGGA,080409.00,3128.00002,N,12115.32317,E,1,10,0.89,-9.1,M,9.2,M,,*51
$GNGSA,A,3,16,23,25,01,20,11,13,17,04,07,,,1.54,0.89,1.26,1*00
$GNGSA,A,3,,,,,,,,,,,,,1.54,0.89,1.26,4*00
$GPGSV,3,1,10,01,30,091,52,04,37,310,52,07,36,188,52,11,20,170,51,0*6A
$GPGSV,3,2,10,13,65,296,53,16,07,079,51,17,14,245,51,20,55,076,52,0*65
$GPGSV,3,3,10,23,62,013,53,25,56,179,52,0*69
$GBGSV,1,1,00,0*77
$GNGLL,3128.00002,N,12115.32317,E,080409.00,A,A*7A
$GNRMC,080410.00,A,3128.00002,N,12115.31055,E,38.874,270.01,010321,,,A,V*3C
$GNVTG,270.01,T,,M,38.874,N,71.995,K,A*24
$GNGGA,080410.00,3128.00002,N,12115.31055,E,1,10,0.89,-9.1,M,9.2,M,,*5F
$GNGSA,A,3,16,23,25,01,20,11,13,17,04,07,,,1.54,0.89,1.26,1*00
$GNGSA,A,3,,,,,,,,,,,,,1.54,0.89,1.26,4*00
$GPGSV,3,1,10,01,30,091,52,04,37,310,52,07,36,188,52,11,20,170,51,0*6A
$GPGSV,3,2,10,13,65,296,53,16,07,079,51,17,14,245,51,20,55,076,52,0*65
$GPGSV,3,3,10,23,62,013,53,25,56,179,52,0*69
$GBGSV,1,1,00,0*77
$GNGLL,3128.00002,N,12115.31055,E,080410.00,A,A*74
$GNRMC,080411.00,A,3128.00003,N,12115.29792,E,38.877,270.00,010321,,,A,V*3B
$GNVTG,270.00,T,,M,38.877,N,71.999,K,A*2A
$GNGGA,080411.00,3128.00003,N,12115.29792,E,1,10,0.89,-9.1,M,9.2,M,,*5A
$GNGSA,A,3,16,23,25,01,20,11,13,17,04,07,,,1.54,0.89,1.26,1*00
$GNGSA,A,3,,,,,,,,,,,,,1.54,0.89,1.26,4*00
$GPGSV,3,1,10,01,30,091,52,04,37,310,52,07,36,188,52,11,20,170,51,0*6A
$GPGSV,3,2,10,13,65,296,53,16,07,079,51,17,14,245,51,20,55,076,52,0*65
$GPGSV,3,3,10,23,62,013,53,25,57,179,52,0*68
$GBGSV,1,1,00,0*77
$GNGLL,3128.00003,N,12115.29792,E,080411.00,A,A*71
$GNRMC,080412.00,A,3128.00003,N,12115.28529,E,38.871,270.00,010321,,,A,V*3D
$GNVTG,270.00,T,,M,38.871,N,71.990,K,A*25
$GNGGA,080412.00,3128.00003,N,12115.28529,E,1,10,0.89,-9.1,M,9.2,M,,*5A
$GNGSA,A,3,16,23,25,01,20,11,13,17,04,07,,,1.54,0.89,1.26,1*00
$GNGSA,A,3,,,,,,,,,,,,,1.54,0.89,1.26,4*00
$GPGSV,3,1,10,01,30,091,52,04,37,310,52,07,36,188,52,11,20,170,51,0*6A
$GPGSV,3,2,10,13,65,296,53,16,07,079,51,17,14,245,51,20,55,076,52,0*65
$GPGSV,3,3,10,23,62,013,53,25,57,179,52,0*68
$GBGSV,1,1,00,0*77
$GNGLL,3128.00003,N,12115.28529,E,080412.00,A,A*71
$GNRMC,080413.00,A,3128.00002,N,12115.27267,E,38.878,270.00,010321,,,A,V*36
$GNVTG,270.00,T,,M,38.878,N,72.001,K,A*2E
$GNGGA,080413.00,3128.00002,N,12115.27267,E,1,10,0.89,-9.1,M,9.2,M,,*58
$GNGSA,A,3,16,23,25,01,20,11,13,17,04,07,,,1.54,0.89,1.26,1*00
$GNGSA,A,3,,,,,,,,,,,,,1.54,0.89,1.26,4*00
$GPGSV,3,1,10,01,30,091,52,04,37,310,52,07,36,188,52,11,20,170,51,0*6A
$GPGSV,3,2,10,13,65,296,53,16,07,079,51,17,14,245,51,20,55,076,52,0*65
$GPGSV,3,3,10,23,62,013,53,25,57,179,52,0*68
$GBGSV,1,1,00,0*77
$GNGLL,3128.00002,N,12115.27267,E,080413.00,A,A*73
$GNRMC,080414.00,A,3128.00002,N,12115.26004,E,38.872,270.01,010321,,,A,V*3C
$GNVTG,270.01,T,,M,38.872,N,71.992,K,A*25
$GNGGA,080414.00,3128.00002,N,12115.26004,E,1,10,0.89,-9.1,M,9.2,M,,*59
$GNGSA,A,3,16,23,25,01,20,11,13,17,04,07,,,1.54,0.89,1.26,1*00
$GNGSA,A,3,,,,,,,,,,,,,1.54,0.89,1.26,4*00
$GPGSV,3,1,10,01,30,091,52,04,37,310,52,07,36,188,52,11,20,170,51,0*6A
$GPGSV,3,2,10,13,65,296,53,16,07,079,51,17,14,245,51,20,55,076,52,0*65
$GPGSV,3,3,10,23,62,013,53,25,57,179,52,0*68
$GBGSV,1,1,00,0*77
$GNGLL,3128.00002,N,12115.26004,E,080414.00,A,A*72
$GNRMC,080415.00,A,3128.00003,N,12115.24742,E,38.875,270.00,010321,,,A,V*3D
$GNVTG,270.00,T,,M,38.875,N,71.997,K,A*26
$GNGGA,080415.00,3128.00003,N,12115.24742,E,1,10,0.89,-9.1,M,9.2,M,,*5E
$GNGSA,A,3,16,23,25,01,20,11,13,17,04,07,,,1.54,0.89,1.26,1*00
$GNGSA,A,3,,,,,,,,,,,,,1.54,0.89,1.26,4*00
$GPGSV,3,1,10,01,30,091,52,04,37,310,52,07,36,188,52,11,20,170,51,0*6A
$GPGSV,3,2,10,13,65,296,53,16,07,079,51,17,14,245,51,20,55,076,52,0*65
$GPGSV,3,3,10,23,62,013,53,25,57,179,52,0*68
$GBGSV,1,1,00,0*77
$GNGLL,3128.00003,N,12115.24742,E,080415.00,A,A*75
$GNRMC,080416.00,A,3128.00003,N,12115.23479,E,38.870,270.00,010321,,,A,V*37
$GNVTG,270.00,T,,M,38.870,N,71.988,K,A*2D
$GNGGA,080416.00,3128.00003,N,12115.23479,E,1,10,0.89,-9.1,M,9.2,M,,*51
$GNGSA,A,3,16,23,25,01,20,11,13,17,04,07,,,1.54,0.89,1.26,1*00
