$GPGSA,A,1,,,,,,,,,,,,,,,*1E
$GNGSA,A,1,,,,,,,,,,,,,,,*00
$PQGSA,A,1,,,,,,,,,,,,,,,*08
$GPVTG,,T,,M,,N,,K,N*2C
$GPRMC,,V,,,,,,,,,,N*53
$GPGGA,,,,,,0,,,,,,,,*66
$GPGSV,1,1,0,1*54
$GLGSV,1,1,0,1*48
$GAGSV,1,1,0,7*43
$PQGSV,1,1,03,193,08,129,,194,41,132,,195,58,057,*6E
$PQGSV,1,1,0,0*43
$GPGSA,A,1,,,,,,,,,,,,,,,*1E
$GNGSA,A,1,,,,,,,,,,,,,,,*00
$PQGSA,A,1,,,,,,,,,,,,,,,*08
$GPVTG,,T,,M,,N,,K,N*2C
$GPRMC,,V,,,,,,,,,,N*53
$GPGGA,,,,,,0,,,,,,,,*66
$GPGSV,1,1,0,1*54
$GLGSV,1,1,0,1*48
$GAGSV,1,1,0,7*43
$PQGSV,1,1,03,193,08,129,,194,41,132,,195,58,057,*6E
$PQGSV,1,1,0,0*43
$GPGSA,A,1,,,,,,,,,,,,,,,*1E
$GNGSA,A,1,,,,,,,,,,,,,,,*00
$PQGSA,A,1,,,,,,,,,,,,,,,*08
$GPVTG,,T,,M,,N,,K,N*2C
$GPRMC,,V,,,,,,,,,,N*53
$GPGGA,,,,,,0,,,,,,,,*66
$GPGSV,1,1,0,1*54
$GLGSV,1,1,0,1*48
$GAGSV,1,1,0,7*43
$PQGSV,1,1,03,193,08,129,,194,41,132,,195,58,057,*6E
$PQGSV,1,1,0,0*43
$GPGSA,A,1,,,,,,,,,,,,,,,*1E
$GNGSA,A,1,,,,,,,,,,,,,,,*00
$PQGSA,A,1,,,,,,,,,,,,,,,*08
$GPVTG,,T,,M,,N,,K,N*2C
$GPRMC,,V,,,,,,,,,,N*53
$GPGGA,,,,,,0,,,,,,,,*66
$GPGSV,1,1,0,1*54
$GLGSV,1,1,0,1*48
$GAGSV,1,1,0,7*43
$PQGSV,1,1,03,193,08,129,,194,41,132,,195,58,057,*6E
$PQGSV,1,1,0,0*43
$GPGSA,A,1,,,,,,,,,,,,,,,*1E
$GNGSA,A,1,,,,,,,,,,,,,,,*00
$PQGSA,A,1,,,,,,,,,,,,,,,*08
$GPVTG,,T,,M,,N,,K,N*2C
$GPRMC,,V,,,,,,,,,,N*53
$GPGGA,,,,,,0,,,,,,,,*66
$GPGSV,1,1,0,1*54
$GLGSV,1,1,0,1*48
$GAGSV,1,1,0,7*43
$PQGSV,1,1,03,193,08,129,,194,41,132,,195,58,057,*6E
$PQGSV,1,1,0,0*43
$GPGSA,A,1,,,,,,,,,,,,,,,*1E
$GNGSA,A,1,,,,,,,,,,,,,,,*00
$PQGSA,A,1,,,,,,,,,,,,,,,*08
$GPVTG,,T,,M,,N,,K,N*2C
$GPRMC,,V,,,,,,,,,,N*53
$GPGGA,,,,,,0,,,,,,,,*66
$GPGSV,1,1,0,1*54
$GLGSV,1,1,0,1*48
$GAGSV,1,1,0,7*43
$PQGSV,1,1,03,193,08,129,,194,41,132,,195,58,057,*6E
$PQGSV,1,1,0,0*43
$GPGSA,A,1,,,,,,,,,,,,,,,*1E
$GNGSA,A,1,,,,,,,,,,,,,,,*00
$PQGSA,A,1,,,,,,,,,,,,,,,*08
$GPVTG,,T,,M,,N,,K,N*2C
$GPRMC,,V,,,,,,,,,,N*53
$GPGGA,,,,,,0,,,,,,,,*66
$GPGSV,1,1,0,1*54
$GLGSV,1,1,0,1*48
$GAGSV,1,1,0,7*43
$PQGSV,1,1,03,193,08,129,,194,41,132,,195,58,057,*6E
$PQGSV,1,1,0,0*43
$GPGSA,A,1,,,,,,,,,,,,,,,*1E
$GNGSA,A,1,,,,,,,,,,,,,,,*00
$PQGSA,A,1,,,,,,,,,,,,,,,*08
$GPVTG,,T,,M,,N,,K,N*2C
$GPRMC,,V,,,,,,,,,,N*53
$GPGGA,,,,,,0,,,,,,,,*66
$GPGSV,1,1,02,02,00,000,33,25,00,000,32*7F
$GLGSV,1,1,0,1*48
$GAGSV,1,1,0,7*43
$PQGSV,1,1,03,193,08,129,,194,41,132,,195,58,057,*6E
$PQGSV,1,1,0,0*43
$GPGSA,A,1,,,,,,,,,,,,,,,*1E
$GNGSA,A,1,,,,,,,,,,,,,,,*00
$PQGSA,A,1,,,,,,,,,,,,,,,*08
$GPVTG,,T,,M,,N,,K,N*2C
$GPRMC,,V,,,,,,,,,,N*53
$GPGGA,,,,,,0,,,,,,,,*66
$GPGSV,1,1,03,02,00,000,25,07,00,000,31,25,00,000,33*4D
$GLGSV,1,1,0,1*48
$GAGSV,1,1,0,7*43
$PQGSV,1,1,03,193,08,129,,194,41,132,,195,58,057,*6E
$PQGSV,1,1,0,0*43
$GPGSA,A,1,,,,,,,,,,,,,,,*1E
$GNGSA,A,1,,,,,,,,,,,,,,,*00
$PQGSA,A,1,,,,,,,,,,,,,,,*08
$GPVTG,,T,,M,,N,,K,N*2C
$GPRMC,,V,,,,,,,,,,N*53
$GPGGA,,,,,,0,,,,,,,,*66
$GPGSV,2,1,05,02,00,000,33,07,00,000,31,13,00,000,33,23,00,000,33*7B
$GPGSV,2,2,05,25,00,000,33*4B
$GLGSV,1,1,0,1*48
$GAGSV,1,1,0,7*43
$PQGSV,1,1,03,193,08,129,,194,41,132,,195,58,057,*6E
$PQGSV,1,1,0,0*43
$GPGSA,A,1,,,,,,,,,,,,,,,*1E
$GNGSA,A,1,,,,,,,,,,,,,,,*00
$PQGSA,A,1,,,,,,,,,,,,,,,*08
$GPVTG,,T,,M,,N,,K,N*2C
$GPRMC,,V,,,,,,,,,,N*53
$GPGGA,,,,,,0,,,,,,,,*66
$GPGSV,2,1,05,02,00,000,33,07,00,000,31,13,00,000,33,23,00,000,33*7B
$GPGSV,2,2,05,25,00,000,33*4B
$GLGSV,1,1,0,1*48
$GAGSV,1,1,0,7*43
$PQGSV,1,1,03,193,08,129,,194,41,132,,195,58,057,*6E
$PQGSV,1,1,0,0*43
$GPGSA,A,1,,,,,,,,,,,,,,,*1E
$GNGSA,A,1,,,,,,,,,,,,,,,*00
$PQGSA,A,1,,,,,,,,,,,,,,,*08
$GPVTG,,T,,M,,N,,K,N*2C
$GPRMC,,V,,,,,,,,,,N*53
$GPGGA,,,,,,0,,,,,,,,*66
$GPGSV,2,1,05,02,00,000,33,07,00,000,33,13,00,000,33,23,00,000,33*79
$GPGSV,2,2,05,25,00,000,33*4B
$GLGSV,1,1,0,1*48
$GAGSV,1,1,0,7*43
$PQGSV,1,1,03,193,08,129,,194,41,132,,195,58,057,*6E
$PQGSV,1,1,0,0*43
$GPGSA,A,1,,,,,,,,,,,,,,,*1E
$GNGSA,A,1,,,,,,,,,,,,,,,*00
$PQGSA,A,1,,,,,,,,,,,,,,,*08
$GPVTG,,T,,M,,N,,K,N*2C
$GPRMC,,V,,,,,,,,,,N*53
$GPGGA,,,,,,0,,,,,,,,*66
$GPGSV,2,1,06,02,00,000,33,04,00,000,33,07,00,000,33,13,00,000,33*7F
$GPGSV,2,2,06,23,00,000,33,25,00,000,33*79
$GLGSV,1,1,0,1*48
$GAGSV,1,1,0,7*43
$PQGSV,1,1,03,193,08,129,,194,41,132,,195,58,057,*6E
$PQGSV,1,1,0,0*43
$GPGSA,A,1,,,,,,,,,,,,,,,*1E
$GNGSA,A,1,,,,,,,,,,,,,,,*00
$PQGSA,A,1,,,,,,,,,,,,,,,*08
$GPVTG,,T,,M,,N,,K,N*2C
$GPRMC,,V,,,,,,,,,,N*53
$GPGGA,,,,,,0,,,,,,,,*66
$GPGSV,2,1,06,02,00,000,33,04,00,000,34,07,00,000,33,13,00,000,33*78
$GPGSV,2,2,06,23,00,000,33,25,00,000,33*79
$GLGSV,1,1,0,1*48
$GAGSV,1,1,0,7*43
$PQGSV,1,1,03,193,08,129,,194,41,132,,195,58,057,*6E
$PQGSV,1,1,0,0*43
$GPGSA,A,1,,,,,,,,,,,,,,,*1E
$GNGSA,A,1,,,,,,,,,,,,,,,*00
$PQGSA,A,1,,,,,,,,,,,,,,,*08
$GPVTG,,T,,M,,N,,K,N*2C
$GPRMC,,V,,,,,,,,,,N*53
$GPGGA,,,,,,0,,,,,,,,*66
$GPGSV,2,1,06,02,00,000,33,04,00,000,33,07,00,000,33,13,00,000,33*7F
$GPGSV,2,2,06,23,00,000,33,25,00,000,33*79
$GLGSV,1,1,0,1*48
$GAGSV,1,1,0,7*43
$PQGSV,1,1,03,193,08,129,,194,41,132,,195,58,057,*6E
$PQGSV,1,1,0,0*43
$GPGSA,A,1,,,,,,,,,,,,,,,*1E
$GNGSA,A,1,,,,,,,,,,,,,,,*00
$PQGSA,A,1,,,,,,,,,,,,,,,*08
$GPVTG,,T,,M,,N,,K,N*2C
$GPRMC,,V,,,,,,,,,,N*53
$GPGGA,,,,,,0,,,,,,,,*66
$GPGSV,2,1,06,02,00,000,33,04,00,000,33,07,00,000,33,13,00,000,33*7F
$GPGSV,2,2,06,23,00,000,33,25,00,000,33*79
$GLGSV,1,1,0,1*48
$GAGSV,1,1,0,7*43
$PQGSV,1,1,03,193,08,129,,194,41,132,,195,58,057,*6E
$PQGSV,1,1,0,0*43
$GPGSA,A,1,,,,,,,,,,,,,,,*1E
$GNGSA,A,1,,,,,,,,,,,,,,,*00
$PQGSA,A,1,,,,,,,,,,,,,,,*08
$GPVTG,,T,,M,,N,,K,N*2C
$GPRMC,,V,,,,,,,,,,N*53
$GPGGA,,,,,,0,,,,,,,,*66
$GPGSV,2,1,07,02,00,000,32,04,00,000,33,07,00,000,33,08,00,000,32*74
$GPGSV,2,2,07,13,00,000,33,23,00,000,33,25,00,000,33*4A
$GLGSV,1,1,0,1*48
$GAGSV,1,1,0,7*43
$PQGSV,1,1,03,193,08,129,,194,41,132,,195,58,057,*6E
$PQGSV,1,1,0,0*43
$GPGSA,A,1,,,,,,,,,,,,,,,*1E
$GNGSA,A,1,,,,,,,,,,,,,,,*00
$PQGSA,A,1,,,,,,,,,,,,,,,*08
$GPVTG,,T,,M,,N,,K,N*2C
$GPRMC,,V,,,,,,,,,,N*53
$GPGGA,,,,,,0,,,,,,,,*66
$GPGSV,2,1,07,02,00,000,33,04,00,000,33,07,00,000,33,08,00,000,32*75
$GPGSV,2,2,07,13,00,000,33,23,00,000,33,25,00,000,33*4A
$GLGSV,1,1,0,1*48
$GAGSV,1,1,0,7*43
$PQGSV,1,1,03,193,08,129,,194,41,132,,195,58,057,*6E
$PQGSV,1,1,0,0*43
$GPGSA,A,1,,,,,,,,,,,,,,,*1E
$GNGSA,A,1,,,,,,,,,,,,,,,*00
$PQGSA,A,1,,,,,,,,,,,,,,,*08
$GPVTG,,T,,M,,N,,K,N*2C
$GPRMC,,V,,,,,,,,,,N*53
$GPGGA,,,,,,0,,,,,,,,*66
$GPGSV,2,1,07,02,00,000,33,04,00,000,33,07,00,000,33,08,00,000,33*74
$GPGSV,2,2,07,13,00,000,33,23,00,000,33,25,00,000,33*4A
$GLGSV,1,1,0,1*48
$GAGSV,1,1,0,7*43
$PQGSV,1,1,03,193,08,129,,194,41,132,,195,58,057,*6E
$PQGSV,1,1,0,0*43
$GPGSA,A,1,,,,,,,,,,,,,,,*1E
$GNGSA,A,1,,,,,,,,,,,,,,,*00
$PQGSA,A,1,,,,,,,,,,,,,,,*08
$GPVTG,,T,,M,,N,,K,N*2C
$GPRMC,,V,,,,,,,,,,N*53
$GPGGA,,,,,,0,,,,,,,,*66
$GPGSV,2,1,07,02,00,000,33,04,00,000,33,07,00,000,33,08,00,000,33*74
$GPGSV,2,2,07,13,00,000,33,23,00,000,33,25,00,000,33*4A
$GLGSV,1,1,0,1*48
$GAGSV,1,1,0,7*43
$PQGSV,1,1,03,193,08,129,,194,41,132,,195,58,057,*6E
$PQGSV,1,1,0,0*43
$GPGSA,A,1,,,,,,,,,,,,,,,*1E
$GNGSA,A,1,,,,,,,,,,,,,,,*00
$PQGSA,A,1,,,,,,,,,,,,,,,*08
$GPVTG,,T,,M,,N,,K,N*2C
$GPRMC,,V,,,,,,,,,,N*53
$GPGGA,,,,,,0,,,,,,,,*66
$GPGSV,2,1,07,02,00,000,33,04,00,000,33,07,00,000,33,08,00,000,33*74
$GPGSV,2,2,07,13,00,000,33,23,00,000,33,25,00,000,33*4A
$GLGSV,1,1,0,1*48
$GAGSV,1,1,0,7*43
$PQGSV,1,1,03,193,08,129,,194,41,132,,195,58,057,*6E
$PQGSV,1,1,0,0*43
$GPGSA,A,1,,,,,,,,,,,,,,,*1E
$GNGSA,A,1,,,,,,,,,,,,,,,*00
$PQGSA,A,1,,,,,,,,,,,,,,,*08
$GPVTG,,T,,M,,N,,K,N*2C
$GPRMC,,V,,,,,,,,,,N*53
$GPGGA,,,,,,0,,,,,,,,*66
$GPGSV,2,1,07,02,00,000,33,04,00,000,33,07,00,000,33,08,00,000,33*74
$GPGSV,2,2,07,13,00,000,33,23,00,000,25,25,00,000,33*4D
$GLGSV,1,1,0,1*48
$GAGSV,1,1,0,7*43
$PQGSV,1,1,03,193,08,129,,194,41,132,,195,58,057,*6E
$PQGSV,1,1,0,0*43
$GPGSA,A,1,,,,,,,,,,,,,,,*1E
$GNGSA,A,1,,,,,,,,,,,,,,,*00
$PQGSA,A,1,,,,,,,,,,,,,,,*08
$GPVTG,,T,,M,,N,,K,N*2C
$GPRMC,,V,,,,,,,,,,N*53
$GPGGA,,,,,,0,,,,,,,,*66
$GPGSV,2,1,07,02,00,000,33,04,00,000,33,07,00,000,33,08,00,000,33*74
$GPGSV,2,2,07,13,00,000,33,23,00,000,25,25,00,000,33*4D
$GLGSV,1,1,0,1*48
$GAGSV,1,1,0,7*43
$PQGSV,1,1,03,193,08,129,,194,41,132,,195,58,057,*6E
$PQGSV,1,1,0,0*43
$GPGSA,A,1,,,,,,,,,,,,,,,*1E
$GNGSA,A,1,,,,,,,,,,,,,,,*00
$PQGSA,A,1,,,,,,,,,,,,,,,*08
$GPVTG,,T,,M,,N,,K,N*2C
$GPRMC,,V,,,,,,,,,,N*53
$GPGGA,,,,,,0,,,,,,,,*66
$GPGSV,2,1,07,02,00,000,33,04,00,000,33,07,00,000,33,08,00,000,33*74
$GPGSV,2,2,07,13,00,000,33,23,00,000,25,25,00,000,33*4D
$GLGSV,1,1,0,1*48
$GAGSV,1,1,0,7*43
$PQGSV,1,1,03,193,08,129,,194,41,132,,195,58,057,*6E
$PQGSV,1,1,0,0*43
$GPGSA,A,1,,,,,,,,,,,,,,,*1E
$GNGSA,A,1,,,,,,,,,,,,,,,*00
$PQGSA,A,1,,,,,,,,,,,,,,,*08
$GPVTG,,T,,M,,N,,K,N*2C
$GPRMC,,V,,,,,,,,,,N*53
$GPGGA,,,,,,0,,,,,,,,*66
$GPGSV,2,1,07,02,00,000,33,04,00,000,33,07,00,000,33,08,00,000,33*74
$GPGSV,2,2,07,13,00,000,33,23,00,000,24,25,00,000,33*4C
$GLGSV,1,1,0,1*48
$GAGSV,1,1,0,7*43
$PQGSV,1,1,03,193,08,129,,194,41,132,,195,58,057,*6E
$PQGSV,1,1,0,0*43
$GPGSA,A,1,,,,,,,,,,,,,,,*1E
$GNGSA,A,1,,,,,,,,,,,,,,,*00
$PQGSA,A,1,,,,,,,,,,,,,,,*08
$GPVTG,,T,,M,,N,,K,N*2C
$GPRMC,,V,,,,,,,,,,N*53
$GPGGA,,,,,,0,,,,,,,,*66
$GPGSV,2,1,07,02,00,000,33,04,00,000,33,07,00,000,33,08,00,000,33*74
$GPGSV,2,2,07,13,00,000,33,23,00,000,22,25,00,000,33*4A
$GLGSV,1,1,0,1*48
$GAGSV,1,1,0,7*43
$PQGSV,1,1,03,193,08,129,,194,41,132,,195,58,057,*6E
$PQGSV,1,1,0,0*43
$GPGSA,A,1,,,,,,,,,,,,,,,*1E
$GNGSA,A,1,,,,,,,,,,,,,,,*00
$PQGSA,A,1,,,,,,,,,,,,,,,*08
$GPVTG,,T,,M,,N,,K,N*2C
$GPRMC,,V,,,,,,,,,,N*53
$GPGGA,,,,,,0,,,,,,,,*66
$GPGSV,2,1,07,02,00,000,33,04,00,000,33,07,00,000,33,08,00,000,32*75
$GPGSV,2,2,07,13,00,000,33,23,00,000,21,25,00,000,33*49
$GLGSV,1,1,0,1*48
$GAGSV,1,1,0,7*43
$PQGSV,1,1,03,193,08,129,,194,41,132,,195,58,057,*6E
$PQGSV,1,1,0,0*43
$GPGSA,A,1,,,,,,,,,,,,,,,*1E
$GNGSA,A,1,,,,,,,,,,,,,,,*00
$PQGSA,A,1,,,,,,,,,,,,,,,*08
$GPVTG,,T,,M,,N,,K,N*2C
$GPRMC,,V,,,,,,,,,,N*53
$GPGGA,,,,,,0,,,,,,,,*66
$GPGSV,2,1,07,02,00,000,33,04,00,000,33,07,00,000,33,08,00,000,33*74
$GPGSV,2,2,07,13,00,000,33,23,00,000,21,25,00,000,33*49
$GLGSV,1,1,0,1*48
$GAGSV,1,1,0,7*43
$PQGSV,1,1,03,193,08,129,,194,41,132,,195,58,057,*6E
$PQGSV,1,1,0,0*43
$GPGSA,A,1,,,,,,,,,,,,,,,*1E
$GNGSA,A,1,,,,,,,,,,,,,,,*00
$PQGSA,A,1,,,,,,,,,,,,,,,*08
$GPVTG,,T,,M,,N,,K,N*2C
$GPRMC,,V,,,,,,,,,,N*53
$GPGGA,,,,,,0,,,,,,,,*66
$GPGSV,2,1,07,02,00,000,33,04,00,000,33,07,00,000,33,08,00,000,33*74
$GPGSV,2,2,07,13,00,000,33,23,00,000,20,25,00,000,33*48
$GLGSV,1,1,0,1*48
$GAGSV,1,1,0,7*43
$PQGSV,1,1,03,193,08,129,,194,41,132,,195,58,057,*6E
$PQGSV,1,1,0,0*43
$GPGSA,A,1,,,,,,,,,,,,,,,*1E
$GNGSA,A,1,,,,,,,,,,,,,,,*00
$PQGSA,A,1,,,,,,,,,,,,,,,*08
$GPVTG,,T,,M,,N,,K,N*2C
$GPRMC,,V,,,,,,,,,,N*53
$GPGGA,,,,,,0,,,,,,,,*66
$GPGSV,2,1,07,02,00,000,33,04,00,000,33,07,00,000,33,08,00,000,33*74
$GPGSV,2,2,07,13,00,000,33,23,00,000,20,25,00,000,33*48
$GLGSV,1,1,0,1*48
$GAGSV,1,1,0,7*43
$PQGSV,1,1,03,193,08,129,,194,41,132,,195,58,057,*6E
$PQGSV,1,1,0,0*43
$GPGSA,A,1,,,,,,,,,,,,,,,*1E
$GNGSA,A,1,,,,,,,,,,,,,,,*00
$PQGSA,A,1,,,,,,,,,,,,,,,*08
$GPVTG,,T,,M,,N,,K,N*2C
$GPRMC,,V,,,,,,,,,,N*53
$GPGGA,,,,,,0,,,,,,,,*66
$GPGSV,2,1,07,02,00,000,33,04,00,000,33,07,00,000,33,08,00,000,33*74
$GPGSV,2,2,07,13,00,000,33,23,00,000,20,25,00,000,33*48
$GLGSV,1,1,0,1*48
$GAGSV,1,1,0,7*43
$PQGSV,1,1,03,193,08,129,,194,41,132,,195,58,057,*6E
$PQGSV,1,1,0,0*43
$GPGSA,A,1,,,,,,,,,,,,,,,*1E
$GNGSA,A,1,,,,,,,,,,,,,,,*00
$PQGSA,A,1,,,,,,,,,,,,,,,*08
$GPVTG,,T,,M,,N,,K,N*2C
$GPRMC,,V,,,,,,,,,,N*53
$GPGGA,,,,,,0,,,,,,,,*66
$GPGSV,2,1,07,02,00,000,33,04,00,000,33,07,00,000,33,08,00,000,33*74
$GPGSV,2,2,07,13,00,000,33,23,00,000,19,25,00,000,33*42
$GLGSV,1,1,0,1*48
$GAGSV,1,1,0,7*43
$PQGSV,1,1,03,193,08,129,,194,41,132,,195,58,057,*6E
$PQGSV,1,1,0,0*43
$GPGSA,A,1,,,,,,,,,,,,,,,*1E
$GNGSA,A,1,,,,,,,,,,,,,,,*00
$PQGSA,A,1,,,,,,,,,,,,,,,*08
$GPVTG,,T,,M,,N,,K,N*2C
$GPRMC,,V,,,,,,,,,,N*53
$GPGGA,,,,,,0,,,,,,,,*66
$GPGSV,2,1,08,02,00,000,33,04,00,000,33,07,00,000,33,08,00,000,33*7B
$GPGSV,2,2,08,13,00,000,33,20,00,000,31,23,00,000,19,25,00,000,33*7D
$GLGSV,1,1,0,1*48
$GAGSV,1,1,0,7*43
$PQGSV,1,1,03,193,08,129,,194,41,132,,195,58,057,*6E
$PQGSV,1,1,0,0*43
$GPGSA,A,1,,,,,,,,,,,,,,,*1E
$GNGSA,A,1,,,,,,,,,,,,,,,*00
$PQGSA,A,1,,,,,,,,,,,,,,,*08
$GPVTG,,T,,M,,N,,K,N*2C
$GPRMC,,V,,,,,,,,,,N*53
$GPGGA,,,,,,0,,,,,,,,*66
$GPGSV,2,1,08,02,00,000,33,04,00,000,33,07,00,000,33,08,00,000,33*7B
$GPGSV,2,2,08,13,00,000,33,20,00,000,33,23,00,000,19,25,00,000,33*7F
$GLGSV,1,1,0,1*48
$GAGSV,1,1,0,7*43
$PQGSV,1,1,03,193,08,129,,194,41,132,,195,58,057,*6E
$PQGSV,1,1,0,0*43
$GPGSA,A,1,,,,,,,,,,,,,,,*1E
$GNGSA,A,1,,,,,,,,,,,,,,,*00
$PQGSA,A,1,,,,,,,,,,,,,,,*08
$GPVTG,,T,,M,,N,,K,N*2C
$GPRMC,,V,,,,,,,,,,N*53
$GPGGA,,,,,,0,,,,,,,,*66
$GPGSV,2,1,08,02,00,000,33,04,00,000,33,07,00,000,33,08,00,000,33*7B
$GPGSV,2,2,08,13,00,000,33,20,00,000,33,23,00,000,19,25,00,000,33*7F
$GLGSV,1,1,0,1*48
$GAGSV,1,1,0,7*43
$PQGSV,1,1,03,193,08,129,,194,41,132,,195,58,057,*6E
$PQGSV,1,1,0,0*43
$GPGSA,A,1,,,,,,,,,,,,,,,*1E
$GNGSA,A,1,,,,,,,,,,,,,,,*00
$PQGSA,A,1,,,,,,,,,,,,,,,*08
$GPVTG,,T,,M,,N,,K,N*2C
$GPRMC,,V,,,,,,,,,,N*53
$GPGGA,,,,,,0,,,,,,,,*66
$GPGSV,2,1,08,02,00,000,33,04,00,000,33,07,00,000,33,08,00,000,33*7B
$GPGSV,2,2,08,13,00,000,33,20,00,000,32,23,00,000,19,25,00,000,33*7E
$GLGSV,1,1,0,1*48
$GAGSV,1,1,0,7*43
$PQGSV,1,1,03,193,08,129,,194,41,132,,195,58,057,*6E
$PQGSV,1,1,0,0*43
$GPGSA,A,1,,,,,,,,,,,,,,,*1E
$GNGSA,A,1,,,,,,,,,,,,,,,*00
$PQGSA,A,1,,,,,,,,,,,,,,,*08
$GPVTG,,T,,M,,N,,K,N*2C
$GPRMC,,V,,,,,,,,,,N*53
$GPGGA,,,,,,0,,,,,,,,*66
$GPGSV,2,1,08,02,00,000,32,04,00,000,33,07,00,000,33,08,00,000,33*7A
$GPGSV,2,2,08,13,00,000,33,20,00,000,32,23,00,000,19,25,00,000,33*7E
$GLGSV,1,1,0,1*48
$GAGSV,1,1,0,7*43
$PQGSV,1,1,03,193,08,129,,194,41,132,,195,58,057,*6E
$PQGSV,1,1,0,0*43
$GPGSA,A,1,,,,,,,,,,,,,,,*1E
$GNGSA,A,1,,,,,,,,,,,,,,,*00
$PQGSA,A,1,,,,,,,,,,,,,,,*08
$GPVTG,,T,,M,,N,,K,N*2C
$GPRMC,,V,,,,,,,,,,N*53
$GPGGA,,,,,,0,,,,,,,,*66
$GPGSV,2,1,08,02,00,000,33,04,00,000,33,07,00,000,33,08,00,000,33*7B
$GPGSV,2,2,08,13,00,000,33,20,00,000,24,23,00,000,19,25,00,000,33*79
$GLGSV,1,1,0,1*48
$GAGSV,1,1,0,7*43
$PQGSV,1,1,03,193,08,129,,194,41,132,,195,58,057,*6E
$PQGSV,1,1,0,0*43
$GPGSA,A,1,,,,,,,,,,,,,,,*1E
$GNGSA,A,1,,,,,,,,,,,,,,,*00
$PQGSA,A,1,,,,,,,,,,,,,,,*08
$GPVTG,,T,,M,,N,,K,N*2C
$GPRMC,,V,,,,,,,,,,N*53
$GPGGA,,,,,,0,,,,,,,,*66
$GPGSV,2,1,08,02,00,000,33,04,00,000,33,07,00,000,33,08,00,000,33*7B
$GPGSV,2,2,08,13,00,000,33,20,00,000,22,23,00,000,19,25,00,000,33*7F
$GLGSV,1,1,0,1*48
$GAGSV,1,1,0,7*43
$PQGSV,1,1,03,193,08,129,,194,41,132,,195,58,057,*6E
$PQGSV,1,1,0,0*43
$GPGSA,A,1,,,,,,,,,,,,,,,*1E
$GNGSA,A,1,,,,,,,,,,,,,,,*00
$PQGSA,A,1,,,,,,,,,,,,,,,*08
$GPVTG,,T,,M,,N,,K,N*2C
$GPRMC,,V,,,,,,,,,,N*53
$GPGGA,,,,,,0,,,,,,,,*66
$GPGSV,2,1,08,02,00,000,33,04,00,000,33,07,00,000,33,08,00,000,33*7B
$GPGSV,2,2,08,13,00,000,33,20,00,000,21,23,00,000,19,25,52,054,33*7A
$GLGSV,1,1,0,1*48
$GAGSV,1,1,0,7*43
$PQGSV,1,1,03,193,02,137,,194,46,115,,195,60,061,*67
$PQGSV,1,1,0,0*43
$GPGSA,A,1,,,,,,,,,,,,,,,*1E
$GNGSA,A,1,,,,,,,,,,,,,,,*00
$PQGSA,A,1,,,,,,,,,,,,,,,*08
$GPVTG,,T,,M,,N,,K,N*2C
$GPRMC,,V,,,,,,,,,,N*53
$GPGGA,,,,,,0,,,,,,,,*66
$GPGSV,2,1,08,02,00,000,33,04,00,000,33,07,00,000,33,08,00,000,33*7B
$GPGSV,2,2,08,13,00,000,33,20,00,000,21,23,00,000,19,25,52,054,33*7A
$GLGSV,1,1,0,1*48
$GAGSV,1,1,0,7*43
$PQGSV,1,1,03,193,02,137,,194,46,115,,195,60,061,*67
$PQGSV,1,1,0,0*43
$GPGSA,A,1,,,,,,,,,,,,,,,*1E
$GNGSA,A,1,,,,,,,,,,,,,,,*00
$PQGSA,A,1,,,,,,,,,,,,,,,*08
$GPVTG,,T,,M,,N,,K,N*2C
$GPRMC,,V,,,,,,,,,,N*53
$GPGGA,,,,,,0,,,,,,,,*66
$GPGSV,2,1,08,02,45,299,33,04,00,000,33,07,00,000,33,08,00,000,33*78
$GPGSV,2,2,08,13,39,037,33,20,00,000,20,23,00,000,19,25,52,054,33*75
$GLGSV,1,1,0,1*48
$GAGSV,1,1,0,7*43
$PQGSV,1,1,03,193,02,137,,194,46,115,,195,60,061,*67
$PQGSV,1,1,0,0*43
$GPGSA,A,1,,,,,,,,,,,,,,,*1E
$GNGSA,A,1,,,,,,,,,,,,,,,*00
$PQGSA,A,1,,,,,,,,,,,,,,,*08
$GPVTG,,T,,M,,N,,K,N*2C
$GPRMC,,V,,,,,,,,,,N*53
$GPGGA,,,,,,0,,,,,,,,*66
$GPGSV,2,1,08,02,45,299,33,04,00,000,33,07,65,091,33,08,00,000,33*73
$GPGSV,2,2,08,13,39,037,33,20,00,000,20,23,00,000,19,25,52,054,33*75
$GLGSV,1,1,0,1*48
$GAGSV,1,1,0,7*43
$PQGSV,1,1,03,193,02,137,,194,46,115,,195,60,061,*67
$PQGSV,1,1,0,0*43
$GPGSA,A,1,,,,,,,,,,,,,,,*1E
$GNGSA,A,1,,,,,,,,,,,,,,,*00
$PQGSA,A,1,,,,,,,,,,,,,,,*08
$GPVTG,,T,,M,,N,,K,N*2C
$GPRMC,,V,,,,,,,,,,N*53
$GPGGA,,,,,,0,,,,,,,,*66
$GPGSA,A,1,,,,,,,,,,,,,,,*1E
$GNGSA,A,1,,,,,,,,,,,,,,,*00
$PQGSA,A,1,,,,,,,,,,,,,,,*08
$GPVTG,,T,,M,,N,,K,N*2C
$GPRMC,,V,,,,,,,,,,N*53
$GPGGA,,,,,,0,,,,,,,,*66
$GPGSV,2,1,08,02,31,299,32,04,00,000,33,07,83,118,33,08,00,000,33*79
$GPGSV,2,2,08,13,48,029,33,20,00,000,20,23,00,000,19,25,65,042,33*7F
$GLGSV,1,1,0,1*48
$GAGSV,1,1,0,7*43
$PQGSV,1,1,03,193,10,149,,194,59,137,,195,73,046,*64
$PQGSV,1,1,0,0*43
$GPGSA,A,1,,,,,,,,,,,,,,,*1E
$GNGSA,A,1,,,,,,,,,,,,,,,*00
$PQGSA,A,1,,,,,,,,,,,,,,,*08
$GPVTG,,T,,M,,N,,K,N*2C
$GPRMC,,V,,,,,,,,,,N*53
$GPGGA,,,,,,0,,,,,,,,*66
$GPGSV,2,1,08,02,31,299,33,04,50,246,33,07,83,118,33,08,00,000,33*7D
$GPGSV,2,2,08,13,48,029,33,20,00,000,20,23,00,000,19,25,65,042,33*7F
$GLGSV,1,1,0,1*48
$GAGSV,1,1,0,7*43
$PQGSV,1,1,03,193,10,149,,194,59,137,,195,73,046,*64
$PQGSV,1,1,0,0*43
$GPGSA,A,1,,,,,,,,,,,,,,,*1E
$GNGSA,A,1,,,,,,,,,,,,,,,*00
$PQGSA,A,1,,,,,,,,,,,,,,,*08
$GPVTG,,T,,M,,N,,K,N*2C
$GPRMC,,V,,,,,,,,,,N*53
$GPGGA,,,,,,0,,,,,,,,*66
$GPGSV,2,1,08,02,31,299,33,04,50,246,33,07,83,118,33,08,00,000,33*7D
$GPGSV,2,2,08,13,48,029,33,20,00,000,19,23,00,000,19,25,65,042,33*75
$GLGSV,1,1,0,1*48
$GAGSV,1,1,0,7*43
$PQGSV,1,1,03,193,10,149,,194,59,137,,195,73,046,*64
$PQGSV,1,1,0,0*43
$GPGSA,A,1,,,,,,,,,,,,,,,*1E
$GNGSA,A,1,,,,,,,,,,,,,,,*00
$PQGSA,A,1,,,,,,,,,,,,,,,*08
$GPVTG,,T,,M,,N,,K,N*2C
$GPRMC,,V,,,,,,,,,,N*53
$GPGGA,,,,,,0,,,,,,,,*66
$GPGSV,2,1,08,02,31,299,33,04,50,246,33,07,83,118,33,08,00,000,33*7D
$GPGSV,2,2,08,13,48,029,33,20,00,000,19,23,00,000,19,25,65,042,33*75
$GLGSV,1,1,0,1*48
$GAGSV,1,1,0,7*43
$PQGSV,1,1,03,193,10,149,,194,59,137,,195,73,046,*64
$PQGSV,1,1,0,0*43
$GPGSA,A,1,,,,,,,,,,,,,,,*1E
$GNGSA,A,1,,,,,,,,,,,,,,,*00
$PQGSA,A,1,,,,,,,,,,,,,,,*08
$GPVTG,,T,,M,,N,,K,N*2C
$GPRMC,,V,,,,,,,,,,N*53
$GPGGA,,,,,,0,,,,,,,,*66
$GPGSV,2,1,08,02,31,299,32,04,50,246,33,07,83,118,33,08,00,000,33*7C
$GPGSV,2,2,08,13,48,029,33,20,00,000,19,23,00,000,19,25,65,042,33*75
$GLGSV,1,1,0,1*48
$GAGSV,1,1,0,7*43
$PQGSV,1,1,03,193,10,149,,194,59,137,,195,73,046,*64
$PQGSV,1,1,0,0*43
$GPVTG,201.5,T,201.5,M,76.3,N,141.4,K,A*11
$GPDTM,P90,,0000.000022,S,00000.000001,W,0.988,W84*5A
$GPRMC,000028.00,A,2959.879144,N,12000.601118,E,76.3,201.5,230721,4.3,W,A*17
$GPGGA,000028.00,2959.879144,N,12000.601118,E,1,00,2.0,-39.9,M,7.0,M,,*41
$GPGSV,2,1,08,02,31,299,33,04,50,246,33,07,83,118,33,08,00,000,33*7D
$GPGSV,2,2,08,13,48,029,33,20,00,000,19,23,00,000,19,25,65,042,33*75
$GLGSV,1,1,0,1*48
$GAGSV,1,1,0,7*43
$PQGSV,1,1,03,193,10,149,,194,59,137,,195,73,046,*64
$PQGSV,1,1,0,0*43
$GPGSA,A,3,02,04,07,13,25,,,,,,,,2.2,2.0,1.0*35
$GPVTG,205.9,T,205.9,M,76.1,N,140.9,K,A*1F
$GPDTM,P90,,0000.000022,S,00000.000001,W,0.988,W84*5A
$GPRMC,000029.00,A,2959.861623,N,12000.589243,E,76.1,205.9,230721,4.3,W,A*1D
$GPGGA,000029.00,2959.861623,N,12000.589243,E,1,05,2.0,-36.0,M,7.0,M,,*42
$GPGSV,2,1,08,02,31,298,33,04,50,246,33,07,83,118,33,08,46,206,33*7A
$GPGSV,2,2,08,13,48,029,33,20,00,000,19,23,00,000,33,25,65,042,33*7D
$GLGSV,1,1,0,1*48
$GAGSV,1,1,0,7*43
$PQGSV,1,1,03,193,10,149,,194,59,137,,195,73,046,*64
$PQGSV,1,1,0,0*43
$GPGSA,A,3,02,04,07,13,25,,,,,,,,1.8,1.6,1.0*39
$GPVTG,214.2,T,214.2,M,75.6,N,140.1,K,A*13
$GPDTM,P90,,0000.000022,S,00000.000001,W,0.988,W84*5A
$GPRMC,000030.00,A,2959.847924,N,12000.573358,E,75.6,214.2,230721,4.3,W,A*18
$GPGGA,000030.00,2959.847924,N,12000.573358,E,1,05,1.6,-18.2,M,7.0,M,,*43
$GPGSV,2,1,08,02,31,298,33,04,50,246,33,07,83,118,33,08,46,206,33*7A
$GPGSV,2,2,08,13,48,029,33,20,00,000,19,23,00,000,33,25,65,042,33*7D
$GLGSV,1,1,0,1*48
$GAGSV,1,1,0,7*43
$PQGSV,1,1,03,193,10,149,,194,59,137,,195,73,046,*64
$PQGSV,1,1,0,0*43
$GPGSA,A,3,02,04,07,08,13,25,,,,,,,1.8,1.6,1.0*31
$GPVTG,218.1,T,218.1,M,75.8,N,140.4,K,A*18
$GPDTM,P90,,0000.000022,S,00000.000001,W,0.988,W84*5A
$GPRMC,000031.00,A,2959.830859,N,12000.558056,E,75.8,218.1,230721,4.3,W,A*17
$GPGGA,000031.00,2959.830859,N,12000.558056,E,1,06,1.6,-15.6,M,7.0,M,,*47
$GPGSV,3,1,09,02,31,298,33,04,50,246,33,07,83,118,33,08,46,206,33*7A
$GPGSV,3,2,09,13,48,029,33,20,00,000,19,23,00,000,33,25,65,042,33*7D
$GPGSV,3,3,09,27,00,000,31*47
$GLGSV,1,1,0,1*48
$GAGSV,1,1,0,7*43
$PQGSV,1,1,03,193,10,149,,194,59,137,,195,73,046,*64
$PQGSV,1,1,0,0*43
$GPGSA,A,3,02,04,07,08,13,25,,,,,,,1.8,1.6,1.0*31
$GPVTG,222.6,T,222.6,M,75.8,N,140.4,K,A*18
$GPDTM,P90,,0000.000022,S,00000.000001,W,0.988,W84*5A
$GPRMC,000032.00,A,2959.815965,N,12000.541231,E,75.8,222.6,230721,4.3,W,A*18
$GPGGA,000032.00,2959.815965,N,12000.541231,E,1,06,1.6,-11.4,M,7.0,M,,*40
$GPGSV,3,1,09,02,31,298,33,04,50,246,33,07,83,118,33,08,46,206,33*7A
$GPGSV,3,2,09,13,48,029,33,20,00,000,19,23,00,000,33,25,65,042,33*7D
$GPGSV,3,3,09,27,00,000,32*44
$GLGSV,1,1,0,1*48
$GAGSV,1,1,0,7*43
$PQGSV,1,1,03,193,10,149,,194,59,137,,195,73,046,*64
$PQGSV,1,1,0,0*43
$GPGSA,A,3,02,04,07,08,13,25,,,,,,,1.8,1.6,1.0*31
$GPVTG,227.0,T,227.0,M,75.8,N,140.4,K,A*18
$GPDTM,P90,,0000.000022,S,00000.000001,W,0.988,W84*5A
$GPRMC,000033.00,A,2959.801473,N,12000.523757,E,75.8,227.0,230721,4.3,W,A*14
$GPGGA,000033.00,2959.801473,N,12000.523757,E,1,06,1.6,-9.8,M,7.0,M,,*7A
$GPGSV,3,1,09,02,31,298,33,04,50,246,33,07,83,118,33,08,46,206,33*7A
$GPGSV,3,2,09,13,48,029,33,20,00,000,19,23,00,000,33,25,65,042,33*7D
$GPGSV,3,3,09,27,00,000,33*45
$GLGSV,1,1,0,1*48
$GAGSV,1,1,0,7*43
$PQGSV,1,1,03,193,10,149,,194,59,137,,195,73,046,*64
$PQGSV,1,1,0,0*43
$GPGSA,A,3,02,04,07,08,13,25,,,,,,,1.8,1.6,1.0*31
$GPVTG,231.5,T,231.5,M,75.7,N,140.3,K,A*10
$GPDTM,P90,,0000.000022,S,00000.000001,W,0.988,W84*5A
$GPRMC,000034.00,A,2959.787464,N,12000.505601,E,75.7,231.5,230721,4.3,W,A*1F
$GPGGA,000034.00,2959.787464,N,12000.505601,E,1,06,1.6,-11.8,M,7.0,M,,*45
$GPGSV,3,1,09,02,31,298,33,04,50,246,33,07,83,118,33,08,46,206,33*7A
$GPGSV,3,2,09,13,48,029,33,20,00,000,19,23,00,000,33,25,65,042,33*7D
$GPGSV,3,3,09,27,00,000,33*45
$GLGSV,1,1,0,1*48
$GAGSV,1,1,0,7*43
$PQGSV,1,1,03,193,10,149,,194,59,137,,195,73,046,*64
$PQGSV,1,1,0,0*43
$GPGSA,A,3,02,04,07,08,13,25,,,,,,,1.8,1.6,1.0*31
$GPVTG,236.0,T,236.0,M,75.8,N,140.3,K,A*1F
$GPDTM,P90,,0000.000022,S,00000.000001,W,0.988,W84*5A
$GPRMC,000035.00,A,2959.775554,N,12000.485609,E,75.8,236.0,230721,4.3,W,A*1D
$GPGGA,000035.00,2959.775554,N,12000.485609,E,1,06,1.6,-10.2,M,7.0,M,,*41
$GPGSV,3,1,09,02,31,298,33,04,50,246,33,07,83,118,33,08,46,206,33*7A
$GPGSV,3,2,09,13,48,029,33,20,00,000,19,23,00,000,33,25,65,042,33*7D
$GPGSV,3,3,09,27,00,000,33*45
$GLGSV,1,1,0,1*48
$GAGSV,1,1,0,7*43
$PQGSV,1,1,03,193,10,149,,194,59,137,,195,73,046,*64
$PQGSV,1,1,0,0*43
$GPGSA,A,3,02,04,07,08,13,25,,,,,,,1.8,1.6,1.0*31
$GPVTG,240.4,T,240.4,M,75.8,N,140.3,K,A*1F
$GPDTM,P90,,0000.000022,S,00000.000001,W,0.988,W84*5A
$GPRMC,000036.00,A,2959.763878,N,12000.465721,E,75.8,240.4,230721,4.3,W,A*1A
$GPGGA,000036.00,2959.763878,N,12000.465721,E,1,06,1.6,-14.2,M,7.0,M,,*47
$GPGSV,3,1,09,02,31,298,33,04,50,246,33,07,83,118,33,08,46,206,33*7A
$GPGSV,3,2,09,13,48,029,33,20,00,000,19,23,00,000,33,25,65,042,33*7D
$GPGSV,3,3,09,27,00,000,33*45
$GLGSV,1,1,0,1*48
$GAGSV,1,1,0,7*43
$PQGSV,1,1,03,193,10,149,,194,59,137,,195,73,046,*64
$PQGSV,1,1,0,0*43
$GPGSA,A,3,02,04,07,08,13,25,,,,,,,1.8,1.6,1.0*31
$GPVTG,244.8,T,244.8,M,75.8,N,140.3,K,A*1F
$GPDTM,P90,,0000.000022,S,00000.000001,W,0.988,W84*5A
$GPRMC,000037.00,A,2959.754491,N,12000.444023,E,75.8,244.8,230721,4.3,W,A*1A
$GPGGA,000037.00,2959.754491,N,12000.444023,E,1,06,1.6,-11.2,M,7.0,M,,*4A
$GPGSV,3,1,09,02,31,298,33,04,50,246,33,07,83,118,33,08,46,206,33*7A
$GPGSV,3,2,09,13,48,029,33,20,00,000,19,23,00,000,33,25,65,042,33*7D
$GPGSV,3,3,09,27,00,000,33*45
$GLGSV,1,1,0,1*48
$GAGSV,1,1,0,7*43
$PQGSV,1,1,03,193,10,149,,194,59,137,,195,73,046,*64
$PQGSV,1,1,0,0*43
$GPGSA,A,3,02,04,07,08,13,25,,,,,,,1.8,1.6,1.0*31
$GPVTG,249.3,T,249.3,M,75.7,N,140.2,K,A*11
$GPDTM,P90,,0000.000022,S,00000.000001,W,0.988,W84*5A
$GPRMC,000038.00,A,2959.746134,N,12000.422398,E,75.7,249.3,230721,4.3,W,A*16
$GPGGA,000038.00,2959.746134,N,12000.422398,E,1,06,1.6,-12.5,M,7.0,M,,*4B
$GPGSV,3,1,09,02,31,298,33,04,50,246,33,07,83,118,34,08,46,206,33*7D
$GPGSV,3,2,09,13,48,029,33,20,00,000,19,23,00,000,33,25,65,042,33*7D
$GPGSV,3,3,09,27,00,000,33*45
$GLGSV,1,1,0,1*48
$GAGSV,1,1,0,7*43
$PQGSV,1,1,03,193,10,149,,194,59,137,,195,73,046,*64
$PQGSV,1,1,0,0*43
$GPGSA,A,3,02,04,07,08,13,25,,,,,,,1.8,1.6,1.0*31
$GPVTG,253.8,T,253.8,M,75.9,N,140.5,K,A*18
$GPDTM,P90,,0000.000022,S,00000.000001,W,0.988,W84*5A
$GPRMC,000039.00,A,2959.739162,N,12000.399404,E,75.9,253.8,230721,4.3,W,A*17
$GPGGA,000039.00,2959.739162,N,12000.399404,E,1,06,1.6,-12.8,M,7.0,M,,*49
$GPGSV,3,1,09,02,31,298,33,04,50,246,33,07,83,118,33,08,46,206,33*7A
$GPGSV,3,2,09,13,48,029,33,20,00,000,19,23,00,000,33,25,65,042,33*7D
$GPGSV,3,3,09,27,00,000,24*43
$GLGSV,1,1,0,1*48
$GAGSV,1,1,0,7*43
$PQGSV,1,1,03,193,10,149,,194,59,137,,195,73,046,*64
$PQGSV,1,1,0,0*43
$GPGSA,A,3,02,04,07,08,13,25,,,,,,,1.8,1.6,1.0*31
$GPVTG,258.3,T,258.3,M,75.8,N,140.4,K,A*18
$GPDTM,P90,,0000.000022,S,00000.000001,W,0.988,W84*5A
$GPRMC,000040.00,A,2959.734193,N,12000.375533,E,75.8,258.3,230721,4.3,W,A*1C
$GPGGA,000040.00,2959.734193,N,12000.375533,E,1,06,1.6,-11.3,M,7.0,M,,*4B
$GPGSV,3,1,09,02,31,298,33,04,50,246,33,07,83,118,33,08,46,206,33*7A
$GPGSV,3,2,09,13,48,029,33,20,00,000,19,23,00,000,33,25,65,042,33*7D
$GPGSV,3,3,09,27,00,000,22*45
$GLGSV,1,1,0,1*48
$GAGSV,1,1,0,7*43
$PQGSV,1,1,03,193,10,149,,194,59,137,,195,73,046,*64
$PQGSV,1,1,0,0*43
$GPGSA,A,3,02,04,07,08,13,25,,,,,,,1.8,1.6,1.0*31
$GPVTG,262.7,T,262.7,M,75.7,N,140.2,K,A*11
$GPDTM,P90,,0000.000022,S,00000.000001,W,0.988,W84*5A
$GPRMC,000041.00,A,2959.730908,N,12000.351575,E,75.7,262.7,230721,4.3,W,A*15
$GPGGA,000041.00,2959.730908,N,12000.351575,E,1,06,1.6,-11.3,M,7.0,M,,*40
$GPGSV,3,1,09,02,31,298,33,04,50,246,33,07,83,118,33,08,46,206,33*7A
$GPGSV,3,2,09,13,48,029,33,20,00,000,19,23,00,000,33,25,65,042,33*7D
$GPGSV,3,3,09,27,00,000,21*46
$GLGSV,1,1,0,1*48
$GAGSV,1,1,0,7*43
$PQGSV,1,1,03,193,10,149,,194,59,137,,195,73,046,*64
$PQGSV,1,1,0,0*43
$GPGSA,A,3,02,04,07,08,13,25,,,,,,,1.8,1.6,1.0*31
$GPVTG,267.2,T,267.2,M,75.9,N,140.5,K,A*18
$GPDTM,P90,,0000.000022,S,00000.000001,W,0.988,W84*5A
$GPRMC,000042.00,A,2959.729008,N,12000.327281,E,75.9,267.2,230721,4.3,W,A*14
$GPGGA,000042.00,2959.729008,N,12000.327281,E,1,06,1.6,-10.5,M,7.0,M,,*48
$GPGSV,3,1,09,02,31,298,33,04,50,246,33,07,83,116,33,08,46,206,33*74
$GPGSV,3,2,09,13,48,030,33,20,00,000,19,23,00,000,33,25,65,042,33*75
$GPGSV,3,3,09,27,00,000,21*46
$GLGSV,1,1,0,1*48
$GAGSV,1,1,0,7*43
$PQGSV,1,1,03,193,10,149,,194,59,137,,195,73,046,*64
$PQGSV,1,1,0,0*43
$GPGSA,A,3,02,04,07,08,13,25,,,,,,,1.8,1.6,1.0*31
$GPVTG,271.6,T,271.6,M,75.7,N,140.2,K,A*11
$GPDTM,P90,,0000.000022,S,00000.000001,W,0.988,W84*5A
$GPRMC,000043.00,A,2959.728942,N,12000.302684,E,75.7,271.6,230721,4.3,W,A*18
$GPGGA,000043.00,2959.728942,N,12000.302684,E,1,06,1.6,-9.5,M,7.0,M,,*71
$GPGSV,3,1,09,02,31,298,33,04,50,246,33,07,83,116,33,08,46,206,33*74
$GPGSV,3,2,09,13,48,030,33,20,00,000,33,23,00,000,24,25,65,042,33*7B
$GPGSV,3,3,09,27,00,000,20*47
$GLGSV,1,1,0,1*48
$GAGSV,1,1,0,7*43
$PQGSV,1,1,03,193,10,149,,194,59,137,,195,73,046,*64
$PQGSV,1,1,0,0*43
$GPGSA,A,3,02,04,07,08,13,25,,,,,,,500.0,500.0,500.0*3B
$GPVTG,271.6,T,271.6,M,75.7,N,140.2,K,N*1E
$GPDTM,P90,,0000.000022,S,00000.000001,W,0.988,W84*5A
$GPRMC,000044.00,A,2959.728549,N,12000.278530,E,75.7,271.6,230721,4.3,W,N*17
$GPGGA,000044.00,2959.728549,N,12000.278530,E,1,06,500.0,-9.6,M,7.0,M,,*70
$GPGSV,3,1,09,02,31,298,33,04,50,246,33,07,83,116,33,08,46,206,33*74
$GPGSV,3,2,09,13,48,030,33,20,00,000,33,23,00,000,22,25,65,042,33*7D
$GPGSV,3,3,09,27,00,000,20*47
$GLGSV,1,1,0,1*48
$GAGSV,1,1,0,7*43
$PQGSV,1,1,03,193,10,149,,194,59,137,,195,73,046,*64
$PQGSV,1,1,0,0*43
$GPVTG,277.9,T,277.9,M,75.6,N,140.0,K,A*12
$GPDTM,P90,,0000.000022,S,00000.000001,W,0.988,W84*5A
$GPRMC,000045.00,A,2959.733159,N,12000.254923,E,75.6,277.9,230721,4.3,W,A*1E
$GPGGA,000045.00,2959.733159,N,12000.254923,E,1,00,1.6,-10.7,M,7.0,M,,*43
$GPGSV,3,1,09,02,31,298,33,04,50,246,33,07,83,116,33,08,46,206,33*74
$GPGSV,3,2,09,13,48,030,32,20,00,000,33,23,00,000,21,25,65,042,33*7F
$GPGSV,3,3,09,27,00,000,20*47
$GLGSV,1,1,0,1*48
$GAGSV,1,1,0,7*43
$PQGSV,1,1,03,193,10,149,,194,59,137,,195,73,046,*64
$PQGSV,1,1,0,0*43
$GPGSA,A,3,02,04,07,08,13,25,,,,,,,1.8,1.6,1.0*31
$GPVTG,282.3,T,282.3,M,75.6,N,139.9,K,A*15
$GPDTM,P90,,0000.000022,S,00000.000001,W,0.988,W84*5A
$GPRMC,000046.00,A,2959.738318,N,12000.231226,E,75.6,282.3,230721,4.3,W,A*1C
$GPGGA,000046.00,2959.738318,N,12000.231226,E,1,06,1.6,-10.7,M,7.0,M,,*47
$GPGSV,3,1,09,02,31,298,33,04,50,246,33,07,83,116,33,08,46,206,33*74
$GPGSV,3,2,09,13,48,030,33,20,00,000,33,23,00,000,21,25,65,042,33*7E
$GPGSV,3,3,09,27,00,000,19*4D
$GLGSV,1,1,0,1*48
$GAGSV,1,1,0,7*43
$PQGSV,1,1,03,193,10,149,,194,59,137,,195,73,046,*64
$PQGSV,1,1,0,0*43
$GPGSA,A,3,02,04,07,08,13,25,,,,,,,1.8,1.6,1.0*31
$GPVTG,286.8,T,286.8,M,75.6,N,140.0,K,A*12
$GPDTM,P90,,0000.000022,S,00000.000001,W,0.988,W84*5A
$GPRMC,000047.00,A,2959.744702,N,12000.208063,E,75.6,286.8,230721,4.3,W,A*1F
$GPGGA,000047.00,2959.744702,N,12000.208063,E,1,06,1.6,-9.2,M,7.0,M,,*76
$GPGSV,3,1,09,02,31,298,33,04,50,246,33,07,83,116,33,08,46,206,33*74
$GPGSV,3,2,09,13,48,030,33,20,00,000,33,23,00,000,20,25,65,042,33*7F
$GPGSV,3,3,09,27,00,000,19*4D
$GLGSV,1,1,0,1*48
$GAGSV,1,1,0,7*43
$PQGSV,1,1,03,193,10,149,,194,59,137,,195,73,046,*64
$PQGSV,1,1,0,0*43
$GPGSA,A,3,02,04,07,08,13,25,,,,,,,1.8,1.6,1.0*31
$GPVTG,293.9,T,293.9,M,75.7,N,140.2,K,A*11
$GPDTM,P90,,0000.000022,S,00000.000001,W,0.988,W84*5A
$GPRMC,000048.00,A,2959.752786,N,12000.185693,E,75.7,293.9,230721,4.3,W,A*10
$GPGGA,000048.00,2959.752786,N,12000.185693,E,1,06,1.6,-9.4,M,7.0,M,,*7B
$GPGSV,3,1,09,02,31,298,33,04,50,246,33,07,83,116,33,08,46,206,33*74
$GPGSV,3,2,09,13,48,030,33,20,00,000,33,23,00,000,20,25,65,042,33*7F
$GPGSV,3,3,09,27,00,000,19*4D
$GLGSV,1,1,0,1*48
$GAGSV,1,1,0,7*43
$PQGSV,1,1,03,193,10,149,,194,59,137,,195,73,046,*64
$PQGSV,1,1,0,0*43
$GPGSA,A,3,02,04,07,08,13,25,,,,,,,1.8,1.6,1.0*31
$GPVTG,298.4,T,298.4,M,75.8,N,140.4,K,A*18
$GPDTM,P90,,0000.000022,S,00000.000001,W,0.988,W84*5A
$GPRMC,000049.00,A,2959.762170,N,12000.164015,E,75.8,298.4,230721,4.3,W,A*13
$GPGGA,000049.00,2959.762170,N,12000.164015,E,1,06,1.6,-8.8,M,7.0,M,,*7C
$GPGSV,3,1,09,02,31,298,33,04,50,246,33,07,83,116,33,08,46,206,33*74
$GPGSV,3,2,09,13,48,030,33,20,00,000,33,23,00,000,20,25,65,042,33*7F
$GPGSV,3,3,09,27,00,000,19*4D
$GLGSV,1,1,0,1*48
$GAGSV,1,1,0,7*43
$PQGSV,1,1,03,193,10,149,,194,59,137,,195,73,046,*64
$PQGSV,1,1,0,0*43
$GPGSA,A,3,02,04,07,08,13,25,,,,,,,1.8,1.6,1.0*31
$GPVTG,302.8,T,302.8,M,75.7,N,140.3,K,A*10
$GPDTM,P90,,0000.000022,S,00000.000001,W,0.988,W84*5A
$GPRMC,000050.00,A,2959.772913,N,12000.142908,E,75.7,302.8,230721,4.3,W,A*17
$GPGGA,000050.00,2959.772913,N,12000.142908,E,1,06,1.6,-6.8,M,7.0,M,,*77
$GPGSV,3,1,09,02,31,298,33,04,50,246,33,07,83,116,33,08,46,206,33*74
$GPGSV,3,2,09,13,48,030,33,20,00,000,33,23,00,000,19,25,65,042,33*75
$GPGSV,3,3,09,27,00,000,19*4D
$GLGSV,1,1,0,1*48
$GAGSV,1,1,0,7*43
$PQGSV,1,1,03,193,10,149,,194,59,137,,195,73,046,*64
$PQGSV,1,1,0,0*43
$GPGSA,A,3,02,04,07,08,13,25,,,,,,,1.8,1.6,1.0*31
$GPVTG,307.3,T,307.3,M,75.8,N,140.5,K,A*19
$GPDTM,P90,,0000.000022,S,00000.000001,W,0.988,W84*5A
$GPRMC,000051.00,A,2959.784927,N,12000.123075,E,75.8,307.3,230721,4.3,W,A*1D
$GPGGA,000051.00,2959.784927,N,12000.123075,E,1,06,1.6,-7.3,M,7.0,M,,*76
$GPGSV,3,1,09,02,31,298,33,04,50,246,33,07,83,116,33,08,46,206,33*74
$GPGSV,3,2,09,13,48,030,33,20,00,000,33,23,00,000,19,25,65,042,33*75
$GPGSV,3,3,09,27,00,000,19*4D
$GLGSV,1,1,0,1*48
$GAGSV,1,1,0,7*43
$PQGSV,1,1,03,193,10,149,,194,59,137,,195,73,046,*64
$PQGSV,1,1,0,0*43
$GPGSA,A,3,02,04,07,08,13,25,,,,,,,1.8,1.6,1.0*31
$GPVTG,311.7,T,311.7,M,75.8,N,140.3,K,A*1F
$GPDTM,P90,,0000.000022,S,00000.000001,W,0.988,W84*5A
$GPRMC,000052.00,A,2959.798345,N,12000.104514,E,75.8,311.7,230721,4.3,W,A*19
$GPGGA,000052.00,2959.798345,N,12000.104514,E,1,06,1.6,-7.9,M,7.0,M,,*7B
$GPGSV,3,1,09,02,31,298,33,04,50,246,33,07,83,116,33,08,46,206,33*74
$GPGSV,3,2,09,13,48,030,33,20,00,000,33,23,00,000,19,25,65,042,33*75
$GPGSV,3,3,09,27,00,000,19*4D
$GLGSV,1,1,0,1*48
$GAGSV,1,1,0,7*43
$PQGSV,1,1,03,193,10,149,,194,59,137,,195,73,046,*64
$PQGSV,1,1,0,0*43
$GPGSA,A,3,02,04,07,08,13,25,,,,,,,1.8,1.6,1.0*31
$GPVTG,316.2,T,316.2,M,75.8,N,140.4,K,A*18
$GPDTM,P90,,0000.000022,S,00000.000001,W,0.988,W84*5A
$GPRMC,000053.00,A,2959.813081,N,12000.087282,E,75.8,316.2,230721,4.3,W,A*1F
$GPGGA,000053.00,2959.813081,N,12000.087282,E,1,06,1.6,-8.5,M,7.0,M,,*7C
$GPGSV,3,1,09,02,31,298,33,04,50,246,33,07,83,116,33,08,46,206,33*74
$GPGSV,3,2,09,13,48,030,33,20,00,000,33,23,00,000,19,25,65,042,33*75
$GPGSV,3,3,09,27,00,000,19*4D
$GLGSV,1,1,0,1*48
$GAGSV,1,1,0,7*43
$PQGSV,1,1,03,193,10,149,,194,59,137,,195,73,046,*64
$PQGSV,1,1,0,0*43
$GPGSA,A,3,02,04,07,08,13,25,,,,,,,1.8,1.6,1.0*31
$GPVTG,320.6,T,320.6,M,75.8,N,140.4,K,A*18
$GPDTM,P90,,0000.000022,S,00000.000001,W,0.988,W84*5A
$GPRMC,000054.00,A,2959.828716,N,12000.070875,E,75.8,320.6,230721,4.3,W,A*12
$GPGGA,000054.00,2959.828716,N,12000.070875,E,1,06,1.6,-7.9,M,7.0,M,,*73
$GPGSV,3,1,09,02,31,298,33,04,50,246,33,07,83,116,33,08,46,206,33*74
$GPGSV,3,2,09,13,48,030,33,20,00,000,33,23,00,000,19,25,65,042,33*75
$GPGSV,3,3,09,27,00,000,19*4D
$GLGSV,1,1,0,1*48
$GAGSV,1,1,0,7*43
$PQGSV,1,1,03,193,10,149,,194,59,137,,195,73,046,*64
$PQGSV,1,1,0,0*43
$GPGSA,A,3,02,04,07,08,13,25,,,,,,,1.8,1.6,1.0*31
$GPVTG,325.1,T,325.1,M,75.9,N,140.5,K,A*18
$GPDTM,P90,,0000.000022,S,00000.000001,W,0.988,W84*5A
$GPRMC,000055.00,A,2959.845462,N,12000.056206,E,75.9,325.1,230721,4.3,W,A*11
$GPGGA,000055.00,2959.845462,N,12000.056206,E,1,06,1.6,-7.1,M,7.0,M,,*7B
$GPGSV,3,1,09,02,31,298,33,04,50,246,33,07,83,116,33,08,46,206,33*74
$GPGSV,3,2,09,13,48,030,33,20,00,000,33,23,00,000,19,25,65,042,33*75
$GPGSV,3,3,09,27,00,000,19*4D
$GLGSV,1,1,0,1*48
$GAGSV,1,1,0,7*43
$PQGSV,1,1,03,193,10,149,,194,59,137,,195,73,046,*64
$PQGSV,1,1,0,0*43
$GPGSA,A,3,02,04,07,08,13,25,,,,,,,1.8,1.6,1.0*31
$GPVTG,329.6,T,329.6,M,75.8,N,140.3,K,A*1F
$GPDTM,P90,,0000.000022,S,00000.000001,W,0.988,W84*5A
$GPRMC,000056.00,A,2959.863235,N,12000.043321,E,75.8,329.6,230721,4.3,W,A*18
$GPGGA,000056.00,2959.863235,N,12000.043321,E,1,06,1.6,-7.9,M,7.0,M,,*70
$GPGSV,3,1,09,02,31,298,33,04,50,246,33,07,83,116,33,08,46,206,33*74
$GPGSV,3,2,09,13,48,030,32,20,00,000,29,23,00,000,19,25,65,042,33*7F
$GPGSV,3,3,09,27,00,000,19*4D
$GLGSV,1,1,0,1*48
$GAGSV,1,1,0,7*43
$PQGSV,1,1,03,193,10,149,,194,59,137,,195,73,046,*64
$PQGSV,1,1,0,0*43
$GPGSA,A,3,02,04,07,08,13,25,,,,,,,1.8,1.6,1.0*31
$GPVTG,334.0,T,334.0,M,75.9,N,140.5,K,A*18
$GPDTM,P90,,0000.000022,S,00000.000001,W,0.988,W84*5A
$GPRMC,000057.00,A,2959.881703,N,12000.031984,E,75.9,334.0,230721,4.3,W,A*1E
$GPGGA,000057.00,2959.881703,N,12000.031984,E,1,06,1.6,-8.1,M,7.0,M,,*7A
$GPGSV,3,1,09,02,31,298,33,04,50,246,33,07,83,116,33,08,46,206,33*74
$GPGSV,3,2,09,13,48,030,33,20,00,000,29,23,00,000,19,25,65,042,33*7E
$GPGSV,3,3,09,27,00,000,19*4D
$GLGSV,1,1,0,1*48
$GAGSV,1,1,0,7*43
$PQGSV,1,1,03,193,10,149,,194,59,137,,195,73,046,*64
$PQGSV,1,1,0,0*43
$GPGSA,A,3,02,04,07,08,13,25,,,,,,,1.8,1.6,1.0*31
$GPVTG,338.4,T,338.4,M,75.8,N,140.4,K,A*18
$GPDTM,P90,,0000.000022,S,00000.000001,W,0.988,W84*5A
$GPRMC,000058.00,A,2959.900837,N,12000.022291,E,75.8,338.4,230721,4.3,W,A*15
$GPGGA,000058.00,2959.900837,N,12000.022291,E,1,06,1.6,-8.4,M,7.0,M,,*7D
$GPGSV,3,1,09,02,31,298,33,04,50,246,33,07,83,116,33,08,46,206,32*75
$GPGSV,3,2,09,13,48,030,33,20,00,000,24,23,00,000,19,25,65,042,33*73
$GPGSV,3,3,09,27,00,000,19*4D
$GLGSV,1,1,0,1*48
$GAGSV,1,1,0,7*43
$PQGSV,1,1,03,193,10,149,,194,59,137,,195,73,046,*64
$PQGSV,1,1,0,0*43
$GPGSA,A,3,02,04,07,08,13,25,,,,,,,1.8,1.6,1.0*31
$GPVTG,342.9,T,342.9,M,75.7,N,140.3,K,A*10
$GPDTM,P90,,0000.000022,S,00000.000001,W,0.988,W84*5A
$GPRMC,000059.00,A,2959.920746,N,12000.014348,E,75.7,342.9,230721,4.3,W,A*10
$GPGGA,000059.00,2959.920746,N,12000.014348,E,1,06,1.6,-8.4,M,7.0,M,,*77
$GPGSV,3,1,09,02,31,298,33,04,50,246,33,07,83,116,33,08,46,206,33*74
$GPGSV,3,2,09,13,48,030,33,20,00,000,22,23,00,000,19,25,65,042,33*75
$GPGSV,3,3,09,27,00,000,19*4D
$GLGSV,1,1,0,1*48
$GAGSV,1,1,0,7*43
$PQGSV,1,1,03,193,10,149,,194,59,137,,195,73,046,*64
$PQGSV,1,1,0,0*43
$GPGSA,A,3,02,04,07,08,13,25,,,,,,,1.8,1.6,1.0*31
$GPVTG,347.3,T,347.3,M,75.8,N,140.5,K,A*19
$GPDTM,P90,,0000.000022,S,00000.000001,W,0.988,W84*5A
$GPRMC,000100.00,A,2959.941062,N,12000.008096,E,75.8,347.3,230721,4.3,W,A*16
$GPGGA,000100.00,2959.941062,N,12000.008096,E,1,06,1.6,-7.3,M,7.0,M,,*79
$GPGSV,3,1,09,02,31,298,33,04,50,246,33,07,83,116,33,08,46,206,33*74
$GPGSV,3,2,09,13,48,030,33,20,00,000,21,23,00,000,19,25,65,042,33*76
$GPGSV,3,3,09,27,00,000,19*4D
$GLGSV,1,1,0,1*48
$GAGSV,1,1,0,7*43
$PQGSV,1,1,03,193,10,149,,194,59,137,,195,73,046,*64
$PQGSV,1,1,0,0*43
$GPGSA,A,3,02,04,07,08,13,25,,,,,,,1.8,1.6,1.0*31
$GPVTG,351.8,T,351.8,M,75.8,N,140.4,K,A*18
$GPDTM,P90,,0000.000022,S,00000.000001,W,0.988,W84*5A
$GPRMC,000101.00,A,2959.961916,N,12000.003516,E,75.8,351.8,230721,4.3,W,A*15
$GPGGA,000101.00,2959.961916,N,12000.003516,E,1,06,1.6,-7.2,M,7.0,M,,*77
$GPGSV,3,1,09,02,31,298,32,04,50,246,33,07,83,116,33,08,46,206,33*75
$GPGSV,3,2,09,13,48,030,33,20,00,000,21,23,00,000,19,25,65,042,33*76
$GPGSV,3,3,09,27,00,000,19*4D
$GLGSV,1,1,0,1*48
$GAGSV,1,1,0,7*43
$PQGSV,1,1,03,193,10,149,,194,59,137,,195,73,046,*64
$PQGSV,1,1,0,0*43
$GPGSA,A,3,02,04,07,08,13,25,,,,,,,1.8,1.6,1.0*31
$GPVTG,356.3,T,356.3,M,75.8,N,140.4,K,A*18
$GPDTM,P90,,0000.000022,S,00000.000001,W,0.988,W84*5A
$GPRMC,000102.00,A,2959.982866,N,12000.000944,E,75.8,356.3,230721,4.3,W,A*19
$GPGGA,000102.00,2959.982866,N,12000.000944,E,1,06,1.6,-6.7,M,7.0,M,,*73
$GPGSV,3,1,09,02,31,298,33,04,50,246,33,07,83,116,33,08,46,206,33*74
$GPGSV,3,2,09,13,48,030,33,20,00,000,20,23,00,000,19,25,65,042,33*77
$GPGSV,3,3,09,27,00,000,19*4D
$GLGSV,1,1,0,1*48
$GAGSV,1,1,0,7*43
$PQGSV,1,1,03,193,10,149,,194,59,137,,195,73,046,*64
$PQGSV,1,1,0,0*43
$GPGSA,A,3,02,04,07,08,13,25,,,,,,,1.8,1.6,1.0*31
$GPVTG,0.8,T,0.8,M,75.8,N,140.4,K,A*18
$GPDTM,P90,,0000.000022,S,00000.000001,W,0.988,W84*5A
$GPRMC,000103.00,A,3000.004136,N,12000.000584,E,75.8,0.8,230721,4.3,W,A*1C
$GPGGA,000103.00,3000.004136,N,12000.000584,E,1,06,1.6,-7.1,M,7.0,M,,*7A
$GPGSV,3,1,09,02,31,298,32,04,50,246,33,07,83,116,33,08,46,206,33*75
$GPGSV,3,2,09,13,48,030,33,20,00,000,20,23,00,000,19,25,65,042,33*77
$GPGSV,3,3,09,27,00,000,19*4D
$GLGSV,1,1,0,1*48
$GAGSV,1,1,0,7*43
$PQGSV,1,1,03,193,10,149,,194,59,137,,195,73,046,*64
$PQGSV,1,1,0,0*43
$GPGSA,A,3,02,04,07,08,13,25,,,,,,,1.8,1.6,1.0*31
$GPVTG,5.2,T,5.2,M,75.8,N,140.4,K,A*18
$GPDTM,P90,,0000.000022,S,00000.000001,W,0.988,W84*5A
$GPRMC,000104.00,A,3000.025227,N,12000.001981,E,75.8,5.2,230721,4.3,W,A*1C
$GPGGA,000104.00,3000.025227,N,12000.001981,E,1,06,1.6,-7.5,M,7.0,M,,*71
$GPGSV,3,1,09,02,31,298,33,04,50,246,33,07,83,116,33,08,46,206,33*74
$GPGSV,3,2,09,13,48,030,33,20,00,000,20,23,00,000,19,25,65,042,33*77
$GPGSV,3,3,09,27,00,000,19*4D
$GLGSV,1,1,0,1*48
$GAGSV,1,1,0,7*43
$PQGSV,1,1,03,193,10,149,,194,59,137,,195,73,046,*64
$PQGSV,1,1,0,0*43
$GPGSA,A,3,02,04,07,08,13,25,,,,,,,1.8,1.6,1.0*31
$GPVTG,9.7,T,9.7,M,75.8,N,140.4,K,A*18
$GPDTM,P90,,0000.000022,S,00000.000001,W,0.988,W84*5A
$GPRMC,000105.00,A,3000.046148,N,12000.005224,E,75.8,9.7,230721,4.3,W,A*1B
$GPGGA,000105.00,3000.046148,N,12000.005224,E,1,06,1.6,-7.4,M,7.0,M,,*7E
$GPGSV,3,1,09,02,31,298,33,04,50,246,33,07,83,116,33,08,46,206,33*74
$GPGSV,3,2,09,13,48,030,32,20,00,000,19,23,00,000,19,25,65,042,33*7C
$GPGSV,3,3,09,27,00,000,33*45
$GLGSV,1,1,0,1*48
$GAGSV,1,1,0,7*43
$PQGSV,1,1,03,193,10,149,,194,59,137,,195,73,046,*64
$PQGSV,1,1,0,0*43
$GPGSA,A,3,02,04,07,08,13,25,,,,,,,1.8,1.6,1.0*31
$GPVTG,14.2,T,14.2,M,75.7,N,140.2,K,A*11
$GPDTM,P90,,0000.000022,S,00000.000001,W,0.988,W84*5A
$GPRMC,000106.00,A,3000.066763,N,12000.010129,E,75.7,14.2,230721,4.3,W,A*29
$GPGGA,000106.00,3000.066763,N,12000.010129,E,1,06,1.6,-6.9,M,7.0,M,,*76
$GPGSV,3,1,09,02,31,298,32,04,50,246,33,07,83,116,33,08,46,206,33*75
$GPGSV,3,2,09,13,48,030,33,20,00,000,19,23,00,000,19,25,65,042,33*7D
$GPGSV,3,3,09,27,00,000,33*45
$GLGSV,1,1,0,1*48
$GAGSV,1,1,0,7*43
$PQGSV,1,1,03,193,10,149,,194,59,137,,195,73,046,*64
$PQGSV,1,1,0,0*43
$GPGSA,A,3,02,04,07,08,13,25,,,,,,,1.8,1.6,1.0*31
$GPVTG,18.6,T,18.6,M,75.8,N,140.3,K,A*1F
$GPDTM,P90,,0000.000022,S,00000.000001,W,0.988,W84*5A
$GPRMC,000107.00,A,3000.086962,N,12000.016935,E,75.8,18.6,230721,4.3,W,A*2D
$GPGGA,000107.00,3000.086962,N,12000.016935,E,1,06,1.6,-6.7,M,7.0,M,,*7B
$GPGSV,3,1,09,02,31,298,33,04,50,246,33,07,83,116,33,08,46,206,33*74
$GPGSV,3,2,09,13,48,030,33,20,00,000,19,23,00,000,19,25,65,042,33*7D
$GPGSV,3,3,09,27,00,000,33*45
$GLGSV,1,1,0,1*48
$GAGSV,1,1,0,7*43
$PQGSV,1,1,03,193,10,149,,194,59,137,,195,73,046,*64
$PQGSV,1,1,0,0*43
$GPGSA,A,3,02,04,07,08,13,25,,,,,,,1.8,1.6,1.0*31
$GPVTG,23.0,T,23.0,M,75.8,N,140.4,K,A*18
$GPDTM,P90,,0000.000022,S,00000.000001,W,0.988,W84*5A
$GPRMC,000108.00,A,3000.106682,N,12000.025138,E,75.8,23.0,230721,4.3,W,A*21
$GPGGA,000108.00,3000.106682,N,12000.025138,E,1,06,1.6,-6.9,M,7.0,M,,*77
$GPGSV,3,1,09,02,31,298,33,04,50,246,33,07,83,116,33,08,46,206,33*74
$GPGSV,3,2,09,13,48,030,33,20,00,000,19,23,00,000,19,25,65,042,33*7D
$GPGSV,3,3,09,27,00,000,33*45
$GLGSV,1,1,0,1*48
$GAGSV,1,1,0,7*43
$PQGSV,1,1,03,193,10,149,,194,59,137,,195,73,046,*64
$PQGSV,1,1,0,0*43
$GPGSA,A,3,02,04,07,08,13,25,,,,,,,1.8,1.6,1.0*31
$GPVTG,27.5,T,27.5,M,75.8,N,140.4,K,A*18
$GPDTM,P90,,0000.000022,S,00000.000001,W,0.988,W84*5A
$GPRMC,000109.00,A,3000.125744,N,12000.035586,E,75.8,27.5,230721,4.3,W,A*2B
$GPGGA,000109.00,3000.125744,N,12000.035586,E,1,06,1.6,-7.3,M,7.0,M,,*77
$GPGSV,3,1,09,02,31,298,33,04,50,246,33,07,83,116,33,08,46,206,32*75
$GPGSV,3,2,09,13,48,030,33,20,00,000,19,23,00,000,32,25,65,042,33*74
$GPGSV,3,3,09,27,00,000,33*45
$GLGSV,1,1,0,1*48
$GAGSV,1,1,0,7*43
$PQGSV,1,1,03,193,10,149,,194,59,137,,195,73,046,*64
$PQGSV,1,1,0,0*43
$GPGSA,A,3,02,04,07,08,13,25,,,,,,,1.8,1.6,1.0*31
$GPVTG,32.0,T,32.0,M,75.8,N,140.3,K,A*1F
$GPDTM,P90,,0000.000022,S,00000.000001,W,0.988,W84*5A
$GPRMC,000110.00,A,3000.144248,N,12000.047438,E,75.8,32.0,230721,4.3,W,A*2D
$GPGGA,000110.00,3000.144248,N,12000.047438,E,1,06,1.6,-7.1,M,7.0,M,,*72
$GPGSV,3,1,09,02,31,298,33,04,50,246,33,07,83,116,33,08,46,206,33*74
$GPGSV,3,2,09,13,48,030,33,20,00,000,19,23,00,000,33,25,65,042,33*75
$GPGSV,3,3,09,27,00,000,33*45
$GLGSV,1,1,0,1*48
$GAGSV,1,1,0,7*43
$PQGSV,1,1,03,193,10,149,,194,59,137,,195,73,046,*64
$PQGSV,1,1,0,0*43
$GPGSA,A,3,02,04,07,08,13,25,,,,,,,1.8,1.6,1.0*31
$GPVTG,36.4,T,36.4,M,75.8,N,140.3,K,A*1F
$GPDTM,P90,,0000.000022,S,00000.000001,W,0.988,W84*5A
$GPRMC,000111.00,A,3000.161618,N,12000.060809,E,75.8,36.4,230721,4.3,W,A*21
$GPGGA,000111.00,3000.161618,N,12000.060809,E,1,06,1.6,-6.6,M,7.0,M,,*78
$GPGSV,3,1,09,02,31,298,32,04,50,246,33,07,83,116,33,08,46,206,33*75
$GPGSV,3,2,09,13,48,030,33,20,00,000,19,23,00,000,33,25,65,042,33*75
$GPGSV,3,3,09,27,00,000,33*45
$GLGSV,1,1,0,1*48
$GAGSV,1,1,0,7*43
$PQGSV,1,1,03,193,10,149,,194,59,137,,195,73,046,*64
$PQGSV,1,1,0,0*43
$GPGSA,A,3,02,04,07,08,13,25,,,,,,,1.8,1.6,1.0*31
$GPVTG,40.9,T,40.9,M,75.8,N,140.4,K,A*18
$GPDTM,P90,,0000.000022,S,00000.000001,W,0.988,W84*5A
$GPRMC,000112.00,A,3000.178083,N,12000.075853,E,75.8,40.9,230721,4.3,W,A*29
$GPGGA,000112.00,3000.178083,N,12000.075853,E,1,06,1.6,-6.5,M,7.0,M,,*7F
$GPGSV,3,1,09,02,31,298,33,04,50,246,33,07,83,116,33,08,46,206,33*74
$GPGSV,3,2,09,13,48,030,33,20,00,000,19,23,00,000,33,25,65,042,33*75
$GPGSV,3,3,09,27,00,000,33*45
$GLGSV,1,1,0,1*48
$GAGSV,1,1,0,7*43
$PQGSV,1,1,03,193,10,149,,194,59,137,,195,73,046,*64
$PQGSV,1,1,0,0*43
$GPGSA,A,3,02,04,07,08,13,25,,,,,,,1.8,1.6,1.0*31
$GPVTG,45.3,T,45.3,M,75.8,N,140.4,K,A*18
$GPDTM,P90,,0000.000022,S,00000.000001,W,0.988,W84*5A
$GPRMC,000113.00,A,3000.193246,N,12000.092570,E,75.8,45.3,230721,4.3,W,A*2C
$GPGGA,000113.00,3000.193246,N,12000.092570,E,1,06,1.6,-7.1,M,7.0,M,,*70
$GPGSV,3,1,09,02,31,298,33,04,50,246,33,07,83,116,33,08,46,206,33*74
$GPGSV,3,2,09,13,48,030,33,20,00,000,19,23,00,000,33,25,65,042,33*75
$GPGSV,3,3,09,27,00,000,33*45
$GLGSV,1,1,0,1*48
$GAGSV,1,1,0,7*43
$PQGSV,1,1,03,193,10,149,,194,59,137,,195,73,046,*64
$PQGSV,1,1,0,0*43
$GPGSA,A,3,02,04,07,08,13,25,,,,,,,1.8,1.6,1.0*31
$GPVTG,49.7,T,49.7,M,75.8,N,140.3,K,A*1F
$GPDTM,P90,,0000.000022,S,00000.000001,W,0.988,W84*5A
$GPRMC,000114.00,A,3000.207118,N,12000.110503,E,75.8,49.7,230721,4.3,W,A*2A
$GPGGA,000114.00,3000.207118,N,12000.110503,E,1,06,1.6,-7.5,M,7.0,M,,*7A
$GPGSV,3,1,09,02,31,298,33,04,50,246,33,07,83,116,33,08,46,206,33*74
$GPGSV,3,2,09,13,48,030,33,20,00,000,19,23,00,000,33,25,65,042,33*75
$GPGSV,3,3,09,27,00,000,33*45
$GLGSV,1,1,0,1*48
$GAGSV,1,1,0,7*43
$PQGSV,1,1,03,193,10,149,,194,59,137,,195,73,046,*64
$PQGSV,1,1,0,0*43
$GPGSA,A,3,02,04,07,08,13,25,,,,,,,1.8,1.6,1.0*31
$GPVTG,54.3,T,54.3,M,75.8,N,140.4,K,A*18
$GPDTM,P90,,0000.000022,S,00000.000001,W,0.988,W84*5A
$GPRMC,000115.00,A,3000.220253,N,12000.129447,E,75.8,54.3,230721,4.3,W,A*21
$GPGGA,000115.00,3000.220253,N,12000.129447,E,1,06,1.6,-7.2,M,7.0,M,,*7E
$GPGSV,3,1,09,02,31,298,33,04,50,246,33,07,83,116,33,08,46,206,33*74
$GPGSV,3,2,09,13,48,030,33,20,00,000,19,23,00,000,33,25,65,042,33*75
$GPGSV,3,3,09,27,00,000,33*45
$GLGSV,1,1,0,1*48
$GAGSV,1,1,0,7*43
$PQGSV,1,1,03,193,10,149,,194,59,137,,195,73,046,*64
$PQGSV,1,1,0,0*43
$GPGSA,A,3,02,04,07,08,13,25,,,,,,,1.8,1.6,1.0*31
$GPVTG,58.7,T,58.7,M,75.8,N,140.3,K,A*1F
$GPDTM,P90,,0000.000022,S,00000.000001,W,0.988,W84*5A
$GPRMC,000116.00,A,3000.231787,N,12000.149670,E,75.8,58.7,230721,4.3,W,A*26
$GPGGA,000116.00,3000.231787,N,12000.149670,E,1,06,1.6,-6.9,M,7.0,M,,*7B
$GPGSV,3,1,09,02,31,298,33,04,50,246,32,07,83,116,33,08,46,206,33*75
$GPGSV,3,2,09,13,48,030,33,20,00,000,19,23,00,000,33,25,65,042,33*75
$GPGSV,3,3,09,27,00,000,33*45
$GLGSV,1,1,0,1*48
$GAGSV,1,1,0,7*43
$PQGSV,1,1,03,193,10,149,,194,59,137,,195,73,046,*64
$PQGSV,1,1,0,0*43
$GPGSA,A,3,02,04,07,08,13,25,,,,,,,1.8,1.6,1.0*31
$GPVTG,63.2,T,63.2,M,75.8,N,140.4,K,A*18
$GPDTM,P90,,0000.000022,S,00000.000001,W,0.988,W84*5A
$GPRMC,000117.00,A,3000.241874,N,12000.170599,E,75.8,63.2,230721,4.3,W,A*20
$GPGGA,000117.00,3000.241874,N,12000.170599,E,1,06,1.6,-6.6,M,7.0,M,,*7F
$GPGSV,3,1,09,02,31,298,33,04,50,246,33,07,83,116,33,08,46,206,33*74
$GPGSV,3,2,09,13,48,030,33,20,00,000,19,23,00,000,33,25,65,042,33*75
$GPGSV,3,3,09,27,00,000,33*45
$GLGSV,1,1,0,1*48
$GAGSV,1,1,0,7*43
$PQGSV,1,1,03,193,10,149,,194,59,137,,195,73,046,*64
$PQGSV,1,1,0,0*43
$GPGSA,A,3,02,04,07,08,13,25,,,,,,,1.8,1.6,1.0*31
$GPVTG,67.6,T,67.6,M,75.8,N,140.3,K,A*1F
$GPDTM,P90,,0000.000022,S,00000.000001,W,0.988,W84*5A
$GPRMC,000118.00,A,3000.250626,N,12000.192530,E,75.8,67.6,230721,4.3,W,A*29
$GPGGA,000118.00,3000.250626,N,12000.192530,E,1,06,1.6,-7.0,M,7.0,M,,*71
$GPGSV,3,1,09,02,31,298,33,04,50,246,33,07,83,116,33,08,46,206,33*74
$GPGSV,3,2,09,13,48,030,33,20,00,000,19,23,00,000,33,25,65,042,33*75
$GPGSV,3,3,09,27,00,000,29*4E
$GLGSV,1,1,0,1*48
$GAGSV,1,1,0,7*43
$PQGSV,1,1,03,193,10,149,,194,59,137,,195,73,046,*64
$PQGSV,1,1,0,0*43
$GPGSA,A,3,02,04,07,08,13,25,,,,,,,1.8,1.6,1.0*31
$GPVTG,72.1,T,72.1,M,75.8,N,140.4,K,A*18
$GPDTM,P90,,0000.000022,S,00000.000001,W,0.988,W84*5A
$GPRMC,000119.00,A,3000.257801,N,12000.215400,E,75.8,72.1,230721,4.3,W,A*29
$GPGGA,000119.00,3000.257801,N,12000.215400,E,1,06,1.6,-6.5,M,7.0,M,,*76
$GPGSV,3,1,09,02,31,298,33,04,50,246,32,07,83,116,33,08,46,206,33*75
$GPGSV,3,2,09,13,48,030,33,20,00,000,19,23,00,000,33,25,65,042,33*75
$GPGSV,3,3,09,27,00,000,29*4E
$GLGSV,1,1,0,1*48
$GAGSV,1,1,0,7*43
$PQGSV,1,1,03,193,10,149,,194,59,137,,195,73,046,*64
$PQGSV,1,1,0,0*43
$GPGSA,A,3,02,04,07,08,13,25,,,,,,,1.8,1.6,1.0*31
$GPVTG,76.5,T,76.5,M,75.8,N,140.4,K,A*18
$GPDTM,P90,,0000.000022,S,00000.000001,W,0.988,W84*5A
$GPRMC,000120.00,A,3000.263174,N,12000.238688,E,75.8,76.5,230721,4.3,W,A*22
$GPGGA,000120.00,3000.263174,N,12000.238688,E,1,06,1.6,-6.6,M,7.0,M,,*7E
$GPGSV,3,1,09,02,31,298,33,04,50,246,33,07,83,116,33,08,46,206,33*74
$GPGSV,3,2,09,13,48,030,33,20,00,000,19,23,00,000,33,25,65,042,33*75
$GPGSV,3,3,09,27,00,000,24*43
$GLGSV,1,1,0,1*48
$GAGSV,1,1,0,7*43
$PQGSV,1,1,03,193,10,149,,194,59,137,,195,73,046,*64
$PQGSV,1,1,0,0*43
$GPGSA,A,3,02,04,07,08,13,25,,,,,,,1.8,1.6,1.0*31
$GPVTG,80.9,T,80.9,M,75.7,N,140.3,K,A*10
$GPDTM,P90,,0000.000022,S,00000.000001,W,0.988,W84*5A
$GPRMC,000121.00,A,3000.267293,N,12000.262519,E,75.7,80.9,230721,4.3,W,A*23
$GPGGA,000121.00,3000.267293,N,12000.262519,E,1,06,1.6,-7.2,M,7.0,M,,*70
$GPGSV,3,1,09,02,31,298,33,04,50,246,33,07,83,116,33,08,46,206,33*74
$GPGSV,3,2,09,13,48,030,33,20,00,000,19,23,00,000,33,25,65,042,33*75
$GPGSV,3,3,09,27,00,000,22*45
$GLGSV,1,1,0,1*48
$GAGSV,1,1,0,7*43
$PQGSV,1,1,03,193,10,149,,194,59,137,,195,73,046,*64
$PQGSV,1,1,0,0*43
$GPGSA,A,3,02,04,07,08,13,25,,,,,,,1.8,1.6,1.0*31
$GPVTG,85.4,T,85.4,M,75.7,N,140.2,K,A*11
$GPDTM,P90,,0000.000022,S,00000.000001,W,0.988,W84*5A
$GPRMC,000122.00,A,3000.269492,N,12000.286672,E,75.7,85.4,230721,4.3,W,A*25
$GPGGA,000122.00,3000.269492,N,12000.286672,E,1,06,1.6,-7.3,M,7.0,M,,*7F
$GPGSV,3,1,09,02,31,298,33,04,50,246,33,07,83,116,33,08,46,206,33*74
$GPGSV,3,2,09,13,48,030,33,20,00,000,19,23,00,000,30,25,65,042,33*76
$GPGSV,3,3,09,27,00,000,21*46
$GLGSV,1,1,0,1*48
$GAGSV,1,1,0,7*43
$PQGSV,1,1,03,193,10,149,,194,59,137,,195,73,046,*64
$PQGSV,1,1,0,0*43
$GPGSA,A,3,02,04,07,08,13,25,,,,,,,1.8,1.6,1.0*31
$GPVTG,89.9,T,89.9,M,75.8,N,140.4,K,A*18
$GPDTM,P90,,0000.000022,S,00000.000001,W,0.988,W84*5A
$GPRMC,000123.00,A,3000.270380,N,12000.310829,E,75.8,89.9,230721,4.3,W,A*28
$GPGGA,000123.00,3000.270380,N,12000.310829,E,1,06,1.6,-6.7,M,7.0,M,,*79
$GPGSV,3,1,09,02,31,298,33,04,50,246,33,07,83,116,33,08,46,206,33*74
$GPGSV,3,2,09,13,48,030,33,20,00,000,19,23,00,000,30,25,65,042,33*76
$GPGSV,3,3,09,27,00,000,21*46
$GLGSV,1,1,0,1*48
$GAGSV,1,1,0,7*43
$PQGSV,1,1,03,193,10,149,,194,59,137,,195,73,046,*64
$PQGSV,1,1,0,0*43
$GPGSA,A,3,02,04,07,08,13,25,,,,,,,1.8,1.6,1.0*31
$GPVTG,94.3,T,94.3,M,75.7,N,140.3,K,A*10
$GPDTM,P90,,0000.000022,S,00000.000001,W,0.988,W84*5A
$GPRMC,000124.00,A,3000.269620,N,12000.334718,E,75.7,94.3,230721,4.3,W,A*2A
$GPGGA,000124.00,3000.269620,N,12000.334718,E,1,06,1.6,-7.0,M,7.0,M,,*74
$GPGSV,3,1,09,02,31,298,33,04,50,246,33,07,83,116,33,08,46,206,33*74
$GPGSV,3,2,09,13,48,030,33,20,00,000,33,23,00,000,24,25,65,042,33*7B
$GPGSV,3,3,09,27,00,000,20*47
$GLGSV,1,1,0,1*48
$GAGSV,1,1,0,7*43
$PQGSV,1,1,03,193,10,149,,194,59,137,,195,73,046,*64
$PQGSV,1,1,0,0*43
$GPGSA,A,3,02,04,07,08,13,25,,,,,,,1.8,1.6,1.0*31
$GPVTG,98.8,T,98.8,M,75.8,N,140.4,K,A*18
$GPDTM,P90,,0000.000022,S,00000.000001,W,0.988,W84*5A
$GPRMC,000125.00,A,3000.267222,N,12000.358986,E,75.8,98.8,230721,4.3,W,A*28
$GPGGA,000125.00,3000.267222,N,12000.358986,E,1,06,1.6,-7.5,M,7.0,M,,*7B
$GPGSV,3,1,09,02,31,298,33,04,50,246,33,07,83,116,33,08,46,206,33*74
$GPGSV,3,2,09,13,48,030,33,20,00,000,33,23,00,000,22,25,65,042,33*7D
$GPGSV,3,3,09,27,00,000,20*47
$GLGSV,1,1,0,1*48
$GAGSV,1,1,0,7*43
$PQGSV,1,1,03,193,10,149,,194,59,137,,195,73,046,*64
$PQGSV,1,1,0,0*43
$GPGSA,A,3,02,04,07,08,13,25,,,,,,,1.8,1.6,1.0*31
$GPVTG,103.3,T,103.3,M,75.8,N,140.4,K,A*18
$GPDTM,P90,,0000.000022,S,00000.000001,W,0.988,W84*5A
$GPRMC,000126.00,A,3000.263339,N,12000.382792,E,75.8,103.3,230721,4.3,W,A*10
$GPGGA,000126.00,3000.263339,N,12000.382792,E,1,06,1.6,-7.0,M,7.0,M,,*7E
$GPGSV,3,1,09,02,31,298,33,04,50,246,33,07,83,116,33,08,46,206,33*74
$GPGSV,3,2,09,13,48,030,33,20,00,000,33,23,00,000,21,25,65,042,33*7E
$GPGSV,3,3,09,27,00,000,20*47
$GLGSV,1,1,0,1*48
$GAGSV,1,1,0,7*43
$PQGSV,1,1,03,193,10,149,,194,59,137,,195,73,046,*64
$PQGSV,1,1,0,0*43
$GPGSA,A,3,02,04,07,08,13,25,,,,,,,1.8,1.6,1.0*31
$GPVTG,107.4,T,107.4,M,75.6,N,140.1,K,A*13
$GPDTM,P90,,0000.000022,S,00000.000001,W,0.988,W84*5A
$GPRMC,000127.00,A,3000.257860,N,12000.405877,E,75.6,107.4,230721,4.3,W,A*10
$GPGGA,000127.00,3000.257860,N,12000.405877,E,1,06,1.6,-6.8,M,7.0,M,,*7A
$GPGSV,3,1,09,02,31,298,33,04,50,246,33,07,83,116,33,08,46,206,33*74
$GPGSV,3,2,09,13,48,030,33,20,00,000,33,23,00,000,21,25,65,042,33*7E
$GPGSV,3,3,09,27,00,000,19*4D
$GLGSV,1,1,0,1*48
$GAGSV,1,1,0,7*43
$PQGSV,1,1,03,193,10,149,,194,59,137,,195,73,046,*64
$PQGSV,1,1,0,0*43
$GPGSA,A,3,02,04,07,08,13,25,,,,,,,1.8,1.6,1.0*31
$GPVTG,112.3,T,112.3,M,75.8,N,140.5,K,A*19
$GPDTM,P90,,0000.000022,S,00000.000001,W,0.988,W84*5A
$GPRMC,000128.00,A,3000.250748,N,12000.428440,E,75.8,112.3,230721,4.3,W,A*17
$GPGGA,000128.00,3000.250748,N,12000.428440,E,1,06,1.6,-6.9,M,7.0,M,,*71
$GPGSV,3,1,09,02,31,298,33,04,50,246,33,07,83,116,33,08,46,206,33*74
$GPGSV,3,2,09,13,48,030,33,20,00,000,33,23,00,000,20,25,65,042,33*7F
$GPGSV,3,3,09,27,00,000,19*4D
$GLGSV,1,1,0,1*48
$GAGSV,1,1,0,7*43
$PQGSV,1,1,03,193,10,149,,194,59,137,,195,73,046,*64
$PQGSV,1,1,0,0*43
$GPGSA,A,3,02,04,07,08,13,25,,,,,,,1.8,1.6,1.0*31
$GPVTG,116.6,T,116.6,M,75.8,N,140.3,K,A*1F
$GPDTM,P90,,0000.000022,S,00000.000001,W,0.988,W84*5A
$GPRMC,000129.00,A,3000.242283,N,12000.450638,E,75.8,116.6,230721,4.3,W,A*14
$GPGGA,000129.00,3000.242283,N,12000.450638,E,1,06,1.6,-6.8,M,7.0,M,,*72
$GPGSV,3,1,09,02,31,298,33,04,50,246,33,07,83,116,33,08,46,206,32*75
$GPGSV,3,2,09,13,48,030,33,20,00,000,33,23,00,000,20,25,65,042,33*7F
$GPGSV,3,3,09,27,00,000,19*4D
$GLGSV,1,1,0,1*48
$GAGSV,1,1,0,7*43
$PQGSV,1,1,03,193,10,149,,194,59,137,,195,73,046,*64
$PQGSV,1,1,0,0*43
$GPGSA,A,3,02,04,07,08,13,25,,,,,,,1.8,1.6,1.0*31
$GPVTG,121.1,T,121.1,M,75.8,N,140.4,K,A*18
$GPDTM,P90,,0000.000022,S,00000.000001,W,0.988,W84*5A
$GPRMC,000130.00,A,3000.231859,N,12000.471841,E,75.8,121.1,230721,4.3,W,A*15
$GPGGA,000130.00,3000.231859,N,12000.471841,E,1,06,1.6,-7.1,M,7.0,M,,*78
$GPGSV,3,1,09,02,31,298,33,04,50,246,33,07,83,116,33,08,46,206,33*74
$GPGSV,3,2,09,13,48,030,33,20,00,000,33,23,00,000,20,25,65,042,33*7F
$GPGSV,3,3,09,27,00,000,19*4D
$GLGSV,1,1,0,1*48
$GAGSV,1,1,0,7*43
$PQGSV,1,1,03,193,10,149,,194,59,137,,195,73,046,*64
$PQGSV,1,1,0,0*43
$GPGSA,A,3,02,04,07,08,13,25,,,,,,,1.8,1.6,1.0*31
$GPVTG,125.5,T,125.5,M,75.8,N,140.3,K,A*1F
$GPDTM,P90,,0000.000022,S,00000.000001,W,0.988,W84*5A
$GPRMC,000131.00,A,3000.220315,N,12000.492169,E,75.8,125.5,230721,4.3,W,A*19
$GPGGA,000131.00,3000.220315,N,12000.492169,E,1,06,1.6,-7.0,M,7.0,M,,*75
$GPGSV,3,1,09,02,31,298,33,04,50,246,33,07,83,116,33,08,46,206,33*74
$GPGSV,3,2,09,13,48,030,33,20,00,000,33,23,00,000,19,25,65,042,33*75
$GPGSV,3,3,09,27,00,000,19*4D
$GLGSV,1,1,0,1*48
$GAGSV,1,1,0,7*43
$PQGSV,1,1,03,193,10,149,,194,59,137,,195,73,046,*64
$PQGSV,1,1,0,0*43
$GPGSA,A,3,02,04,07,08,13,25,,,,,,,1.8,1.6,1.0*31
$GPVTG,130.0,T,130.0,M,75.8,N,140.4,K,A*18
$GPDTM,P90,,0000.000022,S,00000.000001,W,0.988,W84*5A
$GPRMC,000132.00,A,3000.207309,N,12000.511166,E,75.8,130.0,230721,4.3,W,A*16
$GPGGA,000132.00,3000.207309,N,12000.511166,E,1,06,1.6,-7.4,M,7.0,M,,*7F
$GPGSV,3,1,09,02,31,298,33,04,50,246,33,07,83,116,33,08,46,206,33*74
$GPGSV,3,2,09,13,48,030,33,20,00,000,34,23,00,000,19,25,65,042,33*72
$GPGSV,3,3,09,27,00,000,19*4D
$GLGSV,1,1,0,1*48
$GAGSV,1,1,0,7*43
$PQGSV,1,1,03,193,10,149,,194,59,137,,195,73,046,*64
$PQGSV,1,1,0,0*43
$GPGSA,A,3,02,04,07,08,13,25,,,,,,,1.8,1.6,1.0*31
$GPVTG,134.5,T,134.5,M,75.8,N,140.4,K,A*18
$GPDTM,P90,,0000.000022,S,00000.000001,W,0.988,W84*5A
$GPRMC,000133.00,A,3000.193022,N,12000.529115,E,75.8,134.5,230721,4.3,W,A*1D
$GPGGA,000133.00,3000.193022,N,12000.529115,E,1,06,1.6,-7.4,M,7.0,M,,*75
$GPGSV,3,1,09,02,31,298,33,04,50,246,33,07,83,116,33,08,46,206,33*74
$GPGSV,3,2,09,13,48,030,33,20,00,000,33,23,00,000,19,25,65,042,33*75
$GPGSV,3,3,09,27,00,000,19*4D
$GLGSV,1,1,0,1*48
$GAGSV,1,1,0,7*43
$PQGSV,1,1,03,193,10,149,,194,59,137,,195,73,046,*64
$PQGSV,1,1,0,0*43
$GPGSA,A,3,02,04,07,08,13,25,,,,,,,1.8,1.6,1.0*31
$GPVTG,138.9,T,138.9,M,75.8,N,140.4,K,A*18
$GPDTM,P90,,0000.000022,S,00000.000001,W,0.988,W84*5A
$GPRMC,000134.00,A,3000.177727,N,12000.545629,E,75.8,138.9,230721,4.3,W,A*10
$GPGGA,000134.00,3000.177727,N,12000.545629,E,1,06,1.6,-7.7,M,7.0,M,,*7B
$GPGSV,2,1,08,02,31,298,33,04,50,246,33,07,83,116,33,08,46,206,33*74
$GPGSV,2,2,08,13,48,030,32,20,00,000,33,25,65,042,33,27,00,000,19*70
$GLGSV,1,1,0,1*48
$GAGSV,1,1,0,7*43
$PQGSV,1,1,03,193,10,149,,194,59,137,,195,73,046,*64
$PQGSV,1,1,0,0*43
$GPGSA,A,3,02,04,07,08,13,25,,,,,,,1.8,1.6,1.0*31
$GPVTG,143.3,T,143.3,M,75.9,N,140.6,K,A*1B
$GPDTM,P90,,0000.000022,S,00000.000001,W,0.988,W84*5A
$GPRMC,000135.00,A,3000.161308,N,12000.561028,E,75.9,143.3,230721,4.3,W,A*19
$GPGGA,000135.00,3000.161308,N,12000.561028,E,1,06,1.6,-8.1,M,7.0,M,,*7C
$GPGSV,2,1,08,02,31,298,33,04,50,246,33,07,83,116,33,08,46,206,32*75
$GPGSV,2,2,08,13,48,030,33,20,00,000,33,25,65,042,33,27,00,000,19*71
$GLGSV,1,1,0,1*48
$GAGSV,1,1,0,7*43
$PQGSV,1,1,03,193,10,149,,194,59,137,,195,73,046,*64
$PQGSV,1,1,0,0*43
$GPGSA,A,3,02,04,07,08,13,25,,,,,,,1.8,1.6,1.0*31
$GPVTG,147.9,T,147.9,M,75.8,N,140.4,K,A*18
$GPDTM,P90,,0000.000022,S,00000.000001,W,0.988,W84*5A
$GPRMC,000136.00,A,3000.144167,N,12000.574773,E,75.8,147.9,230721,4.3,W,A*14
$GPGGA,000136.00,3000.144167,N,12000.574773,E,1,06,1.6,-7.6,M,7.0,M,,*76
$GPGSV,2,1,08,02,31,298,33,04,50,246,33,07,83,116,33,08,46,206,33*74
$GPGSV,2,2,08,13,48,030,33,20,00,000,33,25,65,042,33,27,17,217,19*73
$GLGSV,1,1,0,1*48
$GAGSV,1,1,0,7*43
$PQGSV,1,1,03,193,10,149,,194,59,137,,195,73,046,*64
$PQGSV,1,1,0,0*43
$GPGSA,A,3,02,04,07,08,13,25,,,,,,,1.8,1.6,1.0*31
$GPVTG,152.3,T,152.3,M,75.9,N,140.5,K,A*18
$GPDTM,P90,,0000.000022,S,00000.000001,W,0.988,W84*5A
$GPRMC,000137.00,A,3000.125795,N,12000.586813,E,75.9,152.3,230721,4.3,W,A*12
$GPGGA,000137.00,3000.125795,N,12000.586813,E,1,06,1.6,-7.1,M,7.0,M,,*78
$GPGSV,2,1,08,02,31,298,33,04,50,246,33,07,83,116,33,08,46,206,33*74
$GPGSV,2,2,08,13,48,030,33,20,00,000,33,25,65,042,33,27,17,217,19*73
$GLGSV,1,1,0,1*48
$GAGSV,1,1,0,7*43
$PQGSV,1,1,03,193,10,149,,194,59,137,,195,73,046,*64
$PQGSV,1,1,0,0*43
$GPGSA,A,3,02,04,07,08,13,25,,,,,,,1.8,1.6,1.0*31
$GPVTG,156.7,T,156.7,M,75.8,N,140.4,K,A*18
$GPDTM,P90,,0000.000022,S,00000.000001,W,0.988,W84*5A
$GPRMC,000138.00,A,3000.106516,N,12000.597006,E,75.8,156.7,230721,4.3,W,A*18
$GPGGA,000138.00,3000.106516,N,12000.597006,E,1,06,1.6,-7.3,M,7.0,M,,*71
$GPGSV,2,1,08,02,31,298,33,04,50,246,33,07,83,116,33,08,46,206,32*75
$GPGSV,2,2,08,13,48,030,33,20,00,000,24,25,65,042,33,27,17,217,19*75
$GLGSV,1,1,0,1*48
$GAGSV,1,1,0,7*43
$PQGSV,1,1,03,193,10,149,,194,59,137,,195,73,046,*64
$PQGSV,1,1,0,0*43
$GPGSA,A,3,02,04,07,08,13,25,,,,,,,1.8,1.6,1.0*31
$GPVTG,161.2,T,161.2,M,75.8,N,140.4,K,A*18
$GPDTM,P90,,0000.000022,S,00000.000001,W,0.988,W84*5A
$GPRMC,000139.00,A,3000.086888,N,12000.605653,E,75.8,161.2,230721,4.3,W,A*15
$GPGGA,000139.00,3000.086888,N,12000.605653,E,1,06,1.6,-6.6,M,7.0,M,,*79
$GPGSV,2,1,08,02,31,298,33,04,50,246,33,07,83,116,33,08,46,206,33*74
$GPGSV,2,2,08,13,48,030,33,20,00,000,22,25,65,042,32,27,17,217,19*72
$GLGSV,1,1,0,1*48
$GAGSV,1,1,0,7*43
$PQGSV,1,1,03,193,10,149,,194,59,137,,195,73,046,*64
$PQGSV,1,1,0,0*43
$GPGSA,A,3,02,04,07,08,13,25,,,,,,,1.8,1.6,1.0*31
$GPVTG,165.7,T,165.7,M,75.8,N,140.4,K,A*18
$GPDTM,P90,,0000.000022,S,00000.000001,W,0.988,W84*5A
$GPRMC,000140.00,A,3000.066968,N,12000.612269,E,75.8,165.7,230721,4.3,W,A*10
$GPGGA,000140.00,3000.066968,N,12000.612269,E,1,06,1.6,-6.5,M,7.0,M,,*7E
$GPGSV,2,1,08,02,31,298,33,04,50,246,33,07,83,116,33,08,46,206,33*74
$GPGSV,2,2,08,13,48,030,33,20,00,000,21,25,65,042,33,27,17,217,19*70
$GLGSV,1,1,0,1*48
$GAGSV,1,1,0,7*43
$PQGSV,1,1,03,193,10,149,,194,59,137,,195,73,046,*64
$PQGSV,1,1,0,0*43
$GPGSA,A,3,02,04,07,08,13,25,,,,,,,1.8,1.6,1.0*31
$GPVTG,170.1,T,170.1,M,75.9,N,140.5,K,A*18
$GPDTM,P90,,0000.000022,S,00000.000001,W,0.988,W84*5A
$GPRMC,000141.00,A,3000.046495,N,12000.617228,E,75.9,170.1,230721,4.3,W,A*1F
$GPGGA,000141.00,3000.046495,N,12000.617228,E,1,06,1.6,-6.2,M,7.0,M,,*75
$GPGSV,2,1,08,02,31,298,33,04,50,246,33,07,83,116,33,08,46,206,33*74
$GPGSV,2,2,08,13,48,030,33,20,00,000,21,25,65,042,33,27,17,217,19*70
$GLGSV,1,1,0,1*48
$GAGSV,1,1,0,7*43
$PQGSV,1,1,03,193,10,149,,194,59,137,,195,73,046,*64
$PQGSV,1,1,0,0*43
