$GPRMC,000214,A,3128.00000,N,12118.00000,E,0.000,0.000,200720,0.000,E,A,V*62

$GPRMC,000215,A,3128.00000,N,12118.00000,E,0.000,0.000,200720,0.000,E,A,V*63

$GPRMC,000216,A,3128.00000,N,12118.00000,E,0.000,0.000,200720,0.000,E,A,V*60

$GPRMC,000217,A,3128.00000,N,12118.00000,E,0.000,0.000,200720,0.000,E,A,V*61

$GPRMC,000218,A,3128.00000,N,12118.00000,E,0.000,0.000,200720,0.000,E,A,V*6E

$GPRMC,000219,A,3128.00000,N,12118.00000,E,0.000,0.000,200720,0.000,E,A,V*6F

$GPRMC,000220,A,3128.00000,N,12118.00000,E,0.000,0.000,200720,0.000,E,A,V*65

$GPRMC,000221,A,3128.00000,N,12118.00000,E,0.000,0.000,200720,0.000,E,A,V*64

$GPRMC,000222,A,3128.00000,N,12118.00000,E,0.000,0.000,200720,0.000,E,A,V*67

$GPRMC,000223,A,3128.00000,N,12118.00000,E,0.000,0.000,200720,0.000,E,A,V*66

$GPRMC,000224,A,3128.00000,N,12118.00000,E,0.000,0.000,200720,0.000,E,A,V*61

$GPRMC,000225,A,3128.00000,N,12118.00000,E,0.000,0.000,200720,0.000,E,A,V*60

$GPRMC,000226,A,3128.00000,N,12118.00000,E,0.000,0.000,200720,0.000,E,A,V*63

$GPRMC,000227,A,3128.00000,N,12118.00000,E,0.000,0.000,200720,0.000,E,A,V*62

$GPRMC,000228,A,3128.00000,N,12118.00000,E,0.000,0.000,200720,0.000,E,A,V*6D

$GPRMC,000229,A,3128.00000,N,12118.00000,E,0.000,0.000,200720,0.000,E,A,V*6C

$GPRMC,000230,A,3128.00000,N,12118.00000,E,0.000,0.000,200720,0.000,E,A,V*64

$GPRMC,000231,A,3128.00000,N,12118.00000,E,0.000,0.000,200720,0.000,E,A,V*65

$GPRMC,000232,A,3128.00000,N,12118.00000,E,0.000,0.000,200720,0.000,E,A,V*66

$GPRMC,000233,A,3128.00000,N,12118.00000,E,0.000,0.000,200720,0.000,E,A,V*67

$GPRMC,000234,A,3128.00000,N,12118.00000,E,0.000,0.000,200720,0.000,E,A,V*60

$GPRMC,000235,A,3128.00000,N,12118.00000,E,0.000,0.000,200720,0.000,E,A,V*61

$GPRMC,000236,A,3128.00000,N,12118.00000,E,0.000,0.000,200720,0.000,E,A,V*62

$GPRMC,000237,A,3128.00000,N,12118.00000,E,0.000,0.000,200720,0.000,E,A,V*63

$GPRMC,000238,A,3128.00000,N,12118.00000,E,0.000,0.000,200720,0.000,E,A,V*6C

$GPRMC,000239,A,3128.00000,N,12118.00000,E,0.000,0.000,200720,0.000,E,A,V*6D

$GPRMC,000240,A,3128.00000,N,12118.00000,E,0.000,0.000,200720,0.000,E,A,V*63

$GPRMC,000241,A,3128.00000,N,12118.00000,E,0.000,0.000,200720,0.000,E,A,V*62

$GPRMC,000242,A,3128.00000,N,12118.00000,E,0.000,0.000,200720,0.000,E,A,V*61

$GPRMC,000243,A,3128.00000,N,12118.00000,E,0.000,0.000,200720,0.000,E,A,V*60

$GPRMC,000244,A,3128.00000,N,12118.00000,E,0.000,0.000,200720,0.000,E,A,V*67

$GPRMC,000245,A,3128.00000,N,12118.00000,E,0.000,0.000,200720,0.000,E,A,V*66

$GPRMC,000246,A,3128.00000,N,12118.00000,E,0.000,0.000,200720,0.000,E,A,V*65

$GPRMC,000247,A,3128.00000,N,12118.00000,E,0.000,0.000,200720,0.000,E,A,V*64

$GPRMC,000248,A,3128.00000,N,12118.00000,E,0.000,0.000,200720,0.000,E,A,V*6B

$GPRMC,000249,A,3128.00000,N,12118.00000,E,0.000,0.000,200720,0.000,E,A,V*6A

$GPRMC,000250,A,3128.00000,N,12118.00000,E,0.000,0.000,200720,0.000,E,A,V*62

$GPRMC,000251,A,3128.00000,N,12118.00000,E,0.000,0.000,200720,0.000,E,A,V*63

$GPRMC,000252,A,3128.00000,N,12118.00000,E,0.000,0.000,200720,0.000,E,A,V*60

$GPRMC,000253,A,3128.00000,N,12118.00000,E,0.000,0.000,200720,0.000,E,A,V*61

$GPRMC,000254,A,3128.00000,N,12118.00000,E,0.000,0.000,200720,0.000,E,A,V*66

$GPRMC,000255,A,3128.00000,N,12118.00000,E,0.000,0.000,200720,0.000,E,A,V*67

$GPRMC,000256,A,3128.00000,N,12118.00000,E,0.000,0.000,200720,0.000,E,A,V*64

$GPRMC,000257,A,3128.00000,N,12118.00000,E,0.000,0.000,200720,0.000,E,A,V*65

$GPRMC,000258,A,3128.00000,N,12118.00000,E,0.000,0.000,200720,0.000,E,A,V*6A

$GPRMC,000259,A,3128.00000,N,12118.00000,E,0.000,0.000,200720,0.000,E,A,V*6B

$GPRMC,000300,A,3128.00000,N,12118.00000,E,0.000,0.000,200720,0.000,E,A,V*66

$GPRMC,000301,A,3128.00000,N,12118.00000,E,0.000,0.000,200720,0.000,E,A,V*67

$GPRMC,000302,A,3128.00000,N,12118.00000,E,0.000,0.000,200720,0.000,E,A,V*64

$GPRMC,000303,A,3128.00000,N,12118.00000,E,0.000,0.000,200720,0.000,E,A,V*65

$GPRMC,000304,A,3128.00000,N,12118.00000,E,0.000,0.000,200720,0.000,E,A,V*62

$GPRMC,000305,A,3128.00000,N,12118.00000,E,0.000,0.000,200720,0.000,E,A,V*63

$GPRMC,000306,A,3128.00000,N,12118.00000,E,0.000,0.000,200720,0.000,E,A,V*60

$GPRMC,000307,A,3128.00000,N,12118.00000,E,0.000,0.000,200720,0.000,E,A,V*61

$GPRMC,000308,A,3128.00000,N,12118.00000,E,0.000,0.000,200720,0.000,E,A,V*6E

$GPRMC,000309,A,3128.00000,N,12118.00000,E,0.000,0.000,200720,0.000,E,A,V*6F

$GPRMC,000310,A,3128.00000,N,12118.00000,E,0.000,0.000,200720,0.000,E,A,V*67

$GPRMC,000311,A,3128.00000,N,12118.00000,E,0.000,0.000,200720,0.000,E,A,V*66

$GPRMC,000312,A,3128.00000,N,12118.00000,E,0.000,0.000,200720,0.000,E,A,V*65

$GPRMC,000313,A,3128.00000,N,12118.00000,E,0.000,0.000,200720,0.000,E,A,V*64

$GPRMC,000314,A,3128.00000,N,12118.00000,E,0.000,0.000,200720,0.000,E,A,V*63

$GPRMC,000315,A,3128.00000,N,12118.00000,E,0.000,0.000,200720,0.000,E,A,V*62

$GPRMC,000316,A,3128.00000,N,12118.00000,E,0.000,0.000,200720,0.000,E,A,V*61

$GPRMC,000317,A,3128.00000,N,12118.00000,E,0.000,0.000,200720,0.000,E,A,V*60

$GPRMC,000318,A,3128.00000,N,12118.00000,E,0.000,0.000,200720,0.000,E,A,V*6F

$GPRMC,000319,A,3128.00000,N,12118.00000,E,0.000,0.000,200720,0.000,E,A,V*6E

$GPRMC,000320,A,3128.00000,N,12118.00000,E,0.000,0.000,200720,0.000,E,A,V*64

$GPRMC,000321,A,3128.00000,N,12118.00000,E,0.000,0.000,200720,0.000,E,A,V*65

$GPRMC,000322,A,3128.00000,N,12118.00000,E,0.000,0.000,200720,0.000,E,A,V*66

$GPRMC,000323,A,3128.00000,N,12118.00000,E,0.000,0.000,200720,0.000,E,A,V*67

$GPRMC,000324,A,3128.00000,N,12118.00000,E,0.000,0.000,200720,0.000,E,A,V*60

$GPRMC,000325,A,3128.00000,N,12118.00000,E,0.000,0.000,200720,0.000,E,A,V*61

$GPRMC,000326,A,3128.00000,N,12118.00000,E,0.000,0.000,200720,0.000,E,A,V*62

$GPRMC,000327,A,3128.00000,N,12118.00000,E,0.000,0.000,200720,0.000,E,A,V*63

$GPRMC,000328,A,3128.00000,N,12118.00000,E,0.000,0.000,200720,0.000,E,A,V*6C

$GPRMC,000329,A,3128.00000,N,12118.00000,E,0.000,0.000,200720,0.000,E,A,V*6D

$GPRMC,000330,A,3128.00000,N,12118.00000,E,0.000,0.000,200720,0.000,E,A,V*65

$GPRMC,000331,A,3128.00000,N,12118.00000,E,0.000,0.000,200720,0.000,E,A,V*64

$GPRMC,000332,A,3128.00000,N,12118.00000,E,0.000,0.000,200720,0.000,E,A,V*67

$GPRMC,000333,A,3128.00000,N,12118.00000,E,0.000,0.000,200720,0.000,E,A,V*66

$GPRMC,000334,A,3128.00000,N,12118.00000,E,0.000,0.000,200720,0.000,E,A,V*61

$GPRMC,000335,A,3128.00000,N,12118.00000,E,0.000,0.000,200720,0.000,E,A,V*60

$GPRMC,000336,A,3128.00000,N,12118.00000,E,0.000,0.000,200720,0.000,E,A,V*63

$GPRMC,000337,A,3128.00000,N,12118.00000,E,0.000,0.000,200720,0.000,E,A,V*62

$GPRMC,000338,A,3128.00000,N,12118.00000,E,0.000,0.000,200720,0.000,E,A,V*6D

$GPRMC,000339,A,3128.00000,N,12118.00000,E,0.000,0.000,200720,0.000,E,A,V*6C

$GPRMC,000340,A,3128.00000,N,12118.00000,E,0.000,0.000,200720,0.000,E,A,V*62

$GPRMC,000341,A,3128.00000,N,12118.00000,E,0.000,0.000,200720,0.000,E,A,V*63

$GPRMC,000342,A,3128.00000,N,12118.00000,E,0.000,0.000,200720,0.000,E,A,V*60

$GPRMC,000343,A,3128.00000,N,12118.00000,E,0.000,0.000,200720,0.000,E,A,V*61

$GPRMC,000344,A,3128.00000,N,12118.00000,E,0.000,0.000,200720,0.000,E,A,V*66

$GPRMC,000345,A,3128.00000,N,12118.00000,E,0.000,0.000,200720,0.000,E,A,V*67

$GPRMC,000346,A,3128.00000,N,12118.00000,E,0.000,0.000,200720,0.000,E,A,V*64

$GPRMC,000347,A,3128.00000,N,12118.00000,E,0.000,0.000,200720,0.000,E,A,V*65

$GPRMC,000348,A,3128.00000,N,12118.00000,E,0.000,0.000,200720,0.000,E,A,V*6A

$GPRMC,000349,A,3128.00000,N,12118.00000,E,0.000,0.000,200720,0.000,E,A,V*6B

$GPRMC,000350,A,3128.00000,N,12118.00000,E,0.000,0.000,200720,0.000,E,A,V*63

$GPRMC,000351,A,3128.00000,N,12118.00000,E,0.000,0.000,200720,0.000,E,A,V*62

$GPRMC,000352,A,3128.00000,N,12118.00000,E,0.000,0.000,200720,0.000,E,A,V*61

$GPRMC,000353,A,3128.00000,N,12118.00000,E,0.000,0.000,200720,0.000,E,A,V*60

$GPRMC,000354,A,3128.00000,N,12118.00000,E,0.000,0.000,200720,0.000,E,A,V*67

$GPRMC,000355,A,3128.00000,N,12118.00000,E,0.000,0.000,200720,0.000,E,A,V*66

$GPRMC,000356,A,3128.00000,N,12118.00000,E,0.000,0.000,200720,0.000,E,A,V*65

$GPRMC,000357,A,3128.00000,N,12118.00000,E,0.000,0.000,200720,0.000,E,A,V*64

$GPRMC,000358,A,3128.00000,N,12118.00000,E,0.000,0.000,200720,0.000,E,A,V*6B

$GPRMC,000359,A,3128.00000,N,12118.00000,E,0.000,0.000,200720,0.000,E,A,V*6A

$GPRMC,000400,A,3128.00000,N,12118.00000,E,0.000,0.000,200720,0.000,E,A,V*61

$GPRMC,000401,A,3128.00000,N,12118.00000,E,0.000,0.000,200720,0.000,E,A,V*60

$GPRMC,000402,A,3128.00000,N,12118.00000,E,0.000,0.000,200720,0.000,E,A,V*63

$GPRMC,000403,A,3128.00000,N,12118.00000,E,0.000,0.000,200720,0.000,E,A,V*62

$GPRMC,000404,A,3128.00000,N,12118.00000,E,0.000,0.000,200720,0.000,E,A,V*65

$GPRMC,000405,A,3128.00000,N,12118.00000,E,0.000,0.000,200720,0.000,E,A,V*64

$GPRMC,000406,A,3128.00000,N,12118.00000,E,0.000,0.000,200720,0.000,E,A,V*67

$GPRMC,000407,A,3128.00000,N,12118.00000,E,0.000,0.000,200720,0.000,E,A,V*66

$GPRMC,000408,A,3128.00000,N,12118.00000,E,0.000,0.000,200720,0.000,E,A,V*69

$GPRMC,000409,A,3128.00000,N,12118.00000,E,0.000,0.000,200720,0.000,E,A,V*68

$GPRMC,000410,A,3128.00000,N,12118.00000,E,0.000,0.000,200720,0.000,E,A,V*60

$GPRMC,000411,A,3128.00000,N,12118.00000,E,0.000,0.000,200720,0.000,E,A,V*61

$GPRMC,000412,A,3128.00000,N,12118.00000,E,0.000,0.000,200720,0.000,E,A,V*62

$GPRMC,000413,A,3128.00000,N,12118.00000,E,0.000,0.000,200720,0.000,E,A,V*63

$GPRMC,000414,A,3128.00000,N,12118.00000,E,0.000,0.000,200720,0.000,E,A,V*64

$GPRMC,000415,A,3128.00000,N,12118.00000,E,0.000,0.000,200720,0.000,E,A,V*65

$GPRMC,000416,A,3128.00000,N,12118.00000,E,0.000,0.000,200720,0.000,E,A,V*66

$GPRMC,000417,A,3128.00000,N,12118.00000,E,0.000,0.000,200720,0.000,E,A,V*67

$GPRMC,000418,A,3128.00000,N,12118.00000,E,0.000,0.000,200720,0.000,E,A,V*68

$GPRMC,000419,A,3128.00000,N,12118.00000,E,0.000,0.000,200720,0.000,E,A,V*69

$GPRMC,000420,A,3128.00000,N,12118.00000,E,0.000,0.000,200720,0.000,E,A,V*63

$GPRMC,000421,A,3128.00000,N,12118.00000,E,0.000,0.000,200720,0.000,E,A,V*62

$GPRMC,000422,A,3128.00000,N,12118.00000,E,0.000,0.000,200720,0.000,E,A,V*61

$GPRMC,000423,A,3128.00000,N,12118.00000,E,0.000,0.000,200720,0.000,E,A,V*60

$GPRMC,000424,A,3128.00000,N,12118.00000,E,0.000,0.000,200720,0.000,E,A,V*67

$GPRMC,000425,A,3128.00000,N,12118.00000,E,0.000,0.000,200720,0.000,E,A,V*66

$GPRMC,000426,A,3128.00000,N,12118.00000,E,0.000,0.000,200720,0.000,E,A,V*65

$GPRMC,000427,A,3128.00000,N,12118.00000,E,0.000,0.000,200720,0.000,E,A,V*64

$GPRMC,000428,A,3128.00000,N,12118.00000,E,0.000,0.000,200720,0.000,E,A,V*6B

$GPRMC,000429,A,3128.00000,N,12118.00000,E,0.000,0.000,200720,0.000,E,A,V*6A

$GPRMC,000430,A,3128.00000,N,12118.00000,E,0.000,0.000,200720,0.000,E,A,V*62

$GPRMC,000431,A,3128.00000,N,12118.00000,E,0.000,0.000,200720,0.000,E,A,V*63

$GPRMC,000432,A,3128.00000,N,12118.00000,E,0.000,0.000,200720,0.000,E,A,V*60

$GPRMC,000433,A,3128.00000,N,12118.00000,E,0.000,0.000,200720,0.000,E,A,V*61

$GPRMC,000434,A,3128.00000,N,12118.00000,E,0.000,0.000,200720,0.000,E,A,V*66

$GPRMC,000435,A,3128.00000,N,12118.00000,E,0.000,0.000,200720,0.000,E,A,V*67

$GPRMC,000436,A,3128.00000,N,12118.00000,E,0.000,0.000,200720,0.000,E,A,V*64

$GPRMC,000437,A,3128.00000,N,12118.00000,E,0.000,0.000,200720,0.000,E,A,V*65

$GPRMC,000438,A,3128.00000,N,12118.00000,E,0.000,0.000,200720,0.000,E,A,V*6A

$GPRMC,000439,A,3128.00000,N,12118.00000,E,0.000,0.000,200720,0.000,E,A,V*6B

$GPRMC,000440,A,3128.00000,N,12118.00000,E,0.000,0.000,200720,0.000,E,A,V*65

$GPRMC,000441,A,3128.00000,N,12118.00000,E,0.000,0.000,200720,0.000,E,A,V*64

$GPRMC,000442,A,3128.00000,N,12118.00000,E,0.000,0.000,200720,0.000,E,A,V*67

$GPRMC,000443,A,3128.00000,N,12118.00000,E,0.000,0.000,200720,0.000,E,A,V*66

$GPRMC,000444,A,3128.00000,N,12118.00000,E,0.000,0.000,200720,0.000,E,A,V*61

$GPRMC,000445,A,3128.00000,N,12118.00000,E,0.000,0.000,200720,0.000,E,A,V*60

$GPRMC,000446,A,3128.00000,N,12118.00000,E,0.000,0.000,200720,0.000,E,A,V*63

$GPRMC,000447,A,3128.00000,N,12118.00000,E,0.000,0.000,200720,0.000,E,A,V*62

$GPRMC,000448,A,3128.00000,N,12118.00000,E,0.000,0.000,200720,0.000,E,A,V*6D

$GPRMC,000449,A,3128.00000,N,12118.00000,E,0.000,0.000,200720,0.000,E,A,V*6C

$GPRMC,000450,A,3128.00000,N,12118.00000,E,0.000,0.000,200720,0.000,E,A,V*64

$GPRMC,000451,A,3128.00000,N,12118.00000,E,0.000,0.000,200720,0.000,E,A,V*65

$GPRMC,000452,A,3128.00000,N,12118.00000,E,0.000,0.000,200720,0.000,E,A,V*66

$GPRMC,000453,A,3128.00000,N,12118.00000,E,0.000,0.000,200720,0.000,E,A,V*67

$GPRMC,000454,A,3128.00000,N,12118.00000,E,0.000,0.000,200720,0.000,E,A,V*60

$GPRMC,000455,A,3128.00000,N,12118.00000,E,0.000,0.000,200720,0.000,E,A,V*61

$GPRMC,000456,A,3128.00000,N,12118.00000,E,0.000,0.000,200720,0.000,E,A,V*62

$GPRMC,000457,A,3128.00000,N,12118.00000,E,0.000,0.000,200720,0.000,E,A,V*63

$GPRMC,000458,A,3128.00000,N,12118.00000,E,0.000,0.000,200720,0.000,E,A,V*6C

$GPRMC,000459,A,3128.00000,N,12118.00000,E,0.000,0.000,200720,0.000,E,A,V*6D

$GPRMC,000500,A,3128.00000,N,12118.00000,E,0.000,0.000,200720,0.000,E,A,V*60

$GPRMC,000501,A,3128.00000,N,12118.00000,E,0.000,0.000,200720,0.000,E,A,V*61

$GPRMC,000502,A,3128.00000,N,12118.00000,E,0.000,0.000,200720,0.000,E,A,V*62

$GPRMC,000503,A,3128.00000,N,12118.00000,E,0.000,0.000,200720,0.000,E,A,V*63

$GPRMC,000504,A,3128.00000,N,12118.00000,E,0.000,0.000,200720,0.000,E,A,V*64

$GPRMC,000505,A,3128.00000,N,12118.00000,E,0.000,0.000,200720,0.000,E,A,V*65

$GPRMC,000506,A,3128.00000,N,12118.00000,E,0.000,0.000,200720,0.000,E,A,V*66

$GPRMC,000507,A,3128.00000,N,12118.00000,E,0.000,0.000,200720,0.000,E,A,V*67

$GPRMC,000508,A,3128.00000,N,12118.00000,E,0.000,0.000,200720,0.000,E,A,V*68

$GPRMC,000509,A,3128.00000,N,12118.00000,E,0.000,0.000,200720,0.000,E,A,V*69

$GPRMC,000510,A,3128.00000,N,12118.00000,E,0.000,0.000,200720,0.000,E,A,V*61

$GPRMC,000511,A,3128.00000,N,12118.00000,E,0.000,0.000,200720,0.000,E,A,V*60

$GPRMC,000512,A,3128.00000,N,12118.00000,E,0.000,0.000,200720,0.000,E,A,V*63

$GPRMC,000513,A,3128.00000,N,12118.00000,E,0.000,0.000,200720,0.000,E,A,V*62

$GPRMC,000514,A,3128.00000,N,12118.00000,E,0.000,0.000,200720,0.000,E,A,V*65

$GPRMC,000515,A,3128.00000,N,12118.00000,E,0.000,0.000,200720,0.000,E,A,V*64

$GPRMC,000516,A,3128.00000,N,12118.00000,E,0.000,0.000,200720,0.000,E,A,V*67

$GPRMC,000517,A,3128.00000,N,12118.00000,E,0.000,0.000,200720,0.000,E,A,V*66

$GPRMC,000518,A,3128.00000,N,12118.00000,E,0.000,0.000,200720,0.000,E,A,V*69

$GPRMC,000519,A,3128.00000,N,12118.00000,E,0.000,0.000,200720,0.000,E,A,V*68

$GPRMC,000520,A,3128.00000,N,12118.00000,E,0.000,0.000,200720,0.000,E,A,V*62

$GPRMC,000521,A,3128.00000,N,12118.00000,E,0.000,0.000,200720,0.000,E,A,V*63

$GPRMC,000522,A,3128.00000,N,12118.00000,E,0.000,0.000,200720,0.000,E,A,V*60

$GPRMC,000523,A,3128.00000,N,12118.00000,E,0.000,0.000,200720,0.000,E,A,V*61

$GPRMC,000524,A,3128.00000,N,12118.00000,E,0.000,0.000,200720,0.000,E,A,V*66

$GPRMC,000525,A,3128.00000,N,12118.00000,E,0.000,0.000,200720,0.000,E,A,V*67

$GPRMC,000526,A,3128.00000,N,12118.00000,E,0.000,0.000,200720,0.000,E,A,V*64

$GPRMC,000527,A,3128.00000,N,12118.00000,E,0.000,0.000,200720,0.000,E,A,V*65

$GPRMC,000528,A,3128.00000,N,12118.00000,E,0.000,0.000,200720,0.000,E,A,V*6A

$GPRMC,000529,A,3128.00000,N,12118.00000,E,0.000,0.000,200720,0.000,E,A,V*6B

$GPRMC,000530,A,3128.00000,N,12118.00000,E,0.000,0.000,200720,0.000,E,A,V*63

$GPRMC,000531,A,3128.00000,N,12118.00000,E,0.000,0.000,200720,0.000,E,A,V*62

$GPRMC,000532,A,3128.00000,N,12118.00000,E,0.000,0.000,200720,0.000,E,A,V*61

$GPRMC,000533,A,3128.00000,N,12118.00000,E,0.000,0.000,200720,0.000,E,A,V*60

$GPRMC,000534,A,3128.00000,N,12118.00000,E,0.000,0.000,200720,0.000,E,A,V*67

$GPRMC,000535,A,3128.00000,N,12118.00000,E,0.000,0.000,200720,0.000,E,A,V*66

$GPRMC,000536,A,3128.00000,N,12118.00000,E,0.000,0.000,200720,0.000,E,A,V*65

$GPRMC,000537,A,3128.00000,N,12118.00000,E,0.000,0.000,200720,0.000,E,A,V*64

$GPRMC,000538,A,3128.00000,N,12118.00000,E,0.000,0.000,200720,0.000,E,A,V*6B

$GPRMC,000539,A,3128.00000,N,12118.00000,E,0.000,0.000,200720,0.000,E,A,V*6A

$GPRMC,000540,A,3128.00000,N,12118.00000,E,0.000,0.000,200720,0.000,E,A,V*64

$GPRMC,000541,A,3128.00000,N,12118.00000,E,0.000,0.000,200720,0.000,E,A,V*65

$GPRMC,000542,A,3128.00000,N,12118.00000,E,0.000,0.000,200720,0.000,E,A,V*66

$GPRMC,000543,A,3128.00000,N,12118.00000,E,0.000,0.000,200720,0.000,E,A,V*67

$GPRMC,000544,A,3128.00000,N,12118.00000,E,0.000,0.000,200720,0.000,E,A,V*60

$GPRMC,000545,A,3128.00000,N,12118.00000,E,0.000,0.000,200720,0.000,E,A,V*61

$GPRMC,000546,A,3128.00000,N,12118.00000,E,0.000,0.000,200720,0.000,E,A,V*62

$GPRMC,000547,A,3128.00000,N,12118.00000,E,0.000,0.000,200720,0.000,E,A,V*63

$GPRMC,000548,A,3128.00000,N,12118.00000,E,0.000,0.000,200720,0.000,E,A,V*6C

$GPRMC,000549,A,3128.00000,N,12118.00000,E,0.000,0.000,200720,0.000,E,A,V*6D

$GPRMC,000550,A,3128.00000,N,12118.00000,E,0.000,0.000,200720,0.000,E,A,V*65

$GPRMC,000551,A,3128.00000,N,12118.00000,E,0.000,0.000,200720,0.000,E,A,V*64

$GPRMC,000552,A,3128.00000,N,12118.00000,E,0.000,0.000,200720,0.000,E,A,V*67

$GPRMC,000553,A,3128.00000,N,12118.00000,E,0.000,0.000,200720,0.000,E,A,V*66

$GPRMC,000554,A,3128.00000,N,12118.00000,E,0.000,0.000,200720,0.000,E,A,V*61

$GPRMC,000555,A,3128.00000,N,12118.00000,E,0.000,0.000,200720,0.000,E,A,V*60

$GPRMC,000556,A,3128.00000,N,12118.00000,E,0.000,0.000,200720,0.000,E,A,V*63

$GPRMC,000557,A,3128.00000,N,12118.00000,E,0.000,0.000,200720,0.000,E,A,V*62

$GPRMC,000558,A,3128.00000,N,12118.00000,E,0.000,0.000,200720,0.000,E,A,V*6D

$GPRMC,000559,A,3128.00000,N,12118.00000,E,0.000,0.000,200720,0.000,E,A,V*6C

$GPRMC,000600,A,3128.00000,N,12118.00000,E,0.000,0.000,200720,0.000,E,A,V*63

$GPRMC,000601,A,3128.00000,N,12118.00000,E,0.000,0.000,200720,0.000,E,A,V*62

$GPRMC,000602,A,3128.00000,N,12118.00000,E,0.000,0.000,200720,0.000,E,A,V*61

$GPRMC,000603,A,3128.00000,N,12118.00000,E,0.000,0.000,200720,0.000,E,A,V*60

$GPRMC,000604,A,3128.00000,N,12118.00000,E,0.000,0.000,200720,0.000,E,A,V*67

$GPRMC,000605,A,3128.00000,N,12118.00000,E,0.000,0.000,200720,0.000,E,A,V*66

$GPRMC,000606,A,3128.00000,N,12118.00000,E,0.000,0.000,200720,0.000,E,A,V*65

$GPRMC,000607,A,3128.00000,N,12118.00000,E,0.000,0.000,200720,0.000,E,A,V*64

$GPRMC,000608,A,3128.00000,N,12118.00000,E,0.000,0.000,200720,0.000,E,A,V*6B

$GPRMC,000609,A,3128.00000,N,12118.00000,E,0.000,0.000,200720,0.000,E,A,V*6A

$GPRMC,000610,A,3128.00000,N,12118.00000,E,0.000,0.000,200720,0.000,E,A,V*62

$GPRMC,000611,A,3128.00000,N,12118.00000,E,0.000,0.000,200720,0.000,E,A,V*63

$GPRMC,000612,A,3128.00000,N,12118.00000,E,0.000,0.000,200720,0.000,E,A,V*60

$GPRMC,000613,A,3128.00000,N,12118.00000,E,0.000,0.000,200720,0.000,E,A,V*61

$GPRMC,000614,A,3128.00000,N,12118.00000,E,0.000,0.000,200720,0.000,E,A,V*66

$GPRMC,000615,A,3128.00000,N,12118.00000,E,0.000,0.000,200720,0.000,E,A,V*67

$GPRMC,000616,A,3128.00000,N,12118.00000,E,0.000,0.000,200720,0.000,E,A,V*64

$GPRMC,000617,A,3128.00000,N,12118.00000,E,0.000,0.000,200720,0.000,E,A,V*65

$GPRMC,000618,A,3128.00000,N,12118.00000,E,0.000,0.000,200720,0.000,E,A,V*6A

$GPRMC,000619,A,3128.00000,N,12118.00000,E,0.000,0.000,200720,0.000,E,A,V*6B

$GPRMC,000620,A,3128.00000,N,12118.00000,E,0.000,0.000,200720,0.000,E,A,V*61

$GPRMC,000621,A,3128.00000,N,12118.00000,E,0.000,0.000,200720,0.000,E,A,V*60

$GPRMC,000622,A,3128.00000,N,12118.00000,E,0.000,0.000,200720,0.000,E,A,V*63

$GPRMC,000623,A,3128.00000,N,12118.00000,E,0.000,0.000,200720,0.000,E,A,V*62

$GPRMC,000624,A,3128.00000,N,12118.00000,E,0.000,0.000,200720,0.000,E,A,V*65

$GPRMC,000625,A,3128.00000,N,12118.00000,E,0.000,0.000,200720,0.000,E,A,V*64

$GPRMC,000626,A,3128.00000,N,12118.00000,E,0.000,0.000,200720,0.000,E,A,V*67

$GPRMC,000627,A,3128.00000,N,12118.00000,E,0.000,0.000,200720,0.000,E,A,V*66

$GPRMC,000628,A,3128.00000,N,12118.00000,E,0.000,0.000,200720,0.000,E,A,V*69

$GPRMC,000629,A,3128.00000,N,12118.00000,E,0.000,0.000,200720,0.000,E,A,V*68

$GPRMC,000630,A,3128.00000,N,12118.00000,E,0.000,0.000,200720,0.000,E,A,V*60

$GPRMC,000631,A,3128.00000,N,12118.00000,E,0.000,0.000,200720,0.000,E,A,V*61

$GPRMC,000632,A,3128.00000,N,12118.00000,E,0.000,0.000,200720,0.000,E,A,V*62

$GPRMC,000633,A,3128.00000,N,12118.00000,E,0.000,0.000,200720,0.000,E,A,V*63

$GPRMC,000634,A,3128.00000,N,12118.00000,E,0.000,0.000,200720,0.000,E,A,V*64

$GPRMC,000635,A,3128.00000,N,12118.00000,E,0.000,0.000,200720,0.000,E,A,V*65

$GPRMC,000636,A,3128.00000,N,12118.00000,E,0.000,0.000,200720,0.000,E,A,V*66

$GPRMC,000637,A,3128.00000,N,12118.00000,E,0.000,0.000,200720,0.000,E,A,V*67

$GPRMC,000638,A,3128.00000,N,12118.00000,E,0.000,0.000,200720,0.000,E,A,V*68

$GPRMC,000639,A,3128.00000,N,12118.00000,E,0.000,0.000,200720,0.000,E,A,V*69

$GPRMC,000640,A,3128.00000,N,12118.00000,E,0.000,0.000,200720,0.000,E,A,V*67

$GPRMC,000641,A,3128.00000,N,12118.00000,E,0.000,0.000,200720,0.000,E,A,V*66

$GPRMC,000642,A,3128.00000,N,12118.00000,E,0.000,0.000,200720,0.000,E,A,V*65

$GPRMC,000643,A,3128.00000,N,12118.00000,E,0.000,0.000,200720,0.000,E,A,V*64

$GPRMC,000644,A,3128.00000,N,12118.00000,E,0.000,0.000,200720,0.000,E,A,V*63

$GPRMC,000645,A,3128.00000,N,12118.00000,E,0.000,0.000,200720,0.000,E,A,V*62

$GPRMC,000646,A,3128.00000,N,12118.00000,E,0.000,0.000,200720,0.000,E,A,V*61

$GPRMC,000647,A,3128.00000,N,12118.00000,E,0.000,0.000,200720,0.000,E,A,V*60

$GPRMC,000648,A,3128.00000,N,12118.00000,E,0.000,0.000,200720,0.000,E,A,V*6F

$GPRMC,000649,A,3128.00000,N,12118.00000,E,0.000,0.000,200720,0.000,E,A,V*6E

$GPRMC,000650,A,3128.00000,N,12118.00000,E,0.000,0.000,200720,0.000,E,A,V*66

$GPRMC,000651,A,3128.00000,N,12118.00000,E,0.000,0.000,200720,0.000,E,A,V*67

$GPRMC,000652,A,3128.00000,N,12118.00000,E,0.000,0.000,200720,0.000,E,A,V*64

$GPRMC,000653,A,3128.00000,N,12118.00000,E,0.000,0.000,200720,0.000,E,A,V*65

$GPRMC,000654,A,3128.00000,N,12118.00000,E,0.000,0.000,200720,0.000,E,A,V*62

$GPRMC,000655,A,3128.00000,N,12118.00000,E,0.000,0.000,200720,0.000,E,A,V*63

$GPRMC,000656,A,3128.00000,N,12118.00000,E,0.000,0.000,200720,0.000,E,A,V*60

$GPRMC,000657,A,3128.00000,N,12118.00000,E,0.000,0.000,200720,0.000,E,A,V*61

$GPRMC,000658,A,3128.00000,N,12118.00000,E,0.000,0.000,200720,0.000,E,A,V*6E

$GPRMC,000659,A,3128.00000,N,12118.00000,E,0.000,0.000,200720,0.000,E,A,V*6F

$GPRMC,000700,A,3128.00000,N,12118.00000,E,0.000,0.000,200720,0.000,E,A,V*62

$GPRMC,000701,A,3128.00000,N,12118.00000,E,0.000,0.000,200720,0.000,E,A,V*63

$GPRMC,000702,A,3128.00000,N,12118.00000,E,0.000,0.000,200720,0.000,E,A,V*60

$GPRMC,000703,A,3128.00000,N,12118.00000,E,0.000,0.000,200720,0.000,E,A,V*61

$GPRMC,000704,A,3128.00000,N,12118.00000,E,0.000,0.000,200720,0.000,E,A,V*66

$GPRMC,000705,A,3128.00000,N,12118.00000,E,0.000,0.000,200720,0.000,E,A,V*67

$GPRMC,000706,A,3128.00000,N,12118.00000,E,0.000,0.000,200720,0.000,E,A,V*64

$GPRMC,000707,A,3128.00000,N,12118.00000,E,0.000,0.000,200720,0.000,E,A,V*65

$GPRMC,000708,A,3128.00000,N,12118.00000,E,0.000,0.000,200720,0.000,E,A,V*6A

$GPRMC,000709,A,3128.00000,N,12118.00000,E,0.000,0.000,200720,0.000,E,A,V*6B

$GPRMC,000710,A,3128.00000,N,12118.00000,E,0.000,0.000,200720,0.000,E,A,V*63

$GPRMC,000711,A,3128.00000,N,12118.00000,E,0.000,0.000,200720,0.000,E,A,V*62

$GPRMC,000712,A,3128.00000,N,12118.00000,E,0.000,0.000,200720,0.000,E,A,V*61

$GPRMC,000713,A,3128.00000,N,12118.00000,E,0.000,0.000,200720,0.000,E,A,V*60

$GPRMC,000714,A,3128.00000,N,12118.00000,E,0.000,0.000,200720,0.000,E,A,V*67

$GPRMC,000715,A,3128.00000,N,12118.00000,E,0.000,0.000,200720,0.000,E,A,V*66

$GPRMC,000716,A,3128.00000,N,12118.00000,E,0.000,0.000,200720,0.000,E,A,V*65

$GPRMC,000717,A,3128.00000,N,12118.00000,E,0.000,0.000,200720,0.000,E,A,V*64

$GPRMC,000718,A,3128.00000,N,12118.00000,E,0.000,0.000,200720,0.000,E,A,V*6B

$GPRMC,000719,A,3128.00000,N,12118.00000,E,0.000,0.000,200720,0.000,E,A,V*6A

$GPRMC,000720,A,3128.00000,N,12118.00000,E,0.000,0.000,200720,0.000,E,A,V*60

$GPRMC,000721,A,3128.00000,N,12118.00000,E,0.000,0.000,200720,0.000,E,A,V*61

$GPRMC,000722,A,3128.00000,N,12118.00000,E,0.000,0.000,200720,0.000,E,A,V*62

$GPRMC,000723,A,3128.00000,N,12118.00000,E,0.000,0.000,200720,0.000,E,A,V*63

$GPRMC,000724,A,3128.00000,N,12118.00000,E,0.000,0.000,200720,0.000,E,A,V*64

$GPRMC,000725,A,3128.00000,N,12118.00000,E,0.000,0.000,200720,0.000,E,A,V*65

$GPRMC,000726,A,3128.00000,N,12118.00000,E,0.000,0.000,200720,0.000,E,A,V*66

$GPRMC,000727,A,3128.00000,N,12118.00000,E,0.000,0.000,200720,0.000,E,A,V*67

$GPRMC,000728,A,3128.00000,N,12118.00000,E,0.000,0.000,200720,0.000,E,A,V*68

$GPRMC,000729,A,3128.00000,N,12118.00000,E,0.000,0.000,200720,0.000,E,A,V*69

$GPRMC,000730,A,3128.00000,N,12118.00000,E,0.000,0.000,200720,0.000,E,A,V*61

$GPRMC,000731,A,3128.00000,N,12118.00000,E,0.000,0.000,200720,0.000,E,A,V*60

$GPRMC,000732,A,3128.00000,N,12118.00000,E,0.000,0.000,200720,0.000,E,A,V*63

$GPRMC,000733,A,3128.00000,N,12118.00000,E,0.000,0.000,200720,0.000,E,A,V*62

$GPRMC,000734,A,3128.00000,N,12118.00000,E,0.000,0.000,200720,0.000,E,A,V*65

$GPRMC,000735,A,3128.00000,N,12118.00000,E,0.000,0.000,200720,0.000,E,A,V*64

$GPRMC,000736,A,3128.00000,N,12118.00000,E,0.000,0.000,200720,0.000,E,A,V*67

$GPRMC,000737,A,3128.00000,N,12118.00000,E,0.000,0.000,200720,0.000,E,A,V*66

$GPRMC,000738,A,3128.00000,N,12118.00000,E,0.000,0.000,200720,0.000,E,A,V*69

$GPRMC,000739,A,3128.00000,N,12118.00000,E,0.000,0.000,200720,0.000,E,A,V*68

$GPRMC,000740,A,3128.00000,N,12118.00000,E,0.000,0.000,200720,0.000,E,A,V*66

$GPRMC,000741,A,3128.00000,N,12118.00000,E,0.000,0.000,200720,0.000,E,A,V*67

$GPRMC,000742,A,3128.00000,N,12118.00000,E,0.000,0.000,200720,0.000,E,A,V*64

$GPRMC,000743,A,3128.00000,N,12118.00000,E,0.000,0.000,200720,0.000,E,A,V*65

$GPRMC,000744,A,3128.00000,N,12118.00000,E,0.000,0.000,200720,0.000,E,A,V*62

$GPRMC,000745,A,3128.00000,N,12118.00000,E,0.000,0.000,200720,0.000,E,A,V*63

$GPRMC,000746,A,3128.00000,N,12118.00000,E,0.000,0.000,200720,0.000,E,A,V*60

$GPRMC,000747,A,3128.00000,N,12118.00000,E,0.000,0.000,200720,0.000,E,A,V*61

$GPRMC,000748,A,3128.00000,N,12118.00000,E,0.000,0.000,200720,0.000,E,A,V*6E

$GPRMC,000749,A,3128.00000,N,12118.00000,E,0.000,0.000,200720,0.000,E,A,V*6F

$GPRMC,000750,A,3128.00000,N,12118.00000,E,0.000,0.000,200720,0.000,E,A,V*67

$GPRMC,000751,A,3128.00000,N,12118.00000,E,0.000,0.000,200720,0.000,E,A,V*66

$GPRMC,000752,A,3128.00000,N,12118.00000,E,0.000,0.000,200720,0.000,E,A,V*65

$GPRMC,000753,A,3128.00000,N,12118.00000,E,0.000,0.000,200720,0.000,E,A,V*64

$GPRMC,000754,A,3128.00000,N,12118.00000,E,0.000,0.000,200720,0.000,E,A,V*63

$GPRMC,000755,A,3128.00000,N,12118.00000,E,0.000,0.000,200720,0.000,E,A,V*62

$GPRMC,000756,A,3128.00000,N,12118.00000,E,0.000,0.000,200720,0.000,E,A,V*61

$GPRMC,000757,A,3128.00000,N,12118.00000,E,0.000,0.000,200720,0.000,E,A,V*60

$GPRMC,000758,A,3128.00000,N,12118.00000,E,0.000,0.000,200720,0.000,E,A,V*6F

$GPRMC,000759,A,3128.00000,N,12118.00000,E,0.000,0.000,200720,0.000,E,A,V*6E

$GPRMC,000800,A,3128.00000,N,12118.00000,E,0.000,0.000,200720,0.000,E,A,V*6D

$GPRMC,000801,A,3128.00000,N,12118.00000,E,0.000,0.000,200720,0.000,E,A,V*6C

$GPRMC,000802,A,3128.00000,N,12118.00000,E,0.000,0.000,200720,0.000,E,A,V*6F

$GPRMC,000803,A,3128.00000,N,12118.00000,E,0.000,0.000,200720,0.000,E,A,V*6E

$GPRMC,000804,A,3128.00000,N,12118.00000,E,0.000,0.000,200720,0.000,E,A,V*69

$GPRMC,000805,A,3128.00000,N,12118.00000,E,0.000,0.000,200720,0.000,E,A,V*68

$GPRMC,000806,A,3128.00000,N,12118.00000,E,0.000,0.000,200720,0.000,E,A,V*6B

$GPRMC,000807,A,3128.00000,N,12118.00000,E,0.000,0.000,200720,0.000,E,A,V*6A

$GPRMC,000808,A,3128.00000,N,12118.00000,E,0.000,0.000,200720,0.000,E,A,V*65

$GPRMC,000809,A,3128.00000,N,12118.00000,E,0.000,0.000,200720,0.000,E,A,V*64

$GPRMC,000810,A,3128.00000,N,12118.00000,E,0.000,0.000,200720,0.000,E,A,V*6C

$GPRMC,000811,A,3128.00000,N,12118.00000,E,0.000,0.000,200720,0.000,E,A,V*6D

$GPRMC,000812,A,3128.00000,N,12118.00000,E,0.000,0.000,200720,0.000,E,A,V*6E

$GPRMC,000813,A,3128.00000,N,12118.00000,E,0.000,0.000,200720,0.000,E,A,V*6F

$GPRMC,000814,A,3128.00000,N,12118.00000,E,0.000,0.000,200720,0.000,E,A,V*68

$GPRMC,000815,A,3128.00000,N,12118.00000,E,0.000,0.000,200720,0.000,E,A,V*69

$GPRMC,000816,A,3128.00000,N,12118.00000,E,0.000,0.000,200720,0.000,E,A,V*6A

$GPRMC,000817,A,3128.00000,N,12118.00000,E,0.000,0.000,200720,0.000,E,A,V*6B

$GPRMC,000818,A,3128.00000,N,12118.00000,E,0.000,0.000,200720,0.000,E,A,V*64

$GPRMC,000819,A,3128.00000,N,12118.00000,E,0.000,0.000,200720,0.000,E,A,V*65

$GPRMC,000820,A,3128.00000,N,12118.00000,E,0.000,0.000,200720,0.000,E,A,V*6F

$GPRMC,000821,A,3128.00000,N,12118.00000,E,0.000,0.000,200720,0.000,E,A,V*6E

$GPRMC,000822,A,3128.00000,N,12118.00000,E,0.000,0.000,200720,0.000,E,A,V*6D

$GPRMC,000823,A,3128.00000,N,12118.00000,E,0.000,0.000,200720,0.000,E,A,V*6C

$GPRMC,000824,A,3128.00000,N,12118.00000,E,0.000,0.000,200720,0.000,E,A,V*6B

$GPRMC,000825,A,3128.00000,N,12118.00000,E,0.000,0.000,200720,0.000,E,A,V*6A

$GPRMC,000826,A,3128.00000,N,12118.00000,E,0.000,0.000,200720,0.000,E,A,V*69

$GPRMC,000827,A,3128.00000,N,12118.00000,E,0.000,0.000,200720,0.000,E,A,V*68

$GPRMC,000828,A,3128.00000,N,12118.00000,E,0.000,0.000,200720,0.000,E,A,V*67

$GPRMC,000829,A,3128.00000,N,12118.00000,E,0.000,0.000,200720,0.000,E,A,V*66

$GPRMC,000830,A,3128.00000,N,12118.00000,E,0.000,0.000,200720,0.000,E,A,V*6E

$GPRMC,000831,A,3128.00000,N,12118.00000,E,0.000,0.000,200720,0.000,E,A,V*6F

$GPRMC,000832,A,3128.00000,N,12118.00000,E,0.000,0.000,200720,0.000,E,A,V*6C

$GPRMC,000833,A,3128.00000,N,12118.00000,E,0.000,0.000,200720,0.000,E,A,V*6D

$GPRMC,000834,A,3128.00000,N,12118.00000,E,0.000,0.000,200720,0.000,E,A,V*6A

$GPRMC,000835,A,3128.00000,N,12118.00000,E,0.000,0.000,200720,0.000,E,A,V*6B

$GPRMC,000836,A,3128.00000,N,12118.00000,E,0.000,0.000,200720,0.000,E,A,V*68

$GPRMC,000837,A,3128.00000,N,12118.00000,E,0.000,0.000,200720,0.000,E,A,V*69

$GPRMC,000838,A,3128.00000,N,12118.00000,E,0.000,0.000,200720,0.000,E,A,V*66

$GPRMC,000839,A,3128.00000,N,12118.00000,E,0.000,0.000,200720,0.000,E,A,V*67

$GPRMC,000840,A,3128.00000,N,12118.00000,E,0.000,0.000,200720,0.000,E,A,V*69

$GPRMC,000841,A,3128.00000,N,12118.00000,E,0.000,0.000,200720,0.000,E,A,V*68

$GPRMC,000842,A,3128.00000,N,12118.00000,E,0.000,0.000,200720,0.000,E,A,V*6B

$GPRMC,000843,A,3128.00000,N,12118.00000,E,0.000,0.000,200720,0.000,E,A,V*6A

$GPRMC,000844,A,3128.00000,N,12118.00000,E,0.000,0.000,200720,0.000,E,A,V*6D

$GPRMC,000845,A,3128.00000,N,12118.00000,E,0.000,0.000,200720,0.000,E,A,V*6C

$GPRMC,000846,A,3128.00000,N,12118.00000,E,0.000,0.000,200720,0.000,E,A,V*6F

$GPRMC,000847,A,3128.00000,N,12118.00000,E,0.000,0.000,200720,0.000,E,A,V*6E

$GPRMC,000848,A,3128.00000,N,12118.00000,E,0.000,0.000,200720,0.000,E,A,V*61

$GPRMC,000849,A,3128.00000,N,12118.00000,E,0.000,0.000,200720,0.000,E,A,V*60

$GPRMC,000850,A,3128.00000,N,12118.00000,E,0.000,0.000,200720,0.000,E,A,V*68

$GPRMC,000851,A,3128.00000,N,12118.00000,E,0.000,0.000,200720,0.000,E,A,V*69

$GPRMC,000852,A,3128.00000,N,12118.00000,E,0.000,0.000,200720,0.000,E,A,V*6A

$GPRMC,000853,A,3128.00000,N,12118.00000,E,0.000,0.000,200720,0.000,E,A,V*6B

$GPRMC,000854,A,3128.00000,N,12118.00000,E,0.000,0.000,200720,0.000,E,A,V*6C

$GPRMC,000855,A,3128.00000,N,12118.00000,E,0.000,0.000,200720,0.000,E,A,V*6D

$GPRMC,000856,A,3128.00000,N,12118.00000,E,0.000,0.000,200720,0.000,E,A,V*6E

$GPRMC,000857,A,3128.00000,N,12118.00000,E,0.000,0.000,200720,0.000,E,A,V*6F

$GPRMC,000858,A,3128.00000,N,12118.00000,E,0.000,0.000,200720,0.000,E,A,V*60

$GPRMC,000859,A,3128.00000,N,12118.00000,E,0.000,0.000,200720,0.000,E,A,V*61

$GPRMC,000900,A,3128.00000,N,12118.00000,E,0.000,0.000,200720,0.000,E,A,V*6C

$GPRMC,000901,A,3128.00000,N,12118.00000,E,0.000,0.000,200720,0.000,E,A,V*6D

$GPRMC,000902,A,3128.00000,N,12118.00000,E,0.000,0.000,200720,0.000,E,A,V*6E

$GPRMC,000903,A,3128.00000,N,12118.00000,E,0.000,0.000,200720,0.000,E,A,V*6F

$GPRMC,000904,A,3128.00000,N,12118.00000,E,0.000,0.000,200720,0.000,E,A,V*68

$GPRMC,000905,A,3128.00000,N,12118.00000,E,0.000,0.000,200720,0.000,E,A,V*69

$GPRMC,000906,A,3128.00000,N,12118.00000,E,0.000,0.000,200720,0.000,E,A,V*6A

$GPRMC,000907,A,3128.00000,N,12118.00000,E,0.000,0.000,200720,0.000,E,A,V*6B

$GPRMC,000908,A,3128.00000,N,12118.00000,E,0.000,0.000,200720,0.000,E,A,V*64

$GPRMC,000909,A,3128.00000,N,12118.00000,E,0.000,0.000,200720,0.000,E,A,V*65

$GPRMC,000910,A,3128.00000,N,12118.00000,E,0.000,0.000,200720,0.000,E,A,V*6D

$GPRMC,000911,A,3128.00000,N,12118.00000,E,0.000,0.000,200720,0.000,E,A,V*6C

$GPRMC,000912,A,3128.00000,N,12118.00000,E,0.000,0.000,200720,0.000,E,A,V*6F

$GPRMC,000913,A,3128.00000,N,12118.00000,E,0.000,0.000,200720,0.000,E,A,V*6E

$GPRMC,000914,A,3128.00000,N,12118.00000,E,0.000,0.000,200720,0.000,E,A,V*69

$GPRMC,000915,A,3128.00000,N,12118.00000,E,0.000,0.000,200720,0.000,E,A,V*68

$GPRMC,000916,A,3128.00000,N,12118.00000,E,0.000,0.000,200720,0.000,E,A,V*6B

$GPRMC,000917,A,3128.00000,N,12118.00000,E,0.000,0.000,200720,0.000,E,A,V*6A

$GPRMC,000918,A,3128.00000,N,12118.00000,E,0.000,0.000,200720,0.000,E,A,V*65

$GPRMC,000919,A,3128.00000,N,12118.00000,E,0.000,0.000,200720,0.000,E,A,V*64

$GPRMC,000920,A,3128.00000,N,12118.00000,E,0.000,0.000,200720,0.000,E,A,V*6E

$GPRMC,000921,A,3128.00000,N,12118.00000,E,0.000,0.000,200720,0.000,E,A,V*6F

$GPRMC,000922,A,3128.00000,N,12118.00000,E,0.000,0.000,200720,0.000,E,A,V*6C

$GPRMC,000923,A,3128.00000,N,12118.00000,E,0.000,0.000,200720,0.000,E,A,V*6D

$GPRMC,000924,A,3128.00000,N,12118.00000,E,0.000,0.000,200720,0.000,E,A,V*6A

$GPRMC,000925,A,3128.00000,N,12118.00000,E,0.000,0.000,200720,0.000,E,A,V*6B

$GPRMC,000926,A,3128.00000,N,12118.00000,E,0.000,0.000,200720,0.000,E,A,V*68

$GPRMC,000927,A,3128.00000,N,12118.00000,E,0.000,0.000,200720,0.000,E,A,V*69

$GPRMC,000928,A,3128.00000,N,12118.00000,E,0.000,0.000,200720,0.000,E,A,V*66

$GPRMC,000929,A,3128.00000,N,12118.00000,E,0.000,0.000,200720,0.000,E,A,V*67

$GPRMC,000930,A,3128.00000,N,12118.00000,E,0.000,0.000,200720,0.000,E,A,V*6F

$GPRMC,000931,A,3128.00000,N,12118.00000,E,0.000,0.000,200720,0.000,E,A,V*6E

$GPRMC,000932,A,3128.00000,N,12118.00000,E,0.000,0.000,200720,0.000,E,A,V*6D

$GPRMC,000933,A,3128.00000,N,12118.00000,E,0.000,0.000,200720,0.000,E,A,V*6C

$GPRMC,000934,A,3128.00000,N,12118.00000,E,0.000,0.000,200720,0.000,E,A,V*6B

$GPRMC,000935,A,3128.00000,N,12118.00000,E,0.000,0.000,200720,0.000,E,A,V*6A

$GPRMC,000936,A,3128.00000,N,12118.00000,E,0.000,0.000,200720,0.000,E,A,V*69

$GPRMC,000937,A,3128.00000,N,12118.00000,E,0.000,0.000,200720,0.000,E,A,V*68

$GPRMC,000938,A,3128.00000,N,12118.00000,E,0.000,0.000,200720,0.000,E,A,V*67

$GPRMC,000939,A,3128.00000,N,12118.00000,E,0.000,0.000,200720,0.000,E,A,V*66

$GPRMC,000940,A,3128.00000,N,12118.00000,E,0.000,0.000,200720,0.000,E,A,V*68

$GPRMC,000941,A,3128.00000,N,12118.00000,E,0.000,0.000,200720,0.000,E,A,V*69

$GPRMC,000942,A,3128.00000,N,12118.00000,E,0.000,0.000,200720,0.000,E,A,V*6A

$GPRMC,000943,A,3128.00000,N,12118.00000,E,0.000,0.000,200720,0.000,E,A,V*6B

$GPRMC,000944,A,3128.00000,N,12118.00000,E,0.000,0.000,200720,0.000,E,A,V*6C

$GPRMC,000945,A,3128.00000,N,12118.00000,E,0.000,0.000,200720,0.000,E,A,V*6D

$GPRMC,000946,A,3128.00000,N,12118.00000,E,0.000,0.000,200720,0.000,E,A,V*6E

$GPRMC,000947,A,3128.00000,N,12118.00000,E,0.000,0.000,200720,0.000,E,A,V*6F

$GPRMC,000948,A,3128.00000,N,12118.00000,E,0.000,0.000,200720,0.000,E,A,V*60

$GPRMC,000949,A,3128.00000,N,12118.00000,E,0.000,0.000,200720,0.000,E,A,V*61

$GPRMC,000950,A,3128.00000,N,12118.00000,E,0.000,0.000,200720,0.000,E,A,V*69

$GPRMC,000951,A,3128.00000,N,12118.00000,E,0.000,0.000,200720,0.000,E,A,V*68

$GPRMC,000952,A,3128.00000,N,12118.00000,E,0.000,0.000,200720,0.000,E,A,V*6B

$GPRMC,000953,A,3128.00000,N,12118.00000,E,0.000,0.000,200720,0.000,E,A,V*6A

$GPRMC,000954,A,3128.00000,N,12118.00000,E,0.000,0.000,200720,0.000,E,A,V*6D

$GPRMC,000955,A,3128.00000,N,12118.00000,E,0.000,0.000,200720,0.000,E,A,V*6C

$GPRMC,000956,A,3128.00000,N,12118.00000,E,0.000,0.000,200720,0.000,E,A,V*6F

$GPRMC,000957,A,3128.00000,N,12118.00000,E,0.000,0.000,200720,0.000,E,A,V*6E

$GPRMC,000958,A,3128.00000,N,12118.00000,E,0.000,0.000,200720,0.000,E,A,V*61

$GPRMC,000959,A,3128.00000,N,12118.00000,E,0.000,0.000,200720,0.000,E,A,V*60

$GPRMC,001000,A,3128.00000,N,12118.00000,E,0.000,0.000,200720,0.000,E,A,V*64

$GPRMC,001001,A,3128.00000,N,12118.00000,E,0.000,0.000,200720,0.000,E,A,V*65

$GPRMC,001002,A,3128.00000,N,12118.00000,E,0.000,0.000,200720,0.000,E,A,V*66

$GPRMC,001003,A,3128.00000,N,12118.00000,E,0.000,0.000,200720,0.000,E,A,V*67

$GPRMC,001004,A,3128.00000,N,12118.00000,E,0.000,0.000,200720,0.000,E,A,V*60

$GPRMC,001005,A,3128.00000,N,12118.00000,E,0.000,0.000,200720,0.000,E,A,V*61

$GPRMC,001006,A,3128.00000,N,12118.00000,E,0.000,0.000,200720,0.000,E,A,V*62

$GPRMC,001007,A,3128.00000,N,12118.00000,E,0.000,0.000,200720,0.000,E,A,V*63

$GPRMC,001008,A,3128.00000,N,12118.00000,E,0.000,0.000,200720,0.000,E,A,V*6C

$GPRMC,001009,A,3128.00000,N,12118.00000,E,0.000,0.000,200720,0.000,E,A,V*6D

$GPRMC,001010,A,3128.00000,N,12118.00000,E,0.000,0.000,200720,0.000,E,A,V*65

$GPRMC,001011,A,3128.00000,N,12118.00000,E,0.000,0.000,200720,0.000,E,A,V*64

$GPRMC,001012,A,3128.00000,N,12118.00000,E,0.000,0.000,200720,0.000,E,A,V*67

$GPRMC,001013,A,3128.00000,N,12118.00000,E,0.000,0.000,200720,0.000,E,A,V*66

$GPRMC,001014,A,3128.00000,N,12118.00000,E,0.000,0.000,200720,0.000,E,A,V*61

$GPRMC,001015,A,3128.00000,N,12118.00000,E,0.000,0.000,200720,0.000,E,A,V*60

$GPRMC,001016,A,3128.00000,N,12118.00000,E,0.000,0.000,200720,0.000,E,A,V*63

$GPRMC,001017,A,3128.00000,N,12118.00000,E,0.000,0.000,200720,0.000,E,A,V*62

$GPRMC,001018,A,3128.00000,N,12118.00000,E,0.000,0.000,200720,0.000,E,A,V*6D

$GPRMC,001019,A,3128.00000,N,12118.00000,E,0.000,0.000,200720,0.000,E,A,V*6C

$GPRMC,001020,A,3128.00000,N,12118.00000,E,0.000,0.000,200720,0.000,E,A,V*66

$GPRMC,001021,A,3128.00000,N,12118.00000,E,0.000,0.000,200720,0.000,E,A,V*67

$GPRMC,001022,A,3128.00000,N,12118.00000,E,0.000,0.000,200720,0.000,E,A,V*64

$GPRMC,001023,A,3128.00000,N,12118.00000,E,0.000,0.000,200720,0.000,E,A,V*65

$GPRMC,001024,A,3128.00000,N,12118.00000,E,0.000,0.000,200720,0.000,E,A,V*62

$GPRMC,001025,A,3128.00000,N,12118.00000,E,0.000,0.000,200720,0.000,E,A,V*63

$GPRMC,001026,A,3128.00000,N,12118.00000,E,0.000,0.000,200720,0.000,E,A,V*60

$GPRMC,001027,A,3128.00000,N,12118.00000,E,0.000,0.000,200720,0.000,E,A,V*61

$GPRMC,001028,A,3128.00000,N,12118.00000,E,0.000,0.000,200720,0.000,E,A,V*6E

$GPRMC,001029,A,3128.00000,N,12118.00000,E,0.000,0.000,200720,0.000,E,A,V*6F

$GPRMC,001030,A,3128.00000,N,12118.00000,E,0.000,0.000,200720,0.000,E,A,V*67

$GPRMC,001031,A,3128.00000,N,12118.00000,E,0.000,0.000,200720,0.000,E,A,V*66

$GPRMC,001032,A,3128.00000,N,12118.00000,E,0.000,0.000,200720,0.000,E,A,V*65

$GPRMC,001033,A,3128.00000,N,12118.00000,E,0.000,0.000,200720,0.000,E,A,V*64

$GPRMC,001034,A,3128.00000,N,12118.00000,E,0.000,0.000,200720,0.000,E,A,V*63

$GPRMC,001035,A,3128.00000,N,12118.00000,E,0.000,0.000,200720,0.000,E,A,V*62

$GPRMC,001036,A,3128.00000,N,12118.00000,E,0.000,0.000,200720,0.000,E,A,V*61

$GPRMC,001037,A,3128.00000,N,12118.00000,E,0.000,0.000,200720,0.000,E,A,V*60

$GPRMC,001038,A,3128.00000,N,12118.00000,E,0.000,0.000,200720,0.000,E,A,V*6F

$GPRMC,001039,A,3128.00000,N,12118.00000,E,0.000,0.000,200720,0.000,E,A,V*6E

$GPRMC,001040,A,3128.00000,N,12118.00000,E,0.000,0.000,200720,0.000,E,A,V*60

$GPRMC,001041,A,3128.00000,N,12118.00000,E,0.000,0.000,200720,0.000,E,A,V*61

$GPRMC,001042,A,3128.00000,N,12118.00000,E,0.000,0.000,200720,0.000,E,A,V*62

$GPRMC,001043,A,3128.00000,N,12118.00000,E,0.000,0.000,200720,0.000,E,A,V*63

$GPRMC,001044,A,3128.00000,N,12118.00000,E,0.000,0.000,200720,0.000,E,A,V*64

$GPRMC,001045,A,3128.00000,N,12118.00000,E,0.000,0.000,200720,0.000,E,A,V*65

