$GPRMC,001450,A,3128.00000,N,12118.00000,E,0.000,0.000,200720,0.000,E,A,V*65

$GPRMC,001451,A,3128.00000,N,12118.00000,E,0.000,0.000,200720,0.000,E,A,V*64

$GPRMC,001452,A,3128.00000,N,12118.00000,E,0.000,0.000,200720,0.000,E,A,V*67

$GPRMC,001453,A,3128.00000,N,12118.00000,E,0.000,0.000,200720,0.000,E,A,V*66

$GPRMC,001454,A,3128.00000,N,12118.00000,E,0.000,0.000,200720,0.000,E,A,V*61

$GPRMC,001455,A,3128.00000,N,12118.00000,E,0.000,0.000,200720,0.000,E,A,V*60

$GPRMC,001456,A,3128.00000,N,12118.00000,E,0.000,0.000,200720,0.000,E,A,V*63

$GPRMC,001457,A,3128.00000,N,12118.00000,E,0.000,0.000,200720,0.000,E,A,V*62

$GPRMC,001458,A,3128.00000,N,12118.00000,E,0.000,0.000,200720,0.000,E,A,V*6D

$GPRMC,001459,A,3128.00000,N,12118.00000,E,0.000,0.000,200720,0.000,E,A,V*6C

$GPRMC,001500,A,3128.00000,N,12118.00000,E,0.000,0.000,200720,0.000,E,A,V*61

$GPRMC,001501,A,3128.00000,N,12118.00000,E,0.000,0.000,200720,0.000,E,A,V*60

$GPRMC,001502,A,3128.00000,N,12118.00000,E,0.000,0.000,200720,0.000,E,A,V*63

$GPRMC,001503,A,3128.00000,N,12118.00000,E,0.000,0.000,200720,0.000,E,A,V*62

$GPRMC,001504,A,3128.00000,N,12118.00000,E,0.000,0.000,200720,0.000,E,A,V*65

$GPRMC,001505,A,3128.00000,N,12118.00000,E,0.000,0.000,200720,0.000,E,A,V*64

$GPRMC,001506,A,3128.00000,N,12118.00000,E,0.000,0.000,200720,0.000,E,A,V*67

$GPRMC,001507,A,3128.00000,N,12118.00000,E,0.000,0.000,200720,0.000,E,A,V*66

$GPRMC,001508,A,3128.00000,N,12118.00000,E,0.000,0.000,200720,0.000,E,A,V*69

$GPRMC,001509,A,3128.00000,N,12118.00000,E,0.000,0.000,200720,0.000,E,A,V*68

$GPRMC,001510,A,3128.00000,N,12118.00000,E,0.000,0.000,200720,0.000,E,A,V*60

$GPRMC,001511,A,3128.00000,N,12118.00000,E,0.000,0.000,200720,0.000,E,A,V*61

$GPRMC,001512,A,3128.00000,N,12118.00000,E,0.000,0.000,200720,0.000,E,A,V*62

$GPRMC,001513,A,3128.00000,N,12118.00000,E,0.000,0.000,200720,0.000,E,A,V*63

$GPRMC,001514,A,3128.00000,N,12118.00000,E,0.000,0.000,200720,0.000,E,A,V*64

$GPRMC,001515,A,3128.00000,N,12118.00000,E,0.000,0.000,200720,0.000,E,A,V*65

$GPRMC,001516,A,3128.00000,N,12118.00000,E,0.000,0.000,200720,0.000,E,A,V*66

$GPRMC,001517,A,3128.00000,N,12118.00000,E,0.000,0.000,200720,0.000,E,A,V*67

$GPRMC,001518,A,3128.00000,N,12118.00000,E,0.000,0.000,200720,0.000,E,A,V*68

$GPRMC,001519,A,3128.00000,N,12118.00000,E,0.000,0.000,200720,0.000,E,A,V*69

$GPRMC,001520,A,3128.00000,N,12118.00000,E,0.000,0.000,200720,0.000,E,A,V*63

$GPRMC,001521,A,3128.00000,N,12118.00000,E,0.000,0.000,200720,0.000,E,A,V*62

$GPRMC,001522,A,3128.00000,N,12118.00000,E,0.000,0.000,200720,0.000,E,A,V*61

$GPRMC,001523,A,3128.00000,N,12118.00000,E,0.000,0.000,200720,0.000,E,A,V*60

$GPRMC,001524,A,3128.00000,N,12118.00000,E,0.000,0.000,200720,0.000,E,A,V*67

$GPRMC,001525,A,3128.00000,N,12118.00000,E,0.000,0.000,200720,0.000,E,A,V*66

$GPRMC,001526,A,3128.00000,N,12118.00000,E,0.000,0.000,200720,0.000,E,A,V*65

$GPRMC,001527,A,3128.00000,N,12118.00000,E,0.000,0.000,200720,0.000,E,A,V*64

$GPRMC,001528,A,3128.00000,N,12118.00000,E,0.000,0.000,200720,0.000,E,A,V*6B

$GPRMC,001529,A,3128.00000,N,12118.00000,E,0.000,0.000,200720,0.000,E,A,V*6A

$GPRMC,001530,A,3128.00000,N,12118.00000,E,0.000,0.000,200720,0.000,E,A,V*62

$GPRMC,001531,A,3128.00000,N,12118.00000,E,0.000,0.000,200720,0.000,E,A,V*63

$GPRMC,001532,A,3128.00000,N,12118.00000,E,0.000,0.000,200720,0.000,E,A,V*60

$GPRMC,001533,A,3128.00000,N,12118.00000,E,0.000,0.000,200720,0.000,E,A,V*61

$GPRMC,001534,A,3128.00000,N,12118.00000,E,0.000,0.000,200720,0.000,E,A,V*66

$GPRMC,001535,A,3128.00000,N,12118.00000,E,0.000,0.000,200720,0.000,E,A,V*67

$GPRMC,001536,A,3128.00000,N,12118.00000,E,0.000,0.000,200720,0.000,E,A,V*64

$GPRMC,001537,A,3128.00000,N,12118.00000,E,0.000,0.000,200720,0.000,E,A,V*65

$GPRMC,001538,A,3128.00000,N,12118.00000,E,0.000,0.000,200720,0.000,E,A,V*6A

$GPRMC,001539,A,3128.00000,N,12118.00000,E,0.000,0.000,200720,0.000,E,A,V*6B

$GPRMC,001540,A,3128.00000,N,12118.00000,E,0.000,0.000,200720,0.000,E,A,V*65

$GPRMC,001541,A,3128.00000,N,12118.00000,E,0.000,0.000,200720,0.000,E,A,V*64

$GPRMC,001542,A,3128.00000,N,12118.00000,E,0.000,0.000,200720,0.000,E,A,V*67

$GPRMC,001543,A,3128.00000,N,12118.00000,E,0.000,0.000,200720,0.000,E,A,V*66

$GPRMC,001544,A,3128.00000,N,12118.00000,E,0.000,0.000,200720,0.000,E,A,V*61

$GPRMC,001545,A,3128.00000,N,12118.00000,E,0.000,0.000,200720,0.000,E,A,V*60

$GPRMC,001546,A,3128.00000,N,12118.00000,E,0.000,0.000,200720,0.000,E,A,V*63

$GPRMC,001547,A,3128.00000,N,12118.00000,E,0.000,0.000,200720,0.000,E,A,V*62

$GPRMC,001548,A,3128.00000,N,12118.00000,E,0.000,0.000,200720,0.000,E,A,V*6D

$GPRMC,001549,A,3128.00000,N,12118.00000,E,0.000,0.000,200720,0.000,E,A,V*6C

$GPRMC,001550,A,3128.00000,N,12118.00000,E,0.000,0.000,200720,0.000,E,A,V*64

$GPRMC,001551,A,3128.00000,N,12118.00000,E,0.000,0.000,200720,0.000,E,A,V*65

$GPRMC,001552,A,3128.00000,N,12118.00000,E,0.000,0.000,200720,0.000,E,A,V*66

$GPRMC,001553,A,3128.00000,N,12118.00000,E,0.000,0.000,200720,0.000,E,A,V*67

$GPRMC,001554,A,3128.00000,N,12118.00000,E,0.000,0.000,200720,0.000,E,A,V*60

$GPRMC,001555,A,3128.00000,N,12118.00000,E,0.000,0.000,200720,0.000,E,A,V*61

$GPRMC,001556,A,3128.00000,N,12118.00000,E,0.000,0.000,200720,0.000,E,A,V*62

$GPRMC,001557,A,3128.00000,N,12118.00000,E,0.000,0.000,200720,0.000,E,A,V*63

$GPRMC,001558,A,3128.00000,N,12118.00000,E,0.000,0.000,200720,0.000,E,A,V*6C

$GPRMC,001559,A,3128.00000,N,12118.00000,E,0.000,0.000,200720,0.000,E,A,V*6D

$GPRMC,001600,A,3128.00000,N,12118.00000,E,0.000,0.000,200720,0.000,E,A,V*62

$GPRMC,001601,A,3128.00000,N,12118.00000,E,0.000,0.000,200720,0.000,E,A,V*63

$GPRMC,001602,A,3128.00000,N,12118.00000,E,0.000,0.000,200720,0.000,E,A,V*60

$GPRMC,001603,A,3128.00000,N,12118.00000,E,0.000,0.000,200720,0.000,E,A,V*61

$GPRMC,001604,A,3128.00000,N,12118.00000,E,0.000,0.000,200720,0.000,E,A,V*66

$GPRMC,001605,A,3128.00000,N,12118.00000,E,0.000,0.000,200720,0.000,E,A,V*67

$GPRMC,001606,A,3128.00000,N,12118.00000,E,0.000,0.000,200720,0.000,E,A,V*64

$GPRMC,001607,A,3128.00000,N,12118.00000,E,0.000,0.000,200720,0.000,E,A,V*65

$GPRMC,001608,A,3128.00000,N,12118.00000,E,0.000,0.000,200720,0.000,E,A,V*6A

$GPRMC,001609,A,3128.00000,N,12118.00000,E,0.000,0.000,200720,0.000,E,A,V*6B

$GPRMC,001610,A,3128.00000,N,12118.00000,E,0.000,0.000,200720,0.000,E,A,V*63

$GPRMC,001611,A,3128.00000,N,12118.00000,E,0.000,0.000,200720,0.000,E,A,V*62

$GPRMC,001612,A,3128.00000,N,12118.00000,E,0.000,0.000,200720,0.000,E,A,V*61

$GPRMC,001613,A,3128.00000,N,12118.00000,E,0.000,0.000,200720,0.000,E,A,V*60

$GPRMC,001614,A,3128.00000,N,12118.00000,E,0.000,0.000,200720,0.000,E,A,V*67

$GPRMC,001615,A,3128.00000,N,12118.00000,E,0.000,0.000,200720,0.000,E,A,V*66

$GPRMC,001616,A,3128.00000,N,12118.00000,E,0.000,0.000,200720,0.000,E,A,V*65

$GPRMC,001617,A,3128.00000,N,12118.00000,E,0.000,0.000,200720,0.000,E,A,V*64

$GPRMC,001618,A,3128.00000,N,12118.00000,E,0.000,0.000,200720,0.000,E,A,V*6B

$GPRMC,001619,A,3128.00000,N,12118.00000,E,0.000,0.000,200720,0.000,E,A,V*6A

$GPRMC,001620,A,3128.00000,N,12118.00000,E,0.000,0.000,200720,0.000,E,A,V*60

$GPRMC,001621,A,3128.00000,N,12118.00000,E,0.000,0.000,200720,0.000,E,A,V*61

$GPRMC,001622,A,3128.00000,N,12118.00000,E,0.000,0.000,200720,0.000,E,A,V*62

$GPRMC,001623,A,3128.00000,N,12118.00000,E,0.000,0.000,200720,0.000,E,A,V*63

$GPRMC,001624,A,3128.00000,N,12118.00000,E,0.000,0.000,200720,0.000,E,A,V*64

$GPRMC,001625,A,3128.00000,N,12118.00000,E,0.000,0.000,200720,0.000,E,A,V*65

$GPRMC,001626,A,3128.00000,N,12118.00000,E,0.000,0.000,200720,0.000,E,A,V*66

$GPRMC,001627,A,3128.00000,N,12118.00000,E,0.000,0.000,200720,0.000,E,A,V*67

$GPRMC,001628,A,3128.00000,N,12118.00000,E,0.000,0.000,200720,0.000,E,A,V*68

$GPRMC,001629,A,3128.00000,N,12118.00000,E,0.000,0.000,200720,0.000,E,A,V*69

$GPRMC,001630,A,3128.00000,N,12118.00000,E,0.000,0.000,200720,0.000,E,A,V*61

$GPRMC,001631,A,3128.00000,N,12118.00000,E,0.000,0.000,200720,0.000,E,A,V*60

$GPRMC,001632,A,3128.00000,N,12118.00000,E,0.000,0.000,200720,0.000,E,A,V*63

$GPRMC,001633,A,3128.00000,N,12118.00000,E,0.000,0.000,200720,0.000,E,A,V*62

$GPRMC,001634,A,3128.00000,N,12118.00000,E,0.000,0.000,200720,0.000,E,A,V*65

$GPRMC,001635,A,3128.00000,N,12118.00000,E,0.000,0.000,200720,0.000,E,A,V*64

$GPRMC,001636,A,3128.00000,N,12118.00000,E,0.000,0.000,200720,0.000,E,A,V*67

$GPRMC,001637,A,3128.00000,N,12118.00000,E,0.000,0.000,200720,0.000,E,A,V*66

$GPRMC,001638,A,3128.00000,N,12118.00000,E,0.000,0.000,200720,0.000,E,A,V*69

$GPRMC,001639,A,3128.00000,N,12118.00000,E,0.000,0.000,200720,0.000,E,A,V*68

$GPRMC,001640,A,3128.00000,N,12118.00000,E,0.000,0.000,200720,0.000,E,A,V*66

$GPRMC,001641,A,3128.00000,N,12118.00000,E,0.000,0.000,200720,0.000,E,A,V*67

$GPRMC,001642,A,3128.00000,N,12118.00000,E,0.000,0.000,200720,0.000,E,A,V*64

$GPRMC,001643,A,3128.00000,N,12118.00000,E,0.000,0.000,200720,0.000,E,A,V*65

$GPRMC,001644,A,3128.00000,N,12118.00000,E,0.000,0.000,200720,0.000,E,A,V*62

$GPRMC,001645,A,3128.00000,N,12118.00000,E,0.000,0.000,200720,0.000,E,A,V*63

$GPRMC,001646,A,3128.00000,N,12118.00000,E,0.000,0.000,200720,0.000,E,A,V*60

$GPRMC,001647,A,3128.00000,N,12118.00000,E,0.000,0.000,200720,0.000,E,A,V*61

$GPRMC,001648,A,3128.00000,N,12118.00000,E,0.000,0.000,200720,0.000,E,A,V*6E

$GPRMC,001649,A,3128.00000,N,12118.00000,E,0.000,0.000,200720,0.000,E,A,V*6F

$GPRMC,001650,A,3128.00000,N,12118.00000,E,0.000,0.000,200720,0.000,E,A,V*67

$GPRMC,001651,A,3128.00000,N,12118.00000,E,0.000,0.000,200720,0.000,E,A,V*66

$GPRMC,001652,A,3128.00000,N,12118.00000,E,0.000,0.000,200720,0.000,E,A,V*65

$GPRMC,001653,A,3128.00000,N,12118.00000,E,0.000,0.000,200720,0.000,E,A,V*64

$GPRMC,001654,A,3128.00000,N,12118.00000,E,0.000,0.000,200720,0.000,E,A,V*63

$GPRMC,001655,A,3128.00000,N,12118.00000,E,0.000,0.000,200720,0.000,E,A,V*62

$GPRMC,001656,A,3128.00000,N,12118.00000,E,0.000,0.000,200720,0.000,E,A,V*61

$GPRMC,001657,A,3128.00000,N,12118.00000,E,0.000,0.000,200720,0.000,E,A,V*60

$GPRMC,001658,A,3128.00000,N,12118.00000,E,0.000,0.000,200720,0.000,E,A,V*6F

$GPRMC,001659,A,3128.00000,N,12118.00000,E,0.000,0.000,200720,0.000,E,A,V*6E

$GPRMC,001700,A,3128.00000,N,12118.00000,E,0.000,0.000,200720,0.000,E,A,V*63

$GPRMC,001701,A,3128.00000,N,12118.00000,E,0.000,0.000,200720,0.000,E,A,V*62

$GPRMC,001702,A,3128.00000,N,12118.00000,E,0.000,0.000,200720,0.000,E,A,V*61

$GPRMC,001703,A,3128.00000,N,12118.00000,E,0.000,0.000,200720,0.000,E,A,V*60

$GPRMC,001704,A,3128.00000,N,12118.00000,E,0.000,0.000,200720,0.000,E,A,V*67

$GPRMC,001705,A,3128.00000,N,12118.00000,E,0.000,0.000,200720,0.000,E,A,V*66

$GPRMC,001706,A,3128.00000,N,12118.00000,E,0.000,0.000,200720,0.000,E,A,V*65

$GPRMC,001707,A,3128.00000,N,12118.00000,E,0.000,0.000,200720,0.000,E,A,V*64

$GPRMC,001708,A,3128.00000,N,12118.00000,E,0.000,0.000,200720,0.000,E,A,V*6B

$GPRMC,001709,A,3128.00000,N,12118.00000,E,0.000,0.000,200720,0.000,E,A,V*6A

$GPRMC,001710,A,3128.00000,N,12118.00000,E,0.000,0.000,200720,0.000,E,A,V*62

$GPRMC,001711,A,3128.00000,N,12118.00000,E,0.000,0.000,200720,0.000,E,A,V*63

$GPRMC,001712,A,3128.00000,N,12118.00000,E,0.000,0.000,200720,0.000,E,A,V*60

$GPRMC,001713,A,3128.00000,N,12118.00000,E,0.000,0.000,200720,0.000,E,A,V*61

$GPRMC,001714,A,3128.00000,N,12118.00000,E,0.000,0.000,200720,0.000,E,A,V*66

$GPRMC,001715,A,3128.00000,N,12118.00000,E,0.000,0.000,200720,0.000,E,A,V*67

$GPRMC,001716,A,3128.00000,N,12118.00000,E,0.000,0.000,200720,0.000,E,A,V*64

$GPRMC,001717,A,3128.00000,N,12118.00000,E,0.000,0.000,200720,0.000,E,A,V*65

$GPRMC,001718,A,3128.00000,N,12118.00000,E,0.000,0.000,200720,0.000,E,A,V*6A

$GPRMC,001719,A,3128.00000,N,12118.00000,E,0.000,0.000,200720,0.000,E,A,V*6B

$GPRMC,001720,A,3128.00000,N,12118.00000,E,0.000,0.000,200720,0.000,E,A,V*61

$GPRMC,001721,A,3128.00000,N,12118.00000,E,0.000,0.000,200720,0.000,E,A,V*60

$GPRMC,001722,A,3128.00000,N,12118.00000,E,0.000,0.000,200720,0.000,E,A,V*63

$GPRMC,001723,A,3128.00000,N,12118.00000,E,0.000,0.000,200720,0.000,E,A,V*62

$GPRMC,001724,A,3128.00000,N,12118.00000,E,0.000,0.000,200720,0.000,E,A,V*65

$GPRMC,001725,A,3128.00000,N,12118.00000,E,0.000,0.000,200720,0.000,E,A,V*64

$GPRMC,001726,A,3128.00000,N,12118.00000,E,0.000,0.000,200720,0.000,E,A,V*67

$GPRMC,001727,A,3128.00000,N,12118.00000,E,0.000,0.000,200720,0.000,E,A,V*66

$GPRMC,001728,A,3128.00000,N,12118.00000,E,0.000,0.000,200720,0.000,E,A,V*69

$GPRMC,001729,A,3128.00000,N,12118.00000,E,0.000,0.000,200720,0.000,E,A,V*68

$GPRMC,001730,A,3128.00000,N,12118.00000,E,0.000,0.000,200720,0.000,E,A,V*60

$GPRMC,001731,A,3128.00000,N,12118.00000,E,0.000,0.000,200720,0.000,E,A,V*61

$GPRMC,001732,A,3128.00000,N,12118.00000,E,0.000,0.000,200720,0.000,E,A,V*62

$GPRMC,001733,A,3128.00000,N,12118.00000,E,0.000,0.000,200720,0.000,E,A,V*63

$GPRMC,001734,A,3128.00000,N,12118.00000,E,0.000,0.000,200720,0.000,E,A,V*64

$GPRMC,001735,A,3128.00000,N,12118.00000,E,0.000,0.000,200720,0.000,E,A,V*65

$GPRMC,001736,A,3128.00000,N,12118.00000,E,0.000,0.000,200720,0.000,E,A,V*66

$GPRMC,001737,A,3128.00000,N,12118.00000,E,0.000,0.000,200720,0.000,E,A,V*67

$GPRMC,001738,A,3128.00000,N,12118.00000,E,0.000,0.000,200720,0.000,E,A,V*68

$GPRMC,001739,A,3128.00000,N,12118.00000,E,0.000,0.000,200720,0.000,E,A,V*69

$GPRMC,001740,A,3128.00000,N,12118.00000,E,0.000,0.000,200720,0.000,E,A,V*67

$GPRMC,001741,A,3128.00000,N,12118.00000,E,0.000,0.000,200720,0.000,E,A,V*66

$GPRMC,001742,A,3128.00000,N,12118.00000,E,0.000,0.000,200720,0.000,E,A,V*65

$GPRMC,001743,A,3128.00000,N,12118.00000,E,0.000,0.000,200720,0.000,E,A,V*64

$GPRMC,001744,A,3128.00000,N,12118.00000,E,0.000,0.000,200720,0.000,E,A,V*63

$GPRMC,001745,A,3128.00000,N,12118.00000,E,0.000,0.000,200720,0.000,E,A,V*62

$GPRMC,001746,A,3128.00000,N,12118.00000,E,0.000,0.000,200720,0.000,E,A,V*61

$GPRMC,001747,A,3128.00000,N,12118.00000,E,0.000,0.000,200720,0.000,E,A,V*60

$GPRMC,001748,A,3128.00000,N,12118.00000,E,0.000,0.000,200720,0.000,E,A,V*6F

$GPRMC,001749,A,3128.00000,N,12118.00000,E,0.000,0.000,200720,0.000,E,A,V*6E

$GPRMC,001750,A,3128.00000,N,12118.00000,E,0.000,0.000,200720,0.000,E,A,V*66

$GPRMC,001751,A,3128.00000,N,12118.00000,E,0.000,0.000,200720,0.000,E,A,V*67

$GPRMC,001752,A,3128.00000,N,12118.00000,E,0.000,0.000,200720,0.000,E,A,V*64

$GPRMC,001753,A,3128.00000,N,12118.00000,E,0.000,0.000,200720,0.000,E,A,V*65

$GPRMC,001754,A,3128.00000,N,12118.00000,E,0.000,0.000,200720,0.000,E,A,V*62

$GPRMC,001755,A,3128.00000,N,12118.00000,E,0.000,0.000,200720,0.000,E,A,V*63

$GPRMC,001756,A,3128.00000,N,12118.00000,E,0.000,0.000,200720,0.000,E,A,V*60

$GPRMC,001757,A,3128.00000,N,12118.00000,E,0.000,0.000,200720,0.000,E,A,V*61

$GPRMC,001758,A,3128.00000,N,12118.00000,E,0.000,0.000,200720,0.000,E,A,V*6E

$GPRMC,001759,A,3128.00000,N,12118.00000,E,0.000,0.000,200720,0.000,E,A,V*6F

$GPRMC,001800,A,3128.00000,N,12118.00000,E,0.000,0.000,200720,0.000,E,A,V*6C

$GPRMC,001801,A,3128.00000,N,12118.00000,E,0.000,0.000,200720,0.000,E,A,V*6D

$GPRMC,001802,A,3128.00000,N,12118.00000,E,0.000,0.000,200720,0.000,E,A,V*6E

$GPRMC,001803,A,3128.00000,N,12118.00000,E,0.000,0.000,200720,0.000,E,A,V*6F

$GPRMC,001804,A,3128.00000,N,12118.00000,E,0.000,0.000,200720,0.000,E,A,V*68

$GPRMC,001805,A,3128.00000,N,12118.00000,E,0.000,0.000,200720,0.000,E,A,V*69

$GPRMC,001806,A,3128.00000,N,12118.00000,E,0.000,0.000,200720,0.000,E,A,V*6A

$GPRMC,001807,A,3128.00000,N,12118.00000,E,0.000,0.000,200720,0.000,E,A,V*6B

$GPRMC,001808,A,3128.00000,N,12118.00000,E,0.000,0.000,200720,0.000,E,A,V*64

$GPRMC,001809,A,3128.00000,N,12118.00000,E,0.000,0.000,200720,0.000,E,A,V*65

$GPRMC,001810,A,3128.00000,N,12118.00000,E,0.000,0.000,200720,0.000,E,A,V*6D

$GPRMC,001811,A,3128.00000,N,12118.00000,E,0.000,0.000,200720,0.000,E,A,V*6C

$GPRMC,001812,A,3128.00000,N,12118.00000,E,0.000,0.000,200720,0.000,E,A,V*6F

$GPRMC,001813,A,3128.00000,N,12118.00000,E,0.000,0.000,200720,0.000,E,A,V*6E

$GPRMC,001814,A,3128.00000,N,12118.00000,E,0.000,0.000,200720,0.000,E,A,V*69

$GPRMC,001815,A,3128.00000,N,12118.00000,E,0.000,0.000,200720,0.000,E,A,V*68

$GPRMC,001816,A,3128.00000,N,12118.00000,E,0.000,0.000,200720,0.000,E,A,V*6B

$GPRMC,001817,A,3128.00000,N,12118.00000,E,0.000,0.000,200720,0.000,E,A,V*6A

$GPRMC,001818,A,3128.00000,N,12118.00000,E,0.000,0.000,200720,0.000,E,A,V*65

$GPRMC,001819,A,3128.00000,N,12118.00000,E,0.000,0.000,200720,0.000,E,A,V*64

$GPRMC,001820,A,3128.00000,N,12118.00000,E,0.000,0.000,200720,0.000,E,A,V*6E

$GPRMC,001821,A,3128.00000,N,12118.00000,E,0.000,0.000,200720,0.000,E,A,V*6F

$GPRMC,001822,A,3128.00000,N,12118.00000,E,0.000,0.000,200720,0.000,E,A,V*6C

$GPRMC,001823,A,3128.00000,N,12118.00000,E,0.000,0.000,200720,0.000,E,A,V*6D

$GPRMC,001824,A,3128.00000,N,12118.00000,E,0.000,0.000,200720,0.000,E,A,V*6A

$GPRMC,001825,A,3128.00000,N,12118.00000,E,0.000,0.000,200720,0.000,E,A,V*6B

$GPRMC,001826,A,3128.00000,N,12118.00000,E,0.000,0.000,200720,0.000,E,A,V*68

$GPRMC,001827,A,3128.00000,N,12118.00000,E,0.000,0.000,200720,0.000,E,A,V*69

$GPRMC,001828,A,3128.00000,N,12118.00000,E,0.000,0.000,200720,0.000,E,A,V*66

$GPRMC,001829,A,3128.00000,N,12118.00000,E,0.000,0.000,200720,0.000,E,A,V*67

$GPRMC,001830,A,3128.00000,N,12118.00000,E,0.000,0.000,200720,0.000,E,A,V*6F

$GPRMC,001831,A,3128.00000,N,12118.00000,E,0.000,0.000,200720,0.000,E,A,V*6E

$GPRMC,001832,A,3128.00000,N,12118.00000,E,0.000,0.000,200720,0.000,E,A,V*6D

$GPRMC,001833,A,3128.00000,N,12118.00000,E,0.000,0.000,200720,0.000,E,A,V*6C

$GPRMC,001834,A,3128.00000,N,12118.00000,E,0.000,0.000,200720,0.000,E,A,V*6B

$GPRMC,001835,A,3128.00000,N,12118.00000,E,0.000,0.000,200720,0.000,E,A,V*6A

