$GPGGA,235957,3128.00000,N,12118.00000,E,3,10,0.87,39.46,M,10.54,M,,*4A

$GPGGA,235958,3128.00000,N,12118.00000,E,3,10,0.87,39.46,M,10.54,M,,*45

$GPGGA,235959,3128.00000,N,12118.00000,E,3,10,0.87,39.46,M,10.54,M,,*44

$GPGGA,000000,3128.00000,N,12118.00000,E,3,10,0.87,39.46,M,10.54,M,,*45

$GPGGA,000001,3128.00000,N,12118.00000,E,3,10,0.87,39.46,M,10.54,M,,*44

$GPGGA,000002,3128.00000,N,12118.00000,E,3,10,0.87,39.46,M,10.54,M,,*47

$GPGGA,000003,3128.00000,N,12118.00000,E,3,10,0.87,39.46,M,10.54,M,,*46

$GPGGA,000004,3128.00000,N,12118.00000,E,3,10,0.87,39.46,M,10.54,M,,*41

$GPGGA,000005,3128.00000,N,12118.00000,E,3,10,0.87,39.46,M,10.54,M,,*40

$GPGGA,000006,3128.00000,N,12118.00000,E,3,10,0.87,39.46,M,10.54,M,,*43

$GPGGA,000007,3128.00000,N,12118.00000,E,3,10,0.87,39.46,M,10.54,M,,*42

$GPGGA,000008,3128.00000,N,12118.00000,E,3,10,0.87,39.46,M,10.54,M,,*4D

$GPGGA,000009,3128.00000,N,12118.00000,E,3,10,0.87,39.46,M,10.54,M,,*4C

$GPGGA,000010,3128.00000,N,12118.00000,E,3,10,0.87,39.46,M,10.54,M,,*44

$GPGGA,000011,3128.00000,N,12118.00000,E,3,10,0.87,39.46,M,10.54,M,,*45

$GPGGA,000012,3128.00000,N,12118.00000,E,3,10,0.87,39.46,M,10.54,M,,*46

$GPGGA,000013,3128.00000,N,12118.00000,E,3,10,0.87,39.46,M,10.54,M,,*47

$GPGGA,000014,3128.00000,N,12118.00000,E,3,10,0.87,39.46,M,10.54,M,,*40

$GPGGA,000015,3128.00000,N,12118.00000,E,3,10,0.87,39.46,M,10.54,M,,*41

$GPGGA,000016,3128.00000,N,12118.00000,E,3,10,0.87,39.46,M,10.54,M,,*42

$GPGGA,000017,3128.00000,N,12118.00000,E,3,10,0.87,39.46,M,10.54,M,,*43

$GPGGA,000018,3128.00000,N,12118.00000,E,3,10,0.87,39.46,M,10.54,M,,*4C

$GPGGA,000019,3128.00000,N,12118.00000,E,3,10,0.87,39.46,M,10.54,M,,*4D

$GPGGA,000020,3128.00000,N,12118.00000,E,3,10,0.87,39.46,M,10.54,M,,*47

$GPGGA,000021,3128.00000,N,12118.00000,E,3,10,0.87,39.46,M,10.54,M,,*46

$GPGGA,000022,3128.00000,N,12118.00000,E,3,10,0.87,39.46,M,10.54,M,,*45

$GPGGA,000023,3128.00000,N,12118.00000,E,3,10,0.87,39.46,M,10.54,M,,*44

$GPGGA,000024,3128.00000,N,12118.00000,E,3,10,0.87,39.46,M,10.54,M,,*43

$GPGGA,000025,3128.00000,N,12118.00000,E,3,10,0.87,39.46,M,10.54,M,,*42

$GPGGA,000026,3128.00000,N,12118.00000,E,3,10,0.87,39.46,M,10.54,M,,*41

$GPGGA,000027,3128.00000,N,12118.00000,E,3,10,0.87,39.46,M,10.54,M,,*40

$GPGGA,000028,3128.00000,N,12118.00000,E,3,10,0.87,39.46,M,10.54,M,,*4F

$GPGGA,000029,3128.00000,N,12118.00000,E,3,10,0.87,39.46,M,10.54,M,,*4E

$GPGGA,000030,3128.00000,N,12118.00000,E,3,10,0.87,39.46,M,10.54,M,,*46

$GPGGA,000031,3128.00000,N,12118.00000,E,3,10,0.87,39.46,M,10.54,M,,*47

$GPGGA,000032,3128.00000,N,12118.00000,E,3,10,0.87,39.46,M,10.54,M,,*44

$GPGGA,000033,3128.00000,N,12118.00000,E,3,10,0.87,39.46,M,10.54,M,,*45

$GPGGA,000034,3128.00000,N,12118.00000,E,3,10,0.87,39.46,M,10.54,M,,*42

$GPGGA,000035,3128.00000,N,12118.00000,E,3,10,0.87,39.46,M,10.54,M,,*43

$GPGGA,000036,3128.00000,N,12118.00000,E,3,10,0.87,39.46,M,10.54,M,,*40

$GPGGA,000037,3128.00000,N,12118.00000,E,3,10,0.87,39.46,M,10.54,M,,*41

$GPGGA,000038,3128.00000,N,12118.00000,E,3,10,0.87,39.46,M,10.54,M,,*4E

$GPGGA,000039,3128.00000,N,12118.00000,E,3,10,0.87,39.46,M,10.54,M,,*4F

$GPGGA,000040,3128.00000,N,12118.00000,E,3,10,0.87,39.46,M,10.54,M,,*41

$GPGGA,000041,3128.00000,N,12118.00000,E,3,10,0.87,39.46,M,10.54,M,,*40

$GPGGA,000042,3128.00000,N,12118.00000,E,3,10,0.87,39.46,M,10.54,M,,*43

$GPGGA,000043,3128.00000,N,12118.00000,E,3,10,0.87,39.46,M,10.54,M,,*42

$GPGGA,000044,3128.00000,N,12118.00000,E,3,10,0.87,39.46,M,10.54,M,,*45

$GPGGA,000045,3128.00000,N,12118.00000,E,3,10,0.87,39.46,M,10.54,M,,*44

$GPGGA,000046,3128.00000,N,12118.00000,E,3,10,0.87,39.46,M,10.54,M,,*47

$GPGGA,000047,3128.00000,N,12118.00000,E,3,10,0.87,39.46,M,10.54,M,,*46

$GPGGA,000048,3128.00000,N,12118.00000,E,3,10,0.87,39.46,M,10.54,M,,*49

$GPGGA,000049,3128.00000,N,12118.00000,E,3,10,0.87,39.46,M,10.54,M,,*48

$GPGGA,000050,3128.00000,N,12118.00000,E,3,10,0.87,39.46,M,10.54,M,,*40

$GPGGA,000051,3128.00000,N,12118.00000,E,3,10,0.87,39.46,M,10.54,M,,*41

$GPGGA,000052,3128.00000,N,12118.00000,E,3,10,0.87,39.46,M,10.54,M,,*42

$GPGGA,000053,3128.00000,N,12118.00000,E,3,10,0.87,39.46,M,10.54,M,,*43

$GPGGA,000054,3128.00000,N,12118.00000,E,3,10,0.87,39.46,M,10.54,M,,*44

$GPGGA,000055,3128.00000,N,12118.00000,E,3,10,0.87,39.46,M,10.54,M,,*45

$GPGGA,000056,3128.00000,N,12118.00000,E,3,10,0.87,39.46,M,10.54,M,,*46

$GPGGA,000057,3128.00000,N,12118.00000,E,3,10,0.87,39.46,M,10.54,M,,*47

$GPGGA,000058,3128.00000,N,12118.00000,E,3,10,0.87,39.46,M,10.54,M,,*48

$GPGGA,000059,3128.00000,N,12118.00000,E,3,10,0.87,39.46,M,10.54,M,,*49

$GPGGA,000100,3128.00000,N,12118.00000,E,3,10,0.87,39.46,M,10.54,M,,*44

$GPGGA,000101,3128.00000,N,12118.00000,E,3,10,0.87,39.46,M,10.54,M,,*45

$GPGGA,000102,3128.00000,N,12118.00000,E,3,10,0.87,39.46,M,10.54,M,,*46

$GPGGA,000103,3128.00000,N,12118.00000,E,3,10,0.87,39.46,M,10.54,M,,*47

$GPGGA,000104,3128.00000,N,12118.00000,E,3,10,0.87,39.46,M,10.54,M,,*40

$GPGGA,000105,3128.00000,N,12118.00000,E,3,10,0.87,39.46,M,10.54,M,,*41

$GPGGA,000106,3128.00000,N,12118.00000,E,3,10,0.87,39.46,M,10.54,M,,*42

$GPGGA,000107,3128.00000,N,12118.00000,E,3,10,0.87,39.46,M,10.54,M,,*43

$GPGGA,000108,3128.00000,N,12118.00000,E,3,10,0.87,39.46,M,10.54,M,,*4C

$GPGGA,000109,3128.00000,N,12118.00000,E,3,10,0.87,39.46,M,10.54,M,,*4D

$GPGGA,000110,3128.00000,N,12118.00000,E,3,10,0.87,39.46,M,10.54,M,,*45

$GPGGA,000111,3128.00000,N,12118.00000,E,3,10,0.87,39.46,M,10.54,M,,*44

$GPGGA,000112,3128.00000,N,12118.00000,E,3,10,0.87,39.46,M,10.54,M,,*47

$GPGGA,000113,3128.00000,N,12118.00000,E,3,10,0.87,39.46,M,10.54,M,,*46

$GPGGA,000114,3128.00000,N,12118.00000,E,3,10,0.87,39.46,M,10.54,M,,*41

$GPGGA,000115,3128.00000,N,12118.00000,E,3,10,0.87,39.46,M,10.54,M,,*40

$GPGGA,000116,3128.00000,N,12118.00000,E,3,10,0.87,39.46,M,10.54,M,,*43

$GPGGA,000117,3128.00000,N,12118.00000,E,3,10,0.87,39.46,M,10.54,M,,*42

$GPGGA,000118,3128.00000,N,12118.00000,E,3,10,0.87,39.46,M,10.54,M,,*4D

$GPGGA,000119,3128.00000,N,12118.00000,E,3,10,0.87,39.46,M,10.54,M,,*4C

$GPGGA,000120,3128.00000,N,12118.00000,E,3,10,0.87,39.46,M,10.54,M,,*46

$GPGGA,000121,3128.00000,N,12118.00000,E,3,10,0.87,39.46,M,10.54,M,,*47

$GPGGA,000122,3128.00000,N,12118.00000,E,3,10,0.87,39.46,M,10.54,M,,*44

$GPGGA,000123,3128.00000,N,12118.00000,E,3,10,0.87,39.46,M,10.54,M,,*45

$GPGGA,000124,3128.00000,N,12118.00000,E,3,10,0.87,39.46,M,10.54,M,,*42

$GPGGA,000125,3128.00000,N,12118.00000,E,3,10,0.87,39.46,M,10.54,M,,*43

$GPGGA,000126,3128.00000,N,12118.00000,E,3,10,0.87,39.46,M,10.54,M,,*40

$GPGGA,000127,3128.00000,N,12118.00000,E,3,10,0.87,39.46,M,10.54,M,,*41

$GPGGA,000128,3128.00000,N,12118.00000,E,3,10,0.87,39.46,M,10.54,M,,*4E

$GPGGA,000129,3128.00000,N,12118.00000,E,3,10,0.87,39.46,M,10.54,M,,*4F

$GPGGA,000130,3128.00000,N,12118.00000,E,3,10,0.87,39.46,M,10.54,M,,*47

$GPGGA,000131,3128.00000,N,12118.00000,E,3,10,0.87,39.46,M,10.54,M,,*46

$GPGGA,000132,3128.00000,N,12118.00000,E,3,10,0.87,39.46,M,10.54,M,,*45

$GPGGA,000133,3128.00000,N,12118.00000,E,3,10,0.87,39.46,M,10.54,M,,*44

$GPGGA,000134,3128.00000,N,12118.00000,E,3,10,0.87,39.46,M,10.54,M,,*43

$GPGGA,000135,3128.00000,N,12118.00000,E,3,10,0.87,39.46,M,10.54,M,,*42

$GPGGA,000136,3128.00000,N,12118.00000,E,3,10,0.87,39.46,M,10.54,M,,*41

$GPGGA,000137,3128.00000,N,12118.00000,E,3,10,0.87,39.46,M,10.54,M,,*40

$GPGGA,000138,3128.00000,N,12118.00000,E,3,10,0.87,39.46,M,10.54,M,,*4F

$GPGGA,000139,3128.00000,N,12118.00000,E,3,10,0.87,39.46,M,10.54,M,,*4E

$GPGGA,000140,3128.00000,N,12118.00000,E,3,10,0.87,39.46,M,10.54,M,,*40

$GPGGA,000141,3128.00000,N,12118.00000,E,3,10,0.87,39.46,M,10.54,M,,*41

$GPGGA,000142,3128.00000,N,12118.00000,E,3,10,0.87,39.46,M,10.54,M,,*42

$GPGGA,000143,3128.00000,N,12118.00000,E,3,10,0.87,39.46,M,10.54,M,,*43

$GPGGA,000144,3128.00000,N,12118.00000,E,3,10,0.87,39.46,M,10.54,M,,*44

$GPGGA,000145,3128.00000,N,12118.00000,E,3,10,0.87,39.46,M,10.54,M,,*45

$GPGGA,000146,3128.00000,N,12118.00000,E,3,10,0.87,39.46,M,10.54,M,,*46

$GPGGA,000147,3128.00000,N,12118.00000,E,3,10,0.87,39.46,M,10.54,M,,*47

$GPGGA,000148,3128.00000,N,12118.00000,E,3,10,0.87,39.46,M,10.54,M,,*48

$GPGGA,000149,3128.00000,N,12118.00000,E,3,10,0.87,39.46,M,10.54,M,,*49

$GPGGA,000150,3128.00000,N,12118.00000,E,3,10,0.87,39.46,M,10.54,M,,*41

$GPGGA,000151,3128.00000,N,12118.00000,E,3,10,0.87,39.46,M,10.54,M,,*40

$GPGGA,000152,3128.00000,N,12118.00000,E,3,10,0.87,39.46,M,10.54,M,,*43

$GPGGA,000153,3128.00000,N,12118.00000,E,3,10,0.87,39.46,M,10.54,M,,*42

$GPGGA,000154,3128.00000,N,12118.00000,E,3,10,0.87,39.46,M,10.54,M,,*45

$GPGGA,000155,3128.00000,N,12118.00000,E,3,10,0.87,39.46,M,10.54,M,,*44

$GPGGA,000156,3128.00000,N,12118.00000,E,3,10,0.87,39.46,M,10.54,M,,*47

$GPGGA,000157,3128.00000,N,12118.00000,E,3,10,0.87,39.46,M,10.54,M,,*46

$GPGGA,000158,3128.00000,N,12118.00000,E,3,10,0.87,39.46,M,10.54,M,,*49

$GPGGA,000159,3128.00000,N,12118.00000,E,3,10,0.87,39.46,M,10.54,M,,*48

$GPGGA,000200,3128.00000,N,12118.00000,E,3,10,0.87,39.46,M,10.54,M,,*47

$GPGGA,000201,3128.00000,N,12118.00000,E,3,10,0.87,39.46,M,10.54,M,,*46

$GPGGA,000202,3128.00000,N,12118.00000,E,3,10,0.87,39.46,M,10.54,M,,*45

$GPGGA,000203,3128.00000,N,12118.00000,E,3,10,0.87,39.46,M,10.54,M,,*44

$GPGGA,000204,3128.00000,N,12118.00000,E,3,10,0.87,39.46,M,10.54,M,,*43

$GPGGA,000205,3128.00000,N,12118.00000,E,3,10,0.87,39.46,M,10.54,M,,*42

$GPGGA,000206,3128.00000,N,12118.00000,E,3,10,0.87,39.46,M,10.54,M,,*41

$GPGGA,000207,3128.00000,N,12118.00000,E,3,10,0.87,39.46,M,10.54,M,,*40

$GPGGA,000208,3128.00000,N,12118.00000,E,3,10,0.87,39.46,M,10.54,M,,*4F

$GPGGA,000209,3128.00000,N,12118.00000,E,3,10,0.87,39.46,M,10.54,M,,*4E

$GPGGA,000210,3128.00000,N,12118.00000,E,3,10,0.87,39.46,M,10.54,M,,*46

$GPGGA,000211,3128.00000,N,12118.00000,E,3,10,0.87,39.46,M,10.54,M,,*47

$GPGGA,000212,3128.00000,N,12118.00000,E,3,10,0.87,39.46,M,10.54,M,,*44

$GPGGA,000213,3128.00000,N,12118.00000,E,3,10,0.87,39.46,M,10.54,M,,*45

$GPGGA,000214,3128.00000,N,12118.00000,E,3,10,0.87,39.46,M,10.54,M,,*42

$GPGGA,000215,3128.00000,N,12118.00000,E,3,10,0.87,39.46,M,10.54,M,,*43

$GPGGA,000216,3128.00000,N,12118.00000,E,3,10,0.87,39.46,M,10.54,M,,*40

$GPGGA,000217,3128.00000,N,12118.00000,E,3,10,0.87,39.46,M,10.54,M,,*41

$GPGGA,000218,3128.00000,N,12118.00000,E,3,10,0.87,39.46,M,10.54,M,,*4E

$GPGGA,000219,3128.00000,N,12118.00000,E,3,10,0.87,39.46,M,10.54,M,,*4F

$GPGGA,000220,3128.00000,N,12118.00000,E,3,10,0.87,39.46,M,10.54,M,,*45

$GPGGA,000221,3128.00000,N,12118.00000,E,3,10,0.87,39.46,M,10.54,M,,*44

$GPGGA,000222,3128.00000,N,12118.00000,E,3,10,0.87,39.46,M,10.54,M,,*47

$GPGGA,000223,3128.00000,N,12118.00000,E,3,10,0.87,39.46,M,10.54,M,,*46

$GPGGA,000224,3128.00000,N,12118.00000,E,3,10,0.87,39.46,M,10.54,M,,*41

$GPGGA,000225,3128.00000,N,12118.00000,E,3,10,0.87,39.46,M,10.54,M,,*40

$GPGGA,000226,3128.00000,N,12118.00000,E,3,10,0.87,39.46,M,10.54,M,,*43

$GPGGA,000227,3128.00000,N,12118.00000,E,3,10,0.87,39.46,M,10.54,M,,*42

$GPGGA,000228,3128.00000,N,12118.00000,E,3,10,0.87,39.46,M,10.54,M,,*4D

$GPGGA,000229,3128.00000,N,12118.00000,E,3,10,0.87,39.46,M,10.54,M,,*4C

$GPGGA,000230,3128.00000,N,12118.00000,E,3,10,0.87,39.46,M,10.54,M,,*44

$GPGGA,000231,3128.00000,N,12118.00000,E,3,10,0.87,39.46,M,10.54,M,,*45

$GPGGA,000232,3128.00000,N,12118.00000,E,3,10,0.87,39.46,M,10.54,M,,*46

$GPGGA,000233,3128.00000,N,12118.00000,E,3,10,0.87,39.46,M,10.54,M,,*47

$GPGGA,000234,3128.00000,N,12118.00000,E,3,10,0.87,39.46,M,10.54,M,,*40

$GPGGA,000235,3128.00000,N,12118.00000,E,3,10,0.87,39.46,M,10.54,M,,*41

$GPGGA,000236,3128.00000,N,12118.00000,E,3,10,0.87,39.46,M,10.54,M,,*42

$GPGGA,000237,3128.00000,N,12118.00000,E,3,10,0.87,39.46,M,10.54,M,,*43

$GPGGA,000238,3128.00000,N,12118.00000,E,3,10,0.87,39.46,M,10.54,M,,*4C

$GPGGA,000239,3128.00000,N,12118.00000,E,3,10,0.87,39.46,M,10.54,M,,*4D

$GPGGA,000240,3128.00000,N,12118.00000,E,3,10,0.87,39.46,M,10.54,M,,*43

$GPGGA,000241,3128.00000,N,12118.00000,E,3,10,0.87,39.46,M,10.54,M,,*42

$GPGGA,000242,3128.00000,N,12118.00000,E,3,10,0.87,39.46,M,10.54,M,,*41

$GPGGA,000243,3128.00000,N,12118.00000,E,3,10,0.87,39.46,M,10.54,M,,*40

$GPGGA,000244,3128.00000,N,12118.00000,E,3,10,0.87,39.46,M,10.54,M,,*47

$GPGGA,000245,3128.00000,N,12118.00000,E,3,10,0.87,39.46,M,10.54,M,,*46

$GPGGA,000246,3128.00000,N,12118.00000,E,3,10,0.87,39.46,M,10.54,M,,*45

$GPGGA,000247,3128.00000,N,12118.00000,E,3,10,0.87,39.46,M,10.54,M,,*44

$GPGGA,000248,3128.00000,N,12118.00000,E,3,10,0.87,39.46,M,10.54,M,,*4B

$GPGGA,000249,3128.00000,N,12118.00000,E,3,10,0.87,39.46,M,10.54,M,,*4A

$GPGGA,000250,3128.00000,N,12118.00000,E,3,10,0.87,39.46,M,10.54,M,,*42

$GPGGA,000251,3128.00000,N,12118.00000,E,3,10,0.87,39.46,M,10.54,M,,*43

$GPGGA,000252,3128.00000,N,12118.00000,E,3,10,0.87,39.46,M,10.54,M,,*40

$GPGGA,000253,3128.00000,N,12118.00000,E,3,10,0.87,39.46,M,10.54,M,,*41

$GPGGA,000254,3128.00000,N,12118.00000,E,3,10,0.87,39.46,M,10.54,M,,*46

$GPGGA,000255,3128.00000,N,12118.00000,E,3,10,0.87,39.46,M,10.54,M,,*47

$GPGGA,000256,3128.00000,N,12118.00000,E,3,10,0.87,39.46,M,10.54,M,,*44

$GPGGA,000257,3128.00000,N,12118.00000,E,3,10,0.87,39.46,M,10.54,M,,*45

$GPGGA,000258,3128.00000,N,12118.00000,E,3,10,0.87,39.46,M,10.54,M,,*4A

$GPGGA,000259,3128.00000,N,12118.00000,E,3,10,0.87,39.46,M,10.54,M,,*4B

$GPGGA,000300,3128.00000,N,12118.00000,E,3,10,0.87,39.46,M,10.54,M,,*46

$GPGGA,000301,3128.00000,N,12118.00000,E,3,10,0.87,39.46,M,10.54,M,,*47

$GPGGA,000302,3128.00000,N,12118.00000,E,3,10,0.87,39.46,M,10.54,M,,*44

$GPGGA,000303,3128.00000,N,12118.00000,E,3,10,0.87,39.46,M,10.54,M,,*45

$GPGGA,000304,3128.00000,N,12118.00000,E,3,10,0.87,39.46,M,10.54,M,,*42

$GPGGA,000305,3128.00000,N,12118.00000,E,3,10,0.87,39.46,M,10.54,M,,*43

$GPGGA,000306,3128.00000,N,12118.00000,E,3,10,0.87,39.46,M,10.54,M,,*40

$GPGGA,000307,3128.00000,N,12118.00000,E,3,10,0.87,39.46,M,10.54,M,,*41

$GPGGA,000308,3128.00000,N,12118.00000,E,3,10,0.87,39.46,M,10.54,M,,*4E

$GPGGA,000309,3128.00000,N,12118.00000,E,3,10,0.87,39.46,M,10.54,M,,*4F

$GPGGA,000310,3128.00000,N,12118.00000,E,3,10,0.87,39.46,M,10.54,M,,*47

$GPGGA,000311,3128.00000,N,12118.00000,E,3,10,0.87,39.46,M,10.54,M,,*46

$GPGGA,000312,3128.00000,N,12118.00000,E,3,10,0.87,39.46,M,10.54,M,,*45

$GPGGA,000313,3128.00000,N,12118.00000,E,3,10,0.87,39.46,M,10.54,M,,*44

$GPGGA,000314,3128.00000,N,12118.00000,E,3,10,0.87,39.46,M,10.54,M,,*43

$GPGGA,000315,3128.00000,N,12118.00000,E,3,10,0.87,39.46,M,10.54,M,,*42

$GPGGA,000316,3128.00000,N,12118.00000,E,3,10,0.87,39.46,M,10.54,M,,*41

$GPGGA,000317,3128.00000,N,12118.00000,E,3,10,0.87,39.46,M,10.54,M,,*40

$GPGGA,000318,3128.00000,N,12118.00000,E,3,10,0.87,39.46,M,10.54,M,,*4F

$GPGGA,000319,3128.00000,N,12118.00000,E,3,10,0.87,39.46,M,10.54,M,,*4E

$GPGGA,000320,3128.00000,N,12118.00000,E,3,10,0.87,39.46,M,10.54,M,,*44

$GPGGA,000321,3128.00000,N,12118.00000,E,3,10,0.87,39.46,M,10.54,M,,*45

