$GPRMC,001850,A,3128.00000,N,12118.00000,E,0.000,0.000,200720,0.000,E,A,V*69

$GPRMC,001851,A,3128.00000,N,12118.00000,E,0.000,0.000,200720,0.000,E,A,V*68

$GPRMC,001852,A,3128.00000,N,12118.00000,E,0.000,0.000,200720,0.000,E,A,V*6B

$GPRMC,001853,A,3128.00000,N,12118.00000,E,0.000,0.000,200720,0.000,E,A,V*6A

$GPRMC,001854,A,3128.00000,N,12118.00000,E,0.000,0.000,200720,0.000,E,A,V*6D

$GPRMC,001855,A,3128.00000,N,12118.00000,E,0.000,0.000,200720,0.000,E,A,V*6C

$GPRMC,001856,A,3128.00000,N,12118.00000,E,0.000,0.000,200720,0.000,E,A,V*6F

$GPRMC,001857,A,3128.00000,N,12118.00000,E,0.000,0.000,200720,0.000,E,A,V*6E

$GPRMC,001858,A,3128.00000,N,12118.00000,E,0.000,0.000,200720,0.000,E,A,V*61

$GPRMC,001859,A,3128.00000,N,12118.00000,E,0.000,0.000,200720,0.000,E,A,V*60

$GPRMC,001900,A,3128.00000,N,12118.00000,E,0.000,0.000,200720,0.000,E,A,V*6D

$GPRMC,001901,A,3128.00000,N,12118.00000,E,0.000,0.000,200720,0.000,E,A,V*6C

$GPRMC,001902,A,3128.00000,N,12118.00000,E,0.000,0.000,200720,0.000,E,A,V*6F

$GPRMC,001903,A,3128.00000,N,12118.00000,E,0.000,0.000,200720,0.000,E,A,V*6E

$GPRMC,001904,A,3128.00000,N,12118.00000,E,0.000,0.000,200720,0.000,E,A,V*69

$GPRMC,001905,A,3128.00000,N,12118.00000,E,0.000,0.000,200720,0.000,E,A,V*68

$GPRMC,001906,A,3128.00000,N,12118.00000,E,0.000,0.000,200720,0.000,E,A,V*6B

$GPRMC,001907,A,3128.00000,N,12118.00000,E,0.000,0.000,200720,0.000,E,A,V*6A

$GPRMC,001908,A,3128.00000,N,12118.00000,E,0.000,0.000,200720,0.000,E,A,V*65

$GPRMC,001909,A,3128.00000,N,12118.00000,E,0.000,0.000,200720,0.000,E,A,V*64

$GPRMC,001910,A,3128.00000,N,12118.00000,E,0.000,0.000,200720,0.000,E,A,V*6C

$GPRMC,001911,A,3128.00000,N,12118.00000,E,0.000,0.000,200720,0.000,E,A,V*6D

$GPRMC,001912,A,3128.00000,N,12118.00000,E,0.000,0.000,200720,0.000,E,A,V*6E

$GPRMC,001913,A,3128.00000,N,12118.00000,E,0.000,0.000,200720,0.000,E,A,V*6F

$GPRMC,001914,A,3128.00000,N,12118.00000,E,0.000,0.000,200720,0.000,E,A,V*68

$GPRMC,001915,A,3128.00000,N,12118.00000,E,0.000,0.000,200720,0.000,E,A,V*69

$GPRMC,001916,A,3128.00000,N,12118.00000,E,0.000,0.000,200720,0.000,E,A,V*6A

$GPRMC,001917,A,3128.00000,N,12118.00000,E,0.000,0.000,200720,0.000,E,A,V*6B

$GPRMC,001918,A,3128.00000,N,12118.00000,E,0.000,0.000,200720,0.000,E,A,V*64

$GPRMC,001919,A,3128.00000,N,12118.00000,E,0.000,0.000,200720,0.000,E,A,V*65

$GPRMC,001920,A,3128.00000,N,12118.00000,E,0.000,0.000,200720,0.000,E,A,V*6F

$GPRMC,001921,A,3128.00000,N,12118.00000,E,0.000,0.000,200720,0.000,E,A,V*6E

$GPRMC,001922,A,3128.00000,N,12118.00000,E,0.000,0.000,200720,0.000,E,A,V*6D

$GPRMC,001923,A,3128.00000,N,12118.00000,E,0.000,0.000,200720,0.000,E,A,V*6C

$GPRMC,001924,A,3128.00000,N,12118.00000,E,0.000,0.000,200720,0.000,E,A,V*6B

$GPRMC,001925,A,3128.00000,N,12118.00000,E,0.000,0.000,200720,0.000,E,A,V*6A

$GPRMC,001926,A,3128.00000,N,12118.00000,E,0.000,0.000,200720,0.000,E,A,V*69

$GPRMC,001927,A,3128.00000,N,12118.00000,E,0.000,0.000,200720,0.000,E,A,V*68

$GPRMC,001928,A,3128.00000,N,12118.00000,E,0.000,0.000,200720,0.000,E,A,V*67

$GPRMC,001929,A,3128.00000,N,12118.00000,E,0.000,0.000,200720,0.000,E,A,V*66

$GPRMC,001930,A,3128.00000,N,12118.00000,E,0.000,0.000,200720,0.000,E,A,V*6E

$GPRMC,001931,A,3128.00000,N,12118.00000,E,0.000,0.000,200720,0.000,E,A,V*6F

$GPRMC,001932,A,3128.00000,N,12118.00000,E,0.000,0.000,200720,0.000,E,A,V*6C

$GPRMC,001933,A,3128.00000,N,12118.00000,E,0.000,0.000,200720,0.000,E,A,V*6D

$GPRMC,001934,A,3128.00000,N,12118.00000,E,0.000,0.000,200720,0.000,E,A,V*6A

$GPRMC,001935,A,3128.00000,N,12118.00000,E,0.000,0.000,200720,0.000,E,A,V*6B

$GPRMC,001936,A,3128.00000,N,12118.00000,E,0.000,0.000,200720,0.000,E,A,V*68

$GPRMC,001937,A,3128.00000,N,12118.00000,E,0.000,0.000,200720,0.000,E,A,V*69

$GPRMC,001938,A,3128.00000,N,12118.00000,E,0.000,0.000,200720,0.000,E,A,V*66

$GPRMC,001939,A,3128.00000,N,12118.00000,E,0.000,0.000,200720,0.000,E,A,V*67

$GPRMC,001940,A,3128.00000,N,12118.00000,E,0.000,0.000,200720,0.000,E,A,V*69

$GPRMC,001941,A,3128.00000,N,12118.00000,E,0.000,0.000,200720,0.000,E,A,V*68

$GPRMC,001942,A,3128.00000,N,12118.00000,E,0.000,0.000,200720,0.000,E,A,V*6B

$GPRMC,001943,A,3128.00000,N,12118.00000,E,0.000,0.000,200720,0.000,E,A,V*6A

$GPRMC,001944,A,3128.00000,N,12118.00000,E,0.000,0.000,200720,0.000,E,A,V*6D

$GPRMC,001945,A,3128.00000,N,12118.00000,E,0.000,0.000,200720,0.000,E,A,V*6C

$GPRMC,001946,A,3128.00000,N,12118.00000,E,0.000,0.000,200720,0.000,E,A,V*6F

$GPRMC,001947,A,3128.00000,N,12118.00000,E,0.000,0.000,200720,0.000,E,A,V*6E

$GPRMC,001948,A,3128.00000,N,12118.00000,E,0.000,0.000,200720,0.000,E,A,V*61

$GPRMC,001949,A,3128.00000,N,12118.00000,E,0.000,0.000,200720,0.000,E,A,V*60

$GPRMC,001950,A,3128.00000,N,12118.00000,E,0.000,0.000,200720,0.000,E,A,V*68

$GPRMC,001951,A,3128.00000,N,12118.00000,E,0.000,0.000,200720,0.000,E,A,V*69

$GPRMC,001952,A,3128.00000,N,12118.00000,E,0.000,0.000,200720,0.000,E,A,V*6A

$GPRMC,001953,A,3128.00000,N,12118.00000,E,0.000,0.000,200720,0.000,E,A,V*6B

$GPRMC,001954,A,3128.00000,N,12118.00000,E,0.000,0.000,200720,0.000,E,A,V*6C

$GPRMC,001955,A,3128.00000,N,12118.00000,E,0.000,0.000,200720,0.000,E,A,V*6D

$GPRMC,001956,A,3128.00000,N,12118.00000,E,0.000,0.000,200720,0.000,E,A,V*6E

$GPRMC,001957,A,3128.00000,N,12118.00000,E,0.000,0.000,200720,0.000,E,A,V*6F

$GPRMC,001958,A,3128.00000,N,12118.00000,E,0.000,0.000,200720,0.000,E,A,V*60

$GPRMC,001959,A,3128.00000,N,12118.00000,E,0.000,0.000,200720,0.000,E,A,V*61

$GPRMC,002000,A,3128.00000,N,12118.00000,E,0.000,0.000,200720,0.000,E,A,V*67

$GPRMC,002001,A,3128.00000,N,12118.00000,E,0.000,0.000,200720,0.000,E,A,V*66

$GPRMC,002002,A,3128.00000,N,12118.00000,E,0.000,0.000,200720,0.000,E,A,V*65

$GPRMC,002003,A,3128.00000,N,12118.00000,E,0.000,0.000,200720,0.000,E,A,V*64

$GPRMC,002004,A,3128.00000,N,12118.00000,E,0.000,0.000,200720,0.000,E,A,V*63

$GPRMC,002005,A,3128.00000,N,12118.00000,E,0.000,0.000,200720,0.000,E,A,V*62

$GPRMC,002006,A,3128.00000,N,12118.00000,E,0.000,0.000,200720,0.000,E,A,V*61

$GPRMC,002007,A,3128.00000,N,12118.00000,E,0.000,0.000,200720,0.000,E,A,V*60

$GPRMC,002008,A,3128.00000,N,12118.00000,E,0.000,0.000,200720,0.000,E,A,V*6F

$GPRMC,002009,A,3128.00000,N,12118.00000,E,0.000,0.000,200720,0.000,E,A,V*6E

$GPRMC,002010,A,3128.00000,N,12118.00000,E,0.000,0.000,200720,0.000,E,A,V*66

$GPRMC,002011,A,3128.00000,N,12118.00000,E,0.000,0.000,200720,0.000,E,A,V*67

$GPRMC,002012,A,3128.00000,N,12118.00000,E,0.000,0.000,200720,0.000,E,A,V*64

$GPRMC,002013,A,3128.00000,N,12118.00000,E,0.000,0.000,200720,0.000,E,A,V*65

$GPRMC,002014,A,3128.00000,N,12118.00000,E,0.000,0.000,200720,0.000,E,A,V*62

$GPRMC,002015,A,3128.00000,N,12118.00000,E,0.000,0.000,200720,0.000,E,A,V*63

$GPRMC,002016,A,3128.00000,N,12118.00000,E,0.000,0.000,200720,0.000,E,A,V*60

$GPRMC,002017,A,3128.00000,N,12118.00000,E,0.000,0.000,200720,0.000,E,A,V*61

$GPRMC,002018,A,3128.00000,N,12118.00000,E,0.000,0.000,200720,0.000,E,A,V*6E

$GPRMC,002019,A,3128.00000,N,12118.00000,E,0.000,0.000,200720,0.000,E,A,V*6F

$GPRMC,002020,A,3128.00000,N,12118.00000,E,0.000,0.000,200720,0.000,E,A,V*65

$GPRMC,002021,A,3128.00000,N,12118.00000,E,0.000,0.000,200720,0.000,E,A,V*64

$GPRMC,002022,A,3128.00000,N,12118.00000,E,0.000,0.000,200720,0.000,E,A,V*67

$GPRMC,002023,A,3128.00000,N,12118.00000,E,0.000,0.000,200720,0.000,E,A,V*66

$GPRMC,002024,A,3128.00000,N,12118.00000,E,0.000,0.000,200720,0.000,E,A,V*61

$GPRMC,002025,A,3128.00000,N,12118.00000,E,0.000,0.000,200720,0.000,E,A,V*60

$GPRMC,002026,A,3128.00000,N,12118.00000,E,0.000,0.000,200720,0.000,E,A,V*63

$GPRMC,002027,A,3128.00000,N,12118.00000,E,0.000,0.000,200720,0.000,E,A,V*62

$GPRMC,002028,A,3128.00000,N,12118.00000,E,0.000,0.000,200720,0.000,E,A,V*6D

$GPRMC,002029,A,3128.00000,N,12118.00000,E,0.000,0.000,200720,0.000,E,A,V*6C

$GPRMC,002030,A,3128.00000,N,12118.00000,E,0.000,0.000,200720,0.000,E,A,V*64

$GPRMC,002031,A,3128.00000,N,12118.00000,E,0.000,0.000,200720,0.000,E,A,V*65

$GPRMC,002032,A,3128.00000,N,12118.00000,E,0.000,0.000,200720,0.000,E,A,V*66

$GPRMC,002033,A,3128.00000,N,12118.00000,E,0.000,0.000,200720,0.000,E,A,V*67

$GPRMC,002034,A,3128.00000,N,12118.00000,E,0.000,0.000,200720,0.000,E,A,V*60

$GPRMC,002035,A,3128.00000,N,12118.00000,E,0.000,0.000,200720,0.000,E,A,V*61

$GPRMC,002036,A,3128.00000,N,12118.00000,E,0.000,0.000,200720,0.000,E,A,V*62

$GPRMC,002037,A,3128.00000,N,12118.00000,E,0.000,0.000,200720,0.000,E,A,V*63

$GPRMC,002038,A,3128.00000,N,12118.00000,E,0.000,0.000,200720,0.000,E,A,V*6C

$GPRMC,002039,A,3128.00000,N,12118.00000,E,0.000,0.000,200720,0.000,E,A,V*6D

$GPRMC,002040,A,3128.00000,N,12118.00000,E,0.000,0.000,200720,0.000,E,A,V*63

$GPRMC,002041,A,3128.00000,N,12118.00000,E,0.000,0.000,200720,0.000,E,A,V*62

$GPRMC,002042,A,3128.00000,N,12118.00000,E,0.000,0.000,200720,0.000,E,A,V*61

$GPRMC,002043,A,3128.00000,N,12118.00000,E,0.000,0.000,200720,0.000,E,A,V*60

$GPRMC,002044,A,3128.00000,N,12118.00000,E,0.000,0.000,200720,0.000,E,A,V*67

$GPRMC,002045,A,3128.00000,N,12118.00000,E,0.000,0.000,200720,0.000,E,A,V*66

$GPRMC,002046,A,3128.00000,N,12118.00000,E,0.000,0.000,200720,0.000,E,A,V*65

$GPRMC,002047,A,3128.00000,N,12118.00000,E,0.000,0.000,200720,0.000,E,A,V*64

$GPRMC,002048,A,3128.00000,N,12118.00000,E,0.000,0.000,200720,0.000,E,A,V*6B

$GPRMC,002049,A,3128.00000,N,12118.00000,E,0.000,0.000,200720,0.000,E,A,V*6A

$GPRMC,002050,A,3128.00000,N,12118.00000,E,0.000,0.000,200720,0.000,E,A,V*62

$GPRMC,002051,A,3128.00000,N,12118.00000,E,0.000,0.000,200720,0.000,E,A,V*63

$GPRMC,002052,A,3128.00000,N,12118.00000,E,0.000,0.000,200720,0.000,E,A,V*60

$GPRMC,002053,A,3128.00000,N,12118.00000,E,0.000,0.000,200720,0.000,E,A,V*61

$GPRMC,002054,A,3128.00000,N,12118.00000,E,0.000,0.000,200720,0.000,E,A,V*66

$GPRMC,002055,A,3128.00000,N,12118.00000,E,0.000,0.000,200720,0.000,E,A,V*67

$GPRMC,002056,A,3128.00000,N,12118.00000,E,0.000,0.000,200720,0.000,E,A,V*64

$GPRMC,002057,A,3128.00000,N,12118.00000,E,0.000,0.000,200720,0.000,E,A,V*65

$GPRMC,002058,A,3128.00000,N,12118.00000,E,0.000,0.000,200720,0.000,E,A,V*6A

$GPRMC,002059,A,3128.00000,N,12118.00000,E,0.000,0.000,200720,0.000,E,A,V*6B

$GPRMC,002100,A,3128.00000,N,12118.00000,E,0.000,0.000,200720,0.000,E,A,V*66

$GPRMC,002101,A,3128.00000,N,12118.00000,E,0.000,0.000,200720,0.000,E,A,V*67

$GPRMC,002102,A,3128.00000,N,12118.00000,E,0.000,0.000,200720,0.000,E,A,V*64

$GPRMC,002103,A,3128.00000,N,12118.00000,E,0.000,0.000,200720,0.000,E,A,V*65

$GPRMC,002104,A,3128.00000,N,12118.00000,E,0.000,0.000,200720,0.000,E,A,V*62

$GPRMC,002105,A,3128.00000,N,12118.00000,E,0.000,0.000,200720,0.000,E,A,V*63

$GPRMC,002106,A,3128.00000,N,12118.00000,E,0.000,0.000,200720,0.000,E,A,V*60

$GPRMC,002107,A,3128.00000,N,12118.00000,E,0.000,0.000,200720,0.000,E,A,V*61

$GPRMC,002108,A,3128.00000,N,12118.00000,E,0.000,0.000,200720,0.000,E,A,V*6E

$GPRMC,002109,A,3128.00000,N,12118.00000,E,0.000,0.000,200720,0.000,E,A,V*6F

$GPRMC,002110,A,3128.00000,N,12118.00000,E,0.000,0.000,200720,0.000,E,A,V*67

$GPRMC,002111,A,3128.00000,N,12118.00000,E,0.000,0.000,200720,0.000,E,A,V*66

$GPRMC,002112,A,3128.00000,N,12118.00000,E,0.000,0.000,200720,0.000,E,A,V*65

$GPRMC,002113,A,3128.00000,N,12118.00000,E,0.000,0.000,200720,0.000,E,A,V*64

$GPRMC,002114,A,3128.00000,N,12118.00000,E,0.000,0.000,200720,0.000,E,A,V*63

$GPRMC,002115,A,3128.00000,N,12118.00000,E,0.000,0.000,200720,0.000,E,A,V*62

$GPRMC,002116,A,3128.00000,N,12118.00000,E,0.000,0.000,200720,0.000,E,A,V*61

$GPRMC,002117,A,3128.00000,N,12118.00000,E,0.000,0.000,200720,0.000,E,A,V*60

$GPRMC,002118,A,3128.00000,N,12118.00000,E,0.000,0.000,200720,0.000,E,A,V*6F

$GPRMC,002119,A,3128.00000,N,12118.00000,E,0.000,0.000,200720,0.000,E,A,V*6E

$GPRMC,002120,A,3128.00000,N,12118.00000,E,0.000,0.000,200720,0.000,E,A,V*64

$GPRMC,002121,A,3128.00000,N,12118.00000,E,0.000,0.000,200720,0.000,E,A,V*65

$GPRMC,002122,A,3128.00000,N,12118.00000,E,0.000,0.000,200720,0.000,E,A,V*66

$GPRMC,002123,A,3128.00000,N,12118.00000,E,0.000,0.000,200720,0.000,E,A,V*67

$GPRMC,002124,A,3128.00000,N,12118.00000,E,0.000,0.000,200720,0.000,E,A,V*60

$GPRMC,002125,A,3128.00000,N,12118.00000,E,0.000,0.000,200720,0.000,E,A,V*61

$GPRMC,002126,A,3128.00000,N,12118.00000,E,0.000,0.000,200720,0.000,E,A,V*62

$GPRMC,002127,A,3128.00000,N,12118.00000,E,0.000,0.000,200720,0.000,E,A,V*63

$GPRMC,002128,A,3128.00000,N,12118.00000,E,0.000,0.000,200720,0.000,E,A,V*6C

$GPRMC,002129,A,3128.00000,N,12118.00000,E,0.000,0.000,200720,0.000,E,A,V*6D

$GPRMC,002130,A,3128.00000,N,12118.00000,E,0.000,0.000,200720,0.000,E,A,V*65

$GPRMC,002131,A,3128.00000,N,12118.00000,E,0.000,0.000,200720,0.000,E,A,V*64

$GPRMC,002132,A,3128.00000,N,12118.00000,E,0.000,0.000,200720,0.000,E,A,V*67

$GPRMC,002133,A,3128.00000,N,12118.00000,E,0.000,0.000,200720,0.000,E,A,V*66

$GPRMC,002134,A,3128.00000,N,12118.00000,E,0.000,0.000,200720,0.000,E,A,V*61

$GPRMC,002135,A,3128.00000,N,12118.00000,E,0.000,0.000,200720,0.000,E,A,V*60

$GPRMC,002136,A,3128.00000,N,12118.00000,E,0.000,0.000,200720,0.000,E,A,V*63

$GPRMC,002137,A,3128.00000,N,12118.00000,E,0.000,0.000,200720,0.000,E,A,V*62

$GPRMC,002138,A,3128.00000,N,12118.00000,E,0.000,0.000,200720,0.000,E,A,V*6D

$GPRMC,002139,A,3128.00000,N,12118.00000,E,0.000,0.000,200720,0.000,E,A,V*6C

$GPRMC,002140,A,3128.00000,N,12118.00000,E,0.000,0.000,200720,0.000,E,A,V*62

$GPRMC,002141,A,3128.00000,N,12118.00000,E,0.000,0.000,200720,0.000,E,A,V*63

$GPRMC,002142,A,3128.00000,N,12118.00000,E,0.000,0.000,200720,0.000,E,A,V*60

$GPRMC,002143,A,3128.00000,N,12118.00000,E,0.000,0.000,200720,0.000,E,A,V*61

$GPRMC,002144,A,3128.00000,N,12118.00000,E,0.000,0.000,200720,0.000,E,A,V*66

$GPRMC,002145,A,3128.00000,N,12118.00000,E,0.000,0.000,200720,0.000,E,A,V*67

$GPRMC,002146,A,3128.00000,N,12118.00000,E,0.000,0.000,200720,0.000,E,A,V*64

$GPRMC,002147,A,3128.00000,N,12118.00000,E,0.000,0.000,200720,0.000,E,A,V*65

$GPRMC,002148,A,3128.00000,N,12118.00000,E,0.000,0.000,200720,0.000,E,A,V*6A

$GPRMC,002149,A,3128.00000,N,12118.00000,E,0.000,0.000,200720,0.000,E,A,V*6B

$GPRMC,002150,A,3128.00000,N,12118.00000,E,0.000,0.000,200720,0.000,E,A,V*63

$GPRMC,002151,A,3128.00000,N,12118.00000,E,0.000,0.000,200720,0.000,E,A,V*62

$GPRMC,002152,A,3128.00000,N,12118.00000,E,0.000,0.000,200720,0.000,E,A,V*61

$GPRMC,002153,A,3128.00000,N,12118.00000,E,0.000,0.000,200720,0.000,E,A,V*60

$GPRMC,002154,A,3128.00000,N,12118.00000,E,0.000,0.000,200720,0.000,E,A,V*67

$GPRMC,002155,A,3128.00000,N,12118.00000,E,0.000,0.000,200720,0.000,E,A,V*66

$GPRMC,002156,A,3128.00000,N,12118.00000,E,0.000,0.000,200720,0.000,E,A,V*65

$GPRMC,002157,A,3128.00000,N,12118.00000,E,0.000,0.000,200720,0.000,E,A,V*64

$GPRMC,002158,A,3128.00000,N,12118.00000,E,0.000,0.000,200720,0.000,E,A,V*6B

$GPRMC,002159,A,3128.00000,N,12118.00000,E,0.000,0.000,200720,0.000,E,A,V*6A

$GPRMC,002200,A,3128.00000,N,12118.00000,E,0.000,0.000,200720,0.000,E,A,V*65

$GPRMC,002201,A,3128.00000,N,12118.00000,E,0.000,0.000,200720,0.000,E,A,V*64

$GPRMC,002202,A,3128.00000,N,12118.00000,E,0.000,0.000,200720,0.000,E,A,V*67

$GPRMC,002203,A,3128.00000,N,12118.00000,E,0.000,0.000,200720,0.000,E,A,V*66

$GPRMC,002204,A,3128.00000,N,12118.00000,E,0.000,0.000,200720,0.000,E,A,V*61

$GPRMC,002205,A,3128.00000,N,12118.00000,E,0.000,0.000,200720,0.000,E,A,V*60

$GPRMC,002206,A,3128.00000,N,12118.00000,E,0.000,0.000,200720,0.000,E,A,V*63

$GPRMC,002207,A,3128.00000,N,12118.00000,E,0.000,0.000,200720,0.000,E,A,V*62

$GPRMC,002208,A,3128.00000,N,12118.00000,E,0.000,0.000,200720,0.000,E,A,V*6D

$GPRMC,002209,A,3128.00000,N,12118.00000,E,0.000,0.000,200720,0.000,E,A,V*6C

$GPRMC,002210,A,3128.00000,N,12118.00000,E,0.000,0.000,200720,0.000,E,A,V*64

$GPRMC,002211,A,3128.00000,N,12118.00000,E,0.000,0.000,200720,0.000,E,A,V*65

$GPRMC,002212,A,3128.00000,N,12118.00000,E,0.000,0.000,200720,0.000,E,A,V*66

$GPRMC,002213,A,3128.00000,N,12118.00000,E,0.000,0.000,200720,0.000,E,A,V*67

$GPRMC,002214,A,3128.00000,N,12118.00000,E,0.000,0.000,200720,0.000,E,A,V*60

$GPRMC,002215,A,3128.00000,N,12118.00000,E,0.000,0.000,200720,0.000,E,A,V*61

$GPRMC,002216,A,3128.00000,N,12118.00000,E,0.000,0.000,200720,0.000,E,A,V*62

$GPRMC,002217,A,3128.00000,N,12118.00000,E,0.000,0.000,200720,0.000,E,A,V*63

$GPRMC,002218,A,3128.00000,N,12118.00000,E,0.000,0.000,200720,0.000,E,A,V*6C

$GPRMC,002219,A,3128.00000,N,12118.00000,E,0.000,0.000,200720,0.000,E,A,V*6D

$GPRMC,002220,A,3128.00000,N,12118.00000,E,0.000,0.000,200720,0.000,E,A,V*67

$GPRMC,002221,A,3128.00000,N,12118.00000,E,0.000,0.000,200720,0.000,E,A,V*66

$GPRMC,002222,A,3128.00000,N,12118.00000,E,0.000,0.000,200720,0.000,E,A,V*65

$GPRMC,002223,A,3128.00000,N,12118.00000,E,0.000,0.000,200720,0.000,E,A,V*64

$GPRMC,002224,A,3128.00000,N,12118.00000,E,0.000,0.000,200720,0.000,E,A,V*63

$GPRMC,002225,A,3128.00000,N,12118.00000,E,0.000,0.000,200720,0.000,E,A,V*62

$GPRMC,002226,A,3128.00000,N,12118.00000,E,0.000,0.000,200720,0.000,E,A,V*61

$GPRMC,002227,A,3128.00000,N,12118.00000,E,0.000,0.000,200720,0.000,E,A,V*60

$GPRMC,002228,A,3128.00000,N,12118.00000,E,0.000,0.000,200720,0.000,E,A,V*6F

$GPRMC,002229,A,3128.00000,N,12118.00000,E,0.000,0.000,200720,0.000,E,A,V*6E

$GPRMC,002230,A,3128.00000,N,12118.00000,E,0.000,0.000,200720,0.000,E,A,V*66

$GPRMC,002231,A,3128.00000,N,12118.00000,E,0.000,0.000,200720,0.000,E,A,V*67

$GPRMC,002232,A,3128.00000,N,12118.00000,E,0.000,0.000,200720,0.000,E,A,V*64

$GPRMC,002233,A,3128.00000,N,12118.00000,E,0.000,0.000,200720,0.000,E,A,V*65

$GPRMC,002234,A,3128.00000,N,12118.00000,E,0.000,0.000,200720,0.000,E,A,V*62

$GPRMC,002235,A,3128.00000,N,12118.00000,E,0.000,0.000,200720,0.000,E,A,V*63

$GPRMC,002236,A,3128.00000,N,12118.00000,E,0.000,0.000,200720,0.000,E,A,V*60

$GPRMC,002237,A,3128.00000,N,12118.00000,E,0.000,0.000,200720,0.000,E,A,V*61

$GPRMC,002238,A,3128.00000,N,12118.00000,E,0.000,0.000,200720,0.000,E,A,V*6E

$GPRMC,002239,A,3128.00000,N,12118.00000,E,0.000,0.000,200720,0.000,E,A,V*6F

$GPRMC,002240,A,3128.00000,N,12118.00000,E,0.000,0.000,200720,0.000,E,A,V*61

$GPRMC,002241,A,3128.00000,N,12118.00000,E,0.000,0.000,200720,0.000,E,A,V*60

$GPRMC,002242,A,3128.00000,N,12118.00000,E,0.000,0.000,200720,0.000,E,A,V*63

$GPRMC,002243,A,3128.00000,N,12118.00000,E,0.000,0.000,200720,0.000,E,A,V*62

$GPRMC,002244,A,3128.00000,N,12118.00000,E,0.000,0.000,200720,0.000,E,A,V*65

$GPRMC,002245,A,3128.00000,N,12118.00000,E,0.000,0.000,200720,0.000,E,A,V*64

$GPRMC,002246,A,3128.00000,N,12118.00000,E,0.000,0.000,200720,0.000,E,A,V*67

$GPRMC,002247,A,3128.00000,N,12118.00000,E,0.000,0.000,200720,0.000,E,A,V*66

$GPRMC,002248,A,3128.00000,N,12118.00000,E,0.000,0.000,200720,0.000,E,A,V*69

$GPRMC,002249,A,3128.00000,N,12118.00000,E,0.000,0.000,200720,0.000,E,A,V*68

$GPRMC,002250,A,3128.00000,N,12118.00000,E,0.000,0.000,200720,0.000,E,A,V*60

$GPRMC,002251,A,3128.00000,N,12118.00000,E,0.000,0.000,200720,0.000,E,A,V*61

$GPRMC,002252,A,3128.00000,N,12118.00000,E,0.000,0.000,200720,0.000,E,A,V*62

$GPRMC,002253,A,3128.00000,N,12118.00000,E,0.000,0.000,200720,0.000,E,A,V*63

$GPRMC,002254,A,3128.00000,N,12118.00000,E,0.000,0.000,200720,0.000,E,A,V*64

$GPRMC,002255,A,3128.00000,N,12118.00000,E,0.000,0.000,200720,0.000,E,A,V*65

$GPRMC,002256,A,3128.00000,N,12118.00000,E,0.000,0.000,200720,0.000,E,A,V*66

$GPRMC,002257,A,3128.00000,N,12118.00000,E,0.000,0.000,200720,0.000,E,A,V*67

$GPRMC,002258,A,3128.00000,N,12118.00000,E,0.000,0.000,200720,0.000,E,A,V*68

$GPRMC,002259,A,3128.00000,N,12118.00000,E,0.000,0.000,200720,0.000,E,A,V*69

$GPRMC,002300,A,3128.00000,N,12118.00000,E,0.000,0.000,200720,0.000,E,A,V*64

$GPRMC,002301,A,3128.00000,N,12118.00000,E,0.000,0.000,200720,0.000,E,A,V*65

$GPRMC,002302,A,3128.00000,N,12118.00000,E,0.000,0.000,200720,0.000,E,A,V*66

$GPRMC,002303,A,3128.00000,N,12118.00000,E,0.000,0.000,200720,0.000,E,A,V*67

$GPRMC,002304,A,3128.00000,N,12118.00000,E,0.000,0.000,200720,0.000,E,A,V*60

$GPRMC,002305,A,3128.00000,N,12118.00000,E,0.000,0.000,200720,0.000,E,A,V*61

$GPRMC,002306,A,3128.00000,N,12118.00000,E,0.000,0.000,200720,0.000,E,A,V*62

$GPRMC,002307,A,3128.00000,N,12118.00000,E,0.000,0.000,200720,0.000,E,A,V*63

$GPRMC,002308,A,3128.00000,N,12118.00000,E,0.000,0.000,200720,0.000,E,A,V*6C

$GPRMC,002309,A,3128.00000,N,12118.00000,E,0.000,0.000,200720,0.000,E,A,V*6D

$GPRMC,002310,A,3128.00000,N,12118.00000,E,0.000,0.000,200720,0.000,E,A,V*65

$GPRMC,002311,A,3128.00000,N,12118.00000,E,0.000,0.000,200720,0.000,E,A,V*64

$GPRMC,002312,A,3128.00000,N,12118.00000,E,0.000,0.000,200720,0.000,E,A,V*67

$GPRMC,002313,A,3128.00000,N,12118.00000,E,0.000,0.000,200720,0.000,E,A,V*66

$GPRMC,002314,A,3128.00000,N,12118.00000,E,0.000,0.000,200720,0.000,E,A,V*61

$GPRMC,002315,A,3128.00000,N,12118.00000,E,0.000,0.000,200720,0.000,E,A,V*60

$GPRMC,002316,A,3128.00000,N,12118.00000,E,0.000,0.000,200720,0.000,E,A,V*63

$GPRMC,002317,A,3128.00000,N,12118.00000,E,0.000,0.000,200720,0.000,E,A,V*62

$GPRMC,002318,A,3128.00000,N,12118.00000,E,0.000,0.000,200720,0.000,E,A,V*6D

$GPRMC,002319,A,3128.00000,N,12118.00000,E,0.000,0.000,200720,0.000,E,A,V*6C

$GPRMC,002320,A,3128.00000,N,12118.00000,E,0.000,0.000,200720,0.000,E,A,V*66

$GPRMC,002321,A,3128.00000,N,12118.00000,E,0.000,0.000,200720,0.000,E,A,V*67

$GPRMC,002322,A,3128.00000,N,12118.00000,E,0.000,0.000,200720,0.000,E,A,V*64

$GPRMC,002323,A,3128.00000,N,12118.00000,E,0.000,0.000,200720,0.000,E,A,V*65

$GPRMC,002324,A,3128.00000,N,12118.00000,E,0.000,0.000,200720,0.000,E,A,V*62

$GPRMC,002325,A,3128.00000,N,12118.00000,E,0.000,0.000,200720,0.000,E,A,V*63

$GPRMC,002326,A,3128.00000,N,12118.00000,E,0.000,0.000,200720,0.000,E,A,V*60

$GPRMC,002327,A,3128.00000,N,12118.00000,E,0.000,0.000,200720,0.000,E,A,V*61

$GPRMC,002328,A,3128.00000,N,12118.00000,E,0.000,0.000,200720,0.000,E,A,V*6E

$GPRMC,002329,A,3128.00000,N,12118.00000,E,0.000,0.000,200720,0.000,E,A,V*6F

$GPRMC,002330,A,3128.00000,N,12118.00000,E,0.000,0.000,200720,0.000,E,A,V*67

$GPRMC,002331,A,3128.00000,N,12118.00000,E,0.000,0.000,200720,0.000,E,A,V*66

$GPRMC,002332,A,3128.00000,N,12118.00000,E,0.000,0.000,200720,0.000,E,A,V*65

$GPRMC,002333,A,3128.00000,N,12118.00000,E,0.000,0.000,200720,0.000,E,A,V*64

$GPRMC,002334,A,3128.00000,N,12118.00000,E,0.000,0.000,200720,0.000,E,A,V*63

$GPRMC,002335,A,3128.00000,N,12118.00000,E,0.000,0.000,200720,0.000,E,A,V*62

$GPRMC,002336,A,3128.00000,N,12118.00000,E,0.000,0.000,200720,0.000,E,A,V*61

$GPRMC,002337,A,3128.00000,N,12118.00000,E,0.000,0.000,200720,0.000,E,A,V*60

$GPRMC,002338,A,3128.00000,N,12118.00000,E,0.000,0.000,200720,0.000,E,A,V*6F

$GPRMC,002339,A,3128.00000,N,12118.00000,E,0.000,0.000,200720,0.000,E,A,V*6E

$GPRMC,002340,A,3128.00000,N,12118.00000,E,0.000,0.000,200720,0.000,E,A,V*60

$GPRMC,002341,A,3128.00000,N,12118.00000,E,0.000,0.000,200720,0.000,E,A,V*61

$GPRMC,002342,A,3128.00000,N,12118.00000,E,0.000,0.000,200720,0.000,E,A,V*62

$GPRMC,002343,A,3128.00000,N,12118.00000,E,0.000,0.000,200720,0.000,E,A,V*63

$GPRMC,002344,A,3128.00000,N,12118.00000,E,0.000,0.000,200720,0.000,E,A,V*64

$GPRMC,002345,A,3128.00000,N,12118.00000,E,0.000,0.000,200720,0.000,E,A,V*65

$GPRMC,002346,A,3128.00000,N,12118.00000,E,0.000,0.000,200720,0.000,E,A,V*66

$GPRMC,002347,A,3128.00000,N,12118.00000,E,0.000,0.000,200720,0.000,E,A,V*67

$GPRMC,002348,A,3128.00000,N,12118.00000,E,0.000,0.000,200720,0.000,E,A,V*68

$GPRMC,002349,A,3128.00000,N,12118.00000,E,0.000,0.000,200720,0.000,E,A,V*69

$GPRMC,002350,A,3128.00000,N,12118.00000,E,0.000,0.000,200720,0.000,E,A,V*61

$GPRMC,002351,A,3128.00000,N,12118.00000,E,0.000,0.000,200720,0.000,E,A,V*60

$GPRMC,002352,A,3128.00000,N,12118.00000,E,0.000,0.000,200720,0.000,E,A,V*63

$GPRMC,002353,A,3128.00000,N,12118.00000,E,0.000,0.000,200720,0.000,E,A,V*62

$GPRMC,002354,A,3128.00000,N,12118.00000,E,0.000,0.000,200720,0.000,E,A,V*65

$GPRMC,002355,A,3128.00000,N,12118.00000,E,0.000,0.000,200720,0.000,E,A,V*64

$GPRMC,002356,A,3128.00000,N,12118.00000,E,0.000,0.000,200720,0.000,E,A,V*67

$GPRMC,002357,A,3128.00000,N,12118.00000,E,0.000,0.000,200720,0.000,E,A,V*66

$GPRMC,002358,A,3128.00000,N,12118.00000,E,0.000,0.000,200720,0.000,E,A,V*69

$GPRMC,002359,A,3128.00000,N,12118.00000,E,0.000,0.000,200720,0.000,E,A,V*68

$GPRMC,002400,A,3128.00000,N,12118.00000,E,0.000,0.000,200720,0.000,E,A,V*63

$GPRMC,002401,A,3128.00000,N,12118.00000,E,0.000,0.000,200720,0.000,E,A,V*62

$GPRMC,002402,A,3128.00000,N,12118.00000,E,0.000,0.000,200720,0.000,E,A,V*61

$GPRMC,002403,A,3128.00000,N,12118.00000,E,0.000,0.000,200720,0.000,E,A,V*60

$GPRMC,002404,A,3128.00000,N,12118.00000,E,0.000,0.000,200720,0.000,E,A,V*67

$GPRMC,002405,A,3128.00000,N,12118.00000,E,0.000,0.000,200720,0.000,E,A,V*66

$GPRMC,002406,A,3128.00000,N,12118.00000,E,0.000,0.000,200720,0.000,E,A,V*65

$GPRMC,002407,A,3128.00000,N,12118.00000,E,0.000,0.000,200720,0.000,E,A,V*64

$GPRMC,002408,A,3128.00000,N,12118.00000,E,0.000,0.000,200720,0.000,E,A,V*6B

$GPRMC,002409,A,3128.00000,N,12118.00000,E,0.000,0.000,200720,0.000,E,A,V*6A

$GPRMC,002410,A,3128.00000,N,12118.00000,E,0.000,0.000,200720,0.000,E,A,V*62

$GPRMC,002411,A,3128.00000,N,12118.00000,E,0.000,0.000,200720,0.000,E,A,V*63

$GPRMC,002412,A,3128.00000,N,12118.00000,E,0.000,0.000,200720,0.000,E,A,V*60

$GPRMC,002413,A,3128.00000,N,12118.00000,E,0.000,0.000,200720,0.000,E,A,V*61

$GPRMC,002414,A,3128.00000,N,12118.00000,E,0.000,0.000,200720,0.000,E,A,V*66

$GPRMC,002415,A,3128.00000,N,12118.00000,E,0.000,0.000,200720,0.000,E,A,V*67

$GPRMC,002416,A,3128.00000,N,12118.00000,E,0.000,0.000,200720,0.000,E,A,V*64

$GPRMC,002417,A,3128.00000,N,12118.00000,E,0.000,0.000,200720,0.000,E,A,V*65

$GPRMC,002418,A,3128.00000,N,12118.00000,E,0.000,0.000,200720,0.000,E,A,V*6A

$GPRMC,002419,A,3128.00000,N,12118.00000,E,0.000,0.000,200720,0.000,E,A,V*6B

$GPRMC,002420,A,3128.00000,N,12118.00000,E,0.000,0.000,200720,0.000,E,A,V*61

$GPRMC,002421,A,3128.00000,N,12118.00000,E,0.000,0.000,200720,0.000,E,A,V*60

$GPRMC,002422,A,3128.00000,N,12118.00000,E,0.000,0.000,200720,0.000,E,A,V*63

$GPRMC,002423,A,3128.00000,N,12118.00000,E,0.000,0.000,200720,0.000,E,A,V*62

$GPRMC,002424,A,3128.00000,N,12118.00000,E,0.000,0.000,200720,0.000,E,A,V*65

$GPRMC,002425,A,3128.00000,N,12118.00000,E,0.000,0.000,200720,0.000,E,A,V*64

$GPRMC,002426,A,3128.00000,N,12118.00000,E,0.000,0.000,200720,0.000,E,A,V*67

$GPRMC,002427,A,3128.00000,N,12118.00000,E,0.000,0.000,200720,0.000,E,A,V*66

$GPRMC,002428,A,3128.00000,N,12118.00000,E,0.000,0.000,200720,0.000,E,A,V*69

$GPRMC,002429,A,3128.00000,N,12118.00000,E,0.000,0.000,200720,0.000,E,A,V*68

$GPRMC,002430,A,3128.00000,N,12118.00000,E,0.000,0.000,200720,0.000,E,A,V*60

$GPRMC,002431,A,3128.00000,N,12118.00000,E,0.000,0.000,200720,0.000,E,A,V*61

$GPRMC,002432,A,3128.00000,N,12118.00000,E,0.000,0.000,200720,0.000,E,A,V*62

$GPRMC,002433,A,3128.00000,N,12118.00000,E,0.000,0.000,200720,0.000,E,A,V*63

$GPRMC,002434,A,3128.00000,N,12118.00000,E,0.000,0.000,200720,0.000,E,A,V*64

$GPRMC,002435,A,3128.00000,N,12118.00000,E,0.000,0.000,200720,0.000,E,A,V*65

$GPRMC,002436,A,3128.00000,N,12118.00000,E,0.000,0.000,200720,0.000,E,A,V*66

$GPRMC,002437,A,3128.00000,N,12118.00000,E,0.000,0.000,200720,0.000,E,A,V*67

$GPRMC,002438,A,3128.00000,N,12118.00000,E,0.000,0.000,200720,0.000,E,A,V*68

$GPRMC,002439,A,3128.00000,N,12118.00000,E,0.000,0.000,200720,0.000,E,A,V*69

$GPRMC,002440,A,3128.00000,N,12118.00000,E,0.000,0.000,200720,0.000,E,A,V*67

$GPRMC,002441,A,3128.00000,N,12118.00000,E,0.000,0.000,200720,0.000,E,A,V*66

$GPRMC,002442,A,3128.00000,N,12118.00000,E,0.000,0.000,200720,0.000,E,A,V*65

$GPRMC,002443,A,3128.00000,N,12118.00000,E,0.000,0.000,200720,0.000,E,A,V*64

$GPRMC,002444,A,3128.00000,N,12118.00000,E,0.000,0.000,200720,0.000,E,A,V*63

$GPRMC,002445,A,3128.00000,N,12118.00000,E,0.000,0.000,200720,0.000,E,A,V*62

$GPRMC,002446,A,3128.00000,N,12118.00000,E,0.000,0.000,200720,0.000,E,A,V*61

$GPRMC,002447,A,3128.00000,N,12118.00000,E,0.000,0.000,200720,0.000,E,A,V*60

$GPRMC,002448,A,3128.00000,N,12118.00000,E,0.000,0.000,200720,0.000,E,A,V*6F

$GPRMC,002449,A,3128.00000,N,12118.00000,E,0.000,0.000,200720,0.000,E,A,V*6E

$GPRMC,002450,A,3128.00000,N,12118.00000,E,0.000,0.000,200720,0.000,E,A,V*66

$GPRMC,002451,A,3128.00000,N,12118.00000,E,0.000,0.000,200720,0.000,E,A,V*67

$GPRMC,002452,A,3128.00000,N,12118.00000,E,0.000,0.000,200720,0.000,E,A,V*64

$GPRMC,002453,A,3128.00000,N,12118.00000,E,0.000,0.000,200720,0.000,E,A,V*65

$GPRMC,002454,A,3128.00000,N,12118.00000,E,0.000,0.000,200720,0.000,E,A,V*62

$GPRMC,002455,A,3128.00000,N,12118.00000,E,0.000,0.000,200720,0.000,E,A,V*63

$GPRMC,002456,A,3128.00000,N,12118.00000,E,0.000,0.000,200720,0.000,E,A,V*60

$GPRMC,002457,A,3128.00000,N,12118.00000,E,0.000,0.000,200720,0.000,E,A,V*61

$GPRMC,002458,A,3128.00000,N,12118.00000,E,0.000,0.000,200720,0.000,E,A,V*6E

$GPRMC,002459,A,3128.00000,N,12118.00000,E,0.000,0.000,200720,0.000,E,A,V*6F

$GPRMC,002500,A,3128.00000,N,12118.00000,E,0.000,0.000,200720,0.000,E,A,V*62

$GPRMC,002501,A,3128.00000,N,12118.00000,E,0.000,0.000,200720,0.000,E,A,V*63

$GPRMC,002502,A,3128.00000,N,12118.00000,E,0.000,0.000,200720,0.000,E,A,V*60

$GPRMC,002503,A,3128.00000,N,12118.00000,E,0.000,0.000,200720,0.000,E,A,V*61

$GPRMC,002504,A,3128.00000,N,12118.00000,E,0.000,0.000,200720,0.000,E,A,V*66

$GPRMC,002505,A,3128.00000,N,12118.00000,E,0.000,0.000,200720,0.000,E,A,V*67

$GPRMC,002506,A,3128.00000,N,12118.00000,E,0.000,0.000,200720,0.000,E,A,V*64

$GPRMC,002507,A,3128.00000,N,12118.00000,E,0.000,0.000,200720,0.000,E,A,V*65

$GPRMC,002508,A,3128.00000,N,12118.00000,E,0.000,0.000,200720,0.000,E,A,V*6A

$GPRMC,002509,A,3128.00000,N,12118.00000,E,0.000,0.000,200720,0.000,E,A,V*6B

$GPRMC,002510,A,3128.00000,N,12118.00000,E,0.000,0.000,200720,0.000,E,A,V*63

$GPRMC,002511,A,3128.00000,N,12118.00000,E,0.000,0.000,200720,0.000,E,A,V*62

$GPRMC,002512,A,3128.00000,N,12118.00000,E,0.000,0.000,200720,0.000,E,A,V*61

