$GPRMC,001107,A,3128.00000,N,12118.00000,E,0.000,0.000,200720,0.000,E,A,V*62

$GPRMC,001108,A,3128.00000,N,12118.00000,E,0.000,0.000,200720,0.000,E,A,V*6D

$GPRMC,001109,A,3128.00000,N,12118.00000,E,0.000,0.000,200720,0.000,E,A,V*6C

$GPRMC,001110,A,3128.00000,N,12118.00000,E,0.000,0.000,200720,0.000,E,A,V*64

$GPRMC,001111,A,3128.00000,N,12118.00000,E,0.000,0.000,200720,0.000,E,A,V*65

$GPRMC,001112,A,3128.00000,N,12118.00000,E,0.000,0.000,200720,0.000,E,A,V*66

$GPRMC,001113,A,3128.00000,N,12118.00000,E,0.000,0.000,200720,0.000,E,A,V*67

$GPRMC,001114,A,3128.00000,N,12118.00000,E,0.000,0.000,200720,0.000,E,A,V*60

$GPRMC,001115,A,3128.00000,N,12118.00000,E,0.000,0.000,200720,0.000,E,A,V*61

$GPRMC,001116,A,3128.00000,N,12118.00000,E,0.000,0.000,200720,0.000,E,A,V*62

$GPRMC,001117,A,3128.00000,N,12118.00000,E,0.000,0.000,200720,0.000,E,A,V*63

$GPRMC,001118,A,3128.00000,N,12118.00000,E,0.000,0.000,200720,0.000,E,A,V*6C

$GPRMC,001119,A,3128.00000,N,12118.00000,E,0.000,0.000,200720,0.000,E,A,V*6D

$GPRMC,001120,A,3128.00000,N,12118.00000,E,0.000,0.000,200720,0.000,E,A,V*67

$GPRMC,001121,A,3128.00000,N,12118.00000,E,0.000,0.000,200720,0.000,E,A,V*66

$GPRMC,001122,A,3128.00000,N,12118.00000,E,0.000,0.000,200720,0.000,E,A,V*65

$GPRMC,001123,A,3128.00000,N,12118.00000,E,0.000,0.000,200720,0.000,E,A,V*64

$GPRMC,001124,A,3128.00000,N,12118.00000,E,0.000,0.000,200720,0.000,E,A,V*63

$GPRMC,001125,A,3128.00000,N,12118.00000,E,0.000,0.000,200720,0.000,E,A,V*62

$GPRMC,001126,A,3128.00000,N,12118.00000,E,0.000,0.000,200720,0.000,E,A,V*61

$GPRMC,001127,A,3128.00000,N,12118.00000,E,0.000,0.000,200720,0.000,E,A,V*60

$GPRMC,001128,A,3128.00000,N,12118.00000,E,0.000,0.000,200720,0.000,E,A,V*6F

$GPRMC,001129,A,3128.00000,N,12118.00000,E,0.000,0.000,200720,0.000,E,A,V*6E

$GPRMC,001130,A,3128.00000,N,12118.00000,E,0.000,0.000,200720,0.000,E,A,V*66

$GPRMC,001131,A,3128.00000,N,12118.00000,E,0.000,0.000,200720,0.000,E,A,V*67

$GPRMC,001132,A,3128.00000,N,12118.00000,E,0.000,0.000,200720,0.000,E,A,V*64

$GPRMC,001133,A,3128.00000,N,12118.00000,E,0.000,0.000,200720,0.000,E,A,V*65

$GPRMC,001134,A,3128.00000,N,12118.00000,E,0.000,0.000,200720,0.000,E,A,V*62

$GPRMC,001135,A,3128.00000,N,12118.00000,E,0.000,0.000,200720,0.000,E,A,V*63

$GPRMC,001136,A,3128.00000,N,12118.00000,E,0.000,0.000,200720,0.000,E,A,V*60

$GPRMC,001137,A,3128.00000,N,12118.00000,E,0.000,0.000,200720,0.000,E,A,V*61

$GPRMC,001138,A,3128.00000,N,12118.00000,E,0.000,0.000,200720,0.000,E,A,V*6E

$GPRMC,001139,A,3128.00000,N,12118.00000,E,0.000,0.000,200720,0.000,E,A,V*6F

$GPRMC,001140,A,3128.00000,N,12118.00000,E,0.000,0.000,200720,0.000,E,A,V*61

$GPRMC,001141,A,3128.00000,N,12118.00000,E,0.000,0.000,200720,0.000,E,A,V*60

$GPRMC,001142,A,3128.00000,N,12118.00000,E,0.000,0.000,200720,0.000,E,A,V*63

$GPRMC,001143,A,3128.00000,N,12118.00000,E,0.000,0.000,200720,0.000,E,A,V*62

$GPRMC,001144,A,3128.00000,N,12118.00000,E,0.000,0.000,200720,0.000,E,A,V*65

$GPRMC,001145,A,3128.00000,N,12118.00000,E,0.000,0.000,200720,0.000,E,A,V*64

$GPRMC,001146,A,3128.00000,N,12118.00000,E,0.000,0.000,200720,0.000,E,A,V*67

$GPRMC,001147,A,3128.00000,N,12118.00000,E,0.000,0.000,200720,0.000,E,A,V*66

$GPRMC,001148,A,3128.00000,N,12118.00000,E,0.000,0.000,200720,0.000,E,A,V*69

$GPRMC,001149,A,3128.00000,N,12118.00000,E,0.000,0.000,200720,0.000,E,A,V*68

$GPRMC,001150,A,3128.00000,N,12118.00000,E,0.000,0.000,200720,0.000,E,A,V*60

$GPRMC,001151,A,3128.00000,N,12118.00000,E,0.000,0.000,200720,0.000,E,A,V*61

$GPRMC,001152,A,3128.00000,N,12118.00000,E,0.000,0.000,200720,0.000,E,A,V*62

$GPRMC,001153,A,3128.00000,N,12118.00000,E,0.000,0.000,200720,0.000,E,A,V*63

$GPRMC,001154,A,3128.00000,N,12118.00000,E,0.000,0.000,200720,0.000,E,A,V*64

$GPRMC,001155,A,3128.00000,N,12118.00000,E,0.000,0.000,200720,0.000,E,A,V*65

$GPRMC,001156,A,3128.00000,N,12118.00000,E,0.000,0.000,200720,0.000,E,A,V*66

$GPRMC,001157,A,3128.00000,N,12118.00000,E,0.000,0.000,200720,0.000,E,A,V*67

$GPRMC,001158,A,3128.00000,N,12118.00000,E,0.000,0.000,200720,0.000,E,A,V*68

$GPRMC,001159,A,3128.00000,N,12118.00000,E,0.000,0.000,200720,0.000,E,A,V*69

$GPRMC,001200,A,3128.00000,N,12118.00000,E,0.000,0.000,200720,0.000,E,A,V*66

$GPRMC,001201,A,3128.00000,N,12118.00000,E,0.000,0.000,200720,0.000,E,A,V*67

$GPRMC,001202,A,3128.00000,N,12118.00000,E,0.000,0.000,200720,0.000,E,A,V*64

$GPRMC,001203,A,3128.00000,N,12118.00000,E,0.000,0.000,200720,0.000,E,A,V*65

$GPRMC,001204,A,3128.00000,N,12118.00000,E,0.000,0.000,200720,0.000,E,A,V*62

$GPRMC,001205,A,3128.00000,N,12118.00000,E,0.000,0.000,200720,0.000,E,A,V*63

$GPRMC,001206,A,3128.00000,N,12118.00000,E,0.000,0.000,200720,0.000,E,A,V*60

$GPRMC,001207,A,3128.00000,N,12118.00000,E,0.000,0.000,200720,0.000,E,A,V*61

$GPRMC,001208,A,3128.00000,N,12118.00000,E,0.000,0.000,200720,0.000,E,A,V*6E

$GPRMC,001209,A,3128.00000,N,12118.00000,E,0.000,0.000,200720,0.000,E,A,V*6F

$GPRMC,001210,A,3128.00000,N,12118.00000,E,0.000,0.000,200720,0.000,E,A,V*67

$GPRMC,001211,A,3128.00000,N,12118.00000,E,0.000,0.000,200720,0.000,E,A,V*66

$GPRMC,001212,A,3128.00000,N,12118.00000,E,0.000,0.000,200720,0.000,E,A,V*65

$GPRMC,001213,A,3128.00000,N,12118.00000,E,0.000,0.000,200720,0.000,E,A,V*64

$GPRMC,001214,A,3128.00000,N,12118.00000,E,0.000,0.000,200720,0.000,E,A,V*63

$GPRMC,001215,A,3128.00000,N,12118.00000,E,0.000,0.000,200720,0.000,E,A,V*62

$GPRMC,001216,A,3128.00000,N,12118.00000,E,0.000,0.000,200720,0.000,E,A,V*61

$GPRMC,001217,A,3128.00000,N,12118.00000,E,0.000,0.000,200720,0.000,E,A,V*60

$GPRMC,001218,A,3128.00000,N,12118.00000,E,0.000,0.000,200720,0.000,E,A,V*6F

$GPRMC,001219,A,3128.00000,N,12118.00000,E,0.000,0.000,200720,0.000,E,A,V*6E

$GPRMC,001220,A,3128.00000,N,12118.00000,E,0.000,0.000,200720,0.000,E,A,V*64

$GPRMC,001221,A,3128.00000,N,12118.00000,E,0.000,0.000,200720,0.000,E,A,V*65

$GPRMC,001222,A,3128.00000,N,12118.00000,E,0.000,0.000,200720,0.000,E,A,V*66

$GPRMC,001223,A,3128.00000,N,12118.00000,E,0.000,0.000,200720,0.000,E,A,V*67

$GPRMC,001224,A,3128.00000,N,12118.00000,E,0.000,0.000,200720,0.000,E,A,V*60

$GPRMC,001225,A,3128.00000,N,12118.00000,E,0.000,0.000,200720,0.000,E,A,V*61

$GPRMC,001226,A,3128.00000,N,12118.00000,E,0.000,0.000,200720,0.000,E,A,V*62

$GPRMC,001227,A,3128.00000,N,12118.00000,E,0.000,0.000,200720,0.000,E,A,V*63

$GPRMC,001228,A,3128.00000,N,12118.00000,E,0.000,0.000,200720,0.000,E,A,V*6C

$GPRMC,001229,A,3128.00000,N,12118.00000,E,0.000,0.000,200720,0.000,E,A,V*6D

$GPRMC,001230,A,3128.00000,N,12118.00000,E,0.000,0.000,200720,0.000,E,A,V*65

$GPRMC,001231,A,3128.00000,N,12118.00000,E,0.000,0.000,200720,0.000,E,A,V*64

$GPRMC,001232,A,3128.00000,N,12118.00000,E,0.000,0.000,200720,0.000,E,A,V*67

$GPRMC,001233,A,3128.00000,N,12118.00000,E,0.000,0.000,200720,0.000,E,A,V*66

$GPRMC,001234,A,3128.00000,N,12118.00000,E,0.000,0.000,200720,0.000,E,A,V*61

$GPRMC,001235,A,3128.00000,N,12118.00000,E,0.000,0.000,200720,0.000,E,A,V*60

$GPRMC,001236,A,3128.00000,N,12118.00000,E,0.000,0.000,200720,0.000,E,A,V*63

$GPRMC,001237,A,3128.00000,N,12118.00000,E,0.000,0.000,200720,0.000,E,A,V*62

$GPRMC,001238,A,3128.00000,N,12118.00000,E,0.000,0.000,200720,0.000,E,A,V*6D

$GPRMC,001239,A,3128.00000,N,12118.00000,E,0.000,0.000,200720,0.000,E,A,V*6C

$GPRMC,001240,A,3128.00000,N,12118.00000,E,0.000,0.000,200720,0.000,E,A,V*62

$GPRMC,001241,A,3128.00000,N,12118.00000,E,0.000,0.000,200720,0.000,E,A,V*63

$GPRMC,001242,A,3128.00000,N,12118.00000,E,0.000,0.000,200720,0.000,E,A,V*60

$GPRMC,001243,A,3128.00000,N,12118.00000,E,0.000,0.000,200720,0.000,E,A,V*61

$GPRMC,001244,A,3128.00000,N,12118.00000,E,0.000,0.000,200720,0.000,E,A,V*66

$GPRMC,001245,A,3128.00000,N,12118.00000,E,0.000,0.000,200720,0.000,E,A,V*67

$GPRMC,001246,A,3128.00000,N,12118.00000,E,0.000,0.000,200720,0.000,E,A,V*64

$GPRMC,001247,A,3128.00000,N,12118.00000,E,0.000,0.000,200720,0.000,E,A,V*65

$GPRMC,001248,A,3128.00000,N,12118.00000,E,0.000,0.000,200720,0.000,E,A,V*6A

$GPRMC,001249,A,3128.00000,N,12118.00000,E,0.000,0.000,200720,0.000,E,A,V*6B

$GPRMC,001250,A,3128.00000,N,12118.00000,E,0.000,0.000,200720,0.000,E,A,V*63

$GPRMC,001251,A,3128.00000,N,12118.00000,E,0.000,0.000,200720,0.000,E,A,V*62

$GPRMC,001252,A,3128.00000,N,12118.00000,E,0.000,0.000,200720,0.000,E,A,V*61

$GPRMC,001253,A,3128.00000,N,12118.00000,E,0.000,0.000,200720,0.000,E,A,V*60

$GPRMC,001254,A,3128.00000,N,12118.00000,E,0.000,0.000,200720,0.000,E,A,V*67

$GPRMC,001255,A,3128.00000,N,12118.00000,E,0.000,0.000,200720,0.000,E,A,V*66

$GPRMC,001256,A,3128.00000,N,12118.00000,E,0.000,0.000,200720,0.000,E,A,V*65

$GPRMC,001257,A,3128.00000,N,12118.00000,E,0.000,0.000,200720,0.000,E,A,V*64

$GPRMC,001258,A,3128.00000,N,12118.00000,E,0.000,0.000,200720,0.000,E,A,V*6B

$GPRMC,001259,A,3128.00000,N,12118.00000,E,0.000,0.000,200720,0.000,E,A,V*6A

$GPRMC,001300,A,3128.00000,N,12118.00000,E,0.000,0.000,200720,0.000,E,A,V*67

$GPRMC,001301,A,3128.00000,N,12118.00000,E,0.000,0.000,200720,0.000,E,A,V*66

$GPRMC,001302,A,3128.00000,N,12118.00000,E,0.000,0.000,200720,0.000,E,A,V*65

$GPRMC,001303,A,3128.00000,N,12118.00000,E,0.000,0.000,200720,0.000,E,A,V*64

$GPRMC,001304,A,3128.00000,N,12118.00000,E,0.000,0.000,200720,0.000,E,A,V*63

$GPRMC,001305,A,3128.00000,N,12118.00000,E,0.000,0.000,200720,0.000,E,A,V*62

$GPRMC,001306,A,3128.00000,N,12118.00000,E,0.000,0.000,200720,0.000,E,A,V*61

$GPRMC,001307,A,3128.00000,N,12118.00000,E,0.000,0.000,200720,0.000,E,A,V*60

$GPRMC,001308,A,3128.00000,N,12118.00000,E,0.000,0.000,200720,0.000,E,A,V*6F

$GPRMC,001309,A,3128.00000,N,12118.00000,E,0.000,0.000,200720,0.000,E,A,V*6E

$GPRMC,001310,A,3128.00000,N,12118.00000,E,0.000,0.000,200720,0.000,E,A,V*66

$GPRMC,001311,A,3128.00000,N,12118.00000,E,0.000,0.000,200720,0.000,E,A,V*67

$GPRMC,001312,A,3128.00000,N,12118.00000,E,0.000,0.000,200720,0.000,E,A,V*64

$GPRMC,001313,A,3128.00000,N,12118.00000,E,0.000,0.000,200720,0.000,E,A,V*65

$GPRMC,001314,A,3128.00000,N,12118.00000,E,0.000,0.000,200720,0.000,E,A,V*62

$GPRMC,001315,A,3128.00000,N,12118.00000,E,0.000,0.000,200720,0.000,E,A,V*63

$GPRMC,001316,A,3128.00000,N,12118.00000,E,0.000,0.000,200720,0.000,E,A,V*60

$GPRMC,001317,A,3128.00000,N,12118.00000,E,0.000,0.000,200720,0.000,E,A,V*61

$GPRMC,001318,A,3128.00000,N,12118.00000,E,0.000,0.000,200720,0.000,E,A,V*6E

$GPRMC,001319,A,3128.00000,N,12118.00000,E,0.000,0.000,200720,0.000,E,A,V*6F

$GPRMC,001320,A,3128.00000,N,12118.00000,E,0.000,0.000,200720,0.000,E,A,V*65

$GPRMC,001321,A,3128.00000,N,12118.00000,E,0.000,0.000,200720,0.000,E,A,V*64

$GPRMC,001322,A,3128.00000,N,12118.00000,E,0.000,0.000,200720,0.000,E,A,V*67

$GPRMC,001323,A,3128.00000,N,12118.00000,E,0.000,0.000,200720,0.000,E,A,V*66

$GPRMC,001324,A,3128.00000,N,12118.00000,E,0.000,0.000,200720,0.000,E,A,V*61

$GPRMC,001325,A,3128.00000,N,12118.00000,E,0.000,0.000,200720,0.000,E,A,V*60

$GPRMC,001326,A,3128.00000,N,12118.00000,E,0.000,0.000,200720,0.000,E,A,V*63

$GPRMC,001327,A,3128.00000,N,12118.00000,E,0.000,0.000,200720,0.000,E,A,V*62

$GPRMC,001328,A,3128.00000,N,12118.00000,E,0.000,0.000,200720,0.000,E,A,V*6D

$GPRMC,001329,A,3128.00000,N,12118.00000,E,0.000,0.000,200720,0.000,E,A,V*6C

$GPRMC,001330,A,3128.00000,N,12118.00000,E,0.000,0.000,200720,0.000,E,A,V*64

$GPRMC,001331,A,3128.00000,N,12118.00000,E,0.000,0.000,200720,0.000,E,A,V*65

$GPRMC,001332,A,3128.00000,N,12118.00000,E,0.000,0.000,200720,0.000,E,A,V*66

$GPRMC,001333,A,3128.00000,N,12118.00000,E,0.000,0.000,200720,0.000,E,A,V*67

$GPRMC,001334,A,3128.00000,N,12118.00000,E,0.000,0.000,200720,0.000,E,A,V*60

$GPRMC,001335,A,3128.00000,N,12118.00000,E,0.000,0.000,200720,0.000,E,A,V*61

$GPRMC,001336,A,3128.00000,N,12118.00000,E,0.000,0.000,200720,0.000,E,A,V*62

$GPRMC,001337,A,3128.00000,N,12118.00000,E,0.000,0.000,200720,0.000,E,A,V*63

$GPRMC,001338,A,3128.00000,N,12118.00000,E,0.000,0.000,200720,0.000,E,A,V*6C

$GPRMC,001339,A,3128.00000,N,12118.00000,E,0.000,0.000,200720,0.000,E,A,V*6D

$GPRMC,001340,A,3128.00000,N,12118.00000,E,0.000,0.000,200720,0.000,E,A,V*63

$GPRMC,001341,A,3128.00000,N,12118.00000,E,0.000,0.000,200720,0.000,E,A,V*62

$GPRMC,001342,A,3128.00000,N,12118.00000,E,0.000,0.000,200720,0.000,E,A,V*61

$GPRMC,001343,A,3128.00000,N,12118.00000,E,0.000,0.000,200720,0.000,E,A,V*60

$GPRMC,001344,A,3128.00000,N,12118.00000,E,0.000,0.000,200720,0.000,E,A,V*67

$GPRMC,001345,A,3128.00000,N,12118.00000,E,0.000,0.000,200720,0.000,E,A,V*66

$GPRMC,001346,A,3128.00000,N,12118.00000,E,0.000,0.000,200720,0.000,E,A,V*65

$GPRMC,001347,A,3128.00000,N,12118.00000,E,0.000,0.000,200720,0.000,E,A,V*64

$GPRMC,001348,A,3128.00000,N,12118.00000,E,0.000,0.000,200720,0.000,E,A,V*6B

$GPRMC,001349,A,3128.00000,N,12118.00000,E,0.000,0.000,200720,0.000,E,A,V*6A

$GPRMC,001350,A,3128.00000,N,12118.00000,E,0.000,0.000,200720,0.000,E,A,V*62

$GPRMC,001351,A,3128.00000,N,12118.00000,E,0.000,0.000,200720,0.000,E,A,V*63

$GPRMC,001352,A,3128.00000,N,12118.00000,E,0.000,0.000,200720,0.000,E,A,V*60

$GPRMC,001353,A,3128.00000,N,12118.00000,E,0.000,0.000,200720,0.000,E,A,V*61

$GPRMC,001354,A,3128.00000,N,12118.00000,E,0.000,0.000,200720,0.000,E,A,V*66

$GPRMC,001355,A,3128.00000,N,12118.00000,E,0.000,0.000,200720,0.000,E,A,V*67

$GPRMC,001356,A,3128.00000,N,12118.00000,E,0.000,0.000,200720,0.000,E,A,V*64

$GPRMC,001357,A,3128.00000,N,12118.00000,E,0.000,0.000,200720,0.000,E,A,V*65

$GPRMC,001358,A,3128.00000,N,12118.00000,E,0.000,0.000,200720,0.000,E,A,V*6A

$GPRMC,001359,A,3128.00000,N,12118.00000,E,0.000,0.000,200720,0.000,E,A,V*6B

$GPRMC,001400,A,3128.00000,N,12118.00000,E,0.000,0.000,200720,0.000,E,A,V*60

$GPRMC,001401,A,3128.00000,N,12118.00000,E,0.000,0.000,200720,0.000,E,A,V*61

$GPRMC,001402,A,3128.00000,N,12118.00000,E,0.000,0.000,200720,0.000,E,A,V*62

$GPRMC,001403,A,3128.00000,N,12118.00000,E,0.000,0.000,200720,0.000,E,A,V*63

$GPRMC,001404,A,3128.00000,N,12118.00000,E,0.000,0.000,200720,0.000,E,A,V*64

$GPRMC,001405,A,3128.00000,N,12118.00000,E,0.000,0.000,200720,0.000,E,A,V*65

$GPRMC,001406,A,3128.00000,N,12118.00000,E,0.000,0.000,200720,0.000,E,A,V*66

$GPRMC,001407,A,3128.00000,N,12118.00000,E,0.000,0.000,200720,0.000,E,A,V*67

$GPRMC,001408,A,3128.00000,N,12118.00000,E,0.000,0.000,200720,0.000,E,A,V*68

$GPRMC,001409,A,3128.00000,N,12118.00000,E,0.000,0.000,200720,0.000,E,A,V*69

$GPRMC,001410,A,3128.00000,N,12118.00000,E,0.000,0.000,200720,0.000,E,A,V*61

$GPRMC,001411,A,3128.00000,N,12118.00000,E,0.000,0.000,200720,0.000,E,A,V*60

$GPRMC,001412,A,3128.00000,N,12118.00000,E,0.000,0.000,200720,0.000,E,A,V*63

$GPRMC,001413,A,3128.00000,N,12118.00000,E,0.000,0.000,200720,0.000,E,A,V*62

$GPRMC,001414,A,3128.00000,N,12118.00000,E,0.000,0.000,200720,0.000,E,A,V*65

$GPRMC,001415,A,3128.00000,N,12118.00000,E,0.000,0.000,200720,0.000,E,A,V*64

$GPRMC,001416,A,3128.00000,N,12118.00000,E,0.000,0.000,200720,0.000,E,A,V*67

$GPRMC,001417,A,3128.00000,N,12118.00000,E,0.000,0.000,200720,0.000,E,A,V*66

$GPRMC,001418,A,3128.00000,N,12118.00000,E,0.000,0.000,200720,0.000,E,A,V*69

$GPRMC,001419,A,3128.00000,N,12118.00000,E,0.000,0.000,200720,0.000,E,A,V*68

$GPRMC,001420,A,3128.00000,N,12118.00000,E,0.000,0.000,200720,0.000,E,A,V*62

$GPRMC,001421,A,3128.00000,N,12118.00000,E,0.000,0.000,200720,0.000,E,A,V*63

$GPRMC,001422,A,3128.00000,N,12118.00000,E,0.000,0.000,200720,0.000,E,A,V*60

$GPRMC,001423,A,3128.00000,N,12118.00000,E,0.000,0.000,200720,0.000,E,A,V*61

$GPRMC,001424,A,3128.00000,N,12118.00000,E,0.000,0.000,200720,0.000,E,A,V*66

$GPRMC,001425,A,3128.00000,N,12118.00000,E,0.000,0.000,200720,0.000,E,A,V*67

$GPRMC,001426,A,3128.00000,N,12118.00000,E,0.000,0.000,200720,0.000,E,A,V*64

$GPRMC,001427,A,3128.00000,N,12118.00000,E,0.000,0.000,200720,0.000,E,A,V*65

$GPRMC,001428,A,3128.00000,N,12118.00000,E,0.000,0.000,200720,0.000,E,A,V*6A

$GPRMC,001429,A,3128.00000,N,12118.00000,E,0.000,0.000,200720,0.000,E,A,V*6B

$GPRMC,001430,A,3128.00000,N,12118.00000,E,0.000,0.000,200720,0.000,E,A,V*63

$GPRMC,001431,A,3128.00000,N,12118.00000,E,0.000,0.000,200720,0.000,E,A,V*62

$GPRMC,001432,A,3128.00000,N,12118.00000,E,0.000,0.000,200720,0.000,E,A,V*61

$GPRMC,001433,A,3128.00000,N,12118.00000,E,0.000,0.000,200720,0.000,E,A,V*60

$GPRMC,001434,A,3128.00000,N,12118.00000,E,0.000,0.000,200720,0.000,E,A,V*67

$GPRMC,001435,A,3128.00000,N,12118.00000,E,0.000,0.000,200720,0.000,E,A,V*66

