$GNRMC,000211.00,A,3128.000072,N,12117.999850,E,0.007,,200720,,,A,V*1B
$GNGGA,000211.00,3128.000072,N,12117.999850,E,1,09,0.96,40.4,M,9.5,M,,*47
$GNGSA,A,3,04,23,25,01,08,02,13,07,20,,,,1.66,0.96,1.36,1*05
$GNGSA,A,3,,,,,,,,,,,,,1.66,0.96,1.36,4*0E
$GPGSV,3,1,10,01,20,115,35,02,16,316,35,04,44,283,36,07,61,
204,36,0*6A
$GPGSV,3,2,10,08,22,211,35,13,62,347,36,16,13,059,35,20,46,113,36,0*63
$GPGSV,3,3,10,23,48,038,36,25,83,195,36,0*63
$BDGSV,1,1,00,0*74

$GNRMC,000212.00,A,3128.000070,N,12117.999851,E,0.008,,200720,,,A,V*14
$GNGGA,000212.00,3128.000070,N,12117.999851,E,1,09,0.96,40.4,M,9.5,M,,*47
$GNGSA,A,3,04,23,25,01,08,02,13,07,20,,,,1.66,0.96,1.36,1*05
$GNGSA,A,3,,,,,,,,,,,,,1.66,0.96,1.36,4*0E
$GPGSV,3,1,10,01,20,115,35,02,16,316,35,04,44,283,36,07,61,
204,36,0*6A
$GPGSV,3,2,10,08,22,211,35,13,62,347,36,16,13,059,35,20,46,113,36,0*63
$GPGSV,3,3,10,23,48,038,36,25,83,195,36,0*63
$BDGSV,1,1,00,0*74

$GNRMC,000213.00,A,3128.000062,N,12117.999845,E,0.002,,200720,,,A,V*19
$GNGGA,000213.00,3128.000062,N,12117.999845,E,1,09,0.96,40.4,M,9.5,M,,*40
$GNGSA,A,3,04,23,25,01,08,02,13,07,20,,,,1.66,0.96,1.36,1*05
$GNGSA,A,3,,,,,,,,,,,,,1.66,0.96,1.36,4*0E
$GPGSV,3,1,10,01,20,115,35,02,16,316,35,04,44,283,36,07,61,
204,36,0*6A
$GPGSV,3,2,10,08,22,211,35,13,62,347,36,16,13,059,35,20,46,114,36,0*64
$GPGSV,3,3,10,23,48,038,36,25,83,195,36,0*63
$BDGSV,1,1,00,0*74

$GNRMC,000214.00,A,3128.000053,N,12117.999842,E,0.009,,200720,,,A,V*10
$GNGGA,000214.00,3128.000053,N,12117.999842,E,1,09,0.96,40.4,M,9.5,M,,*42
$GNGSA,A,3,04,23,25,01,08,02,13,07,20,,,,1.66,0.96,1.36,1*05
$GNGSA,A,3,,,,,,,,,,,,,1.66,0.96,1.36,4*0E
$GPGSV,3,1,10,01,20,115,35,02,16,316,35,04,44,283,36,07,61,
204,36,0*6A
$GPGSV,3,2,10,08,22,211,35,13,62,347,36,16,13,059,35,20,46,114,36,0*64
$GPGSV,3,3,10,23,48,038,36,25,83,195,36,0*63
$BDGSV,1,1,00,0*74

$GNRMC,000215.00,A,3128.000054,N,12117.999842,E,0.023,,200720,,,A,V*1E
$GNGGA,000215.00,3128.000054,N,12117.999842,E,1,09,0.96,40.4,M,9.5,M,,*44
$GNGSA,A,3,04,23,25,01,08,02,13,07,20,,,,1.66,0.96,1.36,1*05
$GNGSA,A,3,,,,,,,,,,,,,1.66,0.96,1.36,4*0E
$GPGSV,3,1,10,01,20,115,35,02,16,316,35,04,44,283,36,07,61,
204,36,0*6A
$GPGSV,3,2,10,08,22,211,35,13,62,347,36,16,13,059,35,20,46,114,36,0*64
$GPGSV,3,3,10,23,48,038,36,25,84,195,36,0*64
$BDGSV,1,1,00,0*74

<????sim??????(SIM??:1)>
<????GSM????????(GSM:0)>
<????GPRS????????(GPRS:0)>
<????????????(SIGNAL:0)>
<????????????????(BER:0)>

<??????????????>

$GNRMC,000216.00,A,3128.000049,N,12117.999849,E,0.011,,200720,,,A,V*1B
$GNGGA,000216.00,3128.000049,N,12117.999849,E,1,09,0.96,40.4,M,9.5,M,,*40
$GNGSA,A,3,04,23,25,01,08,02,13,07,20,,,,1.66,0.96,1.36,1*05
$GNGSA,A,3,,,,,,,,,,,,,1.66,0.96,1.36,4*0E
$GPGSV,3,1,10,01,20,115,35,02,16,316,35,04,44,283,36,07,61,
204,36,0*6A
$GPGSV,3,2,10,08,22,211,35,13,62,347,36,16,13,059,35,20,46,114,36,0*64
$GPGSV,3,3,10,23,48,038,36,25,84,195,36,0*64
$BDGSV,1,1,00,0*74

$GNRMC,000217.00,A,3128.000047,N,12117.999849,E,0.006,,200720,,,A,V*12
$GNGGA,000217.00,3128.000047,N,12117.999849,E,1,09,0.96,40.4,M,9.5,M,,*4F
$GNGSA,A,3,04,23,25,01,08,02,13,07,20,,,,1.66,0.96,1.36,1*05
$GNGSA,A,3,,,,,,,,,,,,,1.66,0.96,1.36,4*0E
$GPGSV,3,1,10,01,20,115,35,02,16,316,35,04,44,283,36,07,61,
204,36,0*6A
$GPGSV,3,2,10,08,22,211,35,13,62,347,36,16,13,059,34,20,46,114,36,0*65
$GPGSV,3,3,10,23,48,038,36,25,84,195,36,0*64
$BDGSV,1,1,00,0*74

$GNRMC,000218.00,A,3128.000045,N,12117.999846,E,0.005,,200720,,,A,V*13
$GNGGA,000218.00,3128.000045,N,12117.999846,E,1,09,0.96,40.4,M,9.5,M,,*4D
$GNGSA,A,3,04,23,25,01,08,02,13,07,20,,,,1.67,0.96,1.36,1*04
$GNGSA,A,3,,,,,,,,,,,,,1.67,0.96,1.36,4*0F
$GPGSV,3,1,10,01,20,115,35,02,16,316,35,04,44,283,36,07,61,
204,36,0*6A
$GPGSV,3,2,10,08,22,211,35,13,62,347,36,16,13,059,35,20,46,114,36,0*64
$GPGSV,3,3,10,23,48,038,36,25,84,195,36,0*64
$BDGSV,1,1,00,0*74

$GNRMC,000219.00,A,3128.000042,N,12117.999847,E,0.004,,200720,,,A,V*15
$GNGGA,000219.00,3128.000042,N,12117.999847,E,1,09,0.96,40.4,M,9.5,M,,*4A
$GNGSA,A,3,04,23,25,01,08,02,13,07,20,,,,1.67,0.96,1.36,1*04
$GNGSA,A,3,,,,,,,,,,,,,1.67,0.96,1.36,4*0F
$GPGSV,3,1,10,01,20,115,35,02,16,316,35,04,44,283,36,07,61,
204,36,0*6A
$GPGSV,3,2,10,08,22,211,35,13,62,347,36,16,13,059,35,20,46,114,36,0*64
$GPGSV,3,3,10,23,48,038,36,25,84,195,36,0*64
$BDGSV,1,1,00,0*74

$GNRMC,000220.00,A,3128.000043,N,12117.999850,E,0.006,,200720,,,A,V*1A
$GNGGA,000220.00,3128.000043,N,12117.999850,E,1,09,0.96,40.4,M,9.5,M,,*47
$GNGSA,A,3,04,23,25,01,08,02,13,07,20,,,,1.67,0.96,1.36,1*04
$GNGSA,A,3,,,,,,,,,,,,,1.67,0.96,1.36,4*0F
$GPGSV,3,1,10,01,20,115,35,02,16,316,35,04,44,283,36,07,61,204,36,0*6A
$GPGSV,3,2,10,08,22,211,35,13,62,347,36,16,13,059,35,20,46,114,36,0*64
$GPGSV,3,3,10,23,48,038,36,25,84,195,36,0*64
$BDGSV,1,1,00,0*74

$GNRMC,000221.00,A,3128.000045,N,12117.999855,E,0.004,,200720,,,A,V*1A
$GNGGA,000221.00,3128.000045,N,12117.999855,E,1,09,0.96,40.4,M,9.5,M,,*45
$GNGSA,A,3,04,23,25,01,08,02,13,07,20,,,,1.67,0.96,1.36,1*04
$GNGSA,A,3,,,,,,,,,,,,,1.67,0.96,1.36,4*0F
$GPGSV,3,1,10,01,20,115,35,02,16,316,35,04,44,283,36,07,61,
204,36,0*6A
$GPGSV,3,2,10,08,22,211,35,13,62,347,36,16,13,059,35,20,46,114,36,0*64
$GPGSV,3,3,10,23,48,038,36,25,84,195,36,0*64
$BDGSV,1,1,00,0*74

$GNRMC,000222.00,A,3128.000050,N,12117.999854,E,0.009,,200720,,,A,V*11
$GNGGA,000222.00,3128.000050,N,12117.999854,E,1,09,0.96,40.4,M,9.5,M,,*43
$GNGSA,A,3,04,23,25,01,08,02,13,07,20,,,,1.67,0.96,1.36,1*04
$GNGSA,A,3,,,,,,,,,,,,,1.67,0.96,1.36,4*0F
$GPGSV,3,1,10,01,20,115,35,02,16,316,35,04,44,283,36,07,61,
204,36,0*6A
$GPGSV,3,2,10,08,22,211,35,13,62,347,36,16,13,059,35,20,46,114,36,0*64
$GPGSV,3,3,10,23,48,038,36,25,84,195,36,0*64
$BDGSV,1,1,00,0*74

$GNRMC,000223.00,A,3128.000051,N,12117.999849,E,0.009,,200720,,,A,V*1D
$GNGGA,000223.00,3128.000051,N,12117.999849,E,1,09,0.96,40.4,M,9.5,M,,*4F
$GNGSA,A,3,04,23,25,01,08,02,13,07,20,,,,1.67,0.96,1.36,1*04
$GNGSA,A,3,,,,,,,,,,,,,1.67,0.96,1.36,4*0F
$GPGSV,3,1,10,01,20,115,35,02,16,316,35,04,44,283,36,07,61,
204,36,0*6A
$GPGSV,3,2,10,08,22,211,35,13,62,347,36,16,13,059,35,20,46,114,36,0*64
$GPGSV,3,3,10,23,48,038,36,25,84,195,36,0*64
$BDGSV,1,1,00,0*74


GPS HPregnss> E1 15 00 00 00 00 07 53 8F 3D FC 00 00 00 1C 3E 0B 13 2B 00 00 00 00 


$GNRMC,000224.00,A,3128.000055,N,12117.999847,E,0.004,,200720,,,A,V*1D
$GNGGA,000224.00,3128.000055,N,12117.999847,E,1,09,0.96,40.4,M,9.5,M,,*42
$GNGSA,A,3,04,23,25,01,08,02,13,07,20,,,,1.67,0.96,1.36,1*04
$GNGSA,A,3,,,,,,,,,,,,,1.67,0.96,1.36,4*0F
$GPGSV,3,1,10,01,20,115,35,02,16,316,35,04,44,283,36,07,61,
204,36,0*6A
$GPGSV,3,2,10,08,22,211,35,13,62,347,36,16,13,059,35,20,46,114,36,0*64
$GPGSV,3,3,10,23,48,038,36,25,84,195,36,0*64
$BDGSV,1,1,00,0*74

$GNRMC,000225.00,A,3128.000056,N,12117.999843,E,0.003,,200720,,,A,V*1C
$GNGGA,000225.00,3128.000056,N,12117.999843,E,1,09,0.96,40.4,M,9.5,M,,*44
$GNGSA,A,3,04,23,25,01,08,02,13,07,20,,,,1.67,0.96,1.36,1*04
$GNGSA,A,3,,,,,,,,,,,,,1.67,0.96,1.36,4*0F
$GPGSV,3,1,10,01,20,115,35,02,16,316,35,04,44,282,35,07,61,
204,36,0*68
$GPGSV,3,2,10,08,22,211,35,13,62,347,36,16,13,059,35,20,46,114,36,0*64
$GPGSV,3,3,10,23,48,038,36,25,84,195,36,0*64
$BDGSV,1,1,00,0*74

$GNRMC,000226.00,A,3128.000053,N,12117.999839,E,0.002,,200720,,,A,V*16
$GNGGA,000226.00,3128.000053,N,12117.999839,E,1,09,0.96,40.4,M,9.5,M,,*4F
$GNGSA,A,3,04,23,25,01,08,02,13,07,20,,,,1.67,0.96,1.36,1*04
$GNGSA,A,3,,,,,,,,,,,,,1.67,0.96,1.36,4*0F
$GPGSV,3,1,10,01,20,115,35,02,16,316,35,04,44,282,36,07,61,
204,36,0*6B
$GPGSV,3,2,10,08,22,211,35,13,62,347,36,16,13,059,35,20,46,114,36,0*64
$GPGSV,3,3,10,23,48,038,36,25,84,195,36,0*64
$BDGSV,1,1,00,0*74
<??????????????>

$GNRMC,000227.00,A,3128.000053,N,12117.999833,E,0.013,,200720,,,A,V*1D
$GNGGA,000227.00,3128.000053,N,12117.999833,E,1,09,0.96,40.4,M,9.5,M,,*44
$GNGSA,A,3,04,23,25,01,08,02,13,07,20,,,,1.67,0.96,1.36,1*04
$GNGSA,A,3,,,,,,,,,,,,,1.67,0.96,1.36,4*0F
$GPGSV,3,1,10,01,20,115,35,02,16,316,35,04,44,282,36,07,61,
204,36,0*6B
$GPGSV,3,2,10,08,22,211,35,13,62,347,36,16,13,059,35,20,46,114,36,0*64
$GPGSV,3,3,10,23,48,038,36,25,84,195,36,0*64
$BDGSV,1,1,00,0*74

$GNRMC,000228.00,A,3128.000048,N,12117.999830,E,0.007,,200720,,,A,V*1E
$GNGGA,000228.00,3128.000048,N,12117.999830,E,1,09,0.96,40.4,M,9.5,M,,*42
$GNGSA,A,3,04,23,25,01,08,02,13,07,20,,,,1.67,0.96,1.36,1*04
$GNGSA,A,3,,,,,,,,,,,,,1.67,0.96,1.36,4*0F
$GPGSV,3,1,10,01,20,115,35,02,16,316,34,04,44,282,36,07,61,
204,36,0*6A
$GPGSV,3,2,10,08,22,211,35,13,62,347,36,16,13,059,35,20,46,114,36,0*64
$GPGSV,3,3,10,23,48,038,36,25,84,195,36,0*64
$BDGSV,1,1,00,0*74

$GNRMC,000229.00,A,3128.000047,N,12117.999826,E,0.005,,200720,,,A,V*15
$GNGGA,000229.00,3128.000047,N,12117.999826,E,1,09,0.96,40.5,M,9.5,M,,*4A
$GNGSA,A,3,04,23,25,01,08,02,13,07,20,,,,1.67,0.96,1.36,1*04
$GNGSA,A,3,,,,,,,,,,,,,1.67,0.96,1.36,4*0F
$GPGSV,3,1,10,01,20,115,35,02,16,316,35,04,44,282,36,07,61,
204,36,0*6B
$GPGSV,3,2,10,08,22,211,35,13,62,347,36,16,13,059,35,20,46,114,36,0*64
$GPGSV,3,3,10,23,48,038,36,25,84,195,36,0*64
$BDGSV,1,1,00,0*74

$GNRMC,000230.00,A,3128.000042,N,12117.999819,E,0.008,,200720,,,A,V*19
$GNGGA,000230.00,3128.000042,N,12117.999819,E,1,09,0.96,40.5,M,9.5,M,,*4B
$GNGSA,A,3,04,23,25,01,08,02,13,07,20,,,,1.67,0.96,1.36,1*04
$GNGSA,A,3,,,,,,,,,,,,,1.67,0.96,1.36,4*0F
$GPGSV,3,1,10,01,20,115,35,02,16,316,35,04,44,282,36,07,61,
204,36,0*6B
$GPGSV,3,2,10,08,22,211,35,13,62,347,36,16,13,059,34,20,46,114,36,0*65
$GPGSV,3,3,10,23,48,038,35,25,84,195,36,0*67
$BDGSV,1,1,00,0*74

$GNRMC,000231.00,A,3128.000036,N,12117.999815,E,0.006,,200720,,,A,V*19
$GNGGA,000231.00,3128.000036,N,12117.999815,E,1,09,0.96,40.5,M,9.5,M,,*45
$GNGSA,A,3,04,23,25,01,08,02,13,07,20,,,,1.67,0.96,1.36,1*04
$GNGSA,A,3,,,,,,,,,,,,,1.67,0.96,1.36,4*0F
$GPGSV,3,1,10,01,20,115,35,02,16,316,35,04,44,282,36,07,61,
204,36,0*6B
$GPGSV,3,2,10,08,22,211,35,13,62,347,36,16,13,059,35,20,46,114,36,0*64
$GPGSV,3,3,10,23,48,038,36,25,84,195,36,0*64
$BDGSV,1,1,00,0*74

$GNRMC,000232.00,A,3128.000030,N,12117.999812,E,0.008,,200720,,,A,V*15
$GNGGA,000232.00,3128.000030,N,12117.999812,E,1,09,0.96,40.5,M,9.5,M,,*47
$GNGSA,A,3,04,23,25,01,08,02,13,07,20,,,,1.67,0.96,1.36,1*04
$GNGSA,A,3,,,,,,,,,,,,,1.67,0.96,1.36,4*0F
$GPGSV,3,1,10,01,20,115,35,02,16,316,35,04,44,282,36,07,61,
204,36,0*6B
$GPGSV,3,2,10,08,22,211,35,13,62,347,36,16,13,059,35,20,45,114,36,0*67
$GPGSV,3,3,10,23,48,038,36,25,84,195,36,0*64
$BDGSV,1,1,00,0*74

$GNRMC,000233.00,A,3128.000020,N,12117.999809,E,0.010,,200720,,,A,V*16
$GNGGA,000233.00,3128.000020,N,12117.999809,E,1,09,0.96,40.5,M,9.5,M,,*4D
$GNGSA,A,3,04,23,25,01,08,02,13,07,20,,,,1.67,0.96,1.36,1*04
$GNGSA,A,3,,,,,,,,,,,,,1.67,0.96,1.36,4*0F
$GPGSV,3,1,10,01,20,115,35,02,16,316,35,04,44,282,36,07,61,
204,36,0*6B
$GPGSV,3,2,10,08,22,211,35,13,62,347,36,16,13,059,35,20,45,114,36,0*67
$GPGSV,3,3,10,23,48,038,36,25,84,195,36,0*64
$BDGSV,1,1,00,0*74

$GNRMC,000234.00,A,3128.000016,N,12117.999807,E,0.011,,200720,,,A,V*1B
$GNGGA,000234.00,3128.000016,N,12117.999807,E,1,09,0.96,40.5,M,9.5,M,,*41
$GNGSA,A,3,04,23,25,01,08,02,13,07,20,,,,1.67,0.96,1.36,1*04
$GNGSA,A,3,,,,,,,,,,,,,1.67,0.96,1.36,4*0F
$GPGSV,3,1,10,01,20,115,35,02,16,316,35,04,44,282,35,07,61,
204,36,0*68
$GPGSV,3,2,10,08,22,211,35,13,62,347,36,16,13,059,35,20,45,114,36,0*67
$GPGSV,3,3,10,23,48,038,36,25,84,195,36,0*64
$BDGSV,1,1,00,0*74

$GNRMC,000235.00,A,3128.000007,N,12117.999805,E,0.002,,200720,,,A,V*1A
$GNGGA,000235.00,3128.000007,N,12117.999805,E,1,09,0.96,40.5,M,9.5,M,,*42
$GNGSA,A,3,04,23,25,01,08,02,13,07,20,,,,1.67,0.96,1.36,1*04
$GNGSA,A,3,,,,,,,,,,,,,1.67,0.96,1.36,4*0F
$GPGSV,3,1,10,01,20,115,35,02,16,316,35,04,44,282,36,07,61,
204,36,0*6B
$GPGSV,3,2,10,08,22,211,35,13,62,347,36,16,13,059,34,20,45,114,36,0*66
$GPGSV,3,3,10,23,48,038,36,25,84,195,36,0*64
$BDGSV,1,1,00,0*74

$GNRMC,000236.00,A,3127.999996,N,12117.999810,E,0.012,,200720,,,A,V*1B
$GNGGA,000236.00,3127.999996,N,12117.999810,E,1,09,0.96,40.5,M,9.5,M,,*42
$GNGSA,A,3,04,23,25,01,08,02,13,07,20,,,,1.67,0.96,1.36,1*04
$GNGSA,A,3,,,,,,,,,,,,,1.67,0.96,1.36,4*0F
$GPGSV,3,1,10,01,20,115,35,02,16,316,35,04,44,282,36,07,61,
204,36,0*6B
$GPGSV,3,2,10,08,22,211,35,13,62,347,36,16,13,059,34,20,45,114,36,0*66
$GPGSV,3,3,10,23,48,038,36,25,84,195,36,0*64
$BDGSV,1,1,00,0*74
<????sim??????(SIM??:1)>
<????GSM????????(GSM:0)>
<????GPRS????????(GPRS:0)>
<????????????(SIGNAL:0)>
<????????????????(BER:0)>

<??????????????>

$GNRMC,000237.00,A,3127.999994,N,12117.999811,E,0.010,,200720,,,A,V*1B
$GNGGA,000237.00,3127.999994,N,12117.999811,E,1,09,0.96,40.4,M,9.5,M,,*41
$GNGSA,A,3,04,23,25,01,08,02,13,07,20,,,,1.67,0.96,1.36,1*04
$GNGSA,A,3,,,,,,,,,,,,,1.67,0.96,1.36,4*0F
$GPGSV,3,1,10,01,20,115,35,02,16,316,35,04,44,282,36,07,61,
204,36,0*6B
$GPGSV,3,2,10,08,22,211,35,13,62,347,36,16,13,059,35,20,45,114,36,0*67
$GPGSV,3,3,10,23,48,038,36,25,84,195,36,0*64
$BDGSV,1,1,00,0*74

$GNRMC,000238.00,A,3127.999992,N,12117.999814,E,0.013,,200720,,,A,V*14
$GNGGA,000238.00,3127.999992,N,12117.999814,E,1,09,0.96,40.4,M,9.5,M,,*4D
$GNGSA,A,3,04,23,25,01,08,02,13,07,20,,,,1.67,0.96,1.36,1*04
$GNGSA,A,3,,,,,,,,,,,,,1.67,0.96,1.36,4*0F
$GPGSV,3,1,10,01,20,115,35,02,16,316,35,04,44,282,36,07,61,
204,36,0*6B
$GPGSV,3,2,10,08,22,211,35,13,62,347,36,16,13,059,35,20,45,114,36,0*67
$GPGSV,3,3,10,23,48,038,36,25,84,195,36,0*64
$BDGSV,1,1,00,0*74

$GNRMC,000239.00,A,3127.999985,N,12117.999814,E,0.011,,200720,,,A,V*11
$GNGGA,000239.00,3127.999985,N,12117.999814,E,1,09,0.96,40.4,M,9.5,M,,*4A
$GNGSA,A,3,04,23,25,01,08,02,13,07,20,,,,1.67,0.96,1.36,1*04
$GNGSA,A,3,,,,,,,,,,,,,1.67,0.96,1.36,4*0F
$GPGSV,3,1,10,01,20,115,35,02,16,316,35,04,44,282,36,07,61,
204,36,0*6B
$GPGSV,3,2,10,08,22,211,35,13,62,347,36,16,13,059,35,20,45,114,36,0*67
$GPGSV,3,3,10,23,48,038,36,25,84,195,36,0*64
$BDGSV,1,1,00,0*74

$GNRMC,000240.00,A,3127.999988,N,12117.999814,E,0.017,,200720,,,A,V*14
$GNGGA,000240.00,3127.999988,N,12117.999814,E,1,09,0.96,40.4,M,9.5,M,,*49
$GNGSA,A,3,04,23,25,01,08,02,13,07,20,,,,1.67,0.96,1.36,1*04
$GNGSA,A,3,,,,,,,,,,,,,1.67,0.96,1.36,4*0F
$GPGSV,3,1,10,01,20,115,35,02,16,316,35,04,44,282,36,07,61,
204,36,0*6B
$GPGSV,3,2,10,08,22,211,35,13,62,347,36,16,13,059,35,20,45,114,36,0*67
$GPGSV,3,3,10,23,48,038,36,25,84,195,36,0*64
$BDGSV,1,1,00,0*74

$GNRMC,000241.00,A,3127.999985,N,12117.999812,E,0.005,,200720,,,A,V*1D
$GNGGA,000241.00,3127.999985,N,12117.999812,E,1,09,0.96,40.4,M,9.5,M,,*43
$GNGSA,A,3,04,23,25,01,08,02,13,07,20,,,,1.67,0.96,1.36,1*04
$GNGSA,A,3,,,,,,,,,,,,,1.67,0.96,1.36,4*0F
$GPGSV,3,1,10,01,20,115,35,02,16,316,34,04,44,282,36,07,61,
204,36,0*6A
$GPGSV,3,2,10,08,22,211,35,13,62,347,36,16,13,059,35,20,45,114,36,0*67
$GPGSV,3,3,10,23,48,038,36,25,84,195,36,0*64
$BDGSV,1,1,00,0*74

$GNRMC,000242.00,A,3127.999986,N,12117.999810,E,0.009,,200720,,,A,V*13
$GNGGA,000242.00,3127.999986,N,12117.999810,E,1,09,0.97,40.4,M,9.5,M,,*40
$GNGSA,A,3,04,23,25,01,08,02,13,07,20,,,,1.67,0.97,1.36,1*05
$GNGSA,A,3,,,,,,,,,,,,,1.67,0.97,1.36,4*0E
$GPGSV,3,1,10,01,20,116,35,02,16,316,35,04,44,282,36,07,61,
204,36,0*68
$GPGSV,3,2,10,08,22,211,35,13,62,347,36,16,13,059,35,20,45,114,36,0*67
$GPGSV,3,3,10,23,48,038,36,25,84,195,36,0*64
$BDGSV,1,1,00,0*74

$GNRMC,000243.00,A,3127.999991,N,12117.999809,E,0.007,,200720,,,A,V*12
$GNGGA,000243.00,3127.999991,N,12117.999809,E,1,09,0.97,40.4,M,9.5,M,,*4F
$GNGSA,A,3,04,23,25,01,08,02,13,07,20,,,,1.67,0.97,1.36,1*05
$GNGSA,A,3,,,,,,,,,,,,,1.67,0.97,1.36,4*0E
$GPGSV,3,1,11,01,20,116,35,02,16,316,35,04,44,282,36,07,61,
204,36,0*69
$GPGSV,3,2,11,08,22,211,35,11,00,170,,13,62,347,36,16,13,059,35,0*62
$GPGSV,3,3,11,20,45,114,36,23,48,038,36,25,84,195,36,0*57
$BDGSV,1,1,00,0*74

$GNRMC,000244.00,A,3127.999996,N,12117.999806,E,0.004,,200720,,,A,V*1E
$GNGGA,000244.00,3127.999996,N,12117.999806,E,1,09,0.97,40.3,M,9.5,M,,*47
$GNGSA,A,3,04,23,25,01,08,02,13,07,20,,,,1.67,0.97,1.36,1*05
$GNGSA,A,3,,,,,,,,,,,,,1.67,0.97,1.36,4*0E
$GPGSV,3,1,11,01,20,116,35,02,16,316,35,04,44,282,36,07,61,
204,36,0*69
$GPGSV,3,2,11,08,22,211,35,11,00,170,,13,62,347,36,16,13,059,35,0*62
$GPGSV,3,3,11,20,45,114,36,23,48,038,36,25,84,195,36,0*57
$BDGSV,1,1,00,0*74

$GNRMC,000245.00,A,3127.999997,N,12117.999804,E,0.001,,200720,,,A,V*19
$GNGGA,000245.00,3127.999997,N,12117.999804,E,1,09,0.97,40.3,M,9.5,M,,*45
$GNGSA,A,3,04,23,25,01,08,02,13,07,20,,,,1.67,0.97,1.36,1*05
$GNGSA,A,3,,,,,,,,,,,,,1.67,0.97,1.36,4*0E
$GPGSV,3,1,11,01,20,116,35,02,16,316,35,04,44,282,35,07,61,
204,36,0*6A
$GPGSV,3,2,11,08,22,211,35,11,00,170,,13,62,347,36,16,13,059,35,0*62
$GPGSV,3,3,11,20,45,114,36,23,48,038,36,25,84,195,36,0*57
$BDGSV,1,1,00,0*74

$GNRMC,000246.00,A,3127.999997,N,12117.999804,E,0.012,,200720,,,A,V*18
$GNGGA,000246.00,3127.999997,N,12117.999804,E,1,09,0.97,40.3,M,9.5,M,,*46
$GNGSA,A,3,04,23,25,01,08,02,13,07,20,,,,1.67,0.97,1.36,1*05
$GNGSA,A,3,,,,,,,,,,,,,1.67,0.97,1.36,4*0E
$GPGSV,3,1,11,01,20,116,35,02,16,316,35,04,44,282,36,07,61,
204,36,0*69
$GPGSV,3,2,11,08,22,211,35,11,00,170,,13,62,347,36,16,13,059,35,0*62
$GPGSV,3,3,11,20,45,114,36,23,48,038,36,25,84,195,36,0*57
$BDGSV,1,1,00,0*74
<??????????????>

$GNRMC,000247.00,A,3127.999999,N,12117.999796,E,0.015,,200720,,,A,V*14
$GNGGA,000247.00,3127.999999,N,12117.999796,E,1,09,0.97,40.3,M,9.5,M,,*4D
$GNGSA,A,3,04,23,25,01,08,02,13,07,20,,,,1.67,0.97,1.36,1*05
$GNGSA,A,3,,,,,,,,,,,,,1.67,0.97,1.36,4*0E
$GPGSV,3,1,11,01,20,116,35,02,16,316,35,04,44,282,36,07,61,
204,36,0*69
$GPGSV,3,2,11,08,22,211,35,11,00,170,,13,62,347,36,16,13,059,35,0*62
$GPGSV,3,3,11,20,45,114,36,23,48,038,36,25,84,195,36,0*57
$BDGSV,1,1,00,0*74

$GNRMC,000248.00,A,3127.999999,N,12117.999798,E,0.008,,200720,,,A,V*19
$GNGGA,000248.00,3127.999999,N,12117.999798,E,1,09,0.97,40.3,M,9.5,M,,*4C
$GNGSA,A,3,04,23,25,01,08,02,13,07,20,,,,1.67,0.97,1.36,1*05
$GNGSA,A,3,,,,,,,,,,,,,1.67,0.97,1.36,4*0E
$GPGSV,3,1,11,01,20,116,35,02,16,316,35,04,44,282,36,07,61,
204,36,0*69
$GPGSV,3,2,11,08,22,211,35,11,00,170,,13,62,347,36,16,13,059,35,0*62
$GPGSV,3,3,11,20,45,114,36,23,48,038,36,25,84,195,36,0*57
$BDGSV,1,1,00,0*74

$GNRMC,000249.00,A,3128.000001,N,12117.999797,E,0.002,,200720,,,A,V*13
$GNGGA,000249.00,3128.000001,N,12117.999797,E,1,09,0.97,40.3,M,9.5,M,,*4C
$GNGSA,A,3,04,23,25,01,08,02,13,07,20,,,,1.67,0.97,1.36,1*05
$GNGSA,A,3,,,,,,,,,,,,,1.67,0.97,1.36,4*0E
$GPGSV,3,1,11,01,20,116,35,02,16,316,35,04,44,282,36,07,61,
204,36,0*69
$GPGSV,3,2,11,08,22,211,35,11,00,170,,13,62,347,36,16,13,059,35,0*62
$GPGSV,3,3,11,20,45,114,36,23,48,038,36,25,84,195,36,0*57
$BDGSV,1,1,00,0*74

$GNRMC,000250.00,A,3128.000002,N,12117.999794,E,0.007,,200720,,,A,V*1E
$GNGGA,000250.00,3128.000002,N,12117.999794,E,1,09,0.97,40.3,M,9.5,M,,*44
$GNGSA,A,3,04,23,25,01,08,02,13,07,20,,,,1.67,0.97,1.36,1*05
$GNGSA,A,3,,,,,,,,,,,,,1.67,0.97,1.36,4*0E
$GPGSV,3,1,11,01,20,116,35,02,16,316,35,04,44,282,36,07,61,
204,36,0*69
$GPGSV,3,2,11,08,22,211,35,11,00,170,,13,62,347,36,16,13,059,35,0*62
$GPGSV,3,3,11,20,45,114,36,23,48,038,36,25,84,195,36,0*57
$BDGSV,1,1,00,0*74

$GNRMC,000251.00,A,3128.000001,N,12117.999791,E,0.001,,200720,,,A,V*1F
$GNGGA,000251.00,3128.000001,N,12117.999791,E,1,09,0.97,40.3,M,9.5,M,,*43
$GNGSA,A,3,04,23,25,01,08,02,13,07,20,,,,1.67,0.97,1.36,1*05
$GNGSA,A,3,,,,,,,,,,,,,1.67,0.97,1.36,4*0E
$GPGSV,3,1,11,01,20,116,35,02,16,316,35,04,44,282,36,07,61,
204,36,0*69
$GPGSV,3,2,11,08,22,211,35,11,00,170,,13,62,347,36,16,13,059,35,0*62
$GPGSV,3,3,11,20,45,114,36,23,48,038,36,25,84,195,36,0*57
$BDGSV,1,1,00,0*74

$GNRMC,000252.00,A,3127.999999,N,12117.999783,E,0.013,,200720,,,A,V*12
$GNGGA,000252.00,3127.999999,N,12117.999783,E,1,09,0.97,40.3,M,9.5,M,,*4D
$GNGSA,A,3,04,23,25,01,08,02,13,07,20,,,,1.67,0.97,1.36,1*05
$GNGSA,A,3,,,,,,,,,,,,,1.67,0.97,1.36,4*0E
$GPGSV,3,1,11,01,20,116,35,02,16,316,35,04,44,282,36,07,61,
204,36,0*69
$GPGSV,3,2,11,08,22,211,35,11,00,170,,13,62,347,36,16,13,059,35,0*62
$GPGSV,3,3,11,20,45,114,36,23,48,038,36,25,84,195,36,0*57
$BDGSV,1,1,00,0*74

$GNRMC,000253.00,A,3128.000001,N,12117.999780,E,0.006,,200720,,,A,V*1A
$GNGGA,000253.00,3128.000001,N,12117.999780,E,1,09,0.97,40.3,M,9.5,M,,*41
$GNGSA,A,3,04,23,25,01,08,02,13,07,20,,,,1.67,0.97,1.36,1*05
$GNGSA,A,3,,,,,,,,,,,,,1.67,0.97,1.36,4*0E
$GPGSV,3,1,11,01,20,116,35,02,16,316,35,04,44,282,36,07,61,
204,36,0*69
$GPGSV,3,2,11,08,22,211,35,11,00,170,,13,62,347,36,16,13,059,35,0*62
$GPGSV,3,3,11,20,45,114,36,23,48,038,36,25,84,195,36,0*57
$BDGSV,1,1,00,0*74


GPS HPregnss> E1 15 00 00 00 00 07 53 8F 3A BB 00 00 00 1C 3E 0B 0E AD 00 00 00 00 


$GNRMC,000254.00,A,3128.000001,N,12117.999777,E,0.002,,200720,,,A,V*11
$GNGGA,000254.00,3128.000001,N,12117.999777,E,1,09,0.97,40.3,M,9.5,M,,*4E
$GNGSA,A,3,04,23,25,01,08,02,13,07,20,,,,1.67,0.97,1.36,1*05
$GNGSA,A,3,,,,,,,,,,,,,1.67,0.97,1.36,4*0E
$GPGSV,3,1,11,01,20,116,35,02,16,316,35,04,44,282,36,07,61,
204,36,0*69
$GPGSV,3,2,11,08,22,211,35,11,00,170,,13,62,347,36,16,13,059,35,0*62
$GPGSV,3,3,11,20,45,114,36,23,48,038,36,25,84,195,36,0*57
$BDGSV,1,1,00,0*74

$GNRMC,000255.00,A,3128.000003,N,12117.999777,E,0.009,,200720,,,A,V*19
$GNGGA,000255.00,3128.000003,N,12117.999777,E,1,09,0.97,40.3,M,9.5,M,,*4D
$GNGSA,A,3,04,23,25,01,08,02,13,07,20,,,,1.67,0.97,1.36,1*05
$GNGSA,A,3,,,,,,,,,,,,,1.67,0.97,1.36,4*0E
$GPGSV,3,1,11,01,20,116,35,02,16,316,35,04,44,282,36,07,61,
204,36,0*69
$GPGSV,3,2,11,08,22,211,35,11,00,170,,13,62,347,36,16,13,059,35,0*62
$GPGSV,3,3,11,20,45,114,36,23,48,038,36,25,84,195,36,0*57
$BDGSV,1,1,00,0*74

$GNRMC,000256.00,A,3128.000000,N,12117.999775,E,0.006,,200720,,,A,V*14
$GNGGA,000256.00,3128.000000,N,12117.999775,E,1,09,0.97,40.2,M,9.5,M,,*4E
$GNGSA,A,3,04,23,25,01,08,02,13,07,20,,,,1.67,0.97,1.36,1*05
$GNGSA,A,3,,,,,,,,,,,,,1.67,0.97,1.36,4*0E
$GPGSV,3,1,11,01,20,116,35,02,16,316,35,04,44,282,36,07,61,
204,36,0*69
$GPGSV,3,2,11,08,22,211,35,11,00,170,,13,62,347,36,16,13,059,35,0*62
$GPGSV,3,3,11,20,45,114,36,23,48,038,36,25,84,195,36,0*57
$BDGSV,1,1,00,0*74

<????sim??????(SIM??:1)>
<????GSM????????(GSM:0)>
<????GPRS????????(GPRS:0)>
<????????????(SIGNAL:0)>
<????????????????(BER:0)>

<??????????????>

$GNRMC,000257.00,A,3128.000001,N,12117.999775,E,0.015,,200720,,,A,V*16
$GNGGA,000257.00,3128.000001,N,12117.999775,E,1,09,0.97,40.2,M,9.5,M,,*4E
$GNGSA,A,3,04,23,25,01,08,02,13,07,20,,,,1.67,0.97,1.36,1*05
$GNGSA,A,3,,,,,,,,,,,,,1.67,0.97,1.36,4*0E
$GPGSV,3,1,11,01,20,116,35,02,16,316,35,04,44,282,36,07,61,
204,36,0*69
$GPGSV,3,2,11,08,22,211,35,11,00,170,,13,62,347,36,16,13,059,35,0*62
$GPGSV,3,3,11,20,45,114,36,23,48,038,36,25,84,195,36,0*57
$BDGSV,1,1,00,0*74

$GNRMC,000258.00,A,3127.999996,N,12117.999770,E,0.009,,200720,,,A,V*10
$GNGGA,000258.00,3127.999996,N,12117.999770,E,1,09,0.97,40.2,M,9.5,M,,*45
$GNGSA,A,3,04,23,25,01,08,02,13,07,20,,,,1.67,0.97,1.36,1*05
$GNGSA,A,3,,,,,,,,,,,,,1.67,0.97,1.36,4*0E
$GPGSV,3,1,11,01,20,116,35,02,16,316,35,04,44,282,36,07,61,
204,36,0*69
$GPGSV,3,2,11,08,22,211,35,11,00,170,,13,62,347,36,16,13,059,35,0*62
$GPGSV,3,3,11,20,45,114,36,23,48,038,36,25,84,195,36,0*57
$BDGSV,1,1,00,0*74

$GNRMC,000259.00,A,3127.999992,N,12117.999766,E,0.002,,200720,,,A,V*19
$GNGGA,000259.00,3127.999992,N,12117.999766,E,1,09,0.97,40.2,M,9.5,M,,*47
$GNGSA,A,3,04,23,25,01,08,02,13,07,20,,,,1.67,0.97,1.36,1*05
$GNGSA,A,3,,,,,,,,,,,,,1.67,0.97,1.36,4*0E
$GPGSV,3,1,11,01,20,116,35,02,16,316,35,04,44,282,36,07,61,
204,36,0*69
$GPGSV,3,2,11,08,22,211,35,11,00,170,,13,62,347,36,16,13,059,35,0*62
$GPGSV,3,3,11,20,45,114,36,23,48,038,36,25,84,195,36,0*57
$BDGSV,1,1,00,0*74

$GNRMC,000300.00,A,3127.999993,N,12117.999762,E,0.007,,200720,,,A,V*14
$GNGGA,000300.00,3127.999993,N,12117.999762,E,1,09,0.97,40.2,M,9.5,M,,*4F
$GNGSA,A,3,04,23,25,01,08,02,13,07,20,,,,1.67,0.97,1.36,1*05
$GNGSA,A,3,,,,,,,,,,,,,1.67,0.97,1.36,4*0E
$GPGSV,3,1,11,01,20,116,35,02,16,316,35,04,44,282,36,07,61,
204,36,0*69
$GPGSV,3,2,11,08,22,211,35,11,00,170,,13,62,347,36,16,13,059,35,0*62
$GPGSV,3,3,11,20,45,114,36,23,48,038,36,25,84,195,36,0*57
$BDGSV,1,1,00,0*74

$GNRMC,000301.00,A,3127.999992,N,12117.999755,E,0.005,,200720,,,A,V*12
$GNGGA,000301.00,3127.999992,N,12117.999755,E,1,09,0.97,40.1,M,9.5,M,,*48
$GNGSA,A,3,04,23,25,01,08,02,13,07,20,,,,1.67,0.97,1.36,1*05
$GNGSA,A,3,,,,,,,,,,,,,1.67,0.97,1.36,4*0E
$GPGSV,3,1,11,01,20,116,35,02,16,316,35,04,44,282,36,07,61,
204,36,0*69
$GPGSV,3,2,11,08,22,211,35,11,00,170,,13,62,347,36,16,13,059,35,0*62
$GPGSV,3,3,11,20,45,114,36,23,48,038,36,25,84,195,36,0*57
$BDGSV,1,1,00,0*74

$GNRMC,000302.00,A,3127.999995,N,12117.999749,E,0.004,,200720,,,A,V*1A
$GNGGA,000302.00,3127.999995,N,12117.999749,E,1,09,0.97,40.1,M,9.5,M,,*41
$GNGSA,A,3,04,23,25,01,08,02,13,07,20,,,,1.67,0.97,1.36,1*05
$GNGSA,A,3,,,,,,,,,,,,,1.67,0.97,1.36,4*0E
$GPGSV,3,1,11,01,20,116,35,02,16,316,35,04,44,282,36,07,61,
204,36,0*69
$GPGSV,3,2,11,08,22,211,35,11,00,170,,13,62,347,36,16,13,059,35,0*62
$GPGSV,3,3,11,20,45,114,36,23,48,038,36,25,84,195,36,0*57
$BDGSV,1,1,00,0*74

$GNRMC,000303.00,A,3127.999999,N,12117.999748,E,0.001,,200720,,,A,V*13
$GNGGA,000303.00,3127.999999,N,12117.999748,E,1,09,0.97,40.1,M,9.5,M,,*4D
$GNGSA,A,3,04,23,25,01,08,02,13,07,20,,,,1.67,0.97,1.36,1*05
$GNGSA,A,3,,,,,,,,,,,,,1.67,0.97,1.36,4*0E
$GPGSV,3,1,11,01,20,116,35,02,16,316,35,04,44,282,36,07,61,
204,36,0*69
$GPGSV,3,2,11,08,22,211,35,11,00,170,,13,62,347,36,16,13,059,35,0*62
$GPGSV,3,3,11,20,45,114,36,23,48,038,36,25,84,195,36,0*57
$BDGSV,1,1,00,0*74

$GNRMC,000304.00,A,3128.000002,N,12117.999749,E,0.018,,200720,,,A,V*10
$GNGGA,000304.00,3128.000002,N,12117.999749,E,1,09,0.97,40.1,M,9.5,M,,*46
$GNGSA,A,3,04,23,25,01,08,02,13,07,20,,,,1.67,0.97,1.36,1*05
$GNGSA,A,3,,,,,,,,,,,,,1.67,0.97,1.36,4*0E
$GPGSV,3,1,11,01,20,116,35,02,16,316,35,04,45,282,36,07,61,
204,36,0*68
$GPGSV,3,2,11,08,22,211,35,11,00,170,,13,62,347,36,16,13,059,35,0*62
$GPGSV,3,3,11,20,45,114,36,23,48,038,36,25,84,195,36,0*57
$BDGSV,1,1,00,0*74

$GNRMC,000305.00,A,3128.000002,N,12117.999751,E,0.016,,200720,,,A,V*16
$GNGGA,000305.00,3128.000002,N,12117.999751,E,1,09,0.97,40.1,M,9.5,M,,*4E
$GNGSA,A,3,04,23,25,01,08,02,13,07,20,,,,1.67,0.97,1.36,1*05
$GNGSA,A,3,,,,,,,,,,,,,1.67,0.97,1.36,4*0E
$GPGSV,3,1,11,01,20,116,35,02,16,316,35,04,45,282,36,07,62,
204,36,0*6B
$GPGSV,3,2,11,08,22,211,35,11,00,170,,13,62,347,36,16,13,059,35,0*62
$GPGSV,3,3,11,20,45,114,36,23,48,038,36,25,84,195,36,0*57
$BDGSV,1,1,00,0*74

$GNRMC,000306.00,A,3128.000001,N,12117.999753,E,0.018,,200720,,,A,V*1A
$GNGGA,000306.00,3128.000001,N,12117.999753,E,1,09,0.97,40.1,M,9.5,M,,*4C
$GNGSA,A,3,04,23,25,01,08,02,13,07,20,,,,1.67,0.97,1.36,1*05
$GNGSA,A,3,,,,,,,,,,,,,1.67,0.97,1.36,4*0E
$GPGSV,3,1,11,01,20,116,35,02,16,316,35,04,45,282,36,07,62,
204,36,0*6B
$GPGSV,3,2,11,08,22,211,35,11,00,170,,13,62,347,36,16,13,059,35,0*62
$GPGSV,3,3,11,20,45,114,36,23,48,038,36,25,84,195,36,0*57
$BDGSV,1,1,00,0*74

<??????????????>

$GNRMC,000307.00,A,3128.000001,N,12117.999756,E,0.009,,200720,,,A,V*1E
$GNGGA,000307.00,3128.000001,N,12117.999756,E,1,09,0.97,40.1,M,9.5,M,,*48
$GNGSA,A,3,04,23,25,01,08,02,13,07,20,,,,1.67,0.97,1.36,1*05
$GNGSA,A,3,,,,,,,,,,,,,1.67,0.97,1.36,4*0E
$GPGSV,3,1,11,01,20,116,35,02,16,316,35,04,45,282,36,07,62,
204,36,0*6B
$GPGSV,3,2,11,08,22,211,35,11,00,170,,13,62,347,36,16,13,059,35,0*62
$GPGSV,3,3,11,20,45,114,36,23,48,038,36,25,84,195,36,0*57
$BDGSV,1,1,00,0*74

$GNRMC,000308.00,A,3128.000002,N,12117.999762,E,0.005,,200720,,,A,V*19
$GNGGA,000308.00,3128.000002,N,12117.999762,E,1,09,0.97,40.1,M,9.5,M,,*43
$GNGSA,A,3,04,23,25,01,08,02,13,07,20,,,,1.67,0.97,1.36,1*05
$GNGSA,A,3,,,,,,,,,,,,,1.67,0.97,1.36,4*0E
$GPGSV,3,1,11,01,20,116,35,02,16,316,35,04,45,282,36,07,62,
204,36,0*6B
$GPGSV,3,2,11,08,22,211,35,11,00,170,,13,62,347,36,16,13,059,35,0*62
$GPGSV,3,3,11,20,45,114,36,23,48,038,36,25,84,195,36,0*57
$BDGSV,1,1,00,0*74

$GNRMC,000309.00,A,3128.000001,N,12117.999767,E,0.006,,200720,,,A,V*1D
$GNGGA,000309.00,3128.000001,N,12117.999767,E,1,09,0.97,40.1,M,9.5,M,,*44
$GNGSA,A,3,04,23,25,01,08,02,13,07,20,,,,1.67,0.97,1.36,1*05
$GNGSA,A,3,,,,,,,,,,,,,1.67,0.97,1.36,4*0E
$GPGSV,3,1,11,01,20,116,35,02,16,316,35,04,45,282,36,07,62,
204,36,0*6B
$GPGSV,3,2,11,08,22,211,35,11,00,170,,13,62,347,36,16,13,059,35,0*62
$GPGSV,3,3,11,20,45,114,36,23,48,038,36,25,84,195,36,0*57
$BDGSV,1,1,00,0*74

$GNRMC,000310.00,A,3128.000005,N,12117.999770,E,0.012,,200720,,,A,V*12
$GNGGA,000310.00,3128.000005,N,12117.999770,E,1,09,0.97,40.1,M,9.5,M,,*4E
$GNGSA,A,3,04,23,25,01,08,02,13,07,20,,,,1.67,0.97,1.36,1*05
$GNGSA,A,3,,,,,,,,,,,,,1.67,0.97,1.36,4*0E
$GPGSV,3,1,11,01,20,116,35,02,16,316,35,04,45,282,36,07,62,
204,36,0*6B
$GPGSV,3,2,11,08,22,211,35,11,00,170,,13,62,347,36,16,13,059,35,0*62
$GPGSV,3,3,11,20,45,114,36,23,48,038,36,25,84,195,36,0*57
$BDGSV,1,1,00,0*74

$GNRMC,000311.00,A,3128.000008,N,12117.999774,E,0.020,,200720,,,A,V*1B
$GNGGA,000311.00,3128.000008,N,12117.999774,E,1,09,0.97,40.1,M,9.5,M,,*46
$GNGSA,A,3,04,23,25,01,08,02,13,07,20,,,,1.67,0.97,1.36,1*05
$GNGSA,A,3,,,,,,,,,,,,,1.67,0.97,1.36,4*0E
$GPGSV,3,1,11,01,20,116,35,02,16,316,35,04,45,282,36,07,62,
204,36,0*6B
$GPGSV,3,2,11,08,22,211,35,11,00,170,,13,62,347,36,16,13,058,35,0*63
$GPGSV,3,3,11,20,45,114,36,23,48,038,36,25,84,195,36,0*57
$BDGSV,1,1,00,0*74

$GNRMC,000312.00,A,3128.000011,N,12117.999775,E,0.010,,200720,,,A,V*12
$GNGGA,000312.00,3128.000011,N,12117.999775,E,1,09,0.97,40.1,M,9.5,M,,*4C
$GNGSA,A,3,04,23,25,01,08,02,13,07,20,,,,1.67,0.97,1.36,1*05
$GNGSA,A,3,,,,,,,,,,,,,1.67,0.97,1.36,4*0E
$GPGSV,3,1,11,01,20,116,35,02,16,316,35,04,45,282,36,07,62,
204,36,0*6B
$GPGSV,3,2,11,08,22,211,35,11,00,170,,13,62,347,36,16,13,058,35,0*63
$GPGSV,3,3,11,20,45,114,36,23,48,038,36,25,84,195,36,0*57
$BDGSV,1,1,00,0*74

$GNRMC,000313.00,A,3128.000015,N,12117.999780,E,0.013,,200720,,,A,V*1E
$GNGGA,000313.00,3128.000015,N,12117.999780,E,1,09,0.97,40.1,M,9.5,M,,*43
$GNGSA,A,3,04,23,25,01,08,02,13,07,20,,,,1.67,0.97,1.36,1*05
$GNGSA,A,3,,,,,,,,,,,,,1.67,0.97,1.36,4*0E
$GPGSV,3,1,11,01,20,116,35,02,16,316,35,04,45,282,36,07,62,
204,36,0*6B
$GPGSV,3,2,11,08,22,211,35,11,00,170,,13,62,347,36,16,13,058,35,0*63
$GPGSV,3,3,11,20,45,114,36,23,48,039,36,25,84,195,36,0*56
$BDGSV,1,1,00,0*74

$GNRMC,000314.00,A,3128.000021,N,12117.999784,E,0.015,,200720,,,A,V*1C
$GNGGA,000314.00,3128.000021,N,12117.999784,E,1,09,0.97,40.1,M,9.5,M,,*47
$GNGSA,A,3,04,23,25,01,08,02,13,07,20,,,,1.67,0.97,1.36,1*05
$GNGSA,A,3,,,,,,,,,,,,,1.67,0.97,1.36,4*0E
$GPGSV,3,1,11,01,20,116,35,02,16,316,35,04,45,282,36,07,62,
204,36,0*6B
$GPGSV,3,2,11,08,22,211,35,11,00,170,,13,62,347,36,16,13,058,35,0*63
$GPGSV,3,3,11,20,45,114,36,23,48,039,36,25,84,195,36,0*56
$BDGSV,1,1,00,0*74

$GNRMC,000315.00,A,3128.000023,N,12117.999785,E,0.002,,200720,,,A,V*18
$GNGGA,000315.00,3128.000023,N,12117.999785,E,1,09,0.97,40.1,M,9.5,M,,*45
$GNGSA,A,3,04,23,25,01,08,02,13,07,20,,,,1.67,0.97,1.36,1*05
$GNGSA,A,3,,,,,,,,,,,,,1.67,0.97,1.36,4*0E
$GPGSV,3,1,11,01,20,116,35,02,16,316,35,04,45,282,36,07,62,
204,36,0*6B
$GPGSV,3,2,11,08,22,211,35,11,00,170,,13,62,347,36,16,13,058,35,0*63
$GPGSV,3,3,11,20,45,114,36,23,48,039,36,25,84,195,36,0*56
$BDGSV,1,1,00,0*74

$GNRMC,000316.00,A,3128.000027,N,12117.999784,E,0.010,,200720,,,A,V*1D
$GNGGA,000316.00,3128.000027,N,12117.999784,E,1,09,0.97,40.1,M,9.5,M,,*43
$GNGSA,A,3,04,23,25,01,08,02,13,07,20,,,,1.67,0.97,1.36,1*05
$GNGSA,A,3,,,,,,,,,,,,,1.67,0.97,1.36,4*0E
$GPGSV,3,1,11,01,20,116,35,02,16,316,35,04,45,282,36,07,62,
204,36,0*6B
$GPGSV,3,2,11,08,22,211,35,11,00,170,,13,62,347,36,16,13,058,35,0*63
$GPGSV,3,3,11,20,45,114,36,23,48,039,36,25,84,195,36,0*56
$BDGSV,1,1,00,0*74

<????sim??????(SIM??:1)>
<????GSM????????(GSM:0)>
<????GPRS????????(GPRS:0)>
<????????????(SIGNAL:0)>
<????????????????(BER:0)>

<??????????????>

$GNRMC,000317.00,A,3128.000029,N,12117.999788,E,0.003,,200720,,,A,V*1C
$GNGGA,000317.00,3128.000029,N,12117.999788,E,1,09,0.97,40.1,M,9.5,M,,*40
$GNGSA,A,3,04,23,25,01,08,02,13,07,20,,,,1.67,0.97,1.36,1*05
$GNGSA,A,3,,,,,,,,,,,,,1.67,0.97,1.36,4*0E
$GPGSV,3,1,11,01,20,116,35,02,16,316,35,04,45,282,36,07,62,
204,36,0*6B
$GPGSV,3,2,11,08,22,211,35,11,00,170,,13,62,347,36,16,13,058,35,0*63
$GPGSV,3,3,11,20,45,114,36,23,48,039,36,25,84,195,36,0*56
$BDGSV,1,1,00,0*74

$GNRMC,000318.00,A,3128.000035,N,12117.999794,E,0.003,,200720,,,A,V*13
$GNGGA,000318.00,3128.000035,N,12117.999794,E,1,09,0.97,40.1,M,9.5,M,,*4F
$GNGSA,A,3,04,23,25,01,08,02,13,07,20,,,,1.67,0.97,1.36,1*05
$GNGSA,A,3,,,,,,,,,,,,,1.67,0.97,1.36,4*0E
$GPGSV,3,1,11,01,20,116,35,02,16,316,35,04,45,282,36,07,62,
204,36,0*6B
$GPGSV,3,2,11,08,22,211,35,11,00,170,,13,62,347,36,16,13,058,35,0*63
$GPGSV,3,3,11,20,45,114,36,23,48,039,36,25,84,195,36,0*56
$BDGSV,1,1,00,0*74

$GNRMC,000319.00,A,3128.000038,N,12117.999796,E,0.009,,200720,,,A,V*17
$GNGGA,000319.00,3128.000038,N,12117.999796,E,1,09,0.97,40.1,M,9.5,M,,*41
$GNGSA,A,3,04,23,25,01,08,02,13,07,20,,,,1.67,0.97,1.36,1*05
$GNGSA,A,3,,,,,,,,,,,,,1.67,0.97,1.36,4*0E
$GPGSV,3,1,11,01,20,116,35,02,16,316,35,04,45,282,36,07,62,
204,36,0*6B
$GPGSV,3,2,11,08,22,211,35,11,00,170,,13,62,347,36,16,13,058,35,0*63
$GPGSV,3,3,11,20,45,114,36,23,48,039,36,25,84,195,36,0*56
$BDGSV,1,1,00,0*74

$GNRMC,000320.00,A,3128.000041,N,12117.999791,E,0.010,,200720,,,A,V*1C
$GNGGA,000320.00,3128.000041,N,12117.999791,E,1,09,0.97,40.1,M,9.5,M,,*42
$GNGSA,A,3,04,23,25,01,08,02,13,07,20,,,,1.67,0.97,1.36,1*05
$GNGSA,A,3,,,,,,,,,,,,,1.67,0.97,1.36,4*0E
$GPGSV,3,1,11,01,20,116,35,02,16,316,35,04,45,282,36,07,62,
204,36,0*6B
$GPGSV,3,2,11,08,22,211,35,11,00,170,,13,62,347,36,16,13,058,35,0*63
$GPGSV,3,3,11,20,45,114,36,23,48,039,36,25,84,195,36,0*56
$BDGSV,1,1,00,0*74

$GNRMC,000321.00,A,3128.000043,N,12117.999790,E,0.021,,200720,,,A,V*1C
$GNGGA,000321.00,3128.000043,N,12117.999790,E,1,09,0.97,40.1,M,9.5,M,,*40
$GNGSA,A,3,04,23,25,01,08,02,13,07,20,,,,1.67,0.97,1.36,1*05
$GNGSA,A,3,,,,,,,,,,,,,1.67,0.97,1.36,4*0E
$GPGSV,3,1,11,01,20,116,35,02,16,316,35,04,45,282,36,07,62,
204,36,0*6B
$GPGSV,3,2,11,08,22,211,35,11,00,170,,13,62,347,36,16,13,058,35,0*63
$GPGSV,3,3,11,20,45,114,36,23,48,039,36,25,84,195,36,0*56
$BDGSV,1,1,00,0*74

$GNRMC,000322.00,A,3128.000047,N,12117.999782,E,0.002,,200720,,,A,V*19
$GNGGA,000322.00,3128.000047,N,12117.999782,E,1,09,0.97,40.1,M,9.5,M,,*44
$GNGSA,A,3,04,23,25,01,08,02,13,07,20,,,,1.67,0.97,1.36,1*05
$GNGSA,A,3,,,,,,,,,,,,,1.67,0.97,1.36,4*0E
$GPGSV,3,1,11,01,20,116,35,02,16,316,35,04,45,282,36,07,62,
204,36,0*6B
$GPGSV,3,2,11,08,22,211,35,11,00,170,,13,62,347,36,16,13,058,35,0*63
$GPGSV,3,3,11,20,45,114,36,23,48,039,36,25,84,195,36,0*56
$BDGSV,1,1,00,0*74

$GNRMC,000323.00,A,3128.000053,N,12117.999776,E,0.011,,200720,,,A,V*14
$GNGGA,000323.00,3128.000053,N,12117.999776,E,1,09,0.97,40.1,M,9.5,M,,*4B
$GNGSA,A,3,04,23,25,01,08,02,13,07,20,,,,1.67,0.97,1.36,1*05
$GNGSA,A,3,,,,,,,,,,,,,1.67,0.97,1.36,4*0E
$GPGSV,3,1,11,01,20,116,35,02,16,316,35,04,45,282,36,07,62,
204,36,0*6B
$GPGSV,3,2,11,08,22,211,35,11,00,170,,13,62,347,36,16,13,058,35,0*63
$GPGSV,3,3,11,20,45,114,36,23,48,039,36,25,84,195,36,0*56
$BDGSV,1,1,00,0*74


GPS HPregnss> E1 15 00 00 00 00 07 53 8F 3E 1E 00 00 00 1C 3E 0B 0E 6A 00 00 00 00 


$GNRMC,000324.00,A,3128.000054,N,12117.999771,E,0.005,,200720,,,A,V*16
$GNGGA,000324.00,3128.000054,N,12117.999771,E,1,09,0.97,40.1,M,9.5,M,,*4C
$GNGSA,A,3,04,23,25,01,08,02,13,07,20,,,,1.67,0.97,1.36,1*05
$GNGSA,A,3,,,,,,,,,,,,,1.67,0.97,1.36,4*0E
$GPGSV,3,1,11,01,20,116,35,02,16,316,35,04,45,282,36,07,62,
204,36,0*6B
$GPGSV,3,2,11,08,22,211,35,11,00,170,,13,62,347,36,16,13,058,35,0*63
$GPGSV,3,3,11,20,45,114,36,23,48,039,36,25,84,195,36,0*56
$BDGSV,1,1,00,0*74

$GNRMC,000325.00,A,3128.000063,N,12117.999771,E,0.030,,200720,,,A,V*15
$GNGGA,000325.00,3128.000063,N,12117.999771,E,1,09,0.97,40.2,M,9.5,M,,*4A
$GNGSA,A,3,04,23,25,01,08,02,13,07,20,,,,1.67,0.97,1.36,1*05
$GNGSA,A,3,,,,,,,,,,,,,1.67,0.97,1.36,4*0E
$GPGSV,3,1,11,01,20,116,35,02,16,316,35,04,45,282,36,07,62,
204,36,0*6B
$GPGSV,3,2,11,08,22,211,35,11,00,170,,13,62,347,36,16,13,058,35,0*63
$GPGSV,3,3,11,20,45,114,36,23,48,039,36,25,84,195,36,0*56
$BDGSV,1,1,00,0*74

$GNRMC,000326.00,A,3128.000065,N,12117.999762,E,0.018,,200720,,,A,V*18
$GNGGA,000326.00,3128.000065,N,12117.999762,E,1,09,0.97,40.2,M,9.5,M,,*4D
$GNGSA,A,3,04,23,25,01,08,02,13,07,20,,,,1.67,0.97,1.36,1*05
$GNGSA,A,3,,,,,,,,,,,,,1.67,0.97,1.36,4*0E
$GPGSV,3,1,11,01,20,116,35,02,16,316,35,04,45,282,36,07,62,
204,36,0*6B
$GPGSV,3,2,11,08,22,211,35,11,00,170,,13,62,347,36,16,13,058,35,0*63
$GPGSV,3,3,11,20,45,114,36,23,48,039,36,25,84,195,36,0*56
$BDGSV,1,1,00,0*74

<??????????????>

$GNRMC,000327.00,A,3128.000067,N,12117.999762,E,0.011,,200720,,,A,V*12
$GNGGA,000327.00,3128.000067,N,12117.999762,E,1,09,0.97,40.2,M,9.5,M,,*4E
$GNGSA,A,3,04,23,25,01,08,02,13,07,20,,,,1.67,0.97,1.36,1*05
$GNGSA,A,3,,,,,,,,,,,,,1.67,0.97,1.36,4*0E
$GPGSV,3,1,11,01,20,116,35,02,16,316,35,04,45,282,36,07,62,
204,36,0*6B
$GPGSV,3,2,11,08,22,211,35,11,00,170,,13,62,347,36,16,13,058,35,0*63
$GPGSV,3,3,11,20,45,114,36,23,48,039,36,25,84,195,36,0*56
$BDGSV,1,1,00,0*74

$GNRMC,000328.00,A,3128.000075,N,12117.999761,E,0.012,,200720,,,A,V*1E
$GNGGA,000328.00,3128.000075,N,12117.999761,E,1,09,0.97,40.2,M,9.5,M,,*41
$GNGSA,A,3,04,23,25,01,08,02,13,07,20,,,,1.67,0.97,1.36,1*05
$GNGSA,A,3,,,,,,,,,,,,,1.67,0.97,1.36,4*0E
$GPGSV,3,1,11,01,20,116,35,02,16,316,35,04,45,282,36,07,62,
204,36,0*6B
$GPGSV,3,2,11,08,22,211,35,11,00,170,,13,62,347,36,16,13,058,35,0*63
$GPGSV,3,3,11,20,45,114,36,23,48,039,36,25,84,195,36,0*56
$BDGSV,1,1,00,0*74

$GNRMC,000329.00,A,3128.000078,N,12117.999758,E,0.002,,200720,,,A,V*19
$GNGGA,000329.00,3128.000078,N,12117.999758,E,1,09,0.97,40.3,M,9.5,M,,*46
$GNGSA,A,3,04,23,25,01,08,02,13,07,20,,,,1.67,0.97,1.36,1*05
$GNGSA,A,3,,,,,,,,,,,,,1.67,0.97,1.36,4*0E
$GPGSV,3,1,11,01,20,116,35,02,16,316,35,04,45,282,36,07,62,
204,36,0*6B
$GPGSV,3,2,11,08,22,211,35,11,00,170,,13,62,347,36,16,13,058,35,0*63
$GPGSV,3,3,11,20,45,114,36,23,48,039,36,25,84,195,36,0*56
$BDGSV,1,1,00,0*74

$GNRMC,000330.00,A,3128.000082,N,12117.999757,E,0.013,,200720,,,A,V*1B
$GNGGA,000330.00,3128.000082,N,12117.999757,E,1,09,0.97,40.3,M,9.5,M,,*44
$GNGSA,A,3,04,23,25,01,08,02,13,07,20,,,,1.67,0.97,1.36,1*05
$GNGSA,A,3,,,,,,,,,,,,,1.67,0.97,1.36,4*0E
$GPGSV,3,1,11,01,20,116,35,02,16,316,35,04,45,282,36,07,62,
204,36,0*6B
$GPGSV,3,2,11,08,22,211,35,11,00,170,,13,62,347,36,16,13,058,35,0*63
$GPGSV,3,3,11,20,45,114,36,23,48,039,36,25,84,195,36,0*56
$BDGSV,1,1,00,0*74

$GNRMC,000331.00,A,3128.000083,N,12117.999747,E,0.004,,200720,,,A,V*1C
$GNGGA,000331.00,3128.000083,N,12117.999747,E,1,09,0.97,40.3,M,9.5,M,,*45
$GNGSA,A,3,04,23,25,01,08,02,13,07,20,,,,1.67,0.97,1.36,1*05
$GNGSA,A,3,,,,,,,,,,,,,1.67,0.97,1.36,4*0E
$GPGSV,3,1,11,01,20,116,35,02,16,316,35,04,45,282,36,07,62,
204,36,0*6B
$GPGSV,3,2,11,08,22,211,35,11,00,170,,13,62,348,36,16,13,058,35,0*6C
$GPGSV,3,3,11,20,45,114,36,23,48,039,36,25,84,195,36,0*56
$BDGSV,1,1,00,0*74

$GNRMC,000332.00,A,3128.000083,N,12117.999739,E,0.003,,200720,,,A,V*11
$GNGGA,000332.00,3128.000083,N,12117.999739,E,1,09,0.97,40.3,M,9.5,M,,*4F
$GNGSA,A,3,04,23,25,01,08,02,13,07,20,,,,1.67,0.97,1.36,1*05
$GNGSA,A,3,,,,,,,,,,,,,1.67,0.97,1.36,4*0E
$GPGSV,3,1,11,01,20,116,35,02,16,316,35,04,45,282,36,07,62,
204,36,0*6B
$GPGSV,3,2,11,08,22,211,35,11,00,170,,13,62,348,36,16,13,058,35,0*6C
$GPGSV,3,3,11,20,45,114,36,23,48,039,36,25,84,195,36,0*56
$BDGSV,1,1,00,0*74

$GNRMC,000333.00,A,3128.000088,N,12117.999734,E,0.010,,200720,,,A,V*14
$GNGGA,000333.00,3128.000088,N,12117.999734,E,1,09,0.97,40.3,M,9.5,M,,*48
$GNGSA,A,3,04,23,25,01,08,02,13,07,20,,,,1.67,0.97,1.36,1*05
$GNGSA,A,3,,,,,,,,,,,,,1.67,0.97,1.36,4*0E
$GPGSV,3,1,11,01,20,116,35,02,16,316,35,04,45,282,36,07,62,
204,36,0*6B
$GPGSV,3,2,11,08,22,211,35,11,00,170,,13,62,348,36,16,13,058,35,0*6C
$GPGSV,3,3,11,20,45,114,36,23,48,039,36,25,84,195,36,0*56
$BDGSV,1,1,00,0*74

$GNRMC,000334.00,A,3128.000092,N,12117.999728,E,0.008,,200720,,,A,V*1C
$GNGGA,000334.00,3128.000092,N,12117.999728,E,1,09,0.97,40.4,M,9.5,M,,*4E
$GNGSA,A,3,04,23,25,01,08,02,13,07,20,,,,1.67,0.97,1.36,1*05
$GNGSA,A,3,,,,,,,,,,,,,1.67,0.97,1.36,4*0E
$GPGSV,3,1,11,01,20,116,35,02,16,316,35,04,45,282,36,07,62,
204,36,0*6B
$GPGSV,3,2,11,08,22,211,35,11,00,170,,13,62,348,36,16,13,058,34,0*6D
$GPGSV,3,3,11,20,45,114,36,23,48,039,36,25,84,195,36,0*56
$BDGSV,1,1,00,0*74

$GNRMC,000335.00,A,3128.000094,N,12117.999724,E,0.005,,200720,,,A,V*1A
$GNGGA,000335.00,3128.000094,N,12117.999724,E,1,09,0.97,40.4,M,9.5,M,,*45
$GNGSA,A,3,04,23,25,01,08,02,13,07,20,,,,1.67,0.97,1.36,1*05
$GNGSA,A,3,,,,,,,,,,,,,1.67,0.97,1.36,4*0E
$GPGSV,3,1,11,01,20,116,35,02,16,316,35,04,45,282,36,07,62,
204,36,0*6B
$GPGSV,3,2,11,08,22,211,35,11,00,170,,13,62,348,36,16,13,058,35,0*6C
$GPGSV,3,3,11,20,45,114,36,23,48,039,36,25,84,195,36,0*56
$BDGSV,1,1,00,0*74

$GNRMC,000336.00,A,3128.000099,N,12117.999721,E,0.007,,200720,,,A,V*13
$GNGGA,000336.00,3128.000099,N,12117.999721,E,1,09,0.97,40.4,M,9.5,M,,*4E
$GNGSA,A,3,04,23,25,01,08,02,13,07,20,,,,1.67,0.97,1.36,1*05
$GNGSA,A,3,,,,,,,,,,,,,1.67,0.97,1.36,4*0E
$GPGSV,3,1,11,01,20,116,35,02,16,316,35,04,45,282,36,07,62,
204,36,0*6B
$GPGSV,3,2,11,08,22,211,35,11,00,170,,13,62,348,36,16,13,058,35,0*6C
$GPGSV,3,3,11,20,45,114,36,23,48,039,36,25,84,195,36,0*56
$BDGSV,1,1,00,0*74

<????sim??????(SIM??:1)>
<????GSM????????(GSM:0)>
<????GPRS????????(GPRS:0)>
<????????????(SIGNAL:0)>
<????????????????(BER:0)>

<??????????????>

$GNRMC,000337.00,A,3128.000100,N,12117.999719,E,0.004,,200720,,,A,V*1B
$GNGGA,000337.00,3128.000100,N,12117.999719,E,1,09,0.97,40.4,M,9.5,M,,*45
$GNGSA,A,3,04,23,25,01,08,02,13,07,20,,,,1.67,0.97,1.36,1*05
$GNGSA,A,3,,,,,,,,,,,,,1.67,0.97,1.36,4*0E
$GPGSV,3,1,11,01,20,116,35,02,16,316,35,04,45,282,36,07,62,
204,36,0*6B
$GPGSV,3,2,11,08,22,211,35,11,00,170,,13,62,348,36,16,13,058,35,0*6C
$GPGSV,3,3,11,20,45,114,36,23,48,039,36,25,84,195,36,0*56
$BDGSV,1,1,00,0*74

$GNRMC,000338.00,A,3128.000104,N,12117.999711,E,0.018,,200720,,,A,V*15
$GNGGA,000338.00,3128.000104,N,12117.999711,E,1,09,0.97,40.4,M,9.5,M,,*46
$GNGSA,A,3,04,23,25,01,08,02,13,07,20,,,,1.67,0.97,1.36,1*05
$GNGSA,A,3,,,,,,,,,,,,,1.67,0.97,1.36,4*0E
$GPGSV,3,1,11,01,20,116,35,02,16,316,35,04,45,282,36,07,62,
204,36,0*6B
$GPGSV,3,2,11,08,22,211,35,11,00,170,,13,62,348,36,16,13,058,35,0*6C
$GPGSV,3,3,11,20,45,114,36,23,48,039,36,25,84,195,36,0*56
$BDGSV,1,1,00,0*74

$GNRMC,000339.00,A,3128.000102,N,12117.999708,E,0.011,,200720,,,A,V*13
$GNGGA,000339.00,3128.000102,N,12117.999708,E,1,09,0.97,40.4,M,9.5,M,,*49
$GNGSA,A,3,04,23,25,01,08,02,13,07,20,,,,1.67,0.97,1.36,1*05
$GNGSA,A,3,,,,,,,,,,,,,1.67,0.97,1.36,4*0E
$GPGSV,3,1,11,01,20,116,35,02,16,316,35,04,45,282,36,07,62,
204,36,0*6B
$GPGSV,3,2,11,08,22,211,35,11,00,170,,13,62,348,36,16,13,058,35,0*6C
$GPGSV,3,3,11,20,45,114,36,23,48,039,36,25,84,195,36,0*56
$BDGSV,1,1,00,0*74

$GNRMC,000340.00,A,3128.000100,N,12117.999705,E,0.001,,200720,,,A,V*13
$GNGGA,000340.00,3128.000100,N,12117.999705,E,1,09,0.97,40.4,M,9.5,M,,*48
$GNGSA,A,3,04,23,25,01,08,02,13,07,20,,,,1.67,0.97,1.36,1*05
$GNGSA,A,3,,,,,,,,,,,,,1.67,0.97,1.36,4*0E
$GPGSV,3,1,11,01,20,116,35,02,16,316,35,04,45,282,36,07,62,
204,36,0*6B
$GPGSV,3,2,11,08,22,211,35,11,00,170,,13,62,348,36,16,13,058,35,0*6C
$GPGSV,3,3,11,20,45,114,36,23,48,039,36,25,84,195,36,0*56
$BDGSV,1,1,00,0*74

$GNRMC,000341.00,A,3128.000097,N,12117.999703,E,0.006,,200720,,,A,V*1C
$GNGGA,000341.00,3128.000097,N,12117.999703,E,1,09,0.97,40.4,M,9.5,M,,*40
$GNGSA,A,3,04,23,25,01,08,02,13,07,20,,,,1.67,0.97,1.36,1*05
$GNGSA,A,3,,,,,,,,,,,,,1.67,0.97,1.36,4*0E
$GPGSV,3,1,11,01,20,116,35,02,16,316,35,04,45,282,36,07,62,
204,36,0*6B
$GPGSV,3,2,11,08,22,211,35,11,00,170,,13,62,348,36,16,13,058,35,0*6C
$GPGSV,3,3,11,20,45,114,36,23,48,039,36,25,84,195,36,0*56
$BDGSV,1,1,00,0*74

$GNRMC,000342.00,A,3128.000090,N,12117.999699,E,0.006,,200720,,,A,V*1A
$GNGGA,000342.00,3128.000090,N,12117.999699,E,1,09,0.97,40.4,M,9.5,M,,*46
$GNGSA,A,3,04,23,25,01,08,02,13,07,20,,,,1.67,0.97,1.36,1*05
$GNGSA,A,3,,,,,,,,,,,,,1.67,0.97,1.36,4*0E
$GPGSV,3,1,11,01,20,116,35,02,16,316,35,04,45,282,36,07,62,
204,36,0*6B
$GPGSV,3,2,11,08,22,211,35,11,00,170,,13,62,348,36,16,13,058,35,0*6C
$GPGSV,3,3,11,20,45,114,36,23,48,039,36,25,84,195,36,0*56
$BDGSV,1,1,00,0*74

$GNRMC,000343.00,A,3128.000085,N,12117.999698,E,0.012,,200720,,,A,V*1B
$GNGGA,000343.00,3128.000085,N,12117.999698,E,1,09,0.97,40.4,M,9.5,M,,*42
$GNGSA,A,3,04,23,25,01,08,02,13,07,20,,,,1.67,0.97,1.36,1*05
$GNGSA,A,3,,,,,,,,,,,,,1.67,0.97,1.36,4*0E
$GPGSV,3,1,11,01,19,116,35,02,16,316,35,04,45,282,36,07,62,
204,36,0*61
$GPGSV,3,2,11,08,22,211,35,11,00,170,,13,62,348,36,16,13,058,35,0*6C
$GPGSV,3,3,11,20,45,114,36,23,48,039,36,25,84,195,36,0*56
$BDGSV,1,1,00,0*74

$GNRMC,000344.00,A,3128.000083,N,12117.999694,E,0.012,,200720,,,A,V*16
$GNGGA,000344.00,3128.000083,N,12117.999694,E,1,09,0.97,40.4,M,9.5,M,,*4F
$GNGSA,A,3,04,23,25,01,08,02,13,07,20,,,,1.67,0.97,1.36,1*05
$GNGSA,A,3,,,,,,,,,,,,,1.67,0.97,1.36,4*0E
$GPGSV,3,1,11,01,19,116,35,02,16,315,35,04,45,282,36,07,62,
204,36,0*62
$GPGSV,3,2,11,08,22,211,35,11,00,170,,13,62,348,36,16,13,058,35,0*6C
$GPGSV,3,3,11,20,45,114,36,23,48,039,36,25,84,195,36,0*56
$BDGSV,1,1,00,0*74

$GNRMC,000345.00,A,3128.000078,N,12117.999688,E,0.004,,200720,,,A,V*19
$GNGGA,000345.00,3128.000078,N,12117.999688,E,1,09,0.97,40.3,M,9.5,M,,*40
$GNGSA,A,3,04,23,25,01,08,02,13,07,20,,,,1.67,0.97,1.36,1*05
$GNGSA,A,3,,,,,,,,,,,,,1.67,0.97,1.36,4*0E
$GPGSV,3,1,11,01,19,116,35,02,16,315,35,04,45,282,36,07,62,
204,36,0*62
$GPGSV,3,2,11,08,22,211,35,11,00,170,,13,62,348,36,16,13,058,35,0*6C
$GPGSV,3,3,11,20,45,114,36,23,48,039,36,25,84,195,36,0*56
$BDGSV,1,1,00,0*74

$GNRMC,000346.00,A,3128.000078,N,12117.999684,E,0.007,,200720,,,A,V*15
$GNGGA,000346.00,3128.000078,N,12117.999684,E,1,09,0.97,40.3,M,9.5,M,,*4F
$GNGSA,A,3,04,23,25,01,08,02,13,07,20,,,,1.67,0.97,1.36,1*05
$GNGSA,A,3,,,,,,,,,,,,,1.67,0.97,1.36,4*0E
$GPGSV,3,1,11,01,19,116,35,02,16,315,34,04,45,282,35,07,62,
204,36,0*60
$GPGSV,3,2,11,08,22,211,35,11,00,170,,13,62,348,36,16,13,058,35,0*6C
$GPGSV,3,3,11,20,45,114,36,23,48,039,36,25,84,195,36,0*56
$BDGSV,1,1,00,0*74

<??????????????>

$GNRMC,000347.00,A,3128.000083,N,12117.999684,E,0.014,,200720,,,A,V*12
$GNGGA,000347.00,3128.000083,N,12117.999684,E,1,09,0.97,40.3,M,9.5,M,,*4A
$GNGSA,A,3,04,23,25,01,08,02,13,07,20,,,,1.67,0.97,1.36,1*05
$GNGSA,A,3,,,,,,,,,,,,,1.67,0.97,1.36,4*0E
$GPGSV,3,1,11,01,19,116,35,02,16,315,35,04,45,282,35,07,62,
204,36,0*61
$GPGSV,3,2,11,08,22,211,35,11,00,170,,13,62,348,36,16,13,058,35,0*6C
$GPGSV,3,3,11,20,45,114,36,23,48,039,36,25,84,195,36,0*56
$BDGSV,1,1,00,0*74

$GNRMC,000348.00,A,3128.000080,N,12117.999681,E,0.008,,200720,,,A,V*16
$GNGGA,000348.00,3128.000080,N,12117.999681,E,1,09,0.97,40.2,M,9.5,M,,*42
$GNGSA,A,3,04,23,25,01,08,02,13,07,20,,,,1.67,0.97,1.36,1*05
$GNGSA,A,3,,,,,,,,,,,,,1.67,0.97,1.36,4*0E
$GPGSV,3,1,11,01,19,116,35,02,16,315,35,04,45,282,36,07,62,
204,36,0*62
$GPGSV,3,2,11,08,22,211,35,11,00,170,,13,62,348,36,16,13,058,35,0*6C
$GPGSV,3,3,11,20,45,114,36,23,48,039,36,25,84,195,36,0*56
$BDGSV,1,1,00,0*74

$GNRMC,000349.00,A,3128.000075,N,12117.999679,E,0.001,,200720,,,A,V*13
$GNGGA,000349.00,3128.000075,N,12117.999679,E,1,09,0.97,40.2,M,9.5,M,,*4E
$GNGSA,A,3,04,23,25,01,08,02,13,07,20,,,,1.67,0.97,1.36,1*05
$GNGSA,A,3,,,,,,,,,,,,,1.67,0.97,1.36,4*0E
$GPGSV,3,1,11,01,19,116,35,02,16,315,35,04,45,282,36,07,62,
204,36,0*62
$GPGSV,3,2,11,08,22,211,35,11,00,170,,13,62,348,36,16,13,058,35,0*6C
$GPGSV,3,3,11,20,45,114,36,23,48,039,36,25,84,195,36,0*56
$BDGSV,1,1,00,0*74

$GNRMC,000350.00,A,3128.000077,N,12117.999680,E,0.020,,200720,,,A,V*1C
$GNGGA,000350.00,3128.000077,N,12117.999680,E,1,09,0.97,40.2,M,9.5,M,,*42
$GNGSA,A,3,04,23,25,01,08,02,13,07,20,,,,1.67,0.97,1.36,1*05
$GNGSA,A,3,,,,,,,,,,,,,1.67,0.97,1.36,4*0E
$GPGSV,3,1,11,01,19,116,35,02,16,315,35,04,45,282,36,07,62,
204,36,0*62
$GPGSV,3,2,11,08,22,211,35,11,00,170,,13,62,348,36,16,13,058,35,0*6C
$GPGSV,3,3,11,20,45,114,36,23,48,039,36,25,84,195,36,0*56
$BDGSV,1,1,00,0*74

$GNRMC,000351.00,A,3128.000076,N,12117.999676,E,0.006,,200720,,,A,V*11
$GNGGA,000351.00,3128.000076,N,12117.999676,E,1,09,0.97,40.2,M,9.5,M,,*4B
$GNGSA,A,3,04,23,25,01,08,02,13,07,20,,,,1.67,0.97,1.36,1*05
$GNGSA,A,3,,,,,,,,,,,,,1.67,0.97,1.36,4*0E
$GPGSV,3,1,11,01,19,116,35,02,16,315,35,04,45,282,36,07,62,
204,36,0*62
$GPGSV,3,2,11,08,22,211,35,11,00,170,,13,62,348,36,16,13,058,35,0*6C
$GPGSV,3,3,11,20,45,114,36,23,48,039,36,25,84,195,36,0*56
$BDGSV,1,1,00,0*74

$GNRMC,000352.00,A,3128.000079,N,12117.999678,E,0.007,,200720,,,A,V*12
$GNGGA,000352.00,3128.000079,N,12117.999678,E,1,09,0.97,40.2,M,9.5,M,,*49
$GNGSA,A,3,04,23,25,01,08,02,13,07,20,,,,1.67,0.97,1.36,1*05
$GNGSA,A,3,,,,,,,,,,,,,1.67,0.97,1.36,4*0E
$GPGSV,3,1,11,01,19,116,35,02,16,315,35,04,45,282,36,07,62,
204,36,0*62
$GPGSV,3,2,11,08,22,211,35,11,00,170,,13,62,348,36,16,13,058,35,0*6C
$GPGSV,3,3,11,20,45,114,36,23,48,039,36,25,84,195,36,0*56
$BDGSV,1,1,00,0*74

$GNRMC,000353.00,A,3128.000084,N,12117.999680,E,0.006,,200720,,,A,V*17
$GNGGA,000353.00,3128.000084,N,12117.999680,E,1,09,0.97,40.2,M,9.5,M,,*4D
$GNGSA,A,3,04,23,25,01,08,02,13,07,20,,,,1.67,0.97,1.36,1*05
$GNGSA,A,3,,,,,,,,,,,,,1.67,0.97,1.36,4*0E
$GPGSV,3,1,11,01,19,116,35,02,16,315,35,04,45,282,36,07,62,
204,36,0*62
$GPGSV,3,2,11,08,22,211,35,11,00,170,,13,62,348,36,16,13,058,35,0*6C
$GPGSV,3,3,11,20,45,114,36,23,48,039,36,25,84,195,36,0*56
$BDGSV,1,1,00,0*74


GPS HPregnss> E1 15 00 00 00 00 07 53 8F 40 22 00 00 00 1C 3E 0B 08 2A 00 00 00 00 


$GNRMC,000354.00,A,3128.000086,N,12117.999681,E,0.009,,200720,,,A,V*1C
$GNGGA,000354.00,3128.000086,N,12117.999681,E,1,09,0.97,40.3,M,9.5,M,,*48
$GNGSA,A,3,04,23,25,01,08,02,13,07,20,,,,1.67,0.97,1.36,1*05
$GNGSA,A,3,,,,,,,,,,,,,1.67,0.97,1.36,4*0E
$GPGSV,3,1,11,01,19,116,35,02,16,315,35,04,45,282,36,07,62,
204,36,0*62
$GPGSV,3,2,11,08,22,211,35,11,00,170,,13,62,348,36,16,13,058,35,0*6C
$GPGSV,3,3,11,20,45,114,36,23,48,039,36,25,84,195,36,0*56
$BDGSV,1,1,00,0*74

$GNRMC,000355.00,A,3128.000090,N,12117.999686,E,0.014,,200720,,,A,V*11
$GNGGA,000355.00,3128.000090,N,12117.999686,E,1,09,0.97,40.3,M,9.5,M,,*49
$GNGSA,A,3,04,23,25,01,08,02,13,07,20,,,,1.67,0.97,1.36,1*05
$GNGSA,A,3,,,,,,,,,,,,,1.67,0.97,1.36,4*0E
$GPGSV,3,1,11,01,19,116,35,02,16,315,35,04,45,282,36,07,62,
204,36,0*62
$GPGSV,3,2,11,08,22,211,35,11,00,170,,13,62,348,36,16,13,058,35,0*6C
$GPGSV,3,3,11,20,45,114,36,23,48,039,36,25,84,195,36,0*56
$BDGSV,1,1,00,0*74

$GNRMC,000356.00,A,3128.000093,N,12117.999688,E,0.007,,200720,,,A,V*1D
$GNGGA,000356.00,3128.000093,N,12117.999688,E,1,09,0.97,40.3,M,9.5,M,,*47
$GNGSA,A,3,04,23,25,01,08,02,13,07,20,,,,1.67,0.97,1.36,1*05
$GNGSA,A,3,,,,,,,,,,,,,1.67,0.97,1.36,4*0E
$GPGSV,3,1,11,01,19,116,35,02,16,315,35,04,45,282,36,07,62,
204,36,0*62
$GPGSV,3,2,11,08,22,211,35,11,00,170,,13,62,348,36,16,13,058,35,0*6C
$GPGSV,3,3,11,20,45,114,36,23,48,039,36,25,84,194,36,0*57
$BDGSV,1,1,00,0*74

<????sim??????(SIM??:1)>
<????GSM????????(GSM:0)>
<????GPRS????????(GPRS:0)>
<????????????(SIGNAL:0)>
<????????????????(BER:0)>

<??????????????>

$GNRMC,000357.00,A,3128.000095,N,12117.999690,E,0.006,,200720,,,A,V*12
$GNGGA,000357.00,3128.000095,N,12117.999690,E,1,09,0.97,40.3,M,9.5,M,,*49
$GNGSA,A,3,04,23,25,01,08,02,13,07,20,,,,1.67,0.97,1.36,1*05
$GNGSA,A,3,,,,,,,,,,,,,1.67,0.97,1.36,4*0E
$GPGSV,3,1,11,01,19,116,35,02,16,315,35,04,45,282,36,07,62,
204,36,0*62
$GPGSV,3,2,11,08,22,211,35,11,00,170,,13,62,348,36,16,13,058,35,0*6C
$GPGSV,3,3,11,20,45,114,36,23,48,039,36,25,84,194,36,0*57
$BDGSV,1,1,00,0*74

$GNRMC,000358.00,A,3128.000096,N,12117.999696,E,0.011,,200720,,,A,V*1E
$GNGGA,000358.00,3128.000096,N,12117.999696,E,1,09,0.97,40.3,M,9.5,M,,*43
$GNGSA,A,3,04,23,25,01,08,02,13,07,20,,,,1.67,0.97,1.36,1*05
$GNGSA,A,3,,,,,,,,,,,,,1.67,0.97,1.36,4*0E
$GPGSV,3,1,11,01,19,116,35,02,16,315,35,04,45,282,36,07,62,
204,36,0*62
$GPGSV,3,2,11,08,22,211,35,11,00,170,,13,62,348,36,16,13,058,35,0*6C
$GPGSV,3,3,11,20,45,114,36,23,48,039,36,25,84,194,36,0*57
$BDGSV,1,1,00,0*74

$GNRMC,000359.00,A,3128.000100,N,12117.999703,E,0.007,,200720,,,A,V*1B
$GNGGA,000359.00,3128.000100,N,12117.999703,E,1,09,0.97,40.3,M,9.5,M,,*41
$GNGSA,A,3,04,23,25,01,08,02,13,07,20,,,,1.67,0.97,1.36,1*05
$GNGSA,A,3,,,,,,,,,,,,,1.67,0.97,1.36,4*0E
$GPGSV,3,1,11,01,19,116,35,02,16,315,35,04,45,282,36,07,62,
204,36,0*62
$GPGSV,3,2,11,08,22,211,35,11,00,170,,13,62,348,36,16,13,058,35,0*6C
$GPGSV,3,3,11,20,45,114,36,23,48,039,36,25,84,194,36,0*57
$BDGSV,1,1,00,0*74

$GNRMC,000400.00,A,3128.000103,N,12117.999713,E,0.008,,200720,,,A,V*1D
$GNGGA,000400.00,3128.000103,N,12117.999713,E,1,09,0.97,40.3,M,9.5,M,,*48
$GNGSA,A,3,04,23,25,01,08,02,13,07,20,,,,1.67,0.97,1.36,1*05
$GNGSA,A,3,,,,,,,,,,,,,1.67,0.97,1.36,4*0E
$GPGSV,3,1,11,01,19,116,35,02,16,315,35,04,45,282,36,07,62,
204,36,0*62
$GPGSV,3,2,11,08,22,211,35,11,00,170,,13,62,348,36,16,13,058,35,0*6C
$GPGSV,3,3,11,20,45,114,36,23,48,039,36,25,84,194,36,0*57
$BDGSV,1,1,00,0*74

$GNRMC,000401.00,A,3128.000103,N,12117.999722,E,0.013,,200720,,,A,V*14
$GNGGA,000401.00,3128.000103,N,12117.999722,E,1,09,0.97,40.3,M,9.5,M,,*4B
$GNGSA,A,3,04,23,25,01,08,02,13,07,20,,,,1.67,0.97,1.36,1*05
$GNGSA,A,3,,,,,,,,,,,,,1.67,0.97,1.36,4*0E
$GPGSV,3,1,11,01,19,116,35,02,16,315,35,04,45,282,36,07,62,
204,36,0*62
$GPGSV,3,2,11,08,22,211,35,11,00,170,,13,62,348,36,16,13,058,35,0*6C
$GPGSV,3,3,11,20,45,114,36,23,48,039,36,25,84,194,36,0*57
$BDGSV,1,1,00,0*74

$GNRMC,000402.00,A,3128.000106,N,12117.999730,E,0.005,,200720,,,A,V*16
$GNGGA,000402.00,3128.000106,N,12117.999730,E,1,09,0.97,40.3,M,9.5,M,,*4E
$GNGSA,A,3,04,23,25,01,08,02,13,07,20,,,,1.67,0.97,1.36,1*05
$GNGSA,A,3,,,,,,,,,,,,,1.67,0.97,1.36,4*0E
$GPGSV,3,1,11,01,19,116,35,02,16,315,35,04,45,282,36,07,62,
204,36,0*62
$GPGSV,3,2,11,08,22,211,35,11,00,170,,13,62,348,36,16,13,058,35,0*6C
$GPGSV,3,3,11,20,45,114,36,23,48,039,36,25,84,194,36,0*57
$BDGSV,1,1,00,0*74

$GNRMC,000403.00,A,3128.000109,N,12117.999733,E,0.007,,200720,,,A,V*19
$GNGGA,000403.00,3128.000109,N,12117.999733,E,1,09,0.97,40.3,M,9.5,M,,*43
$GNGSA,A,3,04,23,25,01,08,02,13,07,20,,,,1.67,0.97,1.36,1*05
$GNGSA,A,3,,,,,,,,,,,,,1.67,0.97,1.36,4*0E
$GPGSV,3,1,11,01,19,116,35,02,16,315,35,04,45,282,36,07,62,
204,36,0*62
$GPGSV,3,2,11,08,22,211,35,11,00,170,,13,62,348,36,16,13,058,35,0*6C
$GPGSV,3,3,11,20,45,114,36,23,48,039,36,25,84,194,36,0*57
$BDGSV,1,1,00,0*74

$GNRMC,000404.00,A,3128.000112,N,12117.999740,E,0.009,,200720,,,A,V*1E
$GNGGA,000404.00,3128.000112,N,12117.999740,E,1,09,0.97,40.3,M,9.5,M,,*4A
$GNGSA,A,3,04,23,25,01,08,02,13,07,20,,,,1.67,0.97,1.36,1*05
$GNGSA,A,3,,,,,,,,,,,,,1.67,0.97,1.36,4*0E
$GPGSV,3,1,11,01,19,116,35,02,16,315,35,04,45,282,36,07,62,
204,36,0*62
$GPGSV,3,2,11,08,22,211,35,11,00,170,,13,62,348,36,16,13,058,35,0*6C
$GPGSV,3,3,11,20,45,114,36,23,48,039,36,25,84,194,36,0*57
$BDGSV,1,1,00,0*74

$GNRMC,000405.00,A,3128.000114,N,12117.999748,E,0.004,,200720,,,A,V*1C
$GNGGA,000405.00,3128.000114,N,12117.999748,E,1,09,0.97,40.3,M,9.5,M,,*45
$GNGSA,A,3,04,23,25,01,08,02,13,07,20,,,,1.67,0.97,1.36,1*05
$GNGSA,A,3,,,,,,,,,,,,,1.67,0.97,1.36,4*0E
$GPGSV,3,1,11,01,19,116,35,02,16,315,35,04,45,282,36,07,62,
204,36,0*62
$GPGSV,3,2,11,08,22,211,35,11,00,170,,13,62,348,36,16,13,058,35,0*6C
$GPGSV,3,3,11,20,45,114,36,23,48,039,36,25,84,194,36,0*57
$BDGSV,1,1,00,0*74

$GNRMC,000406.00,A,3128.000115,N,12117.999754,E,0.010,,200720,,,A,V*16
$GNGGA,000406.00,3128.000115,N,12117.999754,E,1,09,0.97,40.3,M,9.5,M,,*4A
$GNGSA,A,3,04,23,25,01,08,02,13,07,20,,,,1.67,0.97,1.36,1*05
$GNGSA,A,3,,,,,,,,,,,,,1.67,0.97,1.36,4*0E
$GPGSV,3,1,11,01,19,116,35,02,16,315,35,04,45,281,36,07,62,
204,36,0*61
$GPGSV,3,2,11,08,22,211,35,11,00,170,,13,62,348,36,16,13,058,35,0*6C
$GPGSV,3,3,11,20,45,114,36,23,48,039,36,25,84,194,36,0*57
$BDGSV,1,1,00,0*74

<??????????????>

$GNRMC,000407.00,A,3128.000113,N,12117.999761,E,0.008,,200720,,,A,V*1E
$GNGGA,000407.00,3128.000113,N,12117.999761,E,1,09,0.97,40.3,M,9.5,M,,*4B
$GNGSA,A,3,04,23,25,01,08,02,13,07,20,,,,1.67,0.97,1.36,1*05
$GNGSA,A,3,,,,,,,,,,,,,1.67,0.97,1.36,4*0E
$GPGSV,3,1,11,01,19,116,35,02,16,315,35,04,45,281,36,07,62,
204,36,0*61
$GPGSV,3,2,11,08,22,211,35,11,00,170,,13,62,348,36,16,13,058,35,0*6C
$GPGSV,3,3,11,20,45,114,36,23,48,039,36,25,84,194,36,0*57
$BDGSV,1,1,00,0*74

$GNRMC,000408.00,A,3128.000111,N,12117.999765,E,0.003,,200720,,,A,V*1C
$GNGGA,000408.00,3128.000111,N,12117.999765,E,1,09,0.97,40.3,M,9.5,M,,*42
$GNGSA,A,3,04,23,25,01,08,02,13,07,20,,,,1.67,0.97,1.36,1*05
$GNGSA,A,3,,,,,,,,,,,,,1.67,0.97,1.36,4*0E
$GPGSV,3,1,11,01,19,116,35,02,16,315,35,04,45,281,36,07,62,
204,36,0*61
$GPGSV,3,2,11,08,22,211,35,11,00,170,,13,62,348,36,16,13,058,35,0*6C
$GPGSV,3,3,11,20,45,114,36,23,48,039,36,25,84,194,36,0*57
$BDGSV,1,1,00,0*74

$GNRMC,000409.00,A,3128.000112,N,12117.999768,E,0.007,,200720,,,A,V*17
$GNGGA,000409.00,3128.000112,N,12117.999768,E,1,09,0.97,40.3,M,9.5,M,,*4D
$GNGSA,A,3,04,23,25,01,08,02,13,07,20,,,,1.67,0.97,1.36,1*05
$GNGSA,A,3,,,,,,,,,,,,,1.67,0.97,1.36,4*0E
$GPGSV,3,1,11,01,19,116,35,02,16,315,35,04,45,281,36,07,62,
204,36,0*61
$GPGSV,3,2,11,08,22,211,35,11,00,170,,13,62,348,36,16,13,058,34,0*6D
$GPGSV,3,3,11,20,45,114,36,23,48,039,36,25,84,194,36,0*57
$BDGSV,1,1,00,0*74

$GNRMC,000410.00,A,3128.000116,N,12117.999777,E,0.014,,200720,,,A,V*17
$GNGGA,000410.00,3128.000116,N,12117.999777,E,1,09,0.97,40.3,M,9.5,M,,*4F
$GNGSA,A,3,04,23,25,01,08,02,13,07,20,,,,1.67,0.97,1.36,1*05
$GNGSA,A,3,,,,,,,,,,,,,1.67,0.97,1.36,4*0E
$GPGSV,3,1,11,01,19,116,35,02,16,315,35,04,45,281,36,07,62,
204,36,0*61
$GPGSV,3,2,11,08,22,211,35,11,00,170,,13,62,348,36,16,13,058,35,0*6C
$GPGSV,3,3,11,20,45,114,36,23,48,039,36,25,84,194,36,0*57
$BDGSV,1,1,00,0*74

$GNRMC,000411.00,A,3128.000118,N,12117.999782,E,0.006,,200720,,,A,V*11
$GNGGA,000411.00,3128.000118,N,12117.999782,E,1,09,0.97,40.3,M,9.5,M,,*4A
$GNGSA,A,3,04,23,25,01,08,02,13,07,20,,,,1.67,0.97,1.36,1*05
$GNGSA,A,3,,,,,,,,,,,,,1.67,0.97,1.36,4*0E
$GPGSV,3,1,11,01,19,116,35,02,16,315,35,04,45,281,36,07,62,
204,36,0*61
$GPGSV,3,2,11,08,22,211,35,11,00,170,,13,62,348,36,16,13,058,35,0*6C
$GPGSV,3,3,11,20,45,114,35,23,48,039,36,25,84,194,36,0*54
$BDGSV,1,1,00,0*74

$GNRMC,000412.00,A,3128.000120,N,12117.999786,E,0.003,,200720,,,A,V*18
$GNGGA,000412.00,3128.000120,N,12117.999786,E,1,09,0.97,40.3,M,9.5,M,,*46
$GNGSA,A,3,04,23,25,01,08,02,13,07,20,,,,1.67,0.97,1.36,1*05
$GNGSA,A,3,,,,,,,,,,,,,1.67,0.97,1.36,4*0E
$GPGSV,3,1,11,01,19,116,35,02,16,315,35,04,45,281,36,07,62,
204,36,0*61
$GPGSV,3,2,11,08,22,211,35,11,00,170,,13,62,348,36,16,13,058,35,0*6C
$GPGSV,3,3,11,20,45,114,36,23,48,039,36,25,84,194,36,0*57
$BDGSV,1,1,00,0*74

$GNRMC,000413.00,A,3128.000122,N,12117.999791,E,0.006,,200720,,,A,V*18
$GNGGA,000413.00,3128.000122,N,12117.999791,E,1,09,0.97,40.3,M,9.5,M,,*43
$GNGSA,A,3,04,23,25,01,08,02,13,07,20,,,,1.67,0.97,1.36,1*05
$GNGSA,A,3,,,,,,,,,,,,,1.67,0.97,1.36,4*0E
$GPGSV,3,1,11,01,19,116,35,02,16,315,35,04,45,281,36,07,62,
204,36,0*61
$GPGSV,3,2,11,08,22,211,35,11,00,170,,13,62,348,36,16,13,058,35,0*6C
$GPGSV,3,3,11,20,45,114,36,23,48,039,36,25,84,194,36,0*57
$BDGSV,1,1,00,0*74

$GNRMC,000414.00,A,3128.000122,N,12117.999793,E,0.008,,200720,,,A,V*13
$GNGGA,000414.00,3128.000122,N,12117.999793,E,1,09,0.97,40.3,M,9.5,M,,*46
