$GNRMC,001104.00,A,3127.999903,N,12117.999898,E,0.013,,200720,,,A,V*15
$GNGGA,001104.00,3127.999903,N,12117.999898,E,1,09,0.97,40.7,M,9.5,M,,*4E
$GNGSA,A,3,02,23,25,13,04,20,01,08,07,,,,1.69,0.97,1.38,1*05
$GNGSA,A,3,,,,,,,,,,,,,1.69,0.97,1.38,4*0E
$GPGSV,3,1,10,01,17,118,35,02,18,313,35,04,45,277,36,07,66,
206,36,0*67
$GPGSV,3,2,10,08,25,212,35,13,61,355,36,16,13,055,35,20,43,118,36,0*65
$GPGSV,3,3,10,23,46,042,36,25,88,191,36,0*6F
$BDGSV,1,1,00,0*74

$GNRMC,001105.00,A,3127.999912,N,12117.999904,E,0.010,,200720,,,A,V*13
$GNGGA,001105.00,3127.999912,N,12117.999904,E,1,09,0.97,40.7,M,9.5,M,,*4B
$GNGSA,A,3,02,23,25,13,04,20,01,08,07,,,,1.69,0.97,1.38,1*05
$GNGSA,A,3,,,,,,,,,,,,,1.69,0.97,1.38,4*0E
$GPGSV,3,1,10,01,17,118,35,02,18,313,35,04,45,277,36,07,66,
206,36,0*67
$GPGSV,3,2,10,08,25,212,35,13,61,355,36,16,13,055,35,20,42,118,36,0*64
$GPGSV,3,3,10,23,46,042,36,25,88,191,36,0*6F
$BDGSV,1,1,00,0*74

$GNRMC,001106.00,A,3127.999916,N,12117.999911,E,0.010,,200720,,,A,V*10
$GNGGA,001106.00,3127.999916,N,12117.999911,E,1,09,0.97,40.7,M,9.5,M,,*48
$GNGSA,A,3,02,23,25,13,04,20,01,08,07,,,,1.69,0.97,1.38,1*05
$GNGSA,A,3,,,,,,,,,,,,,1.69,0.97,1.38,4*0E
$GPGSV,3,1,10,01,17,118,35,02,18,313,35,04,45,277,36,07,66,
206,36,0*67
$GPGSV,3,2,10,08,25,212,35,13,61,355,36,16,13,055,35,20,42,118,36,0*64
$GPGSV,3,3,10,23,46,043,36,25,88,191,36,0*6E
$BDGSV,1,1,00,0*74

$GNRMC,001107.00,A,3127.999925,N,12117.999923,E,0.006,,200720,,,A,V*17
$GNGGA,001107.00,3127.999925,N,12117.999923,E,1,09,0.97,40.7,M,9.5,M,,*48
$GNGSA,A,3,02,23,25,13,04,20,01,08,07,,,,1.69,0.97,1.38,1*05
$GNGSA,A,3,,,,,,,,,,,,,1.69,0.97,1.38,4*0E
$GPGSV,3,1,10,01,17,118,35,02,18,313,35,04,45,277,36,07,66,
206,36,0*67
$GPGSV,3,2,10,08,25,212,35,13,61,355,36,16,13,055,35,20,42,118,36,0*64
$GPGSV,3,3,10,23,46,043,36,25,88,191,36,0*6E
$BDGSV,1,1,00,0*74

$GNRMC,001108.00,A,3127.999934,N,12117.999929,E,0.006,,200720,,,A,V*12
$GNGGA,001108.00,3127.999934,N,12117.999929,E,1,09,0.97,40.7,M,9.5,M,,*4D
$GNGSA,A,3,02,23,25,13,04,20,01,08,07,,,,1.69,0.97,1.38,1*05
$GNGSA,A,3,,,,,,,,,,,,,1.69,0.97,1.38,4*0E
$GPGSV,3,1,10,01,17,118,35,02,18,313,35,04,45,277,36,07,66,
206,36,0*67
$GPGSV,3,2,10,08,25,212,35,13,61,355,36,16,13,055,35,20,42,118,36,0*64
$GPGSV,3,3,10,23,46,043,36,25,88,191,36,0*6E
$BDGSV,1,1,00,0*74

$GNRMC,001109.00,A,3127.999943,N,12117.999933,E,0.017,,200720,,,A,V*18
$GNGGA,001109.00,3127.999943,N,12117.999933,E,1,09,0.97,40.8,M,9.5,M,,*48
$GNGSA,A,3,02,23,25,13,04,20,01,08,07,,,,1.69,0.97,1.38,1*05
$GNGSA,A,3,,,,,,,,,,,,,1.69,0.97,1.38,4*0E
$GPGSV,3,1,10,01,17,118,35,02,18,313,35,04,45,277,36,07,66,
206,36,0*67
$GPGSV,3,2,10,08,25,212,35,13,61,355,36,16,13,055,35,20,42,118,36,0*64
$GPGSV,3,3,10,23,46,043,36,25,88,191,36,0*6E
$BDGSV,1,1,00,0*74

$GNRMC,001110.00,A,3127.999954,N,12117.999931,E,0.017,,200720,,,A,V*14
$GNGGA,001110.00,3127.999954,N,12117.999931,E,1,09,0.97,40.8,M,9.5,M,,*44
$GNGSA,A,3,02,23,25,13,04,20,01,08,07,,,,1.69,0.97,1.38,1*05
$GNGSA,A,3,,,,,,,,,,,,,1.69,0.97,1.38,4*0E
$GPGSV,3,1,10,01,17,118,35,02,18,313,35,04,45,277,36,07,66,
206,36,0*67
$GPGSV,3,2,10,08,25,212,35,13,61,355,36,16,13,055,35,20,42,118,36,0*64
$GPGSV,3,3,10,23,46,043,36,25,88,191,36,0*6E
$BDGSV,1,1,00,0*74

<??????????????>

$GNRMC,001111.00,A,3127.999956,N,12117.999935,E,0.008,,200720,,,A,V*1D
$GNGGA,001111.00,3127.999956,N,12117.999935,E,1,09,0.97,40.8,M,9.5,M,,*43
$GNGSA,A,3,02,23,25,13,04,20,01,08,07,,,,1.69,0.97,1.38,1*05
$GNGSA,A,3,,,,,,,,,,,,,1.69,0.97,1.38,4*0E
$GPGSV,3,1,10,01,17,118,35,02,18,313,35,04,45,277,36,07,66,
206,36,0*67
$GPGSV,3,2,10,08,25,212,35,13,61,355,36,16,13,055,34,20,42,118,36,0*65
$GPGSV,3,3,10,23,46,043,36,25,88,191,36,0*6E
$BDGSV,1,1,00,0*74

$GNRMC,001112.00,A,3127.999963,N,12117.999934,E,0.011,,200720,,,A,V*11
$GNGGA,001112.00,3127.999963,N,12117.999934,E,1,09,0.97,40.8,M,9.5,M,,*47
$GNGSA,A,3,02,23,25,13,04,20,01,08,07,,,,1.69,0.97,1.38,1*05
$GNGSA,A,3,,,,,,,,,,,,,1.69,0.97,1.38,4*0E
$GPGSV,3,1,10,01,17,118,35,02,18,313,35,04,45,277,36,07,66,
206,36,0*67
$GPGSV,3,2,10,08,25,212,35,13,61,355,36,16,13,055,35,20,42,118,36,0*64
$GPGSV,3,3,10,23,46,043,36,25,88,191,36,0*6E
$BDGSV,1,1,00,0*74

$GNRMC,001113.00,A,3127.999970,N,12117.999936,E,0.008,,200720,,,A,V*18
$GNGGA,001113.00,3127.999970,N,12117.999936,E,1,09,0.97,40.8,M,9.5,M,,*46
$GNGSA,A,3,02,23,25,13,04,20,01,08,07,,,,1.69,0.97,1.38,1*05
$GNGSA,A,3,,,,,,,,,,,,,1.69,0.97,1.38,4*0E
$GPGSV,3,1,10,01,17,118,35,02,18,313,35,04,45,277,36,07,66,
206,36,0*67
$GPGSV,3,2,10,08,25,212,35,13,61,355,36,16,13,055,35,20,42,118,36,0*64
$GPGSV,3,3,10,23,46,043,36,25,88,191,36,0*6E
$BDGSV,1,1,00,0*74

$GNRMC,001114.00,A,3127.999976,N,12117.999936,E,0.003,,200720,,,A,V*12
$GNGGA,001114.00,3127.999976,N,12117.999936,E,1,09,0.97,40.8,M,9.5,M,,*47
$GNGSA,A,3,02,23,25,13,04,20,01,08,07,,,,1.69,0.97,1.38,1*05
$GNGSA,A,3,,,,,,,,,,,,,1.69,0.97,1.38,4*0E
$GPGSV,3,1,10,01,17,118,35,02,18,313,35,04,45,277,36,07,66,
206,36,0*67
$GPGSV,3,2,10,08,25,212,35,13,61,355,36,16,13,055,35,20,42,118,36,0*64
$GPGSV,3,3,10,23,46,043,36,25,88,191,36,0*6E
$BDGSV,1,1,00,0*74

$GNRMC,001115.00,A,3127.999985,N,12117.999930,E,0.009,,200720,,,A,V*13
$GNGGA,001115.00,3127.999985,N,12117.999930,E,1,09,0.97,40.8,M,9.5,M,,*4C
$GNGSA,A,3,02,23,25,13,04,20,01,08,07,,,,1.69,0.97,1.38,1*05
$GNGSA,A,3,,,,,,,,,,,,,1.69,0.97,1.38,4*0E
$GPGSV,3,1,10,01,17,118,35,02,18,313,35,04,45,277,36,07,66,
206,36,0*67
$GPGSV,3,2,10,08,25,212,35,13,61,355,36,16,13,055,34,20,42,118,36,0*65
$GPGSV,3,3,10,23,46,043,36,25,88,191,36,0*6E
$BDGSV,1,1,00,0*74

$GNRMC,001116.00,A,3127.999999,N,12117.999934,E,0.007,,200720,,,A,V*17
$GNGGA,001116.00,3127.999999,N,12117.999934,E,1,09,0.97,40.7,M,9.5,M,,*49
$GNGSA,A,3,02,23,25,13,04,20,01,08,07,,,,1.69,0.97,1.38,1*05
$GNGSA,A,3,,,,,,,,,,,,,1.69,0.97,1.38,4*0E
$GPGSV,3,1,10,01,17,118,35,02,18,313,35,04,45,276,36,07,66,
206,36,0*66
$GPGSV,3,2,10,08,25,212,35,13,61,355,36,16,13,055,35,20,42,118,36,0*64
$GPGSV,3,3,10,23,46,043,36,25,88,191,36,0*6E
$BDGSV,1,1,00,0*74

$GNRMC,001117.00,A,3128.000011,N,12117.999938,E,0.007,,200720,,,A,V*15
$GNGGA,001117.00,3128.000011,N,12117.999938,E,1,09,0.97,40.7,M,9.5,M,,*4B
$GNGSA,A,3,02,23,25,13,04,20,01,08,07,,,,1.69,0.97,1.38,1*05
$GNGSA,A,3,,,,,,,,,,,,,1.69,0.97,1.38,4*0E
$GPGSV,3,1,10,01,17,118,35,02,18,313,35,04,45,276,36,07,66,
206,36,0*66
$GPGSV,3,2,10,08,25,212,35,13,61,355,36,16,13,055,35,20,42,118,36,0*64
$GPGSV,3,3,10,23,46,043,36,25,88,191,36,0*6E
$BDGSV,1,1,00,0*74

$GNRMC,001118.00,A,3128.000018,N,12117.999949,E,0.007,,200720,,,A,V*15
$GNGGA,001118.00,3128.000018,N,12117.999949,E,1,09,0.97,40.7,M,9.5,M,,*4B
$GNGSA,A,3,02,23,25,13,04,20,01,08,07,,,,1.69,0.97,1.38,1*05
$GNGSA,A,3,,,,,,,,,,,,,1.69,0.97,1.38,4*0E
$GPGSV,3,1,10,01,17,118,35,02,18,313,35,04,45,276,36,07,66,
206,36,0*66
$GPGSV,3,2,10,08,25,212,35,13,61,355,36,16,13,055,35,20,42,118,36,0*64
$GPGSV,3,3,10,23,46,043,36,25,88,191,36,0*6E
$BDGSV,1,1,00,0*74

$GNRMC,001119.00,A,3128.000024,N,12117.999948,E,0.009,,200720,,,A,V*14
$GNGGA,001119.00,3128.000024,N,12117.999948,E,1,09,0.97,40.6,M,9.5,M,,*45
$GNGSA,A,3,02,23,25,13,04,20,01,08,07,,,,1.69,0.97,1.38,1*05
$GNGSA,A,3,,,,,,,,,,,,,1.69,0.97,1.38,4*0E
$GPGSV,3,1,10,01,17,118,35,02,18,313,35,04,45,276,35,07,66,
206,36,0*65
$GPGSV,3,2,10,08,25,212,35,13,61,355,36,16,13,055,35,20,42,118,36,0*64
$GPGSV,3,3,10,23,46,043,36,25,88,191,36,0*6E
$BDGSV,1,1,00,0*74

$GNRMC,001120.00,A,3128.000024,N,12117.999947,E,0.007,,200720,,,A,V*1F
$GNGGA,001120.00,3128.000024,N,12117.999947,E,1,09,0.97,40.6,M,9.5,M,,*40
$GNGSA,A,3,02,23,25,13,04,20,01,08,07,,,,1.69,0.97,1.38,1*05
$GNGSA,A,3,,,,,,,,,,,,,1.69,0.97,1.38,4*0E
$GPGSV,3,1,10,01,17,118,35,02,18,313,35,04,45,276,35,07,66,
206,36,0*65
$GPGSV,3,2,10,08,25,212,35,13,61,355,36,16,13,055,34,20,42,118,36,0*65
$GPGSV,3,3,10,23,46,043,36,25,88,191,36,0*6E
$BDGSV,1,1,00,0*74

<????sim??????(SIM??:1)>
<????GSM????????(GSM:0)>
<????GPRS????????(GPRS:0)>
<????????????(SIGNAL:0)>
<????????????????(BER:0)>

<??????????????>

$GNRMC,001121.00,A,3128.000028,N,12117.999948,E,0.008,,200720,,,A,V*12
$GNGGA,001121.00,3128.000028,N,12117.999948,E,1,09,0.97,40.6,M,9.5,M,,*42
$GNGSA,A,3,02,23,25,13,04,20,01,08,07,,,,1.69,0.97,1.38,1*05
$GNGSA,A,3,,,,,,,,,,,,,1.69,0.97,1.38,4*0E
$GPGSV,3,1,10,01,17,118,35,02,18,313,35,04,45,276,36,07,66,
206,36,0*66
$GPGSV,3,2,10,08,25,212,35,13,61,355,36,16,13,055,35,20,42,118,36,0*64
$GPGSV,3,3,10,23,46,043,36,25,88,191,36,0*6E
$BDGSV,1,1,00,0*74

$GNRMC,001122.00,A,3128.000035,N,12117.999949,E,0.011,,200720,,,A,V*14
$GNGGA,001122.00,3128.000035,N,12117.999949,E,1,09,0.97,40.7,M,9.5,M,,*4D
$GNGSA,A,3,02,23,25,13,04,20,01,08,07,,,,1.69,0.97,1.38,1*05
$GNGSA,A,3,,,,,,,,,,,,,1.69,0.97,1.38,4*0E
$GPGSV,3,1,10,01,17,118,35,02,18,313,35,04,45,276,36,07,66,
206,36,0*66
$GPGSV,3,2,10,08,25,212,35,13,61,355,36,16,13,055,35,20,42,118,36,0*64
$GPGSV,3,3,10,23,46,043,36,25,88,191,36,0*6E
$BDGSV,1,1,00,0*74


GPS HPregnss> E1 15 00 00 00 00 07 53 8F 3C F2 00 00 00 1C 3E 0B 19 AE 00 00 00 00 


$GNRMC,001123.00,A,3128.000030,N,12117.999939,E,0.013,,200720,,,A,V*15
$GNGGA,001123.00,3128.000030,N,12117.999939,E,1,09,0.97,40.7,M,9.5,M,,*4E
$GNGSA,A,3,02,23,25,13,04,20,01,08,07,,,,1.69,0.97,1.38,1*05
$GNGSA,A,3,,,,,,,,,,,,,1.69,0.97,1.38,4*0E
$GPGSV,3,1,10,01,17,118,35,02,18,313,35,04,45,276,36,07,66,
206,36,0*66
$GPGSV,3,2,10,08,25,212,35,13,61,355,36,16,13,055,35,20,42,118,36,0*64
$GPGSV,3,3,10,23,46,043,36,25,88,190,36,0*6F
$BDGSV,1,1,00,0*74

$GNRMC,001124.00,A,3128.000032,N,12117.999936,E,0.017,,200720,,,A,V*1B
$GNGGA,001124.00,3128.000032,N,12117.999936,E,1,09,0.97,40.7,M,9.5,M,,*44
$GNGSA,A,3,02,23,25,13,04,20,01,08,07,,,,1.69,0.97,1.38,1*05
$GNGSA,A,3,,,,,,,,,,,,,1.69,0.97,1.38,4*0E
$GPGSV,3,1,10,01,17,118,35,02,18,313,35,04,45,276,36,07,66,
206,36,0*66
$GPGSV,3,2,10,08,25,212,35,13,61,355,36,16,13,055,35,20,42,118,36,0*64
$GPGSV,3,3,10,23,46,043,36,25,88,190,36,0*6F
$BDGSV,1,1,00,0*74

$GNRMC,001125.00,A,3128.000033,N,12117.999931,E,0.005,,200720,,,A,V*1F
$GNGGA,001125.00,3128.000033,N,12117.999931,E,1,09,0.97,40.7,M,9.5,M,,*43
$GNGSA,A,3,02,23,25,13,04,20,01,08,07,,,,1.69,0.97,1.38,1*05
$GNGSA,A,3,,,,,,,,,,,,,1.69,0.97,1.38,4*0E
$GPGSV,3,1,10,01,17,118,35,02,18,313,35,04,45,276,36,07,66,206,36,0*66
$GPGSV,3,2,10,08,25,212,35,13,61,355,36,16,13,055,35,20,42,118,36,0*64
$GPGSV,3,3,10,23,46
,043,36,25,88,190,36,0*6F
$BDGSV,1,1,00,0*74

$GNRMC,001126.00,A,3128.000038,N,12117.999932,E,0.009,,200720,,,A,V*18
$GNGGA,001126.00,3128.000038,N,12117.999932,E,1,09,0.97,40.7,M,9.5,M,,*48
$GNGSA,A,3,02,23,25,13,04,20,01,08,07,,,,1.69,0.97,1.38,1*05
$GNGSA,A,3,,,,,,,,,,,,,1.69,0.97,1.38,4*0E
$GPGSV,3,1,10,01,17,118,35,02,18,313,35,04,45,276,35,07,66,
206,36,0*65
$GPGSV,3,2,10,08,25,212,35,13,61,355,36,16,13,055,35,20,42,118,36,0*64
$GPGSV,3,3,10,23,46,043,36,25,88,190,36,0*6F
$BDGSV,1,1,00,0*74

$GNRMC,001127.00,A,3128.000041,N,12117.999929,E,0.004,,200720,,,A,V*10
$GNGGA,001127.00,3128.000041,N,12117.999929,E,1,09,0.97,40.8,M,9.5,M,,*42
$GNGSA,A,3,02,23,25,13,04,20,01,08,07,,,,1.69,0.97,1.38,1*05
$GNGSA,A,3,,,,,,,,,,,,,1.69,0.97,1.38,4*0E
$GPGSV,3,1,10,01,17,118,35,02,18,313,35,04,45,276,36,07,66,
206,36,0*66
$GPGSV,3,2,10,08,25,212,35,13,61,355,36,16,13,055,35,20,42,118,36,0*64
$GPGSV,3,3,10,23,46,043,36,25,88,190,36,0*6F
$BDGSV,1,1,00,0*74

$GNRMC,001128.00,A,3128.000043,N,12117.999929,E,0.008,,200720,,,A,V*11
$GNGGA,001128.00,3128.000043,N,12117.999929,E,1,09,0.97,40.8,M,9.5,M,,*4F
$GNGSA,A,3,02,23,25,13,04,20,01,08,07,,,,1.69,0.97,1.38,1*05
$GNGSA,A,3,,,,,,,,,,,,,1.69,0.97,1.38,4*0E
$GPGSV,3,1,10,01,17,118,35,02,18,313,35,04,45,276,36,07,66,
206,36,0*66
$GPGSV,3,2,10,08,25,212,35,13,61,355,36,16,13,055,35,20,42,118,36,0*64
$GPGSV,3,3,10,23,46,043,36,25,88,190,36,0*6F
$BDGSV,1,1,00,0*74

$GNRMC,001129.00,A,3128.000055,N,12117.999932,E,0.024,,200720,,,A,V*13
$GNGGA,001129.00,3128.000055,N,12117.999932,E,1,09,0.97,40.8,M,9.5,M,,*43
$GNGSA,A,3,02,23,25,13,04,20,01,08,07,,,,1.69,0.97,1.38,1*05
$GNGSA,A,3,,,,,,,,,,,,,1.69,0.97,1.38,4*0E
$GPGSV,3,1,10,01,17,119,35,02,18,313,35,04,45,276,36,07,66,
206,36,0*67
$GPGSV,3,2,10,08,25,212,35,13,61,355,36,16,13,055,35,20,42,118,36,0*64
$GPGSV,3,3,10,23,46,043,36,25,88,190,36,0*6F
$BDGSV,1,1,00,0*74

$GNRMC,001130.00,A,3128.000061,N,12117.999929,E,0.011,,200720,,,A,V*10
$GNGGA,001130.00,3128.000061,N,12117.999929,E,1,09,0.97,40.8,M,9.5,M,,*46
$GNGSA,A,3,02,23,25,13,04,20,01,08,07,,,,1.69,0.97,1.38,1*05
$GNGSA,A,3,,,,,,,,,,,,,1.69,0.97,1.38,4*0E
$GPGSV,3,1,10,01,17,119,35,02,18,313,35,04,45,276,36,07,66,
206,36,0*67
$GPGSV,3,2,10,08,25,212,35,13,61,355,36,16,13,055,35,20,42,118,36,0*64
$GPGSV,3,3,10,23,46,043,36,25,88,190,36,0*6F
$BDGSV,1,1,00,0*74

<??????????????>

$GNRMC,001131.00,A,3128.000064,N,12117.999934,E,0.012,,200720,,,A,V*1B
$GNGGA,001131.00,3128.000064,N,12117.999934,E,1,09,0.97,40.8,M,9.5,M,,*4E
$GNGSA,A,3,02,23,25,13,04,20,01,08,07,,,,1.69,0.97,1.38,1*05
$GNGSA,A,3,,,,,,,,,,,,,1.69,0.97,1.38,4*0E
$GPGSV,3,1,10,01,17,119,35,02,18,313,35,04,45,276,36,07,66,
206,36,0*67
$GPGSV,3,2,10,08,25,212,35,13,61,355,36,16,13,055,35,20,42,118,36,0*64
$GPGSV,3,3,10,23,46,043,36,25,88,190,36,0*6F
$BDGSV,1,1,00,0*74

$GNRMC,001132.00,A,3128.000064,N,12117.999934,E,0.002,,200720,,,A,V*19
$GNGGA,001132.00,3128.000064,N,12117.999934,E,1,09,0.97,40.8,M,9.5,M,,*4D
$GNGSA,A,3,02,23,25,13,04,20,01,08,07,,,,1.69,0.97,1.38,1*05
$GNGSA,A,3,,,,,,,,,,,,,1.69,0.97,1.38,4*0E
$GPGSV,3,1,10,01,17,119,35,02,18,313,35,04,45,276,36,07,66,
206,36,0*67
$GPGSV,3,2,10,08,25,212,35,13,61,355,36,16,13,055,35,20,42,118,36,0*64
$GPGSV,3,3,10,23,46,043,36,25,88,190,36,0*6F
$BDGSV,1,1,00,0*74

$GNRMC,001133.00,A,3128.000064,N,12117.999928,E,0.005,,200720,,,A,V*12
$GNGGA,001133.00,3128.000064,N,12117.999928,E,1,09,0.97,40.8,M,9.5,M,,*41
$GNGSA,A,3,02,23,25,13,04,20,01,08,07,,,,1.69,0.97,1.38,1*05
$GNGSA,A,3,,,,,,,,,,,,,1.69,0.97,1.38,4*0E
$GPGSV,3,1,10,01,17,119,35,02,18,313,35,04,45,276,35,07,66,
206,36,0*64
$GPGSV,3,2,10,08,25,212,35,13,61,355,36,16,13,055,35,20,42,118,36,0*64
$GPGSV,3,3,10,23,46,043,36,25,88,190,36,0*6F
$BDGSV,1,1,00,0*74

$GNRMC,001134.00,A,3128.000062,N,12117.999923,E,0.004,,200720,,,A,V*19
$GNGGA,001134.00,3128.000062,N,12117.999923,E,1,09,0.97,40.8,M,9.5,M,,*4B
$GNGSA,A,3,02,23,25,13,04,20,01,08,07,,,,1.69,0.97,1.38,1*05
$GNGSA,A,3,,,,,,,,,,,,,1.69,0.97,1.38,4*0E
$GPGSV,3,1,10,01,17,119,35,02,18,313,35,04,45,276,36,07,66,
206,36,0*67
$GPGSV,3,2,10,08,26,212,35,13,61,355,36,16,13,055,35,20,42,118,36,0*67
$GPGSV,3,3,10,23,46,043,36,25,88,190,36,0*6F
$BDGSV,1,1,00,0*74

$GNRMC,001135.00,A,3128.000064,N,12117.999922,E,0.005,,200720,,,A,V*1E
$GNGGA,001135.00,3128.000064,N,12117.999922,E,1,09,0.97,40.8,M,9.5,M,,*4D
$GNGSA,A,3,02,23,25,13,04,20,01,08,07,,,,1.69,0.97,1.38,1*05
$GNGSA,A,3,,,,,,,,,,,,,1.69,0.97,1.38,4*0E
$GPGSV,3,1,10,01,17,119,35,02,18,313,35,04,45,276,35,07,66,
206,36,0*64
$GPGSV,3,2,10,08,26,212,35,13,61,355,36,16,13,055,35,20,42,118,36,0*67
$GPGSV,3,3,10,23,46,043,36,25,88,190,36,0*6F
$BDGSV,1,1,00,0*74

$GNRMC,001136.00,A,3128.000067,N,12117.999920,E,0.005,,200720,,,A,V*1C
$GNGGA,001136.00,3128.000067,N,12117.999920,E,1,09,0.97,40.7,M,9.5,M,,*40
$GNGSA,A,3,02,23,25,13,04,20,01,08,07,,,,1.69,0.97,1.38,1*05
$GNGSA,A,3,,,,,,,,,,,,,1.69,0.97,1.38,4*0E
$GPGSV,3,1,10,01,17,119,35,02,18,313,34,04,45,276,35,07,66,
206,36,0*65
$GPGSV,3,2,10,08,26,212,35,13,61,355,36,16,13,055,35,20,42,118,36,0*67
$GPGSV,3,3,10,23,46,043,36,25,88,190,36,0*6F
$BDGSV,1,1,00,0*74

$GNRMC,001137.00,A,3128.000073,N,12117.999917,E,0.004,,200720,,,A,V*1D
$GNGGA,001137.00,3128.000073,N,12117.999917,E,1,09,0.97,40.7,M,9.5,M,,*40
$GNGSA,A,3,02,23,25,13,04,20,01,08,07,,,,1.69,0.97,1.38,1*05
$GNGSA,A,3,,,,,,,,,,,,,1.69,0.97,1.38,4*0E
$GPGSV,3,1,10,01,17,119,35,02,18,313,35,04,45,276,36,07,66,
206,36,0*67
$GPGSV,3,2,10,08,26,212,35,13,61,355,36,16,13,055,35,20,42,118,36,0*67
$GPGSV,3,3,10,23,46,043,36,25,88,190,36,0*6F
$BDGSV,1,1,00,0*74

$GNRMC,001138.00,A,3128.000075,N,12117.999913,E,0.006,,200720,,,A,V*12
$GNGGA,001138.00,3128.000075,N,12117.999913,E,1,09,0.97,40.7,M,9.5,M,,*4D
$GNGSA,A,3,02,23,25,13,04,20,01,08,07,,,,1.69,0.97,1.38,1*05
$GNGSA,A,3,,,,,,,,,,,,,1.69,0.97,1.38,4*0E
$GPGSV,3,1,10,01,17,119,35,02,18,313,35,04,45,276,36,07,66,
206,36,0*67
$GPGSV,3,2,10,08,26,212,35,13,61,355,36,16,13,055,35,20,42,118,36,0*67
$GPGSV,3,3,10,23,46,043,36,25,88,190,36,0*6F
$BDGSV,1,1,00,0*74

$GNRMC,001139.00,A,3128.000076,N,12117.999914,E,0.008,,200720,,,A,V*19
$GNGGA,001139.00,3128.000076,N,12117.999914,E,1,09,0.97,40.7,M,9.5,M,,*48
$GNGSA,A,3,02,23,25,13,04,20,01,08,07,,,,1.69,0.97,1.38,1*05
$GNGSA,A,3,,,,,,,,,,,,,1.69,0.97,1.38,4*0E
$GPGSV,3,1,10,01,17,119,35,02,18,313,35,04,45,276,36,07,66,
206,36,0*67
$GPGSV,3,2,10,08,26,212,35,13,61,355,36,16,13,055,35,20,42,118,36,0*67
$GPGSV,3,3,10,23,46,043,36,25,88,190,36,0*6F
$BDGSV,1,1,00,0*74

$GNRMC,001140.00,A,3128.000073,N,12117.999912,E,0.004,,200720,,,A,V*18
$GNGGA,001140.00,3128.000073,N,12117.999912,E,1,09,0.97,40.7,M,9.5,M,,*45
$GNGSA,A,3,02,23,25,13,04,20,01,08,07,,,,1.69,0.97,1.38,1*05
$GNGSA,A,3,,,,,,,,,,,,,1.69,0.97,1.38,4*0E
$GPGSV,3,1,10,01,17,119,35,02,18,313,35,04,45,276,35,07,66,
206,36,0*64
$GPGSV,3,2,10,08,26,212,35,13,61,355,36,16,13,055,35,20,42,118,36,0*67
$GPGSV,3,3,10,23,46,043,36,25,88,190,36,0*6F
$BDGSV,1,1,00,0*74

<????sim??????(SIM??:1)>
<????GSM????????(GSM:0)>
<????GPRS????????(GPRS:0)>
<????????????(SIGNAL:0)>
<????????????????(BER:0)>

<??????????????>

$GNRMC,001141.00,A,3128.000072,N,12117.999907,E,0.008,,200720,,,A,V*10
$GNGGA,001141.00,3128.000072,N,12117.999907,E,1,09,0.97,40.7,M,9.5,M,,*41
$GNGSA,A,3,02,23,25,13,04,20,01,08,07,,,,1.69,0.97,1.38,1*05
$GNGSA,A,3,,,,,,,,,,,,,1.69,0.97,1.38,4*0E
$GPGSV,3,1,10,01,17,119,35,02,18,313,35,04,45,276,36,07,66,
206,36,0*67
$GPGSV,3,2,10,08,26,212,35,13,61,355,36,16,13,055,35,20,42,118,36,0*67
$GPGSV,3,3,10,23,46,043,36,25,88,190,36,0*6F
$BDGSV,1,1,00,0*74

$GNRMC,001142.00,A,3128.000070,N,12117.999905,E,0.008,,200720,,,A,V*13
$GNGGA,001142.00,3128.000070,N,12117.999905,E,1,09,0.97,40.7,M,9.5,M,,*42
$GNGSA,A,3,02,23,25,13,04,20,01,08,07,,,,1.69,0.97,1.38,1*05
$GNGSA,A,3,,,,,,,,,,,,,1.69,0.97,1.38,4*0E
$GPGSV,3,1,10,01,17,119,35,02,18,313,35,04,45,276,36,07,66,
206,36,0*67
$GPGSV,3,2,10,08,26,212,35,13,61,355,36,16,13,055,35,20,42,118,36,0*67
$GPGSV,3,3,10,23,46,043,36,25,88,190,36,0*6F
$BDGSV,1,1,00,0*74

$GNRMC,001143.00,A,3128.000071,N,12117.999902,E,0.009,,200720,,,A,V*15
$GNGGA,001143.00,3128.000071,N,12117.999902,E,1,09,0.97,40.7,M,9.5,M,,*45
$GNGSA,A,3,02,23,25,13,04,20,01,08,07,,,,1.69,0.97,1.38,1*05
$GNGSA,A,3,,,,,,,,,,,,,1.69,0.97,1.38,4*0E
$GPGSV,3,1,10,01,17,119,35,02,18,313,35,04,45,276,36,07,66,
206,36,0*67
$GPGSV,3,2,10,08,26,212,35,13,61,355,36,16,13,055,35,20,42,118,36,0*67
$GPGSV,3,3,10,23,46,043,36,25,88,190,36,0*6F
$BDGSV,1,1,00,0*74

$GNRMC,001144.00,A,3128.000069,N,12117.999897,E,0.005,,200720,,,A,V*1A
$GNGGA,001144.00,3128.000069,N,12117.999897,E,1,09,0.97,40.7,M,9.5,M,,*46
$GNGSA,A,3,02,23,25,13,04,20,01,08,07,,,,1.69,0.97,1.38,1*05
$GNGSA,A,3,,,,,,,,,,,,,1.69,0.97,1.38,4*0E
$GPGSV,3,1,10,01,17,119,35,02,18,313,35,04,45,276,36,07,66,
206,36,0*67
$GPGSV,3,2,10,08,26,212,35,13,61,355,36,16,13,055,35,20,42,118,36,0*67
$GPGSV,3,3,10,23,46,043,36,25,88,190,36,0*6F
$BDGSV,1,1,00,0*74

$GNRMC,001145.00,A,3128.000068,N,12117.999896,E,0.005,,200720,,,A,V*1B
$GNGGA,001145.00,3128.000068,N,12117.999896,E,1,09,0.97,40.7,M,9.5,M,,*47
$GNGSA,A,3,02,23,25,13,04,20,01,08,07,,,,1.69,0.97,1.38,1*05
$GNGSA,A,3,,,,,,,,,,,,,1.69,0.97,1.38,4*0E
$GPGSV,3,1,10,01,17,119,35,02,18,313,35,04,45,276,36,07,66,
206,36,0*67
$GPGSV,3,2,10,08,26,212,35,13,61,355,36,16,13,055,35,20,42,118,36,0*67
$GPGSV,3,3,10,23,46,043,36,25,88,190,36,0*6F
$BDGSV,1,1,00,0*74

$GNRMC,001146.00,A,3128.000074,N,12117.999890,E,0.011,,200720,,,A,V*16
$GNGGA,001146.00,3128.000074,N,12117.999890,E,1,09,0.97,40.7,M,9.5,M,,*4F
$GNGSA,A,3,02,23,25,13,04,20,01,08,07,,,,1.69,0.97,1.38,1*05
$GNGSA,A,3,,,,,,,,,,,,,1.69,0.97,1.38,4*0E
$GPGSV,3,1,10,01,17,119,35,02,18,313,35,04,45,276,36,07,66,
206,36,0*67
$GPGSV,3,2,10,08,26,212,35,13,61,355,36,16,13,055,35,20,42,118,36,0*67
$GPGSV,3,3,10,23,46,043,36,25,88,190,36,0*6F
$BDGSV,1,1,00,0*74

$GNRMC,001147.00,A,3128.000077,N,12117.999889,E,0.005,,200720,,,A,V*19
$GNGGA,001147.00,3128.000077,N,12117.999889,E,1,09,0.97,40.7,M,9.5,M,,*45
$GNGSA,A,3,02,23,25,13,04,20,01,08,07,,,,1.69,0.97,1.38,1*05
$GNGSA,A,3,,,,,,,,,,,,,1.69,0.97,1.38,4*0E
$GPGSV,3,1,10,01,17,119,35,02,19,313,35,04,45,276,36,07,66,
206,36,0*66
$GPGSV,3,2,10,08,26,212,35,13,61,355,36,16,13,055,35,20,42,118,36,0*67
$GPGSV,3,3,10,23,46,043,36,25,88,190,36,0*6F
$BDGSV,1,1,00,0*74

$GNRMC,001148.00,A,3128.000083,N,12117.999889,E,0.005,,200720,,,A,V*1D
$GNGGA,001148.00,3128.000083,N,12117.999889,E,1,09,0.97,40.7,M,9.5,M,,*41
$GNGSA,A,3,02,23,25,13,04,20,01,08,07,,,,1.69,0.97,1.38,1*05
$GNGSA,A,3,,,,,,,,,,,,,1.69,0.97,1.38,4*0E
$GPGSV,3,1,10,01,17,119,35,02,19,313,35,04,45,276,36,07,66,
206,36,0*66
$GPGSV,3,2,10,08,26,212,35,13,61,355,36,16,13,055,35,20,42,118,36,0*67
$GPGSV,3,3,10,23,46,043,36,25,88,190,36,0*6F
$BDGSV,1,1,00,0*74

$GNRMC,001149.00,A,3128.000090,N,12117.999889,E,0.010,,200720,,,A,V*1A
$GNGGA,001149.00,3128.000090,N,12117.999889,E,1,09,0.97,40.7,M,9.5,M,,*42
$GNGSA,A,3,02,23,25,13,04,20,01,08,07,,,,1.69,0.97,1.38,1*05
$GNGSA,A,3,,,,,,,,,,,,,1.69,0.97,1.38,4*0E
$GPGSV,3,1,10,01,17,119,35,02,19,313,35,04,45,276,36,07,66,
206,36,0*66
$GPGSV,3,2,10,08,26,212,35,13,61,355,36,16,13,055,35,20,42,118,36,0*67
$GPGSV,3,3,10,23,46,043,36,25,88,190,36,0*6F
$BDGSV,1,1,00,0*74

$GNRMC,001150.00,A,3128.000096,N,12117.999887,E,0.013,,200720,,,A,V*19
$GNGGA,001150.00,3128.000096,N,12117.999887,E,1,09,0.97,40.7,M,9.5,M,,*42
$GNGSA,A,3,02,23,25,13,04,20,01,08,07,,,,1.69,0.97,1.38,1*05
$GNGSA,A,3,,,,,,,,,,,,,1.69,0.97,1.38,4*0E
$GPGSV,3,1,10,01,17,119,35,02,19,313,35,04,45,276,36,07,66,
207,36,0*67
$GPGSV,3,2,10,08,26,212,35,13,61,355,36,16,13,055,34,20,42,118,36,0*66
$GPGSV,3,3,10,23,46,043,36,25,88,190,36,0*6F
$BDGSV,1,1,00,0*74

<??????????????>

$GNRMC,001151.00,A,3128.000099,N,12117.999881,E,0.009,,200720,,,A,V*1A
$GNGGA,001151.00,3128.000099,N,12117.999881,E,1,09,0.97,40.7,M,9.5,M,,*4A
$GNGSA,A,3,02,23,25,13,04,20,01,08,07,,,,1.69,0.97,1.38,1*05
$GNGSA,A,3,,,,,,,,,,,,,1.69,0.97,1.38,4*0E
$GPGSV,3,1,10,01,17,119,35,02,19,313,35,04,45,276,36,07,66,
207,36,0*67
$GPGSV,3,2,10,08,26,212,35,13,61,355,36,16,13,055,35,20,42,118,36,0*67
$GPGSV,3,3,10,23,46,043,36,25,88,190,36,0*6F
$BDGSV,1,1,00,0*74

$GNRMC,001152.00,A,3128.000100,N,12117.999877,E,0.002,,200720,,,A,V*1A
$GNGGA,001152.00,3128.000100,N,12117.999877,E,1,09,0.97,40.6,M,9.5,M,,*40
$GNGSA,A,3,02,23,25,13,04,20,01,08,07,,,,1.69,0.97,1.38,1*05
$GNGSA,A,3,,,,,,,,,,,,,1.69,0.97,1.38,4*0E
$GPGSV,3,1,10,01,17,119,35,02,19,313,35,04,45,276,35,07,66,
207,36,0*64
$GPGSV,3,2,10,08,26,212,35,13,61,356,36,16,13,055,35,20,42,118,36,0*64
$GPGSV,3,3,10,23,46,043,36,25,88,190,36,0*6F
$BDGSV,1,1,00,0*74


GPS HPregnss> E1 15 00 00 00 00 07 53 8F 41 2D 00 00 00 1C 3E 0B 14 FE 00 00 00 00 


$GNRMC,001153.00,A,3128.000101,N,12117.999873,E,0.011,,200720,,,A,V*1C
$GNGGA,001153.00,3128.000101,N,12117.999873,E,1,09,0.97,40.6,M,9.5,M,,*44
$GNGSA,A,3,02,23,25,13,04,20,01,08,07,,,,1.69,0.97,1.38,1*05
$GNGSA,A,3,,,,,,,,,,,,,1.69,0.97,1.38,4*0E
$GPGSV,3,1,10,01,17,119,35,02,19,313,35,04,45,276,36,07,66,
207,36,0*67
$GPGSV,3,2,10,08,26,212,35,13,61,356,36,16,13,055,35,20,42,118,36,0*64
$GPGSV,3,3,10,23,46,043,36,25,88,190,36,0*6F
$BDGSV,1,1,00,0*74

$GNRMC,001154.00,A,3128.000095,N,12117.999864,E,0.008,,200720,,,A,V*19
$GNGGA,001154.00,3128.000095,N,12117.999864,E,1,09,0.97,40.7,M,9.5,M,,*48
$GNGSA,A,3,02,23,25,13,04,20,01,08,07,,,,1.69,0.97,1.38,1*05
$GNGSA,A,3,,,,,,,,,,,,,1.69,0.97,1.38,4*0E
$GPGSV,3,1,10,01,17,119,35,02,19,313,35,04,45,276,36,07,66,
207,36,0*67
$GPGSV,3,2,10,08,26,212,35,13,61,356,36,16,13,055,35,20,42,118,36,0*64
$GPGSV,3,3,10,23,46,043,36,25,88,190,36,0*6F
$BDGSV,1,1,00,0*74

$GNRMC,001155.00,A,3128.000088,N,12117.999859,E,0.008,,200720,,,A,V*1A
$GNGGA,001155.00,3128.000088,N,12117.999859,E,1,09,0.97,40.7,M,9.5,M,,*4B
$GNGSA,A,3,02,23,25,13,04,20,01,08,07,,,,1.69,0.97,1.38,1*05
$GNGSA,A,3,,,,,,,,,,,,,1.69,0.97,1.38,4*0E
$GPGSV,3,1,10,01,17,119,35,02,19,313,35,04,45,276,36,07,66,
207,36,0*67
$GPGSV,3,2,10,08,26,212,35,13,61,356,36,16,13,055,35,20,42,118,36,0*64
$GPGSV,3,3,10,23,45,043,36,25,88,190,36,0*6C
$BDGSV,1,1,00,0*74

$GNRMC,001156.00,A,3128.000083,N,12117.999850,E,0.007,,200720,,,A,V*14
$GNGGA,001156.00,3128.000083,N,12117.999850,E,1,09,0.97,40.7,M,9.5,M,,*4A
$GNGSA,A,3,02,23,25,13,04,20,01,08,07,,,,1.69,0.97,1.38,1*05
$GNGSA,A,3,,,,,,,,,,,,,1.69,0.97,1.38,4*0E
$GPGSV,3,1,10,01,17,119,35,02,19,313,35,04,45,276,36,07,66,
207,36,0*67
$GPGSV,3,2,10,08,26,212,35,13,61,356,36,16,13,055,35,20,42,118,36,0*64
$GPGSV,3,3,10,23,45,043,36,25,89,189,36,0*65
$BDGSV,1,1,00,0*74

$GNRMC,001157.00,A,3128.000074,N,12117.999842,E,0.004,,200720,,,A,V*1D
$GNGGA,001157.00,3128.000074,N,12117.999842,E,1,09,0.97,40.7,M,9.5,M,,*40
$GNGSA,A,3,02,23,25,13,04,20,01,08,07,,,,1.69,0.97,1.38,1*05
$GNGSA,A,3,,,,,,,,,,,,,1.69,0.97,1.38,4*0E
$GPGSV,3,1,10,01,17,119,35,02,19,313,35,04,45,276,36,07,66,
207,36,0*67
$GPGSV,3,2,10,08,26,212,35,13,61,356,36,16,13,055,35,20,42,118,36,0*64
$GPGSV,3,3,10,23,45,043,36,25,89,189,36,0*65
$BDGSV,1,1,00,0*74

$GNRMC,001158.00,A,3128.000068,N,12117.999840,E,0.004,,200720,,,A,V*1D
$GNGGA,001158.00,3128.000068,N,12117.999840,E,1,09,0.97,40.7,M,9.5,M,,*40
$GNGSA,A,3,02,23,25,13,04,20,01,08,07,,,,1.69,0.97,1.38,1*05
$GNGSA,A,3,,,,,,,,,,,,,1.69,0.97,1.38,4*0E
$GPGSV,3,1,10,01,17,119,35,02,19,313,35,04,45,276,36,07,66,
207,36,0*67
$GPGSV,3,2,10,08,26,212,35,13,61,356,36,16,13,055,35,20,42,118,36,0*64
$GPGSV,3,3,10,23,45,043,36,25,89,189,36,0*65
$BDGSV,1,1,00,0*74

$GNRMC,001159.00,A,3128.000063,N,12117.999837,E,0.004,,200720,,,A,V*17
$GNGGA,001159.00,3128.000063,N,12117.999837,E,1,09,0.97,40.7,M,9.5,M,,*4A
$GNGSA,A,3,02,23,25,13,04,20,01,08,07,,,,1.69,0.97,1.38,1*05
$GNGSA,A,3,,,,,,,,,,,,,1.69,0.97,1.38,4*0E
$GPGSV,3,1,10,01,17,119,35,02,19,313,35,04,45,276,36,07,66,
207,36,0*67
$GPGSV,3,2,10,08,26,212,35,13,61,356,36,16,13,055,35,20,42,118,36,0*64
$GPGSV,3,3,10,23,45,043,36,25,89,189,37,0*64
$BDGSV,1,1,00,0*74

$GNRMC,001200.00,A,3128.000060,N,12117.999838,E,0.002,,200720,,,A,V*12
$GNGGA,001200.00,3128.000060,N,12117.999838,E,1,09,0.97,40.6,M,9.5,M,,*48
$GNGSA,A,3,02,23,25,13,04,20,01,08,07,,,,1.69,0.97,1.38,1*05
$GNGSA,A,3,,,,,,,,,,,,,1.69,0.97,1.38,4*0E
$GPGSV,3,1,10,01,17,119,35,02,19,313,35,04,45,276,36,07,66,
207,36,0*67
$GPGSV,3,2,10,08,26,212,35,13,61,356,36,16,13,055,35,20,42,118,36,0*64
$GPGSV,3,3,10,23,45,043,36,25,89,189,36,0*65
$BDGSV,1,1,00,0*74

<????sim??????(SIM??:1)>
<????GSM????????(GSM:0)>
<????GPRS????????(GPRS:0)>
<????????????(SIGNAL:0)>
<????????????????(BER:0)>

<??????????????>

$GNRMC,001201.00,A,3128.000056,N,12117.999840,E,0.011,,200720,,,A,V*1B
$GNGGA,001201.00,3128.000056,N,12117.999840,E,1,09,0.97,40.6,M,9.5,M,,*43
$GNGSA,A,3,02,23,25,13,04,20,01,08,07,,,,1.69,0.97,1.38,1*05
$GNGSA,A,3,,,,,,,,,,,,,1.69,0.97,1.38,4*0E
$GPGSV,3,1,10,01,17,119,35,02,19,313,35,04,45,276,36,07,66,
207,36,0*67
$GPGSV,3,2,10,08,26,212,35,13,61,356,36,16,13,055,35,20,42,118,36,0*64
$GPGSV,3,3,10,23,45,043,36,25,89,189,36,0*65
$BDGSV,1,1,00,0*74

$GNRMC,001202.00,A,3128.000050,N,12117.999834,E,0.011,,200720,,,A,V*1D
$GNGGA,001202.00,3128.000050,N,12117.999834,E,1,09,0.97,40.6,M,9.5,M,,*45
$GNGSA,A,3,02,23,25,13,04,20,01,08,07,,,,1.69,0.97,1.38,1*05
$GNGSA,A,3,,,,,,,,,,,,,1.69,0.97,1.38,4*0E
$GPGSV,3,1,10,01,17,119,35,02,19,313,35,04,45,276,36,07,66,
207,36,0*67
$GPGSV,3,2,10,08,26,212,35,13,61,356,36,16,13,055,35,20,42,118,36,0*64
$GPGSV,3,3,10,23,45,043,36,25,89,189,36,0*65
$BDGSV,1,1,00,0*74

$GNRMC,001203.00,A,3128.000044,N,12117.999830,E,0.007,,200720,,,A,V*1A
$GNGGA,001203.00,3128.000044,N,12117.999830,E,1,09,0.97,40.7,M,9.5,M,,*44
$GNGSA,A,3,02,23,25,13,04,20,01,08,07,,,,1.69,0.97,1.38,1*05
$GNGSA,A,3,,,,,,,,,,,,,1.69,0.97,1.38,4*0E
$GPGSV,3,1,10,01,17,119,35,02,19,313,35,04,45,276,36,07,66,
207,36,0*67
$GPGSV,3,2,10,08,26,212,35,13,61,356,36,16,13,055,35,20,42,118,36,0*64
$GPGSV,3,3,10,23,45,043,36,25,89,189,36,0*65
$BDGSV,1,1,00,0*74

$GNRMC,001204.00,A,3128.000036,N,12117.999826,E,0.009,,200720,,,A,V*11
$GNGGA,001204.00,3128.000036,N,12117.999826,E,1,09,0.97,40.7,M,9.5,M,,*41
$GNGSA,A,3,02,23,25,13,04,20,01,08,07,,,,1.69,0.97,1.38,1*05
$GNGSA,A,3,,,,,,,,,,,,,1.69,0.97,1.38,4*0E
$GPGSV,3,1,10,01,17,119,35,02,19,313,35,04,45,276,36,07,66,
207,36,0*67
$GPGSV,3,2,10,08,26,212,35,13,61,356,36,16,13,055,35,20,42,118,36,0*64
$GPGSV,3,3,10,23,45,043,36,25,89,189,36,0*65
$BDGSV,1,1,00,0*74

$GNRMC,001205.00,A,3128.000029,N,12117.999817,E,0.005,,200720,,,A,V*10
$GNGGA,001205.00,3128.000029,N,12117.999817,E,1,09,0.97,40.7,M,9.5,M,,*4C
$GNGSA,A,3,02,23,25,13,04,20,01,08,07,,,,1.69,0.97,1.38,1*05
$GNGSA,A,3,,,,,,,,,,,,,1.69,0.97,1.38,4*0E
$GPGSV,3,1,10,01,17,119,35,02,19,313,35,04,45,276,36,07,66,
207,36,0*67
$GPGSV,3,2,10,08,26,212,35,13,61,356,36,16,13,055,35,20,42,118,36,0*64
$GPGSV,3,3,10,23,45,043,36,25,89,189,36,0*65
$BDGSV,1,1,00,0*74

$GNRMC,001206.00,A,3128.000028,N,12117.999813,E,0.005,,200720,,,A,V*16
$GNGGA,001206.00,3128.000028,N,12117.999813,E,1,09,0.97,40.7,M,9.5,M,,*4A
$GNGSA,A,3,02,23,25,13,04,20,01,08,07,,,,1.69,0.97,1.38,1*05
$GNGSA,A,3,,,,,,,,,,,,,1.69,0.97,1.38,4*0E
$GPGSV,3,1,10,01,17,119,35,02,19,313,35,04,45,276,36,07,66,
207,36,0*67
$GPGSV,3,2,10,08,26,212,35,13,61,356,36,16,13,055,35,20,42,118,36,0*64
$GPGSV,3,3,10,23,45,043,36,25,89,189,36,0*65
$BDGSV,1,1,00,0*74

$GNRMC,001207.00,A,3128.000025,N,12117.999805,E,0.006,,200720,,,A,V*1E
$GNGGA,001207.00,3128.000025,N,12117.999805,E,1,09,0.97,40.7,M,9.5,M,,*41
$GNGSA,A,3,02,23,25,13,04,20,01,08,07,,,,1.69,0.97,1.38,1*05
$GNGSA,A,3,,,,,,,,,,,,,1.69,0.97,1.38,4*0E
$GPGSV,3,1,10,01,17,119,35,02,19,313,35,04,45,276,36,07,66,
207,36,0*67
$GPGSV,3,2,10,08,26,212,35,13,61,356,36,16,13,055,35,20,42,118,36,0*64
$GPGSV,3,3,10,23,45,043,36,25,89,189,36,0*65
$BDGSV,1,1,00,0*74

$GNRMC,001208.00,A,3128.000028,N,12117.999804,E,0.012,,200720,,,A,V*18
$GNGGA,001208.00,3128.000028,N,12117.999804,E,1,09,0.97,40.6,M,9.5,M,,*43
$GNGSA,A,3,02,23,25,13,04,20,01,08,07,,,,1.69,0.97,1.38,1*05
$GNGSA,A,3,,,,,,,,,,,,,1.69,0.97,1.38,4*0E
$GPGSV,3,1,10,01,17,119,35,02,19,313,35,04,45,276,36,07,66,
207,36,0*67
$GPGSV,3,2,10,08,26,213,35,13,61,356,36,16,13,055,35,20,42,118,36,0*65
$GPGSV,3,3,10,23,45,043,36,25,89,189,36,0*65
$BDGSV,1,1,00,0*74

$GNRMC,001209.00,A,3128.000033,N,12117.999804,E,0.019,,200720,,,A,V*18
$GNGGA,001209.00,3128.000033,N,12117.999804,E,1,09,0.97,40.6,M,9.5,M,,*48
$GNGSA,A,3,02,23,25,13,04,20,01,08,07,,,,1.69,0.97,1.38,1*05
$GNGSA,A,3,,,,,,,,,,,,,1.69,0.97,1.38,4*0E
$GPGSV,3,1,10,01,17,119,35,02,19,313,35,04,45,276,36,07,66,
207,36,0*67
$GPGSV,3,2,10,08,26,213,35,13,61,356,36,16,13,055,35,20,42,118,36,0*65
$GPGSV,3,3,10,23,45,043,36,25,89,189,36,0*65
$BDGSV,1,1,00,0*74

$GNRMC,001210.00,A,3128.000039,N,12117.999804,E,0.009,,200720,,,A,V*1B
$GNGGA,001210.00,3128.000039,N,12117.999804,E,1,09,0.97,40.6,M,9.5,M,,*4A
$GNGSA,A,3,02,23,25,13,04,20,01,08,07,,,,1.69,0.97,1.38,1*05
$GNGSA,A,3,,,,,,,,,,,,,1.69,0.97,1.38,4*0E
$GPGSV,3,1,10,01,17,119,35,02,19,313,35,04,45,276,36,07,66,
207,36,0*67
$GPGSV,3,2,10,08,26,213,35,13,61,356,36,16,13,055,35,20,42,118,36,0*65
$GPGSV,3,3,10,23,45,043,36,25,89,189,36,0*65
$BDGSV,1,1,00,0*74

<??????????????>

$GNRMC,001211.00,A,3128.000043,N,12117.999801,E,0.017,,200720,,,A,V*1D
$GNGGA,001211.00,3128.000043,N,12117.999801,E,1,09,0.97,40.6,M,9.5,M,,*43
$GNGSA,A,3,02,23,25,13,04,20,01,08,07,,,,1.69,0.97,1.38,1*05
$GNGSA,A,3,,,,,,,,,,,,,1.69,0.97,1.38,4*0E
$GPGSV,3,1,10,01,17,119,35,02,19,313,35,04,45,276,36,07,66,
207,36,0*67
$GPGSV,3,2,10,08,26,213,35,13,61,356,36,16,13,055,35,20,42,118,36,0*65
$GPGSV,3,3,10,23,45,043,36,25,89,189,36,0*65
$BDGSV,1,1,00,0*74

$GNRMC,001212.00,A,3128.000043,N,12117.999803,E,0.008,,200720,,,A,V*12
$GNGGA,001212.00,3128.000043,N,12117.999803,E,1,09,0.97,40.6,M,9.5,M,,*42
$GNGSA,A,3,02,23,25,13,04,20,01,08,07,,,,1.69,0.97,1.38,1*05
$GNGSA,A,3,,,,,,,,,,,,,1.69,0.97,1.38,4*0E
$GPGSV,3,1,10,01,17,119,35,02,19,313,35,04,45,276,36,07,66,
207,36,0*67
$GPGSV,3,2,10,08,26,213,35,13,61,356,36,16,13,055,35,20,42,118,36,0*65
$GPGSV,3,3,10,23,45,043,36,25,89,189,36,0*65
$BDGSV,1,1,00,0*74

$GNRMC,001213.00,A,3128.000043,N,12117.999802,E,0.004,,200720,,,A,V*1E
$GNGGA,001213.00,3128.000043,N,12117.999802,E,1,09,0.97,40.6,M,9.5,M,,*42
$GNGSA,A,3,02,23,25,13,04,20,01,08,07,,,,1.69,0.97,1.38,1*05
$GNGSA,A,3,,,,,,,,,,,,,1.69,0.97,1.38,4*0E
$GPGSV,3,1,10,01,17,119,35,02,19,313,35,04,45,276,35,07,66,
207,36,0*64
$GPGSV,3,2,10,08,26,213,35,13,61,356,36,16,13,055,35,20,42,118,36,0*65
$GPGSV,3,3,10,23,45,043,36,25,89,188,36,0*64
$BDGSV,1,1,00,0*74

$GNRMC,001214.00,A,3128.000047,N,12117.999802,E,0.012,,200720,,,A,V*1A
$GNGGA,001214.00,3128.000047,N,12117.999802,E,1,09,0.97,40.6,M,9.5,M,,*41
$GNGSA,A,3,02,23,25,13,04,20,01,08,07,,,,1.69,0.97,1.38,1*05
$GNGSA,A,3,,,,,,,,,,,,,1.69,0.97,1.38,4*0E
$GPGSV,3,1,10,01,17,119,35,02,19,313,35,04,45,276,36,07,66,
207,36,0*67
$GPGSV,3,2,10,08,26,213,35,13,61,356,36,16,13,055,35,20,42,118,36,0*65
$GPGSV,3,3,10,23,45,043,36,25,89,188,36,0*64
$BDGSV,1,1,00,0*74

$GNRMC,001215.00,A,3128.000048,N,12117.999805,E,0.006,,200720,,,A,V*16
$GNGGA,001215.00,3128.000048,N,12117.999805,E,1,09,0.97,40.6,M,9.5,M,,*48
$GNGSA,A,3,02,23,25,13,04,20,01,08,07,,,,1.69,0.97,1.38,1*05
$GNGSA,A,3,,,,,,,,,,,,,1.69,0.97,1.38,4*0E
$GPGSV,3,1,10,01,17,119,35,02,19,313,35,04,45,276,36,07,66,
207,36,0*67
$GPGSV,3,2,10,08,26,213,35,13,61,356,36,16,13,055,35,20,42,118,36,0*65
$GPGSV,3,3,10,23,45,043,36,25,89,188,36,0*64
$BDGSV,1,1,00,0*74

$GNRMC,001216.00,A,3128.000054,N,12117.999801,E,0.007,,200720,,,A,V*1D
$GNGGA,001216.00,3128.000054,N,12117.999801,E,1,09,0.97,40.6,M,9.5,M,,*42
$GNGSA,A,3,02,23,25,13,04,20,01,08,07,,,,1.69,0.97,1.38,1*05
$GNGSA,A,3,,,,,,,,,,,,,1.69,0.97,1.38,4*0E
$GPGSV,3,1,10,01,17,119,35,02,19,313,35,04,45,276,36,07,66,
207,36,0*67
$GPGSV,3,2,10,08,26,213,35,13,61,356,36,16,13,055,34,20,42,118,36,0*64
$GPGSV,3,3,10,23,45,043,36,25,89,188,36,0*64
$BDGSV,1,1,00,0*74

$GNRMC,001217.00,A,3128.000058,N,12117.999800,E,0.006,,200720,,,A,V*10
$GNGGA,001217.00,3128.000058,N,12117.999800,E,1,09,0.97,40.6,M,9.5,M,,*4E
$GNGSA,A,3,02,23,25,13,04,20,01,08,07,,,,1.69,0.97,1.38,1*05
$GNGSA,A,3,,,,,,,,,,,,,1.69,0.97,1.38,4*0E
$GPGSV,3,1,10,01,17,119,35,02,19,313,35,04,45,276,36,07,66,
207,36,0*67
$GPGSV,3,2,10,08,26,213,35,13,61,356,36,16,13,055,35,20,42,118,36,0*65
$GPGSV,3,3,10,23,45,043,36,25,89,188,36,0*64
$BDGSV,1,1,00,0*74

$GNRMC,001218.00,A,3128.000064,N,12117.999799,E,0.007,,200720,,,A,V*1E
$GNGGA,001218.00,3128.000064,N,12117.999799,E,1,09,0.97,40.5,M,9.5,M,,*42
$GNGSA,A,3,02,23,25,13,04,20,01,08,07,,,,1.69,0.97,1.38,1*05
$GNGSA,A,3,,,,,,,,,,,,,1.69,0.97,1.38,4*0E
$GPGSV,3,1,10,01,17,119,35,02,19,313,35,04,45,276,36,07,66,
207,36,0*67
$GPGSV,3,2,10,08,26,213,35,13,61,356,36,16,13,055,35,20,42,118,36,0*65
$GPGSV,3,3,10,23,45,043,36,25,89,188,36,0*64
$BDGSV,1,1,00,0*74

$GNRMC,001219.00,A,3128.000067,N,12117.999798,E,0.008,,200720,,,A,V*12
$GNGGA,001219.00,3128.000067,N,12117.999798,E,1,09,0.97,40.5,M,9.5,M,,*41
$GNGSA,A,3,02,23,25,13,04,20,01,08,07,,,,1.69,0.97,1.38,1*05
$GNGSA,A,3,,,,,,,,,,,,,1.69,0.97,1.38,4*0E
$GPGSV,3,1,10,01,17,119,35,02,19,313,35,04,45,276,36,07,66,
207,36,0*67
$GPGSV,3,2,10,08,26,213,35,13,61,356,36,16,13,055,35,20,42,118,36,0*65
$GPGSV,3,3,10,23,45,043,36,25,89,188,36,0*64
$BDGSV,1,1,00,0*74

$GNRMC,001220.00,A,3128.000069,N,12117.999795,E,0.002,,200720,,,A,V*11
$GNGGA,001220.00,3128.000069,N,12117.999795,E,1,09,0.97,40.5,M,9.5,M,,*48
$GNGSA,A,3,02,23,25,13,04,20,01,08,07,,,,1.69,0.97,1.38,1*05
$GNGSA,A,3,,,,,,,,,,,,,1.69,0.97,1.38,4*0E
$GPGSV,3,1,10,01,17,119,35,02,19,313,35,04,45,276,36,07,66,
207,36,0*67
$GPGSV,3,2,10,08,26,213,35,13,61,356,36,16,13,055,35,20,42,118,36,0*65
$GPGSV,3,3,10,23,45,043,36,25,89,188,36,0*64
$BDGSV,1,1,00,0*74

<????sim??????(SIM??:1)>
<????GSM????????(GSM:4)>
<????GPRS????????(GPRS:0)>
<????????????(SIGNAL:0)>
<????????????????(BER:0)>

<??????????????>

$GNRMC,001221.00,A,3128.000078,N,12117.999790,E,0.018,,200720,,,A,V*1E
$GNGGA,001221.00,3128.000078,N,12117.999790,E,1,09,0.97,40.4,M,9.5,M,,*4D
$GNGSA,A,3,02,23,25,13,04,20,01,08,07,,,,1.69,0.97,1.38,1*05
$GNGSA,A,3,,,,,,,,,,,,,1.69,0.97,1.38,4*0E
$GPGSV,3,1,10,01,17,119,35,02,19,313,35,04,45,276,36,07,66,
207,36,0*67
$GPGSV,3,2,10,08,26,213,35,13,61,356,36,16,13,055,35,20,42,118,36,0*65
$GPGSV,3,3,10,23,45,043,36,25,89,188,36,0*64
$BDGSV,1,1,00,0*74

$GNRMC,001222.00,A,3128.000085,N,12117.999785,E,0.002,,200720,,,A,V*10
$GNGGA,001222.00,3128.000085,N,12117.999785,E,1,09,0.97,40.4,M,9.5,M,,*48
$GNGSA,A,3,02,23,25,13,04,20,01,08,07,,,,1.69,0.97,1.38,1*05
$GNGSA,A,3,,,,,,,,,,,,,1.69,0.97,1.38,4*0E
$GPGSV,3,1,10,01,17,119,35,02,19,313,35,04,45,276,36,07,66,
207,36,0*67
$GPGSV,3,2,10,08,26,213,35,13,61,356,36,16,13,055,35,20,42,118,36,0*65
$GPGSV,3,3,10,23,45,043,36,25,89,188,36,0*64
$BDGSV,1,1,00,0*74

$GNRMC,001223.00,A,3128.000091,N,12117.999782,E,0.006,,200720,,,A,V*17
$GNGGA,001223.00,3128.000091,N,12117.999782,E,1,09,0.97,40.4,M,9.5,M,,*4B
$GNGSA,A,3,02,23,25,13,04,20,01,08,07,,,,1.69,0.97,1.38,1*05
$GNGSA,A,3,,,,,,,,,,,,,1.69,0.97,1.38,4*0E
$GPGSV,3,1,10,01,17,119,35,02,19,313,35,04,45,276,36,07,66,
207,36,0*67
$GPGSV,3,2,10,08,26,213,35,13,61,356,36,16,13,055,35,20,42,118,36,0*65
$GPGSV,3,3,10,23,45,043,36,25,89,188,36,0*64
$BDGSV,1,1,00,0*74


GPS HPregnss> E1 15 00 00 00 00 07 53 8F 40 97 00 00 00 1C 3E 0B 0E CE 00 00 00 00 


$GNRMC,001224.00,A,3128.000103,N,12117.999783,E,0.013,,200720,,,A,V*1F
$GNGGA,001224.00,3128.000103,N,12117.999783,E,1,09,0.97,40.3,M,9.5,M,,*40
$GNGSA,A,3,02,23,25,13,04,20,01,08,07,,,,1.69,0.97,1.38,1*05
$GNGSA,A,3,,,,,,,,,,,,,1.69,0.97,1.38,4*0E
$GPGSV,3,1,10,01,17,119,35,02,19,313,35,04,45,276,36,07,66,
207,36,0*67
$GPGSV,3,2,10,08,26,213,35,13,61,356,36,16,13,055,35,20,42,118,36,0*65
$GPGSV,3,3,10,23,45,043,36,25,89,188,36,0*64
$BDGSV,1,1,00,0*74

$GNRMC,001225.00,A,3128.000109,N,12117.999780,E,0.008,,200720,,,A,V*1D
$GNGGA,001225.00,3128.000109,N,12117.999780,E,1,09,0.97,40.3,M,9.5,M,,*48
$GNGSA,A,3,02,23,25,13,04,20,01,08,07,,,,1.69,0.97,1.38,1*05
$GNGSA,A,3,,,,,,,,,,,,,1.69,0.97,1.38,4*0E
$GPGSV,3,1,10,01,17,119,35,02,19,313,35,04,45,276,36,07,66,
207,36,0*67
$GPGSV,3,2,10,08,26,213,35,13,61,356,36,16,13,055,35,20,42,118,36,0*65
$GPGSV,3,3,10,23,45,043,36,25,89,188,36,0*64
$BDGSV,1,1,00,0*74

$GNRMC,001226.00,A,3128.000113,N,12117.999785,E,0.013,,200720,,,A,V*1A
$GNGGA,001226.00,3128.000113,N,12117.999785,E,1,09,0.97,40.3,M,9.5,M,,*45
$GNGSA,A,3,02,23,25,13,04,20,01,08,07,,,,1.69,0.97,1.38,1*05
$GNGSA,A,3,,,,,,,,,,,,,1.69,0.97,1.38,4*0E
$GPGSV,3,1,10,01,17,119,35,02,19,313,35,04,45,276,36,07,66,
207,36,0*67
$GPGSV,3,2,10,08,26,213,35,13,61,356,36,16,13,055,35,20,42,118,36,0*65
$GPGSV,3,3,10,23,45,043,36,25,89,188,36,0*64
$BDGSV,1,1,00,0*74

$GNRMC,001227.00,A,3128.000117,N,12117.999786,E,0.008,,200720,,,A,V*16
$GNGGA,001227.00,3128.000117,N,12117.999786,E,1,09,0.97,40.3,M,9.5,M,,*43
$GNGSA,A,3,02,23,25,13,04,20,01,08,07,,,,1.69,0.97,1.38,1*05
$GNGSA,A,3,,,,,,,,,,,,,1.69,0.97,1.38,4*0E
$GPGSV,3,1,10,01,17,119,35,02,19,313,35,04,45,276,36,07,66,
207,36,0*67
$GPGSV,3,2,10,08,26,213,35,13,61,356,36,16,13,055,35,20,42,118,36,0*65
$GPGSV,3,3,10,23,45,043,36,25,89,188,36,0*64
$BDGSV,1,1,00,0*74

$GNRMC,001228.00,A,3128.000124,N,12117.999788,E,0.010,,200720,,,A,V*1E
$GNGGA,001228.00,3128.000124,N,12117.999788,E,1,09,0.97,40.2,M,9.5,M,,*43
$GNGSA,A,3,02,23,25,13,04,20,01,08,07,,,,1.69,0.97,1.38,1*05
$GNGSA,A,3,,,,,,,,,,,,,1.69,0.97,1.38,4*0E
$GPGSV,3,1,10,01,17,119,35,02,19,313,35,04,45,276,36,07,66,
207,36,0*67
$GPGSV,3,2,10,08,26,213,35,13,61,356,36,16,13,055,35,20,42,118,36,0*65
$GPGSV,3,3,10,23,45,043,36,25,89,188,36,0*64
$BDGSV,1,1,00,0*74

$GNRMC,001229.00,A,3128.000130,N,12117.999794,E,0.008,,200720,,,A,V*1E
$GNGGA,001229.00,3128.000130,N,12117.999794,E,1,09,0.97,40.2,M,9.5,M,,*4A
$GNGSA,A,3,02,23,25,13,04,20,01,08,07,,,,1.69,0.97,1.38,1*05
$GNGSA,A,3,,,,,,,,,,,,,1.69,0.97,1.38,4*0E
$GPGSV,3,1,10,01,17,119,35,02,19,313,35,04,45,276,36,07,66,
207,36,0*67
$GPGSV,3,2,10,08,26,213,35,13,61,356,36,16,13,055,35,20,42,118,36,0*65
$GPGSV,3,3,10,23,45,043,36,25,89,188,36,0*64
$BDGSV,1,1,00,0*74

$GNRMC,001230.00,A,3128.000134,N,12117.999801,E,0.006,,200720,,,A,V*1F
$GNGGA,001230.00,3128.000134,N,12117.999801,E,1,09,0.97,40.2,M,9.5,M,,*45
$GNGSA,A,3,02,23,25,13,04,20,01,08,07,,,,1.69,0.97,1.38,1*05
$GNGSA,A,3,,,,,,,,,,,,,1.69,0.97,1.38,4*0E
$GPGSV,3,1,10,01,17,119,35,02,19,313,35,04,45,276,36,07,66,
207,36,0*67
$GPGSV,3,2,10,08,26,213,35,13,61,356,36,16,13,055,35,20,42,119,36,0*64
$GPGSV,3,3,10,23,45,043,36,25,89,188,36,0*64
$BDGSV,1,1,00,0*74

<??????????????>

$GNRMC,001231.00,A,3128.000132,N,12117.999808,E,0.007,,200720,,,A,V*10
$GNGGA,001231.00,3128.000132,N,12117.999808,E,1,09,0.97,40.2,M,9.5,M,,*4B
$GNGSA,A,3,02,23,25,13,04,20,01,08,07,,,,1.69,0.97,1.38,1*05
$GNGSA,A,3,,,,,,,,,,,,,1.69,0.97,1.38,4*0E
$GPGSV,3,1,10,01,17,119,35,02,19,313,35,04,45,276,35,07,66,
207,36,0*64
$GPGSV,3,2,10,08,26,213,35,13,61,356,36,16,13,055,35,20,42,119,36,0*64
$GPGSV,3,3,10,23,45,043,36,25,89,188,36,0*64
$BDGSV,1,1,00,0*74

$GNRMC,001232.00,A,3128.000134,N,12117.999811,E,0.013,,200720,,,A,V*18
$GNGGA,001232.00,3128.000134,N,12117.999811,E,1,09,0.97,40.1,M,9.5,M,,*45
$GNGSA,A,3,02,23,25,13,04,20,01,08,07,,,,1.69,0.97,1.38,1*05
$GNGSA,A,3,,,,,,,,,,,,,1.69,0.97,1.38,4*0E
$GPGSV,3,1,10,01,17,119,35,02,19,313,35,04,45,276,36,07,66,
207,36,0*67
$GPGSV,3,2,10,08,26,213,35,13,61,356,36,16,13,055,35,20,42,119,36,0*64
$GPGSV,3,3,10,23,45,043,36,25,89,186,36,0*6A
$BDGSV,1,1,00,0*74

$GNRMC,001233.00,A,3128.000134,N,12117.999815,E,0.006,,200720,,,A,V*19
$GNGGA,001233.00,3128.000134,N,12117.999815,E,1,09,0.97,40.1,M,9.5,M,,*40
$GNGSA,A,3,02,23,25,13,04,20,01,08,07,,,,1.69,0.97,1.38,1*05
$GNGSA,A,3,,,,,,,,,,,,,1.69,0.97,1.38,4*0E
$GPGSV,3,1,10,01,17,119,35,02,19,313,35,04,45,276,36,07,66,
207,36,0*67
$GPGSV,3,2,10,08,26,213,35,13,61,356,36,16,13,055,35,20,42,119,36,0*64
$GPGSV,3,3,10,23,45,043,36,25,89,186,36,0*6A
$BDGSV,1,1,00,0*74

$GNRMC,001234.00,A,3128.000138,N,12117.999819,E,0.005,,200720,,,A,V*1D
$GNGGA,001234.00,3128.000138,N,12117.999819,E,1,09,0.97,40.1,M,9.5,M,,*47
$GNGSA,A,3,02,23,25,13,04,20,01,08,07,,,,1.69,0.97,1.38,1*05
$GNGSA,A,3,,,,,,,,,,,,,1.69,0.97,1.38,4*0E
$GPGSV,3,1,10,01,17,119,35,02,19,313,35,04,45,276,36,07,66,
207,36,0*67
$GPGSV,3,2,10,08,26,213,35,13,61,356,36,16,13,055,35,20,42,119,36,0*64
$GPGSV,3,3,10,23,45,043,36,25,89,186,36,0*6A
$BDGSV,1,1,00,0*74

$GNRMC,001235.00,A,3128.000138,N,12117.999820,E,0.000,,200720,,,A,V*13
$GNGGA,001235.00,3128.000138,N,12117.999820,E,1,09,0.97,40.1,M,9.5,M,,*4C
$GNGSA,A,3,02,23,25,13,04,20,01,08,07,,,,1.69,0.97,1.38,1*05
$GNGSA,A,3,,,,,,,,,,,,,1.69,0.97,1.38,4*0E
$GPGSV,3,1,10,01,17,119,35,02,19,313,35,04,45,276,35,07,66,
207,36,0*64
$GPGSV,3,2,10,08,26,213,35,13,61,356,36,16,13,055,35,20,42,119,36,0*64
$GPGSV,3,3,10,23,45,043,36,25,89,186,36,0*6A
$BDGSV,1,1,00,0*74

$GNRMC,001236.00,A,3128.000134,N,12117.999821,E,0.005,,200720,,,A,V*18
$GNGGA,001236.00,3128.000134,N,12117.999821,E,1,09,0.97,40.0,M,9.5,M,,*43
$GNGSA,A,3,02,23,25,13,04,20,01,08,07,,,,1.69,0.97,1.38,1*05
$GNGSA,A,3,,,,,,,,,,,,,1.69,0.97,1.38,4*0E
$GPGSV,3,1,10,01,17,119,35,02,19,313,35,04,45,276,36,07,66,
207,36,0*67
$GPGSV,3,2,10,08,26,213,35,13,61,356,36,16,13,055,35,20,42,119,36,0*64
$GPGSV,3,3,10,23,45,043,36,25,89,186,36,0*6A
$BDGSV,1,1,00,0*74

$GNRMC,001237.00,A,3128.000132,N,12117.999819,E,0.013,,200720,,,A,V*13
$GNGGA,001237.00,3128.000132,N,12117.999819,E,1,09,0.97,40.0,M,9.5,M,,*4F
$GNGSA,A,3,02,23,25,13,04,20,01,08,07,,,,1.69,0.97,1.38,1*05
$GNGSA,A,3,,,,,,,,,,,,,1.69,0.97,1.38,4*0E
$GPGSV,3,1,10,01,17,119,35,02,19,313,35,04,45,276,36,07,66,
207,36,0*67
$GPGSV,3,2,10,08,26,213,35,13,61,356,36,16,13,055,35,20,42,119,36,0*64
$GPGSV,3,3,10,23,45,043,36,25,89,186,36,0*6A
$BDGSV,1,1,00,0*74

$GNRMC,001238.00,A,3128.000135,N,12117.999824,E,0.017,,200720,,,A,V*11
$GNGGA,001238.00,3128.000135,N,12117.999824,E,1,09,0.97,40.0,M,9.5,M,,*49
$GNGSA,A,3,02,23,25,13,04,20,01,08,07,,,,1.69,0.97,1.38,1*05
$GNGSA,A,3,,,,,,,,,,,,,1.69,0.97,1.38,4*0E
$GPGSV,3,1,10,01,17,119,35,02,19,313,35,04,45,276,36,07,66,
207,36,0*67
$GPGSV,3,2,10,08,26,213,35,13,61,356,36,16,13,055,35,20,42,119,36,0*64
$GPGSV,3,3,10,23,45,043,36,25,89,186,36,0*6A
$BDGSV,1,1,00,0*74

$GNRMC,001239.00,A,3128.000129,N,12117.999825,E,0.007,,200720,,,A,V*1D
$GNGGA,001239.00,3128.000129,N,12117.999825,E,1,09,0.97,40.0,M,9.5,M,,*44
$GNGSA,A,3,02,23,25,13,04,20,01,08,07,,,,1.69,0.97,1.38,1*05
$GNGSA,A,3,,,,,,,,,,,,,1.69,0.97,1.38,4*0E
$GPGSV,3,1,10,01,17,119,35,02,19,313,35,04,45,276,36,07,66,
207,36,0*67
$GPGSV,3,2,10,08,26,213,35,13,61,356,36,16,13,055,35,20,42,119,36,0*64
$GPGSV,3,3,10,23,45,043,36,25,89,186,36,0*6A
$BDGSV,1,1,00,0*74

$GNRMC,001240.00,A,3128.000129,N,12117.999824,E,0.009,,200720,,,A,V*1C
$GNGGA,001240.00,3128.000129,N,12117.999824,E,1,09,0.97,40.1,M,9.5,M,,*4A
$GNGSA,A,3,02,23,25,13,04,20,01,08,07,,,,1.69,0.97,1.38,1*05
$GNGSA,A,3,,,,,,,,,,,,,1.69,0.97,1.38,4*0E
$GPGSV,3,1,10,01,17,119,35,02,19,313,35,04,45,276,36,07,66,
207,36,0*67
$GPGSV,3,2,10,08,26,213,35,13,61,356,36,16,13,055,35,20,42,119,36,0*64
$GPGSV,3,3,10,23,45,043,36,25,89,186,36,0*6A
$BDGSV,1,1,00,0*74

<????sim??????(SIM??:1)>
<????GSM????????(GSM:0)>
<????GPRS????????(GPRS:0)>
<????????????(SIGNAL:0)>
<????????????????(BER:0)>

<??????????????>

$GNRMC,001241.00,A,3128.000125,N,12117.999827,E,0.006,,200720,,,A,V*1D
$GNGGA,001241.00,3128.000125,N,12117.999827,E,1,09,0.97,40.1,M,9.5,M,,*44
$GNGSA,A,3,02,23,25,13,04,20,01,08,07,,,,1.69,0.97,1.38,1*05
$GNGSA,A,3,,,,,,,,,,,,,1.69,0.97,1.38,4*0E
$GPGSV,3,1,10,01,17,119,35,02,19,313,35,04,45,276,36,07,66,
207,36,0*67
$GPGSV,3,2,10,08,26,213,35,13,61,356,36,16,13,055,35,20,42,119,36,0*64
$GPGSV,3,3,10,23,45,043,36,25,89,186,36,0*6A
$BDGSV,1,1,00,0*74

$GNRMC,001242.00,A,3128.000125,N,12117.999830,E,0.012,,200720,,,A,V*1D
$GNGGA,001242.00,3128.000125,N,12117.999830,E,1,09,0.97,40.1,M,9.5,M,,*41
$GNGSA,A,3,02,23,25,13,04,20,01,08,07,,,,1.69,0.97,1.38,1*05
$GNGSA,A,3,,,,,,,,,,,,,1.69,0.97,1.38,4*0E
$GPGSV,3,1,10,01,17,119,35,02,19,313,35,04,45,276,36,07,66,
207,36,0*67
$GPGSV,3,2,10,08,26,213,35,13,61,356,36,16,13,055,35,20,42,119,36,0*64
$GPGSV,3,3,10,23,45,043,36,25,89,186,36,0*6A
$BDGSV,1,1,00,0*74

$GNRMC,001243.00,A,3128.000121,N,12117.999832,E,0.004,,200720,,,A,V*1D
$GNGGA,001243.00,3128.000121,N,12117.999832,E,1,09,0.97,40.1,M,9.5,M,,*46
$GNGSA,A,3,02,23,25,13,04,20,01,08,07,,,,1.69,0.97,1.38,1*05
$GNGSA,A,3,,,,,,,,,,,,,1.69,0.97,1.38,4*0E
$GPGSV,3,1,10,01,17,119,35,02,19,313,35,04,45,275,36,07,66,
207,36,0*64
$GPGSV,3,2,10,08,26,213,35,13,61,356,36,16,13,055,35,20,42,119,36,0*64
$GPGSV,3,3,10,23,45,043,36,25,89,186,36,0*6A
$BDGSV,1,1,00,0*74

$GNRMC,001244.00,A,3128.000114,N,12117.999837,E,0.002,,200720,,,A,V*1F
$GNGGA,001244.00,3128.000114,N,12117.999837,E,1,09,0.97,40.1,M,9.5,M,,*42
$GNGSA,A,3,02,23,25,13,04,20,01,08,07,,,,1.69,0.97,1.38,1*05
$GNGSA,A,3,,,,,,,,,,,,,1.69,0.97,1.38,4*0E
$GPGSV,3,1,10,01,17,119,35,02,19,313,35,04,45,275,36,07,66,
207,36,0*64
$GPGSV,3,2,10,08,26,213,35,13,61,356,36,16,13,055,35,20,42,119,36,0*64
$GPGSV,3,3,10,23,45,043,36,25,89,186,36,0*6A
$BDGSV,1,1,00,0*74

$GNRMC,001245.00,A,3128.000104,N,12117.999841,E,0.006,,200720,,,A,V*1A
$GNGGA,001245.00,3128.000104,N,12117.999841,E,1,09,0.97,40.1,M,9.5,M,,*43
$GNGSA,A,3,02,23,25,13,04,20,01,08,07,,,,1.69,0.97,1.38,1*05
$GNGSA,A,3,,,,,,,,,,,,,1.69,0.97,1.38,4*0E
$GPGSV,3,1,10,01,17,119,35,02,19,313,35,04,45,275,36,07,66,
207,36,0*64
$GPGSV,3,2,10,08,26,213,35,13,61,356,36,16,13,055,34,20,42,119,36,0*65
$GPGSV,3,3,10,23,45,043,36,25,89,186,36,0*6A
$BDGSV,1,1,00,0*74

$GNRMC,001246.00,A,3128.000097,N,12117.999845,E,0.008,,200720,,,A,V*18
$GNGGA,001246.00,3128.000097,N,12117.999845,E,1,09,0.97,40.1,M,9.5,M,,*4F
$GNGSA,A,3,02,23,25,13,04,20,01,08,07,,,,1.69,0.97,1.38,1*05
$GNGSA,A,3,,,,,,,,,,,,,1.69,0.97,1.38,4*0E
$GPGSV,3,1,10,01,17,119,35,02,19,313,35,04,45,275,36,07,66,
207,36,0*64
$GPGSV,3,2,10,08,26,213,35,13,61,356,36,16,13,055,34,20,42,119,36,0*65
$GPGSV,3,3,10,23,45,043,36,25,89,186,36,0*6A
$BDGSV,1,1,00,0*74

$GNRMC,001247.00,A,3128.000086,N,12117.999849,E,0.004,,200720,,,A,V*19
$GNGGA,001247.00,3128.000086,N,12117.999849,E,1,09,0.97,40.1,M,9.5,M,,*42
$GNGSA,A,3,02,23,25,13,04,20,01,08,07,,,,1.69,0.97,1.38,1*05
$GNGSA,A,3,,,,,,,,,,,,,1.69,0.97,1.38,4*0E
$GPGSV,3,1,10,01,17,119,35,02,19,313,35,04,45,275,36,07,66,
207,36,0*64
$GPGSV,3,2,10,08,26,213,35,13,61,356,36,16,13,055,35,20,42,119,36,0*64
$GPGSV,3,3,10,23,45,043,36,25,89,186,36,0*6A
$BDGSV,1,1,00,0*74

$GNRMC,001248.00,A,3128.000082,N,12117.999852,E,0.009,,200720,,,A,V*15
$GNGGA,001248.00,3128.000082,N,12117.999852,E,1,09,0.97,40.1,M,9.5,M,,*43
$GNGSA,A,3,02,23,25,13,04,20,01,08,07,,,,1.69,0.97,1.38,1*05
$GNGSA,A,3,,,,,,,,,,,,,1.69,0.97,1.38,4*0E
$GPGSV,3,1,10,01,17,119,35,02,19,313,35,04,45,275,36,07,66,
207,36,0*64
$GPGSV,3,2,10,08,26,213,35,13,61,356,36,16,13,055,35,20,42,119,36,0*64
$GPGSV,3,3,10,23,45,043,36,25,89,186,36,0*6A
$BDGSV,1,1,00,0*74

$GNRMC,001249.00,A,3128.000071,N,12117.999857,E,0.012,,200720,,,A,V*17
$GNGGA,001249.00,3128.000071,N,12117.999857,E,1,09,0.97,40.1,M,9.5,M,,*4B
$GNGSA,A,3,02,23,25,13,04,20,01,08,07,,,,1.69,0.97,1.38,1*05
$GNGSA,A,3,,,,,,,,,,,,,1.69,0.97,1.38,4*0E
$GPGSV,3,1,10,01,17,119,35,02,19,313,35,04,45,275,36,07,66,
207,36,0*64
$GPGSV,3,2,10,08,26,213,35,13,61,356,36,16,13,054,35,20,42,119,36,0*65
$GPGSV,3,3,10,23,45,043,36,25,89,186,36,0*6A
$BDGSV,1,1,00,0*74

$GNRMC,001250.00,A,3128.000063,N,12117.999858,E,0.003,,200720,,,A,V*13
$GNGGA,001250.00,3128.000063,N,12117.999858,E,1,09,0.97,40.1,M,9.5,M,,*4F
$GNGSA,A,3,02,23,25,13,04,20,01,08,07,,,,1.69,0.97,1.38,1*05
$GNGSA,A,3,,,,,,,,,,,,,1.69,0.97,1.38,4*0E
$GPGSV,3,1,10,01,17,119,35,02,19,313,35,04,45,275,36,07,66,
207,36,0*64
$GPGSV,3,2,10,08,26,213,35,13,61,356,36,16,13,054,34,20,42,119,36,0*64
$GPGSV,3,3,10,23,45,043,36,25,89,186,36,0*6A
$BDGSV,1,1,00,0*74

<??????????????>

$GNRMC,001251.00,A,3128.000062,N,12117.999863,E,0.017,,200720,,,A,V*1E
$GNGGA,001251.00,3128.000062,N,12117.999863,E,1,09,0.97,40.1,M,9.5,M,,*47
$GNGSA,A,3,02,23,25,13,04,20,01,08,07,,,,1.69,0.97,1.38,1*05
$GNGSA,A,3,,,,,,,,,,,,,1.69,0.97,1.38,4*0E
$GPGSV,3,1,10,01,17,119,35,02,19,313,35,04,45,275,36,07,66,
207,36,0*64
$GPGSV,3,2,10,08,26,213,35,13,61,356,36,16,13,054,35,20,42,119,36,0*65
$GPGSV,3,3,10,23,45,043,36,25,89,186,36,0*6A
$BDGSV,1,1,00,0*74

$GNRMC,001252.00,A,3128.000054,N,12117.999865,E,0.008,,200720,,,A,V*10
$GNGGA,001252.00,3128.000054,N,12117.999865,E,1,09,0.97,40.1,M,9.5,M,,*47
$GNGSA,A,3,02,23,25,13,04,20,01,08,07,,,,1.69,0.97,1.38,1*05
$GNGSA,A,3,,,,,,,,,,,,,1.69,0.97,1.38,4*0E
$GPGSV,3,1,10,01,17,119,35,02,19,313,35,04,45,275,36,07,66,
207,36,0*64
$GPGSV,3,2,10,08,26,213,35,13,61,356,36,16,13,054,35,20,42,119,36,0*65
$GPGSV,3,3,10,23,45,043,36,25,89,184,36,0*68
$BDGSV,1,1,00,0*74

$GNRMC,001253.00,A,3128.000050,N,12117.999863,E,0.008,,200720,,,A,V*13
$GNGGA,001253.00,3128.000050,N,12117.999863,E,1,09,0.97,40.1,M,9.5,M,,*44
$GNGSA,A,3,02,23,25,13,04,20,01,08,07,,,,1.69,0.97,1.38,1*05
$GNGSA,A,3,,,,,,,,,,,,,1.69,0.97,1.38,4*0E
$GPGSV,3,1,10,01,17,119,35,02,19,313,35,04,45,275,36,07,66,
207,36,0*64
$GPGSV,3,2,10,08,26,213,35,13,61,356,36,16,13,054,35,20,42,119,36,0*65
$GPGSV,3,3,10,23,45,043,36,25,89,184,36,0*68
$BDGSV,1,1,00,0*74


GPS HPregnss> E1 15 00 00 00 00 07 53 8F 3D EC 00 00 00 1C 3E 0B 14 14 00 00 00 00 


$GNRMC,001254.00,A,3128.000041,N,12117.999866,E,0.005,,200720,,,A,V*1C
$GNGGA,001254.00,3128.000041,N,12117.999866,E,1,09,0.97,40.1,M,9.5,M,,*46
$GNGSA,A,3,02,23,25,13,04,20,01,08,07,,,,1.69,0.97,1.38,1*05
$GNGSA,A,3,,,,,,,,,,,,,1.69,0.97,1.38,4*0E
$GPGSV,3,1,10,01,17,119,35,02,19,313,35,04,45,275,36,07,66,
207,36,0*64
$GPGSV,3,2,10,08,26,213,35,13,61,356,36,16,13,054,35,20,42,119,36,0*65
$GPGSV,3,3,10,23,45,043,36,25,89,184,36,0*68
$BDGSV,1,1,00,0*74

$GNRMC,001255.00,A,3128.000031,N,12117.999869,E,0.006,,200720,,,A,V*16
$GNGGA,001255.00,3128.000031,N,12117.999869,E,1,09,0.97,40.1,M,9.5,M,,*4F
$GNGSA,A,3,02,23,25,13,04,20,01,08,07,,,,1.69,0.97,1.38,1*05
$GNGSA,A,3,,,,,,,,,,,,,1.69,0.97,1.38,4*0E
$GPGSV,3,1,10,01,17,119,35,02,19,313,35,04,45,275,36,07,66,
207,36,0*64
$GPGSV,3,2,10,08,26,213,35,13,61,356,36,16,13,054,35,20,42,119,36,0*65
$GPGSV,3,3,10,23,45,043,36,25,89,184,36,0*68
$BDGSV,1,1,00,0*74

$GNRMC,001256.00,A,3128.000027,N,12117.999869,E,0.010,,200720,,,A,V*15
$GNGGA,001256.00,3128.000027,N,12117.999869,E,1,09,0.97,40.1,M,9.5,M,,*4B
$GNGSA,A,3,02,23,25,13,04,20,01,08,07,,,,1.69,0.97,1.38,1*05
$GNGSA,A,3,,,,,,,,,,,,,1.69,0.97,1.38,4*0E
$GPGSV,3,1,10,01,17,119,35,02,19,313,35,04,45,275,35,07,66,
207,36,0*67
$GPGSV,3,2,10,08,26,213,35,13,61,356,36,16,13,054,34,20,42,119,36,0*64
$GPGSV,3,3,10,23,45,043,36,25,89,184,36,0*68
$BDGSV,1,1,00,0*74

$GNRMC,001257.00,A,3128.000024,N,12117.999868,E,0.005,,200720,,,A,V*12
$GNGGA,001257.00,3128.000024,N,12117.999868,E,1,09,0.97,40.1,M,9.5,M,,*48
$GNGSA,A,3,02,23,25,13,04,20,01,08,07,,,,1.69,0.97,1.38,1*05
$GNGSA,A,3,,,,,,,,,,,,,1.69,0.97,1.38,4*0E
$GPGSV,3,1,10,01,17,119,35,02,19,313,35,04,45,275,36,07,66,
207,36,0*64
$GPGSV,3,2,10,08,26,213,35,13,61,356,36,16,13,054,35,20,42,119,36,0*65
$GPGSV,3,3,10,23,45,043,36,25,89,184,36,0*68
$BDGSV,1,1,00,0*74

$GNRMC,001258.00,A,3128.000024,N,12117.999873,E,0.009,,200720,,,A,V*1B
$GNGGA,001258.00,3128.000024,N,12117.999873,E,1,09,0.97,40.1,M,9.5,M,,*4D
$GNGSA,A,3,02,23,25,13,04,20,01,08,07,,,,1.69,0.97,1.38,1*05
$GNGSA,A,3,,,,,,,,,,,,,1.69,0.97,1.38,4*0E
$GPGSV,3,1,10,01,17,119,35,02,19,313,35,04,45,275,36,07,66,
207,36,0*64
$GPGSV,3,2,10,08,26,213,35,13,61,356,36,16,13,054,35,20,42,119,36,0*65
$GPGSV,3,3,10,23,45,043,36,25,89,184,36,0*68
$BDGSV,1,1,00,0*74

$GNRMC,001259.00,A,3128.000025,N,12117.999877,E,0.007,,200720,,,A,V*11
$GNGGA,001259.00,3128.000025,N,12117.999877,E,1,09,0.97,40.1,M,9.5,M,,*49
$GNGSA,A,3,02,23,25,13,04,20,01,08,07,,,,1.69,0.97,1.38,1*05
$GNGSA,A,3,,,,,,,,,,,,,1.69,0.97,1.38,4*0E
$GPGSV,3,1,10,01,17,119,35,02,19,313,35,04,45,275,36,07,66,
207,36,0*64
$GPGSV,3,2,10,08,26,213,35,13,61,356,36,16,13,054,35,20,42,119,36,0*65
$GPGSV,3,3,10,23,45,043,36,25,89,184,36,0*68
$BDGSV,1,1,00,0*74

$GNRMC,001300.00,A,3128.000027,N,12117.999874,E,0.009,,200720,,,A,V*13
$GNGGA,001300.00,3128.000027,N,12117.999874,E,1,09,0.97,40.1,M,9.5,M,,*45
$GNGSA,A,3,02,23,25,13,04,20,01,08,07,,,,1.69,0.97,1.38,1*05
$GNGSA,A,3,,,,,,,,,,,,,1.69,0.97,1.38,4*0E
$GPGSV,3,1,10,01,16,119,35,02,19,313,35,04,45,275,35,07,66,
207,36,0*66
$GPGSV,3,2,10,08,26,213,35,13,61,356,36,16,13,054,35,20,42,119,36,0*65
$GPGSV,3,3,10,23,45,043,36,25,89,184,36,0*68
$BDGSV,1,1,00,0*74

<????sim??????(SIM??:1)>
<????GSM????????(GSM:0)>
<????GPRS????????(GPRS:0)>
<????????????(SIGNAL:0)>
<????????????????(BER:0)>

<??????????????>

$GNRMC,001301.00,A,3128.000033,N,12117.999874,E,0.010,,200720,,,A,V*1F
$GNGGA,001301.00,3128.000033,N,12117.999874,E,1,09,0.97,40.1,M,9.5,M,,*41
$GNGSA,A,3,02,23,25,13,04,20,01,08,07,,,,1.69,0.97,1.38,1*05
$GNGSA,A,3,,,,,,,,,,,,,1.69,0.97,1.38,4*0E
$GPGSV,3,1,10,01,16,119,35,02,19,313,35,04,45,275,35,07,66,
207,36,0*66
$GPGSV,3,2,10,08,26,213,35,13,61,356,36,16,13,054,35,20,42,119,36,0*65
$GPGSV,3,3,10,23,45,043,36,25,89,184,36,0*68
$BDGSV,1,1,00,0*74

$GNRMC,001302.00,A,3128.000038,N,12117.999871,E,0.009,,200720,,,A,V*1A
$GNGGA,001302.00,3128.000038,N,12117.999871,E,1,09,0.97,40.0,M,9.5,M,,*4D
$GNGSA,A,3,02,23,25,13,04,20,01,08,07,,,,1.69,0.97,1.38,1*05
$GNGSA,A,3,,,,,,,,,,,,,1.69,0.97,1.38,4*0E
$GPGSV,3,1,10,01,16,119,35,02,19,313,35,04,45,275,36,07,66,
207,36,0*65
$GPGSV,3,2,10,08,26,213,35,13,61,356,36,16,13,054,35,20,42,119,36,0*65
$GPGSV,3,3,10,23,45,043,36,25,89,184,36,0*68
$BDGSV,1,1,00,0*74

$GNRMC,001303.00,A,3128.000042,N,12117.999870,E,0.007,,200720,,,A,V*19
$GNGGA,001303.00,3128.000042,N,12117.999870,E,1,09,0.97,40.0,M,9.5,M,,*40
$GNGSA,A,3,02,23,25,13,04,20,01,08,07,,,,1.69,0.97,1.38,1*05
$GNGSA,A,3,,,,,,,,,,,,,1.69,0.97,1.38,4*0E
$GPGSV,3,1,10,01,16,119,35,02,19,313,35,04,45,275,36,07,66,
207,36,0*65
$GPGSV,3,2,10,08,26,213,35,13,61,356,36,16,13,054,35,20,42,119,36,0*65
$GPGSV,3,3,10,23,45,043,36,25,89,184,36,0*68
$BDGSV,1,1,00,0*74

$GNRMC,001304.00,A,3128.000044,N,12117.999875,E,0.010,,200720,,,A,V*1B
$GNGGA,001304.00,3128.000044,N,12117.999875,E,1,09,0.97,40.0,M,9.5,M,,*44
$GNGSA,A,3,02,23,25,13,04,20,01,08,07,,,,1.69,0.97,1.38,1*05
$GNGSA,A,3,,,,,,,,,,,,,1.69,0.97,1.38,4*0E
$GPGSV,3,1,10,01,16,119,35,02,19,313,35,04,45,275,36,07,66,
207,36,0*65
$GPGSV,3,2,10,08,26,213,35,13,61,356,36,16,13,054,35,20,42,119,36,0*65
$GPGSV,3,3,10,23,45,043,36,25,89,184,36,0*68
$BDGSV,1,1,00,0*74

$GNRMC,001305.00,A,3128.000048,N,12117.999875,E,0.009,,200720,,,A,V*1E
$GNGGA,001305.00,3128.000048,N,12117.999875,E,1,09,0.97,40.0,M,9.5,M,,*49
$GNGSA,A,3,02,23,25,13,04,20,01,08,07,,,,1.69,0.97,1.38,1*05
$GNGSA,A,3,,,,,,,,,,,,,1.69,0.97,1.38,4*0E
$GPGSV,3,1,10,01,16,119,35,02,19,313,35,04,45,275,36,07,66,
207,36,0*65
$GPGSV,3,2,10,08,26,213,35,13,61,356,36,16,13,054,35,20,42,119,36,0*65
$GPGSV,3,3,10,23,45,043,36,25,89,184,36,0*68
$BDGSV,1,1,00,0*74

$GNRMC,001306.00,A,3128.000049,N,12117.999877,E,0.010,,200720,,,A,V*16
$GNGGA,001306.00,3128.000049,N,12117.999877,E,1,09,0.97,40.0,M,9.5,M,,*49
$GNGSA,A,3,02,23,25,13,04,20,01,08,07,,,,1.69,0.97,1.38,1*05
$GNGSA,A,3,,,,,,,,,,,,,1.69,0.97,1.38,4*0E
$GPGSV,3,1,10,01,16,119,35,02,19,313,35,04,45,275,36,07,67,
207,36,0*64
$GPGSV,3,2,10,08,26,213,35,13,61,356,36,16,13,054,35,20,42,119,36,0*65
$GPGSV,3,3,10,23,45,043,36,25,89,184,36,0*68
$BDGSV,1,1,00,0*74

$GNRMC,001307.00,A,3128.000055,N,12117.999872,E,0.012,,200720,,,A,V*1D
$GNGGA,001307.00,3128.000055,N,12117.999872,E,1,09,0.97,39.9,M,9.5,M,,*47
$GNGSA,A,3,02,23,25,13,04,20,01,08,07,,,,1.69,0.97,1.38,1*05
$GNGSA,A,3,,,,,,,,,,,,,1.69,0.97,1.38,4*0E
$GPGSV,3,1,10,01,16,119,35,02,19,313,35,04,45,275,36,07,67,
207,36,0*64
$GPGSV,3,2,10,08,26,213,35,13,61,356,36,16,13,054,34,20,42,119,36,0*64
$GPGSV,3,3,10,23,45,043,36,25,89,184,36,0*68
$BDGSV,1,1,00,0*74

$GNRMC,001308.00,A,3128.000055,N,12117.999868,E,0.005,,200720,,,A,V*1F
$GNGGA,001308.00,3128.000055,N,12117.999868,E,1,09,0.97,39.9,M,9.5,M,,*43
$GNGSA,A,3,02,23,25,13,04,20,01,08,07,,,,1.69,0.97,1.38,1*05
$GNGSA,A,3,,,,,,,,,,,,,1.69,0.97,1.38,4*0E
$GPGSV,3,1,10,01,16,119,35,02,19,313,35,04,45,275,36,07,67,
207,36,0*64
$GPGSV,3,2,10,08,26,213,35,13,61,357,36,16,13,054,35,20,42,119,36,0*64
$GPGSV,3,3,10,23,45,043,36,25,89,184,36,0*68
$BDGSV,1,1,00,0*74

$GNRMC,001309.00,A,3128.000056,N,12117.999861,E,0.010,,200720,,,A,V*10
$GNGGA,001309.00,3128.000056,N,12117.999861,E,1,09,0.97,39.9,M,9.5,M,,*48
$GNGSA,A,3,02,23,25,13,04,20,01,08,07,,,,1.69,0.97,1.38,1*05
$GNGSA,A,3,,,,,,,,,,,,,1.69,0.97,1.38,4*0E
$GPGSV,3,1,10,01,16,119,35,02,19,313,35,04,45,275,36,07,67,
207,36,0*64
$GPGSV,3,2,10,08,26,213,35,13,61,357,36,16,13,054,35,20,42,119,36,0*64
$GPGSV,3,3,10,23,45,043,36,25,89,184,36,0*68
$BDGSV,1,1,00,0*74

$GNRMC,001310.00,A,3128.000055,N,12117.999851,E,0.005,,200720,,,A,V*1C
$GNGGA,001310.00,3128.000055,N,12117.999851,E,1,09,0.97,39.9,M,9.5,M,,*40
$GNGSA,A,3,02,23,25,13,04,20,01,08,07,,,,1.69,0.97,1.38,1*05
$GNGSA,A,3,,,,,,,,,,,,,1.69,0.97,1.38,4*0E
$GPGSV,3,1,10,01,16,119,35,02,19,313,35,04,45,275,36,07,67,
207,36,0*64
$GPGSV,3,2,10,08,26,213,35,13,61,357,36,16,13,054,35,20,42,119,36,0*64
$GPGSV,3,3,10,23,45,043,36,25,89,184,36,0*68
$BDGSV,1,1,00,0*74

<??????????????>

$GNRMC,001311.00,A,3128.000052,N,12117.999839,E,0.008,,200720,,,A,V*19
$GNGGA,001311.00,3128.000052,N,12117.999839,E,1,09,0.97,39.9,M,9.5,M,,*48
$GNGSA,A,3,02,23,25,13,04,20,01,08,07,,,,1.69,0.97,1.38,1*05
$GNGSA,A,3,,,,,,,,,,,,,1.69,0.97,1.38,4*0E
$GPGSV,3,1,10,01,16,119,35,02,19,313,35,04,45,275,36,07,67,
207,36,0*64
$GPGSV,3,2,10,08,26,213,35,13,61,357,36,16,13,054,35,20,42,119,36,0*64
$GPGSV,3,3,10,23,45,044,36,25,89,184,36,0*6F
$BDGSV,1,1,00,0*74

$GNRMC,001312.00,A,3128.000049,N,12117.999832,E,0.006,,200720,,,A,V*15
$GNGGA,001312.00,3128.000049,N,12117.999832,E,1,09,0.97,39.9,M,9.5,M,,*4A
