$GNRMC,001846.00,A,3128.000005,N,12117.999953,E,0.017,,200720,,,A,V*11
$GNGGA,001846.00,3128.000005,N,12117.999953,E,1,08,1.10,40.3,M,9.5,M,,*45
$GNGSA,A,3,02,23,25,13,04,20,08,07,,,,,2.11,1.10,1.80,1*05
$GNGSA,A,3,,,,,,,,,,,,,2.11,1.10,1.80,4*0F
$GPGSV,3,1,11,01,15,121,35,02,20,311,35,04,45,271,36,07,69,20
9,36,0*61
$GPGSV,3,2,11,08,29,214,35,13,60,002,36,16,12,052,35,20,40,121,36,0*61
$GPGSV,3,3,11,23,44,046,36,25,88,025,36,27,01,221,,0*53
$BDGSV,1,1,00,0*74

$GNRMC,001847.00,A,3128.000003,N,12117.999960,E,0.011,,200720,,,A,V*10
$GNGGA,001847.00,3128.000003,N,12117.999960,E,1,08,1.10,40.3,M,9.5,M,,*42
$GNGSA,A,3,02,23,25,13,04,20,08,07,,,,,2.11,1.10,1.80,1*05
$GNGSA,A,3,,,,,,,,,,,,,2.11,1.10,1.80,4*0F
$GPGSV,3,1,11,01,15,121,35,02,20,311,34,04,45,271,35,07,69,20
9,36,0*63
$GPGSV,3,2,11,08,29,214,35,13,60,002,36,16,12,052,34,20,40,121,36,0*60
$GPGSV,3,3,11,23,44,046,36,25,88,025,36,27,01,221,,0*53
$BDGSV,1,1,00,0*74

$GNRMC,001848.00,A,3127.999997,N,12117.999969,E,0.014,,200720,,,A,V*11
$GNGGA,001848.00,3127.999997,N,12117.999969,E,1,08,1.10,40.3,M,9.5,M,,*46
$GNGSA,A,3,02,23,25,13,04,20,08,07,,,,,2.11,1.10,1.80,1*05
$GNGSA,A,3,,,,,,,,,,,,,2.11,1.10,1.80,4*0F
$GPGSV,3,1,11,01,15,121,35,02,20,311,35,04,45,271,35,07,69,20
9,36,0*62
$GPGSV,3,2,11,08,29,214,35,13,60,002,36,16,12,052,34,20,40,121,36,0*60
$GPGSV,3,3,11,23,44,046,35,25,88,025,36,27,01,221,,0*50
$BDGSV,1,1,00,0*74

$GNRMC,001849.00,A,3127.999994,N,12117.999973,E,0.006,,200720,,,A,V*1B
$GNGGA,001849.00,3127.999994,N,12117.999973,E,1,08,1.10,40.3,M,9.5,M,,*4F
$GNGSA,A,3,02,23,25,13,04,20,08,07,,,,,2.11,1.10,1.80,1*05
$GNGSA,A,3,,,,,,,,,,,,,2.11,1.10,1.80,4*0F
$GPGSV,3,1,11,01,15,121,35,02,20,311,35,04,45,271,35,07,69,20
9,36,0*62
$GPGSV,3,2,11,08,29,214,35,13,60,002,36,16,12,052,35,20,40,121,36,0*61
$GPGSV,3,3,11,23,44,046,36,25,88,025,36,27,01,221,,0*53
$BDGSV,1,1,00,0*74

$GNRMC,001850.00,A,3127.999988,N,12117.999980,E,0.014,,200720,,,A,V*11
$GNGGA,001850.00,3127.999988,N,12117.999980,E,1,08,1.10,40.3,M,9.5,M,,*46
$GNGSA,A,3,02,23,25,13,04,20,08,07,,,,,2.11,1.10,1.80,1*05
$GNGSA,A,3,,,,,,,,,,,,,2.11,1.10,1.80,4*0F
$GPGSV,3,1,11,01,15,121,35,02,20,311,35,04,45,271,36,07,69,20
9,36,0*61
$GPGSV,3,2,11,08,29,214,35,13,60,002,36,16,12,052,34,20,40,121,36,0*60
$GPGSV,3,3,11,23,44,046,36,25,88,025,36,27,01,221,,0*53
$BDGSV,1,1,00,0*74

$GNRMC,001851.00,A,3127.999982,N,12117.999989,E,0.017,,200720,,,A,V*10
$GNGGA,001851.00,3127.999982,N,12117.999989,E,1,08,1.10,40.3,M,9.5,M,,*44
$GNGSA,A,3,02,23,25,13,04,20,08,07,,,,,2.11,1.10,1.80,1*05
$GNGSA,A,3,,,,,,,,,,,,,2.11,1.10,1.80,4*0F
$GPGSV,3,1,11,01,15,121,35,02,20,311,35,04,45,271,36,07,69,20
9,36,0*61
$GPGSV,3,2,11,08,29,214,35,13,60,002,36,16,12,052,35,20,40,121,35,0*62
$GPGSV,3,3,11,23,44,046,36,25,88,025,36,27,01,221,,0*53
$BDGSV,1,1,00,0*74

$GNRMC,001852.00,A,3127.999978,N,12117.999996,E,0.008,,200720,,,A,V*16
$GNGGA,001852.00,3127.999978,N,12117.999996,E,1,08,1.10,40.3,M,9.5,M,,*4C
$GNGSA,A,3,02,23,25,13,04,20,08,07,,,,,2.11,1.10,1.80,1*05
$GNGSA,A,3,,,,,,,,,,,,,2.11,1.10,1.80,4*0F
$GPGSV,3,1,11,01,15,121,35,02,20,311,35,04,45,271,35,07,69,20
9,36,0*62
$GPGSV,3,2,11,08,29,214,35,13,60,002,36,16,12,052,34,20,40,121,36,0*60
$GPGSV,3,3,11,23,44,046,36,25,88,025,36,27,01,221,,0*53
$BDGSV,1,1,00,0*74

$GNRMC,001853.00,A,3127.999972,N,12118.000003,E,0.012,,200720,,,A,V*15
$GNGGA,001853.00,3127.999972,N,12118.000003,E,1,08,1.10,40.3,M,9.5,M,,*44
$GNGSA,A,3,02,23,25,13,04,20,08,07,,,,,2.11,1.10,1.80,1*05
$GNGSA,A,3,,,,,,,,,,,,,2.11,1.10,1.80,4*0F
$GPGSV,3,1,11,01,15,121,35,02,20,311,35,04,45,271,36,07,69,20
9,36,0*61
$GPGSV,3,2,11,08,29,214,35,13,60,002,36,16,12,052,34,20,40,121,35,0*63
$GPGSV,3,3,11,23,44,046,36,25,88,025,36,27,01,221,,0*53
$BDGSV,1,1,00,0*74
<??????????????>

$GNRMC,001854.00,A,3127.999969,N,12118.000010,E,0.016,,200720,,,A,V*1E
$GNGGA,001854.00,3127.999969,N,12118.000010,E,1,08,1.10,40.3,M,9.5,M,,*4B
$GNGSA,A,3,02,23,25,13,04,20,08,07,,,,,2.11,1.10,1.80,1*05
$GNGSA,A,3,,,,,,,,,,,,,2.11,1.10,1.80,4*0F
$GPGSV,3,1,11,01,15,121,35,02,20,311,35,04,45,271,36,07,69,20
9,36,0*61
$GPGSV,3,2,11,08,29,214,35,13,60,002,36,16,12,052,35,20,40,121,36,0*61
$GPGSV,3,3,11,23,44,046,36,25,88,024,36,27,01,221,,0*52
$BDGSV,1,1,00,0*74


GPS HPregnss> E1 15 00 00 00 00 07 53 8F 38 A6 00 00 00 1C 3E 0B 1D A6 00 00 00 00 


$GNRMC,001855.00,A,3127.999964,N,12118.000018,E,0.008,,200720,,,A,V*15
$GNGGA,001855.00,3127.999964,N,12118.000018,E,1,08,1.10,40.3,M,9.5,M,,*4F
$GNGSA,A,3,02,23,25,13,04,20,08,07,,,,,2.11,1.10,1.80,1*05
$GNGSA,A,3,,,,,,,,,,,,,2.11,1.10,1.80,4*0F
$GPGSV,3,1,11,01,15,121,35,02,20,311,35,04,45,271,36,07,69,20
9,36,0*61
$GPGSV,3,2,11,08,29,214,35,13,60,002,36,16,12,052,35,20,40,121,36,0*61
$GPGSV,3,3,11,23,44,046,36,25,88,024,36,27,01,221,,0*52
$BDGSV,1,1,00,0*74

$GNRMC,001856.00,A,3127.999956,N,12118.000020,E,0.018,,200720,,,A,V*1D
$GNGGA,001856.00,3127.999956,N,12118.000020,E,1,08,1.10,40.3,M,9.5,M,,*46
$GNGSA,A,3,02,23,25,13,04,20,08,07,,,,,2.11,1.10,1.80,1*05
$GNGSA,A,3,,,,,,,,,,,,,2.11,1.10,1.80,4*0F
$GPGSV,3,1,11,01,15,121,35,02,20,311,35,04,45,271,36,07,69,20
9,36,0*61
$GPGSV,3,2,11,08,29,214,35,13,60,002,36,16,12,052,35,20,40,121,36,0*61
$GPGSV,3,3,11,23,44,046,36,25,88,024,36,27,02,221,,0*51
$BDGSV,1,1,00,0*74

$GNRMC,001857.00,A,3127.999951,N,12118.000019,E,0.033,,200720,,,A,V*18
$GNGGA,001857.00,3127.999951,N,12118.000019,E,1,08,1.10,40.3,M,9.5,M,,*4A
$GNGSA,A,3,02,23,25,13,04,20,08,07,,,,,2.11,1.10,1.80,1*05
$GNGSA,A,3,,,,,,,,,,,,,2.11,1.10,1.80,4*0F
$GPGSV,3,1,11,01,15,121,35,02,20,311,35,04,45,271,35,07,69,20
9,36,0*62
$GPGSV,3,2,11,08,29,214,35,13,60,002,36,16,12,052,35,20,40,121,36,0*61
$GPGSV,3,3,11,23,44,046,36,25,88,024,36,27,02,221,,0*51
$BDGSV,1,1,00,0*74

$GNRMC,001858.00,A,3127.999948,N,12118.000020,E,0.038,,200720,,,A,V*1E
$GNGGA,001858.00,3127.999948,N,12118.000020,E,1,08,1.10,40.3,M,9.5,M,,*47
$GNGSA,A,3,02,23,25,13,04,20,08,07,,,,,2.11,1.10,1.80,1*05
$GNGSA,A,3,,,,,,,,,,,,,2.11,1.10,1.80,4*0F
$GPGSV,3,1,11,01,15,121,35,02,20,311,35,04,45,271,36,07,69,20
9,36,0*61
$GPGSV,3,2,11,08,29,214,35,13,60,002,36,16,12,052,35,20,40,121,36,0*61
$GPGSV,3,3,11,23,44,046,36,25,88,024,36,27,02,221,,0*51
$BDGSV,1,1,00,0*74

$GNRMC,001859.00,A,3127.999949,N,12118.000021,E,0.036,,200720,,,A,V*11
$GNGGA,001859.00,3127.999949,N,12118.000021,E,1,08,1.10,40.3,M,9.5,M,,*46
$GNGSA,A,3,02,23,25,13,04,20,08,07,,,,,2.11,1.10,1.80,1*05
$GNGSA,A,3,,,,,,,,,,,,,2.11,1.10,1.80,4*0F
$GPGSV,3,1,11,01,15,121,35,02,20,311,35,04,45,271,35,07,69,20
9,36,0*62
$GPGSV,3,2,11,08,29,214,35,13,60,002,36,16,12,052,35,20,40,121,36,0*61
$GPGSV,3,3,11,23,44,046,36,25,88,024,36,27,02,221,,0*51
$BDGSV,1,1,00,0*74

$GNRMC,001900.00,A,3127.999946,N,12118.000026,E,0.005,,200720,,,A,V*14
$GNGGA,001900.00,3127.999946,N,12118.000026,E,1,08,1.10,40.3,M,9.5,M,,*43
$GNGSA,A,3,02,23,25,13,04,20,08,07,,,,,2.11,1.10,1.80,1*05
$GNGSA,A,3,,,,,,,,,,,,,2.11,1.10,1.80,4*0F
$GPGSV,3,1,11,01,15,121,35,02,20,311,35,04,45,271,35,07,69,20
9,36,0*62
$GPGSV,3,2,11,08,29,214,35,13,60,002,36,16,12,052,34,20,40,121,36,0*60
$GPGSV,3,3,11,23,44,046,35,25,88,024,36,27,02,221,,0*52
$BDGSV,1,1,00,0*74

$GNRMC,001901.00,A,3127.999944,N,12118.000023,E,0.009,,200720,,,A,V*1E
$GNGGA,001901.00,3127.999944,N,12118.000023,E,1,08,1.10,40.3,M,9.5,M,,*45
$GNGSA,A,3,02,23,25,13,04,20,08,07,,,,,2.11,1.10,1.80,1*05
$GNGSA,A,3,,,,,,,,,,,,,2.11,1.10,1.80,4*0F
$GPGSV,3,1,11,01,15,121,35,02,20,311,35,04,45,271,35,07,69,20
9,36,0*62
$GPGSV,3,2,11,08,29,214,35,13,60,002,36,16,12,052,34,20,40,121,36,0*60
$GPGSV,3,3,11,23,44,046,35,25,88,024,36,27,02,221,,0*52
$BDGSV,1,1,00,0*74

$GNRMC,001902.00,A,3127.999940,N,12118.000024,E,0.031,,200720,,,A,V*15
$GNGGA,001902.00,3127.999940,N,12118.000024,E,1,08,1.10,40.2,M,9.5,M,,*44
$GNGSA,A,3,02,23,25,13,04,20,08,07,,,,,2.11,1.10,1.80,1*05
$GNGSA,A,3,,,,,,,,,,,,,2.11,1.10,1.80,4*0F
$GPGSV,3,1,11,01,15,121,35,02,20,311,35,04,45,271,35,07,69,20
9,36,0*62
$GPGSV,3,2,11,08,29,214,35,13,60,002,36,16,12,052,34,20,40,121,36,0*60
$GPGSV,3,3,11,23,44,046,35,25,88,024,36,27,02,221,,0*52
$BDGSV,1,1,00,0*74

$GNRMC,001903.00,A,3127.999939,N,12118.000018,E,0.018,,200720,,,A,V*1E
$GNGGA,001903.00,3127.999939,N,12118.000018,E,1,08,1.10,40.2,M,9.5,M,,*44
$GNGSA,A,3,02,23,25,13,04,20,08,07,,,,,2.11,1.10,1.80,1*05
$GNGSA,A,3,,,,,,,,,,,,,2.11,1.10,1.80,4*0F
$GPGSV,3,1,11,01,15,121,35,02,20,311,35,04,45,271,36,07,69,20
9,36,0*61
$GPGSV,3,2,11,08,29,214,35,13,60,002,36,16,12,052,34,20,40,121,36,0*60
$GPGSV,3,3,11,23,44,046,36,25,88,024,36,27,02,221,,0*51
$BDGSV,1,1,00,0*74

<????sim??????(SIM??:1)>
<????GSM????????(GSM:0)>
<????GPRS????????(GPRS:0)>
<????????????(SIGNAL:0)>
<????????????????(BER:0)>

<??????????????>

$GNRMC,001904.00,A,3127.999937,N,12118.000018,E,0.028,,200720,,,A,V*14
$GNGGA,001904.00,3127.999937,N,12118.000018,E,1,08,1.10,40.2,M,9.5,M,,*4D
$GNGSA,A,3,02,23,25,13,04,20,08,07,,,,,2.11,1.10,1.80,1*05
$GNGSA,A,3,,,,,,,,,,,,,2.11,1.10,1.80,4*0F
$GPGSV,3,1,11,01,15,121,35,02,20,311,35,04,45,271,36,07,69,20
9,36,0*61
$GPGSV,3,2,11,08,29,214,35,13,60,002,36,16,12,052,34,20,40,121,36,0*60
$GPGSV,3,3,11,23,44,046,36,25,88,024,36,27,02,221,,0*51
$BDGSV,1,1,00,0*74

$GNRMC,001905.00,A,3127.999935,N,12118.000024,E,0.036,,200720,,,A,V*17
$GNGGA,001905.00,3127.999935,N,12118.000024,E,1,08,1.10,40.2,M,9.5,M,,*41
$GNGSA,A,3,02,23,25,13,04,20,08,07,,,,,2.11,1.10,1.80,1*05
$GNGSA,A,3,,,,,,,,,,,,,2.11,1.10,1.80,4*0F
$GPGSV,3,1,11,01,14,121,35,02,20,311,35,04,45,271,36,07,69,20
9,36,0*60
$GPGSV,3,2,11,08,29,214,35,13,60,002,36,16,12,052,35,20,40,121,36,0*61
$GPGSV,3,3,11,23,44,046,36,25,88,024,36,27,02,221,,0*51
$BDGSV,1,1,00,0*74

$GNRMC,001906.00,A,3127.999941,N,12118.000023,E,0.019,,200720,,,A,V*1D
$GNGGA,001906.00,3127.999941,N,12118.000023,E,1,08,1.10,40.2,M,9.5,M,,*46
$GNGSA,A,3,02,23,25,13,04,20,08,07,,,,,2.11,1.10,1.80,1*05
$GNGSA,A,3,,,,,,,,,,,,,2.11,1.10,1.80,4*0F
$GPGSV,3,1,11,01,14,121,35,02,20,310,35,04,45,271,36,07,69,20
9,36,0*61
$GPGSV,3,2,11,08,29,214,35,13,60,002,36,16,12,052,34,20,40,121,36,0*60
$GPGSV,3,3,11,23,44,046,36,25,88,024,36,27,02,221,,0*51
$BDGSV,1,1,00,0*74

$GNRMC,001907.00,A,3127.999940,N,12118.000019,E,0.004,,200720,,,A,V*18
$GNGGA,001907.00,3127.999940,N,12118.000019,E,1,08,1.10,40.2,M,9.5,M,,*4F
$GNGSA,A,3,02,23,25,13,04,20,08,07,,,,,2.11,1.10,1.80,1*05
$GNGSA,A,3,,,,,,,,,,,,,2.11,1.10,1.80,4*0F
$GPGSV,3,1,11,01,14,121,35,02,20,310,34,04,45,271,36,07,69,20
9,36,0*60
$GPGSV,3,2,11,08,29,214,35,13,60,002,36,16,12,052,34,20,40,121,36,0*60
$GPGSV,3,3,11,23,44,046,36,25,88,024,36,27,02,221,,0*51
$BDGSV,1,1,00,0*74

$GNRMC,001908.00,A,3127.999941,N,12118.000019,E,0.020,,200720,,,A,V*10
$GNGGA,001908.00,3127.999941,N,12118.000019,E,1,08,1.10,40.2,M,9.5,M,,*41
$GNGSA,A,3,02,23,25,13,04,20,08,07,,,,,2.11,1.10,1.80,1*05
$GNGSA,A,3,,,,,,,,,,,,,2.11,1.10,1.80,4*0F
$GPGSV,3,1,11,01,14,121,35,02,20,310,35,04,45,271,36,07,69,20
9,36,0*61
$GPGSV,3,2,11,08,29,214,35,13,60,002,36,16,12,052,35,20,40,121,36,0*61
$GPGSV,3,3,11,23,44,046,36,25,88,024,36,27,02,221,,0*51
$BDGSV,1,1,00,0*74

$GNRMC,001909.00,A,3127.999942,N,12118.000015,E,0.013,,200720,,,A,V*1E
$GNGGA,001909.00,3127.999942,N,12118.000015,E,1,08,1.10,40.2,M,9.5,M,,*4F
$GNGSA,A,3,02,23,25,13,04,20,08,07,,,,,2.11,1.10,1.80,1*05
$GNGSA,A,3,,,,,,,,,,,,,2.11,1.10,1.80,4*0F
$GPGSV,3,1,11,01,14,121,35,02,20,310,35,04,45,271,36,07,69,20
9,36,0*61
$GPGSV,3,2,11,08,29,214,35,13,60,002,36,16,12,052,35,20,40,121,36,0*61
$GPGSV,3,3,11,23,44,046,36,25,88,024,36,27,02,221,,0*51
$BDGSV,1,1,00,0*74

$GNRMC,001910.00,A,3127.999940,N,12118.000014,E,0.023,,200720,,,A,V*16
$GNGGA,001910.00,3127.999940,N,12118.000014,E,1,08,1.10,40.2,M,9.5,M,,*44
$GNGSA,A,3,02,23,25,13,04,20,08,07,,,,,2.11,1.10,1.80,1*05
$GNGSA,A,3,,,,,,,,,,,,,2.11,1.10,1.80,4*0F
$GPGSV,3,1,11,01,14,121,35,02,20,310,35,04,45,271,36,07,69,20
9,36,0*61
$GPGSV,3,2,11,08,29,214,35,13,60,002,36,16,12,052,35,20,40,121,36,0*61
$GPGSV,3,3,11,23,44,046,36,25,88,024,36,27,02,221,,0*51
$BDGSV,1,1,00,0*74

$GNRMC,001911.00,A,3127.999945,N,12118.000012,E,0.013,,200720,,,A,V*17
$GNGGA,001911.00,3127.999945,N,12118.000012,E,1,08,1.10,40.2,M,9.5,M,,*46
$GNGSA,A,3,02,23,25,13,04,20,08,07,,,,,2.11,1.10,1.80,1*05
$GNGSA,A,3,,,,,,,,,,,,,2.11,1.10,1.80,4*0F
$GPGSV,3,1,11,01,14,121,35,02,20,310,34,04,45,271,36,07,70,20
9,36,0*68
$GPGSV,3,2,11,08,29,214,35,13,60,002,36,16,12,052,35,20,40,121,35,0*62
$GPGSV,3,3,11,23,44,046,35,25,88,024,36,27,02,221,,0*52
$BDGSV,1,1,00,0*74

$GNRMC,001912.00,A,3127.999948,N,12118.000012,E,0.011,,200720,,,A,V*1B
$GNGGA,001912.00,3127.999948,N,12118.000012,E,1,08,1.10,40.2,M,9.5,M,,*48
$GNGSA,A,3,02,23,25,13,04,20,08,07,,,,,2.11,1.10,1.81,1*04
$GNGSA,A,3,,,,,,,,,,,,,2.11,1.10,1.81,4*0E
$GPGSV,3,1,11,01,14,121,35,02,20,310,35,04,45,271,35,07,70,20
9,36,0*6A
$GPGSV,3,2,11,08,29,214,35,13,60,002,36,16,12,052,35,20,40,121,36,0*61
$GPGSV,3,3,11,23,44,046,36,25,88,024,36,27,02,221,,0*51
$BDGSV,1,1,00,0*74

$GNRMC,001913.00,A,3127.999951,N,12118.000015,E,0.010,,200720,,,A,V*14
$GNGGA,001913.00,3127.999951,N,12118.000015,E,1,08,1.10,40.2,M,9.5,M,,*46
$GNGSA,A,3,02,23,25,13,04,20,08,07,,,,,2.11,1.10,1.81,1*04
$GNGSA,A,3,,,,,,,,,,,,,2.11,1.10,1.81,4*0E
$GPGSV,3,1,11,01,14,121,35,02,20,310,35,04,45,271,36,07,70,20
9,36,0*69
$GPGSV,3,2,11,08,29,214,35,13,60,002,36,16,12,052,34,20,40,121,36,0*60
$GPGSV,3,3,11,23,44,046,36,25,88,024,36,27,02,221,,0*51
$BDGSV,1,1,00,0*74

<??????????????>

$GNRMC,001914.00,A,3127.999953,N,12118.000016,E,0.013,,200720,,,A,V*11
$GNGGA,001914.00,3127.999953,N,12118.000016,E,1,08,1.10,40.3,M,9.5,M,,*41
$GNGSA,A,3,02,23,25,13,04,20,08,07,,,,,2.11,1.10,1.81,1*04
$GNGSA,A,3,,,,,,,,,,,,,2.11,1.10,1.81,4*0E
$GPGSV,3,1,11,01,14,121,35,02,20,310,35,04,45,271,36,07,70,20
9,36,0*69
$GPGSV,3,2,11,08,29,214,35,13,60,002,36,16,12,052,35,20,40,121,36,0*61
$GPGSV,3,3,11,23,44,046,36,25,88,024,36,27,02,221,,0*51
$BDGSV,1,1,00,0*74

$GNRMC,001915.00,A,3127.999957,N,12118.000013,E,0.001,,200720,,,A,V*12
$GNGGA,001915.00,3127.999957,N,12118.000013,E,1,08,1.10,40.3,M,9.5,M,,*41
$GNGSA,A,3,02,23,25,13,04,20,08,07,,,,,2.11,1.10,1.81,1*04
$GNGSA,A,3,,,,,,,,,,,,,2.11,1.10,1.81,4*0E
$GPGSV,3,1,11,01,14,121,35,02,20,310,35,04,45,271,36,07,70,20
9,36,0*69
$GPGSV,3,2,11,08,29,214,35,13,60,002,36,16,12,052,35,20,40,121,36,0*61
$GPGSV,3,3,11,23,44,046,36,25,88,024,36,27,02,221,,0*51
$BDGSV,1,1,00,0*74

$GNRMC,001916.00,A,3127.999961,N,12118.000012,E,0.011,,200720,,,A,V*14
$GNGGA,001916.00,3127.999961,N,12118.000012,E,1,08,1.10,40.3,M,9.5,M,,*46
$GNGSA,A,3,02,23,25,13,04,20,08,07,,,,,2.11,1.10,1.81,1*04
$GNGSA,A,3,,,,,,,,,,,,,2.11,1.10,1.81,4*0E
$GPGSV,3,1,11,01,14,121,35,02,20,310,35,04,45,271,36,07,70,20
9,36,0*69
$GPGSV,3,2,11,08,29,214,35,13,60,002,36,16,12,052,35,20,40,121,36,0*61
$GPGSV,3,3,11,23,44,046,36,25,88,024,36,27,02,221,,0*51
$BDGSV,1,1,00,0*74

$GNRMC,001917.00,A,3127.999957,N,12118.000004,E,0.024,,200720,,,A,V*11
$GNGGA,001917.00,3127.999957,N,12118.000004,E,1,08,1.10,40.3,M,9.5,M,,*45
$GNGSA,A,3,02,23,25,13,04,20,08,07,,,,,2.11,1.10,1.81,1*04
$GNGSA,A,3,,,,,,,,,,,,,2.11,1.10,1.81,4*0E
$GPGSV,3,1,11,01,14,121,35,02,20,310,35,04,45,271,36,07,70,20
9,36,0*69
$GPGSV,3,2,11,08,29,214,35,13,60,002,36,16,12,052,35,20,40,121,36,0*61
$GPGSV,3,3,11,23,44,046,36,25,88,024,36,27,02,221,,0*51
$BDGSV,1,1,00,0*74

$GNRMC,001918.00,A,3127.999962,N,12118.000004,E,0.032,,200720,,,A,V*1F
$GNGGA,001918.00,3127.999962,N,12118.000004,E,1,08,1.10,40.3,M,9.5,M,,*4C
$GNGSA,A,3,02,23,25,13,04,20,08,07,,,,,2.11,1.10,1.81,1*04
$GNGSA,A,3,,,,,,,,,,,,,2.11,1.10,1.81,4*0E
$GPGSV,3,1,11,01,14,121,35,02,20,310,35,04,45,271,36,07,70,20
9,36,0*69
$GPGSV,3,2,11,08,29,214,35,13,60,002,36,16,12,052,35,20,40,121,36,0*61
$GPGSV,3,3,11,23,44,046,36,25,88,024,36,27,02,221,,0*51
$BDGSV,1,1,00,0*74

$GNRMC,001919.00,A,3127.999962,N,12118.000005,E,0.041,,200720,,,A,V*1B
$GNGGA,001919.00,3127.999962,N,12118.000005,E,1,08,1.10,40.3,M,9.5,M,,*4C
$GNGSA,A,3,02,23,25,13,04,20,08,07,,,,,2.11,1.10,1.81,1*04
$GNGSA,A,3,,,,,,,,,,,,,2.11,1.10,1.81,4*0E
$GPGSV,3,1,11,01,14,121,35,02,20,310,35,04,45,271,35,07,70,20
9,36,0*6A
$GPGSV,3,2,11,08,29,214,35,13,60,002,36,16,12,052,34,20,40,121,36,0*60
$GPGSV,3,3,11,23,44,046,36,25,88,024,36,27,02,221,,0*51
$BDGSV,1,1,00,0*74

$GNRMC,001920.00,A,3127.999958,N,12118.000004,E,0.013,,200720,,,A,V*1E
$GNGGA,001920.00,3127.999958,N,12118.000004,E,1,08,1.10,40.3,M,9.5,M,,*4E
$GNGSA,A,3,02,23,25,13,04,20,08,07,,,,,2.11,1.10,1.81,1*04
$GNGSA,A,3,,,,,,,,,,,,,2.11,1.10,1.81,4*0E
$GPGSV,3,1,11,01,14,121,35,02,20,310,35,04,45,271,36,07,70,20
9,36,0*69
$GPGSV,3,2,11,08,29,214,35,13,60,002,36,16,12,052,35,20,40,121,36,0*61
$GPGSV,3,3,11,23,44,046,36,25,88,024,36,27,02,221,,0*51
$BDGSV,1,1,00,0*74

$GNRMC,001921.00,A,3127.999951,N,12118.000010,E,0.011,,200720,,,A,V*11
$GNGGA,001921.00,3127.999951,N,12118.000010,E,1,08,1.10,40.3,M,9.5,M,,*43
$GNGSA,A,3,02,23,25,13,04,20,08,07,,,,,2.11,1.10,1.81,1*04
$GNGSA,A,3,,,,,,,,,,,,,2.11,1.10,1.81,4*0E
$GPGSV,3,1,11,01,14,121,35,02,20,310,35,04,45,271,36,07,70,20
9,36,0*69
$GPGSV,3,2,11,08,29,214,35,13,60,002,36,16,12,052,34,20,40,121,36,0*60
$GPGSV,3,3,11,23,44,046,36,25,88,024,36,27,02,221,,0*51
$BDGSV,1,1,00,0*74

$GNRMC,001922.00,A,3127.999954,N,12118.000010,E,0.018,,200720,,,A,V*1E
$GNGGA,001922.00,3127.999954,N,12118.000010,E,1,08,1.10,40.3,M,9.5,M,,*45
$GNGSA,A,3,02,23,25,13,04,20,08,07,,,,,2.11,1.10,1.81,1*04
$GNGSA,A,3,,,,,,,,,,,,,2.11,1.10,1.81,4*0E
$GPGSV,3,1,11,01,14,121,35,02,20,310,35,04,45,271,36,07,70,20
9,36,0*69
$GPGSV,3,2,11,08,29,214,35,13,60,002,36,16,12,052,35,20,40,121,36,0*61
$GPGSV,3,3,11,23,44,046,36,25,88,024,36,27,02,221,,0*51
$BDGSV,1,1,00,0*74

$GNRMC,001923.00,A,3127.999953,N,12118.000007,E,0.011,,200720,,,A,V*17
$GNGGA,001923.00,3127.999953,N,12118.000007,E,1,08,1.10,40.3,M,9.5,M,,*45
$GNGSA,A,3,02,23,25,13,04,20,08,07,,,,,2.11,1.10,1.81,1*04
$GNGSA,A,3,,,,,,,,,,,,,2.11,1.10,1.81,4*0E
$GPGSV,3,1,11,01,14,121,35,02,20,310,35,04,45,271,36,07,70,20
9,36,0*69
$GPGSV,3,2,11,08,29,214,35,13,60,002,36,16,12,052,35,20,40,121,36,0*61
$GPGSV,3,3,11,23,44,046,36,25,88,024,36,27,02,221,,0*51
$BDGSV,1,1,00,0*74

<????sim??????(SIM??:1)>
<????GSM????????(GSM:0)>
<????GPRS????????(GPRS:0)>
<????????????(SIGNAL:0)>
<????????????????(BER:0)>

<??????????????>

$GNRMC,001924.00,A,3127.999949,N,12118.000007,E,0.015,,200720,,,A,V*1F
$GNGGA,001924.00,3127.999949,N,12118.000007,E,1,08,1.10,40.3,M,9.5,M,,*49
$GNGSA,A,3,02,23,25,13,04,20,08,07,,,,,2.11,1.10,1.81,1*04
$GNGSA,A,3,,,,,,,,,,,,,2.11,1.10,1.81,4*0E
$GPGSV,3,1,11,01,14,121,35,02,20,310,35,04,45,271,36,07,70,20
9,36,0*69
$GPGSV,3,2,11,08,29,214,35,13,60,002,36,16,12,052,35,20,39,122,36,0*6C
$GPGSV,3,3,11,23,44,046,36,25,88,024,36,27,02,221,,0*51
$BDGSV,1,1,00,0*74


GPS HPregnss> E1 15 00 00 00 00 07 53 8F 37 58 00 00 00 1C 3E 0B 1D 74 00 00 00 00 


$GNRMC,001925.00,A,3127.999946,N,12118.000002,E,0.002,,200720,,,A,V*12
$GNGGA,001925.00,3127.999946,N,12118.000002,E,1,08,1.10,40.3,M,9.5,M,,*42
$GNGSA,A,3,02,23,25,13,04,20,08,07,,,,,2.11,1.10,1.81,1*04
$GNGSA,A,3,,,,,,,,,,,,,2.11,1.10,1.81,4*0E
$GPGSV,3,1,11,01,14,121,35,02,20,310,35,04,45,271,36,07,70,20
9,36,0*69
$GPGSV,3,2,11,08,29,214,35,13,60,002,36,16,12,052,35,20,39,122,36,0*6C
$GPGSV,3,3,11,23,43,047,36,25,88,024,36,27,02,221,,0*57
$BDGSV,1,1,00,0*74

$GNRMC,001926.00,A,3127.999947,N,12118.000003,E,0.015,,200720,,,A,V*17
$GNGGA,001926.00,3127.999947,N,12118.000003,E,1,08,1.10,40.2,M,9.5,M,,*40
$GNGSA,A,3,02,23,25,13,04,20,08,07,,,,,2.11,1.10,1.81,1*04
$GNGSA,A,3,,,,,,,,,,,,,2.11,1.10,1.81,4*0E
$GPGSV,3,1,11,01,14,121,35,02,20,310,35,04,45,271,36,07,70,20
9,36,0*69
$GPGSV,3,2,11,08,29,214,35,13,60,002,36,16,12,052,35,20,39,122,36,0*6C
$GPGSV,3,3,11,23,43,047,36,25,87,024,36,27,02,221,,0*58
$BDGSV,1,1,00,0*74

$GNRMC,001927.00,A,3127.999943,N,12118.000008,E,0.013,,200720,,,A,V*1F
$GNGGA,001927.00,3127.999943,N,12118.000008,E,1,08,1.10,40.2,M,9.5,M,,*4E
$GNGSA,A,3,02,23,25,13,04,20,08,07,,,,,2.11,1.10,1.81,1*04
$GNGSA,A,3,,,,,,,,,,,,,2.11,1.10,1.81,4*0E
$GPGSV,3,1,11,01,14,121,35,02,20,310,35,04,45,271,36,07,70,20
9,36,0*69
$GPGSV,3,2,11,08,29,214,35,13,60,002,36,16,12,052,35,20,39,122,36,0*6C
$GPGSV,3,3,11,23,43,047,36,25,87,024,36,27,02,221,,0*58
$BDGSV,1,1,00,0*74

$GNRMC,001928.00,A,3127.999940,N,12118.000008,E,0.006,,200720,,,A,V*17
$GNGGA,001928.00,3127.999940,N,12118.000008,E,1,08,1.10,40.2,M,9.5,M,,*42
$GNGSA,A,3,02,23,25,13,04,20,08,07,,,,,2.11,1.10,1.81,1*04
$GNGSA,A,3,,,,,,,,,,,,,2.11,1.10,1.81,4*0E
$GPGSV,3,1,11,01,14,121,35,02,20,310,35,04,45,271,36,07,70,20
9,36,0*69
$GPGSV,3,2,11,08,29,214,35,13,60,002,36,16,12,052,35,20,39,122,36,0*6C
$GPGSV,3,3,11,23,43,047,36,25,87,024,36,27,02,222,,0*5B
$BDGSV,1,1,00,0*74

$GNRMC,001929.00,A,3127.999934,N,12118.000013,E,0.017,,200720,,,A,V*1F
$GNGGA,001929.00,3127.999934,N,12118.000013,E,1,08,1.10,40.2,M,9.5,M,,*4A
$GNGSA,A,3,02,23,25,13,04,20,08,07,,,,,2.11,1.10,1.81,1*04
$GNGSA,A,3,,,,,,,,,,,,,2.11,1.10,1.81,4*0E
$GPGSV,3,1,11,01,14,121,35,02,20,310,35,04,45,271,35,07,70,20
9,36,0*6A
$GPGSV,3,2,11,08,29,214,35,13,60,002,36,16,12,052,35,20,39,122,36,0*6C
$GPGSV,3,3,11,23,43,047,36,25,87,024,36,27,02,222,,0*5B
$BDGSV,1,1,00,0*74

$GNRMC,001930.00,A,3127.999938,N,12118.000023,E,0.021,,200720,,,A,V*1D
$GNGGA,001930.00,3127.999938,N,12118.000023,E,1,08,1.10,40.1,M,9.5,M,,*4E
$GNGSA,A,3,02,23,25,13,04,20,08,07,,,,,2.11,1.10,1.81,1*04
$GNGSA,A,3,,,,,,,,,,,,,2.11,1.10,1.81,4*0E
$GPGSV,3,1,11,01,14,121,35,02,20,310,35,04,45,271,35,07,70,20
9,36,0*6A
$GPGSV,3,2,11,08,29,214,35,13,60,002,36,16,12,052,35,20,39,122,36,0*6C
$GPGSV,3,3,11,23,43,047,36,25,87,024,36,27,02,222,,0*5B
$BDGSV,1,1,00,0*74

$GNRMC,001931.00,A,3127.999944,N,12118.000024,E,0.014,,200720,,,A,V*16
$GNGGA,001931.00,3127.999944,N,12118.000024,E,1,08,1.10,40.1,M,9.5,M,,*43
$GNGSA,A,3,02,23,25,13,04,20,08,07,,,,,2.11,1.10,1.81,1*04
$GNGSA,A,3,,,,,,,,,,,,,2.11,1.10,1.81,4*0E
$GPGSV,3,1,11,01,14,121,35,02,20,310,35,04,45,271,36,07,70,20
9,36,0*69
$GPGSV,3,2,11,08,29,214,35,13,60,002,36,16,12,052,34,20,39,122,36,0*6D
$GPGSV,3,3,11,23,43,047,36,25,87,024,36,27,02,222,,0*5B
$BDGSV,1,1,00,0*74

$GNRMC,001932.00,A,3127.999947,N,12118.000026,E,0.006,,200720,,,A,V*17
$GNGGA,001932.00,3127.999947,N,12118.000026,E,1,08,1.10,40.1,M,9.5,M,,*41
$GNGSA,A,3,02,23,25,13,04,20,08,07,,,,,2.11,1.10,1.81,1*04
$GNGSA,A,3,,,,,,,,,,,,,2.11,1.10,1.81,4*0E
$GPGSV,3,1,11,01,14,121,35,02,20,310,35,04,45,271,36,07,70,20
9,36,0*69
$GPGSV,3,2,11,08,29,214,35,13,60,002,36,16,12,052,34,20,39,122,35,0*6E
$GPGSV,3,3,11,23,43,047,35,25,87,024,36,27,02,222,,0*58
$BDGSV,1,1,00,0*74

$GNRMC,001933.00,A,3127.999946,N,12118.000025,E,0.005,,200720,,,A,V*17
$GNGGA,001933.00,3127.999946,N,12118.000025,E,1,08,1.10,40.1,M,9.5,M,,*42
$GNGSA,A,3,02,23,25,13,04,20,08,07,,,,,2.11,1.10,1.81,1*04
$GNGSA,A,3,,,,,,,,,,,,,2.11,1.10,1.81,4*0E
$GPGSV,3,1,11,01,14,121,35,02,20,310,35,04,45,271,35,07,70,20
9,36,0*6A
$GPGSV,3,2,11,08,29,214,35,13,60,002,36,16,12,052,35,20,39,122,36,0*6C
$GPGSV,3,3,11,23,43,047,35,25,87,024,36,27,02,222,,0*58
$BDGSV,1,1,00,0*74

<??????????????>

$GNRMC,001934.00,A,3127.999944,N,12118.000022,E,0.006,,200720,,,A,V*16
$GNGGA,001934.00,3127.999944,N,12118.000022,E,1,08,1.10,40.1,M,9.5,M,,*40
$GNGSA,A,3,02,23,25,13,04,20,08,07,,,,,2.11,1.10,1.81,1*04
$GNGSA,A,3,,,,,,,,,,,,,2.11,1.10,1.81,4*0E
$GPGSV,3,1,11,01,14,121,35,02,20,310,35,04,45,271,36,07,70,20
9,36,0*69
$GPGSV,3,2,11,08,29,214,35,13,60,002,36,16,12,052,34,20,39,122,36,0*6D
$GPGSV,3,3,11,23,43,047,36,25,87,024,36,27,02,222,,0*5B
$BDGSV,1,1,00,0*74

$GNRMC,001935.00,A,3127.999944,N,12118.000022,E,0.019,,200720,,,A,V*19
$GNGGA,001935.00,3127.999944,N,12118.000022,E,1,08,1.10,40.0,M,9.5,M,,*40
$GNGSA,A,3,02,23,25,13,04,20,08,07,,,,,2.11,1.10,1.81,1*04
$GNGSA,A,3,,,,,,,,,,,,,2.11,1.10,1.81,4*0E
$GPGSV,3,1,11,01,14,121,35,02,20,310,35,04,45,271,36,07,70,20
9,36,0*69
$GPGSV,3,2,11,08,29,214,35,13,60,002,36,16,12,052,35,20,39,122,36,0*6C
$GPGSV,3,3,11,23,43,047,36,25,87,024,36,27,02,222,,0*5B
$BDGSV,1,1,00,0*74

$GNRMC,001936.00,A,3127.999949,N,12118.000025,E,0.010,,200720,,,A,V*19
$GNGGA,001936.00,3127.999949,N,12118.000025,E,1,08,1.10,40.0,M,9.5,M,,*49
$GNGSA,A,3,02,23,25,13,04,20,08,07,,,,,2.11,1.10,1.81,1*04
$GNGSA,A,3,,,,,,,,,,,,,2.11,1.10,1.81,4*0E
$GPGSV,3,1,11,01,14,121,35,02,20,310,35,04,45,271,36,07,70,20
9,36,0*69
$GPGSV,3,2,11,08,29,214,35,13,60,002,36,16,12,052,35,20,39,122,36,0*6C
$GPGSV,3,3,11,23,43,047,36,25,87,024,36,27,02,222,,0*5B
$BDGSV,1,1,00,0*74

$GNRMC,001937.00,A,3127.999951,N,12118.000027,E,0.012,,200720,,,A,V*11
$GNGGA,001937.00,3127.999951,N,12118.000027,E,1,08,1.10,40.0,M,9.5,M,,*43
$GNGSA,A,3,02,23,25,13,04,20,08,07,,,,,2.11,1.10,1.81,1*04
$GNGSA,A,3,,,,,,,,,,,,,2.11,1.10,1.81,4*0E
$GPGSV,3,1,11,01,14,121,35,02,20,310,35,04,45,271,36,07,70,20
9,36,0*69
$GPGSV,3,2,11,08,29,214,35,13,60,002,36,16,12,052,35,20,39,122,36,0*6C
$GPGSV,3,3,11,23,43,047,36,25,87,024,36,27,02,222,,0*5B
$BDGSV,1,1,00,0*74

$GNRMC,001938.00,A,3127.999954,N,12118.000023,E,0.049,,200720,,,A,V*11
$GNGGA,001938.00,3127.999954,N,12118.000023,E,1,08,1.10,40.0,M,9.5,M,,*4D
$GNGSA,A,3,02,23,25,13,04,20,08,07,,,,,2.11,1.10,1.81,1*04
$GNGSA,A,3,,,,,,,,,,,,,2.11,1.10,1.81,4*0E
$GPGSV,3,1,11,01,14,121,35,02,20,310,35,04,45,271,36,07,70,20
9,36,0*69
$GPGSV,3,2,11,08,29,214,35,13,60,002,36,16,12,052,35,20,39,122,36,0*6C
$GPGSV,3,3,11,23,43,047,36,25,87,024,36,27,02,222,,0*5B
$BDGSV,1,1,00,0*74

$GNRMC,001939.00,A,3127.999954,N,12118.000025,E,0.042,,200720,,,A,V*1D
$GNGGA,001939.00,3127.999954,N,12118.000025,E,1,08,1.10,40.1,M,9.5,M,,*4B
$GNGSA,A,3,02,23,25,13,04,20,08,07,,,,,2.11,1.10,1.81,1*04
$GNGSA,A,3,,,,,,,,,,,,,2.11,1.10,1.81,4*0E
$GPGSV,3,1,11,01,14,121,35,02,20,310,35,04,45,271,36,07,70,20
9,36,0*69
$GPGSV,3,2,11,08,29,214,35,13,60,002,36,16,12,052,35,20,39,122,36,0*6C
$GPGSV,3,3,11,23,43,047,36,25,87,024,36,27,02,222,,0*5B
$BDGSV,1,1,00,0*74

$GNRMC,001940.00,A,3127.999950,N,12118.000026,E,0.019,,200720,,,A,V*1A
$GNGGA,001940.00,3127.999950,N,12118.000026,E,1,08,1.10,40.1,M,9.5,M,,*42
$GNGSA,A,3,02,23,25,13,04,20,08,07,,,,,2.11,1.10,1.81,1*04
$GNGSA,A,3,,,,,,,,,,,,,2.11,1.10,1.81,4*0E
$GPGSV,3,1,11,01,14,121,35,02,20,310,35,04,45,271,35,07,70,20
9,36,0*6A
$GPGSV,3,2,11,08,29,214,35,13,60,002,36,16,12,052,35,20,39,122,36,0*6C
$GPGSV,3,3,11,23,43,047,36,25,87,024,36,27,02,222,,0*5B
$BDGSV,1,1,00,0*74

$GNRMC,001941.00,A,3127.999944,N,12118.000021,E,0.009,,200720,,,A,V*18
$GNGGA,001941.00,3127.999944,N,12118.000021,E,1,08,1.10,40.1,M,9.5,M,,*41
$GNGSA,A,3,02,23,25,13,04,20,08,07,,,,,2.11,1.10,1.81,1*04
$GNGSA,A,3,,,,,,,,,,,,,2.11,1.10,1.81,4*0E
$GPGSV,3,1,11,01,14,121,35,02,20,310,35,04,45,271,36,07,70,20
9,36,0*69
$GPGSV,3,2,11,08,29,214,35,13,60,002,36,16,12,052,34,20,39,122,36,0*6D
$GPGSV,3,3,11,23,43,047,36,25,87,024,36,27,02,222,,0*5B
$BDGSV,1,1,00,0*74

$GNRMC,001942.00,A,3127.999934,N,12118.000019,E,0.028,,200720,,,A,V*14
$GNGGA,001942.00,3127.999934,N,12118.000019,E,1,08,1.10,40.1,M,9.5,M,,*4E
$GNGSA,A,3,02,23,25,13,04,20,08,07,,,,,2.11,1.10,1.81,1*04
$GNGSA,A,3,,,,,,,,,,,,,2.11,1.10,1.81,4*0E
$GPGSV,3,1,11,01,14,121,35,02,20,310,34,04,45,271,36,07,70,20
9,36,0*68
$GPGSV,3,2,11,08,29,214,35,13,60,002,36,16,12,052,35,20,39,122,36,0*6C
$GPGSV,3,3,11,23,43,047,36,25,87,024,36,27,02,222,,0*5B
$BDGSV,1,1,00,0*74

$GNRMC,001943.00,A,3127.999934,N,12118.000014,E,0.019,,200720,,,A,V*1A
$GNGGA,001943.00,3127.999934,N,12118.000014,E,1,08,1.10,40.1,M,9.5,M,,*42
$GNGSA,A,3,02,23,25,13,04,20,08,07,,,,,2.11,1.10,1.81,1*04
$GNGSA,A,3,,,,,,,,,,,,,2.11,1.10,1.81,4*0E
$GPGSV,3,1,11,01,14,121,35,02,20,310,35,04,45,271,36,07,70,21
0,36,0*61
$GPGSV,3,2,11,08,29,214,35,13,60,002,36,16,12,052,35,20,39,122,36,0*6C
$GPGSV,3,3,11,23,43,047,36,25,87,024,36,27,02,222,,0*5B
$BDGSV,1,1,00,0*74

<????sim??????(SIM??:1)>
<????GSM????????(GSM:0)>
<????GPRS????????(GPRS:0)>
<????????????(SIGNAL:0)>
<????????????????(BER:0)>

<??????????????>

$GNRMC,001944.00,A,3127.999933,N,12118.000007,E,0.014,,200720,,,A,V*15
$GNGGA,001944.00,3127.999933,N,12118.000007,E,1,08,1.10,40.1,M,9.5,M,,*40
$GNGSA,A,3,02,23,25,13,04,20,08,07,,,,,2.11,1.10,1.81,1*04
$GNGSA,A,3,,,,,,,,,,,,,2.11,1.10,1.81,4*0E
$GPGSV,3,1,11,01,14,121,35,02,20,310,35,04,45,271,35,07,70,21
0,36,0*62
$GPGSV,3,2,11,08,29,214,35,13,60,002,36,16,12,052,35,20,39,122,36,0*6C
$GPGSV,3,3,11,23,43,047,36,25,87,024,36,27,02,222,,0*5B
$BDGSV,1,1,00,0*74

$GNRMC,001945.00,A,3127.999930,N,12118.000003,E,0.012,,200720,,,A,V*15
$GNGGA,001945.00,3127.999930,N,12118.000003,E,1,08,1.10,40.1,M,9.5,M,,*46
$GNGSA,A,3,02,23,25,13,04,20,08,07,,,,,2.11,1.10,1.81,1*04
$GNGSA,A,3,,,,,,,,,,,,,2.11,1.10,1.81,4*0E
$GPGSV,3,1,11,01,14,121,35,02,20,310,35,04,45,271,36,07,70,21
0,36,0*61
$GPGSV,3,2,11,08,29,214,35,13,60,002,36,16,12,052,35,20,39,122,36,0*6C
$GPGSV,3,3,11,23,43,047,36,25,87,024,36,27,02,222,,0*5B
$BDGSV,1,1,00,0*74

$GNRMC,001946.00,A,3127.999926,N,12118.000001,E,0.006,,200720,,,A,V*16
$GNGGA,001946.00,3127.999926,N,12118.000001,E,1,08,1.10,40.2,M,9.5,M,,*43
$GNGSA,A,3,02,23,25,13,04,20,08,07,,,,,2.11,1.10,1.81,1*04
$GNGSA,A,3,,,,,,,,,,,,,2.11,1.10,1.81,4*0E
$GPGSV,3,1,11,01,14,121,35,02,20,310,35,04,45,271,35,07,70,21
0,36,0*62
$GPGSV,3,2,11,08,29,214,35,13,60,002,36,16,12,052,35,20,39,122,36,0*6C
$GPGSV,3,3,11,23,43,047,36,25,87,024,36,27,02,222,,0*5B
$BDGSV,1,1,00,0*74

$GNRMC,001947.00,A,3127.999919,N,12118.000007,E,0.016,,200720,,,A,V*1C
$GNGGA,001947.00,3127.999919,N,12118.000007,E,1,08,1.10,40.2,M,9.5,M,,*48
$GNGSA,A,3,02,23,25,13,04,20,08,07,,,,,2.11,1.10,1.81,1*04
$GNGSA,A,3,,,,,,,,,,,,,2.11,1.10,1.81,4*0E
$GPGSV,3,1,11,01,14,121,35,02,20,310,35,04,45,271,36,07,70,21
0,36,0*61
$GPGSV,3,2,11,08,29,214,35,13,60,002,36,16,12,052,35,20,39,122,36,0*6C
$GPGSV,3,3,11,23,43,047,36,25,87,024,36,27,02,222,,0*5B
$BDGSV,1,1,00,0*74

$GNRMC,001948.00,A,3127.999910,N,12118.000009,E,0.012,,200720,,,A,V*10
$GNGGA,001948.00,3127.999910,N,12118.000009,E,1,08,1.10,40.2,M,9.5,M,,*40
$GNGSA,A,3,02,23,25,13,04,20,08,07,,,,,2.11,1.10,1.81,1*04
$GNGSA,A,3,,,,,,,,,,,,,2.11,1.10,1.81,4*0E
$GPGSV,3,1,11,01,14,121,35,02,20,310,35,04,45,271,36,07,70,21
0,36,0*61
$GPGSV,3,2,11,08,29,214,35,13,60,002,36,16,12,052,35,20,39,122,36,0*6C
$GPGSV,3,3,11,23,43,047,36,25,87,024,36,27,02,222,,0*5B
$BDGSV,1,1,00,0*74

$GNRMC,001949.00,A,3127.999907,N,12118.000010,E,0.024,,200720,,,A,V*1A
$GNGGA,001949.00,3127.999907,N,12118.000010,E,1,08,1.10,40.2,M,9.5,M,,*4F
$GNGSA,A,3,02,23,25,13,04,20,08,07,,,,,2.11,1.10,1.81,1*04
$GNGSA,A,3,,,,,,,,,,,,,2.11,1.10,1.81,4*0E
$GPGSV,3,1,11,01,14,121,35,02,20,310,35,04,45,271,36,07,70,21
0,36,0*61
$GPGSV,3,2,11,08,29,214,35,13,60,003,36,16,12,052,35,20,39,122,36,0*6D
$GPGSV,3,3,11,23,43,047,36,25,87,024,36,27,02,222,,0*5B
$BDGSV,1,1,00,0*74

$GNRMC,001950.00,A,3127.999899,N,12118.000010,E,0.022,,200720,,,A,V*12
$GNGGA,001950.00,3127.999899,N,12118.000010,E,1,08,1.10,40.2,M,9.5,M,,*41
$GNGSA,A,3,02,23,25,13,04,20,08,07,,,,,2.11,1.10,1.81,1*04
$GNGSA,A,3,,,,,,,,,,,,,2.11,1.10,1.81,4*0E
$GPGSV,3,1,11,01,14,121,35,02,20,310,35,04,45,271,36,07,70,21
0,36,0*61
$GPGSV,3,2,11,08,29,214,35,13,60,003,36,16,12,052,34,20,39,122,36,0*6C
$GPGSV,3,3,11,23,43,047,36,25,87,024,36,27,02,222,,0*5B
$BDGSV,1,1,00,0*74

$GNRMC,001951.00,A,3127.999897,N,12118.000007,E,0.017,,200720,,,A,V*1D
$GNGGA,001951.00,3127.999897,N,12118.000007,E,1,08,1.10,40.2,M,9.5,M,,*48
$GNGSA,A,3,02,23,25,13,04,20,08,07,,,,,2.11,1.10,1.81,1*04
$GNGSA,A,3,,,,,,,,,,,,,2.11,1.10,1.81,4*0E
$GPGSV,3,1,11,01,14,121,35,02,20,310,35,04,45,271,36,07,70,21
0,36,0*61
$GPGSV,3,2,11,08,29,214,35,13,60,003,36,16,12,052,35,20,39,122,36,0*6D
$GPGSV,3,3,11,23,43,047,36,25,87,024,36,27,02,222,,0*5B
$BDGSV,1,1,00,0*74

$GNRMC,001952.00,A,3127.999894,N,12118.000010,E,0.021,,200720,,,A,V*1E
$GNGGA,001952.00,3127.999894,N,12118.000010,E,1,08,1.10,40.2,M,9.5,M,,*4E
$GNGSA,A,3,02,23,25,13,04,20,08,07,,,,,2.11,1.10,1.81,1*04
$GNGSA,A,3,,,,,,,,,,,,,2.11,1.10,1.81,4*0E
$GPGSV,3,1,11,01,14,121,35,02,20,310,35,04,45,271,36,07,70,21
0,36,0*61
$GPGSV,3,2,11,08,29,214,35,13,60,003,36,16,12,052,35,20,39,122,36,0*6D
$GPGSV,3,3,11,23,43,047,36,25,87,024,36,27,02,222,,0*5B
$BDGSV,1,1,00,0*74

$GNRMC,001953.00,A,3127.999898,N,12118.000012,E,0.027,,200720,,,A,V*17
$GNGGA,001953.00,3127.999898,N,12118.000012,E,1,08,1.10,40.2,M,9.5,M,,*41
$GNGSA,A,3,02,23,25,13,04,20,08,07,,,,,2.11,1.10,1.81,1*04
$GNGSA,A,3,,,,,,,,,,,,,2.11,1.10,1.81,4*0E
$GPGSV,3,1,11,01,14,121,35,02,20,310,35,04,45,271,36,07,70,21
0,36,0*61
$GPGSV,3,2,11,08,29,214,35,13,60,003,36,16,12,052,35,20,39,122,36,0*6D
$GPGSV,3,3,11,23,43,047,36,25,87,024,36,27,02,222,,0*5B
$BDGSV,1,1,00,0*74

<??????????????>

$GNRMC,001954.00,A,3127.999901,N,12118.000013,E,0.024,,200720,,,A,V*13
$GNGGA,001954.00,3127.999901,N,12118.000013,E,1,08,1.10,40.2,M,9.5,M,,*46
$GNGSA,A,3,02,23,25,13,04,20,08,07,,,,,2.11,1.10,1.81,1*04
$GNGSA,A,3,,,,,,,,,,,,,2.11,1.10,1.81,4*0E
$GPGSV,3,1,11,01,14,121,35,02,20,310,35,04,45,271,36,07,70,21
0,36,0*61
$GPGSV,3,2,11,08,29,214,35,13,60,003,36,16,12,052,35,20,39,122,36,0*6D
$GPGSV,3,3,11,23,43,047,36,25,87,024,36,27,02,222,,0*5B
$BDGSV,1,1,00,0*74


GPS HPregnss> E1 15 00 00 00 00 07 53 8F 34 38 00 00 00 1C 3E 0B 1D D8 00 00 00 00 


$GNRMC,001955.00,A,3127.999906,N,12118.000016,E,0.011,,200720,,,A,V*16
$GNGGA,001955.00,3127.999906,N,12118.000016,E,1,08,1.10,40.3,M,9.5,M,,*44
$GNGSA,A,3,02,23,25,13,04,20,08,07,,,,,2.11,1.10,1.81,1*04
$GNGSA,A,3,,,,,,,,,,,,,2.11,1.10,1.81,4*0E
$GPGSV,3,1,11,01,14,121,35,02,20,310,35,04,45,271,36,07,70,21
0,36,0*61
$GPGSV,3,2,11,08,29,214,35,13,60,003,36,16,12,052,35,20,39,122,36,0*6D
$GPGSV,3,3,11,23,43,047,36,25,87,024,36,27,02,222,,0*5B
$BDGSV,1,1,00,0*74

$GNRMC,001956.00,A,3127.999908,N,12118.000023,E,0.011,,200720,,,A,V*1D
$GNGGA,001956.00,3127.999908,N,12118.000023,E,1,08,1.10,40.3,M,9.5,M,,*4F
$GNGSA,A,3,02,23,25,13,04,20,08,07,,,,,2.11,1.10,1.81,1*04
$GNGSA,A,3,,,,,,,,,,,,,2.11,1.10,1.81,4*0E
$GPGSV,3,1,11,01,14,121,35,02,20,310,35,04,45,271,36,07,70,21
0,36,0*61
$GPGSV,3,2,11,08,29,214,35,13,60,003,36,16,12,052,35,20,39,122,36,0*6D
$GPGSV,3,3,11,23,43,047,36,25,87,024,36,27,02,222,,0*5B
$BDGSV,1,1,00,0*74

$GNRMC,001957.00,A,3127.999908,N,12118.000022,E,0.007,,200720,,,A,V*1A
$GNGGA,001957.00,3127.999908,N,12118.000022,E,1,08,1.10,40.3,M,9.5,M,,*4F
$GNGSA,A,3,02,23,25,13,04,20,08,07,,,,,2.11,1.10,1.81,1*04
$GNGSA,A,3,,,,,,,,,,,,,2.11,1.10,1.81,4*0E
$GPGSV,3,1,11,01,14,121,35,02,20,310,34,04,45,271,36,07,70,21
0,36,0*60
$GPGSV,3,2,11,08,29,214,35,13,60,003,36,16,12,052,35,20,39,122,36,0*6D
$GPGSV,3,3,11,23,43,047,36,25,87,024,36,27,02,222,,0*5B
$BDGSV,1,1,00,0*74

$GNRMC,001958.00,A,3127.999910,N,12118.000030,E,0.013,,200720,,,A,V*1A
$GNGGA,001958.00,3127.999910,N,12118.000030,E,1,08,1.10,40.3,M,9.5,M,,*4A
$GNGSA,A,3,02,23,25,13,04,20,08,07,,,,,2.11,1.10,1.81,1*04
$GNGSA,A,3,,,,,,,,,,,,,2.11,1.10,1.81,4*0E
$GPGSV,3,1,11,01,14,121,35,02,20,310,35,04,45,271,36,07,70,21
0,36,0*61
$GPGSV,3,2,11,08,29,214,35,13,60,003,36,16,12,052,35,20,39,122,36,0*6D
$GPGSV,3,3,11,23,43,047,36,25,87,024,36,27,02,222,,0*5B
$BDGSV,1,1,00,0*74

$GNRMC,001959.00,A,3127.999908,N,12118.000032,E,0.009,,200720,,,A,V*1B
$GNGGA,001959.00,3127.999908,N,12118.000032,E,1,08,1.10,40.3,M,9.5,M,,*40
$GNGSA,A,3,02,23,25,13,04,20,08,07,,,,,2.12,1.10,1.81,1*07
$GNGSA,A,3,,,,,,,,,,,,,2.12,1.10,1.81,4*0D
$GPGSV,3,1,11,01,14,121,35,02,20,310,35,04,45,271,36,07,70,21
0,36,0*61
$GPGSV,3,2,11,08,29,214,35,13,60,003,36,16,12,052,35,20,39,122,36,0*6D
$GPGSV,3,3,11,23,43,047,36,25,87,024,36,27,02,222,,0*5B
$BDGSV,1,1,00,0*74

$GNRMC,002000.00,A,3127.999910,N,12118.000032,E,0.003,,200720,,,A,V*1E
$GNGGA,002000.00,3127.999910,N,12118.000032,E,1,08,1.10,40.4,M,9.5,M,,*48
$GNGSA,A,3,02,23,25,13,04,20,08,07,,,,,2.12,1.10,1.81,1*07
$GNGSA,A,3,,,,,,,,,,,,,2.12,1.10,1.81,4*0D
$GPGSV,3,1,11,01,14,121,35,02,20,310,35,04,45,271,36,07,70,21
0,36,0*61
$GPGSV,3,2,11,08,29,214,35,13,60,003,36,16,12,052,35,20,39,122,36,0*6D
$GPGSV,3,3,11,23,43,047,36,25,87,024,36,27,02,222,,0*5B
$BDGSV,1,1,00,0*74

$GNRMC,002001.00,A,3127.999913,N,12118.000035,E,0.018,,200720,,,A,V*11
$GNGGA,002001.00,3127.999913,N,12118.000035,E,1,08,1.10,40.4,M,9.5,M,,*4D
$GNGSA,A,3,02,23,25,13,04,20,08,07,,,,,2.12,1.10,1.81,1*07
$GNGSA,A,3,,,,,,,,,,,,,2.12,1.10,1.81,4*0D
$GPGSV,3,1,11,01,14,121,35,02,20,310,35,04,45,271,35,07,70,21
0,36,0*62
$GPGSV,3,2,11,08,29,214,35,13,60,003,36,16,12,052,34,20,39,122,36,0*6C
$GPGSV,3,3,11,23,43,047,36,25,87,024,36,27,02,222,,0*5B
$BDGSV,1,1,00,0*74

$GNRMC,002002.00,A,3127.999915,N,12118.000035,E,0.004,,200720,,,A,V*19
$GNGGA,002002.00,3127.999915,N,12118.000035,E,1,08,1.10,40.4,M,9.5,M,,*48
$GNGSA,A,3,02,23,25,13,04,20,08,07,,,,,2.12,1.10,1.81,1*07
$GNGSA,A,3,,,,,,,,,,,,,2.12,1.10,1.81,4*0D
$GPGSV,3,1,11,01,14,121,35,02,20,310,35,04,45,271,35,07,70,21
0,36,0*62
$GPGSV,3,2,11,08,29,214,35,13,60,003,36,16,12,052,34,20,39,122,36,0*6C
$GPGSV,3,3,11,23,43,047,36,25,87,024,36,27,02,222,,0*5B
$BDGSV,1,1,00,0*74

$GNRMC,002003.00,A,3127.999919,N,12118.000039,E,0.010,,200720,,,A,V*1D
$GNGGA,002003.00,3127.999919,N,12118.000039,E,1,08,1.10,40.4,M,9.5,M,,*49
$GNGSA,A,3,02,23,25,13,04,20,08,07,,,,,2.12,1.10,1.81,1*07
$GNGSA,A,3,,,,,,,,,,,,,2.12,1.10,1.81,4*0D
$GPGSV,3,1,11,01,14,121,35,02,20,310,35,04,45,271,36,07,70,21
0,36,0*61
$GPGSV,3,2,11,08,29,214,35,13,60,003,36,16,12,052,35,20,39,122,36,0*6D
$GPGSV,3,3,11,23,43,047,36,25,87,024,36,27,02,222,,0*5B
$BDGSV,1,1,00,0*74

<????sim??????(SIM??:1)>
<????GSM????????(GSM:0)>
<????GPRS????????(GPRS:0)>
<????????????(SIGNAL:0)>
<????????????????(BER:0)>

<??????????????>

$GNRMC,002004.00,A,3127.999917,N,12118.000039,E,0.007,,200720,,,A,V*12
$GNGGA,002004.00,3127.999917,N,12118.000039,E,1,08,1.10,40.4,M,9.5,M,,*40
$GNGSA,A,3,02,23,25,13,04,20,08,07,,,,,2.12,1.10,1.81,1*07
$GNGSA,A,3,,,,,,,,,,,,,2.12,1.10,1.81,4*0D
$GPGSV,3,1,11,01,14,121,35,02,20,310,35,04,45,271,36,07,70,21
0,36,0*61
$GPGSV,3,2,11,08,29,214,35,13,60,003,36,16,12,052,35,20,39,122,36,0*6D
$GPGSV,3,3,11,23,43,047,36,25,87,024,36,27,02,222,,0*5B
$BDGSV,1,1,00,0*74

$GNRMC,002005.00,A,3127.999915,N,12118.000039,E,0.005,,200720,,,A,V*13
$GNGGA,002005.00,3127.999915,N,12118.000039,E,1,08,1.10,40.4,M,9.5,M,,*43
$GNGSA,A,3,02,23,25,13,04,20,08,07,,,,,2.12,1.10,1.81,1*07
$GNGSA,A,3,,,,,,,,,,,,,2.12,1.10,1.81,4*0D
$GPGSV,3,1,11,01,14,121,35,02,20,310,35,04,45,271,36,07,70,21
0,36,0*61
$GPGSV,3,2,11,08,29,214,35,13,60,003,36,16,12,052,35,20,39,122,36,0*6D
$GPGSV,3,3,11,23,43,047,36,25,87,024,36,27,02,222,,0*5B
$BDGSV,1,1,00,0*74

$GNRMC,002006.00,A,3127.999919,N,12118.000040,E,0.023,,200720,,,A,V*16
$GNGGA,002006.00,3127.999919,N,12118.000040,E,1,08,1.10,40.5,M,9.5,M,,*43
$GNGSA,A,3,02,23,25,13,04,20,08,07,,,,,2.12,1.10,1.81,1*07
$GNGSA,A,3,,,,,,,,,,,,,2.12,1.10,1.81,4*0D
$GPGSV,3,1,11,01,14,121,35,02,20,310,35,04,45,271,36,07,70,21
0,36,0*61
$GPGSV,3,2,11,08,29,214,35,13,60,003,36,16,12,052,35,20,39,122,36,0*6D
$GPGSV,3,3,11,23,43,047,36,25,87,024,36,27,02,222,,0*5B
$BDGSV,1,1,00,0*74

$GNRMC,002007.00,A,3127.999916,N,12118.000037,E,0.002,,200720,,,A,V*1B
$GNGGA,002007.00,3127.999916,N,12118.000037,E,1,08,1.10,40.5,M,9.5,M,,*4D
$GNGSA,A,3,02,23,25,13,04,20,08,07,,,,,2.12,1.10,1.81,1*07
$GNGSA,A,3,,,,,,,,,,,,,2.12,1.10,1.81,4*0D
$GPGSV,3,1,11,01,14,121,35,02,20,310,35,04,45,271,36,07,70,21
0,36,0*61
$GPGSV,3,2,11,08,29,214,35,13,60,003,36,16,12,052,35,20,39,122,36,0*6D
$GPGSV,3,3,11,23,43,047,36,25,87,024,36,27,02,222,,0*5B
$BDGSV,1,1,00,0*74

$GNRMC,002008.00,A,3127.999912,N,12118.000033,E,0.025,,200720,,,A,V*11
$GNGGA,002008.00,3127.999912,N,12118.000033,E,1,08,1.10,40.5,M,9.5,M,,*42
$GNGSA,A,3,02,23,25,13,04,20,08,07,,,,,2.12,1.10,1.81,1*07
$GNGSA,A,3,,,,,,,,,,,,,2.12,1.10,1.81,4*0D
$GPGSV,3,1,11,01,14,121,35,02,20,310,35,04,45,271,36,07,70,21
0,36,0*61
$GPGSV,3,2,11,08,29,214,35,13,60,003,36,16,12,052,35,20,39,122,36,0*6D
$GPGSV,3,3,11,23,43,047,36,25,87,024,36,27,02,222,,0*5B
$BDGSV,1,1,00,0*74

$GNRMC,002009.00,A,3127.999910,N,12118.000027,E,0.039,,200720,,,A,V*1A
$GNGGA,002009.00,3127.999910,N,12118.000027,E,1,08,1.10,40.5,M,9.5,M,,*44
$GNGSA,A,3,02,23,25,13,04,20,08,07,,,,,2.12,1.10,1.81,1*07
$GNGSA,A,3,,,,,,,,,,,,,2.12,1.10,1.81,4*0D
$GPGSV,3,1,11,01,14,121,35,02,20,310,35,04,45,271,36,07,70,21
0,36,0*61
$GPGSV,3,2,11,08,29,214,35,13,60,003,36,16,12,052,35,20,39,122,36,0*6D
$GPGSV,3,3,11,23,43,047,36,25,87,024,36,27,02,222,,0*5B
$BDGSV,1,1,00,0*74

$GNRMC,002010.00,A,3127.999916,N,12118.000021,E,0.047,,200720,,,A,V*1B
$GNGGA,002010.00,3127.999916,N,12118.000021,E,1,08,1.10,40.5,M,9.5,M,,*4C
$GNGSA,A,3,02,23,25,13,04,20,08,07,,,,,2.12,1.10,1.81,1*07
$GNGSA,A,3,,,,,,,,,,,,,2.12,1.10,1.81,4*0D
$GPGSV,3,1,11,01,14,121,35,02,21,310,35,04,45,271,36,07,70,21
0,36,0*60
$GPGSV,3,2,11,08,29,214,35,13,60,003,36,16,12,052,35,20,39,122,36,0*6D
$GPGSV,3,3,11,23,43,047,36,25,87,024,36,27,02,222,,0*5B
$BDGSV,1,1,00,0*74

$GNRMC,002011.00,A,3127.999919,N,12118.000016,E,0.006,,200720,,,A,V*14
$GNGGA,002011.00,3127.999919,N,12118.000016,E,1,08,1.10,40.5,M,9.5,M,,*46
$GNGSA,A,3,02,23,25,13,04,20,08,07,,,,,2.12,1.10,1.81,1*07
$GNGSA,A,3,,,,,,,,,,,,,2.12,1.10,1.81,4*0D
$GPGSV,3,1,11,01,14,121,35,02,21,310,35,04,45,271,36,07,70,21
0,36,0*60
$GPGSV,3,2,11,08,29,214,35,13,60,003,36,16,12,052,35,20,39,122,36,0*6D
$GPGSV,3,3,11,23,43,047,36,25,87,024,36,27,02,222,,0*5B
$BDGSV,1,1,00,0*74

$GNRMC,002012.00,A,3127.999928,N,12118.000010,E,0.014,,200720,,,A,V*10
$GNGGA,002012.00,3127.999928,N,12118.000010,E,1,08,1.10,40.5,M,9.5,M,,*41
$GNGSA,A,3,02,23,25,13,04,20,08,07,,,,,2.12,1.10,1.81,1*07
$GNGSA,A,3,,,,,,,,,,,,,2.12,1.10,1.81,4*0D
$GPGSV,3,1,11,01,14,121,35,02,21,310,35,04,45,270,36,07,70,21
0,36,0*61
$GPGSV,3,2,11,08,29,214,35,13,60,003,36,16,12,052,35,20,39,122,36,0*6D
$GPGSV,3,3,11,23,43,047,36,25,87,024,36,27,02,222,,0*5B
$BDGSV,1,1,00,0*74

$GNRMC,002013.00,A,3127.999931,N,12118.000010,E,0.033,,200720,,,A,V*1C
$GNGGA,002013.00,3127.999931,N,12118.000010,E,1,08,1.10,40.5,M,9.5,M,,*48
$GNGSA,A,3,02,23,25,13,04,20,08,07,,,,,2.12,1.10,1.81,1*07
$GNGSA,A,3,,,,,,,,,,,,,2.12,1.10,1.81,4*0D
$GPGSV,3,1,11,01,14,121,35,02,21,310,35,04,45,270,36,07,70,21
0,36,0*61
$GPGSV,3,2,11,08,29,214,35,13,60,003,36,16,12,052,35,20,39,122,36,0*6D
$GPGSV,3,3,11,23,43,047,36,25,87,024,36,27,02,222,,0*5B
$BDGSV,1,1,00,0*74

<??????????????>

$GNRMC,002014.00,A,3127.999932,N,12118.000009,E,0.022,,200720,,,A,V*10
$GNGGA,002014.00,3127.999932,N,12118.000009,E,1,08,1.10,40.5,M,9.5,M,,*44
$GNGSA,A,3,02,23,25,13,04,20,08,07,,,,,2.12,1.10,1.81,1*07
$GNGSA,A,3,,,,,,,,,,,,,2.12,1.10,1.81,4*0D
$GPGSV,3,1,11,01,14,121,35,02,21,310,35,04,45,270,36,07,70,21
0,36,0*61
$GPGSV,3,2,11,08,29,214,35,13,60,003,36,16,12,052,35,20,39,122,36,0*6D
$GPGSV,3,3,11,23,43,047,36,25,87,024,36,27,02,222,,0*5B
$BDGSV,1,1,00,0*74

$GNRMC,002015.00,A,3127.999935,N,12118.000003,E,0.004,,200720,,,A,V*18
$GNGGA,002015.00,3127.999935,N,12118.000003,E,1,08,1.10,40.5,M,9.5,M,,*48
$GNGSA,A,3,02,23,25,13,04,20,08,07,,,,,2.12,1.10,1.81,1*07
$GNGSA,A,3,,,,,,,,,,,,,2.12,1.10,1.81,4*0D
$GPGSV,3,1,11,01,14,121,35,02,21,310,35,04,45,270,36,07,70,21
0,36,0*61
$GPGSV,3,2,11,08,29,214,35,13,60,003,36,16,12,052,35,20,39,122,36,0*6D
$GPGSV,3,3,11,23,43,047,36,25,87,024,36,27,02,222,,0*5B
$BDGSV,1,1,00,0*74

$GNRMC,002016.00,A,3127.999938,N,12117.999998,E,0.016,,200720,,,A,V*18
$GNGGA,002016.00,3127.999938,N,12117.999998,E,1,08,1.10,40.5,M,9.5,M,,*4B
$GNGSA,A,3,02,23,25,13,04,20,08,07,,,,,2.12,1.10,1.81,1*07
$GNGSA,A,3,,,,,,,,,,,,,2.12,1.10,1.81,4*0D
$GPGSV,3,1,11,01,14,121,35,02,21,310,35,04,45,270,36,07,70,21
0,36,0*61
$GPGSV,3,2,11,08,29,214,35,13,60,003,36,16,12,052,35,20,39,122,36,0*6D
$GPGSV,3,3,11,23,43,047,36,25,87,024,36,27,02,222,,0*5B
$BDGSV,1,1,00,0*74

$GNRMC,002017.00,A,3127.999940,N,12117.999998,E,0.022,,200720,,,A,V*11
$GNGGA,002017.00,3127.999940,N,12117.999998,E,1,08,1.10,40.5,M,9.5,M,,*45
$GNGSA,A,3,02,23,25,13,04,20,08,07,,,,,2.12,1.10,1.81,1*07
$GNGSA,A,3,,,,,,,,,,,,,2.12,1.10,1.81,4*0D
$GPGSV,3,1,11,01,14,121,35,02,21,310,35,04,45,270,36,07,70,21
0,36,0*61
$GPGSV,3,2,11,08,29,214,35,13,60,003,36,16,12,052,35,20,39,122,36,0*6D
$GPGSV,3,3,11,23,43,047,36,25,87,024,36,27,02,222,,0*5B
$BDGSV,1,1,00,0*74

$GNRMC,002018.00,A,3127.999937,N,12117.999991,E,0.002,,200720,,,A,V*15
$GNGGA,002018.00,3127.999937,N,12117.999991,E,1,08,1.10,40.5,M,9.5,M,,*43
$GNGSA,A,3,02,23,25,13,04,20,08,07,,,,,2.12,1.10,1.81,1*07
$GNGSA,A,3,,,,,,,,,,,,,2.12,1.10,1.81,4*0D
$GPGSV,3,1,11,01,14,121,35,02,21,310,35,04,45,270,35,07,70,21
0,36,0*62
$GPGSV,3,2,11,08,29,214,35,13,60,003,36,16,12,052,35,20,39,122,36,0*6D
$GPGSV,3,3,11,23,43,047,36,25,87,024,36,27,02,222,,0*5B
$BDGSV,1,1,00,0*74

$GNRMC,002019.00,A,3127.999934,N,12117.999990,E,0.017,,200720,,,A,V*12
$GNGGA,002019.00,3127.999934,N,12117.999990,E,1,08,1.10,40.5,M,9.5,M,,*40
$GNGSA,A,3,02,23,25,13,04,20,08,07,,,,,2.12,1.10,1.81,1*07
$GNGSA,A,3,,,,,,,,,,,,,2.12,1.10,1.81,4*0D
$GPGSV,3,1,11,01,14,121,35,02,21,310,35,04,45,270,36,07,70,21
0,36,0*61
$GPGSV,3,2,11,08,29,214,35,13,60,003,36,16,12,052,34,20,39,122,36,0*6C
$GPGSV,3,3,11,23,43,047,36,25,87,024,36,27,02,222,,0*5B
$BDGSV,1,1,00,0*74

$GNRMC,002020.00,A,3127.999926,N,12117.999983,E,0.001,,200720,,,A,V*1E
$GNGGA,002020.00,3127.999926,N,12117.999983,E,1,08,1.10,40.5,M,9.5,M,,*4B
$GNGSA,A,3,02,23,25,13,04,20,08,07,,,,,2.12,1.10,1.81,1*07
$GNGSA,A,3,,,,,,,,,,,,,2.12,1.10,1.81,4*0D
$GPGSV,3,1,11,01,14,121,35,02,21,310,35,04,45,270,36,07,70,21
0,36,0*61
$GPGSV,3,2,11,08,29,214,35,13,60,003,36,16,12,052,34,20,39,122,36,0*6C
$GPGSV,3,3,11,23,43,047,36,25,87,024,36,27,02,222,,0*5B
$BDGSV,1,1,00,0*74

$GNRMC,002021.00,A,3127.999920,N,12117.999978,E,0.006,,200720,,,A,V*1A
$GNGGA,002021.00,3127.999920,N,12117.999978,E,1,08,1.10,40.4,M,9.5,M,,*49
$GNGSA,A,3,02,23,25,13,04,20,08,07,,,,,2.12,1.10,1.81,1*07
$GNGSA,A,3,,,,,,,,,,,,,2.12,1.10,1.81,4*0D
$GPGSV,3,1,11,01,14,121,35,02,21,310,35,04,45,270,36,07,70,21
0,36,0*61
$GPGSV,3,2,11,08,29,214,35,13,60,003,36,16,12,052,34,20,39,122,36,0*6C
$GPGSV,3,3,11,23,43,047,36,25,87,024,36,27,02,222,,0*5B
$BDGSV,1,1,00,0*74

$GNRMC,002022.00,A,3127.999913,N,12117.999975,E,0.015,,200720,,,A,V*16
$GNGGA,002022.00,3127.999913,N,12117.999975,E,1,08,1.10,40.4,M,9.5,M,,*47
$GNGSA,A,3,02,23,25,13,04,20,08,07,,,,,2.12,1.10,1.81,1*07
$GNGSA,A,3,,,,,,,,,,,,,2.12,1.10,1.81,4*0D
$GPGSV,3,1,11,01,14,121,35,02,21,310,35,04,45,270,36,07,70,21
0,36,0*61
$GPGSV,3,2,11,08,29,214,35,13,60,003,36,16,12,052,35,20,39,122,36,0*6D
$GPGSV,3,3,11,23,43,047,36,25,87,024,36,27,02,222,,0*5B
$BDGSV,1,1,00,0*74

$GNRMC,002023.00,A,3127.999908,N,12117.999975,E,0.019,,200720,,,A,V*11
$GNGGA,002023.00,3127.999908,N,12117.999975,E,1,08,1.10,40.4,M,9.5,M,,*4C
$GNGSA,A,3,02,23,25,13,04,20,08,07,,,,,2.12,1.10,1.81,1*07
$GNGSA,A,3,,,,,,,,,,,,,2.12,1.10,1.81,4*0D
$GPGSV,3,1,11,01,14,121,35,02,21,310,35,04,45,270,36,07,70,21
0,36,0*61
$GPGSV,3,2,11,08,29,214,35,13,60,003,36,16,12,052,35,20,39,122,35,0*6E
$GPGSV,3,3,11,23,43,047,36,25,87,024,36,27,02,222,,0*5B
$BDGSV,1,1,00,0*74

<????GSM????>
<assertion failed:file(dal_gsm_drv.c), line(164), rsttype(2), errid(-1)>

<????sim??????(SIM??:1)>
<????GSM????????(GSM:0)>
<????GPRS????????(GPRS:0)>
<????????????(SIGNAL:0)>
<????????????????(BER:0)>

<??????????????>

 
                                                  
                                                  
                                                      
                                                  
                                                          
                                                    
                                  
<DAL_TTS_InitDrv>
<DAL_InitGsmDrv>
YX_QXWZ_InitLink
<DAL_GPRS_Apply(1)>
<??????????????>
<YX_InstallVectorDetect s_vector[0].handler:0xf02903e9, tag:0>
<VtStatusClear[id :0]

??????????(488)=????(452)+????(36)+????(0)

No.0:time14 07 14 08 14 17 ,file(dal_gsm_drv.c),line(164),errid(ffffffff),mem_peak(
76032)
No.1:time14 07 14 08 08 3A ,file(dal_gsm_drv.c),line(164),errid(ffffffff),mem_peak(76032)
No.2:time14 07 14 08 06 28 ,file(dal_gsm_drv.c),line(164),errid(ffffffff),mem_peak(76032)
No.3:time14 07 14 08 00 2F ,file(dal_gsm_drv.c),line(164),errid(ffffffff),mem_peak(76032)
No.4:time14 07 06 0F 16 34 ,file(YX_ResetCnt.c),line(305),errid(fff0),mem_peak(71424)
No.5:time14 07 06 0F 16 34 ,file(dal_gsm_drv.c),line(164),errid(ffffffff),mem_peak(76032)
No.6:time14 07 06 0F 0B 1C ,file(dal_gsm_drv.c),line(164),err
id(ffffffff),mem_peak(76032)
No.7:time13 0B 05 0A 31 15 ,file(YX_ResetCnt.c),line(305),errid(fff0),mem_peak(71424)
No.8:time13 0B 05 0A 31 15 ,file(YX_ResetCnt.c),line(305),errid(fff0),mem_peak(71424)
No.9:time13 0B 05 0A 31 15 ,file(YX_ResetCnt.c),line(305),errid(fff0),mem_peak(71424)
????????????????????:172
<gps_main_begin!!>

????????!!!!!!!!!!!!!!

<---VTRTRG id:[0], isnight:[0], curvector:[0], limit:[100], pre:[95]>

<---VTRTRG id:[0], isnight:[0], curvector:[0], limit:[100], pre:[95]>

<Hdl_MSG_GSMCORE_PSReady>

$GNRMC,,V,,,,,,,,,,N,V*37
$GNGGA,,,,,,0,00,99.9,,,,,,*6F
$GNGSA,A,1,,,,,,,,,,,,,99.9,99.9,99.9,1*0A
$GNGSA,A,1,,,,,,,,,,,,,99.9,99.9,99.9,4*0F
$GPGSV,1,1,00,0*65
$BDGSV,1,1,00,0*74

<---VTRTRG id:[0], isnight:[0], curvector:[0], limit:[100], pre:[95]>

$GNRMC,,V,,,,,,,,,,N,V*37
$GNGGA,,,,,,0,00,99.9,,,,,,*6F
$GNGSA,A,1,,,,,,,,,,,,,99.9,99.9,99.9,1*0A
$GNGSA,A,1,,,,,,,,,,,,,99.9,99.9,99.9,4*0F
$GPGSV,1,1,00,0*65
$BDGSV,1,1,00,0*74

$GNRMC,,V,,,,,,,,,,N,V*37
$GNGGA,,,,,,0,00,99.9,,,,,,*6F
$GNGSA,A,1,,,,,,,,,,,,,99.9,99.9,99.9,1*0A
$GNGSA,A,1,,,,,,,,,,,,,99.9,99.9,99.9,4*0F
$GPGSV,1,1,04,01,,,34,04,,,35,07,,,36,13,,,33,0*65
$BDGSV,1,1,00,0*74

<---VTRTRG id:[0], isnight:[0], curvector:[0], limit:[100], pre:[95]>

$GNRMC,,V,,,,,,,,,,N,V*37
$GNGGA,,,,,,0,00,99.9,,,,,,*6F
$GNGSA,A,1,,,,,,,,,,,,,99.9,99.9,99.9,1*0A
$GNGSA,A,1,,,,,,,,,,,,,99.9,99.9,99.9,4*0F
$GPGSV,1,1,04,01,,,34,04,,,36,07,,,36,13,,,36,0*63
$BDGSV,1,1,00,0*74

$GNRMC,,V,,,,,,,,,,N,V*37
$GNGGA,,,,,,0,00,99.9,,,,,,*6F
$GNGSA,A,1,,,,,,,,,,,,,99.9,99.9,99.9,1*0A
$GNGSA,A,1,,,,,,,,,,,,,99.9,99.9,99.9,4*0F
$GPGSV,2,1,06,01,,,35,04,,,36,07,,,36,13,,,36,0*63
$GPGSV,2,2,06,23,,,36,25,,,37,0*64
$BDGSV,1,1,00,0*74

<??????????????>
<---VTRTRG id:[0], isnight:[0], curvector:[0], limit:[100], pre:[95]>

$GNRMC,,V,,,,,,,,,,N,V*37
$GNGGA,,,,,,0,00,99.9,,,,,,*6F
$GNGSA,A,1,,,,,,,,,,,,,99.9,99.9,99.9,1*0A
$GNGSA,A,1,,,,,,,,,,,,,99.9,99.9,99.9,4*0F
$GPGSV,2,1,06,01,,,35,04,,,36,07,,,36,13,,,36,0*63
$GPGSV,2,2,06,23,,,36,25,,,36,0*65
$BDGSV,1,1,00,0*74

$GNRMC,,V,,,,,,,,,,N,V*37
$GNGGA,,,,,,0,00,99.9,,,,,,*6F
$GNGSA,A,1,,,,,,,,,,,,,99.9,99.9,99.9,1*0A
$GNGSA,A,1,,,,,,,,,,,,,99.9,99.9,99.9,4*0F
$GPGSV,2,1,06,01,,,35,04,,,36,07,,,36,13,,,36,0*63
$GPGSV,2,2,06,23,,,36,25,,,37,0*64
$BDGSV,1,1,00,0*74

$GNRMC,,V,,,,,,,,,,N,V*37
$GNGGA,,,,,,0,00,99.9,,,,,,*6F
$GNGSA,A,1,,,,,,,,,,,,,99.9,99.9,99.9,1*0A
$GNGSA,A,1,,,,,,,,,,,,,99.9,99.9,99.9,4*0F
$GPGSV,1,1,00,0*65
$BDGSV,1,1,00,0*74
????????!!!!!!!!!!!!!!

$GNRMC,,V,,,,,,,,,,N,V*37
$GNGGA,,,,,,0,00,99.9,,,,,,*6F
$GNGSA,A,1,,,,,,,,,,,,,99.9,99.9,99.9,1*0A
$GNGSA,A,1,,,,,,,,,,,,,99.9,99.9,99.9,4*0F
$GPGSV,1,1,00,0*65
$BDGSV,1,1,00,0*74

$GNRMC,,V,,,,,,,,,,N,V*37
$GNGGA,,,,,,0,00,99.9,,,,,,*6F
$GNGSA,A,1,,,,,,,,,,,,,99.9,99.9,99.9,1*0A
$GNGSA,A,1,,,,,,,,,,,,,99.9,99.9,99.9,4*0F
$GPGSV,1,1,01,07,,,35,0*65
$BDGSV,1,1,00,0*74

$GNRMC,,V,,,,,,,,,,N,V*37
$GNGGA,,,,,,0,00,99.9,,,,,,*6F
$GNGSA,A,1,,,,,,,,,,,,,99.9,99.9,99.9,1*0A
$GNGSA,A,1,,,,,,,,,,,,,99.9,99.9,99.9,4*0F
$GPGSV,1,1,04,01,,,33,04,,,34,07,,,35,20,,,34,0*67
$BDGSV,1,1,00,0*74

$GNRMC,,V,,,,,,,,,,N,V*37
$GNGGA,,,,,,0,00,99.9,,,,,,*6F
$GNGSA,A,1,,,,,,,,,,,,,99.9,99.9,99.9,1*0A
$GNGSA,A,1,,,,,,,,,,,,,99.9,99.9,99.9,4*0F
$GPGSV,2,1,05,01,,,34,04,,,35,07,,,36,13,,,36,0*62
$GPGSV,2,2,05,20,,,35,0*64
$BDGSV,1,1,00,0*74

$GNRMC,,V,,,,,,,,,,N,V*37
$GNGGA,,,,,,0,00,99.9,,,,,,*6F
$GNGSA,A,1,,,,,,,,,,,,,99.9,99.9,99.9,1*0A
$GNGSA,A,1,,,,,,,,,,,,,99.9,99.9,99.9,4*0F
$GPGSV,2,1,05,01,,,35,04,,,35,07,,,36,13,,,36,0*63
$GPGSV,2,2,05,20,,,35,0*64
$BDGSV,1,1,00,0*74

$GNRMC,,V,,,,,,,,,,N,V*37
$GNGGA,,,,,,0,00,99.9,,,,,,*6F
$GNGSA,A,1,,,,,,,,,,,,,99.9,99.9,99.9,1*0A
$GNGSA,A,1,,,,,,,,,,,,,99.9,99.9,99.9,4*0F
$GPGSV,2,1,05,01,,,35,04,,,35,07,,,36,13,,,36,0*63
$GPGSV,2,2,05,20,,,35,0*64
$BDGSV,1,1,00,0*74

$GNRMC,,V,,,,,,,,,,N,V*37
$GNGGA,,,,,,0,00,99.9,,,,,,*6F
$GNGSA,A,1,,,,,,,,,,,,,99.9,99.9,99.9,1*0A
$GNGSA,A,1,,,,,,,,,,,,,99.9,99.9,99.9,4*0F
$GPGSV,2,1,06,01,,,35,04,,,35,07,,,36,13,,,36,0*60
$GPGSV,2,2,06,20,,,36,23,,,35,0*63
$BDGSV,1,1,00,0*74

$GNRMC,002144.76,V,,,,,,,,,,N,V*1B
$GNGGA,002144.76,,,,,0,00,99.9,,,,,,*43
$GNGSA,A,1,,,,,,,,,,,,,99.9,99.9,99.9,1*0A
$GNGSA,A,1,,,,,,,,,,,,,99.9,99.9,99.9,4*0F
$GPGSV,2,1,07,01,,,35,04,,,35,07,,,36,13,,,36,0*61
$GPGSV,2,2,07,20,,,35,23,,,35,25,,,35,0*60
$BDGSV,1,1,00,0*74

<????sim??????(SIM??:1)>
<??????sim??>
<????GSM????????(GSM:5)>
<????GPRS????????(GPRS:0)>
<????????????(SIGNAL:0)>
<????????????????(BER:0)>

<??????????????>
<detect SIM card>

$GNRMC,002145.00,V,,,,,,,,,,N,V*1B
$GNGGA,002145.00,,,,,0,00,99.9,,,,,,*43
$GNGSA,A,1,,,,,,,,,,,,,99.9,99.9,99.9,1*0A
$GNGSA,A,1,,,,,,,,,,,,,99.9,99.9,99.9,4*0F
$GPGSV,2,1,07,01,,,35,04,,,35,07,,,36,13,,,36,0*61
$GPGSV,2,2,07,20,,,35,23,,,35,25,,,35,0*60
$BDGSV,1,1,00,0*74

$GNRMC,002146.00,V,,,,,,,,,,N,V*18
$GNGGA,002146.00,,,,,0,00,99.9,,,,,,*40
$GNGSA,A,1,,,,,,,,,,,,,99.9,99.9,99.9,1*0A
$GNGSA,A,1,,,,,,,,,,,,,99.9,99.9,99.9,4*0F
$GPGSV,2,1,08,01,,,35,04,,,35,07,,,36,13,,,36,0*6E
$GPGSV,2,2,08,16,,,24,20,,,36,23,,,35,25,,,36,0*6E
$BDGSV,1,1,00,0*74

$GNRMC,002147.00,V,,,,,,,,,,N,V*19
$GNGGA,002147.00,,,,,0,00,99.9,,,,,,*41
$GNGSA,A,1,,,,,,,,,,,,,99.9,99.9,99.9,1*0A
$GNGSA,A,1,,,,,,,,,,,,,99.9,99.9,99.9,4*0F
$GPGSV,2,1,08,01,,,35,04,,,35,07,,,36,13,,,36,0*6E
$GPGSV,2,2,08,16,,,34,20,,,35,23,,,35,25,,,36,0*6C
$BDGSV,1,1,00,0*74

$GNRMC,002148.00,V,,,,,,,,,,N,V*16
$GNGGA,002148.00,,,,,0,00,99.9,,,,,,*4E
$GNGSA,A,1,,,,,,,,,,,,,99.9,99.9,99.9,1*0A
$GNGSA,A,1,,,,,,,,,,,,,99.9,99.9,99.9,4*0F
$GPGSV,2,1,08,01,,,34,04,,,35,07,,,36,13,,,36,0*6F
$GPGSV,2,2,08,16,,,34,20,,,35,23,,,36,25,,,36,0*6F
$BDGSV,1,1,00,0*74

$GNRMC,002149.00,V,,,,,,,,,,N,V*17
$GNGGA,002149.00,,,,,0,00,99.9,,,,,,*4F
$GNGSA,A,1,,,,,,,,,,,,,99.9,99.9,99.9,1*0A
$GNGSA,A,1,,,,,,,,,,,,,99.9,99.9,99.9,4*0F
$GPGSV,2,1,08,01,,,35,04,,,35,07,,,36,13,,,36,0*6E
$GPGSV,2,2,08,16,,,34,20,,,35,23,,,35,25,,,36,0*6C
$BDGSV,1,1,00,0*74

$GNRMC,002150.00,V,,,,,,,200720,,,N,V*18
$GNGGA,002150.00,,,,,0,00,99.9,,,,,,*47
$GNGSA,A,1,,,,,,,,,,,,,99.9,99.9,99.9,1*0A
$GNGSA,A,1,,,,,,,,,,,,,99.9,99.9,99.9,4*0F
$GPGSV,2,1,08,01,,,35,04,,,35,07,,,36,13,,,36,0*6E
$GPGSV,2,2,08,16,,,34,20,,,35,23,,,35,25,,,36,0*6C
$BDGSV,1,1,00,0*74

$GNRMC,002151.00,V,,,,,,,200720,,,N,V*19
$GNGGA,002151.00,,,,,0,00,99.9,,,,,,*46
$GNGSA,A,1,,,,,,,,,,,,,99.9,99.9,99.9,1*0A
$GNGSA,A,1,,,,,,,,,,,,,99.9,99.9,99.9,4*0F
$GPGSV,2,1,08,01,,,35,04,,,35,07,,,36,13,,,36,0*6E
$GPGSV,2,2,08,16,,,34,20,,,35,23,,,35,25,,,36,0*6C
$BDGSV,1,1,00,0*74

$GNRMC,002152.00,V,,,,,,,200720,,,N,V*1A
$GNGGA,002152.00,,,,,0,00,99.9,,,,,,*45
$GNGSA,A,1,,,,,,,,,,,,,99.9,99.9,99.9,1*0A
$GNGSA,A,1,,,,,,,,,,,,,99.9,99.9,99.9,4*0F
$GPGSV,2,1,08,01,,,35,04,,,35,07,,,36,13,,,36,0*6E
$GPGSV,2,2,08,16,,,34,20,,,35,23,,,35,25,,,36,0*6C
$BDGSV,1,1,00,0*74

$GNRMC,002153.00,V,,,,,,,200720,,,N,V*1B
$GNGGA,002153.00,,,,,0,00,99.9,,,,,,*44
$GNGSA,A,1,,,,,,,,,,,,,99.9,99.9,99.9,1*0A
$GNGSA,A,1,,,,,,,,,,,,,99.9,99.9,99.9,4*0F
$GPGSV,2,1,08,01,,,35,04,,,35,07,,,36,13,,,36,0*6E
$GPGSV,2,2,08,16,,,34,20,,,36,23,,,35,25,,,36,0*6F
$BDGSV,1,1,00,0*74

$GNRMC,002154.00,V,,,,,,,200720,,,N,V*1C
$GNGGA,002154.00,,,,,0,00,99.9,,,,,,*43
$GNGSA,A,1,,,,,,,,,,,,,99.9,99.9,99.9,1*0A
$GNGSA,A,1,,,,,,,,,,,,,99.9,99.9,99.9,4*0F
$GPGSV,2,1,08,01,,,35,04,,,36,07,,,36,13,,,36,0*6D
$GPGSV,2,2,08,16,,,34,20,,,36,23,,,36,25,,,36,0*6C
$BDGSV,1,1,00,0*74

<??????????????>

$GNRMC,002155.00,V,,,,,,,200720,,,N,V*1D
$GNGGA,002155.00,,,,,0,00,99.9,,,,,,*42
$GNGSA,A,1,,,,,,,,,,,,,99.9,99.9,99.9,1*0A
$GNGSA,A,1,,,,,,,,,,,,,99.9,99.9,99.9,4*0F
$GPGSV,2,1,08,01,,,35,04,,,35,07,,,36,13,,,36,0*6E
$GPGSV,2,2,08,16,,,34,20,,,36,23,,,35,25,,,36,0*6F
$BDGSV,1,1,00,0*74

$GNRMC,002156.00,V,,,,,,,200720,,,N,V*1E
$GNGGA,002156.00,,,,,0,00,99.9,,,,,,*41
$GNGSA,A,1,,,,,,,,,,,,,99.9,99.9,99.9,1*0A
$GNGSA,A,1,,,,,,,,,,,,,99.9,99.9,99.9,4*0F
$GPGSV,3,1,10,01,,,35,02,,,31,04,,,35,07,,,36,0*61
$GPGSV,3,2,10,08,,,31,13,,,36,16,,,34,20,,,36,0*6F
$GPGSV,3,3,10,23,,,36,25,,,36,0*62
$
BDGSV,1,1,00,0*74

$GNRMC,002157.00,V,,,,,,,200720,,,N,V*1F
$GNGGA,002157.00,,,,,0,00,99.9,,,,,,*40
$GNGSA,A,1,,,,,,,,,,,,,99.9,99.9,99.9,1*0A
$GNGSA,A,1,,,,,,,,,,,,,99.9,99.9,99.9,4*0F
$GPGSV,3,1,10,01,,,35,02,,,34,04,,,35,07,,,36,0*64
$GPGSV,3,2,10,08,,,34,13,,,36,16,,,34,20,,,36,0*6A
$GPGSV,3,3,10,23,,,35,25,,,36,0*61
$
BDGSV,1,1,00,0*74

$GNRMC,002158.00,V,,,,,,,200720,,,N,V*10
$GNGGA,002158.00,,,,,0,00,99.9,,,,,,*4F
$GNGSA,A,1,,,,,,,,,,,,,99.9,99.9,99.9,1*0A
$GNGSA,A,1,,,,,,,,,,,,,99.9,99.9,99.9,4*0F
$GPGSV,3,1,10,01,,,35,02,,,35,04,,,35,07,,,36,0*65
$GPGSV,3,2,10,08,,,35,13,,,36,16,,,34,20,,,35,0*68
$GPGSV,3,3,10,23,,,35,25,,,36,0*61
$
BDGSV,1,1,00,0*74

$GNRMC,002159.00,V,,,,,,,200720,,,N,V*11
$GNGGA,002159.00,,,,,0,00,99.9,,,,,,*4E
$GNGSA,A,1,,,,,,,,,,,,,99.9,99.9,99.9,1*0A
$GNGSA,A,1,,,,,,,,,,,,,99.9,99.9,99.9,4*0F
$GPGSV,3,1,10,01,,,35,02,,,35,04,,,35,07,,,36,0*65
$GPGSV,3,2,10,08,,,35,13,,,36,16,,,34,20,,,35,0*68
$GPGSV,3,3,10,23,,,35,25,,,36,0*61
$BDGSV,1,1,00,0*74

$GNRMC,002200.00,A,3128.000246,N,12118.000096,E,0.052,,200720,,,A,V*18
$GNGGA,002200.00,3128.000246,N,12118.000096,E,1,04,1.90,38.1,M,9.5,M,,*44
$GNGSA,A,3,07,04,20,13,,,,,,,,,4.67,1.90,4.26,1*0F
$GNGSA,A,3,,,,,,,,,,,,,4.67,1.90,4.26,4*09
$GPGSV,3,1,10,01,14,122,35,02,,,34,04,45,269,35,07,71,211,36,0*58
$G
PGSV,3,2,10,08,,,35,13,60,005,36,16,,,34,20,39,123,35,0*61
$GPGSV,3,3,10,23,,,35,25,,,36,0*61
$BDGSV,1,1,00,0*74

$GNRMC,002201.00,A,3128.000243,N,12118.000135,E,0.113,,200720,,,A,V*10
$GNGGA,002201.00,3128.000243,N,12118.000135,E,1,04,1.90,38.0,M,9.5,M,,*49
$GNGSA,A,3,07,04,20,13,,,,,,,,,4.67,1.90,4.26,1*0F
$GNGSA,A,3,,,,,,,,,,,,,4.67,1.90,4.26,4*09
$GPGSV,3,1,10,01,14,122,34,02,,,34,04,45,269,35,07,71,211,36,0*59
$G
PGSV,3,2,10,08,,,34,13,60,005,36,16,,,34,20,39,123,35,0*60
$GPGSV,3,3,10,23,,,35,25,,,36,0*61
$BDGSV,1,1,00,0*74

$GNRMC,002202.00,A,3128.000308,N,12118.000150,E,0.123,,200720,,,A,V*1D
$GNGGA,002202.00,3128.000308,N,12118.000150,E,1,04,1.90,38.1,M,9.5,M,,*46
$GNGSA,A,3,07,04,20,13,,,,,,,,,4.67,1.90,4.26,1*0F
$GNGSA,A,3,,,,,,,,,,,,,4.67,1.90,4.26,4*09
$GPGSV,3,1,10,01,14,122,35,02,,,34,04,45,269,35,07,71,211,36,0*58
$G
PGSV,3,2,10,08,,,35,13,60,005,36,16,,,34,20,39,123,36,0*62
$GPGSV,3,3,10,23,,,35,25,,,36,0*61
$BDGSV,1,1,00,0*74

$GNRMC,002203.00,A,3128.000312,N,12118.000145,E,0.021,,200720,,,A,V*10
$GNGGA,002203.00,3128.000312,N,12118.000145,E,1,04,1.90,38.1,M,9.5,M,,*48
$GNGSA,A,3,07,04,20,13,,,,,,,,,4.67,1.90,4.26,1*0F
$GNGSA,A,3,,,,,,,,,,,,,4.67,1.90,4.26,4*09
$GPGSV,3,1,10,01,14,122,35,02,,,35,04,45,269,35,07,71,211,36,0*59
$G
