$GNRMC,001448.00,A,3128.000064,N,12117.999828,E,0.016,,200720,,,A,V*18
$GNGGA,001448.00,3128.000064,N,12117.999828,E,1,09,0.97,40.7,M,9.5,M,,*46
$GNGSA,A,3,02,23,25,13,04,20,01,08,07,,,,1.70,0.97,1.39,1*0C
$GNGSA,A,3,,,,,,,,,,,,,1.70,0.97,1.39,4*07
$GPGSV,3,1,11,01,16,120,35,02,19,312,35,04,45,274,36,07,67,
208,36,0*60
$GPGSV,3,2,11,08,27,213,35,13,61,358,36,16,12,054,35,20,41,120,36,0*63
$GPGSV,3,3,11,23,45,044,36,25,90,092,36,27,00,221,,0*54
$BDGSV,1,1,00,0*74

$GNRMC,001449.00,A,3128.000060,N,12117.999825,E,0.018,,200720,,,A,V*1E
$GNGGA,001449.00,3128.000060,N,12117.999825,E,1,09,0.97,40.7,M,9.5,M,,*4E
$GNGSA,A,3,02,23,25,13,04,20,01,08,07,,,,1.70,0.97,1.39,1*0C
$GNGSA,A,3,,,,,,,,,,,,,1.70,0.97,1.39,4*07
$GPGSV,3,1,11,01,16,120,35,02,19,312,35,04,45,274,36,07,67,
208,36,0*60
$GPGSV,3,2,11,08,27,213,35,13,61,358,36,16,12,054,35,20,41,120,36,0*63
$GPGSV,3,3,11,23,45,044,36,25,90,092,36,27,00,221,,0*54
$BDGSV,1,1,00,0*74

$GNRMC,001450.00,A,3128.000055,N,12117.999821,E,0.014,,200720,,,A,V*18
$GNGGA,001450.00,3128.000055,N,12117.999821,E,1,09,0.97,40.7,M,9.5,M,,*44
$GNGSA,A,3,02,23,25,13,04,20,01,08,07,,,,1.70,0.97,1.39,1*0C
$GNGSA,A,3,,,,,,,,,,,,,1.70,0.97,1.39,4*07
$GPGSV,3,1,11,01,16,120,35,02,19,312,35,04,45,274,36,07,67,
208,36,0*60
$GPGSV,3,2,11,08,27,213,35,13,61,358,36,16,12,054,35,20,41,120,36,0*63
$GPGSV,3,3,11,23,45,044,36,25,90,092,36,27,00,221,,0*54
$BDGSV,1,1,00,0*74

$GNRMC,001451.00,A,3128.000050,N,12117.999818,E,0.016,,200720,,,A,V*14
$GNGGA,001451.00,3128.000050,N,12117.999818,E,1,09,0.97,40.6,M,9.5,M,,*4B
$GNGSA,A,3,02,23,25,13,04,20,01,08,07,,,,1.70,0.97,1.39,1*0C
$GNGSA,A,3,,,,,,,,,,,,,1.70,0.97,1.39,4*07
$GPGSV,3,1,11,01,16,120,35,02,19,312,35,04,45,274,36,07,67,
208,36,0*60
$GPGSV,3,2,11,08,27,213,35,13,61,358,36,16,12,054,35,20,41,120,36,0*63
$GPGSV,3,3,11,23,45,044,36,25,90,092,36,27,00,221,,0*54
$BDGSV,1,1,00,0*74

<??????????????>

$GNRMC,001452.00,A,3128.000040,N,12117.999816,E,0.005,,200720,,,A,V*1A
$GNGGA,001452.00,3128.000040,N,12117.999816,E,1,09,0.97,40.6,M,9.5,M,,*47
$GNGSA,A,3,02,23,25,13,04,20,01,08,07,,,,1.70,0.97,1.39,1*0C
$GNGSA,A,3,,,,,,,,,,,,,1.70,0.97,1.39,4*07
$GPGSV,3,1,11,01,16,120,35,02,19,312,35,04,45,274,36,07,67,
208,36,0*60
$GPGSV,3,2,11,08,27,213,35,13,61,358,36,16,12,054,34,20,41,120,36,0*62
$GPGSV,3,3,11,23,45,044,36,25,90,092,36,27,00,221,,0*54
$BDGSV,1,1,00,0*74

$GNRMC,001453.00,A,3128.000029,N,12117.999813,E,0.005,,200720,,,A,V*11
$GNGGA,001453.00,3128.000029,N,12117.999813,E,1,09,0.97,40.6,M,9.5,M,,*4C
$GNGSA,A,3,02,23,25,13,04,20,01,08,07,,,,1.70,0.97,1.39,1*0C
$GNGSA,A,3,,,,,,,,,,,,,1.70,0.97,1.39,4*07
$GPGSV,3,1,11,01,16,120,35,02,19,312,35,04,45,274,36,07,67,
208,36,0*60
$GPGSV,3,2,11,08,27,213,35,13,61,358,36,16,12,054,35,20,41,120,36,0*63
$GPGSV,3,3,11,23,45,044,36,25,90,092,36,27,00,221,,0*54
$BDGSV,1,1,00,0*74


GPS HPregnss> E1 15 00 00 00 00 07 53 8F 3C 8E 00 00 00 1C 3E 0B 10 D3 00 00 00 00 


$GNRMC,001454.00,A,3128.000025,N,12117.999807,E,0.018,,200720,,,A,V*13
$GNGGA,001454.00,3128.000025,N,12117.999807,E,1,09,0.97,40.6,M,9.5,M,,*42
$GNGSA,A,3,02,23,25,13,04,20,01,08,07,,,,1.70,0.97,1.39,1*0C
$GNGSA,A,3,,,,,,,,,,,,,1.70,0.97,1.39,4*07
$GPGSV,3,1,11,01,16,120,35,02,19,312,35,04,45,274,36,07,67,
208,36,0*60
$GPGSV,3,2,11,08,27,213,35,13,61,358,36,16,12,054,35,20,41,120,36,0*63
$GPGSV,3,3,11,23,45,044,36,25,90,092,36,27,00,221,,0*54
$BDGSV,1,1,00,0*74

$GNRMC,001455.00,A,3128.000016,N,12117.999805,E,0.011,,200720,,,A,V*19
$GNGGA,001455.00,3128.000016,N,12117.999805,E,1,09,0.97,40.6,M,9.5,M,,*41
$GNGSA,A,3,02,23,25,13,04,20,01,08,07,,,,1.70,0.97,1.39,1*0C
$GNGSA,A,3,,,,,,,,,,,,,1.70,0.97,1.39,4*07
$GPGSV,3,1,11,01,16,120,35,02,19,312,35,04,45,274,35,07,67,
208,36,0*63
$GPGSV,3,2,11,08,27,213,35,13,61,358,36,16,12,054,35,20,41,120,36,0*63
$GPGSV,3,3,11,23,45,044,36,25,90,092,36,27,00,221,,0*54
$BDGSV,1,1,00,0*74

$GNRMC,001456.00,A,3128.000007,N,12117.999795,E,0.013,,200720,,,A,V*1E
$GNGGA,001456.00,3128.000007,N,12117.999795,E,1,09,0.97,40.6,M,9.5,M,,*44
$GNGSA,A,3,02,23,25,13,04,20,01,08,07,,,,1.70,0.97,1.39,1*0C
$GNGSA,A,3,,,,,,,,,,,,,1.70,0.97,1.39,4*07
$GPGSV,3,1,11,01,16,120,35,02,19,312,35,04,45,274,36,07,67,
208,36,0*60
$GPGSV,3,2,11,08,27,213,35,13,61,358,36,16,12,054,35,20,41,120,36,0*63
$GPGSV,3,3,11,23,45,044,36,25,90,092,36,27,00,221,,0*54
$BDGSV,1,1,00,0*74

$GNRMC,001457.00,A,3127.999995,N,12117.999791,E,0.008,,200720,,,A,V*15
$GNGGA,001457.00,3127.999995,N,12117.999791,E,1,09,0.97,40.6,M,9.5,M,,*45
$GNGSA,A,3,02,23,25,13,04,20,01,08,07,,,,1.70,0.97,1.39,1*0C
$GNGSA,A,3,,,,,,,,,,,,,1.70,0.97,1.39,4*07
$GPGSV,3,1,11,01,16,120,35,02,19,312,35,04,45,274,36,07,67,
208,36,0*60
$GPGSV,3,2,11,08,27,213,35,13,61,358,36,16,12,054,35,20,41,120,36,0*63
$GPGSV,3,3,11,23,45,044,36,25,90,092,36,27,00,221,,0*54
$BDGSV,1,1,00,0*74

$GNRMC,001458.00,A,3127.999989,N,12117.999784,E,0.012,,200720,,,A,V*18
$GNGGA,001458.00,3127.999989,N,12117.999784,E,1,09,0.97,40.6,M,9.5,M,,*43
$GNGSA,A,3,02,23,25,13,04,20,01,08,07,,,,1.70,0.97,1.39,1*0C
$GNGSA,A,3,,,,,,,,,,,,,1.70,0.97,1.39,4*07
$GPGSV,3,1,11,01,16,120,35,02,19,312,35,04,45,274,36,07,67,
208,36,0*60
$GPGSV,3,2,11,08,27,213,35,13,61,358,36,16,12,054,35,20,41,120,36,0*63
$GPGSV,3,3,11,23,45,044,36,25,90,092,36,27,00,221,,0*54
$BDGSV,1,1,00,0*74

$GNRMC,001459.00,A,3127.999980,N,12117.999776,E,0.004,,200720,,,A,V*1A
$GNGGA,001459.00,3127.999980,N,12117.999776,E,1,09,0.97,40.6,M,9.5,M,,*46
$GNGSA,A,3,02,23,25,13,04,20,01,08,07,,,,1.70,0.97,1.39,1*0C
$GNGSA,A,3,,,,,,,,,,,,,1.70,0.97,1.39,4*07
$GPGSV,3,1,11,01,16,120,35,02,19,312,35,04,45,274,36,07,68,
208,36,0*6F
$GPGSV,3,2,11,08,27,213,35,13,61,358,36,16,12,054,35,20,41,120,36,0*63
$GPGSV,3,3,11,23,45,044,36,25,90,092,36,27,00,221,,0*54
$BDGSV,1,1,00,0*74

$GNRMC,001500.00,A,3127.999974,N,12117.999768,E,0.004,,200720,,,A,V*13
$GNGGA,001500.00,3127.999974,N,12117.999768,E,1,09,0.97,40.6,M,9.5,M,,*4F
$GNGSA,A,3,02,23,25,13,04,20,01,08,07,,,,1.70,0.97,1.39,1*0C
$GNGSA,A,3,,,,,,,,,,,,,1.70,0.97,1.39,4*07
$GPGSV,3,1,11,01,16,120,35,02,19,312,35,04,45,274,36,07,68,
208,36,0*6F
$GPGSV,3,2,11,08,27,213,35,13,61,358,36,16,12,054,34,20,41,120,36,0*62
$GPGSV,3,3,11,23,45,044,36,25,90,092,36,27,00,221,,0*54
$BDGSV,1,1,00,0*74

$GNRMC,001501.00,A,3127.999966,N,12117.999761,E,0.013,,200720,,,A,V*1E
$GNGGA,001501.00,3127.999966,N,12117.999761,E,1,09,0.97,40.6,M,9.5,M,,*44
$GNGSA,A,3,02,23,25,13,04,20,01,08,07,,,,1.70,0.97,1.39,1*0C
$GNGSA,A,3,,,,,,,,,,,,,1.70,0.97,1.39,4*07
$GPGSV,3,1,11,01,16,120,35,02,19,312,35,04,45,274,36,07,68,
208,36,0*6F
$GPGSV,3,2,11,08,27,213,35,13,61,358,36,16,12,054,35,20,41,120,36,0*63
$GPGSV,3,3,11,23,45,044,36,25,90,092,36,27,00,221,,0*54
$BDGSV,1,1,00,0*74

<????sim??????(SIM??:1)>
<????GSM????????(GSM:0)>
<????GPRS????????(GPRS:0)>
<????????????(SIGNAL:0)>
<????????????????(BER:0)>

<??????????????>

$GNRMC,001502.00,A,3127.999966,N,12117.999755,E,0.008,,200720,,,A,V*10
$GNGGA,001502.00,3127.999966,N,12117.999755,E,1,09,0.97,40.6,M,9.5,M,,*40
$GNGSA,A,3,02,23,25,13,04,20,01,08,07,,,,1.70,0.97,1.39,1*0C
$GNGSA,A,3,,,,,,,,,,,,,1.70,0.97,1.39,4*07
$GPGSV,3,1,11,01,16,120,35,02,19,312,35,04,45,274,36,07,68,
208,36,0*6F
$GPGSV,3,2,11,08,27,213,35,13,61,358,36,16,12,054,35,20,41,120,36,0*63
$GPGSV,3,3,11,23,45,044,36,25,90,092,36,27,00,221,,0*54
$BDGSV,1,1,00,0*74

$GNRMC,001503.00,A,3127.999965,N,12117.999753,E,0.005,,200720,,,A,V*19
$GNGGA,001503.00,3127.999965,N,12117.999753,E,1,09,0.97,40.6,M,9.5,M,,*44
$GNGSA,A,3,02,23,25,13,04,20,01,08,07,,,,1.70,0.97,1.39,1*0C
$GNGSA,A,3,,,,,,,,,,,,,1.70,0.97,1.39,4*07
$GPGSV,3,1,11,01,16,120,35,02,19,312,35,04,45,274,36,07,68,
208,36,0*6F
$GPGSV,3,2,11,08,27,213,35,13,60,359,36,16,12,054,35,20,41,120,36,0*63
$GPGSV,3,3,11,23,45,044,36,25,90,092,36,27,00,221,,0*54
$BDGSV,1,1,00,0*74

$GNRMC,001504.00,A,3127.999963,N,12117.999749,E,0.015,,200720,,,A,V*12
$GNGGA,001504.00,3127.999963,N,12117.999749,E,1,09,0.97,40.6,M,9.5,M,,*4E
$GNGSA,A,3,02,23,25,13,04,20,01,08,07,,,,1.70,0.97,1.39,1*0C
$GNGSA,A,3,,,,,,,,,,,,,1.70,0.97,1.39,4*07
$GPGSV,3,1,11,01,16,120,35,02,19,312,35,04,45,274,36,07,68,
208,36,0*6F
$GPGSV,3,2,11,08,27,213,35,13,60,359,36,16,12,054,35,20,41,120,36,0*63
$GPGSV,3,3,11,23,45,044,36,25,90,092,36,27,00,221,,0*54
$BDGSV,1,1,00,0*74

$GNRMC,001505.00,A,3127.999964,N,12117.999748,E,0.014,,200720,,,A,V*14
$GNGGA,001505.00,3127.999964,N,12117.999748,E,1,09,0.97,40.6,M,9.5,M,,*49
$GNGSA,A,3,02,23,25,13,04,20,01,08,07,,,,1.70,0.97,1.39,1*0C
$GNGSA,A,3,,,,,,,,,,,,,1.70,0.97,1.39,4*07
$GPGSV,3,1,11,01,16,120,35,02,19,312,35,04,45,274,36,07,68,
208,36,0*6F
$GPGSV,3,2,11,08,27,213,35,13,60,359,36,16,12,054,35,20,41,120,36,0*63
$GPGSV,3,3,11,23,45,044,36,25,90,092,36,27,00,221,,0*54
$BDGSV,1,1,00,0*74

$GNRMC,001506.00,A,3127.999966,N,12117.999743,E,0.017,,200720,,,A,V*1D
$GNGGA,001506.00,3127.999966,N,12117.999743,E,1,09,0.97,40.6,M,9.5,M,,*43
$GNGSA,A,3,02,23,25,13,04,20,01,08,07,,,,1.70,0.97,1.39,1*0C
$GNGSA,A,3,,,,,,,,,,,,,1.70,0.97,1.39,4*07
$GPGSV,3,1,11,01,16,120,35,02,19,312,35,04,45,274,36,07,68,
208,36,0*6F
$GPGSV,3,2,11,08,27,213,35,13,60,359,36,16,12,054,35,20,41,120,36,0*63
$GPGSV,3,3,11,23,45,045,35,25,90,092,36,27,00,221,,0*56
$BDGSV,1,1,00,0*74

$GNRMC,001507.00,A,3127.999966,N,12117.999739,E,0.003,,200720,,,A,V*14
$GNGGA,001507.00,3127.999966,N,12117.999739,E,1,09,0.97,40.6,M,9.5,M,,*4F
$GNGSA,A,3,02,23,25,13,04,20,01,08,07,,,,1.70,0.97,1.39,1*0C
$GNGSA,A,3,,,,,,,,,,,,,1.70,0.97,1.39,4*07
$GPGSV,3,1,11,01,16,120,35,02,19,312,35,04,45,274,36,07,68,
208,36,0*6F
$GPGSV,3,2,11,08,27,213,35,13,60,359,36,16,12,054,34,20,41,120,36,0*62
$GPGSV,3,3,11,23,45,045,36,25,90,057,36,27,00,221,,0*5C
$BDGSV,1,1,00,0*74

$GNRMC,001508.00,A,3127.999964,N,12117.999735,E,0.005,,200720,,,A,V*13
$GNGGA,001508.00,3127.999964,N,12117.999735,E,1,09,0.97,40.6,M,9.5,M,,*4E
$GNGSA,A,3,02,23,25,13,04,20,01,08,07,,,,1.70,0.97,1.39,1*0C
$GNGSA,A,3,,,,,,,,,,,,,1.70,0.97,1.39,4*07
$GPGSV,3,1,11,01,16,120,35,02,19,312,35,04,45,274,36,07,68,
208,36,0*6F
$GPGSV,3,2,11,08,27,213,35,13,60,359,36,16,12,054,34,20,41,120,36,0*62
$GPGSV,3,3,11,23,45,045,36,25,90,057,36,27,00,221,,0*5C
$BDGSV,1,1,00,0*74

$GNRMC,001509.00,A,3127.999969,N,12117.999732,E,0.016,,200720,,,A,V*1A
$GNGGA,001509.00,3127.999969,N,12117.999732,E,1,09,0.97,40.6,M,9.5,M,,*45
$GNGSA,A,3,02,23,25,13,04,20,01,08,07,,,,1.70,0.97,1.39,1*0C
$GNGSA,A,3,,,,,,,,,,,,,1.70,0.97,1.39,4*07
$GPGSV,3,1,11,01,16,120,35,02,19,312,35,04,45,274,36,07,68,
208,36,0*6F
$GPGSV,3,2,11,08,27,213,35,13,60,359,36,16,12,054,35,20,41,120,36,0*63
$GPGSV,3,3,11,23,45,045,36,25,90,057,36,27,00,221,,0*5C
$BDGSV,1,1,00,0*74

$GNRMC,001510.00,A,3127.999979,N,12117.999730,E,0.016,,200720,,,A,V*11
$GNGGA,001510.00,3127.999979,N,12117.999730,E,1,09,0.97,40.6,M,9.5,M,,*4E
$GNGSA,A,3,02,23,25,13,04,20,01,08,07,,,,1.70,0.97,1.39,1*0C
$GNGSA,A,3,,,,,,,,,,,,,1.70,0.97,1.39,4*07
$GPGSV,3,1,11,01,16,120,35,02,19,312,35,04,45,274,36,07,68,
208,36,0*6F
$GPGSV,3,2,11,08,27,213,35,13,60,359,36,16,12,054,34,20,41,120,36,0*62
$GPGSV,3,3,11,23,45,045,36,25,90,057,36,27,00,221,,0*5C
$BDGSV,1,1,00,0*74

$GNRMC,001511.00,A,3127.999981,N,12117.999727,E,0.003,,200720,,,A,V*15
$GNGGA,001511.00,3127.999981,N,12117.999727,E,1,09,0.97,40.6,M,9.5,M,,*4E
$GNGSA,A,3,02,23,25,13,04,20,01,08,07,,,,1.70,0.97,1.39,1*0C
$GNGSA,A,3,,,,,,,,,,,,,1.70,0.97,1.39,4*07
$GPGSV,3,1,11,01,16,120,35,02,19,312,35,04,45,274,36,07,68,
208,36,0*6F
$GPGSV,3,2,11,08,27,213,35,13,60,359,36,16,12,054,35,20,41,120,36,0*63
$GPGSV,3,3,11,23,45,045,36,25,90,057,36,27,00,221,,0*5C
$BDGSV,1,1,00,0*74

<??????????????>

$GNRMC,001512.00,A,3127.999985,N,12117.999728,E,0.007,,200720,,,A,V*19
$GNGGA,001512.00,3127.999985,N,12117.999728,E,1,09,0.97,40.6,M,9.5,M,,*46
$GNGSA,A,3,02,23,25,13,04,20,01,08,07,,,,1.70,0.97,1.39,1*0C
$GNGSA,A,3,,,,,,,,,,,,,1.70,0.97,1.39,4*07
$GPGSV,3,1,11,01,16,120,35,02,19,312,35,04,45,274,36,07,68,
208,36,0*6F
$GPGSV,3,2,11,08,27,213,35,13,60,359,36,16,12,054,35,20,41,120,36,0*63
$GPGSV,3,3,11,23,45,045,36,25,90,057,36,27,00,221,,0*5C
$BDGSV,1,1,00,0*74

$GNRMC,001513.00,A,3127.999988,N,12117.999724,E,0.007,,200720,,,A,V*19
$GNGGA,001513.00,3127.999988,N,12117.999724,E,1,09,0.97,40.6,M,9.5,M,,*46
$GNGSA,A,3,02,23,25,13,04,20,01,08,07,,,,1.70,0.97,1.39,1*0C
$GNGSA,A,3,,,,,,,,,,,,,1.70,0.97,1.39,4*07
$GPGSV,3,1,11,01,16,120,35,02,19,312,35,04,45,274,36,07,68,
208,36,0*6F
$GPGSV,3,2,11,08,27,213,35,13,60,359,36,16,12,054,35,20,41,120,36,0*63
$GPGSV,3,3,11,23,45,045,36,25,90,057,36,27,00,221,,0*5C
$BDGSV,1,1,00,0*74

$GNRMC,001514.00,A,3127.999989,N,12117.999722,E,0.007,,200720,,,A,V*19
$GNGGA,001514.00,3127.999989,N,12117.999722,E,1,09,0.97,40.6,M,9.5,M,,*46
$GNGSA,A,3,02,23,25,13,04,20,01,08,07,,,,1.70,0.97,1.39,1*0C
$GNGSA,A,3,,,,,,,,,,,,,1.70,0.97,1.39,4*07
$GPGSV,3,1,11,01,16,120,35,02,19,312,35,04,45,274,36,07,68,
208,36,0*6F
$GPGSV,3,2,11,08,27,213,35,13,60,359,36,16,12,054,35,20,41,120,36,0*63
$GPGSV,3,3,11,23,45,045,36,25,90,057,36,27,00,221,,0*5C
$BDGSV,1,1,00,0*74

$GNRMC,001515.00,A,3127.999986,N,12117.999723,E,0.008,,200720,,,A,V*19
$GNGGA,001515.00,3127.999986,N,12117.999723,E,1,09,0.97,40.6,M,9.5,M,,*49
$GNGSA,A,3,02,23,25,13,04,20,01,08,07,,,,1.70,0.97,1.39,1*0C
$GNGSA,A,3,,,,,,,,,,,,,1.70,0.97,1.39,4*07
$GPGSV,3,1,11,01,16,120,35,02,19,312,35,04,45,274,35,07,68,
208,36,0*6C
$GPGSV,3,2,11,08,27,213,35,13,60,359,36,16,12,054,35,20,41,120,36,0*63
$GPGSV,3,3,11,23,45,045,36,25,90,057,36,27,00,221,,0*5C
$BDGSV,1,1,00,0*74

$GNRMC,001516.00,A,3127.999988,N,12117.999723,E,0.013,,200720,,,A,V*1E
$GNGGA,001516.00,3127.999988,N,12117.999723,E,1,09,0.97,40.6,M,9.5,M,,*44
$GNGSA,A,3,02,23,25,13,04,20,01,08,07,,,,1.70,0.97,1.39,1*0C
$GNGSA,A,3,,,,,,,,,,,,,1.70,0.97,1.39,4*07
$GPGSV,3,1,11,01,16,120,35,02,19,312,35,04,45,274,36,07,68,
208,36,0*6F
$GPGSV,3,2,11,08,27,213,35,13,60,359,36,16,12,054,34,20,41,120,36,0*62
$GPGSV,3,3,11,23,45,045,36,25,90,057,36,27,00,221,,0*5C
$BDGSV,1,1,00,0*74

$GNRMC,001517.00,A,3127.999985,N,12117.999723,E,0.002,,200720,,,A,V*12
$GNGGA,001517.00,3127.999985,N,12117.999723,E,1,09,0.97,40.6,M,9.5,M,,*48
$GNGSA,A,3,02,23,25,13,04,20,01,08,07,,,,1.70,0.97,1.39,1*0C
$GNGSA,A,3,,,,,,,,,,,,,1.70,0.97,1.39,4*07
$GPGSV,3,1,11,01,16,120,35,02,19,312,35,04,45,274,36,07,68,
208,36,0*6F
$GPGSV,3,2,11,08,27,213,35,13,60,359,36,16,12,054,35,20,41,120,36,0*63
$GPGSV,3,3,11,23,45,045,36,25,90,057,36,27,00,221,,0*5C
$BDGSV,1,1,00,0*74

$GNRMC,001518.00,A,3127.999984,N,12117.999720,E,0.004,,200720,,,A,V*19
$GNGGA,001518.00,3127.999984,N,12117.999720,E,1,09,0.97,40.6,M,9.5,M,,*45
$GNGSA,A,3,02,23,25,13,04,20,01,08,07,,,,1.70,0.97,1.39,1*0C
$GNGSA,A,3,,,,,,,,,,,,,1.70,0.97,1.39,4*07
$GPGSV,3,1,11,01,16,120,35,02,19,312,35,04,45,274,35,07,68,
208,36,0*6C
$GPGSV,3,2,11,08,27,213,35,13,60,359,36,16,12,054,35,20,41,120,36,0*63
$GPGSV,3,3,11,23,45,045,36,25,90,057,36,27,00,221,,0*5C
$BDGSV,1,1,00,0*74

$GNRMC,001519.00,A,3127.999983,N,12117.999722,E,0.011,,200720,,,A,V*19
$GNGGA,001519.00,3127.999983,N,12117.999722,E,1,09,0.97,40.6,M,9.5,M,,*41
$GNGSA,A,3,02,23,25,13,04,20,01,08,07,,,,1.70,0.97,1.39,1*0C
$GNGSA,A,3,,,,,,,,,,,,,1.70,0.97,1.39,4*07
$GPGSV,3,1,11,01,16,120,35,02,19,312,35,04,45,274,36,07,68,
208,36,0*6F
$GPGSV,3,2,11,08,27,213,35,13,60,359,36,16,12,054,35,20,41,120,36,0*63
$GPGSV,3,3,11,23,45,045,36,25,90,057,36,27,00,221,,0*5C
$BDGSV,1,1,00,0*74

$GNRMC,001520.00,A,3127.999981,N,12117.999723,E,0.005,,200720,,,A,V*15
$GNGGA,001520.00,3127.999981,N,12117.999723,E,1,09,0.97,40.6,M,9.5,M,,*48
$GNGSA,A,3,02,23,25,13,04,20,01,08,07,,,,1.70,0.97,1.39,1*0C
$GNGSA,A,3,,,,,,,,,,,,,1.70,0.97,1.39,4*07
$GPGSV,3,1,11,01,16,120,35,02,19,312,35,04,45,274,36,07,68,
208,36,0*6F
$GPGSV,3,2,11,08,27,213,35,13,60,359,36,16,12,054,35,20,41,120,36,0*63
$GPGSV,3,3,11,23,45,045,36,25,90,057,36,27,00,221,,0*5C
$BDGSV,1,1,00,0*74

$GNRMC,001521.00,A,3127.999984,N,12117.999720,E,0.011,,200720,,,A,V*17
$GNGGA,001521.00,3127.999984,N,12117.999720,E,1,09,0.97,40.5,M,9.5,M,,*4C
$GNGSA,A,3,02,23,25,13,04,20,01,08,07,,,,1.70,0.97,1.39,1*0C
$GNGSA,A,3,,,,,,,,,,,,,1.70,0.97,1.39,4*07
$GPGSV,3,1,11,01,16,120,35,02,19,312,35,04,45,274,36,07,68,
208,36,0*6F
$GPGSV,3,2,11,08,27,213,35,13,60,359,36,16,12,054,35,20,41,120,36,0*63
$GPGSV,3,3,11,23,45,045,36,25,90,057,36,27,00,221,,0*5C
$BDGSV,1,1,00,0*74

<????sim??????(SIM??:1)>
<????GSM????????(GSM:0)>
<????GPRS????????(GPRS:0)>
<????????????(SIGNAL:0)>
<????????????????(BER:0)>

<??????????????>

$GNRMC,001522.00,A,3127.999993,N,12117.999719,E,0.016,,200720,,,A,V*1F
$GNGGA,001522.00,3127.999993,N,12117.999719,E,1,09,0.97,40.5,M,9.5,M,,*43
$GNGSA,A,3,02,23,25,13,04,20,01,08,07,,,,1.70,0.97,1.39,1*0C
$GNGSA,A,3,,,,,,,,,,,,,1.70,0.97,1.39,4*07
$GPGSV,3,1,11,01,16,120,35,02,19,312,35,04,45,274,36,07,68,
208,36,0*6F
$GPGSV,3,2,11,08,27,213,35,13,60,359,36,16,12,054,35,20,41,120,36,0*63
$GPGSV,3,3,11,23,45,045,36,25,90,057,36,27,00,221,,0*5C
$BDGSV,1,1,00,0*74

$GNRMC,001523.00,A,3127.999998,N,12117.999719,E,0.006,,200720,,,A,V*14
$GNGGA,001523.00,3127.999998,N,12117.999719,E,1,09,0.97,40.5,M,9.5,M,,*49
$GNGSA,A,3,02,23,25,13,04,20,01,08,07,,,,1.70,0.97,1.39,1*0C
$GNGSA,A,3,,,,,,,,,,,,,1.70,0.97,1.39,4*07
$GPGSV,3,1,11,01,16,120,35,02,19,312,35,04,45,274,36,07,68,
208,36,0*6F
$GPGSV,3,2,11,08,27,213,35,13,60,359,36,16,12,054,35,20,41,120,36,0*63
$GPGSV,3,3,11,23,45,045,36,25,90,057,36,27,00,221,,0*5C
$BDGSV,1,1,00,0*74


GPS HPregnss> E1 15 00 00 00 00 07 53 8F 3A 89 00 00 00 1C 3E 0B 0A B4 00 00 00 00 


$GNRMC,001524.00,A,3127.999998,N,12117.999719,E,0.016,,200720,,,A,V*12
$GNGGA,001524.00,3127.999998,N,12117.999719,E,1,09,0.97,40.5,M,9.5,M,,*4E
$GNGSA,A,3,02,23,25,13,04,20,01,08,07,,,,1.70,0.97,1.39,1*0C
$GNGSA,A,3,,,,,,,,,,,,,1.70,0.97,1.39,4*07
$GPGSV,3,1,11,01,16,120,35,02,19,312,35,04,45,274,36,07,68,
208,36,0*6F
$GPGSV,3,2,11,08,27,213,35,13,60,359,36,16,12,054,35,20,41,120,36,0*63
$GPGSV,3,3,11,23,45,045,36,25,90,057,36,27,00,221,,0*5C
$BDGSV,1,1,00,0*74

$GNRMC,001525.00,A,3127.999999,N,12117.999723,E,0.016,,200720,,,A,V*1B
$GNGGA,001525.00,3127.999999,N,12117.999723,E,1,09,0.97,40.5,M,9.5,M,,*47
$GNGSA,A,3,02,23,25,13,04,20,01,08,07,,,,1.70,0.97,1.39,1*0C
$GNGSA,A,3,,,,,,,,,,,,,1.70,0.97,1.39,4*07
$GPGSV,3,1,11,01,16,120,35,02,19,312,35,04,45,274,36,07,68,
208,36,0*6F
$GPGSV,3,2,11,08,27,213,35,13,60,359,36,16,12,054,35,20,41,120,36,0*63
$GPGSV,3,3,11,23,45,045,36,25,90,057,36,27,00,221,,0*5C
$BDGSV,1,1,00,0*74

$GNRMC,001526.00,A,3128.000002,N,12117.999720,E,0.016,,200720,,,A,V*16
$GNGGA,001526.00,3128.000002,N,12117.999720,E,1,09,0.97,40.5,M,9.5,M,,*4A
$GNGSA,A,3,02,23,25,13,04,20,01,08,07,,,,1.70,0.97,1.39,1*0C
$GNGSA,A,3,,,,,,,,,,,,,1.70,0.97,1.39,4*07
$GPGSV,3,1,11,01,16,120,35,02,19,312,35,04,45,274,36,07,68,
208,36,0*6F
$GPGSV,3,2,11,08,27,213,35,13,60,359,36,16,12,054,35,20,41,120,36,0*63
$GPGSV,3,3,11,23,45,045,36,25,90,057,36,27,00,221,,0*5C
$BDGSV,1,1,00,0*74

$GNRMC,001527.00,A,3128.000002,N,12117.999722,E,0.013,,200720,,,A,V*10
$GNGGA,001527.00,3128.000002,N,12117.999722,E,1,09,0.97,40.5,M,9.5,M,,*49
$GNGSA,A,3,02,23,25,13,04,20,01,08,07,,,,1.70,0.97,1.39,1*0C
$GNGSA,A,3,,,,,,,,,,,,,1.70,0.97,1.39,4*07
$GPGSV,3,1,11,01,16,120,35,02,19,312,35,04,45,274,36,07,68,
208,36,0*6F
$GPGSV,3,2,11,08,27,213,35,13,60,359,36,16,12,054,35,20,41,120,36,0*63
$GPGSV,3,3,11,23,45,045,36,25,90,057,36,27,00,221,,0*5C
$BDGSV,1,1,00,0*74

$GNRMC,001528.00,A,3127.999997,N,12117.999719,E,0.009,,200720,,,A,V*1F
$GNGGA,001528.00,3127.999997,N,12117.999719,E,1,09,0.97,40.5,M,9.5,M,,*4D
$GNGSA,A,3,02,23,25,13,04,20,01,08,07,,,,1.70,0.97,1.39,1*0C
$GNGSA,A,3,,,,,,,,,,,,,1.70,0.97,1.39,4*07
$GPGSV,3,1,11,01,16,120,35,02,19,312,35,04,45,274,35,07,68,
208,36,0*6C
$GPGSV,3,2,11,08,27,213,35,13,60,359,36,16,12,054,35,20,41,120,36,0*63
$GPGSV,3,3,11,23,45,045,36,25,90,057,36,27,00,221,,0*5C
$BDGSV,1,1,00,0*74

$GNRMC,001529.00,A,3127.999993,N,12117.999720,E,0.015,,200720,,,A,V*1D
$GNGGA,001529.00,3127.999993,N,12117.999720,E,1,09,0.97,40.5,M,9.5,M,,*42
$GNGSA,A,3,02,23,25,13,04,20,01,08,07,,,,1.70,0.97,1.39,1*0C
$GNGSA,A,3,,,,,,,,,,,,,1.70,0.97,1.39,4*07
$GPGSV,3,1,11,01,16,120,35,02,19,312,35,04,45,274,36,07,68,
208,36,0*6F
$GPGSV,3,2,11,08,27,213,35,13,60,359,36,16,12,054,34,20,41,120,36,0*62
$GPGSV,3,3,11,23,45,045,36,25,90,057,36,27,00,221,,0*5C
$BDGSV,1,1,00,0*74

$GNRMC,001530.00,A,3127.999996,N,12117.999722,E,0.008,,200720,,,A,V*1E
$GNGGA,001530.00,3127.999996,N,12117.999722,E,1,09,0.97,40.5,M,9.5,M,,*4D
$GNGSA,A,3,02,23,25,13,04,20,01,08,07,,,,1.70,0.97,1.39,1*0C
$GNGSA,A,3,,,,,,,,,,,,,1.70,0.97,1.39,4*07
$GPGSV,3,1,11,01,16,120,35,02,19,312,34,04,45,274,36,07,68,
208,36,0*6E
$GPGSV,3,2,11,08,27,213,35,13,60,359,36,16,12,053,35,20,41,120,36,0*64
$GPGSV,3,3,11,23,45,045,36,25,90,057,36,27,00,221,,0*5C
$BDGSV,1,1,00,0*74

$GNRMC,001531.00,A,3127.999994,N,12117.999726,E,0.008,,200720,,,A,V*19
$GNGGA,001531.00,3127.999994,N,12117.999726,E,1,09,0.97,40.5,M,9.5,M,,*4A
$GNGSA,A,3,02,23,25,13,04,20,01,08,07,,,,1.70,0.97,1.39,1*0C
$GNGSA,A,3,,,,,,,,,,,,,1.70,0.97,1.39,4*07
$GPGSV,3,1,11,01,16,120,35,02,19,312,34,04,45,274,36,07,68,
208,36,0*6E
$GPGSV,3,2,11,08,27,213,35,13,60,359,36,16,12,053,35,20,41,120,36,0*64
$GPGSV,3,3,11,23,45,045,36,25,90,057,36,27,00,221,,0*5C
$BDGSV,1,1,00,0*74

<??????????????>

$GNRMC,001532.00,A,3127.999991,N,12117.999731,E,0.007,,200720,,,A,V*16
$GNGGA,001532.00,3127.999991,N,12117.999731,E,1,09,0.97,40.5,M,9.5,M,,*4A
$GNGSA,A,3,02,23,25,13,04,20,01,08,07,,,,1.70,0.97,1.39,1*0C
$GNGSA,A,3,,,,,,,,,,,,,1.70,0.97,1.39,4*07
$GPGSV,3,1,11,01,16,120,35,02,19,312,35,04,45,274,36,07,68,
208,36,0*6F
$GPGSV,3,2,11,08,27,213,35,13,60,359,36,16,12,053,35,20,41,120,36,0*64
$GPGSV,3,3,11,23,44,045,36,25,90,057,36,27,00,221,,0*5D
$BDGSV,1,1,00,0*74

$GNRMC,001533.00,A,3127.999991,N,12117.999735,E,0.015,,200720,,,A,V*10
$GNGGA,001533.00,3127.999991,N,12117.999735,E,1,09,0.98,40.5,M,9.5,M,,*40
$GNGSA,A,3,02,23,25,13,04,20,01,08,07,,,,1.70,0.98,1.39,1*03
$GNGSA,A,3,,,,,,,,,,,,,1.70,0.98,1.39,4*08
$GPGSV,3,1,11,01,16,120,35,02,19,312,35,04,45,274,36,07,68,
208,36,0*6F
$GPGSV,3,2,11,08,27,213,35,13,60,359,36,16,12,053,35,20,41,120,36,0*64
$GPGSV,3,3,11,23,44,045,36,25,89,042,36,27,00,221,,0*51
$BDGSV,1,1,00,0*74

$GNRMC,001534.00,A,3127.999996,N,12117.999743,E,0.016,,200720,,,A,V*12
$GNGGA,001534.00,3127.999996,N,12117.999743,E,1,09,0.98,40.5,M,9.5,M,,*41
$GNGSA,A,3,02,23,25,13,04,20,01,08,07,,,,1.70,0.98,1.39,1*03
$GNGSA,A,3,,,,,,,,,,,,,1.70,0.98,1.39,4*08
$GPGSV,3,1,11,01,16,120,35,02,19,312,35,04,45,274,36,07,68,
208,36,0*6F
$GPGSV,3,2,11,08,27,213,35,13,60,359,36,16,12,053,35,20,41,120,36,0*64
$GPGSV,3,3,11,23,44,045,36,25,89,042,36,27,00,221,,0*51
$BDGSV,1,1,00,0*74

$GNRMC,001535.00,A,3127.999995,N,12117.999749,E,0.010,,200720,,,A,V*1C
$GNGGA,001535.00,3127.999995,N,12117.999749,E,1,09,0.98,40.5,M,9.5,M,,*49
$GNGSA,A,3,02,23,25,13,04,20,01,08,07,,,,1.70,0.98,1.39,1*03
$GNGSA,A,3,,,,,,,,,,,,,1.70,0.98,1.39,4*08
$GPGSV,3,1,11,01,16,120,35,02,19,312,35,04,45,274,36,07,68,
208,36,0*6F
$GPGSV,3,2,11,08,27,213,35,13,60,359,36,16,12,053,35,20,41,120,36,0*64
$GPGSV,3,3,11,23,44,045,36,25,89,042,36,27,00,221,,0*51
$BDGSV,1,1,00,0*74

$GNRMC,001536.00,A,3127.999993,N,12117.999754,E,0.001,,200720,,,A,V*15
$GNGGA,001536.00,3127.999993,N,12117.999754,E,1,09,0.98,40.5,M,9.5,M,,*40
$GNGSA,A,3,02,23,25,13,04,20,01,08,07,,,,1.70,0.98,1.39,1*03
$GNGSA,A,3,,,,,,,,,,,,,1.70,0.98,1.39,4*08
$GPGSV,3,1,11,01,16,120,35,02,19,312,35,04,45,274,36,07,68,
208,36,0*6F
$GPGSV,3,2,11,08,27,213,35,13,60,359,36,16,12,053,35,20,41,120,36,0*64
$GPGSV,3,3,11,23,44,045,36,25,89,042,36,27,00,221,,0*51
$BDGSV,1,1,00,0*74

$GNRMC,001537.00,A,3127.999994,N,12117.999762,E,0.007,,200720,,,A,V*10
$GNGGA,001537.00,3127.999994,N,12117.999762,E,1,09,0.98,40.6,M,9.5,M,,*40
$GNGSA,A,3,02,23,25,13,04,20,01,08,07,,,,1.70,0.98,1.39,1*03
$GNGSA,A,3,,,,,,,,,,,,,1.70,0.98,1.39,4*08
$GPGSV,3,1,11,01,16,120,35,02,19,312,35,04,45,274,35,07,68,
208,36,0*6C
$GPGSV,3,2,11,08,27,213,35,13,60,359,36,16,12,053,34,20,41,120,36,0*65
$GPGSV,3,3,11,23,44,045,36,25,89,042,36,27,00,221,,0*51
$BDGSV,1,1,00,0*74

$GNRMC,001538.00,A,3127.999994,N,12117.999763,E,0.010,,200720,,,A,V*18
$GNGGA,001538.00,3127.999994,N,12117.999763,E,1,09,0.98,40.6,M,9.5,M,,*4E
$GNGSA,A,3,02,23,25,13,04,20,01,08,07,,,,1.70,0.98,1.39,1*03
$GNGSA,A,3,,,,,,,,,,,,,1.70,0.98,1.39,4*08
$GPGSV,3,1,11,01,16,120,35,02,19,312,35,04,45,274,36,07,68,
208,36,0*6F
$GPGSV,3,2,11,08,27,213,35,13,60,359,36,16,12,053,34,20,41,120,36,0*65
$GPGSV,3,3,11,23,44,045,36,25,89,042,36,27,00,221,,0*51
$BDGSV,1,1,00,0*74

$GNRMC,001539.00,A,3127.999992,N,12117.999764,E,0.006,,200720,,,A,V*1F
$GNGGA,001539.00,3127.999992,N,12117.999764,E,1,09,0.98,40.6,M,9.5,M,,*4E
$GNGSA,A,3,02,23,25,13,04,20,01,08,07,,,,1.70,0.98,1.39,1*03
$GNGSA,A,3,,,,,,,,,,,,,1.70,0.98,1.39,4*08
$GPGSV,3,1,11,01,16,120,35,02,19,312,35,04,45,274,35,07,68,
208,36,0*6C
$GPGSV,3,2,11,08,27,213,35,13,60,359,36,16,12,053,35,20,41,120,36,0*64
$GPGSV,3,3,11,23,44,045,36,25,89,042,36,27,00,221,,0*51
$BDGSV,1,1,00,0*74

$GNRMC,001540.00,A,3127.999986,N,12117.999768,E,0.006,,200720,,,A,V*18
$GNGGA,001540.00,3127.999986,N,12117.999768,E,1,09,0.98,40.6,M,9.5,M,,*49
$GNGSA,A,3,02,23,25,13,04,20,01,08,07,,,,1.70,0.98,1.39,1*03
$GNGSA,A,3,,,,,,,,,,,,,1.70,0.98,1.39,4*08
$GPGSV,3,1,11,01,16,120,35,02,19,312,35,04,45,274,36,07,68,
208,36,0*6F
$GPGSV,3,2,11,08,27,213,35,13,60,359,36,16,12,053,35,20,41,120,36,0*64
$GPGSV,3,3,11,23,44,045,36,25,89,042,36,27,00,221,,0*51
$BDGSV,1,1,00,0*74

$GNRMC,001541.00,A,3127.999981,N,12117.999774,E,0.006,,200720,,,A,V*13
$GNGGA,001541.00,3127.999981,N,12117.999774,E,1,09,0.98,40.6,M,9.5,M,,*42
$GNGSA,A,3,02,23,25,13,04,20,01,08,07,,,,1.70,0.98,1.39,1*03
$GNGSA,A,3,,,,,,,,,,,,,1.70,0.98,1.39,4*08
$GPGSV,3,1,11,01,16,120,35,02,19,312,35,04,45,274,35,07,68,
208,36,0*6C
$GPGSV,3,2,11,08,27,213,35,13,60,359,36,16,12,053,34,20,41,120,36,0*65
$GPGSV,3,3,11,23,44,045,36,25,89,042,36,27,00,221,,0*51
$BDGSV,1,1,00,0*74

<????sim??????(SIM??:1)>
<????GSM????????(GSM:0)>
<????GPRS????????(GPRS:0)>
<????????????(SIGNAL:0)>
<????????????????(BER:0)>

<??????????????>

$GNRMC,001542.00,A,3127.999980,N,12117.999782,E,0.017,,200720,,,A,V*18
$GNGGA,001542.00,3127.999980,N,12117.999782,E,1,09,0.98,40.7,M,9.5,M,,*48
$GNGSA,A,3,02,23,25,13,04,20,01,08,07,,,,1.70,0.98,1.39,1*03
$GNGSA,A,3,,,,,,,,,,,,,1.70,0.98,1.39,4*08
$GPGSV,3,1,11,01,16,120,35,02,19,312,35,04,45,274,35,07,68,
208,36,0*6C
$GPGSV,3,2,11,08,27,213,35,13,60,359,36,16,12,053,35,20,41,120,36,0*64
$GPGSV,3,3,11,23,44,045,36,25,89,042,36,27,00,221,,0*51
$BDGSV,1,1,00,0*74

$GNRMC,001543.00,A,3127.999975,N,12117.999780,E,0.010,,200720,,,A,V*16
$GNGGA,001543.00,3127.999975,N,12117.999780,E,1,09,0.98,40.7,M,9.5,M,,*41
$GNGSA,A,3,02,23,25,13,04,20,01,08,07,,,,1.70,0.98,1.39,1*03
$GNGSA,A,3,,,,,,,,,,,,,1.70,0.98,1.39,4*08
$GPGSV,3,1,11,01,16,120,35,02,19,312,35,04,45,274,36,07,68,
208,36,0*6F
$GPGSV,3,2,11,08,27,213,35,13,60,359,36,16,12,053,35,20,41,120,36,0*64
$GPGSV,3,3,11,23,44,045,36,25,89,042,36,27,00,221,,0*51
$BDGSV,1,1,00,0*74

$GNRMC,001544.00,A,3127.999977,N,12117.999787,E,0.010,,200720,,,A,V*14
$GNGGA,001544.00,3127.999977,N,12117.999787,E,1,09,0.98,40.7,M,9.5,M,,*43
$GNGSA,A,3,02,23,25,13,04,20,01,08,07,,,,1.70,0.98,1.39,1*03
$GNGSA,A,3,,,,,,,,,,,,,1.70,0.98,1.39,4*08
$GPGSV,3,1,11,01,16,120,35,02,19,312,35,04,45,274,36,07,68,
208,36,0*6F
$GPGSV,3,2,11,08,27,213,35,13,60,359,36,16,12,053,35,20,41,120,36,0*64
$GPGSV,3,3,11,23,44,045,36,25,89,042,36,27,00,221,,0*51
$BDGSV,1,1,00,0*74

$GNRMC,001545.00,A,3127.999975,N,12117.999791,E,0.002,,200720,,,A,V*13
$GNGGA,001545.00,3127.999975,N,12117.999791,E,1,09,0.98,40.7,M,9.5,M,,*47
$GNGSA,A,3,02,23,25,13,04,20,01,08,07,,,,1.70,0.98,1.39,1*03
$GNGSA,A,3,,,,,,,,,,,,,1.70,0.98,1.39,4*08
$GPGSV,3,1,11,01,16,120,35,02,19,312,35,04,45,274,36,07,68,
208,36,0*6F
$GPGSV,3,2,11,08,27,213,35,13,60,359,36,16,12,053,35,20,41,120,36,0*64
$GPGSV,3,3,11,23,44,045,36,25,89,042,36,27,00,221,,0*51
$BDGSV,1,1,00,0*74

$GNRMC,001546.00,A,3127.999976,N,12117.999790,E,0.006,,200720,,,A,V*16
$GNGGA,001546.00,3127.999976,N,12117.999790,E,1,09,0.98,40.7,M,9.5,M,,*46
$GNGSA,A,3,02,23,25,13,04,20,01,08,07,,,,1.70,0.98,1.39,1*03
$GNGSA,A,3,,,,,,,,,,,,,1.70,0.98,1.39,4*08
$GPGSV,3,1,11,01,16,120,35,02,19,312,35,04,45,274,36,07,68,
208,36,0*6F
$GPGSV,3,2,11,08,27,213,35,13,60,359,36,16,12,053,35,20,41,120,36,0*64
$GPGSV,3,3,11,23,44,045,36,25,89,042,36,27,00,221,,0*51
$BDGSV,1,1,00,0*74

$GNRMC,001547.00,A,3127.999976,N,12117.999792,E,0.009,,200720,,,A,V*1A
$GNGGA,001547.00,3127.999976,N,12117.999792,E,1,09,0.98,40.7,M,9.5,M,,*45
$GNGSA,A,3,02,23,25,13,04,20,01,08,07,,,,1.70,0.98,1.39,1*03
$GNGSA,A,3,,,,,,,,,,,,,1.70,0.98,1.39,4*08
$GPGSV,3,1,11,01,16,120,35,02,19,312,35,04,45,273,36,07,68,
208,36,0*68
$GPGSV,3,2,11,08,27,213,35,13,60,359,36,16,12,053,35,20,41,120,36,0*64
$GPGSV,3,3,11,23,44,045,36,25,89,042,36,27,00,221,,0*51
$BDGSV,1,1,00,0*74

$GNRMC,001548.00,A,3127.999978,N,12117.999799,E,0.007,,200720,,,A,V*1E
$GNGGA,001548.00,3127.999978,N,12117.999799,E,1,09,0.98,40.7,M,9.5,M,,*4F
$GNGSA,A,3,02,23,25,13,04,20,01,08,07,,,,1.70,0.98,1.39,1*03
$GNGSA,A,3,,,,,,,,,,,,,1.70,0.98,1.39,4*08
$GPGSV,3,1,11,01,16,120,35,02,19,312,35,04,45,273,36,07,68,
208,36,0*68
$GPGSV,3,2,11,08,27,213,35,13,60,359,36,16,12,053,35,20,41,120,36,0*64
$GPGSV,3,3,11,23,44,045,36,25,89,042,36,27,00,221,,0*51
$BDGSV,1,1,00,0*74

$GNRMC,001549.00,A,3127.999982,N,12117.999808,E,0.010,,200720,,,A,V*1B
$GNGGA,001549.00,3127.999982,N,12117.999808,E,1,09,0.98,40.7,M,9.5,M,,*4C
$GNGSA,A,3,02,23,25,13,04,20,01,08,07,,,,1.70,0.98,1.39,1*03
$GNGSA,A,3,,,,,,,,,,,,,1.70,0.98,1.39,4*08
$GPGSV,3,1,11,01,16,120,35,02,19,312,35,04,45,273,36,07,68,
208,36,0*68
$GPGSV,3,2,11,08,27,213,35,13,60,359,36,16,12,053,35,20,41,120,36,0*64
$GPGSV,3,3,11,23,44,045,36,25,89,042,36,27,00,221,,0*51
$BDGSV,1,1,00,0*74

$GNRMC,001550.00,A,3127.999980,N,12117.999815,E,0.034,,200720,,,A,V*1B
$GNGGA,001550.00,3127.999980,N,12117.999815,E,1,09,0.98,40.7,M,9.5,M,,*4A
$GNGSA,A,3,02,23,25,13,04,20,01,08,07,,,,1.70,0.98,1.39,1*03
$GNGSA,A,3,,,,,,,,,,,,,1.70,0.98,1.39,4*08
$GPGSV,3,1,11,01,16,120,35,02,19,312,35,04,45,273,36,07,68,
208,36,0*68
$GPGSV,3,2,11,08,27,213,35,13,60,359,36,16,12,053,35,20,41,120,36,0*64
$GPGSV,3,3,11,23,44,045,36,25,89,042,36,27,00,221,,0*51
$BDGSV,1,1,00,0*74

$GNRMC,001551.00,A,3127.999979,N,12117.999822,E,0.004,,200720,,,A,V*1B
$GNGGA,001551.00,3127.999979,N,12117.999822,E,1,09,0.98,40.7,M,9.5,M,,*49
$GNGSA,A,3,02,23,25,13,04,20,01,08,07,,,,1.70,0.98,1.39,1*03
$GNGSA,A,3,,,,,,,,,,,,,1.70,0.98,1.39,4*08
$GPGSV,3,1,11,01,16,120,35,02,19,312,35,04,45,273,36,07,68,
208,36,0*68
$GPGSV,3,2,11,08,27,213,35,13,60,359,36,16,12,053,35,20,41,120,36,0*64
$GPGSV,3,3,11,23,44,045,36,25,89,042,36,27,00,221,,0*51
$BDGSV,1,1,00,0*74

<??????????????>

$GNRMC,001552.00,A,3127.999976,N,12117.999830,E,0.007,,200720,,,A,V*17
$GNGGA,001552.00,3127.999976,N,12117.999830,E,1,09,0.98,40.7,M,9.5,M,,*46
$GNGSA,A,3,02,23,25,13,04,20,01,08,07,,,,1.70,0.98,1.39,1*03
$GNGSA,A,3,,,,,,,,,,,,,1.70,0.98,1.39,4*08
$GPGSV,3,1,11,01,16,120,35,02,19,312,35,04,45,273,36,07,68,
208,36,0*68
$GPGSV,3,2,11,08,27,213,35,13,60,359,36,16,12,053,34,20,41,120,36,0*65
$GPGSV,3,3,11,23,44,045,36,25,89,042,36,27,00,221,,0*51
$BDGSV,1,1,00,0*74

$GNRMC,001553.00,A,3127.999975,N,12117.999834,E,0.020,,200720,,,A,V*14
$GNGGA,001553.00,3127.999975,N,12117.999834,E,1,09,0.98,40.7,M,9.5,M,,*40
$GNGSA,A,3,02,23,25,13,04,20,01,08,07,,,,1.70,0.98,1.39,1*03
$GNGSA,A,3,,,,,,,,,,,,,1.70,0.98,1.39,4*08
$GPGSV,3,1,11,01,16,120,35,02,19,312,35,04,45,273,36,07,68,
208,36,0*68
$GPGSV,3,2,11,08,27,213,35,13,60,359,36,16,12,053,34,20,41,120,36,0*65
$GPGSV,3,3,11,23,44,045,36,25,89,042,36,27,00,221,,0*51
$BDGSV,1,1,00,0*74


GPS HPregnss> E1 15 00 00 00 00 07 53 8F 39 0A 00 00 00 1C 3E 0B 12 31 00 00 00 00 


$GNRMC,001554.00,A,3127.999971,N,12117.999837,E,0.012,,200720,,,A,V*15
$GNGGA,001554.00,3127.999971,N,12117.999837,E,1,09,0.98,40.7,M,9.5,M,,*40
$GNGSA,A,3,02,23,25,13,04,20,01,08,07,,,,1.70,0.98,1.39,1*03
$GNGSA,A,3,,,,,,,,,,,,,1.70,0.98,1.39,4*08
$GPGSV,3,1,11,01,16,120,35,02,19,312,35,04,45,273,36,07,68,
208,36,0*68
$GPGSV,3,2,11,08,27,213,35,13,60,359,36,16,12,053,35,20,41,120,36,0*64
$GPGSV,3,3,11,23,44,045,36,25,89,042,36,27,00,221,,0*51
$BDGSV,1,1,00,0*74

$GNRMC,001555.00,A,3127.999961,N,12117.999838,E,0.005,,200720,,,A,V*1C
$GNGGA,001555.00,3127.999961,N,12117.999838,E,1,09,0.98,40.7,M,9.5,M,,*4F
$GNGSA,A,3,02,23,25,13,04,20,01,08,07,,,,1.70,0.98,1.39,1*03
$GNGSA,A,3,,,,,,,,,,,,,1.70,0.98,1.39,4*08
$GPGSV,3,1,11,01,16,120,35,02,19,312,35,04,45,273,36,07,68,
208,36,0*68
$GPGSV,3,2,11,08,27,213,35,13,60,359,36,16,12,053,35,20,41,120,36,0*64
$GPGSV,3,3,11,23,44,045,36,25,89,042,36,27,00,221,,0*51
$BDGSV,1,1,00,0*74

$GNRMC,001556.00,A,3127.999955,N,12117.999841,E,0.017,,200720,,,A,V*15
$GNGGA,001556.00,3127.999955,N,12117.999841,E,1,09,0.98,40.7,M,9.5,M,,*45
$GNGSA,A,3,02,23,25,13,04,20,01,08,07,,,,1.70,0.98,1.39,1*03
$GNGSA,A,3,,,,,,,,,,,,,1.70,0.98,1.39,4*08
$GPGSV,3,1,11,01,16,120,35,02,19,312,35,04,45,273,36,07,68,
208,36,0*68
$GPGSV,3,2,11,08,27,213,35,13,60,359,36,16,12,053,35,20,41,120,36,0*64
$GPGSV,3,3,11,23,44,045,36,25,89,042,36,27,00,221,,0*51
$BDGSV,1,1,00,0*74

$GNRMC,001557.00,A,3127.999950,N,12117.999844,E,0.012,,200720,,,A,V*11
$GNGGA,001557.00,3127.999950,N,12117.999844,E,1,09,0.98,40.7,M,9.5,M,,*44
$GNGSA,A,3,02,23,25,13,04,20,01,08,07,,,,1.70,0.98,1.39,1*03
$GNGSA,A,3,,,,,,,,,,,,,1.70,0.98,1.39,4*08
$GPGSV,3,1,11,01,16,120,35,02,19,312,35,04,45,273,36,07,68,
208,36,0*68
$GPGSV,3,2,11,08,27,213,35,13,60,359,36,16,12,053,35,20,41,120,36,0*64
$GPGSV,3,3,11,23,44,045,36,25,89,042,36,27,00,221,,0*51
$BDGSV,1,1,00,0*74

$GNRMC,001558.00,A,3127.999945,N,12117.999843,E,0.008,,200720,,,A,V*16
$GNGGA,001558.00,3127.999945,N,12117.999843,E,1,09,0.98,40.7,M,9.5,M,,*48
$GNGSA,A,3,02,23,25,13,04,20,01,08,07,,,,1.70,0.98,1.39,1*03
$GNGSA,A,3,,,,,,,,,,,,,1.70,0.98,1.39,4*08
$GPGSV,3,1,11,01,16,120,35,02,19,312,35,04,45,273,36,07,68,
208,36,0*68
$GPGSV,3,2,11,08,27,213,35,13,60,359,36,16,12,053,35,20,41,120,36,0*64
$GPGSV,3,3,11,23,44,045,36,25,89,042,36,27,00,221,,0*51
$BDGSV,1,1,00,0*74

$GNRMC,001559.00,A,3127.999939,N,12117.999844,E,0.005,,200720,,,A,V*16
$GNGGA,001559.00,3127.999939,N,12117.999844,E,1,09,0.98,40.7,M,9.5,M,,*45
$GNGSA,A,3,02,23,25,13,04,20,01,08,07,,,,1.70,0.98,1.39,1*03
$GNGSA,A,3,,,,,,,,,,,,,1.70,0.98,1.39,4*08
$GPGSV,3,1,11,01,16,120,35,02,19,312,35,04,45,273,36,07,68,
208,36,0*68
$GPGSV,3,2,11,08,27,213,35,13,60,359,36,16,12,053,35,20,41,120,36,0*64
$GPGSV,3,3,11,23,44,045,36,25,89,042,36,27,00,221,,0*51
$BDGSV,1,1,00,0*74

$GNRMC,001600.00,A,3127.999934,N,12117.999845,E,0.004,,200720,,,A,V*14
$GNGGA,001600.00,3127.999934,N,12117.999845,E,1,09,0.98,40.7,M,9.5,M,,*46
$GNGSA,A,3,02,23,25,13,04,20,01,08,07,,,,1.70,0.98,1.39,1*03
$GNGSA,A,3,,,,,,,,,,,,,1.70,0.98,1.39,4*08
$GPGSV,3,1,11,01,16,120,35,02,19,312,35,04,45,273,36,07,68,
208,36,0*68
$GPGSV,3,2,11,08,27,213,35,13,60,359,36,16,12,053,35,20,41,120,36,0*64
$GPGSV,3,3,11,23,44,045,36,25,89,035,36,27,00,221,,0*51
$BDGSV,1,1,00,0*74

$GNRMC,001601.00,A,3127.999927,N,12117.999842,E,0.017,,200720,,,A,V*12
$GNGGA,001601.00,3127.999927,N,12117.999842,E,1,09,0.98,40.7,M,9.5,M,,*42
$GNGSA,A,3,02,23,25,13,04,20,01,08,07,,,,1.70,0.98,1.39,1*03
$GNGSA,A,3,,,,,,,,,,,,,1.70,0.98,1.39,4*08
$GPGSV,3,1,11,01,16,120,35,02,19,312,35,04,45,273,36,07,68,
208,36,0*68
$GPGSV,3,2,11,08,27,213,35,13,60,359,36,16,12,053,35,20,41,120,36,0*64
$GPGSV,3,3,11,23,44,045,36,25,89,035,36,27,00,221,,0*51
$BDGSV,1,1,00,0*74

<????sim??????(SIM??:1)>
<????GSM????????(GSM:0)>
<????GPRS????????(GPRS:0)>
<????????????(SIGNAL:0)>
<????????????????(BER:0)>

<??????????????>

$GNRMC,001602.00,A,3127.999919,N,12117.999838,E,0.003,,200720,,,A,V*14
$GNGGA,001602.00,3127.999919,N,12117.999838,E,1,09,0.98,40.7,M,9.5,M,,*41
$GNGSA,A,3,02,23,25,13,04,20,01,08,07,,,,1.70,0.98,1.39,1*03
$GNGSA,A,3,,,,,,,,,,,,,1.70,0.98,1.39,4*08
$GPGSV,3,1,11,01,16,120,35,02,19,312,35,04,45,273,36,07,68,
208,36,0*68
$GPGSV,3,2,11,08,27,213,35,13,60,359,36,16,12,053,35,20,41,120,36,0*64
$GPGSV,3,3,11,23,44,045,36,25,89,035,36,27,00,221,,0*51
$BDGSV,1,1,00,0*74

$GNRMC,001603.00,A,3127.999917,N,12117.999837,E,0.015,,200720,,,A,V*13
$GNGGA,001603.00,3127.999917,N,12117.999837,E,1,09,0.98,40.7,M,9.5,M,,*41
$GNGSA,A,3,02,23,25,13,04,20,01,08,07,,,,1.70,0.98,1.39,1*03
$GNGSA,A,3,,,,,,,,,,,,,1.70,0.98,1.39,4*08
$GPGSV,3,1,11,01,16,120,35,02,19,312,35,04,45,273,36,07,68,
208,36,0*68
$GPGSV,3,2,11,08,27,213,35,13,60,359,36,16,12,053,35,20,41,120,36,0*64
$GPGSV,3,3,11,23,44,045,36,25,89,035,36,27,00,221,,0*51
$BDGSV,1,1,00,0*74

$GNRMC,001604.00,A,3127.999911,N,12117.999830,E,0.010,,200720,,,A,V*10
$GNGGA,001604.00,3127.999911,N,12117.999830,E,1,09,0.98,40.7,M,9.5,M,,*47
$GNGSA,A,3,02,23,25,13,04,20,01,08,07,,,,1.70,0.98,1.39,1*03
$GNGSA,A,3,,,,,,,,,,,,,1.70,0.98,1.39,4*08
$GPGSV,3,1,11,01,16,120,35,02,19,312,35,04,45,273,36,07,68,
208,36,0*68
$GPGSV,3,2,11,08,27,213,35,13,60,359,36,16,12,053,35,20,41,120,36,0*64
$GPGSV,3,3,11,23,44,045,36,25,89,035,36,27,00,221,,0*51
$BDGSV,1,1,00,0*74

$GNRMC,001605.00,A,3127.999905,N,12117.999827,E,0.012,,200720,,,A,V*10
$GNGGA,001605.00,3127.999905,N,12117.999827,E,1,09,0.98,40.7,M,9.5,M,,*45
$GNGSA,A,3,02,23,25,13,04,20,01,08,07,,,,1.70,0.98,1.39,1*03
$GNGSA,A,3,,,,,,,,,,,,,1.70,0.98,1.39,4*08
$GPGSV,3,1,11,01,16,120,35,02,19,312,35,04,45,273,36,07,68,
208,36,0*68
$GPGSV,3,2,11,08,27,213,35,13,60,359,36,16,12,053,35,20,41,120,36,0*64
$GPGSV,3,3,11,23,44,045,36,25,89,035,36,27,00,221,,0*51
$BDGSV,1,1,00,0*74

$GNRMC,001606.00,A,3127.999897,N,12117.999818,E,0.009,,200720,,,A,V*1F
$GNGGA,001606.00,3127.999897,N,12117.999818,E,1,09,0.98,40.7,M,9.5,M,,*40
$GNGSA,A,3,02,23,25,13,04,20,01,08,07,,,,1.70,0.98,1.39,1*03
$GNGSA,A,3,,,,,,,,,,,,,1.70,0.98,1.39,4*08
$GPGSV,3,1,11,01,16,120,35,02,19,312,35,04,45,273,36,07,68,
208,36,0*68
$GPGSV,3,2,11,08,27,213,35,13,60,359,36,16,12,053,35,20,41,120,36,0*64
$GPGSV,3,3,11,23,44,045,36,25,89,035,36,27,00,221,,0*51
$BDGSV,1,1,00,0*74

$GNRMC,001607.00,A,3127.999890,N,12117.999811,E,0.005,,200720,,,A,V*1C
$GNGGA,001607.00,3127.999890,N,12117.999811,E,1,09,0.98,40.8,M,9.5,M,,*40
$GNGSA,A,3,02,23,25,13,04,20,01,08,07,,,,1.70,0.98,1.39,1*03
$GNGSA,A,3,,,,,,,,,,,,,1.70,0.98,1.39,4*08
$GPGSV,3,1,11,01,16,120,35,02,19,312,35,04,45,273,36,07,68,
208,36,0*68
$GPGSV,3,2,11,08,27,213,35,13,60,359,36,16,12,053,35,20,41,120,36,0*64
$GPGSV,3,3,11,23,44,045,36,25,89,035,36,27,00,221,,0*51
$BDGSV,1,1,00,0*74

$GNRMC,001608.00,A,3127.999884,N,12117.999805,E,0.003,,200720,,,A,V*15
$GNGGA,001608.00,3127.999884,N,12117.999805,E,1,09,0.98,40.8,M,9.5,M,,*4F
$GNGSA,A,3,02,23,25,13,04,20,01,08,07,,,,1.70,0.98,1.39,1*03
$GNGSA,A,3,,,,,,,,,,,,,1.70,0.98,1.39,4*08
$GPGSV,3,1,11,01,16,120,35,02,19,312,35,04,45,273,36,07,68,
208,36,0*68
$GPGSV,3,2,11,08,27,213,35,13,60,359,36,16,12,053,35,20,41,120,36,0*64
$GPGSV,3,3,11,23,44,045,36,25,89,035,36,27,00,221,,0*51
$BDGSV,1,1,00,0*74

$GNRMC,001609.00,A,3127.999880,N,12117.999798,E,0.004,,200720,,,A,V*1C
$GNGGA,001609.00,3127.999880,N,12117.999798,E,1,09,0.98,40.8,M,9.5,M,,*41
$GNGSA,A,3,02,23,25,13,04,20,01,08,07,,,,1.70,0.98,1.39,1*03
$GNGSA,A,3,,,,,,,,,,,,,1.70,0.98,1.39,4*08
$GPGSV,3,1,11,01,16,120,35,02,19,312,35,04,45,273,36,07,68,
208,36,0*68
$GPGSV,3,2,11,08,27,213,35,13,60,359,36,16,12,053,35,20,41,120,36,0*64
$GPGSV,3,3,11,23,44,045,36,25,89,035,36,27,00,221,,0*51
$BDGSV,1,1,00,0*74

$GNRMC,001610.00,A,3127.999876,N,12117.999789,E,0.003,,200720,,,A,V*1A
$GNGGA,001610.00,3127.999876,N,12117.999789,E,1,09,0.98,40.8,M,9.5,M,,*40
$GNGSA,A,3,02,23,25,13,04,20,01,08,07,,,,1.70,0.98,1.39,1*03
$GNGSA,A,3,,,,,,,,,,,,,1.70,0.98,1.39,4*08
$GPGSV,3,1,11,01,16,120,35,02,19,312,35,04,45,273,36,07,68,
208,36,0*68
$GPGSV,3,2,11,08,27,213,35,13,60,359,36,16,12,053,35,20,41,120,36,0*64
$GPGSV,3,3,11,23,44,045,36,25,89,035,36,27,00,221,,0*51
$BDGSV,1,1,00,0*74

$GNRMC,001611.00,A,3127.999875,N,12117.999783,E,0.007,,200720,,,A,V*16
$GNGGA,001611.00,3127.999875,N,12117.999783,E,1,09,0.98,40.9,M,9.5,M,,*49
$GNGSA,A,3,02,23,25,13,04,20,01,08,07,,,,1.70,0.98,1.39,1*03
$GNGSA,A,3,,,,,,,,,,,,,1.70,0.98,1.39,4*08
$GPGSV,3,1,11,01,15,120,35,02,19,312,35,04,45,273,36,07,68,
208,36,0*6B
$GPGSV,3,2,11,08,27,213,35,13,60,359,36,16,12,053,34,20,41,120,36,0*65
$GPGSV,3,3,11,23,44,045,36,25,89,035,36,27,00,221,,0*51
$BDGSV,1,1,00,0*74

$GNRMC,001612.00,A,3127.999874,N,12117.999780,E,0.002,,200720,,,A,V*12
$GNGGA,001612.00,3127.999874,N,12117.999780,E,1,09,0.98,40.9,M,9.5,M,,*48
$GNGSA,A,3,02,23,25,13,04,20,01,08,07,,,,1.70,0.98,1.39,1*03
$GNGSA,A,3,,,,,,,,,,,,,1.70,0.98,1.39,4*08
$GPGSV,3,1,11,01,15,120,35,02,20,311,35,04,45,273,36,07,68,
208,36,0*62
$GPGSV,3,2,11,08,27,213,35,13,60,359,36,16,12,053,34,20,41,120,36,0*65
$GPGSV,3,3,11,23,44,045,36,25,89,035,36,27,00,221,,0*51
$BDGSV,1,1,00,0*74

<??????????????>

$GNRMC,001613.00,A,3127.999879,N,12117.999779,E,0.014,,200720,,,A,V*1F
$GNGGA,001613.00,3127.999879,N,12117.999779,E,1,09,0.98,40.9,M,9.5,M,,*42
$GNGSA,A,3,02,23,25,13,04,20,01,08,07,,,,1.70,0.98,1.39,1*03
$GNGSA,A,3,,,,,,,,,,,,,1.70,0.98,1.39,4*08
$GPGSV,3,1,11,01,15,120,35,02,20,311,35,04,45,273,36,07,68,
208,36,0*62
$GPGSV,3,2,11,08,27,213,35,13,60,360,36,16,12,053,34,20,41,120,36,0*6F
$GPGSV,3,3,11,23,44,045,36,25,89,035,36,27,00,221,,0*51
$BDGSV,1,1,00,0*74

$GNRMC,001614.00,A,3127.999879,N,12117.999776,E,0.000,,200720,,,A,V*12
$GNGGA,001614.00,3127.999879,N,12117.999776,E,1,09,0.98,40.9,M,9.5,M,,*4A
$GNGSA,A,3,02,23,25,13,04,20,01,08,07,,,,1.70,0.98,1.39,1*03
$GNGSA,A,3,,,,,,,,,,,,,1.70,0.98,1.39,4*08
$GPGSV,3,1,11,01,15,120,35,02,20,311,35,04,45,273,36,07,68,
208,36,0*62
$GPGSV,3,2,11,08,27,213,35,13,60,360,36,16,12,053,35,20,41,120,36,0*6E
$GPGSV,3,3,11,23,44,045,36,25,89,035,36,27,00,221,,0*51
$BDGSV,1,1,00,0*74

$GNRMC,001615.00,A,3127.999879,N,12117.999772,E,0.003,,200720,,,A,V*14
$GNGGA,001615.00,3127.999879,N,12117.999772,E,1,09,0.98,40.9,M,9.5,M,,*4F
$GNGSA,A,3,02,23,25,13,04,20,01,08,07,,,,1.70,0.98,1.39,1*03
$GNGSA,A,3,,,,,,,,,,,,,1.70,0.98,1.39,4*08
$GPGSV,3,1,11,01,15,120,35,02,20,311,35,04,45,273,36,07,68,
208,36,0*62
$GPGSV,3,2,11,08,27,213,35,13,60,360,36,16,12,053,35,20,41,120,36,0*6E
$GPGSV,3,3,11,23,44,045,36,25,89,035,36,27,00,221,,0*51
$BDGSV,1,1,00,0*74

$GNRMC,001616.00,A,3127.999882,N,12117.999770,E,0.005,,200720,,,A,V*17
$GNGGA,001616.00,3127.999882,N,12117.999770,E,1,09,0.98,40.9,M,9.5,M,,*4A
$GNGSA,A,3,02,23,25,13,04,20,01,08,07,,,,1.70,0.98,1.39,1*03
$GNGSA,A,3,,,,,,,,,,,,,1.70,0.98,1.39,4*08
$GPGSV,3,1,11,01,15,120,35,02,20,311,35,04,45,273,36,07,68,
208,36,0*62
$GPGSV,3,2,11,08,27,213,35,13,60,360,36,16,12,053,35,20,41,120,36,0*6E
$GPGSV,3,3,11,23,44,045,36,25,89,035,36,27,00,221,,0*51
$BDGSV,1,1,00,0*74

$GNRMC,001617.00,A,3127.999884,N,12117.999771,E,0.004,,200720,,,A,V*10
$GNGGA,001617.00,3127.999884,N,12117.999771,E,1,09,0.98,40.9,M,9.5,M,,*4C
$GNGSA,A,3,02,23,25,13,04,20,01,08,07,,,,1.70,0.98,1.39,1*03
$GNGSA,A,3,,,,,,,,,,,,,1.70,0.98,1.39,4*08
$GPGSV,3,1,11,01,15,120,35,02,20,311,35,04,45,273,36,07,68,
208,36,0*62
$GPGSV,3,2,11,08,27,213,35,13,60,360,36,16,12,053,35,20,41,120,36,0*6E
$GPGSV,3,3,11,23,44,045,36,25,89,035,36,27,00,221,,0*51
$BDGSV,1,1,00,0*74

$GNRMC,001618.00,A,3127.999891,N,12117.999774,E,0.009,,200720,,,A,V*13
$GNGGA,001618.00,3127.999891,N,12117.999774,E,1,09,0.98,40.9,M,9.5,M,,*42
$GNGSA,A,3,02,23,25,13,04,20,01,08,07,,,,1.70,0.98,1.39,1*03
$GNGSA,A,3,,,,,,,,,,,,,1.70,0.98,1.39,4*08
$GPGSV,3,1,11,01,15,120,35,02,20,311,35,04,45,273,36,07,68,
208,36,0*62
$GPGSV,3,2,11,08,28,213,35,13,60,360,36,16,12,053,35,20,41,120,36,0*61
$GPGSV,3,3,11,23,44,045,36,25,89,035,36,27,00,221,,0*51
$BDGSV,1,1,00,0*74

$GNRMC,001619.00,A,3127.999896,N,12117.999772,E,0.010,,200720,,,A,V*1B
$GNGGA,001619.00,3127.999896,N,12117.999772,E,1,09,0.98,40.9,M,9.5,M,,*42
$GNGSA,A,3,02,23,25,13,04,20,01,08,07,,,,1.70,0.98,1.39,1*03
$GNGSA,A,3,,,,,,,,,,,,,1.70,0.98,1.39,4*08
$GPGSV,3,1,11,01,15,120,35,02,20,311,35,04,45,273,36,07,68,
208,36,0*62
$GPGSV,3,2,11,08,28,213,35,13,60,360,36,16,12,053,35,20,41,120,36,0*61
$GPGSV,3,3,11,23,44,045,36,25,89,035,37,27,00,221,,0*50
$BDGSV,1,1,00,0*74

$GNRMC,001620.00,A,3127.999898,N,12117.999771,E,0.022,,200720,,,A,V*1D
$GNGGA,001620.00,3127.999898,N,12117.999771,E,1,09,0.98,40.9,M,9.5,M,,*45
$GNGSA,A,3,02,23,25,13,04,20,01,08,07,,,,1.70,0.98,1.39,1*03
$GNGSA,A,3,,,,,,,,,,,,,1.70,0.98,1.39,4*08
$GPGSV,3,1,11,01,15,120,35,02,20,311,35,04,45,273,36,07,68,
208,36,0*62
$GPGSV,3,2,11,08,28,213,35,13,60,360,36,16,12,053,35,20,41,120,36,0*61
$GPGSV,3,3,11,23,44,045,36,25,89,035,36,27,00,221,,0*51
$BDGSV,1,1,00,0*74

$GNRMC,001621.00,A,3127.999898,N,12117.999776,E,0.029,,200720,,,A,V*10
$GNGGA,001621.00,3127.999898,N,12117.999776,E,1,09,0.98,40.9,M,9.5,M,,*43
$GNGSA,A,3,02,23,25,13,04,20,01,08,07,,,,1.70,0.98,1.39,1*03
$GNGSA,A,3,,,,,,,,,,,,,1.70,0.98,1.39,4*08
$GPGSV,3,1,11,01,15,120,35,02,20,311,35,04,45,273,36,07,68,
208,36,0*62
$GPGSV,3,2,11,08,28,213,35,13,60,360,36,16,12,053,35,20,41,120,36,0*61
$GPGSV,3,3,11,23,44,045,36,25,89,035,36,27,00,221,,0*51
$BDGSV,1,1,00,0*74

$GNRMC,001622.00,A,3127.999901,N,12117.999777,E,0.011,,200720,,,A,V*18
$GNGGA,001622.00,3127.999901,N,12117.999777,E,1,09,0.98,40.9,M,9.5,M,,*40
$GNGSA,A,3,02,23,25,13,04,20,01,08,07,,,,1.70,0.98,1.39,1*03
$GNGSA,A,3,,,,,,,,,,,,,1.70,0.98,1.39,4*08
$GPGSV,3,1,11,01,15,120,35,02,20,311,35,04,45,273,36,07,68,
208,36,0*62
$GPGSV,3,2,11,08,28,213,35,13,60,360,36,16,12,053,35,20,41,120,36,0*61
$GPGSV,3,3,11,23,44,045,35,25,89,035,36,27,00,221,,0*52
$BDGSV,1,1,00,0*74

<????sim??????(SIM??:1)>
<????GSM????????(GSM:0)>
<????GPRS????????(GPRS:0)>
<????????????(SIGNAL:0)>
<????????????????(BER:0)>

<??????????????>

$GNRMC,001623.00,A,3127.999905,N,12117.999776,E,0.009,,200720,,,A,V*15
$GNGGA,001623.00,3127.999905,N,12117.999776,E,1,09,0.98,40.9,M,9.5,M,,*44
$GNGSA,A,3,02,23,25,13,04,20,01,08,07,,,,1.70,0.98,1.39,1*03
$GNGSA,A,3,,,,,,,,,,,,,1.70,0.98,1.39,4*08
$GPGSV,3,1,11,01,15,120,35,02,20,311,35,04,45,273,36,07,68,
208,36,0*62
$GPGSV,3,2,11,08,28,213,35,13,60,360,36,16,12,053,35,20,41,120,36,0*61
$GPGSV,3,3,11,23,44,045,36,25,89,035,36,27,00,221,,0*51
$BDGSV,1,1,00,0*74


GPS HPregnss> E1 15 00 00 00 00 07 53 8F 34 7B 00 00 00 1C 3E 0B 0E 6A 00 00 00 00 


$GNRMC,001624.00,A,3127.999910,N,12117.999783,E,0.012,,200720,,,A,V*16
$GNGGA,001624.00,3127.999910,N,12117.999783,E,1,09,0.98,40.9,M,9.5,M,,*4D
$GNGSA,A,3,02,23,25,13,04,20,01,08,07,,,,1.70,0.98,1.39,1*03
$GNGSA,A,3,,,,,,,,,,,,,1.70,0.98,1.39,4*08
$GPGSV,3,1,11,01,15,120,35,02,20,311,35,04,45,273,36,07,68,
208,36,0*62
$GPGSV,3,2,11,08,28,213,35,13,60,360,36,16,12,053,35,20,41,120,36,0*61
$GPGSV,3,3,11,23,44,045,36,25,89,035,36,27,00,221,,0*51
$BDGSV,1,1,00,0*74

$GNRMC,001625.00,A,3127.999913,N,12117.999786,E,0.010,,200720,,,A,V*13
$GNGGA,001625.00,3127.999913,N,12117.999786,E,1,09,0.98,40.9,M,9.5,M,,*4A
$GNGSA,A,3,02,23,25,13,04,20,01,08,07,,,,1.70,0.98,1.39,1*03
$GNGSA,A,3,,,,,,,,,,,,,1.70,0.98,1.39,4*08
$GPGSV,3,1,11,01,15,120,35,02,20,311,35,04,45,273,36,07,68,
208,36,0*62
$GPGSV,3,2,11,08,28,213,35,13,60,360,36,16,12,053,35,20,41,120,36,0*61
$GPGSV,3,3,11,23,44,045,36,25,89,035,36,27,00,221,,0*51
$BDGSV,1,1,00,0*74

$GNRMC,001626.00,A,3127.999913,N,12117.999788,E,0.007,,200720,,,A,V*18
$GNGGA,001626.00,3127.999913,N,12117.999788,E,1,09,0.98,40.9,M,9.5,M,,*47
$GNGSA,A,3,02,23,25,13,04,20,01,08,07,,,,1.70,0.98,1.39,1*03
$GNGSA,A,3,,,,,,,,,,,,,1.70,0.98,1.39,4*08
$GPGSV,3,1,11,01,15,120,35,02,20,311,35,04,45,273,36,07,68,
208,36,0*62
$GPGSV,3,2,11,08,28,213,35,13,60,360,36,16,12,053,35,20,41,120,36,0*61
$GPGSV,3,3,11,23,44,045,36,25,89,035,36,27,00,221,,0*51
$BDGSV,1,1,00,0*74

$GNRMC,001627.00,A,3127.999916,N,12117.999797,E,0.012,,200720,,,A,V*16
$GNGGA,001627.00,3127.999916,N,12117.999797,E,1,09,0.98,40.9,M,9.5,M,,*4D
$GNGSA,A,3,02,23,25,13,04,20,01,08,07,,,,1.70,0.98,1.39,1*03
$GNGSA,A,3,,,,,,,,,,,,,1.70,0.98,1.39,4*08
$GPGSV,3,1,11,01,15,120,35,02,20,311,35,04,45,273,36,07,68,
208,36,0*62
$GPGSV,3,2,11,08,28,213,35,13,60,360,36,16,12,053,35,20,41,120,36,0*61
$GPGSV,3,3,11,23,44,045,36,25,89,031,36,27,00,221,,0*55
$BDGSV,1,1,00,0*74

$GNRMC,001628.00,A,3127.999916,N,12117.999803,E,0.003,,200720,,,A,V*1B
$GNGGA,001628.00,3127.999916,N,12117.999803,E,1,09,0.98,40.9,M,9.5,M,,*40
$GNGSA,A,3,02,23,25,13,04,20,01,08,07,,,,1.70,0.98,1.39,1*03
$GNGSA,A,3,,,,,,,,,,,,,1.70,0.98,1.39,4*08
$GPGSV,3,1,11,01,15,120,35,02,20,311,35,04,45,273,36,07,68,
208,36,0*62
$GPGSV,3,2,11,08,28,213,35,13,60,360,36,16,12,053,34,20,41,120,36,0*60
$GPGSV,3,3,11,23,44,045,36,25,89,031,36,27,00,221,,0*55
$BDGSV,1,1,00,0*74

$GNRMC,001629.00,A,3127.999919,N,12117.999806,E,0.015,,200720,,,A,V*17
$GNGGA,001629.00,3127.999919,N,12117.999806,E,1,09,0.98,40.9,M,9.5,M,,*4B
$GNGSA,A,3,02,23,25,13,04,20,01,08,07,,,,1.70,0.98,1.39,1*03
$GNGSA,A,3,,,,,,,,,,,,,1.70,0.98,1.39,4*08
$GPGSV,3,1,11,01,15,120,35,02,20,311,34,04,45,273,36,07,68,
208,36,0*63
$GPGSV,3,2,11,08,28,213,35,13,60,360,36,16,12,053,35,20,41,120,36,0*61
$GPGSV,3,3,11,23,44,045,36,25,89,031,36,27,01,221,,0*54
$BDGSV,1,1,00,0*74

$GNRMC,001630.00,A,3127.999919,N,12117.999811,E,0.008,,200720,,,A,V*15
$GNGGA,001630.00,3127.999919,N,12117.999811,E,1,09,0.98,40.9,M,9.5,M,,*45
$GNGSA,A,3,02,23,25,13,04,20,01,08,07,,,,1.70,0.98,1.39,1*03
$GNGSA,A,3,,,,,,,,,,,,,1.70,0.98,1.39,4*08
$GPGSV,3,1,11,01,15,120,35,02,20,311,35,04,45,273,36,07,68,
208,36,0*62
$GPGSV,3,2,11,08,28,213,35,13,60,360,36,16,12,053,35,20,41,120,36,0*61
$GPGSV,3,3,11,23,44,045,36,25,89,031,36,27,01,221,,0*54
$BDGSV,1,1,00,0*74

$GNRMC,001631.00,A,3127.999922,N,12117.999809,E,0.018,,200720,,,A,V*14
$GNGGA,001631.00,3127.999922,N,12117.999809,E,1,09,0.98,40.9,M,9.5,M,,*45
$GNGSA,A,3,02,23,25,13,04,20,01,08,07,,,,1.70,0.98,1.39,1*03
$GNGSA,A,3,,,,,,,,,,,,,1.70,0.98,1.39,4*08
$GPGSV,3,1,11,01,15,120,35,02,20,311,35,04,45,273,36,07,68,
208,36,0*62
$GPGSV,3,2,11,08,28,213,35,13,60,360,36,16,12,053,34,20,41,120,36,0*60
$GPGSV,3,3,11,23,44,045,36,25,89,031,36,27,01,221,,0*54
$BDGSV,1,1,00,0*74

$GNRMC,001632.00,A,3127.999926,N,12117.999816,E,0.010,,200720,,,A,V*15
$GNGGA,001632.00,3127.999926,N,12117.999816,E,1,09,0.98,40.9,M,9.5,M,,*4C
$GNGSA,A,3,02,23,25,13,04,20,01,08,07,,,,1.70,0.98,1.39,1*03
$GNGSA,A,3,,,,,,,,,,,,,1.70,0.98,1.39,4*08
$GPGSV,3,1,11,01,15,120,35,02,20,311,35,04,45,273,35,07,68,
208,36,0*61
$GPGSV,3,2,11,08,28,213,35,13,60,360,36,16,12,053,34,20,41,120,36,0*60
$GPGSV,3,3,11,23,44,045,36,25,89,031,36,27,01,221,,0*54
$BDGSV,1,1,00,0*74

<??????????????>

$GNRMC,001633.00,A,3127.999932,N,12117.999818,E,0.010,,200720,,,A,V*1F
$GNGGA,001633.00,3127.999932,N,12117.999818,E,1,09,0.98,40.9,M,9.5,M,,*46
$GNGSA,A,3,02,23,25,13,04,20,01,08,07,,,,1.70,0.98,1.39,1*03
$GNGSA,A,3,,,,,,,,,,,,,1.70,0.98,1.39,4*08
$GPGSV,3,1,11,01,15,120,35,02,20,311,35,04,45,273,36,07,68,
208,36,0*62
$GPGSV,3,2,11,08,28,213,35,13,60,360,36,16,12,053,34,20,41,120,36,0*60
$GPGSV,3,3,11,23,44,045,36,25,89,031,36,27,01,221,,0*54
$BDGSV,1,1,00,0*74

$GNRMC,001634.00,A,3127.999929,N,12117.999812,E,0.008,,200720,,,A,V*11
$GNGGA,001634.00,3127.999929,N,12117.999812,E,1,09,0.98,40.9,M,9.5,M,,*41
$GNGSA,A,3,02,23,25,13,04,20,01,08,07,,,,1.70,0.98,1.39,1*03
$GNGSA,A,3,,,,,,,,,,,,,1.70,0.98,1.39,4*08
$GPGSV,3,1,11,01,15,120,35,02,20,311,35,04,45,273,35,07,68,
208,36,0*61
$GPGSV,3,2,11,08,28,213,35,13,60,360,36,16,12,053,35,20,41,120,36,0*61
$GPGSV,3,3,11,23,44,045,36,25,89,031,36,27,01,221,,0*54
$BDGSV,1,1,00,0*74

$GNRMC,001635.00,A,3127.999927,N,12117.999804,E,0.005,,200720,,,A,V*14
$GNGGA,001635.00,3127.999927,N,12117.999804,E,1,09,0.98,40.8,M,9.5,M,,*48
$GNGSA,A,3,02,23,25,13,04,20,01,08,07,,,,1.70,0.98,1.39,1*03
$GNGSA,A,3,,,,,,,,,,,,,1.70,0.98,1.39,4*08
$GPGSV,3,1,11,01,15,120,35,02,20,311,35,04,45,273,35,07,68,
208,36,0*61
$GPGSV,3,2,11,08,28,213,35,13,60,360,36,16,12,053,35,20,41,120,36,0*61
$GPGSV,3,3,11,23,44,045,35,25,89,031,36,27,01,221,,0*57
$BDGSV,1,1,00,0*74

$GNRMC,001636.00,A,3127.999933,N,12117.999794,E,0.018,,200720,,,A,V*18
$GNGGA,001636.00,3127.999933,N,12117.999794,E,1,09,0.98,40.8,M,9.5,M,,*48
$GNGSA,A,3,02,23,25,13,04,20,01,08,07,,,,1.70,0.98,1.39,1*03
$GNGSA,A,3,,,,,,,,,,,,,1.70,0.98,1.39,4*08
$GPGSV,3,1,11,01,15,120,35,02,20,311,35,04,45,273,36,07,68,
208,36,0*62
$GPGSV,3,2,11,08,28,213,35,13,60,360,36,16,12,053,35,20,41,120,36,0*61
$GPGSV,3,3,11,23,44,045,36,25,89,031,36,27,01,221,,0*54
$BDGSV,1,1,00,0*74

$GNRMC,001637.00,A,3127.999933,N,12117.999788,E,0.007,,200720,,,A,V*1A
$GNGGA,001637.00,3127.999933,N,12117.999788,E,1,09,0.98,40.8,M,9.5,M,,*44
$GNGSA,A,3,02,23,25,13,04,20,01,08,07,,,,1.70,0.98,1.39,1*03
$GNGSA,A,3,,,,,,,,,,,,,1.70,0.98,1.39,4*08
$GPGSV,3,1,11,01,15,120,35,02,20,311,35,04,45,273,36,07,68,
208,36,0*62
$GPGSV,3,2,11,08,28,213,35,13,60,360,36,16,12,053,35,20,41,120,36,0*61
$GPGSV,3,3,11,23,44,045,36,25,89,031,36,27,01,221,,0*54
$BDGSV,1,1,00,0*74

$GNRMC,001638.00,A,3127.999939,N,12117.999781,E,0.011,,200720,,,A,V*11
$GNGGA,001638.00,3127.999939,N,12117.999781,E,1,09,0.98,40.8,M,9.5,M,,*48
$GNGSA,A,3,02,23,25,13,04,20,01,08,07,,,,1.70,0.98,1.39,1*03
$GNGSA,A,3,,,,,,,,,,,,,1.70,0.98,1.39,4*08
$GPGSV,3,1,11,01,15,120,35,02,20,311,35,04,45,273,36,07,68,
208,36,0*62
$GPGSV,3,2,11,08,28,213,35,13,60,360,36,16,12,053,35,20,41,120,36,0*61
$GPGSV,3,3,11,23,44,045,36,25,89,031,36,27,01,221,,0*54
$BDGSV,1,1,00,0*74

$GNRMC,001639.00,A,3127.999942,N,12117.999774,E,0.007,,200720,,,A,V*11
$GNGGA,001639.00,3127.999942,N,12117.999774,E,1,09,0.98,40.8,M,9.5,M,,*4F
$GNGSA,A,3,02,23,25,13,04,20,01,08,07,,,,1.70,0.98,1.39,1*03
$GNGSA,A,3,,,,,,,,,,,,,1.70,0.98,1.39,4*08
$GPGSV,3,1,11,01,15,120,35,02,20,311,35,04,45,273,36,07,68,
208,36,0*62
$GPGSV,3,2,11,08,28,213,35,13,60,360,36,16,12,053,35,20,41,120,36,0*61
$GPGSV,3,3,11,23,44,045,36,25,89,031,36,27,01,221,,0*54
$BDGSV,1,1,00,0*74

$GNRMC,001640.00,A,3127.999938,N,12117.999768,E,0.018,,200720,,,A,V*11
$GNGGA,001640.00,3127.999938,N,12117.999768,E,1,09,0.98,40.8,M,9.5,M,,*41
$GNGSA,A,3,02,23,25,13,04,20,01,08,07,,,,1.70,0.98,1.39,1*03
$GNGSA,A,3,,,,,,,,,,,,,1.70,0.98,1.39,4*08
$GPGSV,3,1,11,01,15,120,35,02,20,311,35,04,45,273,36,07,68,
208,36,0*62
$GPGSV,3,2,11,08,28,213,35,13,60,360,36,16,12,053,35,20,41,120,36,0*61
$GPGSV,3,3,11,23,44,045,36,25,89,031,36,27,01,221,,0*54
$BDGSV,1,1,00,0*74

$GNRMC,001641.00,A,3127.999941,N,12117.999762,E,0.003,,200720,,,A,V*1E
$GNGGA,001641.00,3127.999941,N,12117.999762,E,1,09,0.98,40.8,M,9.5,M,,*44
$GNGSA,A,3,02,23,25,13,04,20,01,08,07,,,,1.70,0.98,1.39,1*03
$GNGSA,A,3,,,,,,,,,,,,,1.70,0.98,1.39,4*08
$GPGSV,3,1,11,01,15,120,35,02,20,311,35,04,45,273,36,07,68,
208,36,0*62
$GPGSV,3,2,11,08,28,213,35,13,60,360,36,16,12,053,35,20,41,120,36,0*61
$GPGSV,3,3,11,23,44,045,36,25,89,031,36,27,01,221,,0*54
$BDGSV,1,1,00,0*74

$GNRMC,001642.00,A,3127.999944,N,12117.999760,E,0.019,,200720,,,A,V*11
$GNGGA,001642.00,3127.999944,N,12117.999760,E,1,09,0.98,40.8,M,9.5,M,,*40
$GNGSA,A,3,02,23,25,13,04,20,01,08,07,,,,1.70,0.98,1.39,1*03
$GNGSA,A,3,,,,,,,,,,,,,1.70,0.98,1.39,4*08
$GPGSV,3,1,11,01,15,120,35,02,20,311,35,04,45,273,36,07,68,
208,36,0*62
$GPGSV,3,2,11,08,28,213,35,13,60,360,36,16,12,053,35,20,41,120,36,0*61
$GPGSV,3,3,11,23,44,045,36,25,89,031,36,27,01,221,,0*54
$BDGSV,1,1,00,0*74

<????sim??????(SIM??:1)>
<????GSM????????(GSM:0)>
<????GPRS????????(GPRS:0)>
<????????????(SIGNAL:0)>
<????????????????(BER:0)>

<??????????????>

$GNRMC,001643.00,A,3127.999948,N,12117.999759,E,0.019,,200720,,,A,V*16
$GNGGA,001643.00,3127.999948,N,12117.999759,E,1,09,0.98,40.8,M,9.5,M,,*47
$GNGSA,A,3,02,23,25,13,04,20,01,08,07,,,,1.70,0.98,1.39,1*03
$GNGSA,A,3,,,,,,,,,,,,,1.70,0.98,1.39,4*08
$GPGSV,3,1,11,01,15,120,35,02,20,311,35,04,45,273,35,07,68,
208,36,0*61
$GPGSV,3,2,11,08,28,213,35,13,60,360,36,16,12,053,35,20,41,120,36,0*61
$GPGSV,3,3,11,23,44,045,36,25,89,031,36,27,01,221,,0*54
$BDGSV,1,1,00,0*74

$GNRMC,001644.00,A,3127.999957,N,12117.999759,E,0.003,,200720,,,A,V*14
$GNGGA,001644.00,3127.999957,N,12117.999759,E,1,09,0.98,40.7,M,9.5,M,,*41
$GNGSA,A,3,02,23,25,13,04,20,01,08,07,,,,1.70,0.98,1.39,1*03
$GNGSA,A,3,,,,,,,,,,,,,1.70,0.98,1.39,4*08
$GPGSV,3,1,11,01,15,120,35,02,20,311,35,04,45,273,35,07,68,
208,36,0*61
$GPGSV,3,2,11,08,28,213,35,13,60,360,36,16,12,053,35,20,41,120,36,0*61
$GPGSV,3,3,11,23,44,045,36,25,89,031,36,27,01,221,,0*54
$BDGSV,1,1,00,0*74

$GNRMC,001645.00,A,3127.999964,N,12117.999759,E,0.008,,200720,,,A,V*1E
$GNGGA,001645.00,3127.999964,N,12117.999759,E,1,09,0.98,40.8,M,9.5,M,,*4F
$GNGSA,A,3,02,23,25,13,04,20,01,08,07,,,,1.70,0.98,1.39,1*03
$GNGSA,A,3,,,,,,,,,,,,,1.70,0.98,1.39,4*08
$GPGSV,3,1,11,01,15,120,35,02,20,311,35,04,45,273,36,07,68,
208,36,0*62
$GPGSV,3,2,11,08,28,213,35,13,60,360,36,16,12,053,35,20,41,120,36,0*61
$GPGSV,3,3,11,23,44,045,36,25,89,031,36,27,01,221,,0*54
$BDGSV,1,1,00,0*74

$GNRMC,001646.00,A,3127.999977,N,12117.999762,E,0.025,,200720,,,A,V*18
$GNGGA,001646.00,3127.999977,N,12117.999762,E,1,09,0.98,40.8,M,9.5,M,,*46
$GNGSA,A,3,02,23,25,13,04,20,01,08,07,,,,1.70,0.98,1.39,1*03
$GNGSA,A,3,,,,,,,,,,,,,1.70,0.98,1.39,4*08
$GPGSV,3,1,11,01,15,120,35,02,20,311,35,04,45,273,36,07,68,
208,36,0*62
$GPGSV,3,2,11,08,28,213,35,13,60,360,36,16,12,053,35,20,41,120,36,0*61
$GPGSV,3,3,11,23,44,045,36,25,89,031,36,27,01,221,,0*54
$BDGSV,1,1,00,0*74

$GNRMC,001647.00,A,3127.999983,N,12117.999765,E,0.007,,200720,,,A,V*15
$GNGGA,001647.00,3127.999983,N,12117.999765,E,1,09,0.98,40.7,M,9.5,M,,*44
$GNGSA,A,3,02,23,25,13,04,20,01,08,07,,,,1.70,0.98,1.39,1*03
$GNGSA,A,3,,,,,,,,,,,,,1.70,0.98,1.39,4*08
$GPGSV,3,1,11,01,15,120,35,02,20,311,35,04,45,273,35,07,68,
208,36,0*61
$GPGSV,3,2,11,08,28,213,35,13,60,360,36,16,12,053,35,20,41,120,36,0*61
$GPGSV,3,3,11,23,44,045,36,25,89,031,36,27,01,221,,0*54
$BDGSV,1,1,00,0*74

$GNRMC,001648.00,A,3127.999990,N,12117.999767,E,0.009,,200720,,,A,V*14
$GNGGA,001648.00,3127.999990,N,12117.999767,E,1,09,0.98,40.7,M,9.5,M,,*4B
$GNGSA,A,3,02,23,25,13,04,20,01,08,07,,,,1.70,0.98,1.39,1*03
$GNGSA,A,3,,,,,,,,,,,,,1.70,0.98,1.39,4*08
$GPGSV,3,1,11,01,15,120,35,02,20,311,35,04,45,273,35,07,68,
208,36,0*61
$GPGSV,3,2,11,08,28,213,35,13,60,360,36,16,12,053,34,20,41,120,36,0*60
$GPGSV,3,3,11,23,44,045,36,25,89,031,36,27,01,221,,0*54
$BDGSV,1,1,00,0*74

$GNRMC,001649.00,A,3127.999990,N,12117.999770,E,0.004,,200720,,,A,V*1E
$GNGGA,001649.00,3127.999990,N,12117.999770,E,1,09,0.98,40.7,M,9.5,M,,*4C
$GNGSA,A,3,02,23,25,13,04,20,01,08,07,,,,1.70,0.98,1.39,1*03
$GNGSA,A,3,,,,,,,,,,,,,1.70,0.98,1.39,4*08
$GPGSV,3,1,11,01,15,120,35,02,20,311,35,04,45,273,35,07,68,
208,36,0*61
$GPGSV,3,2,11,08,28,213,35,13,60,360,36,16,12,053,35,20,41,120,36,0*61
$GPGSV,3,3,11,23,44,045,36,25,89,031,36,27,01,221,,0*54
$BDGSV,1,1,00,0*74

$GNRMC,001650.00,A,3127.999996,N,12117.999773,E,0.018,,200720,,,A,V*1E
$GNGGA,001650.00,3127.999996,N,12117.999773,E,1,09,0.98,40.7,M,9.5,M,,*41
$GNGSA,A,3,02,23,25,13,04,20,01,08,07,,,,1.70,0.98,1.39,1*03
$GNGSA,A,3,,,,,,,,,,,,,1.70,0.98,1.39,4*08
$GPGSV,3,1,11,01,15,120,35,02,20,311,35,04,45,273,36,07,68,
208,36,0*62
$GPGSV,3,2,11,08,28,213,35,13,60,000,36,16,12,053,35,20,41,120,36,0*64
$GPGSV,3,3,11,23,44,045,36,25,89,031,36,27,01,221,,0*54
$BDGSV,1,1,00,0*74

$GNRMC,001651.00,A,3127.999993,N,12117.999770,E,0.001,,200720,,,A,V*11
$GNGGA,001651.00,3127.999993,N,12117.999770,E,1,09,0.98,40.7,M,9.5,M,,*46
$GNGSA,A,3,02,23,25,13,04,20,01,08,07,,,,1.70,0.98,1.39,1*03
$GNGSA,A,3,,,,,,,,,,,,,1.70,0.98,1.39,4*08
$GPGSV,3,1,11,01,15,120,35,02,20,311,35,04,45,273,36,07,68,
208,36,0*62
$GPGSV,3,2,11,08,28,213,35,13,60,000,36,16,12,053,35,20,41,120,36,0*64
$GPGSV,3,3,11,23,44,045,36,25,89,031,36,27,01,221,,0*54
$BDGSV,1,1,00,0*74

$GNRMC,001652.00,A,3127.999992,N,12117.999767,E,0.013,,200720,,,A,V*16
$GNGGA,001652.00,3127.999992,N,12117.999767,E,1,09,0.98,40.7,M,9.5,M,,*42
$GNGSA,A,3,02,23,25,13,04,20,01,08,07,,,,1.70,0.98,1.39,1*03
$GNGSA,A,3,,,,,,,,,,,,,1.70,0.98,1.39,4*08
$GPGSV,3,1,11,01,15,120,35,02,20,311,35,04,45,273,36,07,68,
208,36,0*62
$GPGSV,3,2,11,08,28,213,35,13,60,000,36,16,12,053,35,20,41,120,36,0*64
$GPGSV,3,3,11,23,44,045,36,25,89,031,36,27,01,221,,0*54
$BDGSV,1,1,00,0*74

<??????????????>

$GNRMC,001653.00,A,3127.999983,N,12117.999762,E,0.003,,200720,,,A,V*13
