$GNRMC,000610.00,V,,,,,,,200720,,,N,V*19
$GNGGA,000610.00,,,,,0,00,99.9,,,,,,*46
$GNGSA,A,1,,,,,,,,,,,,,99.9,99.9,99.9,1*0A
$GNGSA,A,1,,,,,,,,,,,,,99.9,99.9,99.9,4*0F
$GPGSV,3,1,10,01,19,117,35,02,17,315,35,04,45,280,36,07,63,205,36,0*61
$GPGSV,3,2,10,08,23,211,35,13,61,350,36,16,13,057,35,20,44,116,36,0*6
E
$GPGSV,3,3,10,23,47,040,36,25,85,194,36,0*64
$BDGSV,1,1,00,0*74

$GNRMC,235956.00,A,3128.000221,N,12117.999848,E,0.065,,190720,,,A,V*14
$GNGGA,235956.00,3128.000221,N,12117.999848,E,1,07,1.02,42.9,M,9.5,M,,*4B
$GNGSA,A,3,04,08,02,13,23,07,01,,,,,,1.88,1.02,1.58,1*04
$GNGSA,A,3,,,,,,,,,,,,,1.88,1.02,1.58,4*0A
$GPGSV,3,1,10,01,19,117,35,02,17,315,35,04,45,280,36,07,63,205,
36,0*61
$GPGSV,3,2,10,08,23,211,35,13,61,350,36,16,13,057,35,20,44,116,36,0*6E
$GPGSV,3,3,10,23,47,040,36,25,82,195,36,0*62
$BDGSV,1,1,00,0*74

$GNRMC,235957.00,A,3128.000216,N,12117.999819,E,0.005,,190720,,,A,V*13
$GNGGA,235957.00,3128.000216,N,12117.999819,E,1,07,1.02,42.8,M,9.5,M,,*4B
$GNGSA,A,3,04,08,02,13,23,07,01,,,,,,1.88,1.02,1.58,1*04
$GNGSA,A,3,,,,,,,,,,,,,1.88,1.02,1.58,4*0A
$GPGSV,3,1,11,01,21,115,35,02,15,317,35,04,44,284,36,07,60,203,
36,0*69
$GPGSV,3,2,11,08,21,210,35,11,01,171,,13,62,344,36,16,14,060,35,0*6E
$GPGSV,3,3,11,20,46,112,36,23,49,037,36,25,82,195,37,0*5B
$BDGSV,1,1,00,0*74
<??????????????>

$GNRMC,235958.00,A,3128.000251,N,12117.999793,E,0.017,,190720,,,A,V*11
$GNGGA,235958.00,3128.000251,N,12117.999793,E,1,07,1.02,42.7,M,9.5,M,,*45
$GNGSA,A,3,04,08,02,13,23,07,01,,,,,,1.88,1.02,1.58,1*04
$GNGSA,A,3,,,,,,,,,,,,,1.88,1.02,1.58,4*0A
$GPGSV,3,1,11,01,21,115,35,02,15,317,35,04,44,284,36,07,60,203,
36,0*69
$GPGSV,3,2,11,08,21,210,35,11,01,171,,13,62,344,36,16,14,060,35,0*6E
$GPGSV,3,3,11,20,46,112,36,23,49,037,36,25,82,195,,0*5F
$BDGSV,1,1,00,0*74

$GNRMC,235959.00,A,3128.000278,N,12117.999770,E,0.015,,190720,,,A,V*14
$GNGGA,235959.00,3128.000278,N,12117.999770,E,1,09,0.96,42.3,M,9.5,M,,*44
$GNGSA,A,3,25,04,08,02,13,20,23,07,01,,,,1.66,0.96,1.35,1*06
$GNGSA,A,3,,,,,,,,,,,,,1.66,0.96,1.35,4*0D
$GPGSV,3,1,11,01,21,115,35,02,15,317,35,04,44,284,36,07,60,
203,36,0*69
$GPGSV,3,2,11,08,21,210,35,11,01,171,,13,62,344,36,16,14,060,35,0*6E
$GPGSV,3,3,11,20,46,112,36,23,49,037,36,25,82,195,36,0*5A
$BDGSV,1,1,00,0*74

$GNRMC,000000.00,A,3128.000289,N,12117.999766,E,0.005,,200720,,,A,V*17
$GNGGA,000000.00,3128.000289,N,12117.999766,E,1,09,0.96,42.1,M,9.5,M,,*4E
$GNGSA,A,3,25,04,08,02,13,20,23,07,01,,,,1.66,0.96,1.35,1*06
$GNGSA,A,3,,,,,,,,,,,,,1.66,0.96,1.35,4*0D
$GPGSV,3,1,11,01,21,115,35,02,15,317,35,04,44,284,36,07,60,
203,36,0*69
$GPGSV,3,2,11,08,21,210,35,11,01,171,,13,62,344,36,16,14,060,35,0*6E
$GPGSV,3,3,11,20,46,112,35,23,49,037,36,25,82,195,36,0*59
$BDGSV,1,1,00,0*74

$GNRMC,000001.00,A,3128.000372,N,12117.999702,E,0.152,,200720,,,A,V*12
$GNGGA,000001.00,3128.000372,N,12117.999702,E,1,09,0.96,41.6,M,9.5,M,,*4C
$GNGSA,A,3,25,04,08,02,13,20,23,07,01,,,,1.66,0.96,1.35,1*06
$GNGSA,A,3,,,,,,,,,,,,,1.66,0.96,1.35,4*0D
$GPGSV,3,1,11,01,21,115,35,02,15,317,35,04,44,284,36,07,60,
203,36,0*69
$GPGSV,3,2,11,08,21,210,35,11,01,171,,13,62,344,36,16,14,060,35,0*6E
$GPGSV,3,3,11,20,46,112,36,23,49,037,36,25,82,195,36,0*5A
$BDGSV,1,1,00,0*74

$GNRMC,000002.00,A,3128.000348,N,12117.999721,E,0.003,,200720,,,A,V*1C
$GNGGA,000002.00,3128.000348,N,12117.999721,E,1,09,0.96,41.6,M,9.5,M,,*47
$GNGSA,A,3,25,04,08,02,13,20,23,07,01,,,,1.66,0.96,1.35,1*06
$GNGSA,A,3,,,,,,,,,,,,,1.66,0.96,1.35,4*0D
$GPGSV,3,1,11,01,21,115,35,02,15,317,35,04,44,284,36,07,60,
203,36,0*69
$GPGSV,3,2,11,08,21,210,35,11,01,171,,13,62,344,36,16,14,060,35,0*6E
$GPGSV,3,3,11,20,46,112,36,23,49,037,36,25,82,195,36,0*5A
$BDGSV,1,1,00,0*74

$GNRMC,000003.00,A,3128.000313,N,12117.999757,E,0.006,,200720,,,A,V*17
$GNGGA,000003.00,3128.000313,N,12117.999757,E,1,09,0.96,41.6,M,9.5,M,,*49
$GNGSA,A,3,25,04,08,02,13,20,23,07,01,,,,1.66,0.96,1.35,1*06
$GNGSA,A,3,,,,,,,,,,,,,1.66,0.96,1.35,4*0D
$GPGSV,3,1,11,01,21,115,35,02,15,317,35,04,44,284,36,07,60,
203,36,0*69
$GPGSV,3,2,11,08,21,210,35,11,01,171,,13,62,344,36,16,14,060,35,0*6E
$GPGSV,3,3,11,20,46,112,36,23,49,037,36,25,82,195,36,0*5A
$BDGSV,1,1,00,0*74

$GNRMC,000004.00,A,3128.000280,N,12117.999785,E,0.005,,200720,,,A,V*17
$GNGGA,000004.00,3128.000280,N,12117.999785,E,1,09,0.96,41.7,M,9.5,M,,*4B
$GNGSA,A,3,25,04,08,02,13,20,23,07,01,,,,1.66,0.96,1.35,1*06
$GNGSA,A,3,,,,,,,,,,,,,1.66,0.96,1.35,4*0D
$GPGSV,3,1,11,01,21,115,35,02,15,317,35,04,44,284,36,07,60,
203,36,0*69
$GPGSV,3,2,11,08,21,210,35,11,01,171,,13,62,344,36,16,14,060,35,0*6E
$GPGSV,3,3,11,20,46,112,36,23,49,037,36,25,82,195,36,0*5A
$BDGSV,1,1,00,0*74

$GNRMC,000005.00,A,3128.000256,N,12117.999794,E,0.009,,200720,,,A,V*11
$GNGGA,000005.00,3128.000256,N,12117.999794,E,1,09,0.96,41.6,M,9.5,M,,*40
$GNGSA,A,3,25,04,08,02,13,20,23,07,01,,,,1.66,0.96,1.35,1*06
$GNGSA,A,3,,,,,,,,,,,,,1.66,0.96,1.35,4*0D
$GPGSV,3,1,11,01,21,115,35,02,15,317,35,04,44,284,36,07,60,
203,36,0*69
$GPGSV,3,2,11,08,21,210,35,11,01,171,,13,62,344,36,16,14,060,35,0*6E
$GPGSV,3,3,11,20,46,112,36,23,49,037,36,25,82,195,36,0*5A
$BDGSV,1,1,00,0*74

$GNRMC,000006.00,A,3128.000236,N,12117.999807,E,0.010,,200720,,,A,V*19
$GNGGA,000006.00,3128.000236,N,12117.999807,E,1,09,0.96,41.6,M,9.5,M,,*40
$GNGSA,A,3,25,04,08,02,13,20,23,07,01,,,,1.66,0.96,1.35,1*06
$GNGSA,A,3,,,,,,,,,,,,,1.66,0.96,1.35,4*0D
$GPGSV,3,1,11,01,21,115,35,02,15,317,35,04,44,284,36,07,60,
203,36,0*69
$GPGSV,3,2,11,08,21,210,35,11,01,171,,13,62,344,36,16,14,060,35,0*6E
$GPGSV,3,3,11,20,46,112,36,23,49,037,36,25,82,195,36,0*5A
$BDGSV,1,1,00,0*74

$GNRMC,000007.00,A,3128.000218,N,12117.999818,E,0.012,,200720,,,A,V*18
$GNGGA,000007.00,3128.000218,N,12117.999818,E,1,09,0.96,41.5,M,9.5,M,,*40
$GNGSA,A,3,25,04,08,02,13,20,23,07,01,,,,1.66,0.96,1.35,1*06
$GNGSA,A,3,,,,,,,,,,,,,1.66,0.96,1.35,4*0D
$GPGSV,3,1,11,01,21,115,35,02,15,317,35,04,44,284,36,07,60,
203,36,0*69
$GPGSV,3,2,11,08,21,210,35,11,01,171,,13,62,344,36,16,14,060,35,0*6E
$GPGSV,3,3,11,20,46,112,36,23,49,037,36,25,82,195,36,0*5A
$BDGSV,1,1,00,0*74
<????sim??????(SIM??:1)>
<????GSM????????(GSM:0)>
<????GPRS????????(GPRS:0)>
<????????????(SIGNAL:0)>
<????????????????(BER:0)>

<??????????????>

$GNRMC,000008.00,A,3128.000199,N,12117.999834,E,0.012,,200720,,,A,V*13
$GNGGA,000008.00,3128.000199,N,12117.999834,E,1,09,0.96,41.4,M,9.5,M,,*4A
$GNGSA,A,3,25,04,08,02,13,20,23,07,01,,,,1.66,0.96,1.35,1*06
$GNGSA,A,3,,,,,,,,,,,,,1.66,0.96,1.35,4*0D
$GPGSV,3,1,11,01,21,115,35,02,15,317,35,04,44,284,36,07,60,
203,36,0*69
$GPGSV,3,2,11,08,21,210,35,11,01,171,,13,62,344,36,16,14,060,35,0*6E
$GPGSV,3,3,11,20,46,112,36,23,49,037,36,25,82,195,36,0*5A
$BDGSV,1,1,00,0*74

$GNRMC,000009.00,A,3128.000196,N,12117.999846,E,0.006,,200720,,,A,V*1D
$GNGGA,000009.00,3128.000196,N,12117.999846,E,1,09,0.96,41.3,M,9.5,M,,*46
$GNGSA,A,3,25,04,08,02,13,20,23,07,01,,,,1.66,0.96,1.35,1*06
$GNGSA,A,3,,,,,,,,,,,,,1.66,0.96,1.35,4*0D
$GPGSV,3,1,11,01,21,115,35,02,15,317,35,04,44,284,36,07,60,
203,36,0*69
$GPGSV,3,2,11,08,21,210,35,11,01,171,,13,62,344,36,16,14,060,35,0*6E
$GPGSV,3,3,11,20,46,112,36,23,49,037,36,25,82,195,36,0*5A
$BDGSV,1,1,00,0*74

$GNRMC,000010.00,A,3128.000191,N,12117.999860,E,0.014,,200720,,,A,V*15
$GNGGA,000010.00,3128.000191,N,12117.999860,E,1,09,0.96,41.2,M,9.5,M,,*4C
$GNGSA,A,3,25,04,08,02,13,20,23,07,01,,,,1.66,0.96,1.35,1*06
$GNGSA,A,3,,,,,,,,,,,,,1.66,0.96,1.35,4*0D
$GPGSV,3,1,11,01,21,115,35,02,15,317,35,04,44,284,36,07,60,
203,36,0*69
$GPGSV,3,2,11,08,21,211,35,11,01,171,,13,62,344,36,16,14,060,35,0*6F
$GPGSV,3,3,11,20,46,112,36,23,49,037,36,25,82,195,36,0*5A
$BDGSV,1,1,00,0*74

$GNRMC,000011.00,A,3128.000178,N,12117.999864,E,0.006,,200720,,,A,V*14
$GNGGA,000011.00,3128.000178,N,12117.999864,E,1,09,0.96,41.2,M,9.5,M,,*4E
$GNGSA,A,3,25,04,08,02,13,20,23,07,01,,,,1.66,0.96,1.35,1*06
$GNGSA,A,3,,,,,,,,,,,,,1.66,0.96,1.35,4*0D
$GPGSV,3,1,11,01,21,115,35,02,15,317,35,04,44,284,36,07,60,
203,36,0*69
$GPGSV,3,2,11,08,21,211,35,11,01,171,,13,62,344,36,16,14,060,35,0*6F
$GPGSV,3,3,11,20,46,112,36,23,49,037,36,25,82,195,36,0*5A
$BDGSV,1,1,00,0*74

$GNRMC,000012.00,A,3128.000169,N,12117.999871,E,0.004,,200720,,,A,V*11
$GNGGA,000012.00,3128.000169,N,12117.999871,E,1,09,0.96,41.1,M,9.5,M,,*4A
$GNGSA,A,3,25,04,08,02,13,20,23,07,01,,,,1.66,0.96,1.35,1*06
$GNGSA,A,3,,,,,,,,,,,,,1.66,0.96,1.35,4*0D
$GPGSV,3,1,11,01,21,115,35,02,15,317,35,04,44,284,36,07,60,
203,36,0*69
$GPGSV,3,2,11,08,21,211,35,11,01,171,,13,62,344,36,16,14,060,35,0*6F
$GPGSV,3,3,11,20,46,112,36,23,49,037,36,25,82,195,36,0*5A
$BDGSV,1,1,00,0*74

$GNRMC,000013.00,A,3128.000159,N,12117.999872,E,0.011,,200720,,,A,V*14
$GNGGA,000013.00,3128.000159,N,12117.999872,E,1,09,0.96,41.0,M,9.5,M,,*4A
$GNGSA,A,3,25,04,08,02,13,20,23,07,01,,,,1.66,0.96,1.35,1*06
$GNGSA,A,3,,,,,,,,,,,,,1.66,0.96,1.35,4*0D
$GPGSV,3,1,11,01,21,115,35,02,15,317,35,04,44,284,36,07,60,
203,36,0*69
$GPGSV,3,2,11,08,21,211,35,11,01,171,,13,62,344,36,16,14,060,35,0*6F
$GPGSV,3,3,11,20,46,112,36,23,49,037,36,25,82,195,36,0*5A
$BDGSV,1,1,00,0*74

$GNRMC,000014.00,A,3128.000149,N,12117.999875,E,0.007,,200720,,,A,V*12
$GNGGA,000014.00,3128.000149,N,12117.999875,E,1,09,0.96,41.0,M,9.5,M,,*4B
$GNGSA,A,3,25,04,08,02,13,20,23,07,01,,,,1.66,0.96,1.35,1*06
$GNGSA,A,3,,,,,,,,,,,,,1.66,0.96,1.35,4*0D
$GPGSV,3,1,11,01,21,115,35,02,15,317,35,04,44,284,36,07,60,
203,36,0*69
$GPGSV,3,2,11,08,21,211,35,11,01,171,,13,62,344,36,16,14,060,35,0*6F
$GPGSV,3,3,11,20,46,112,36,23,49,037,36,25,82,195,36,0*5A
$BDGSV,1,1,00,0*74

$GNRMC,000015.00,A,3128.000137,N,12117.999867,E,0.022,,200720,,,A,V*1E
$GNGGA,000015.00,3128.000137,N,12117.999867,E,1,09,0.96,40.9,M,9.5,M,,*48
$GNGSA,A,3,25,04,08,02,13,20,23,07,01,,,,1.66,0.96,1.35,1*06
$GNGSA,A,3,,,,,,,,,,,,,1.66,0.96,1.35,4*0D
$GPGSV,3,1,11,01,21,115,35,02,15,317,35,04,44,284,36,07,60,
203,36,0*69
$GPGSV,3,2,11,08,21,211,35,11,01,171,,13,62,345,36,16,14,060,35,0*6E
$GPGSV,3,3,11,20,46,112,36,23,49,037,36,25,82,195,36,0*5A
$BDGSV,1,1,00,0*74

$GNRMC,000016.00,A,3128.000119,N,12117.999867,E,0.015,,200720,,,A,V*15
$GNGGA,000016.00,3128.000119,N,12117.999867,E,1,09,0.96,40.9,M,9.5,M,,*47
$GNGSA,A,3,25,04,08,02,13,20,23,07,01,,,,1.66,0.96,1.35,1*06
$GNGSA,A,3,,,,,,,,,,,,,1.66,0.96,1.35,4*0D
$GPGSV,3,1,11,01,21,115,35,02,15,317,35,04,44,284,36,07,60,
203,36,0*69
$GPGSV,3,2,11,08,21,211,35,11,01,171,,13,62,345,36,16,14,060,35,0*6E
$GPGSV,3,3,11,20,46,112,36,23,49,037,36,25,82,195,36,0*5A
$BDGSV,1,1,00,0*74

$GNRMC,000017.00,A,3128.000103,N,12117.999862,E,0.014,,200720,,,A,V*1B
$GNGGA,000017.00,3128.000103,N,12117.999862,E,1,09,0.96,40.9,M,9.5,M,,*48
$GNGSA,A,3,25,04,08,02,13,20,23,07,01,,,,1.66,0.96,1.35,1*06
$GNGSA,A,3,,,,,,,,,,,,,1.66,0.96,1.35,4*0D
$GPGSV,3,1,11,01,21,115,35,02,15,317,35,04,44,284,36,07,60,
203,36,0*69
$GPGSV,3,2,11,08,21,211,35,11,01,171,,13,62,345,36,16,14,060,35,0*6E
$GPGSV,3,3,11,20,46,112,36,23,49,037,36,25,82,195,36,0*5A
$BDGSV,1,1,00,0*74

<??????????????>

$GNRMC,000018.00,A,3128.000088,N,12117.999859,E,0.003,,200720,,,A,V*18
$GNGGA,000018.00,3128.000088,N,12117.999859,E,1,09,0.96,40.8,M,9.5,M,,*4C
$GNGSA,A,3,25,04,08,02,13,20,23,07,01,,,,1.66,0.96,1.35,1*06
$GNGSA,A,3,,,,,,,,,,,,,1.66,0.96,1.35,4*0D
$GPGSV,3,1,11,01,21,115,35,02,15,317,35,04,44,284,36,07,60,
203,36,0*69
$GPGSV,3,2,11,08,21,211,35,11,01,171,,13,62,345,36,16,14,060,35,0*6E
$GPGSV,3,3,11,20,46,112,36,23,49,037,36,25,82,195,36,0*5A
$BDGSV,1,1,00,0*74

$GNRMC,000019.00,A,3128.000072,N,12117.999851,E,0.010,,200720,,,A,V*16
$GNGGA,000019.00,3128.000072,N,12117.999851,E,1,09,0.96,40.8,M,9.5,M,,*40
$GNGSA,A,3,25,04,08,02,13,20,23,07,01,,,,1.66,0.96,1.35,1*06
$GNGSA,A,3,,,,,,,,,,,,,1.66,0.96,1.35,4*0D
$GPGSV,3,1,11,01,21,115,35,02,15,317,35,04,44,284,36,07,60,
203,36,0*69
$GPGSV,3,2,11,08,21,211,35,11,01,171,,13,62,345,36,16,14,060,35,0*6E
$GPGSV,3,3,11,20,46,113,36,23,49,037,36,25,82,195,36,0*5B
$BDGSV,1,1,00,0*74

$GNRMC,000020.00,A,3128.000063,N,12117.999852,E,0.021,,200720,,,A,V*1D
$GNGGA,000020.00,3128.000063,N,12117.999852,E,1,09,0.96,40.8,M,9.5,M,,*49
$GNGSA,A,3,25,04,08,02,13,20,23,07,01,,,,1.66,0.96,1.35,1*06
$GNGSA,A,3,,,,,,,,,,,,,1.66,0.96,1.35,4*0D
$GPGSV,3,1,11,01,21,115,35,02,15,317,35,04,44,284,36,07,60,
203,36,0*69
$GPGSV,3,2,11,08,21,211,35,11,01,171,,13,62,345,36,16,14,060,35,0*6E
$GPGSV,3,3,11,20,46,113,36,23,49,037,36,25,82,195,36,0*5B
$BDGSV,1,1,00,0*74

$GNRMC,000021.00,A,3128.000045,N,12117.999848,E,0.014,,200720,,,A,V*15
$GNGGA,000021.00,3128.000045,N,12117.999848,E,1,09,0.96,40.8,M,9.5,M,,*47
$GNGSA,A,3,25,04,08,02,13,20,23,07,01,,,,1.66,0.96,1.35,1*06
$GNGSA,A,3,,,,,,,,,,,,,1.66,0.96,1.35,4*0D
$GPGSV,3,1,11,01,21,115,35,02,15,317,35,04,44,284,36,07,60,
203,36,0*69
$GPGSV,3,2,11,08,21,211,35,11,01,171,,13,62,345,36,16,14,060,35,0*6E
$GPGSV,3,3,11,20,46,113,36,23,49,037,36,25,83,195,36,0*5A
$BDGSV,1,1,00,0*74

$GNRMC,000022.00,A,3128.000030,N,12117.999838,E,0.007,,200720,,,A,V*11
$GNGGA,000022.00,3128.000030,N,12117.999838,E,1,09,0.96,40.7,M,9.5,M,,*4E
$GNGSA,A,3,25,04,08,02,13,20,23,07,01,,,,1.66,0.96,1.35,1*06
$GNGSA,A,3,,,,,,,,,,,,,1.66,0.96,1.35,4*0D
$GPGSV,3,1,11,01,21,115,35,02,15,317,35,04,44,284,36,07,60,
203,36,0*69
$GPGSV,3,2,11,08,21,211,35,11,01,171,,13,62,345,36,16,14,060,35,0*6E
$GPGSV,3,3,11,20,46,113,36,23,49,037,36,25,83,195,36,0*5A
$BDGSV,1,1,00,0*74

$GNRMC,000023.00,A,3128.000020,N,12117.999830,E,0.010,,200720,,,A,V*1F
$GNGGA,000023.00,3128.000020,N,12117.999830,E,1,09,0.96,40.8,M,9.5,M,,*49
$GNGSA,A,3,25,04,08,02,13,20,23,07,01,,,,1.66,0.96,1.35,1*06
$GNGSA,A,3,,,,,,,,,,,,,1.66,0.96,1.35,4*0D
$GPGSV,3,1,11,01,21,115,35,02,15,317,35,04,44,284,36,07,60,
203,36,0*69
$GPGSV,3,2,11,08,21,211,35,11,01,171,,13,62,345,36,16,14,060,35,0*6E
$GPGSV,3,3,11,20,46,113,36,23,49,037,36,25,83,195,36,0*5A
$BDGSV,1,1,00,0*74

$GNRMC,000024.00,A,3128.000014,N,12117.999825,E,0.009,,200720,,,A,V*13
$GNGGA,000024.00,3128.000014,N,12117.999825,E,1,09,0.96,40.7,M,9.5,M,,*42
$GNGSA,A,3,25,04,08,02,13,20,23,07,01,,,,1.66,0.96,1.35,1*06
$GNGSA,A,3,,,,,,,,,,,,,1.66,0.96,1.35,4*0D
$GPGSV,3,1,11,01,21,115,35,02,15,317,35,04,44,284,36,07,60,
203,36,0*69
$GPGSV,3,2,11,08,21,211,35,11,01,171,,13,62,345,36,16,14,060,35,0*6E
$GPGSV,3,3,11,20,46,113,36,23,49,037,36,25,83,195,36,0*5A
$BDGSV,1,1,00,0*74

$GNRMC,000025.00,A,3128.000011,N,12117.999821,E,0.012,,200720,,,A,V*19
$GNGGA,000025.00,3128.000011,N,12117.999821,E,1,09,0.96,40.8,M,9.5,M,,*4D
$GNGSA,A,3,25,04,08,02,13,20,23,07,01,,,,1.66,0.96,1.35,1*06
$GNGSA,A,3,,,,,,,,,,,,,1.66,0.96,1.35,4*0D
$GPGSV,3,1,11,01,21,115,35,02,15,317,35,04,44,284,36,07,60,
203,36,0*69
$GPGSV,3,2,11,08,21,211,35,11,01,171,,13,62,345,36,16,14,060,34,0*6F
$GPGSV,3,3,11,20,46,113,36,23,49,037,36,25,83,195,36,0*5A
$BDGSV,1,1,00,0*74

$GNRMC,000026.00,A,3128.000010,N,12117.999824,E,0.006,,200720,,,A,V*1B
$GNGGA,000026.00,3128.000010,N,12117.999824,E,1,09,0.96,40.7,M,9.5,M,,*45
$GNGSA,A,3,25,04,08,02,13,20,23,07,01,,,,1.66,0.96,1.35,1*06
$GNGSA,A,3,,,,,,,,,,,,,1.66,0.96,1.35,4*0D
$GPGSV,3,1,11,01,21,115,35,02,15,317,35,04,44,284,36,07,60,
203,36,0*69
$GPGSV,3,2,11,08,21,211,35,11,01,171,,13,62,345,36,16,14,060,35,0*6E
$GPGSV,3,3,11,20,46,113,36,23,49,037,36,25,83,195,36,0*5A
$BDGSV,1,1,00,0*74

$GNRMC,000027.00,A,3128.000011,N,12117.999824,E,0.014,,200720,,,A,V*18
$GNGGA,000027.00,3128.000011,N,12117.999824,E,1,09,0.96,40.7,M,9.5,M,,*45
$GNGSA,A,3,25,04,08,02,13,20,23,07,01,,,,1.66,0.96,1.35,1*06
$GNGSA,A,3,,,,,,,,,,,,,1.66,0.96,1.35,4*0D
$GPGSV,3,1,11,01,21,115,35,02,15,317,35,04,44,284,36,07,60,
203,36,0*69
$GPGSV,3,2,11,08,21,211,35,11,01,171,,13,62,345,36,16,14,060,35,0*6E
$GPGSV,3,3,11,20,46,113,36,23,49,037,36,25,83,195,36,0*5A
$BDGSV,1,1,00,0*74

<????sim??????(SIM??:1)>
<????GSM????????(GSM:0)>
<????GPRS????????(GPRS:0)>
<????????????(SIGNAL:0)>
<????????????????(BER:0)>

<??????????????>

$GNRMC,000028.00,A,3128.000008,N,12117.999828,E,0.007,,200720,,,A,V*11
$GNGGA,000028.00,3128.000008,N,12117.999828,E,1,09,0.96,40.8,M,9.5,M,,*41
$GNGSA,A,3,25,04,08,02,13,20,23,07,01,,,,1.66,0.96,1.35,1*06
$GNGSA,A,3,,,,,,,,,,,,,1.66,0.96,1.35,4*0D
$GPGSV,3,1,11,01,21,115,35,02,15,317,35,04,44,284,36,07,60,
203,36,0*69
$GPGSV,3,2,11,08,21,211,35,11,01,171,,13,62,345,36,16,14,060,35,0*6E
$GPGSV,3,3,11,20,46,113,36,23,49,037,36,25,83,195,36,0*5A
$BDGSV,1,1,00,0*74

$GNRMC,000029.00,A,3128.000006,N,12117.999826,E,0.009,,200720,,,A,V*1E
$GNGGA,000029.00,3128.000006,N,12117.999826,E,1,09,0.96,40.8,M,9.5,M,,*40
$GNGSA,A,3,25,04,08,02,13,20,23,07,01,,,,1.66,0.96,1.35,1*06
$GNGSA,A,3,,,,,,,,,,,,,1.66,0.96,1.35,4*0D
$GPGSV,3,1,11,01,20,115,35,02,15,317,35,04,44,284,36,07,60,
203,36,0*68
$GPGSV,3,2,11,08,21,211,35,11,01,171,,13,62,345,36,16,14,060,35,0*6E
$GPGSV,3,3,11,20,46,113,36,23,49,037,36,25,83,195,36,0*5A
$BDGSV,1,1,00,0*74

$GNRMC,000030.00,A,3128.000002,N,12117.999825,E,0.006,,200720,,,A,V*1E
$GNGGA,000030.00,3128.000002,N,12117.999825,E,1,09,0.96,40.8,M,9.5,M,,*4F
$GNGSA,A,3,25,04,08,02,13,20,23,07,01,,,,1.66,0.96,1.35,1*06
$GNGSA,A,3,,,,,,,,,,,,,1.66,0.96,1.35,4*0D
$GPGSV,3,1,11,01,20,115,35,02,15,316,35,04,44,284,36,07,60,
203,36,0*69
$GPGSV,3,2,11,08,21,211,35,11,01,171,,13,62,345,36,16,14,060,35,0*6E
$GPGSV,3,3,11,20,46,113,36,23,49,037,36,25,83,195,36,0*5A
$BDGSV,1,1,00,0*74

$GNRMC,000031.00,A,3128.000000,N,12117.999825,E,0.009,,200720,,,A,V*12
$GNGGA,000031.00,3128.000000,N,12117.999825,E,1,09,0.96,40.8,M,9.5,M,,*4C
$GNGSA,A,3,25,04,08,02,13,20,23,07,01,,,,1.66,0.96,1.35,1*06
$GNGSA,A,3,,,,,,,,,,,,,1.66,0.96,1.35,4*0D
$GPGSV,3,1,11,01,20,115,35,02,15,316,35,04,44,284,36,07,60,
203,36,0*69
$GPGSV,3,2,11,08,21,211,35,11,01,171,,13,62,345,36,16,14,060,35,0*6E
$GPGSV,3,3,11,20,46,113,36,23,49,037,36,25,83,195,36,0*5A
$BDGSV,1,1,00,0*74

$GNRMC,000032.00,A,3127.999994,N,12117.999819,E,0.007,,200720,,,A,V*12
$GNGGA,000032.00,3127.999994,N,12117.999819,E,1,09,0.96,40.8,M,9.5,M,,*42
$GNGSA,A,3,25,04,08,02,13,20,23,07,01,,,,1.66,0.96,1.35,1*06
$GNGSA,A,3,,,,,,,,,,,,,1.66,0.96,1.35,4*0D
$GPGSV,3,1,11,01,20,115,35,02,15,316,35,04,44,284,36,07,60,
203,36,0*69
$GPGSV,3,2,11,08,21,211,35,11,01,171,,13,62,345,36,16,14,060,34,0*6F
$GPGSV,3,3,11,20,46,113,36,23,49,037,36,25,83,195,36,0*5A
$BDGSV,1,1,00,0*74

$GNRMC,000033.00,A,3127.999993,N,12117.999811,E,0.009,,200720,,,A,V*12
$GNGGA,000033.00,3127.999993,N,12117.999811,E,1,09,0.96,40.8,M,9.5,M,,*4C
$GNGSA,A,3,25,04,08,02,13,20,23,07,01,,,,1.66,0.96,1.35,1*06
$GNGSA,A,3,,,,,,,,,,,,,1.66,0.96,1.35,4*0D
$GPGSV,3,1,11,01,20,115,35,02,15,316,35,04,44,284,36,07,60,
203,36,0*69
$GPGSV,3,2,11,08,21,211,35,11,01,171,,13,62,345,36,16,14,060,34,0*6F
$GPGSV,3,3,11,20,46,113,36,23,49,037,36,25,83,195,36,0*5A
$BDGSV,1,1,00,0*74

$GNRMC,000034.00,A,3127.999989,N,12117.999802,E,0.005,,200720,,,A,V*10
$GNGGA,000034.00,3127.999989,N,12117.999802,E,1,09,0.96,40.8,M,9.5,M,,*42
$GNGSA,A,3,25,04,08,02,13,20,23,07,01,,,,1.66,0.96,1.35,1*06
$GNGSA,A,3,,,,,,,,,,,,,1.66,0.96,1.35,4*0D
$GPGSV,3,1,11,01,20,115,35,02,15,316,35,04,44,284,36,07,60,
203,36,0*69
$GPGSV,3,2,11,08,21,211,35,11,01,171,,13,62,345,36,16,14,060,35,0*6E
$GPGSV,3,3,11,20,46,113,36,23,49,037,36,25,83,195,36,0*5A
$BDGSV,1,1,00,0*74

$GNRMC,000035.00,A,3127.999982,N,12117.999795,E,0.003,,200720,,,A,V*1D
$GNGGA,000035.00,3127.999982,N,12117.999795,E,1,09,0.96,40.8,M,9.5,M,,*49
$GNGSA,A,3,25,04,08,02,13,20,23,07,01,,,,1.66,0.96,1.35,1*06
$GNGSA,A,3,,,,,,,,,,,,,1.66,0.96,1.35,4*0D
$GPGSV,3,1,11,01,20,115,35,02,15,316,35,04,44,284,36,07,60,
203,36,0*69
$GPGSV,3,2,11,08,21,211,35,11,01,171,,13,62,345,36,16,14,060,35,0*6E
$GPGSV,3,3,11,20,46,113,36,23,49,037,36,25,83,195,36,0*5A
$BDGSV,1,1,00,0*74

$GNRMC,000036.00,A,3127.999977,N,12117.999792,E,0.010,,200720,,,A,V*11
$GNGGA,000036.00,3127.999977,N,12117.999792,E,1,09,0.96,40.8,M,9.5,M,,*47
$GNGSA,A,3,25,04,08,02,13,20,23,07,01,,,,1.66,0.96,1.35,1*06
$GNGSA,A,3,,,,,,,,,,,,,1.66,0.96,1.35,4*0D
$GPGSV,3,1,11,01,20,115,35,02,15,316,35,04,44,284,36,07,60,
203,36,0*69
$GPGSV,3,2,11,08,21,211,35,11,01,171,,13,62,345,36,16,14,060,35,0*6E
$GPGSV,3,3,11,20,46,113,36,23,49,037,36,25,83,195,36,0*5A
$BDGSV,1,1,00,0*74

$GNRMC,000037.00,A,3127.999976,N,12117.999786,E,0.005,,200720,,,A,V*10
$GNGGA,000037.00,3127.999976,N,12117.999786,E,1,09,0.96,40.8,M,9.5,M,,*42
$GNGSA,A,3,25,04,08,02,13,20,23,07,01,,,,1.66,0.96,1.35,1*06
$GNGSA,A,3,,,,,,,,,,,,,1.66,0.96,1.35,4*0D
$GPGSV,3,1,11,01,20,115,35,02,15,316,35,04,44,284,36,07,60,
203,36,0*69
$GPGSV,3,2,11,08,21,211,35,11,01,170,,13,62,345,36,16,14,060,35,0*6F
$GPGSV,3,3,11,20,46,113,36,23,49,037,36,25,83,195,36,0*5A
$BDGSV,1,1,00,0*74

<??????????????>

$GNRMC,000038.00,A,3127.999978,N,12117.999779,E,0.010,,200720,,,A,V*15
$GNGGA,000038.00,3127.999978,N,12117.999779,E,1,09,0.96,40.8,M,9.5,M,,*43
$GNGSA,A,3,25,04,08,02,13,20,23,07,01,,,,1.66,0.96,1.35,1*06
$GNGSA,A,3,,,,,,,,,,,,,1.66,0.96,1.35,4*0D
$GPGSV,3,1,11,01,20,115,35,02,15,316,35,04,44,284,36,07,60,
203,36,0*69
$GPGSV,3,2,11,08,21,211,35,11,01,170,,13,62,345,36,16,14,060,35,0*6F
$GPGSV,3,3,11,20,46,113,36,23,49,037,36,25,83,195,36,0*5A
$BDGSV,1,1,00,0*74

$GNRMC,000039.00,A,3127.999978,N,12117.999776,E,0.017,,200720,,,A,V*1C
$GNGGA,000039.00,3127.999978,N,12117.999776,E,1,09,0.96,40.8,M,9.5,M,,*4D
$GNGSA,A,3,25,04,08,02,13,20,23,07,01,,,,1.66,0.96,1.35,1*06
$GNGSA,A,3,,,,,,,,,,,,,1.66,0.96,1.35,4*0D
$GPGSV,3,1,11,01,20,115,35,02,15,316,35,04,44,284,36,07,60,
203,36,0*69
$GPGSV,3,2,11,08,21,211,35,11,01,170,,13,62,345,36,16,14,060,35,0*6F
$GPGSV,3,3,11,20,46,113,36,23,49,037,36,25,83,195,36,0*5A
$BDGSV,1,1,00,0*74

$GNRMC,000040.00,A,3127.999981,N,12117.999774,E,0.005,,200720,,,A,V*15
$GNGGA,000040.00,3127.999981,N,12117.999774,E,1,09,0.96,40.8,M,9.5,M,,*47
$GNGSA,A,3,25,04,08,02,13,20,23,07,01,,,,1.66,0.96,1.35,1*06
$GNGSA,A,3,,,,,,,,,,,,,1.66,0.96,1.35,4*0D
$GPGSV,3,1,11,01,20,115,35,02,15,316,35,04,44,284,36,07,60,
203,36,0*69
$GPGSV,3,2,11,08,21,211,35,11,01,170,,13,62,345,36,16,14,060,35,0*6F
$GPGSV,3,3,11,20,46,113,36,23,49,037,36,25,83,195,36,0*5A
$BDGSV,1,1,00,0*74

$GNRMC,000041.00,A,3127.999986,N,12117.999769,E,0.014,,200720,,,A,V*1F
$GNGGA,000041.00,3127.999986,N,12117.999769,E,1,09,0.96,40.8,M,9.5,M,,*4D
$GNGSA,A,3,25,04,08,02,13,20,23,07,01,,,,1.66,0.96,1.35,1*06
$GNGSA,A,3,,,,,,,,,,,,,1.66,0.96,1.35,4*0D
$GPGSV,3,1,11,01,20,115,35,02,15,316,35,04,44,284,36,07,60,
203,36,0*69
$GPGSV,3,2,11,08,21,211,35,11,01,170,,13,62,345,36,16,14,060,35,0*6F
$GPGSV,3,3,11,20,46,113,36,23,49,037,36,25,83,195,36,0*5A
$BDGSV,1,1,00,0*74

$GNRMC,000042.00,A,3127.999983,N,12117.999760,E,0.008,,200720,,,A,V*1D
$GNGGA,000042.00,3127.999983,N,12117.999760,E,1,09,0.96,40.8,M,9.5,M,,*42
$GNGSA,A,3,25,04,08,02,13,20,23,07,01,,,,1.66,0.96,1.35,1*06
$GNGSA,A,3,,,,,,,,,,,,,1.66,0.96,1.35,4*0D
$GPGSV,3,1,11,01,20,115,35,02,15,316,35,04,44,284,36,07,60,
203,36,0*69
$GPGSV,3,2,11,08,21,211,35,11,01,170,,13,62,345,36,16,13,059,35,0*62
$GPGSV,3,3,11,20,46,113,36,23,49,037,36,25,83,195,36,0*5A
$BDGSV,1,1,00,0*74

$GNRMC,000043.00,A,3127.999987,N,12117.999750,E,0.017,,200720,,,A,V*15
$GNGGA,000043.00,3127.999987,N,12117.999750,E,1,09,0.96,40.7,M,9.5,M,,*4B
$GNGSA,A,3,25,04,08,02,13,20,23,07,01,,,,1.66,0.96,1.35,1*06
$GNGSA,A,3,,,,,,,,,,,,,1.66,0.96,1.35,4*0D
$GPGSV,3,1,11,01,20,115,35,02,15,316,35,04,44,284,36,07,60,
203,36,0*69
$GPGSV,3,2,11,08,21,211,35,11,01,170,,13,62,345,36,16,13,059,35,0*62
$GPGSV,3,3,11,20,46,113,36,23,49,037,36,25,83,195,36,0*5A
$BDGSV,1,1,00,0*74

$GNRMC,000044.00,A,3127.999989,N,12117.999741,E,0.007,,200720,,,A,V*1D
$GNGGA,000044.00,3127.999989,N,12117.999741,E,1,09,0.96,40.7,M,9.5,M,,*42
$GNGSA,A,3,25,04,08,02,13,20,23,07,01,,,,1.66,0.96,1.35,1*06
$GNGSA,A,3,,,,,,,,,,,,,1.66,0.96,1.35,4*0D
$GPGSV,3,1,11,01,20,115,35,02,15,316,35,04,44,284,36,07,60,
203,36,0*69
$GPGSV,3,2,11,08,21,211,35,11,01,170,,13,62,345,36,16,13,059,35,0*62
$GPGSV,3,3,11,20,46,113,36,23,49,037,36,25,83,195,36,0*5A
$BDGSV,1,1,00,0*74

$GNRMC,000045.00,A,3127.999991,N,12117.999735,E,0.006,,200720,,,A,V*17
$GNGGA,000045.00,3127.999991,N,12117.999735,E,1,09,0.96,40.7,M,9.5,M,,*49
$GNGSA,A,3,25,04,08,02,13,20,23,07,01,,,,1.66,0.96,1.35,1*06
$GNGSA,A,3,,,,,,,,,,,,,1.66,0.96,1.35,4*0D
$GPGSV,3,1,11,01,20,115,35,02,15,316,35,04,44,284,36,07,60,
203,36,0*69
$GPGSV,3,2,11,08,21,211,35,11,01,170,,13,62,345,36,16,13,059,35,0*62
$GPGSV,3,3,11,20,46,113,36,23,49,037,36,25,83,195,36,0*5A
$BDGSV,1,1,00,0*74

$GNRMC,000046.00,A,3127.999991,N,12117.999731,E,0.002,,200720,,,A,V*14
$GNGGA,000046.00,3127.999991,N,12117.999731,E,1,09,0.96,40.6,M,9.5,M,,*4F
$GNGSA,A,3,25,04,08,02,13,20,23,07,01,,,,1.66,0.96,1.35,1*06
$GNGSA,A,3,,,,,,,,,,,,,1.66,0.96,1.35,4*0D
$GPGSV,3,1,11,01,20,115,35,02,15,316,35,04,44,284,36,07,60,
203,36,0*69
$GPGSV,3,2,11,08,21,211,35,11,01,170,,13,62,345,36,16,13,059,35,0*62
$GPGSV,3,3,11,20,46,113,36,23,49,037,36,25,83,195,36,0*5A
$BDGSV,1,1,00,0*74

$GNRMC,000047.00,A,3127.999994,N,12117.999729,E,0.010,,200720,,,A,V*1A
$GNGGA,000047.00,3127.999994,N,12117.999729,E,1,09,0.96,40.6,M,9.5,M,,*42
$GNGSA,A,3,25,04,08,02,13,20,23,07,01,,,,1.66,0.96,1.35,1*06
$GNGSA,A,3,,,,,,,,,,,,,1.66,0.96,1.35,4*0D
$GPGSV,3,1,11,01,20,115,35,02,15,316,35,04,44,284,36,07,60,
203,36,0*69
$GPGSV,3,2,11,08,21,211,35,11,01,170,,13,62,345,36,16,13,059,35,0*62
$GPGSV,3,3,11,20,46,113,36,23,49,037,36,25,83,195,36,0*5A
$BDGSV,1,1,00,0*74

<????GSM????>
<assertion failed:file(dal_gsm_drv.c), line(164), rsttype(2), errid(-1)>

<????sim??????(SIM??:1)>
<????GSM????????(GSM:0)>
<????GPRS????????(GPRS:0)>
<????????????(SIGNAL:0)>
<????????????????(BER:0)>

<??????????????>

 
                                                  
                                                                       
                                                         
                                                    
                                                 
                                                   
                  
<DAL_TTS_InitDrv>
<DAL_InitGsmDrv>
YX_QXWZ_InitLink
<DAL_GPRS_Apply(1)>
<??????????????>
<YX_InstallVectorDetect s_vector[0].handler:0xf02903e9, tag:0>
<VtStatusClear[id :0]

??????????(485)=????(452)+????(33)+????(0)

No.0:time14 07 14 08 00 2F ,file(dal_gsm_drv.c),line(164),errid(ffffffff),mem_peak(
76032)
No.1:time14 07 06 0F 16 34 ,file(YX_ResetCnt.c),line(305),errid(fff0),mem_peak(71424)
No.2:time14 07 06 0F 16 34 ,file(dal_gsm_drv.c),line(164),errid(ffffffff),mem_peak(76032)
No.3:time14 07 06 0F 0B 1C ,file(dal_gsm_drv.c),line(164),errid(ffffffff),mem_peak(76032)
No.4:time13 0B 05 0A 31 15 ,file(YX
_ResetCnt.c),line(305),errid(fff0),mem_peak(71424)
No.5:time13 0B 05 0A 31 15 ,file(YX_ResetCnt.c),line(305),errid(fff0),mem_peak(71424)
No.6:time13 0B 05 0A 31 15 ,file(YX_ResetCnt.c),line(305),errid(fff0),mem_peak(71424)
No.7:time13 0B 05 0A 31 15 ,file(YX_ResetCnt.c),line(305),errid(fff0),mem_peak(71424)

No.8:time13 0B 05 0A 31 15 ,file(YX_ResetCnt.c),line(305),errid(fff0),mem_peak(71424)
No.9:time13 0B 05 0A 31 15 ,file(YX_ResetCnt.c),line(305),errid(fff0),mem_peak(71424)
????????????????????:172
<gps_main_begin!!>

????????!!!!!!!!!!!!!!

<---VTRTRG id:[0], isnight:[0], curvector:[0], limit:[100], pre:[95]>

<---VTRTRG id:[0], isnight:[0], curvector:[0], limit:[100], pre:[95]>

<Hdl_MSG_GSMCORE_PSReady>

$GNRMC,,V,,,,,,,,,,N,V*37
$GNGGA,,,,,,0,00,99.9,,,,,,*6F
$GNGSA,A,1,,,,,,,,,,,,,99.9,99.9,99.9,1*0A
$GNGSA,A,1,,,,,,,,,,,,,99.9,99.9,99.9,4*0F
$GPGSV,1,1,00,0*65
$BDGSV,1,1,00,0*74

<---VTRTRG id:[0], isnight:[0], curvector:[0], limit:[100], pre:[95]>

$GNRMC,,V,,,,,,,,,,N,V*37
$GNGGA,,,,,,0,00,99.9,,,,,,*6F
$GNGSA,A,1,,,,,,,,,,,,,99.9,99.9,99.9,1*0A
$GNGSA,A,1,,,,,,,,,,,,,99.9,99.9,99.9,4*0F
$GPGSV,1,1,00,0*65
$BDGSV,1,1,00,0*74

$GNRMC,,V,,,,,,,,,,N,V*37
$GNGGA,,,,,,0,00,99.9,,,,,,*6F
$GNGSA,A,1,,,,,,,,,,,,,99.9,99.9,99.9,1*0A
$GNGSA,A,1,,,,,,,,,,,,,99.9,99.9,99.9,4*0F
$GPGSV,1,1,03,02,,,35,04,,,35,08,,,34,0*6F
$BDGSV,1,1,00,0*74

<---VTRTRG id:[0], isnight:[0], curvector:[0], limit:[100], pre:[95]>

$GNRMC,,V,,,,,,,,,,N,V*37
$GNGGA,,,,,,0,00,99.9,,,,,,*6F
$GNGSA,A,1,,,,,,,,,,,,,99.9,99.9,99.9,1*0A
$GNGSA,A,1,,,,,,,,,,,,,99.9,99.9,99.9,4*0F
$GPGSV,1,1,04,02,,,35,04,,,36,07,,,34,08,,,35,0*6A
$BDGSV,1,1,00,0*74

$GNRMC,,V,,,,,,,,,,N,V*37
$GNGGA,,,,,,0,00,99.9,,,,,,*6F
$GNGSA,A,1,,,,,,,,,,,,,99.9,99.9,99.9,1*0A
$GNGSA,A,1,,,,,,,,,,,,,99.9,99.9,99.9,4*0F
$GPGSV,2,1,06,02,,,35,04,,,36,07,,,36,08,,,35,0*69
$GPGSV,2,2,06,23,,,34,25,,,35,0*64
$BDGSV,1,1,00,0*74

<??????????????>
<---VTRTRG id:[0], isnight:[0], curvector:[0], limit:[100], pre:[95]>

$GNRMC,,V,,,,,,,,,,N,V*37
$GNGGA,,,,,,0,00,99.9,,,,,,*6F
$GNGSA,A,1,,,,,,,,,,,,,99.9,99.9,99.9,1*0A
$GNGSA,A,1,,,,,,,,,,,,,99.9,99.9,99.9,4*0F
$GPGSV,2,1,06,02,,,35,04,,,36,07,,,36,08,,,35,0*69
$GPGSV,2,2,06,23,,,36,25,,,36,0*65
$BDGSV,1,1,00,0*74

$GNRMC,,V,,,,,,,,,,N,V*37
$GNGGA,,,,,,0,00,99.9,,,,,,*6F
$GNGSA,A,1,,,,,,,,,,,,,99.9,99.9,99.9,1*0A
$GNGSA,A,1,,,,,,,,,,,,,99.9,99.9,99.9,4*0F
$GPGSV,2,1,06,02,,,35,04,,,36,07,,,36,08,,,35,0*69
$GPGSV,2,2,06,23,,,36,25,,,36,0*65
$BDGSV,1,1,00,0*74

$GNRMC,,V,,,,,,,,,,N,V*37
$GNGGA,,,,,,0,00,99.9,,,,,,*6F
$GNGSA,A,1,,,,,,,,,,,,,99.9,99.9,99.9,1*0A
$GNGSA,A,1,,,,,,,,,,,,,99.9,99.9,99.9,4*0F
$GPGSV,1,1,00,0*65
$BDGSV,1,1,00,0*74
????????!!!!!!!!!!!!!!

$GNRMC,,V,,,,,,,,,,N,V*37
$GNGGA,,,,,,0,00,99.9,,,,,,*6F
$GNGSA,A,1,,,,,,,,,,,,,99.9,99.9,99.9,1*0A
$GNGSA,A,1,,,,,,,,,,,,,99.9,99.9,99.9,4*0F
$GPGSV,1,1,00,0*65
$BDGSV,1,1,00,0*74

$GNRMC,,V,,,,,,,,,,N,V*37
$GNGGA,,,,,,0,00,99.9,,,,,,*6F
$GNGSA,A,1,,,,,,,,,,,,,99.9,99.9,99.9,1*0A
$GNGSA,A,1,,,,,,,,,,,,,99.9,99.9,99.9,4*0F
$GPGSV,1,1,03,04,,,34,13,,,36,25,,,28,0*6F
$BDGSV,1,1,00,0*74

$GNRMC,,V,,,,,,,,,,N,V*37
$GNGGA,,,,,,0,00,99.9,,,,,,*6F
$GNGSA,A,1,,,,,,,,,,,,,99.9,99.9,99.9,1*0A
$GNGSA,A,1,,,,,,,,,,,,,99.9,99.9,99.9,4*0F
$GPGSV,1,1,04,04,,,36,13,,,36,20,,,35,25,,,36,0*61
$BDGSV,1,1,00,0*74

$GNRMC,,V,,,,,,,,,,N,V*37
$GNGGA,,,,,,0,00,99.9,,,,,,*6F
$GNGSA,A,1,,,,,,,,,,,,,99.9,99.9,99.9,1*0A
$GNGSA,A,1,,,,,,,,,,,,,99.9,99.9,99.9,4*0F
$GPGSV,2,1,05,04,,,36,07,,,31,13,,,36,20,,,36,0*67
$GPGSV,2,2,05,25,,,36,0*62
$BDGSV,1,1,00,0*74

$GNRMC,,V,,,,,,,,,,N,V*37
$GNGGA,,,,,,0,00,99.9,,,,,,*6F
$GNGSA,A,1,,,,,,,,,,,,,99.9,99.9,99.9,1*0A
$GNGSA,A,1,,,,,,,,,,,,,99.9,99.9,99.9,4*0F
$GPGSV,2,1,06,04,,,36,07,,,36,13,,,36,16,,,30,0*60
$GPGSV,2,2,06,20,,,36,25,,,37,0*67
$BDGSV,1,1,00,0*74

$GNRMC,,V,,,,,,,,,,N,V*37
$GNGGA,,,,,,0,00,99.9,,,,,,*6F
$GNGSA,A,1,,,,,,,,,,,,,99.9,99.9,99.9,1*0A
$GNGSA,A,1,,,,,,,,,,,,,99.9,99.9,99.9,4*0F
$GPGSV,2,1,06,04,,,36,07,,,36,13,,,36,16,,,35,0*65
$GPGSV,2,2,06,20,,,36,25,,,37,0*67
$BDGSV,1,1,00,0*74

$GNRMC,,V,,,,,,,,,,N,V*37
$GNGGA,,,,,,0,00,99.9,,,,,,*6F
$GNGSA,A,1,,,,,,,,,,,,,99.9,99.9,99.9,1*0A
$GNGSA,A,1,,,,,,,,,,,,,99.9,99.9,99.9,4*0F
$GPGSV,2,1,07,02,,,35,04,,,36,07,,,36,13,,,36,0*61
$GPGSV,2,2,07,16,,,35,20,,,36,25,,,36,0*66
$BDGSV,1,1,00,0*74

$GNRMC,000207.76,V,,,,,,,,,,N,V*1D
$GNGGA,000207.76,,,,,0,00,99.9,,,,,,*45
$GNGSA,A,1,,,,,,,,,,,,,99.9,99.9,99.9,1*0A
$GNGSA,A,1,,,,,,,,,,,,,99.9,99.9,99.9,4*0F
$GPGSV,2,1,07,02,,,35,04,,,36,07,,,36,13,,,36,0*61
$GPGSV,2,2,07,16,,,35,20,,,36,25,,,36,0*66
$BDGSV,1,1,00,0*74

<????sim??????(SIM??:1)>
<??????sim??>
<????GSM????????(GSM:5)>
<????GPRS????????(GPRS:0)>
<????????????(SIGNAL:0)>
<????????????????(BER:0)>

<??????????????>
<detect SIM card>

$GNRMC,000208.00,V,,,,,,,,,,N,V*13
$GNGGA,000208.00,,,,,0,00,99.9,,,,,,*4B
$GNGSA,A,1,,,,,,,,,,,,,99.9,99.9,99.9,1*0A
$GNGSA,A,1,,,,,,,,,,,,,99.9,99.9,99.9,4*0F
$GPGSV,2,1,07,02,,,35,04,,,36,07,,,36,13,,,36,0*61
$GPGSV,2,2,07,16,,,35,20,,,36,25,,,36,0*66
$BDGSV,1,1,00,0*74

$GNRMC,000209.00,V,,,,,,,,,,N,V*12
$GNGGA,000209.00,,,,,0,00,99.9,,,,,,*4A
$GNGSA,A,1,,,,,,,,,,,,,99.9,99.9,99.9,1*0A
$GNGSA,A,1,,,,,,,,,,,,,99.9,99.9,99.9,4*0F
$GPGSV,2,1,08,02,,,35,04,,,36,07,,,36,13,,,36,0*6E
$GPGSV,2,2,08,16,,,35,20,,,36,23,,,36,25,,,36,0*6D
$BDGSV,1,1,00,0*74

$GNRMC,000210.00,V,,,,,,,,,,N,V*1A
$GNGGA,000210.00,,,,,0,00,99.9,,,,,,*42
$GNGSA,A,1,,,,,,,,,,,,,99.9,99.9,99.9,1*0A
$GNGSA,A,1,,,,,,,,,,,,,99.9,99.9,99.9,4*0F
$GPGSV,2,1,08,02,,,35,04,,,36,07,,,36,13,,,36,0*6E
$GPGSV,2,2,08,16,,,35,20,,,36,23,,,36,25,,,36,0*6D
$BDGSV,1,1,00,0*74

$GNRMC,000211.00,V,,,,,,,,,,N,V*1B
$GNGGA,000211.00,,,,,0,00,99.9,,,,,,*43
$GNGSA,A,1,,,,,,,,,,,,,99.9,99.9,99.9,1*0A
$GNGSA,A,1,,,,,,,,,,,,,99.9,99.9,99.9,4*0F
$GPGSV,2,1,08,02,,,35,04,,,36,07,,,36,13,,,36,0*6E
$GPGSV,2,2,08,16,,,35,20,,,36,23,,,36,25,,,37,0*6C
$BDGSV,1,1,00,0*74

$GNRMC,000212.00,V,,,,,,,,,,N,V*18
$GNGGA,000212.00,,,,,0,00,99.9,,,,,,*40
$GNGSA,A,1,,,,,,,,,,,,,99.9,99.9,99.9,1*0A
$GNGSA,A,1,,,,,,,,,,,,,99.9,99.9,99.9,4*0F
$GPGSV,2,1,08,02,,,35,04,,,36,07,,,36,13,,,36,0*6E
$GPGSV,2,2,08,16,,,35,20,,,36,23,,,36,25,,,37,0*6C
$BDGSV,1,1,00,0*74

$GNRMC,000213.00,V,,,,,,,,,,N,V*19
$GNGGA,000213.00,,,,,0,00,99.9,,,,,,*41
$GNGSA,A,1,,,,,,,,,,,,,99.9,99.9,99.9,1*0A
$GNGSA,A,1,,,,,,,,,,,,,99.9,99.9,99.9,4*0F
$GPGSV,2,1,08,02,,,35,04,,,36,07,,,36,13,,,36,0*6E
$GPGSV,2,2,08,16,,,35,20,,,36,23,,,36,25,,,36,0*6D
$BDGSV,1,1,00,0*74

$GNRMC,000214.00,V,,,,,,,200720,,,N,V*19
$GNGGA,000214.00,,,,,0,00,99.9,,,,,,*46
$GNGSA,A,1,,,,,,,,,,,,,99.9,99.9,99.9,1*0A
$GNGSA,A,1,,,,,,,,,,,,,99.9,99.9,99.9,4*0F
$GPGSV,2,1,08,02,,,35,04,,,36,07,,,36,13,,,36,0*6E
$GPGSV,2,2,08,16,,,35,20,,,36,23,,,36,25,,,36,0*6D
$BDGSV,1,1,00,0*74

$GNRMC,000215.00,V,,,,,,,200720,,,N,V*18
$GNGGA,000215.00,,,,,0,00,99.9,,,,,,*47
$GNGSA,A,1,,,,,,,,,,,,,99.9,99.9,99.9,1*0A
$GNGSA,A,1,,,,,,,,,,,,,99.9,99.9,99.9,4*0F
$GPGSV,2,1,08,02,,,35,04,,,36,07,,,36,13,,,36,0*6E
$GPGSV,2,2,08,16,,,35,20,,,36,23,,,36,25,,,36,0*6D
$BDGSV,1,1,00,0*74

$GNRMC,000216.00,V,,,,,,,200720,,,N,V*1B
$GNGGA,000216.00,,,,,0,00,99.9,,,,,,*44
$GNGSA,A,1,,,,,,,,,,,,,99.9,99.9,99.9,1*0A
$GNGSA,A,1,,,,,,,,,,,,,99.9,99.9,99.9,4*0F
$GPGSV,2,1,08,02,,,35,04,,,36,07,,,36,13,,,36,0*6E
$GPGSV,2,2,08,16,,,35,20,,,36,23,,,36,25,,,36,0*6D
$BDGSV,1,1,00,0*74

$GNRMC,000217.00,V,,,,,,,200720,,,N,V*1A
$GNGGA,000217.00,,,,,0,00,99.9,,,,,,*45
$GNGSA,A,1,,,,,,,,,,,,,99.9,99.9,99.9,1*0A
$GNGSA,A,1,,,,,,,,,,,,,99.9,99.9,99.9,4*0F
$GPGSV,3,1,09,02,,,35,04,,,36,07,,,36,08,,,35,0*67
$GPGSV,3,2,09,13,,,36,16,,,35,20,,,36,23,,,36,0*68
$GPGSV,3,3,09,25,,,36,0*6E
$BDGSV,1,1,00,0*74

<??????????????>

$GNRMC,000218.00,V,,,,,,,200720,,,N,V*15
$GNGGA,000218.00,,,,,0,00,99.9,,,,,,*4A
$GNGSA,A,1,,,,,,,,,,,,,99.9,99.9,99.9,1*0A
$GNGSA,A,1,,,,,,,,,,,,,99.9,99.9,99.9,4*0F
$GPGSV,3,1,09,02,,,35,04,,,36,07,,,36,08,,,35,0*67
$GPGSV,3,2,09,13,,,36,16,,,35,20,,,36,23,,,36,0*68
$GPGSV,3,3,09,25,,,36,0*6E
$BDGSV,1,1,00,0*74

$GNRMC,000219.00,V,,,,,,,200720,,,N,V*14
$GNGGA,000219.00,,,,,0,00,99.9,,,,,,*4B
$GNGSA,A,1,,,,,,,,,,,,,99.9,99.9,99.9,1*0A
$GNGSA,A,1,,,,,,,,,,,,,99.9,99.9,99.9,4*0F
$GPGSV,3,1,09,02,,,35,04,,,36,07,,,36,08,,,35,0*67
$GPGSV,3,2,09,13,,,36,16,,,35,20,,,36,23,,,36,0*68
$GPGSV,3,3,09,25,,,36,0*6E
$BDGSV,1,1,00,0*74

$GNRMC,000220.00,V,,,,,,,200720,,,N,V*1E
$GNGGA,000220.00,,,,,0,00,99.9,,,,,,*41
$GNGSA,A,1,,,,,,,,,,,,,99.9,99.9,99.9,1*0A
$GNGSA,A,1,,,,,,,,,,,,,99.9,99.9,99.9,4*0F
$GPGSV,3,1,09,02,,,35,04,,,36,07,,,36,08,,,35,0*67
$GPGSV,3,2,09,13,,,36,16,,,35,20,,,36,23,,,36,0*68
$GPGSV,3,3,09,25,,,36,0*6E
$BDGSV,1,1,00,0*74

$GNRMC,000221.00,V,,,,,,,200720,,,N,V*1F
$GNGGA,000221.00,,,,,0,00,99.9,,,,,,*40
$GNGSA,A,1,,,,,,,,,,,,,99.9,99.9,99.9,1*0A
$GNGSA,A,1,,,,,,,,,,,,,99.9,99.9,99.9,4*0F
$GPGSV,3,1,09,02,,,35,04,,,36,07,,,36,08,,,35,0*67
$GPGSV,3,2,09,13,,,36,16,,,35,20,,,36,23,,,36,0*68
$GPGSV,3,3,09,25,,,37,0*6F
$BDGSV,1,1,00,0*74

$GNRMC,000222.00,V,,,,,,,200720,,,N,V*1C
$GNGGA,000222.00,,,,,0,00,99.9,,,,,,*43
$GNGSA,A,1,,,,,,,,,,,,,99.9,99.9,99.9,1*0A
$GNGSA,A,1,,,,,,,,,,,,,99.9,99.9,99.9,4*0F
$GPGSV,3,1,09,02,,,35,04,,,36,07,,,36,08,,,35,0*67
$GPGSV,3,2,09,13,,,36,16,,,35,20,,,36,23,,,36,0*68
$GPGSV,3,3,09,25,,,36,0*6E
$BDGSV,1,1,00,0*74

$GNRMC,000223.00,V,,,,,,,200720,,,N,V*1D
$GNGGA,000223.00,,,,,0,00,99.9,,,,,,*42
$GNGSA,A,1,,,,,,,,,,,,,99.9,99.9,99.9,1*0A
$GNGSA,A,1,,,,,,,,,,,,,99.9,99.9,99.9,4*0F
$GPGSV,3,1,09,02,,,35,04,,,36,07,,,36,08,,,35,0*67
$GPGSV,3,2,09,13,,,36,16,,,35,20,,,36,23,,,36,0*68
$GPGSV,3,3,09,25,,,36,0*6E
$BDGSV,1,1,00,0*74

$GNRMC,000224.00,V,,,,,,,200720,,,N,V*1A
$GNGGA,000224.00,,,,,0,00,99.9,,,,,,*45
$GNGSA,A,1,,,,,,,,,,,,,99.9,99.9,99.9,1*0A
$GNGSA,A,1,,,,,,,,,,,,,99.9,99.9,99.9,4*0F
$GPGSV,3,1,09,02,,,35,04,,,36,07,,,36,08,,,35,0*67
$GPGSV,3,2,09,13,,,36,16,,,35,20,,,36,23,,,36,0*68
$GPGSV,3,3,09,25,,,36,0*6E
$BDGSV,1,1,00,0*74

$GNRMC,000225.00,V,,,,,,,200720,,,N,V*1B
$GNGGA,000225.00,,,,,0,00,99.9,,,,,,*44
$GNGSA,A,1,,,,,,,,,,,,,99.9,99.9,99.9,1*0A
$GNGSA,A,1,,,,,,,,,,,,,99.9,99.9,99.9,4*0F
$GPGSV,3,1,09,02,,,35,04,,,36,07,,,36,08,,,35,0*67
$GPGSV,3,2,09,13,,,36,16,,,35,20,,,36,23,,,36,0*68
$GPGSV,3,3,09,25,,,36,0*6E
$BDGSV,1,1,00,0*74

$GNRMC,000226.00,V,,,,,,,200720,,,N,V*18
$GNGGA,000226.00,,,,,0,00,99.9,,,,,,*47
$GNGSA,A,1,,,,,,,,,,,,,99.9,99.9,99.9,1*0A
$GNGSA,A,1,,,,,,,,,,,,,99.9,99.9,99.9,4*0F
$GPGSV,3,1,09,02,,,35,04,,,36,07,,,36,08,,,35,0*67
$GPGSV,3,2,09,13,,,36,16,,,35,20,,,36,23,,,36,0*68
$GPGSV,3,3,09,25,,,36,0*6E
$BDGSV,1,1,00,0*74

$GNRMC,000227.00,V,,,,,,,200720,,,N,V*19
$GNGGA,000227.00,,,,,0,00,99.9,,,,,,*46
$GNGSA,A,1,,,,,,,,,,,,,99.9,99.9,99.9,1*0A
$GNGSA,A,1,,,,,,,,,,,,,99.9,99.9,99.9,4*0F
$GPGSV,3,1,09,02,,,35,04,,,36,07,,,36,08,,,35,0*67
$GPGSV,3,2,09,13,,,36,16,,,35,20,,,36,23,,,36,0*68
$GPGSV,3,3,09,25,,,36,0*6E
$BDGSV,1,1,00,0*74

<????sim??????(SIM??:1)>
<????GSM????????(GSM:4)>
<????GPRS????????(GPRS:0)>
<????????????(SIGNAL:0)>
<????????????????(BER:0)>

<??????????????>

$GNRMC,000228.00,V,,,,,,,200720,,,N,V*16
$GNGGA,000228.00,,,,,0,00,99.9,,,,,,*49
$GNGSA,A,1,,,,,,,,,,,,,99.9,99.9,99.9,1*0A
$GNGSA,A,1,,,,,,,,,,,,,99.9,99.9,99.9,4*0F
$GPGSV,3,1,10,01,,,34,02,,,35,04,,,36,07,,,36,0*67
$GPGSV,3,2,10,08,,,35,13,,,36,16,,,35,20,,,36,0*6A
$GPGSV,3,3,10,23,,,36,25,,,36,0*62
$
BDGSV,1,1,00,0*74

$GNRMC,000229.00,V,,,,,,,200720,,,N,V*17
$GNGGA,000229.00,,,,,0,00,99.9,,,,,,*48
$GNGSA,A,1,,,,,,,,,,,,,99.9,99.9,99.9,1*0A
$GNGSA,A,1,,,,,,,,,,,,,99.9,99.9,99.9,4*0F
$GPGSV,3,1,10,01,,,35,02,,,35,04,,,36,07,,,36,0*66
$GPGSV,3,2,10,08,,,35,13,,,36,16,,,35,20,,,36,0*6A
$GPGSV,3,3,10,23,,,36,25,,,36,0*62
$
BDGSV,1,1,00,0*74

$GNRMC,000230.00,A,3128.000092,N,12117.999959,E,0.045,,200720,,,A,V*18
$GNGGA,000230.00,3128.000092,N,12117.999959,E,1,07,1.45,40.3,M,9.5,M,,*44
$GNGSA,A,3,04,13,25,20,07,02,23,,,,,,2.66,1.45,2.23,1*07
$GNGSA,A,3,,,,,,,,,,,,,2.66,1.45,2.23,4*05
$GPGSV,3,1,10,01,,,35,02,16,316,35,04,44,282,36,07,61,204,36,0*
5C
$GPGSV,3,2,10,08,,,35,13,62,347,36,16,13,059,35,20,45,114,36,0*55
$GPGSV,3,3,10,23,48,038,36,25,84,195,36,0*64
$BDGSV,1,1,00,0*74

$GNRMC,000231.00,A,3128.000053,N,12117.999932,E,0.035,,200720,,,A,V*1E
$GNGGA,000231.00,3128.000053,N,12117.999932,E,1,07,1.45,40.3,M,9.5,M,,*45
$GNGSA,A,3,04,13,25,20,07,02,23,,,,,,2.66,1.45,2.23,1*07
$GNGSA,A,3,,,,,,,,,,,,,2.66,1.45,2.23,4*05
$GPGSV,3,1,10,01,,,34,02,16,316,34,04,44,282,35,07,61,204,36,0*
5F
$GPGSV,3,2,10,08,,,34,13,62,347,35,16,13,059,34,20,45,114,35,0*55
$GPGSV,3,3,10,23,48,038,35,25,84,195,36,0*67
$BDGSV,1,1,00,0*74

$GNRMC,000232.00,A,3128.000046,N,12117.999974,E,0.020,,200720,,,A,V*1F
$GNGGA,000232.00,3128.000046,N,12117.999974,E,1,07,1.45,40.2,M,9.5,M,,*41
$GNGSA,A,3,04,13,25,20,07,02,23,,,,,,2.66,1.45,2.23,1*07
$GNGSA,A,3,,,,,,,,,,,,,2.66,1.45,2.23,4*05
$GPGSV,3,1,10,01,,,34,02,16,316,34,04,44,282,35,07,61,204,36,0*
5F
$GPGSV,3,2,10,08,,,34,13,62,347,35,16,13,059,34,20,45,114,35,0*55
$GPGSV,3,3,10,23,48,038,35,25,84,195,36,0*67
$BDGSV,1,1,00,0*74

$GNRMC,000233.00,A,3128.000031,N,12117.999974,E,0.014,,200720,,,A,V*19
$GNGGA,000233.00,3128.000031,N,12117.999974,E,1,07,1.45,40.2,M,9.5,M,,*40
$GNGSA,A,3,04,13,25,20,07,02,23,,,,,,2.66,1.45,2.23,1*07
$GNGSA,A,3,,,,,,,,,,,,,2.66,1.45,2.23,4*05
$GPGSV,3,1,10,01,,,34,02,16,316,34,04,44,282,35,07,61,204,35,0*
5C
$GPGSV,3,2,10,08,,,34,13,62,347,35,16,13,059,34,20,45,114,35,0*55
$GPGSV,3,3,10,23,48,038,35,25,84,195,35,0*64
$BDGSV,1,1,00,0*74

$GNRMC,000234.00,A,3128.000008,N,12117.999981,E,0.007,,200720,,,A,V*1C
$GNGGA,000234.00,3128.000008,N,12117.999981,E,1,07,1.45,40.2,M,9.5,M,,*47
$GNGSA,A,3,04,13,25,20,07,02,23,,,,,,2.66,1.45,2.23,1*07
$GNGSA,A,3,,,,,,,,,,,,,2.66,1.45,2.23,4*05
$GPGSV,3,1,10,01,,,34,02,16,316,34,04,44,282,35,07,61,204,35,0*
5C
$GPGSV,3,2,10,08,,,34,13,62,347,35,16,13,059,34,20,45,114,35,0*55
$GPGSV,3,3,10,23,48,038,35,25,84,195,35,0*64
$BDGSV,1,1,00,0*74

$GNRMC,000235.00,A,3128.000001,N,12117.999990,E,0.016,,200720,,,A,V*14
$GNGGA,000235.00,3128.000001,N,12117.999990,E,1,07,1.45,40.3,M,9.5,M,,*4E
$GNGSA,A,3,04,13,25,20,07,02,23,,,,,,2.66,1.45,2.23,1*07
$GNGSA,A,3,,,,,,,,,,,,,2.66,1.45,2.23,4*05
$GPGSV,3,1,10,01,,,34,02,16,316,34,04,44,282,35,07,61,204,35,0*
5C
$GPGSV,3,2,10,08,,,34,13,62,347,35,16,13,059,34,20,45,114,35,0*55
$GPGSV,3,3,10,23,48,038,35,25,84,195,36,0*67
$BDGSV,1,1,00,0*74

$GNRMC,000236.00,A,3127.999976,N,12118.000006,E,0.010,,200720,,,A,V*1E
$GNGGA,000236.00,3127.999976,N,12118.000006,E,1,07,1.45,40.2,M,9.5,M,,*43
$GNGSA,A,3,04,13,25,20,07,02,23,,,,,,2.66,1.45,2.23,1*07
$GNGSA,A,3,,,,,,,,,,,,,2.66,1.45,2.23,4*05
$GPGSV,3,1,10,01,,,34,02,16,316,34,04,44,282,35,07,61,204,35,0*
5C
$GPGSV,3,2,10,08,,,34,13,62,347,35,16,13,059,34,20,45,114,35,0*55
$GPGSV,3,3,10,23,48,038,35,25,84,195,35,0*64
$BDGSV,1,1,00,0*74

$GNRMC,000237.00,A,3127.999964,N,12118.000008,E,0.003,,200720,,,A,V*10
$GNGGA,000237.00,3127.999964,N,12118.000008,E,1,07,1.45,40.2,M,9.5,M,,*4F
$GNGSA,A,3,04,13,25,20,07,02,23,,,,,,2.66,1.45,2.23,1*07
$GNGSA,A,3,,,,,,,,,,,,,2.66,1.45,2.23,4*05
$GPGSV,3,1,10,01,,,34,02,16,316,34,04,44,282,35,07,61,204,36,0*
5F
$GPGSV,3,2,10,08,,,34,13,62,347,35,16,13,059,34,20,45,114,35,0*55
$GPGSV,3,3,10,23,48,038,35,25,84,195,35,0*64
$BDGSV,1,1,00,0*74

<??????????????>

$GNRMC,000238.00,A,3127.999972,N,12118.000013,E,0.035,,200720,,,A,V*17
$GNGGA,000238.00,3127.999972,N,12118.000013,E,1,07,1.45,40.2,M,9.5,M,,*4D
$GNGSA,A,3,04,13,25,20,07,02,23,,,,,,2.66,1.45,2.23,1*07
$GNGSA,A,3,,,,,,,,,,,,,2.66,1.45,2.23,4*05
$GPGSV,3,1,10,01,,,35,02,16,316,35,04,44,282,36,07,61,204,36,0*
5C
$GPGSV,3,2,10,08,,,35,13,62,347,36,16,13,059,34,20,45,114,36,0*54
$GPGSV,3,3,10,23,48,038,36,25,84,195,36,0*64
$BDGSV,1,1,00,0*74

$GNRMC,000239.00,A,3127.999987,N,12118.000013,E,0.012,,200720,,,A,V*19
$GNGGA,000239.00,3127.999987,N,12118.000013,E,1,07,1.45,40.1,M,9.5,M,,*45
$GNGSA,A,3,04,13,25,20,07,02,23,,,,,,2.66,1.45,2.23,1*07
$GNGSA,A,3,,,,,,,,,,,,,2.66,1.45,2.23,4*05
$GPGSV,3,1,10,01,,,35,02,16,316,35,04,44,282,36,07,61,204,36,0*
5C
$GPGSV,3,2,10,08,,,35,13,62,347,36,16,13,059,34,20,45,114,35,0*57
$GPGSV,3,3,10,23,48,038,36,25,84,195,36,0*64
$BDGSV,1,1,00,0*74

$GNRMC,000240.00,A,3127.999974,N,12118.000022,E,0.016,,200720,,,A,V*1D
$GNGGA,000240.00,3127.999974,N,12118.000022,E,1,07,1.45,40.0,M,9.5,M,,*44
$GNGSA,A,3,04,13,25,20,07,02,23,,,,,,2.66,1.45,2.23,1*07
$GNGSA,A,3,,,,,,,,,,,,,2.66,1.45,2.23,4*05
$GPGSV,3,1,10,01,,,35,02,16,316,35,04,44,282,36,07,61,204,36,0*
5C
$GPGSV,3,2,10,08,,,35,13,62,347,36,16,13,059,35,20,45,114,36,0*55
$GPGSV,3,3,10,23,48,038,36,25,84,195,36,0*64
$BDGSV,1,1,00,0*74

$GNRMC,000241.00,A,3127.999949,N,12118.000018,E,0.026,,200720,,,A,V*18
$GNGGA,000241.00,3127.999949,N,12118.000018,E,1,07,1.45,39.9,M,9.5,M,,*45
$GNGSA,A,3,04,13,25,20,07,02,23,,,,,,2.66,1.45,2.23,1*07
$GNGSA,A,3,,,,,,,,,,,,,2.66,1.45,2.23,4*05
$GPGSV,3,1,10,01,,,35,02,16,316,35,04,44,282,35,07,61,204,36,0*
5F
$GPGSV,3,2,10,08,,,35,13,62,347,36,16,13,059,34,20,45,114,36,0*54
$GPGSV,3,3,10,23,48,038,36,25,84,195,36,0*64
$BDGSV,1,1,00,0*74

$GNRMC,000242.00,A,3127.999931,N,12117.999999,E,0.018,,200720,,,A,V*1F
$GNGGA,000242.00,3127.999931,N,12117.999999,E,1,07,1.45,39.9,M,9.5,M,,*4F
$GNGSA,A,3,04,13,25,20,07,02,23,,,,,,2.66,1.45,2.23,1*07
$GNGSA,A,3,,,,,,,,,,,,,2.66,1.45,2.23,4*05
$GPGSV,3,1,10,01,,,35,02,16,316,35,04,44,282,35,07,61,204,36,0*
5F
$GPGSV,3,2,10,08,,,35,13,62,347,36,16,13,059,34,20,45,114,36,0*54
$GPGSV,3,3,10,23,48,038,36,25,84,195,36,0*64
$BDGSV,1,1,00,0*74

$GNRMC,000243.00,A,3127.999913,N,12117.999992,E,0.039,,200720,,,A,V*16
$GNGGA,000243.00,3127.999913,N,12117.999992,E,1,07,1.45,39.8,M,9.5,M,,*44
$GNGSA,A,3,04,13,25,20,07,02,23,,,,,,2.66,1.45,2.23,1*07
$GNGSA,A,3,,,,,,,,,,,,,2.66,1.45,2.23,4*05
$GPGSV,3,1,11,01,,,35,02,16,316,34,04,44,282,36,07,61,204,36,0*
5C
$GPGSV,3,2,11,08,,,35,11,00,170,,13,62,347,36,16,13,059,35,0*50
$GPGSV,3,3,11,20,45,114,36,23,48,038,36,25,84,195,36,0*57
$BDGSV,1,1,00,0*74

$GNRMC,000244.00,A,3127.999904,N,12117.999983,E,0.026,,200720,,,A,V*19
$GNGGA,000244.00,3127.999904,N,12117.999983,E,1,07,1.45,39.8,M,9.5,M,,*45
$GNGSA,A,3,04,13,25,20,07,02,23,,,,,,2.66,1.45,2.23,1*07
$GNGSA,A,3,,,,,,,,,,,,,2.66,1.45,2.23,4*05
$GPGSV,3,1,11,01,,,35,02,16,316,35,04,44,282,36,07,61,204,36,0*
5D
$GPGSV,3,2,11,08,,,35,11,00,170,,13,62,347,36,16,13,059,34,0*51
$GPGSV,3,3,11,20,45,114,36,23,48,038,36,25,84,195,36,0*57
$BDGSV,1,1,00,0*74

$GNRMC,000245.00,A,3127.999913,N,12117.999984,E,0.021,,200720,,,A,V*1E
$GNGGA,000245.00,3127.999913,N,12117.999984,E,1,07,1.45,39.8,M,9.5,M,,*45
$GNGSA,A,3,04,13,25,20,07,02,23,,,,,,2.66,1.45,2.23,1*07
$GNGSA,A,3,,,,,,,,,,,,,2.66,1.45,2.23,4*05
$GPGSV,3,1,11,01,,,35,02,16,316,34,04,44,282,36,07,61,204,36,0*
5C
$GPGSV,3,2,11,08,,,35,11,00,170,,13,62,347,36,16,13,059,35,0*50
$GPGSV,3,3,11,20,45,114,36,23,48,038,36,25,84,195,36,0*57
$BDGSV,1,1,00,0*74

$GNRMC,000246.00,A,3127.999907,N,12117.999981,E,0.027,,200720,,,A,V*1B
$GNGGA,000246.00,3127.999907,N,12117.999981,E,1,07,1.45,39.8,M,9.5,M,,*46
$GNGSA,A,3,04,13,25,20,07,02,23,,,,,,2.66,1.45,2.23,1*07
$GNGSA,A,3,,,,,,,,,,,,,2.66,1.45,2.23,4*05
$GPGSV,3,1,11,01,,,35,02,16,316,34,04,44,282,36,07,61,204,36,0*
5C
$GPGSV,3,2,11,08,,,35,11,00,170,,13,62,347,36,16,13,059,34,0*51
$GPGSV,3,3,11,20,45,114,36,23,48,038,36,25,84,195,36,0*57
$BDGSV,1,1,00,0*74

$GNRMC,000247.00,A,3127.999852,N,12117.999963,E,0.173,,200720,,,A,V*17
$GNGGA,000247.00,3127.999852,N,12117.999963,E,1,08,1.14,39.6,M,9.5,M,,*4F
$GNGSA,A,3,04,13,25,20,07,02,23,08,,,,,2.06,1.14,1.71,1*09
$GNGSA,A,3,,,,,,,,,,,,,2.06,1.14,1.71,4*03
$GPGSV,3,1,11,01,,,35,02,16,316,34,04,44,282,35,07,61,204,36,
0*5F
$GPGSV,3,2,11,08,22,211,35,11,00,170,,13,62,347,36,16,13,059,34,0*63
$GPGSV,3,3,11,20,45,114,36,23,48,038,36,25,84,195,36,0*57
$BDGSV,1,1,00,0*74

<????sim??????(SIM??:1)>
<????GSM????????(GSM:0)>
<????GPRS????????(GPRS:0)>
<????????????(SIGNAL:0)>
<????????????????(BER:0)>

<??????????????>

$GNRMC,000248.00,A,3127.999859,N,12117.999963,E,0.043,,200720,,,A,V*11
$GNGGA,000248.00,3127.999859,N,12117.999963,E,1,08,1.14,39.6,M,9.5,M,,*4B
$GNGSA,A,3,04,13,25,20,07,02,23,08,,,,,2.06,1.14,1.71,1*09
$GNGSA,A,3,,,,,,,,,,,,,2.06,1.14,1.71,4*03
$GPGSV,3,1,11,01,,,35,02,16,316,35,04,44,282,35,07,61,204,36,
0*5E
$GPGSV,3,2,11,08,22,211,35,11,00,170,,13,62,347,36,16,13,059,35,0*62
$GPGSV,3,3,11,20,45,114,36,23,48,038,36,25,84,195,36,0*57
$BDGSV,1,1,00,0*74

$GNRMC,000249.00,A,3127.999862,N,12117.999965,E,0.061,,200720,,,A,V*1E
$GNGGA,000249.00,3127.999862,N,12117.999965,E,1,08,1.14,39.6,M,9.5,M,,*44
$GNGSA,A,3,04,13,25,20,07,02,23,08,,,,,2.06,1.14,1.71,1*09
$GNGSA,A,3,,,,,,,,,,,,,2.06,1.14,1.71,4*03
$GPGSV,3,1,11,01,,,35,02,16,316,35,04,44,282,36,07,61,204,36,
0*5D
$GPGSV,3,2,11,08,22,211,35,11,00,170,,13,62,347,36,16,13,059,35,0*62
$GPGSV,3,3,11,20,45,114,35,23,48,038,36,25,84,195,36,0*54
$BDGSV,1,1,00,0*74

$GNRMC,000250.00,A,3127.999870,N,12117.999964,E,0.035,,200720,,,A,V*15
$GNGGA,000250.00,3127.999870,N,12117.999964,E,1,08,1.14,39.6,M,9.5,M,,*4E
$GNGSA,A,3,04,13,25,20,07,02,23,08,,,,,2.06,1.14,1.71,1*09
$GNGSA,A,3,,,,,,,,,,,,,2.06,1.14,1.71,4*03
$GPGSV,3,1,11,01,,,35,02,16,316,35,04,44,282,35,07,61,204,36,
0*5E
$GPGSV,3,2,11,08,22,211,35,11,00,170,,13,62,347,36,16,13,059,34,0*63
$GPGSV,3,3,11,20,45,114,36,23,48,038,36,25,84,195,36,0*57
$BDGSV,1,1,00,0*74

$GNRMC,000251.00,A,3127.999880,N,12117.999976,E,0.034,,200720,,,A,V*19
$GNGGA,000251.00,3127.999880,N,12117.999976,E,1,08,1.14,39.6,M,9.5,M,,*43
$GNGSA,A,3,04,13,25,20,07,02,23,08,,,,,2.06,1.14,1.71,1*09
$GNGSA,A,3,,,,,,,,,,,,,2.06,1.14,1.71,4*03
$GPGSV,3,1,11,01,,,35,02,16,316,35,04,44,282,35,07,61,204,36,
0*5E
$GPGSV,3,2,11,08,22,211,35,11,00,170,,13,62,347,36,16,13,059,34,0*63
$GPGSV,3,3,11,20,45,114,36,23,48,038,36,25,84,195,36,0*57
$BDGSV,1,1,00,0*74

$GNRMC,000252.00,A,3127.999887,N,12117.999984,E,0.007,,200720,,,A,V*10
$GNGGA,000252.00,3127.999887,N,12117.999984,E,1,08,1.14,39.7,M,9.5,M,,*4B
$GNGSA,A,3,04,13,25,20,07,02,23,08,,,,,2.06,1.14,1.71,1*09
$GNGSA,A,3,,,,,,,,,,,,,2.06,1.14,1.71,4*03
$GPGSV,3,1,11,01,,,35,02,16,316,35,04,44,282,36,07,61,204,36,
0*5D
$GPGSV,3,2,11,08,22,211,35,11,00,170,,13,62,347,36,16,13,059,35,0*62
$GPGSV,3,3,11,20,45,114,36,23,48,038,36,25,84,195,36,0*57
$BDGSV,1,1,00,0*74

$GNRMC,000253.00,A,3127.999892,N,12117.999987,E,0.026,,200720,,,A,V*15
$GNGGA,000253.00,3127.999892,N,12117.999987,E,1,08,1.14,39.7,M,9.5,M,,*4D
$GNGSA,A,3,04,13,25,20,07,02,23,08,,,,,2.06,1.14,1.71,1*09
$GNGSA,A,3,,,,,,,,,,,,,2.06,1.14,1.71,4*03
$GPGSV,3,1,11,01,,,35,02,16,316,35,04,44,282,35,07,61,204,36,
0*5E
$GPGSV,3,2,11,08,22,211,35,11,00,170,,13,62,347,36,16,13,059,35,0*62
$GPGSV,3,3,11,20,45,114,36,23,48,038,36,25,84,195,36,0*57
$BDGSV,1,1,00,0*74

$GNRMC,000254.00,A,3127.999903,N,12117.999985,E,0.010,,200720,,,A,V*1C
$GNGGA,000254.00,3127.999903,N,12117.999985,E,1,08,1.14,39.8,M,9.5,M,,*4E
$GNGSA,A,3,04,13,25,20,07,02,23,08,,,,,2.06,1.14,1.71,1*09
$GNGSA,A,3,,,,,,,,,,,,,2.06,1.14,1.71,4*03
$GPGSV,3,1,11,01,,,35,02,16,316,35,04,44,282,36,07,61,204,37,
0*5C
$GPGSV,3,2,11,08,22,211,35,11,00,170,,13,62,347,36,16,13,059,35,0*62
$GPGSV,3,3,11,20,45,114,36,23,48,038,36,25,84,195,37,0*56
$BDGSV,1,1,00,0*74

$GNRMC,000255.00,A,3127.999921,N,12117.999990,E,0.024,,200720,,,A,V*1E
$GNGGA,000255.00,3127.999921,N,12117.999990,E,1,08,1.14,39.8,M,9.5,M,,*4B
$GNGSA,A,3,04,13,25,20,07,02,23,08,,,,,2.06,1.14,1.71,1*09
$GNGSA,A,3,,,,,,,,,,,,,2.06,1.14,1.71,4*03
$GPGSV,3,1,11,01,,,36,02,16,316,36,04,44,282,36,07,61,204,37,
0*5C
$GPGSV,3,2,11,08,22,211,36,11,00,170,,13,62,347,37,16,13,059,35,0*60
$GPGSV,3,3,11,20,45,114,36,23,48,038,36,25,84,195,37,0*56
$BDGSV,1,1,00,0*74

$GNRMC,000256.00,A,3127.999936,N,12117.999989,E,0.044,,200720,,,A,V*15
$GNGGA,000256.00,3127.999936,N,12117.999989,E,1,08,1.14,39.9,M,9.5,M,,*47
$GNGSA,A,3,04,13,25,20,07,02,23,08,,,,,2.06,1.14,1.71,1*09
$GNGSA,A,3,,,,,,,,,,,,,2.06,1.14,1.71,4*03
$GPGSV,3,1,11,01,,,36,02,16,316,36,04,45,282,37,07,61,204,37,
0*5C
$GPGSV,3,2,11,08,22,211,36,11,00,170,,13,62,347,37,16,13,059,36,0*63
$GPGSV,3,3,11,20,45,114,36,23,48,038,36,25,84,195,37,0*56
$BDGSV,1,1,00,0*74

$GNRMC,000257.00,A,3127.999939,N,12117.999981,E,0.027,,200720,,,A,V*16
$GNGGA,000257.00,3127.999939,N,12117.999981,E,1,08,1.14,39.9,M,9.5,M,,*41
$GNGSA,A,3,04,13,25,20,07,02,23,08,,,,,2.06,1.14,1.71,1*09
$GNGSA,A,3,,,,,,,,,,,,,2.06,1.14,1.71,4*03
$GPGSV,3,1,11,01,,,36,02,16,316,35,04,45,282,36,07,62,204,37,
0*5D
$GPGSV,3,2,11,08,22,211,36,11,00,170,,13,62,347,37,16,13,059,35,0*60
$GPGSV,3,3,11,20,45,114,36,23,48,038,36,25,84,195,37,0*56
$BDGSV,1,1,00,0*74

<??????????????>

$GNRMC,000258.00,A,3127.999951,N,12117.999987,E,0.017,,200720,,,A,V*12
$GNGGA,000258.00,3127.999951,N,12117.999987,E,1,08,1.14,39.9,M,9.5,M,,*46
$GNGSA,A,3,04,13,25,20,07,02,23,08,,,,,2.06,1.14,1.71,1*09
$GNGSA,A,3,,,,,,,,,,,,,2.06,1.14,1.71,4*03
$GPGSV,3,1,11,01,,,36,02,16,316,35,04,45,282,36,07,62,204,37,
0*5D
$GPGSV,3,2,11,08,22,211,36,11,00,170,,13,62,347,37,16,13,059,35,0*60
$GPGSV,3,3,11,20,45,114,36,23,48,038,36,25,84,195,37,0*56
$BDGSV,1,1,00,0*74

$GNRMC,000259.00,A,3127.999956,N,12117.999991,E,0.015,,200720,,,A,V*11
$GNGGA,000259.00,3127.999956,N,12117.999991,E,1,08,1.14,39.9,M,9.5,M,,*47
$GNGSA,A,3,04,13,25,20,07,02,23,08,,,,,2.06,1.14,1.71,1*09
$GNGSA,A,3,,,,,,,,,,,,,2.06,1.14,1.71,4*03
$GPGSV,3,1,11,01,,,35,02,16,316,35,04,45,282,36,07,62,204,36,
0*5F
$GPGSV,3,2,11,08,22,211,35,11,00,170,,13,62,347,36,16,13,059,35,0*62
$GPGSV,3,3,11,20,45,114,36,23,48,038,36,25,84,195,36,0*57
$BDGSV,1,1,00,0*74

$GNRMC,000300.00,A,3127.999958,N,12117.999994,E,0.007,,200720,,,A,V*14
$GNGGA,000300.00,3127.999958,N,12117.999994,E,1,08,1.14,39.9,M,9.5,M,,*41
$GNGSA,A,3,04,13,25,20,07,02,23,08,,,,,2.06,1.14,1.71,1*09
$GNGSA,A,3,,,,,,,,,,,,,2.06,1.14,1.71,4*03
$GPGSV,3,1,11,01,,,35,02,16,316,35,04,45,282,36,07,62,204,36,
0*5F
$GPGSV,3,2,11,08,22,211,35,11,00,170,,13,62,347,36,16,13,059,35,0*62
$GPGSV,3,3,11,20,45,114,36,23,48,038,36,25,84,195,36,0*57
$BDGSV,1,1,00,0*74

$GNRMC,000301.00,A,3127.999955,N,12118.000040,E,0.138,,200720,,,A,V*13
$GNGGA,000301.00,3127.999955,N,12118.000040,E,1,09,0.97,39.8,M,9.5,M,,*41
$GNGSA,A,3,04,13,25,20,07,02,23,08,01,,,,1.67,0.97,1.36,1*05
$GNGSA,A,3,,,,,,,,,,,,,1.67,0.97,1.36,4*0E
$GPGSV,3,1,11,01,20,116,35,02,16,316,35,04,45,282,36,07,62,
204,36,0*6B
$GPGSV,3,2,11,08,22,211,35,11,00,170,,13,62,347,36,16,13,058,35,0*63
$GPGSV,3,3,11,20,45,114,36,23,48,038,36,25,84,195,36,0*57
$BDGSV,1,1,00,0*74

$GNRMC,000302.00,A,3127.999964,N,12118.000023,E,0.016,,200720,,,A,V*1A
$GNGGA,000302.00,3127.999964,N,12118.000023,E,1,09,0.97,39.9,M,9.5,M,,*44
$GNGSA,A,3,04,13,25,20,07,02,23,08,01,,,,1.67,0.97,1.36,1*05
$GNGSA,A,3,,,,,,,,,,,,,1.67,0.97,1.36,4*0E
$GPGSV,3,1,11,01,20,116,35,02,16,316,35,04,45,282,36,07,62,
204,36,0*6B
$GPGSV,3,2,11,08,22,211,35,11,00,170,,13,62,347,36,16,13,058,34,0*62
$GPGSV,3,3,11,20,45,114,36,23,48,038,36,25,84,195,36,0*57
$BDGSV,1,1,00,0*74

$GNRMC,000303.00,A,3127.999965,N,12118.000011,E,0.008,,200720,,,A,V*14
$GNGGA,000303.00,3127.999965,N,12118.000011,E,1,09,0.97,39.9,M,9.5,M,,*45
$GNGSA,A,3,04,13,25,20,07,02,23,08,01,,,,1.67,0.97,1.36,1*05
$GNGSA,A,3,,,,,,,,,,,,,1.67,0.97,1.36,4*0E
$GPGSV,3,1,11,01,20,116,35,02,16,316,35,04,45,282,35,07,62,
204,36,0*68
$GPGSV,3,2,11,08,22,211,35,11,00,170,,13,62,347,36,16,13,058,35,0*63
$GPGSV,3,3,11,20,45,114,36,23,48,038,36,25,84,195,36,0*57
$BDGSV,1,1,00,0*74

$GNRMC,000304.00,A,3127.999967,N,12118.000005,E,0.021,,200720,,,A,V*1F
$GNGGA,000304.00,3127.999967,N,12118.000005,E,1,09,0.97,39.9,M,9.5,M,,*45
$GNGSA,A,3,04,13,25,20,07,02,23,08,01,,,,1.67,0.97,1.36,1*05
$GNGSA,A,3,,,,,,,,,,,,,1.67,0.97,1.36,4*0E
$GPGSV,3,1,11,01,20,116,35,02,16,316,35,04,45,282,36,07,62,
204,36,0*6B
$GPGSV,3,2,11,08,22,211,35,11,00,170,,13,62,347,36,16,13,058,35,0*63
$GPGSV,3,3,11,20,45,114,36,23,48,038,36,25,84,195,36,0*57
$BDGSV,1,1,00,0*74


GPS HPregnss> E1 15 00 00 00 00 07 53 8F 38 84 00 00 00 1C 3E 0B 1D 53 00 00 00 00 


$GNRMC,000305.00,A,3127.999970,N,12118.000001,E,0.020,,200720,,,A,V*1D
$GNGGA,000305.00,3127.999970,N,12118.000001,E,1,09,0.97,39.9,M,9.5,M,,*46
$GNGSA,A,3,04,13,25,20,07,02,23,08,01,,,,1.67,0.97,1.36,1*05
$GNGSA,A,3,,,,,,,,,,,,,1.67,0.97,1.36,4*0E
$GPGSV,3,1,11,01,20,116,35,02,16,316,35,04,45,282,36,07,62,
204,36,0*6B
$GPGSV,3,2,11,08,22,211,35,11,00,170,,13,62,347,36,16,13,058,35,0*63
$GPGSV,3,3,11,20,45,114,36,23,48,038,36,25,84,195,36,0*57
$BDGSV,1,1,00,0*74

$GNRMC,000306.00,A,3127.999970,N,12117.999998,E,0.011,,200720,,,A,V*13
$GNGGA,000306.00,3127.999970,N,12117.999998,E,1,09,0.97,40.0,M,9.5,M,,*4D
$GNGSA,A,3,04,13,25,20,07,02,23,08,01,,,,1.67,0.97,1.36,1*05
$GNGSA,A,3,,,,,,,,,,,,,1.67,0.97,1.36,4*0E
$GPGSV,3,1,11,01,20,116,35,02,16,316,35,04,45,282,36,07,62,
204,36,0*6B
$GPGSV,3,2,11,08,22,211,35,11,00,170,,13,62,347,36,16,13,058,35,0*63
$GPGSV,3,3,11,20,45,114,36,23,48,038,36,25,84,195,36,0*57
$BDGSV,1,1,00,0*74

$GNRMC,000307.00,A,3127.999977,N,12117.999989,E,0.018,,200720,,,A,V*1C
$GNGGA,000307.00,3127.999977,N,12117.999989,E,1,09,0.97,40.0,M,9.5,M,,*4B
$GNGSA,A,3,04,13,25,20,07,02,23,08,01,,,,1.67,0.97,1.36,1*05
$GNGSA,A,3,,,,,,,,,,,,,1.67,0.97,1.36,4*0E
$GPGSV,3,1,11,01,20,116,35,02,16,316,35,04,45,282,36,07,62,
204,36,0*6B
$GPGSV,3,2,11,08,22,211,35,11,00,170,,13,62,347,36,16,13,058,35,0*63
$GPGSV,3,3,11,20,45,114,36,23,48,038,36,25,84,195,36,0*57
$BDGSV,1,1,00,0*74

<????sim??????(SIM??:1)>
<????GSM????????(GSM:0)>
<????GPRS????????(GPRS:0)>
<????????????(SIGNAL:0)>
<????????????????(BER:0)>

<??????????????>

$GNRMC,000308.00,A,3127.999984,N,12117.999986,E,0.017,,200720,,,A,V*1F
$GNGGA,000308.00,3127.999984,N,12117.999986,E,1,09,0.97,40.0,M,9.5,M,,*47
$GNGSA,A,3,04,13,25,20,07,02,23,08,01,,,,1.67,0.97,1.36,1*05
$GNGSA,A,3,,,,,,,,,,,,,1.67,0.97,1.36,4*0E
$GPGSV,3,1,11,01,20,116,35,02,16,316,35,04,45,282,36,07,62,
204,36,0*6B
$GPGSV,3,2,11,08,22,211,35,11,00,170,,13,62,347,36,16,13,058,35,0*63
$GPGSV,3,3,11,20,45,114,36,23,48,038,36,25,84,195,36,0*57
$BDGSV,1,1,00,0*74

$GNRMC,000309.00,A,3127.999984,N,12117.999974,E,0.015,,200720,,,A,V*11
$GNGGA,000309.00,3127.999984,N,12117.999974,E,1,09,0.97,40.0,M,9.5,M,,*4B
$GNGSA,A,3,04,13,25,20,07,02,23,08,01,,,,1.67,0.97,1.36,1*05
$GNGSA,A,3,,,,,,,,,,,,,1.67,0.97,1.36,4*0E
$GPGSV,3,1,11,01,20,116,35,02,16,316,35,04,45,282,36,07,62,
204,36,0*6B
$GPGSV,3,2,11,08,22,211,35,11,00,170,,13,62,347,36,16,13,058,35,0*63
$GPGSV,3,3,11,20,45,114,36,23,48,038,36,25,84,195,36,0*57
$BDGSV,1,1,00,0*74

$GNRMC,000310.00,A,3127.999988,N,12117.999973,E,0.023,,200720,,,A,V*17
$GNGGA,000310.00,3127.999988,N,12117.999973,E,1,09,0.97,40.0,M,9.5,M,,*48
$GNGSA,A,3,04,13,25,20,07,02,23,08,01,,,,1.67,0.97,1.36,1*05
$GNGSA,A,3,,,,,,,,,,,,,1.67,0.97,1.36,4*0E
$GPGSV,3,1,11,01,20,116,35,02,16,316,35,04,45,282,36,07,62,
204,36,0*6B
$GPGSV,3,2,11,08,22,211,35,11,00,170,,13,62,347,36,16,13,058,35,0*63
$GPGSV,3,3,11,20,45,114,36,23,48,038,36,25,84,195,36,0*57
$BDGSV,1,1,00,0*74

$GNRMC,000311.00,A,3127.999986,N,12117.999963,E,0.011,,200720,,,A,V*18
$GNGGA,000311.00,3127.999986,N,12117.999963,E,1,09,0.97,40.1,M,9.5,M,,*47
$GNGSA,A,3,04,13,25,20,07,02,23,08,01,,,,1.67,0.97,1.36,1*05
$GNGSA,A,3,,,,,,,,,,,,,1.67,0.97,1.36,4*0E
$GPGSV,3,1,11,01,20,116,35,02,16,316,35,04,45,282,36,07,62,
204,36,0*6B
$GPGSV,3,2,11,08,22,211,35,11,00,170,,13,62,347,36,16,13,058,35,0*63
$GPGSV,3,3,11,20,45,114,36,23,48,038,36,25,84,195,36,0*57
$BDGSV,1,1,00,0*74

$GNRMC,000312.00,A,3127.999988,N,12117.999958,E,0.013,,200720,,,A,V*1F
$GNGGA,000312.00,3127.999988,N,12117.999958,E,1,09,0.97,40.0,M,9.5,M,,*43
$GNGSA,A,3,04,13,25,20,07,02,23,08,01,,,,1.67,0.97,1.36,1*05
$GNGSA,A,3,,,,,,,,,,,,,1.67,0.97,1.36,4*0E
$GPGSV,3,1,11,01,20,116,35,02,16,316,35,04,45,282,36,07,62,
204,36,0*6B
$GPGSV,3,2,11,08,22,211,35,11,00,170,,13,62,347,36,16,13,058,35,0*63
$GPGSV,3,3,11,20,45,114,36,23,48,038,36,25,84,195,36,0*57
$BDGSV,1,1,00,0*74

$GNRMC,000313.00,A,3127.999986,N,12117.999959,E,0.015,,200720,,,A,V*17
$GNGGA,000313.00,3127.999986,N,12117.999959,E,1,09,0.97,40.1,M,9.5,M,,*4C
$GNGSA,A,3,04,13,25,20,07,02,23,08,01,,,,1.67,0.97,1.36,1*05
$GNGSA,A,3,,,,,,,,,,,,,1.67,0.97,1.36,4*0E
$GPGSV,3,1,11,01,20,116,35,02,16,316,35,04,45,282,36,07,62,
204,36,0*6B
$GPGSV,3,2,11,08,22,211,35,11,00,170,,13,62,347,36,16,13,058,35,0*63
$GPGSV,3,3,11,20,45,114,36,23,48,038,36,25,84,195,36,0*57
$BDGSV,1,1,00,0*74

$GNRMC,000314.00,A,3127.999980,N,12117.999952,E,0.007,,200720,,,A,V*1E
$GNGGA,000314.00,3127.999980,N,12117.999952,E,1,09,0.97,40.1,M,9.5,M,,*46
$GNGSA,A,3,04,13,25,20,07,02,23,08,01,,,,1.67,0.97,1.36,1*05
