
$串口初始化：20210613 14:39:05$

$串口初始化：20210613 14:39:14$

$串口初始化：20210613 14:39:34$

$串口初始化：20210613 14:40:08$

$串口初始化：20210613 14:40:10$

$串口初始化：20210613 14:59:20$

$串口初始化：20210613 14:59:31$

$串口初始化：20210613 15:05:28$

$串口初始化：20210613 15:05:36$

$串口初始化：20210613 15:06:55$
yy10,E,0.000,270.000,010720,0.000,E,A,V*6D
$GPGGA,075943,3000.00000,N,12000.00000,E,3,16,0.88,-7.86,M,7.86,M,,*66
$GPRMC,075943,A,3000.00000,N,12000.00000,E,0.000,270.000,010720,0.000,E,A,V*6C
$GPGGA,075944,3000.00000,N,12000.00000,E,3,16,0.88,-7.86,M,7.86,M,,*61
$GPRMC,075944,A,3000.00000,N,12000.00000,E,0.000,270.000,010720,0.000,E,A,V*6B
$GPGGA,075945,3000.00000,N,12000.00000,E,3,16,0.88,-7.86,M,7.86,M,,*60
$GPRMC,075945,A,3000.00000,N,12000.00000,E,0.000,270.000,010720,0.000,E,A,V*6A
$GPGGA,075946,3000.00000,N,12000.00000,E,3,16,0.88,-7.86,M,7.86,M,,*63
$GPRMC,075946,A,3000.00000,N,12000.00000,E,0.000,270.000,010720,0.000,E,A,V*69
$GPGGA,075947,3000.00000,N,12000.00000,E,3,16,0.88,-7.86,M,7.86,M,,*62
$GPRMC,075947,A,3000.00000,N,12000.00000,E,0.000,270.000,010720,0.000,E,A,V*68
$GPGGA,075948,3000.00000,N,12000.00000,E,3,16,0.88,-7.86,M,7.86,M,,*6D
$GPRMC,075948,A,3000.00000,N,12000.00000,E,0.000,270.000,010720,0.000,E,A,V*67
$GPGGA,075949,3000.00000,N,12000.00000,E,3,16,0.88,-7.86,M,7.86,M,,*6C
$GPRMC,075949,A,3000.00000,N,12000.00000,E,0.000,270.000,010720,0.000,E,A,V*66
$GPGGA,075950,3000.00000,N,12000.00000,E,3,16,0.88,-7.86,M,7.86,M,,*64
$GPRMC,075950,A,3000.00000,N,12000.00000,E,0.000,270.000,010720,0.000,E,A,V*6E
$GPGGA,075951,3000.00000,N,12000.00000,E,3,16,0.88,-7.86,M,7.86,M,,*65
$GPRMC,075951,A,3000.00000,N,12000.00000,E,0.000,270.000,010720,0.000,E,A,V*6F
$GPGGA,075952,3000.00000,N,12000.00000,E,3,16,0.88,-7.86,M,7.86,M,,*66
$GPRMC,075952,A,3000.00000,N,12000.00000,E,0.000,270.000,010720,0.000,E,A,V*6C
$GPGGA,075953,3000.00000,N,12000.00000,E,3,16,0.88,-7.86,M,7.86,M,,*67
$GPRMC,075953,A,3000.00000,N,12000.00000,E,0.000,270.000,010720,0.000,E,A,V*6D
$GPGGA,075954,3000.00000,N,12000.00000,E,3,16,0.88,-7.86,M,7.86,M,,*60
$GPRMC,075954,A,3000.00000,N,12000.00000,E,0.000,270.000,010720,0.000,E,A,V*6A
$GPGGA,075955,3000.00000,N,12000.00000,E,3,16,0.88,-7.86,M,7.86,M,,*61
$GPRMC,075955,A,3000.00000,N,12000.00000,E,0.000,270.000,010720,0.000,E,A,V*6B
$GPGGA,075956,3000.00000,N,12000.00000,E,3,16,0.88,-7.86,M,7.86,M,,*62
$GPRMC,075956,A,3000.00000,N,12000.00000,E,0.000,270.000,010720,0.000,E,A,V*68
$GPGGA,075957,3000.00000,N,12000.00000,E,3,16,0.88,-7.86,M,7.86,M,,*63
$GPRMC,075957,A,3000.00000,N,12000.00000,E,0.000,270.000,010720,0.000,E,A,V*69
$GPGGA,075958,3000.00000,N,12000.00000,E,3,16,0.88,-7.86,M,7.86,M,,*6C
$GPRMC,075958,A,3000.00000,N,12000.00000,E,0.000,270.000,010720,0.000,E,A,V*66
$GPGGA,075959,3000.00000,N,12000.00000,E,3,16,0.88,-7.86,M,7.86,M,,*6D
$GPRMC,075959,A,3000.00000,N,12000.00000,E,0.000,270.000,010720,0.000,E,A,V*67
$GPGGA,080000,3000.00000,N,12000.00000,E,3,16,0.88,-7.86,M,7.86,M,,*62
$GPRMC,080000,A,3000.00000,N,12000.00000,E,0.000,270.000,010720,0.000,E,A,V*68
$GPGGA,080001,3000.00000,N,12000.00000,E,3,16,0.88,-7.86,M,7.86,M,,*63
$GPRMC,080001,A,3000.00000,N,12000.00000,E,0.000,270.000,010720,0.000,E,A,V*69
$GPGGA,080002,3000.00000,N,12000.00000,E,3,16,0.88,-7.86,M,7.86,M,,*60
$GPRMC,080002,A,3000.00000,N,12000.00000,E,0.000,270.000,010720,0.000,E,A,V*6A
$GPGGA,080003,3000.00000,N,12000.00000,E,3,16,0.88,-7.86,M,7.86,M,,*61
$GPRMC,080003,A,3000.00000,N,12000.00000,E,0.000,270.000,010720,0.000,E,A,V*6B
$GPGGA,080004,3000.00000,N,12000.00000,E,3,16,0.88,-7.86,M,7.86,M,,*66
$GPRMC,080004,A,3000.00000,N,12000.00000,E,0.000,270.000,010720,0.000,E,A,V*6C
$GPGGA,080005,3000.00000,N,12000.00000,E,3,16,0.88,-7.86,M,7.86,M,,*67
$GPRMC,080005,A,3000.00000,N,12000.00000,E,0.000,270.000,010720,0.000,E,A,V*6D
$GPGGA,080006,3000.00000,N,12000.00000,E,3,16,0.88,-7.86,M,7.86,M,,*64
$GPRMC,080006,A,3000.00000,N,12000.00000,E,0.000,270.000,010720,0.000,E,A,V*6E
$GPGGA,080007,3000.00000,N,12000.00000,E,3,16,0.88,-7.86,M,7.86,M,,*65
$GPRMC,080007,A,3000.00000,N,12000.00000,E,0.000,270.000,010720,0.000,E,A,V*6F
$GPGGA,080008,3000.00000,N,12000.00000,E,3,16,0.88,-7.86,M,7.86,M,,*6A
$GPRMC,080008,A,3000.00000,N,12000.00000,E,0.000,270.000,010720,0.000,E,A,V*60
$GPGGA,080009,3000.00000,N,12000.00000,E,3,16,0.88,-7.86,M,7.86,M,,*6B
$GPRMC,080009,A,3000.00000,N,12000.00000,E,0.000,270.000,010720,0.000,E,A,V*61
$GPGGA,080010,3000.00000,N,12000.00000,E,3,16,0.88,-7.86,M,7.86,M,,*63
$GPRMC,080010,A,3000.00000,N,12000.00000,E,0.000,270.000,010720,0.000,E,A,V*69
$GPGGA,080011,3000.00000,N,12000.00000,E,3,16,0.88,-7.86,M,7.86,M,,*62
$GPRMC,080011,A,3000.00000,N,12000.00000,E,0.000,270.000,010720,0.000,E,A,V*68
$GPGGA,080012,3000.00000,N,12000.00000,E,3,16,0.88,-7.86,M,7.86,M,,*61
$GPRMC,080012,A,3000.00000,N,12000.00000,E,0.000,270.000,010720,0.000,E,A,V*6B
$GPGGA,080013,3000.00000,N,12000.00000,E,3,16,0.88,-7.86,M,7.86,M,,*60
$GPRMC,080013,A,3000.00000,N,12000.00000,E,0.000,270.000,010720,0.000,E,A,V*6A
$GPGGA,080014,3000.00000,N,12000.00000,E,3,16,0.88,-7.86,M,7.86,M,,*67
$GPRMC,080014,A,3000.00000,N,12000.00000,E,0.000,270.000,010720,0.000,E,A,V*6D
$GPGGA,080015,3000.00000,N,12000.00000,E,3,16,0.88,-7.86,M,7.86,M,,*66
$GPRMC,080015,A,3000.00000,N,12000.00000,E,0.000,270.000,010720,0.000,E,A,V*6C
$GPGGA,080016,3000.00000,N,12000.00000,E,3,16,0.88,-7.86,M,7.86,M,,*65
$GPRMC,080016,A,3000.00000,N,12000.00000,E,0.000,270.000,010720,0.000,E,A,V*6F
$GPGGA,080017,3000.00000,N,12000.00000,E,3,16,0.88,-7.86,M,7.86,M,,*64
$GPRMC,080017,A,3000.00000,N,12000.00000,E,0.000,270.000,010720,0.000,E,A,V*6E
$GPGGA,080018,3000.00000,N,12000.00000,E,3,16,0.88,-7.86,M,7.86,M,,*6B
$GPRMC,080018,A,3000.00000,N,12000.00000,E,0.000,270.000,010720,0.000,E,A,V*61
$GPGGA,080019,3000.00000,N,12000.00000,E,3,16,0.88,-7.86,M,7.86,M,,*6A
$GPRMC,080019,A,3000.00000,N,12000.00000,E,0.000,270.000,010720,0.000,E,A,V*60
$GPGGA,080020,3000.00000,N,12000.00000,E,3,16,0.88,-7.86,M,7.86,M,,*60
$GPRMC,080020,A,3000.00000,N,12000.00000,E,0.000,270.000,010720,0.000,E,A,V*6A
$GPGGA,080021,3000.00000,N,12000.00000,E,3,16,0.88,-7.86,M,7.86,M,,*61
$GPRMC,080021,A,3000.00000,N,12000.00000,E,0.000,270.000,010720,0.000,E,A,V*6B
$GPGGA,080022,3000.00000,N,12000.00000,E,3,16,0.88,-7.86,M,7.86,M,,*62
$GPRMC,080022,A,3000.00000,N,12000.00000,E,0.000,270.000,010720,0.000,E,A,V*68
$GPGGA,080023,3000.00000,N,12000.00000,E,3,16,0.88,-7.86,M,7.86,M,,*63
$GPRMC,080023,A,3000.00000,N,12000.00000,E,0.000,270.000,010720,0.000,E,A,V*69
$GPGGA,080024,3000.00000,N,12000.00000,E,3,16,0.88,-7.86,M,7.86,M,,*64
$GPRMC,080024,A,3000.00000,N,12000.00000,E,0.000,270.000,010720,0.000,E,A,V*6E
$GPGGA,080025,3000.00000,N,12000.00000,E,3,16,0.88,-7.86,M,7.86,M,,*65
$GPRMC,080025,A,3000.00000,N,12000.00000,E,0.000,270.000,010720,0.000,E,A,V*6F
$GPGGA,080026,3000.00000,N,12000.00000,E,3,16,0.88,-7.86,M,7.86,M,,*66
$GPRMC,080026,A,3000.00000,N,12000.00000,E,0.000,270.000,010720,0.000,E,A,V*6C
$GPGGA,080027,3000.00000,N,12000.00000,E,3,16,0.88,-7.86,M,7.86,M,,*67
$GPRMC,080027,A,3000.00000,N,12000.00000,E,0.000,270.000,010720,0.000,E,A,V*6D
$GPGGA,080028,3000.00000,N,12000.00000,E,3,16,0.88,-7.86,M,7.86,M,,*68
$GPRMC,080028,A,3000.00000,N,12000.00000,E,0.000,270.000,010720,0.000,E,A,V*62
$GPGGA,080029,3000.00000,N,12000.00000,E,3,16,0.88,-7.86,M,7.86,M,,*69
$GPRMC,080029,A,3000.00000,N,12000.00000,E,0.000,270.000,010720,0.000,E,A,V*63
$GPGGA,080030,3000.00000,N,12000.00000,E,3,16,0.88,-7.86,M,7.86,M,,*61
$GPRMC,080030,A,3000.00000,N,12000.00000,E,0.000,270.000,010720,0.000,E,A,V*6B
$GPGGA,080031,3000.00000,N,12000.00000,E,3,16,0.88,-7.86,M,7.86,M,,*60
$GPRMC,080031,A,3000.00000,N,12000.00000,E,0.000,270.000,010720,0.000,E,A,V*6A
$GPGGA,080032,3000.00000,N,12000.00000,E,3,16,0.88,-7.86,M,7.86,M,,*63
$GPRMC,080032,A,3000.00000,N,12000.00000,E,0.000,270.000,010720,0.000,E,A,V*69
$GPGGA,080033,3000.00000,N,12000.00000,E,3,16,0.88,-7.86,M,7.86,M,,*62
$GPRMC,080033,A,3000.00000,N,12000.00000,E,0.000,270.000,010720,0.000,E,A,V*68
$GPGGA,080034,3000.00000,N,12000.00000,E,3,16,0.88,-7.86,M,7.86,M,,*65
$GPRMC,080034,A,3000.00000,N,12000.00000,E,0.000,270.000,010720,0.000,E,A,V*6F
$GPGGA,080035,3000.00000,N,12000.00000,E,3,16,0.88,-7.86,M,7.86,M,,*64
$GPRMC,080035,A,3000.00000,N,12000.00000,E,0.000,270.000,010720,0.000,E,A,V*6E
$GPGGA,080036,3000.00000,N,12000.00000,E,3,16,0.88,-7.86,M,7.86,M,,*67
$GPRMC,080036,A,3000.00000,N,12000.00000,E,0.000,270.000,010720,0.000,E,A,V*6D
$GPGGA,080037,3000.00000,N,12000.00000,E,3,16,0.88,-7.86,M,7.86,M,,*66
$GPRMC,080037,A,3000.00000,N,12000.00000,E,0.000,270.000,010720,0.000,E,A,V*6C
$GPGGA,080038,3000.00000,N,12000.00000,E,3,16,0.88,-7.86,M,7.86,M,,*69
$GPRMC,080038,A,3000.00000,N,12000.00000,E,0.000,270.000,010720,0.000,E,A,V*63
$GPGGA,080039,3000.00000,N,12000.00000,E,3,16,0.88,-7.86,M,7.86,M,,*68
$GPRMC,080039,A,3000.00000,N,12000.00000,E,0.000,270.000,010720,0.000,E,A,V*62
$GPGGA,080040,3000.00000,N,12000.00000,E,3,16,0.88,-7.86,M,7.86,M,,*66
$GPRMC,080040,A,3000.00000,N,12000.00000,E,0.000,270.000,010720,0.000,E,A,V*6C
$GPGGA,080041,3000.00000,N,12000.00000,E,3,16,0.88,-7.86,M,7.86,M,,*67
$GPRMC,080041,A,3000.00000,N,12000.00000,E,0.000,270.000,010720,0.000,E,A,V*6D
$GPGGA,080042,3000.00000,N,12000.00000,E,3,16,0.88,-7.86,M,7.86,M,,*64
$GPRMC,080042,A,3000.00000,N,12000.00000,E,0.000,270.000,010720,0.000,E,A,V*6E
$GPGGA,080043,3000.00000,N,11959.99992,E,3,16,0.88,-7.86,M,7.86,M,,*61
$GPRMC,080043,A,3000.00000,N,11959.99992,E,0.484,270.000,010720,0.000,E,A,V*63
$GPGGA,080044,3000.00000,N,11959.99969,E,3,16,0.88,-7.86,M,7.86,M,,*62
$GPRMC,080044,A,3000.00000,N,11959.99969,E,0.970,270.000,010720,0.000,E,A,V*66
$GPGGA,080045,3000.00000,N,11959.99930,E,3,16,0.88,-7.86,M,7.86,M,,*6F
$GPRMC,080045,A,3000.00000,N,11959.99930,E,1.456,270.000,010720,0.000,E,A,V*63
$GPGGA,080046,3000.00000,N,11959.99876,E,3,16,0.88,-7.86,M,7.86,M,,*6F
$GPRMC,080046,A,3000.00000,N,11959.99876,E,1.942,270.000,010720,0.000,E,A,V*6B
$GPGGA,080047,3000.00000,N,11959.99806,E,3,16,0.88,-7.86,M,7.86,M,,*69
$GPRMC,080047,A,3000.00000,N,11959.99806,E,2.428,270.000,010720,0.000,E,A,V*6F
$GPGGA,080048,3000.00000,N,11959.99721,E,3,16,0.88,-7.85,M,7.85,M,,*6C
$GPRMC,080048,A,3000.00000,N,11959.99721,E,2.914,270.000,010720,0.000,E,A,V*68
$GPGGA,080049,3000.00000,N,11959.99620,E,3,16,0.88,-7.85,M,7.85,M,,*6D
$GPRMC,080049,A,3000.00000,N,11959.99620,E,3.400,270.000,010720,0.000,E,A,V*60
$GPGGA,080050,3000.00000,N,11959.99503,E,3,16,0.88,-7.85,M,7.85,M,,*67
$GPRMC,080050,A,3000.00000,N,11959.99503,E,3.886,270.000,010720,0.000,E,A,V*68
$GPGGA,080051,3000.00000,N,11959.99371,E,3,16,0.88,-7.85,M,7.85,M,,*65
$GPRMC,080051,A,3000.00000,N,11959.99371,E,4.372,270.000,010720,0.000,E,A,V*6D
$GPGGA,080052,3000.00000,N,11959.99223,E,3,16,0.88,-7.85,M,7.85,M,,*60
$GPRMC,080052,A,3000.00000,N,11959.99223,E,4.858,270.000,010720,0.000,E,A,V*6B
$GPGGA,080053,3000.00000,N,11959.99060,E,3,16,0.88,-7.85,M,7.85,M,,*64
$GPRMC,080053,A,3000.00000,N,11959.99060,E,5.344,270.000,010720,0.000,E,A,V*68
$GPGGA,080054,3000.00000,N,11959.98882,E,3,16,0.88,-7.85,M,7.85,M,,*66
$GPRMC,080054,A,3000.00000,N,11959.98882,E,5.830,270.000,010720,0.000,E,A,V*62
$GPGGA,080055,3000.00000,N,11959.98687,E,3,16,0.88,-7.85,M,7.85,M,,*6C
$GPRMC,080055,A,3000.00000,N,11959.98687,E,6.316,270.000,010720,0.000,E,A,V*64
$GPGGA,080056,3000.00000,N,11959.98477,E,3,16,0.88,-7.85,M,7.85,M,,*62
$GPRMC,080056,A,3000.00000,N,11959.98477,E,6.802,270.000,010720,0.000,E,A,V*64
$GPGGA,080057,3000.00000,N,11959.98252,E,3,16,0.88,-7.85,M,7.85,M,,*62
$GPRMC,080057,A,3000.00000,N,11959.98252,E,7.288,270.000,010720,0.000,E,A,V*6D
$GPGGA,080058,3000.00000,N,11959.98011,E,3,16,0.88,-7.85,M,7.85,M,,*68
$GPRMC,080058,A,3000.00000,N,11959.98011,E,7.774,270.000,010720,0.000,E,A,V*61
$GPGGA,080059,3000.00000,N,11959.97755,E,3,16,0.88,-7.85,M,7.85,M,,*61
$GPRMC,080059,A,3000.00000,N,11959.97755,E,8.260,270.000,010720,0.000,E,A,V*67
$GPGGA,080100,3000.00000,N,11959.97483,E,3,16,0.88,-7.85,M,7.85,M,,*64
$GPRMC,080100,A,3000.00000,N,11959.97483,E,8.746,270.000,010720,0.000,E,A,V*63
$GPGGA,080101,3000.00000,N,11959.97195,E,3,16,0.88,-7.85,M,7.85,M,,*67
$GPRMC,080101,A,3000.00000,N,11959.97195,E,9.232,270.000,010720,0.000,E,A,V*67
$GPGGA,080102,3000.00000,N,11959.96892,E,3,16,0.88,-7.85,M,7.85,M,,*6B
$GPRMC,080102,A,3000.00000,N,11959.96892,E,9.718,270.000,010720,0.000,E,A,V*66
$GPGGA,080103,3000.00000,N,11959.96573,E,3,16,0.88,-7.85,M,7.85,M,,*68
$GPRMC,080103,A,3000.00000,N,11959.96573,E,10.204,270.000,010720,0.000,E,A,V*55
$GPGGA,080104,3000.00000,N,11959.96239,E,3,16,0.88,-7.85,M,7.85,M,,*66
$GPRMC,080104,A,3000.00000,N,11959.96239,E,10.690,270.000,010720,0.000,E,A,V*52
$GPGGA,080105,3000.00000,N,11959.95889,E,3,16,0.88,-7.85,M,7.85,M,,*65
$GPRMC,080105,A,3000.00000,N,11959.95889,E,11.176,270.000,010720,0.000,E,A,V*5F
$GPGGA,080106,3000.00000,N,11959.95524,E,3,16,0.88,-7.85,M,7.85,M,,*6C
$GPRMC,080106,A,3000.00000,N,11959.95524,E,11.662,270.000,010720,0.000,E,A,V*54
$GPGGA,080107,3000.00000,N,11959.95143,E,3,16,0.88,-7.85,M,7.85,M,,*68
$GPRMC,080107,A,3000.00000,N,11959.95143,E,12.148,270.000,010720,0.000,E,A,V*5C
$GPGGA,080108,3000.00000,N,11959.94747,E,3,16,0.88,-7.85,M,7.85,M,,*64
$GPRMC,080108,A,3000.00000,N,11959.94747,E,12.634,270.000,010720,0.000,E,A,V*5C
$GPGGA,080109,3000.00000,N,11959.94335,E,3,16,0.88,-7.85,M,7.85,M,,*64
$GPRMC,080109,A,3000.00000,N,11959.94335,E,13.120,270.000,010720,0.000,E,A,V*5F
$GPGGA,080110,3000.00000,N,11959.93908,E,3,16,0.88,-7.85,M,7.85,M,,*6F
$GPRMC,080110,A,3000.00000,N,11959.93908,E,13.606,270.000,010720,0.000,E,A,V*57
$GPGGA,080111,3000.00000,N,11959.93465,E,3,16,0.88,-7.85,M,7.85,M,,*68
$GPRMC,080111,A,3000.00000,N,11959.93465,E,14.092,270.000,010720,0.000,E,A,V*5C
$GPGGA,080112,3000.00000,N,11959.93006,E,3,16,0.88,-7.85,M,7.85,M,,*6A
$GPRMC,080112,A,3000.00000,N,11959.93006,E,14.578,270.000,010720,0.000,E,A,V*5F
$GPGGA,080113,3000.00000,N,11959.92532,E,3,16,0.88,-7.85,M,7.85,M,,*68
$GPRMC,080113,A,3000.00000,N,11959.92532,E,15.064,270.000,010720,0.000,E,A,V*54
$GPGGA,080114,3000.00000,N,11959.92042,E,3,16,0.88,-7.85,M,7.85,M,,*6D
$GPRMC,080114,A,3000.00000,N,11959.92042,E,15.550,270.000,010720,0.000,E,A,V*53
$GPGGA,080115,3000.00000,N,11959.91537,E,3,16,0.88,-7.85,M,7.85,M,,*68
$GPRMC,080115,A,3000.00000,N,11959.91537,E,16.036,270.000,010720,0.000,E,A,V*50
$GPGGA,080116,3000.00000,N,11959.91016,E,3,16,0.88,-7.85,M,7.85,M,,*6D
$GPRMC,080116,A,3000.00000,N,11959.91016,E,16.522,270.000,010720,0.000,E,A,V*55
$GPGGA,080117,3000.00000,N,11959.90480,E,3,16,0.88,-7.85,M,7.85,M,,*66
$GPRMC,080117,A,3000.00000,N,11959.90480,E,17.008,270.000,010720,0.000,E,A,V*52
$GPGGA,080118,3000.00000,N,11959.89928,E,3,16,0.88,-7.85,M,7.85,M,,*6E
$GPRMC,080118,A,3000.00000,N,11959.89928,E,17.494,270.000,010720,0.000,E,A,V*5B
$GPGGA,080119,3000.00000,N,11959.89361,E,3,16,0.88,-7.85,M,7.85,M,,*68
$GPRMC,080119,A,3000.00000,N,11959.89361,E,17.980,270.000,010720,0.000,E,A,V*55
$GPGGA,080120,3000.00000,N,11959.88778,E,3,16,0.88,-7.85,M,7.85,M,,*6F
$GPRMC,080120,A,3000.00000,N,11959.88778,E,18.466,270.000,010720,0.000,E,A,V*58
$GPGGA,080121,3000.00000,N,11959.88179,E,3,16,0.88,-7.85,M,7.85,M,,*69
$GPRMC,080121,A,3000.00000,N,11959.88179,E,18.952,270.000,010720,0.000,E,A,V*54
$GPGGA,080122,3000.00000,N,11959.87565,E,3,16,0.88,-7.85,M,7.85,M,,*6C
$GPRMC,080122,A,3000.00000,N,11959.87565,E,19.438,270.000,010720,0.000,E,A,V*51
$GPGGA,080123,3000.00000,N,11959.86935,E,3,16,0.88,-7.85,M,7.85,M,,*65
$GPRMC,080123,A,3000.00000,N,11959.86935,E,19.924,270.000,010720,0.000,E,A,V*58
$GPGGA,080124,3000.00000,N,11959.86290,E,3,16,0.88,-7.85,M,7.85,M,,*66
$GPRMC,080124,A,3000.00000,N,11959.86290,E,20.410,270.000,010720,0.000,E,A,V*5B
$GPGGA,080125,3000.00000,N,11959.85630,E,3,16,0.88,-7.85,M,7.85,M,,*6A
$GPRMC,080125,A,3000.00000,N,11959.85630,E,20.896,270.000,010720,0.000,E,A,V*55
$GPGGA,080126,3000.00000,N,11959.84953,E,3,16,0.88,-7.85,M,7.85,M,,*62
$GPRMC,080126,A,3000.00000,N,11959.84953,E,21.382,270.000,010720,0.000,E,A,V*52
$GPGGA,080127,3000.00000,N,11959.84262,E,3,16,0.88,-7.85,M,7.85,M,,*6A
$GPRMC,080127,A,3000.00000,N,11959.84262,E,21.868,270.000,010720,0.000,E,A,V*55
$GPGGA,080128,3000.00000,N,11959.83554,E,3,16,0.88,-7.85,M,7.85,M,,*60
$GPRMC,080128,A,3000.00000,N,11959.83554,E,22.354,270.000,010720,0.000,E,A,V*58
$GPGGA,080129,3000.00000,N,11959.82831,E,3,16,0.88,-7.85,M,7.85,M,,*6E
$GPRMC,080129,A,3000.00000,N,11959.82831,E,22.840,270.000,010720,0.000,E,A,V*58
$GPGGA,080130,3000.00000,N,11959.82093,E,3,16,0.88,-7.85,M,7.85,M,,*66
$GPRMC,080130,A,3000.00000,N,11959.82093,E,23.326,270.000,010720,0.000,E,A,V*5A
$GPGGA,080131,3000.00000,N,11959.81339,E,3,16,0.88,-7.85,M,7.85,M,,*67
$GPRMC,080131,A,3000.00000,N,11959.81339,E,23.812,270.000,010720,0.000,E,A,V*57
$GPGGA,080132,3000.00000,N,11959.80569,E,3,16,0.88,-7.85,M,7.85,M,,*66
$GPRMC,080132,A,3000.00000,N,11959.80569,E,24.298,270.000,010720,0.000,E,A,V*59
$GPGGA,080133,3000.00000,N,11959.79784,E,3,16,0.88,-7.85,M,7.85,M,,*60
$GPRMC,080133,A,3000.00000,N,11959.79784,E,24.784,270.000,010720,0.000,E,A,V*57
$GPGGA,080134,3000.00000,N,11959.78984,E,3,16,0.88,-7.85,M,7.85,M,,*68
$GPRMC,080134,A,3000.00000,N,11959.78984,E,25.270,270.000,010720,0.000,E,A,V*50
$GPGGA,080135,3000.00000,N,11959.78168,E,3,16,0.88,-7.85,M,7.85,M,,*63
$GPRMC,080135,A,3000.00000,N,11959.78168,E,25.756,270.000,010720,0.000,E,A,V*5A
$GPGGA,080136,3000.00000,N,11959.77336,E,3,16,0.88,-7.85,M,7.85,M,,*66
$GPRMC,080136,A,3000.00000,N,11959.77336,E,26.242,270.000,010720,0.000,E,A,V*5C
$GPGGA,080137,3000.00000,N,11959.76489,E,3,16,0.88,-7.85,M,7.85,M,,*65
$GPRMC,080137,A,3000.00000,N,11959.76489,E,26.728,270.000,010720,0.000,E,A,V*56
$GPGGA,080138,3000.00000,N,11959.75626,E,3,16,0.88,-7.85,M,7.85,M,,*6E
$GPRMC,080138,A,3000.00000,N,11959.75626,E,27.214,270.000,010720,0.000,E,A,V*56
$GPGGA,080139,3000.00000,N,11959.74747,E,3,16,0.88,-7.85,M,7.85,M,,*68
$GPRMC,080139,A,3000.00000,N,11959.74747,E,27.700,270.000,010720,0.000,E,A,V*50
$GPGGA,080140,3000.00000,N,11959.73854,E,3,16,0.88,-7.85,M,7.85,M,,*6C
$GPRMC,080140,A,3000.00000,N,11959.73854,E,28.186,270.000,010720,0.000,E,A,V*53
$GPGGA,080141,3000.00000,N,11959.72944,E,3,16,0.88,-7.85,M,7.85,M,,*6C
$GPRMC,080141,A,3000.00000,N,11959.72944,E,28.672,270.000,010720,0.000,E,A,V*5F
$GPGGA,080142,3000.00000,N,11959.72019,E,3,16,0.88,-7.85,M,7.85,M,,*6E
$GPRMC,080142,A,3000.00000,N,11959.72019,E,29.158,270.000,010720,0.000,E,A,V*53
$GPGGA,080143,3000.00000,N,11959.71079,E,3,16,0.88,-7.85,M,7.85,M,,*6A
$GPRMC,080143,A,3000.00000,N,11959.71079,E,29.644,270.000,010720,0.000,E,A,V*5D
$GPGGA,080144,3000.00000,N,11959.70122,E,3,16,0.88,-7.85,M,7.85,M,,*63
$GPRMC,080144,A,3000.00000,N,11959.70122,E,30.130,270.000,010720,0.000,E,A,V*58
$GPGGA,080145,3000.00000,N,11959.69151,E,3,16,0.88,-7.85,M,7.85,M,,*6E
$GPRMC,080145,A,3000.00000,N,11959.69151,E,30.616,270.000,010720,0.000,E,A,V*56
$GPGGA,080146,3000.00000,N,11959.68164,E,3,16,0.88,-7.85,M,7.85,M,,*6A
$GPRMC,080146,A,3000.00000,N,11959.68164,E,31.102,270.000,010720,0.000,E,A,V*51
$GPGGA,080147,3000.00000,N,11959.67161,E,3,16,0.88,-7.85,M,7.85,M,,*61
$GPRMC,080147,A,3000.00000,N,11959.67161,E,31.588,270.000,010720,0.000,E,A,V*5C
$GPGGA,080148,3000.00000,N,11959.66143,E,3,16,0.88,-7.85,M,7.85,M,,*6F
$GPRMC,080148,A,3000.00000,N,11959.66143,E,32.074,270.000,010720,0.000,E,A,V*57
$GPGGA,080149,3000.00000,N,11959.65109,E,3,16,0.88,-7.85,M,7.85,M,,*63
$GPRMC,080149,A,3000.00000,N,11959.65109,E,32.560,270.000,010720,0.000,E,A,V*5B
$GPGGA,080150,3000.00000,N,11959.64059,E,3,16,0.88,-7.85,M,7.85,M,,*6E
$GPRMC,080150,A,3000.00000,N,11959.64059,E,33.046,270.000,010720,0.000,E,A,V*56
$GPGGA,080151,3000.00000,N,11959.62994,E,3,16,0.88,-7.85,M,7.85,M,,*61
$GPRMC,080151,A,3000.00000,N,11959.62994,E,33.532,270.000,010720,0.000,E,A,V*5F
$GPGGA,080152,3000.00000,N,11959.61914,E,3,16,0.88,-7.85,M,7.85,M,,*69
$GPRMC,080152,A,3000.00000,N,11959.61914,E,34.018,270.000,010720,0.000,E,A,V*5D
$GPGGA,080153,3000.00000,N,11959.60818,E,3,16,0.88,-7.85,M,7.85,M,,*64
$GPRMC,080153,A,3000.00000,N,11959.60818,E,34.504,270.000,010720,0.000,E,A,V*58
$GPGGA,080154,3000.00000,N,11959.59706,E,3,16,0.88,-7.85,M,7.85,M,,*69
$GPRMC,080154,A,3000.00000,N,11959.59706,E,34.990,270.000,010720,0.000,E,A,V*54
$GPGGA,080155,3000.00000,N,11959.58579,E,3,16,0.88,-7.85,M,7.85,M,,*63
$GPRMC,080155,A,3000.00000,N,11959.58579,E,35.476,270.000,010720,0.000,E,A,V*5A
$GPGGA,080156,3000.00000,N,11959.57437,E,3,16,0.88,-7.85,M,7.85,M,,*64
$GPRMC,080156,A,3000.00000,N,11959.57437,E,35.962,270.000,010720,0.000,E,A,V*55
$GPGGA,080157,3000.00000,N,11959.56278,E,3,16,0.88,-7.85,M,7.85,M,,*69
$GPRMC,080157,A,3000.00000,N,11959.56278,E,36.448,270.000,010720,0.000,E,A,V*5E
$GPGGA,080158,3000.00000,N,11959.55105,E,3,16,0.88,-7.85,M,7.85,M,,*6C
$GPRMC,080158,A,3000.00000,N,11959.55105,E,36.934,270.000,010720,0.000,E,A,V*5D
$GPGGA,080159,3000.00000,N,11959.53915,E,3,16,0.88,-7.85,M,7.85,M,,*62
$GPRMC,080159,A,3000.00000,N,11959.53915,E,37.420,270.000,010720,0.000,E,A,V*5A
$GPGGA,080200,3000.00000,N,11959.52710,E,3,16,0.88,-7.85,M,7.85,M,,*67
$GPRMC,080200,A,3000.00000,N,11959.52710,E,37.906,270.000,010720,0.000,E,A,V*56
$GPGGA,080201,3000.00000,N,11959.51490,E,3,16,0.88,-7.85,M,7.85,M,,*6E
$GPRMC,080201,A,3000.00000,N,11959.51490,E,38.392,270.000,010720,0.000,E,A,V*57
$GPGGA,080202,3000.00000,N,11959.50254,E,3,16,0.88,-7.85,M,7.85,M,,*62
$GPRMC,080202,A,3000.00000,N,11959.50254,E,38.878,270.000,010720,0.000,E,A,V*54
$GPGGA,080203,3000.00000,N,11959.49003,E,3,16,0.88,-7.85,M,7.85,M,,*6B
$GPRMC,080203,A,3000.00000,N,11959.49003,E,39.364,270.000,010720,0.000,E,A,V*5A
$GPGGA,080204,3000.00000,N,11959.47736,E,3,16,0.88,-7.85,M,7.85,M,,*63
$GPRMC,080204,A,3000.00000,N,11959.47736,E,39.850,270.000,010720,0.000,E,A,V*5E
$GPGGA,080205,3000.00000,N,11959.46453,E,3,16,0.88,-7.85,M,7.85,M,,*63
$GPRMC,080205,A,3000.00000,N,11959.46453,E,40.336,270.000,010720,0.000,E,A,V*5B
$GPGGA,080206,3000.00000,N,11959.45155,E,3,16,0.88,-7.85,M,7.85,M,,*60
$GPRMC,080206,A,3000.00000,N,11959.45155,E,40.822,270.000,010720,0.000,E,A,V*56
$GPGGA,080207,3000.00000,N,11959.43841,E,3,16,0.88,-7.85,M,7.85,M,,*6B
$GPRMC,080207,A,3000.00000,N,11959.43841,E,41.308,270.000,010720,0.000,E,A,V*5F
$GPGGA,080208,3000.00000,N,11959.42512,E,3,16,0.88,-7.85,M,7.85,M,,*6E
$GPRMC,080208,A,3000.00000,N,11959.42512,E,41.794,270.000,010720,0.000,E,A,V*5B
$GPGGA,080209,3000.00000,N,11959.41167,E,3,16,0.88,-7.85,M,7.85,M,,*6A
$GPRMC,080209,A,3000.00000,N,11959.41167,E,42.280,270.000,010720,0.000,E,A,V*5C
$GPGGA,080210,3000.00000,N,11959.39807,E,3,16,0.88,-7.85,M,7.85,M,,*62
$GPRMC,080210,A,3000.00000,N,11959.39807,E,42.766,270.000,010720,0.000,E,A,V*59
$GPGGA,080211,3000.00000,N,11959.38431,E,3,16,0.88,-7.85,M,7.85,M,,*6B
$GPRMC,080211,A,3000.00000,N,11959.38431,E,43.252,270.000,010720,0.000,E,A,V*53
$GPGGA,080212,3000.00000,N,11959.37039,E,3,16,0.88,-7.85,M,7.85,M,,*6B
$GPRMC,080212,A,3000.00000,N,11959.37039,E,43.738,270.000,010720,0.000,E,A,V*5A
$GPGGA,080213,3000.00000,N,11959.35632,E,3,16,0.88,-7.85,M,7.85,M,,*65
$GPRMC,080213,A,3000.00000,N,11959.35632,E,44.224,270.000,010720,0.000,E,A,V*5B
$GPGGA,080214,3000.00000,N,11959.34210,E,3,16,0.88,-7.85,M,7.85,M,,*67
$GPRMC,080214,A,3000.00000,N,11959.34210,E,44.710,270.000,010720,0.000,E,A,V*5B
$GPGGA,080215,3000.00000,N,11959.32772,E,3,16,0.88,-7.85,M,7.85,M,,*61
$GPRMC,080215,A,3000.00000,N,11959.32772,E,45.196,270.000,010720,0.000,E,A,V*54
$GPGGA,080216,3000.00000,N,11959.31318,E,3,16,0.88,-7.85,M,7.85,M,,*69
$GPRMC,080216,A,3000.00000,N,11959.31318,E,45.682,270.000,010720,0.000,E,A,V*5E
$GPGGA,080217,3000.00000,N,11959.29849,E,3,16,0.88,-7.85,M,7.85,M,,*6E
$GPRMC,080217,A,3000.00000,N,11959.29849,E,46.168,270.000,010720,0.000,E,A,V*59
$GPGGA,080218,3000.00000,N,11959.28364,E,3,16,0.88,-7.85,M,7.85,M,,*64
$GPRMC,080218,A,3000.00000,N,11959.28364,E,46.654,270.000,010720,0.000,E,A,V*5B
$GPGGA,080219,3000.00000,N,11959.26864,E,3,16,0.88,-7.85,M,7.85,M,,*60
$GPRMC,080219,A,3000.00000,N,11959.26864,E,47.140,270.000,010720,0.000,E,A,V*5C
$GPGGA,080220,3000.00000,N,11959.25348,E,3,16,0.88,-7.85,M,7.85,M,,*6C
$GPRMC,080220,A,3000.00000,N,11959.25348,E,47.626,270.000,010720,0.000,E,A,V*57
$GPGGA,080221,3000.00000,N,11959.23817,E,3,16,0.88,-7.85,M,7.85,M,,*6A
$GPRMC,080221,A,3000.00000,N,11959.23817,E,48.112,270.000,010720,0.000,E,A,V*5E
$GPGGA,080222,3000.00000,N,11959.22270,E,3,16,0.88,-7.85,M,7.85,M,,*63
$GPRMC,080222,A,3000.00000,N,11959.22270,E,48.598,270.000,010720,0.000,E,A,V*51
$GPGGA,080223,3000.00000,N,11959.20708,E,3,16,0.88,-7.85,M,7.85,M,,*6A
$GPRMC,080223,A,3000.00000,N,11959.20708,E,49.084,270.000,010720,0.000,E,A,V*51
$GPGGA,080224,3000.00000,N,11959.19130,E,3,16,0.88,-7.85,M,7.85,M,,*6A
$GPRMC,080224,A,3000.00000,N,11959.19130,E,49.570,270.000,010720,0.000,E,A,V*5F
$GPGGA,080225,3000.00000,N,11959.17536,E,3,16,0.88,-7.85,M,7.85,M,,*67
$GPRMC,080225,A,3000.00000,N,11959.17536,E,50.056,270.000,010720,0.000,E,A,V*5B
$GPGGA,080226,3000.00000,N,11959.15927,E,3,16,0.88,-7.85,M,7.85,M,,*6A
$GPRMC,080226,A,3000.00000,N,11959.15927,E,50.542,270.000,010720,0.000,E,A,V*56
$GPGGA,080227,3000.00000,N,11959.14302,E,3,16,0.88,-7.85,M,7.85,M,,*67
$GPRMC,080227,A,3000.00000,N,11959.14302,E,51.028,270.000,010720,0.000,E,A,V*53
$GPGGA,080228,3000.00000,N,11959.12662,E,3,16,0.88,-7.85,M,7.85,M,,*6D
$GPRMC,080228,A,3000.00000,N,11959.12662,E,51.514,270.000,010720,0.000,E,A,V*53
$GPGGA,080229,3000.00000,N,11959.11006,E,3,16,0.88,-7.85,M,7.85,M,,*6B
$GPRMC,080229,A,3000.00000,N,11959.11006,E,52.000,270.000,010720,0.000,E,A,V*56
$GPGGA,080230,3000.00000,N,11959.09335,E,3,16,0.88,-7.85,M,7.85,M,,*69
$GPRMC,080230,A,3000.00000,N,11959.09335,E,52.486,270.000,010720,0.000,E,A,V*5E
$GPGGA,080231,3000.00000,N,11959.07648,E,3,16,0.88,-7.85,M,7.85,M,,*69
$GPRMC,080231,A,3000.00000,N,11959.07648,E,52.972,270.000,010720,0.000,E,A,V*58
$GPGGA,080232,3000.00000,N,11959.05946,E,3,16,0.88,-7.85,M,7.85,M,,*69
$GPRMC,080232,A,3000.00000,N,11959.05946,E,53.458,270.000,010720,0.000,E,A,V*5C
$GPGGA,080233,3000.00000,N,11959.04228,E,3,16,0.88,-7.85,M,7.85,M,,*6A
$GPRMC,080233,A,3000.00000,N,11959.04228,E,53.944,270.000,010720,0.000,E,A,V*5F
$GPGGA,080234,3000.00000,N,11959.02494,E,3,16,0.88,-7.85,M,7.85,M,,*6A
$GPRMC,080234,A,3000.00000,N,11959.02494,E,54.430,270.000,010720,0.000,E,A,V*56
$GPGGA,080235,3000.00000,N,11959.00745,E,3,16,0.88,-7.85,M,7.85,M,,*66
$GPRMC,080235,A,3000.00000,N,11959.00745,E,54.916,270.000,010720,0.000,E,A,V*53
$GPGGA,080236,3000.00000,N,11958.98981,E,3,16,0.88,-7.85,M,7.85,M,,*63
$GPRMC,080236,A,3000.00000,N,11958.98981,E,55.402,270.000,010720,0.000,E,A,V*5F
$GPGGA,080237,3000.00000,N,11958.97201,E,3,16,0.88,-7.85,M,7.85,M,,*6E
$GPRMC,080237,A,3000.00000,N,11958.97201,E,55.888,270.000,010720,0.000,E,A,V*5C
$GPGGA,080238,3000.00000,N,11958.95405,E,3,16,0.88,-7.85,M,7.85,M,,*61
$GPRMC,080238,A,3000.00000,N,11958.95405,E,56.374,270.000,010720,0.000,E,A,V*58
$GPGGA,080239,3000.00000,N,11958.93594,E,3,16,0.88,-7.85,M,7.85,M,,*6F
$GPRMC,080239,A,3000.00000,N,11958.93594,E,56.860,270.000,010720,0.000,E,A,V*58
$GPGGA,080240,3000.00000,N,11958.91767,E,3,16,0.88,-7.85,M,7.85,M,,*6D
$GPRMC,080240,A,3000.00000,N,11958.91767,E,57.346,270.000,010720,0.000,E,A,V*54
$GPGGA,080241,3000.00000,N,11958.89925,E,3,16,0.88,-7.85,M,7.85,M,,*6D
$GPRMC,080241,A,3000.00000,N,11958.89925,E,57.832,270.000,010720,0.000,E,A,V*5C
$GPGGA,080242,3000.00000,N,11958.88067,E,3,16,0.88,-7.85,M,7.85,M,,*60
$GPRMC,080242,A,3000.00000,N,11958.88067,E,58.315,270.000,010720,0.000,E,A,V*50
$GPGGA,080243,3000.00000,N,11958.86201,E,3,16,0.88,-7.85,M,7.85,M,,*6D
$GPRMC,080243,A,3000.00000,N,11958.86201,E,58.315,270.000,010720,0.000,E,A,V*5D
$GPGGA,080244,3000.00000,N,11958.84336,E,3,16,0.88,-7.85,M,7.85,M,,*6D
$GPRMC,080244,A,3000.00000,N,11958.84336,E,58.315,270.000,010720,0.000,E,A,V*5D
$GPGGA,080245,3000.00000,N,11958.82470,E,3,16,0.88,-7.85,M,7.85,M,,*6F
$GPRMC,080245,A,3000.00000,N,11958.82470,E,58.315,270.000,010720,0.000,E,A,V*5F
$GPGGA,080246,3000.00000,N,11958.80605,E,3,16,0.88,-7.85,M,7.85,M,,*6E
$GPRMC,080246,A,3000.00000,N,11958.80605,E,58.315,270.000,010720,0.000,E,A,V*5E
$GPGGA,080247,3000.00000,N,11958.78739,E,3,16,0.88,-7.85,M,7.85,M,,*66
$GPRMC,080247,A,3000.00000,N,11958.78739,E,58.315,270.000,010720,0.000,E,A,V*56
$GPGGA,080248,3000.00000,N,11958.76874,E,3,16,0.88,-7.85,M,7.85,M,,*61
$GPRMC,080248,A,3000.00000,N,11958.76874,E,58.315,270.000,010720,0.000,E,A,V*51
$GPGGA,080249,3000.00000,N,11958.75008,E,3,16,0.88,-7.85,M,7.85,M,,*60
$GPRMC,080249,A,3000.00000,N,11958.75008,E,58.315,270.000,010720,0.000,E,A,V*50
$GPGGA,080250,3000.00000,N,11958.73143,E,3,16,0.88,-7.85,M,7.85,M,,*60
$GPRMC,080250,A,3000.00000,N,11958.73143,E,58.315,270.000,010720,0.000,E,A,V*50
$GPGGA,080251,3000.00000,N,11958.71277,E,3,16,0.88,-7.85,M,7.85,M,,*67
$GPRMC,080251,A,3000.00000,N,11958.71277,E,58.315,270.000,010720,0.000,E,A,V*57
$GPGGA,080252,3000.00000,N,11958.69411,E,3,16,0.88,-7.85,M,7.85,M,,*6B
$GPRMC,080252,A,3000.00000,N,11958.69411,E,58.315,270.000,010720,0.000,E,A,V*5B
$GPGGA,080253,3000.00000,N,11958.67546,E,3,16,0.88,-7.85,M,7.85,M,,*67
$GPRMC,080253,A,3000.00000,N,11958.67546,E,58.315,270.000,010720,0.000,E,A,V*57
$GPGGA,080254,3000.00000,N,11958.65680,E,3,16,0.88,-7.85,M,7.85,M,,*6B
$GPRMC,080254,A,3000.00000,N,11958.65680,E,58.315,270.000,010720,0.000,E,A,V*5B
$GPGGA,080255,3000.00000,N,11958.63815,E,3,16,0.88,-7.85,M,7.85,M,,*6E
$GPRMC,080255,A,3000.00000,N,11958.63815,E,58.315,270.000,010720,0.000,E,A,V*5E
$GPGGA,080256,3000.00000,N,11958.61949,E,3,16,0.88,-7.85,M,7.85,M,,*67
$GPRMC,080256,A,3000.00000,N,11958.61949,E,58.315,270.000,010720,0.000,E,A,V*57
$GPGGA,080257,3000.00000,N,11958.60084,E,3,16,0.88,-7.85,M,7.85,M,,*6F
$GPRMC,080257,A,3000.00000,N,11958.60084,E,58.315,270.000,010720,0.000,E,A,V*5F
$GPGGA,080258,3000.00000,N,11958.58218,E,3,16,0.88,-7.85,M,7.85,M,,*6C
$GPRMC,080258,A,3000.00000,N,11958.58218,E,58.315,270.000,010720,0.000,E,A,V*5C
$GPGGA,080259,3000.00000,N,11958.56353,E,3,16,0.88,-7.85,M,7.85,M,,*6D
$GPRMC,080259,A,3000.00000,N,11958.56353,E,58.315,270.000,010720,0.000,E,A,V*5D
$GPGGA,080300,3000.00000,N,11958.54487,E,3,16,0.88,-7.85,M,7.85,M,,*6C
$GPRMC,080300,A,3000.00000,N,11958.54487,E,58.315,270.000,010720,0.000,E,A,V*5C
$GPGGA,080301,3000.00000,N,11958.52622,E,3,16,0.88,-7.85,M,7.85,M,,*66
$GPRMC,080301,A,3000.00000,N,11958.52622,E,58.315,270.000,010720,0.000,E,A,V*56
$GPGGA,080302,3000.00000,N,11958.50756,E,3,16,0.88,-7.85,M,7.85,M,,*65
$GPRMC,080302,A,3000.00000,N,11958.50756,E,58.315,270.000,010720,0.000,E,A,V*55
$GPGGA,080303,3000.00000,N,11958.48890,E,3,16,0.88,-7.85,M,7.85,M,,*68
$GPRMC,080303,A,3000.00000,N,11958.48890,E,58.315,270.000,010720,0.000,E,A,V*58
$GPGGA,080304,3000.00000,N,11958.47025,E,3,16,0.88,-7.85,M,7.85,M,,*66
$GPRMC,080304,A,3000.00000,N,11958.47025,E,58.315,270.000,010720,0.000,E,A,V*56
$GPGGA,080305,3000.00000,N,11958.45159,E,3,16,0.88,-7.85,M,7.85,M,,*6F
$GPRMC,080305,A,3000.00000,N,11958.45159,E,58.315,270.000,010720,0.000,E,A,V*5F
$GPGGA,080306,3000.00000,N,11958.43294,E,3,16,0.88,-7.85,M,7.85,M,,*68
$GPRMC,080306,A,3000.00000,N,11958.43294,E,58.315,270.000,010720,0.000,E,A,V*58
$GPGGA,080307,3000.00000,N,11958.41428,E,3,16,0.88,-7.85,M,7.85,M,,*6A
$GPRMC,080307,A,3000.00000,N,11958.41428,E,58.315,270.000,010720,0.000,E,A,V*5A
$GPGGA,080308,3000.00000,N,11958.39563,E,3,16,0.88,-7.85,M,7.85,M,,*64
$GPRMC,080308,A,3000.00000,N,11958.39563,E,58.315,270.000,010720,0.000,E,A,V*54
$GPGGA,080309,3000.00000,N,11958.37697,E,3,16,0.88,-7.85,M,7.85,M,,*63
$GPRMC,080309,A,3000.00000,N,11958.37697,E,58.315,270.000,010720,0.000,E,A,V*53
$GPGGA,080310,3000.00000,N,11958.35832,E,3,16,0.88,-7.85,M,7.85,M,,*68
$GPRMC,080310,A,3000.00000,N,11958.35832,E,58.315,270.000,010720,0.000,E,A,V*58
$GPGGA,080311,3000.00000,N,11958.33966,E,3,16,0.88,-7.85,M,7.85,M,,*6F
$GPRMC,080311,A,3000.00000,N,11958.33966,E,58.315,270.000,010720,0.000,E,A,V*5F
$GPGGA,080312,3000.00000,N,11958.32100,E,3,16,0.88,-7.85,M,7.85,M,,*65
$GPRMC,080312,A,3000.00000,N,11958.32100,E,58.315,270.000,010720,0.000,E,A,V*55
$GPGGA,080313,3000.00000,N,11958.30235,E,3,16,0.88,-7.85,M,7.85,M,,*63
$GPRMC,080313,A,3000.00000,N,11958.30235,E,58.315,270.000,010720,0.000,E,A,V*53
$GPGGA,080314,3000.00000,N,11958.28369,E,3,16,0.88,-7.85,M,7.85,M,,*65
$GPRMC,080314,A,3000.00000,N,11958.28369,E,58.315,270.000,010720,0.000,E,A,V*55
$GPGGA,080315,3000.00000,N,11958.26504,E,3,16,0.88,-7.85,M,7.85,M,,*67
$GPRMC,080315,A,3000.00000,N,11958.26504,E,58.315,270.000,010720,0.000,E,A,V*57
$GPGGA,080316,3000.00000,N,11958.24638,E,3,16,0.88,-7.85,M,7.85,M,,*6A
$GPRMC,080316,A,3000.00000,N,11958.24638,E,58.315,270.000,010720,0.000,E,A,V*5A
$GPGGA,080317,3000.00000,N,11958.22773,E,3,16,0.88,-7.85,M,7.85,M,,*63
$GPRMC,080317,A,3000.00000,N,11958.22773,E,58.315,270.000,010720,0.000,E,A,V*53
$GPGGA,080318,3000.00000,N,11958.20907,E,3,16,0.88,-7.85,M,7.85,M,,*63
$GPRMC,080318,A,3000.00000,N,11958.20907,E,58.315,270.000,010720,0.000,E,A,V*53
$GPGGA,080319,3000.00000,N,11958.19042,E,3,16,0.88,-7.85,M,7.85,M,,*60
$GPRMC,080319,A,3000.00000,N,11958.19042,E,58.315,270.000,010720,0.000,E,A,V*50
$GPGGA,080320,3000.00000,N,11958.17176,E,3,16,0.88,-7.85,M,7.85,M,,*62
$GPRMC,080320,A,3000.00000,N,11958.17176,E,58.315,270.000,010720,0.000,E,A,V*52
$GPGGA,080321,3000.00000,N,11958.15311,E,3,16,0.88,-7.85,M,7.85,M,,*62
$GPRMC,080321,A,3000.00000,N,11958.15311,E,58.315,270.000,010720,0.000,E,A,V*52
$GPGGA,080322,3000.00000,N,11958.13445,E,3,16,0.88,-7.85,M,7.85,M,,*61
$GPRMC,080322,A,3000.00000,N,11958.13445,E,58.315,270.000,010720,0.000,E,A,V*51
$GPGGA,080323,3000.00000,N,11958.11579,E,3,16,0.88,-7.85,M,7.85,M,,*6C
$GPRMC,080323,A,3000.00000,N,11958.11579,E,58.315,270.000,010720,0.000,E,A,V*5C
$GPGGA,080324,3000.00000,N,11958.09714,E,3,16,0.88,-7.85,M,7.85,M,,*6B
$GPRMC,080324,A,3000.00000,N,11958.09714,E,58.315,270.000,010720,0.000,E,A,V*5B
$GPGGA,080325,3000.00000,N,11958.07848,E,3,16,0.88,-7.85,M,7.85,M,,*62
$GPRMC,080325,A,3000.00000,N,11958.07848,E,58.315,270.000,010720,0.000,E,A,V*52
$GPGGA,080326,3000.00000,N,11958.05983,E,3,16,0.88,-7.85,M,7.85,M,,*65
$GPRMC,080326,A,3000.00000,N,11958.05983,E,58.315,270.000,010720,0.000,E,A,V*55
$GPGGA,080327,3000.00000,N,11958.04117,E,3,16,0.88,-7.85,M,7.85,M,,*60
$GPRMC,080327,A,3000.00000,N,11958.04117,E,58.315,270.000,010720,0.000,E,A,V*50
$GPGGA,080328,3000.00000,N,11958.02252,E,3,16,0.88,-7.84,M,7.84,M,,*6B
$GPRMC,080328,A,3000.00000,N,11958.02252,E,58.315,270.000,010720,0.000,E,A,V*5B
$GPGGA,080329,3000.00000,N,11958.00386,E,3,16,0.88,-7.84,M,7.84,M,,*60
$GPRMC,080329,A,3000.00000,N,11958.00386,E,58.315,270.000,010720,0.000,E,A,V*50
$GPGGA,080330,3000.00000,N,11957.98521,E,3,16,0.88,-7.84,M,7.84,M,,*6D
$GPRMC,080330,A,3000.00000,N,11957.98521,E,58.315,270.000,010720,0.000,E,A,V*5D
$GPGGA,080331,3000.00000,N,11957.96655,E,3,16,0.88,-7.84,M,7.84,M,,*62
$GPRMC,080331,A,3000.00000,N,11957.96655,E,58.315,270.000,010720,0.000,E,A,V*52
$GPGGA,080332,3000.00000,N,11957.94789,E,3,16,0.88,-7.84,M,7.84,M,,*63
$GPRMC,080332,A,3000.00000,N,11957.94789,E,58.315,270.000,010720,0.000,E,A,V*53
$GPGGA,080333,3000.00000,N,11957.92924,E,3,16,0.88,-7.84,M,7.84,M,,*6D
$GPRMC,080333,A,3000.00000,N,11957.92924,E,58.315,270.000,010720,0.000,E,A,V*5D
$GPGGA,080334,3000.00000,N,11957.91058,E,3,16,0.88,-7.84,M,7.84,M,,*6B
$GPRMC,080334,A,3000.00000,N,11957.91058,E,58.315,270.000,010720,0.000,E,A,V*5B
$GPGGA,080335,3000.00000,N,11957.89193,E,3,16,0.88,-7.84,M,7.84,M,,*65
$GPRMC,080335,A,3000.00000,N,11957.89193,E,58.315,270.000,010720,0.000,E,A,V*55
$GPGGA,080336,3000.00000,N,11957.87327,E,3,16,0.88,-7.84,M,7.84,M,,*65
$GPRMC,080336,A,3000.00000,N,11957.87327,E,58.315,270.000,010720,0.000,E,A,V*55
$GPGGA,080337,3000.00000,N,11957.85462,E,3,16,0.88,-7.84,M,7.84,M,,*60
$GPRMC,080337,A,3000.00000,N,11957.85462,E,58.315,270.000,010720,0.000,E,A,V*50
$GPGGA,080338,3000.00000,N,11957.83596,E,3,16,0.88,-7.84,M,7.84,M,,*63
$GPRMC,080338,A,3000.00000,N,11957.83596,E,58.315,270.000,010720,0.000,E,A,V*53
$GPGGA,080339,3000.00000,N,11957.81731,E,3,16,0.88,-7.84,M,7.84,M,,*6F
$GPRMC,080339,A,3000.00000,N,11957.81731,E,58.315,270.000,010720,0.000,E,A,V*5F
$GPGGA,080340,3000.00000,N,11957.79865,E,3,16,0.88,-7.84,M,7.84,M,,*68
$GPRMC,080340,A,3000.00000,N,11957.79865,E,58.315,270.000,010720,0.000,E,A,V*58
$GPGGA,080341,3000.00000,N,11957.78000,E,3,16,0.88,-7.84,M,7.84,M,,*63
$GPRMC,080341,A,3000.00000,N,11957.78000,E,58.315,270.000,010720,0.000,E,A,V*53
$GPGGA,080342,3000.00000,N,11957.76134,E,3,16,0.88,-7.84,M,7.84,M,,*68
$GPRMC,080342,A,3000.00000,N,11957.76134,E,58.315,270.000,010720,0.000,E,A,V*58
$GPGGA,080343,3000.00000,N,11957.74268,E,3,16,0.88,-7.84,M,7.84,M,,*61
$GPRMC,080343,A,3000.00000,N,11957.74268,E,58.315,270.000,010720,0.000,E,A,V*51
$GPGGA,080344,3000.00000,N,11957.72403,E,3,16,0.88,-7.84,M,7.84,M,,*6B
$GPRMC,080344,A,3000.00000,N,11957.72403,E,58.315,270.000,010720,0.000,E,A,V*5B
$GPGGA,080345,3000.00000,N,11957.70537,E,3,16,0.88,-7.84,M,7.84,M,,*6E
$GPRMC,080345,A,3000.00000,N,11957.70537,E,58.315,270.000,010720,0.000,E,A,V*5E
$GPGGA,080346,3000.00000,N,11957.68672,E,3,16,0.88,-7.84,M,7.84,M,,*66
$GPRMC,080346,A,3000.00000,N,11957.68672,E,58.315,270.000,010720,0.000,E,A,V*56
$GPGGA,080347,3000.00000,N,11957.66806,E,3,16,0.88,-7.84,M,7.84,M,,*64
$GPRMC,080347,A,3000.00000,N,11957.66806,E,58.315,270.000,010720,0.000,E,A,V*54
$GPGGA,080348,3000.00000,N,11957.64941,E,3,16,0.88,-7.84,M,7.84,M,,*6B
$GPRMC,080348,A,3000.00000,N,11957.64941,E,58.315,270.000,010720,0.000,E,A,V*5B
$GPGGA,080349,3000.00000,N,11957.63075,E,3,16,0.88,-7.84,M,7.84,M,,*63
$GPRMC,080349,A,3000.00000,N,11957.63075,E,58.315,270.000,010720,0.000,E,A,V*53
$GPGGA,080350,3000.00000,N,11957.61210,E,3,16,0.88,-7.84,M,7.84,M,,*68
$GPRMC,080350,A,3000.00000,N,11957.61210,E,58.315,270.000,010720,0.000,E,A,V*58
$GPGGA,080351,3000.00000,N,11957.59344,E,3,16,0.88,-7.84,M,7.84,M,,*62
$GPRMC,080351,A,3000.00000,N,11957.59344,E,58.315,270.000,010720,0.000,E,A,V*52
$GPGGA,080352,3000.00000,N,11957.57478,E,3,16,0.88,-7.84,M,7.84,M,,*67
$GPRMC,080352,A,3000.00000,N,11957.57478,E,58.315,270.000,010720,0.000,E,A,V*57
$GPGGA,080353,3000.00000,N,11957.55613,E,3,16,0.88,-7.84,M,7.84,M,,*6B
$GPRMC,080353,A,3000.00000,N,11957.55613,E,58.315,270.000,010720,0.000,E,A,V*5B
$GPGGA,080354,3000.00000,N,11957.53747,E,3,16,0.88,-7.84,M,7.84,M,,*6A
$GPRMC,080354,A,3000.00000,N,11957.53747,E,58.315,270.000,010720,0.000,E,A,V*5A
$GPGGA,080355,3000.00000,N,11957.51882,E,3,16,0.88,-7.84,M,7.84,M,,*6F
$GPRMC,080355,A,3000.00000,N,11957.51882,E,58.315,270.000,010720,0.000,E,A,V*5F
$GPGGA,080356,3000.00000,N,11957.50016,E,3,16,0.88,-7.84,M,7.84,M,,*68
$GPRMC,080356,A,3000.00000,N,11957.50016,E,58.315,270.000,010720,0.000,E,A,V*58
$GPGGA,080357,3000.00000,N,11957.48151,E,3,16,0.88,-7.84,M,7.84,M,,*62
$GPRMC,080357,A,3000.00000,N,11957.48151,E,58.315,270.000,010720,0.000,E,A,V*52
$GPGGA,080358,3000.00000,N,11957.46285,E,3,16,0.88,-7.84,M,7.84,M,,*69
$GPRMC,080358,A,3000.00000,N,11957.46285,E,58.315,270.000,010720,0.000,E,A,V*59
$GPGGA,080359,3000.00000,N,11957.44420,E,3,16,0.88,-7.84,M,7.84,M,,*63
$GPRMC,080359,A,3000.00000,N,11957.44420,E,58.315,270.000,010720,0.000,E,A,V*53
$GPGGA,080400,3000.00000,N,11957.42554,E,3,16,0.88,-7.84,M,7.84,M,,*6C
$GPRMC,080400,A,3000.00000,N,11957.42554,E,58.315,270.000,010720,0.000,E,A,V*5C
$GPGGA,080401,3000.00000,N,11957.40689,E,3,16,0.88,-7.84,M,7.84,M,,*6C
$GPRMC,080401,A,3000.00000,N,11957.40689,E,58.315,270.000,010720,0.000,E,A,V*5C
$GPGGA,080402,3000.00000,N,11957.38823,E,3,16,0.88,-7.84,M,7.84,M,,*6E
$GPRMC,080402,A,3000.00000,N,11957.38823,E,58.315,270.000,010720,0.000,E,A,V*5E
$GPGGA,080403,3000.00000,N,11957.36957,E,3,16,0.88,-7.84,M,7.84,M,,*63
$GPRMC,080403,A,3000.00000,N,11957.36957,E,58.315,270.000,010720,0.000,E,A,V*53
$GPGGA,080404,3000.00000,N,11957.35092,E,3,16,0.88,-7.84,M,7.84,M,,*67
$GPRMC,080404,A,3000.00000,N,11957.35092,E,58.315,270.000,010720,0.000,E,A,V*57
$GPGGA,080405,3000.00000,N,11957.33226,E,3,16,0.88,-7.84,M,7.84,M,,*6D
$GPRMC,080405,A,3000.00000,N,11957.33226,E,58.315,270.000,010720,0.000,E,A,V*5D
$GPGGA,080406,3000.00000,N,11957.31361,E,3,16,0.88,-7.84,M,7.84,M,,*6E
$GPRMC,080406,A,3000.00000,N,11957.31361,E,58.315,270.000,010720,0.000,E,A,V*5E
$GPGGA,080407,3000.00000,N,11957.29495,E,3,16,0.88,-7.84,M,7.84,M,,*6A
$GPRMC,080407,A,3000.00000,N,11957.29495,E,58.315,270.000,010720,0.000,E,A,V*5A
$GPGGA,080408,3000.00000,N,11957.27630,E,3,16,0.88,-7.84,M,7.84,M,,*66
$GPRMC,080408,A,3000.00000,N,11957.27630,E,58.315,270.000,010720,0.000,E,A,V*56
$GPGGA,080409,3000.00000,N,11957.25764,E,3,16,0.88,-7.84,M,7.84,M,,*65
$GPRMC,080409,A,3000.00000,N,11957.25764,E,58.315,270.000,010720,0.000,E,A,V*55
$GPGGA,080410,3000.00000,N,11957.23899,E,3,16,0.88,-7.84,M,7.84,M,,*66
$GPRMC,080410,A,3000.00000,N,11957.23899,E,58.315,270.000,010720,0.000,E,A,V*56
$GPGGA,080411,3000.00000,N,11957.22033,E,3,16,0.88,-7.84,M,7.84,M,,*6E
$GPRMC,080411,A,3000.00000,N,11957.22033,E,58.315,270.000,010720,0.000,E,A,V*5E
$GPGGA,080412,3000.00000,N,11957.20167,E,3,16,0.88,-7.83,M,7.83,M,,*6F
$GPRMC,080412,A,3000.00000,N,11957.20167,E,58.315,270.000,010720,0.000,E,A,V*5F
$GPGGA,080413,3000.00000,N,11957.18302,E,3,16,0.88,-7.83,M,7.83,M,,*64
$GPRMC,080413,A,3000.00000,N,11957.18302,E,58.315,270.000,010720,0.000,E,A,V*54
$GPGGA,080414,3000.00000,N,11957.16436,E,3,16,0.88,-7.83,M,7.83,M,,*6D
$GPRMC,080414,A,3000.00000,N,11957.16436,E,58.315,270.000,010720,0.000,E,A,V*5D
$GPGGA,080415,3000.00000,N,11957.14571,E,3,16,0.88,-7.83,M,7.83,M,,*6C
$GPRMC,080415,A,3000.00000,N,11957.14571,E,58.315,270.000,010720,0.000,E,A,V*5C
$GPGGA,080416,3000.00000,N,11957.12705,E,3,16,0.88,-7.83,M,7.83,M,,*68
$GPRMC,080416,A,3000.00000,N,11957.12705,E,58.315,270.000,010720,0.000,E,A,V*58
$GPGGA,080417,3000.00000,N,11957.10840,E,3,16,0.88,-7.83,M,7.83,M,,*65
$GPRMC,080417,A,3000.00000,N,11957.10840,E,58.315,270.000,010720,0.000,E,A,V*55
$GPGGA,080418,3000.00000,N,11957.08974,E,3,16,0.88,-7.83,M,7.83,M,,*65
$GPRMC,080418,A,3000.00000,N,11957.08974,E,58.315,270.000,010720,0.000,E,A,V*55
$GPGGA,080419,3000.00000,N,11957.07109,E,3,16,0.88,-7.83,M,7.83,M,,*69
$GPRMC,080419,A,3000.00000,N,11957.07109,E,58.315,270.000,010720,0.000,E,A,V*59
$GPGGA,080420,3000.00000,N,11957.05243,E,3,16,0.88,-7.83,M,7.83,M,,*6C
$GPRMC,080420,A,3000.00000,N,11957.05243,E,58.315,270.000,010720,0.000,E,A,V*5C
$GPGGA,080421,3000.00000,N,11957.03378,E,3,16,0.88,-7.83,M,7.83,M,,*62
$GPRMC,080421,A,3000.00000,N,11957.03378,E,58.315,270.000,010720,0.000,E,A,V*52
$GPGGA,080422,3000.00000,N,11957.01512,E,3,16,0.88,-7.83,M,7.83,M,,*69
$GPRMC,080422,A,3000.00000,N,11957.01512,E,58.315,270.000,010720,0.000,E,A,V*59
$GPGGA,080423,3000.00000,N,11956.99646,E,3,16,0.88,-7.83,M,7.83,M,,*6A
$GPRMC,080423,A,3000.00000,N,11956.99646,E,58.315,270.000,010720,0.000,E,A,V*5A
$GPGGA,080424,3000.00000,N,11956.97781,E,3,16,0.88,-7.83,M,7.83,M,,*69
$GPRMC,080424,A,3000.00000,N,11956.97781,E,58.315,270.000,010720,0.000,E,A,V*59
$GPGGA,080425,3000.00000,N,11956.95915,E,3,16,0.88,-7.83,M,7.83,M,,*69
$GPRMC,080425,A,3000.00000,N,11956.95915,E,58.315,270.000,010720,0.000,E,A,V*59
$GPGGA,080426,3000.00000,N,11956.94050,E,3,16,0.88,-7.83,M,7.83,M,,*63
$GPRMC,080426,A,3000.00000,N,11956.94050,E,58.315,270.000,010720,0.000,E,A,V*53
$GPGGA,080427,3000.00000,N,11956.92184,E,3,16,0.88,-7.83,M,7.83,M,,*6C
$GPRMC,080427,A,3000.00000,N,11956.92184,E,58.315,270.000,010720,0.000,E,A,V*5C
$GPGGA,080428,3000.00000,N,11956.90319,E,3,16,0.88,-7.83,M,7.83,M,,*67
$GPRMC,080428,A,3000.00000,N,11956.90319,E,58.315,270.000,010720,0.000,E,A,V*57
$GPGGA,080429,3000.00000,N,11956.88453,E,3,16,0.88,-7.83,M,7.83,M,,*66
$GPRMC,080429,A,3000.00000,N,11956.88453,E,58.315,270.000,010720,0.000,E,A,V*56
$GPGGA,080430,3000.00000,N,11956.86588,E,3,16,0.88,-7.83,M,7.83,M,,*67
$GPRMC,080430,A,3000.00000,N,11956.86588,E,58.315,270.000,010720,0.000,E,A,V*57
$GPGGA,080431,3000.00000,N,11956.84722,E,3,16,0.88,-7.83,M,7.83,M,,*66
$GPRMC,080431,A,3000.00000,N,11956.84722,E,58.315,270.000,010720,0.000,E,A,V*56
$GPGGA,080432,3000.00000,N,11956.82856,E,3,16,0.88,-7.83,M,7.83,M,,*6F
$GPRMC,080432,A,3000.00000,N,11956.82856,E,58.315,270.000,010720,0.000,E,A,V*5F
$GPGGA,080433,3000.00000,N,11956.80991,E,3,16,0.88,-7.83,M,7.83,M,,*66
$GPRMC,080433,A,3000.00000,N,11956.80991,E,58.315,270.000,010720,0.000,E,A,V*56
$GPGGA,080434,3000.00000,N,11956.79125,E,3,16,0.88,-7.83,M,7.83,M,,*60
$GPRMC,080434,A,3000.00000,N,11956.79125,E,58.315,270.000,010720,0.000,E,A,V*50
$GPGGA,080435,3000.00000,N,11956.77260,E,3,16,0.88,-7.83,M,7.83,M,,*6D
$GPRMC,080435,A,3000.00000,N,11956.77260,E,58.315,270.000,010720,0.000,E,A,V*5D
$GPGGA,080436,3000.00000,N,11956.75394,E,3,16,0.88,-7.83,M,7.83,M,,*66
$GPRMC,080436,A,3000.00000,N,11956.75394,E,58.315,270.000,010720,0.000,E,A,V*56
$GPGGA,080437,3000.00000,N,11956.73529,E,3,16,0.88,-7.83,M,7.83,M,,*61
$GPRMC,080437,A,3000.00000,N,11956.73529,E,58.315,270.000,010720,0.000,E,A,V*51
$GPGGA,080438,3000.00000,N,11956.71663,E,3,16,0.88,-7.83,M,7.83,M,,*61
$GPRMC,080438,A,3000.00000,N,11956.71663,E,58.315,270.000,010720,0.000,E,A,V*51
$GPGGA,080439,3000.00000,N,11956.69798,E,3,16,0.88,-7.83,M,7.83,M,,*6C
$GPRMC,080439,A,3000.00000,N,11956.69798,E,58.315,270.000,010720,0.000,E,A,V*5C
$GPGGA,080440,3000.00000,N,11956.67932,E,3,16,0.88,-7.83,M,7.83,M,,*62
$GPRMC,080440,A,3000.00000,N,11956.67932,E,58.315,270.000,010720,0.000,E,A,V*52
$GPGGA,080441,3000.00000,N,11956.66067,E,3,16,0.88,-7.83,M,7.83,M,,*6B
$GPRMC,080441,A,3000.00000,N,11956.66067,E,58.315,270.000,010720,0.000,E,A,V*5B
$GPGGA,080442,3000.00000,N,11956.64201,E,3,16,0.88,-7.83,M,7.83,M,,*68
$GPRMC,080442,A,3000.00000,N,11956.64201,E,58.315,270.000,010720,0.000,E,A,V*58
$GPGGA,080443,3000.00000,N,11956.62343,E,3,16,0.88,-7.83,M,7.83,M,,*68
$GPRMC,080443,A,3000.00000,N,11956.62343,E,57.832,270.000,010720,0.000,E,A,V*59
$GPGGA,080444,3000.00000,N,11956.60501,E,3,16,0.88,-7.83,M,7.83,M,,*6D
$GPRMC,080444,A,3000.00000,N,11956.60501,E,57.346,270.000,010720,0.000,E,A,V*54
$GPGGA,080445,3000.00000,N,11956.58674,E,3,16,0.88,-7.83,M,7.83,M,,*66
$GPRMC,080445,A,3000.00000,N,11956.58674,E,56.860,270.000,010720,0.000,E,A,V*51
$GPGGA,080446,3000.00000,N,11956.56863,E,3,16,0.88,-7.82,M,7.82,M,,*63
$GPRMC,080446,A,3000.00000,N,11956.56863,E,56.374,270.000,010720,0.000,E,A,V*5A
$GPGGA,080447,3000.00000,N,11956.55067,E,3,16,0.88,-7.82,M,7.82,M,,*6D
$GPRMC,080447,A,3000.00000,N,11956.55067,E,55.888,270.000,010720,0.000,E,A,V*5F
$GPGGA,080448,3000.00000,N,11956.53287,E,3,16,0.88,-7.82,M,7.82,M,,*68
$GPRMC,080448,A,3000.00000,N,11956.53287,E,55.402,270.000,010720,0.000,E,A,V*54
$GPGGA,080449,3000.00000,N,11956.51522,E,3,16,0.88,-7.82,M,7.82,M,,*63
$GPRMC,080449,A,3000.00000,N,11956.51522,E,54.916,270.000,010720,0.000,E,A,V*56
$GPGGA,080450,3000.00000,N,11956.49773,E,3,16,0.88,-7.82,M,7.82,M,,*64
$GPRMC,080450,A,3000.00000,N,11956.49773,E,54.430,270.000,010720,0.000,E,A,V*58
$GPGGA,080451,3000.00000,N,11956.48040,E,3,16,0.88,-7.82,M,7.82,M,,*63
$GPRMC,080451,A,3000.00000,N,11956.48040,E,53.944,270.000,010720,0.000,E,A,V*56
$GPGGA,080452,3000.00000,N,11956.46322,E,3,16,0.88,-7.82,M,7.82,M,,*69
$GPRMC,080452,A,3000.00000,N,11956.46322,E,53.458,270.000,010720,0.000,E,A,V*5C
$GPGGA,080453,3000.00000,N,11956.44620,E,3,16,0.88,-7.82,M,7.82,M,,*6D
$GPRMC,080453,A,3000.00000,N,11956.44620,E,52.972,270.000,010720,0.000,E,A,V*5C
$GPGGA,080454,3000.00000,N,11956.42933,E,3,16,0.88,-7.82,M,7.82,M,,*61
$GPRMC,080454,A,3000.00000,N,11956.42933,E,52.486,270.000,010720,0.000,E,A,V*56
$GPGGA,080455,3000.00000,N,11956.41262,E,3,16,0.88,-7.82,M,7.82,M,,*6C
$GPRMC,080455,A,3000.00000,N,11956.41262,E,52.000,270.000,010720,0.000,E,A,V*51
$GPGGA,080456,3000.00000,N,11956.39606,E,3,16,0.88,-7.82,M,7.82,M,,*66
$GPRMC,080456,A,3000.00000,N,11956.39606,E,51.514,270.000,010720,0.000,E,A,V*58
$GPGGA,080457,3000.00000,N,11956.37966,E,3,16,0.88,-7.82,M,7.82,M,,*60
$GPRMC,080457,A,3000.00000,N,11956.37966,E,51.028,270.000,010720,0.000,E,A,V*54
$GPGGA,080458,3000.00000,N,11956.36341,E,3,16,0.88,-7.82,M,7.82,M,,*61
$GPRMC,080458,A,3000.00000,N,11956.36341,E,50.542,270.000,010720,0.000,E,A,V*5D
$GPGGA,080459,3000.00000,N,11956.34732,E,3,16,0.88,-7.82,M,7.82,M,,*62
$GPRMC,080459,A,3000.00000,N,11956.34732,E,50.056,270.000,010720,0.000,E,A,V*5E
$GPGGA,080500,3000.00000,N,11956.33138,E,3,16,0.88,-7.82,M,7.82,M,,*64
$GPRMC,080500,A,3000.00000,N,11956.33138,E,49.570,270.000,010720,0.000,E,A,V*51
$GPGGA,080501,3000.00000,N,11956.31560,E,3,16,0.88,-7.82,M,7.82,M,,*6E
$GPRMC,080501,A,3000.00000,N,11956.31560,E,49.084,270.000,010720,0.000,E,A,V*55
$GPGGA,080502,3000.00000,N,11956.29998,E,3,16,0.88,-7.82,M,7.82,M,,*6F
$GPRMC,080502,A,3000.00000,N,11956.29998,E,48.598,270.000,010720,0.000,E,A,V*5D
$GPGGA,080503,3000.00000,N,11956.28451,E,3,16,0.88,-7.82,M,7.82,M,,*67
$GPRMC,080503,A,3000.00000,N,11956.28451,E,48.112,270.000,010720,0.000,E,A,V*53
$GPGGA,080504,3000.00000,N,11956.26920,E,3,16,0.88,-7.82,M,7.82,M,,*65
$GPRMC,080504,A,3000.00000,N,11956.26920,E,47.626,270.000,010720,0.000,E,A,V*5E
$GPGGA,080505,3000.00000,N,11956.25404,E,3,16,0.88,-7.82,M,7.82,M,,*6C
$GPRMC,080505,A,3000.00000,N,11956.25404,E,47.140,270.000,010720,0.000,E,A,V*50
$GPGGA,080506,3000.00000,N,11956.23904,E,3,16,0.88,-7.82,M,7.82,M,,*64
$GPRMC,080506,A,3000.00000,N,11956.23904,E,46.654,270.000,010720,0.000,E,A,V*5B
$GPGGA,080507,3000.00000,N,11956.22419,E,3,16,0.88,-7.82,M,7.82,M,,*65
$GPRMC,080507,A,3000.00000,N,11956.22419,E,46.168,270.000,010720,0.000,E,A,V*52
$GPGGA,080508,3000.00000,N,11956.20950,E,3,16,0.88,-7.82,M,7.82,M,,*68
$GPRMC,080508,A,3000.00000,N,11956.20950,E,45.682,270.000,010720,0.000,E,A,V*5F
$GPGGA,080509,3000.00000,N,11956.19496,E,3,16,0.88,-7.82,M,7.82,M,,*64
$GPRMC,080509,A,3000.00000,N,11956.19496,E,45.196,270.000,010720,0.000,E,A,V*51
$GPGGA,080510,3000.00000,N,11956.18058,E,3,16,0.88,-7.82,M,7.82,M,,*6B
$GPRMC,080510,A,3000.00000,N,11956.18058,E,44.710,270.000,010720,0.000,E,A,V*57
$GPGGA,080511,3000.00000,N,11956.16636,E,3,16,0.88,-7.82,M,7.82,M,,*6A
$GPRMC,080511,A,3000.00000,N,11956.16636,E,44.224,270.000,010720,0.000,E,A,V*54
$GPGGA,080512,3000.00000,N,11956.15229,E,3,16,0.88,-7.82,M,7.82,M,,*60
$GPRMC,080512,A,3000.00000,N,11956.15229,E,43.738,270.000,010720,0.000,E,A,V*51
$GPGGA,080513,3000.00000,N,11956.13837,E,3,16,0.88,-7.82,M,7.82,M,,*62
$GPRMC,080513,A,3000.00000,N,11956.13837,E,43.252,270.000,010720,0.000,E,A,V*5A
$GPGGA,080514,3000.00000,N,11956.12461,E,3,16,0.88,-7.82,M,7.82,M,,*6B
$GPRMC,080514,A,3000.00000,N,11956.12461,E,42.766,270.000,010720,0.000,E,A,V*50
$GPGGA,080515,3000.00000,N,11956.11101,E,3,16,0.88,-7.82,M,7.82,M,,*6A
$GPRMC,080515,A,3000.00000,N,11956.11101,E,42.280,270.000,010720,0.000,E,A,V*5C
$GPGGA,080516,3000.00000,N,11956.09756,E,3,16,0.88,-7.82,M,7.82,M,,*64
$GPRMC,080516,A,3000.00000,N,11956.09756,E,41.794,270.000,010720,0.000,E,A,V*51
$GPGGA,080517,3000.00000,N,11956.08427,E,3,16,0.88,-7.82,M,7.82,M,,*61
$GPRMC,080517,A,3000.00000,N,11956.08427,E,41.308,270.000,010720,0.000,E,A,V*55
$GPGGA,080518,3000.00000,N,11956.07113,E,3,16,0.88,-7.82,M,7.82,M,,*63
$GPRMC,080518,A,3000.00000,N,11956.07113,E,40.822,270.000,010720,0.000,E,A,V*55
$GPGGA,080519,3000.00000,N,11956.05815,E,3,16,0.88,-7.82,M,7.82,M,,*6F
$GPRMC,080519,A,3000.00000,N,11956.05815,E,40.336,270.000,010720,0.000,E,A,V*57
$GPGGA,080520,3000.00000,N,11956.04532,E,3,16,0.88,-7.82,M,7.82,M,,*6C
$GPRMC,080520,A,3000.00000,N,11956.04532,E,39.850,270.000,010720,0.000,E,A,V*51
$GPGGA,080521,3000.00000,N,11956.03265,E,3,16,0.88,-7.82,M,7.82,M,,*6F
$GPRMC,080521,A,3000.00000,N,11956.03265,E,39.364,270.000,010720,0.000,E,A,V*5E
$GPGGA,080522,3000.00000,N,11956.02014,E,3,16,0.88,-7.81,M,7.81,M,,*69
$GPRMC,080522,A,3000.00000,N,11956.02014,E,38.878,270.000,010720,0.000,E,A,V*5F
$GPGGA,080523,3000.00000,N,11956.00778,E,3,16,0.88,-7.81,M,7.81,M,,*67
$GPRMC,080523,A,3000.00000,N,11956.00778,E,38.392,270.000,010720,0.000,E,A,V*5E
$GPGGA,080524,3000.00000,N,11955.99558,E,3,16,0.88,-7.81,M,7.81,M,,*63
$GPRMC,080524,A,3000.00000,N,11955.99558,E,37.906,270.000,010720,0.000,E,A,V*52
$GPGGA,080525,3000.00000,N,11955.98353,E,3,16,0.88,-7.81,M,7.81,M,,*6E
$GPRMC,080525,A,3000.00000,N,11955.98353,E,37.420,270.000,010720,0.000,E,A,V*56
$GPGGA,080526,3000.00000,N,11955.97163,E,3,16,0.88,-7.81,M,7.81,M,,*63
$GPRMC,080526,A,3000.00000,N,11955.97163,E,36.934,270.000,010720,0.000,E,A,V*52
$GPGGA,080527,3000.00000,N,11955.95990,E,3,16,0.88,-7.81,M,7.81,M,,*64
$GPRMC,080527,A,3000.00000,N,11955.95990,E,36.448,270.000,010720,0.000,E,A,V*53
$GPGGA,080528,3000.00000,N,11955.94831,E,3,16,0.88,-7.81,M,7.81,M,,*60
$GPRMC,080528,A,3000.00000,N,11955.94831,E,35.962,270.000,010720,0.000,E,A,V*51
$GPGGA,080529,3000.00000,N,11955.93689,E,3,16,0.88,-7.81,M,7.81,M,,*6B
$GPRMC,080529,A,3000.00000,N,11955.93689,E,35.476,270.000,010720,0.000,E,A,V*52
$GPGGA,080530,3000.00000,N,11955.92562,E,3,16,0.88,-7.81,M,7.81,M,,*64
$GPRMC,080530,A,3000.00000,N,11955.92562,E,34.990,270.000,010720,0.000,E,A,V*59
$GPGGA,080531,3000.00000,N,11955.91450,E,3,16,0.88,-7.81,M,7.81,M,,*66
$GPRMC,080531,A,3000.00000,N,11955.91450,E,34.504,270.000,010720,0.000,E,A,V*5A
$GPGGA,080532,3000.00000,N,11955.90354,E,3,16,0.88,-7.81,M,7.81,M,,*67
$GPRMC,080532,A,3000.00000,N,11955.90354,E,34.018,270.000,010720,0.000,E,A,V*53
$GPGGA,080533,3000.00000,N,11955.89274,E,3,16,0.88,-7.81,M,7.81,M,,*6D
$GPRMC,080533,A,3000.00000,N,11955.89274,E,33.532,270.000,010720,0.000,E,A,V*53
$GPGGA,080534,3000.00000,N,11955.88209,E,3,16,0.88,-7.81,M,7.81,M,,*61
$GPRMC,080534,A,3000.00000,N,11955.88209,E,33.046,270.000,010720,0.000,E,A,V*59
$GPGGA,080535,3000.00000,N,11955.87159,E,3,16,0.88,-7.81,M,7.81,M,,*69
$GPRMC,080535,A,3000.00000,N,11955.87159,E,32.560,270.000,010720,0.000,E,A,V*51
$GPGGA,080536,3000.00000,N,11955.86125,E,3,16,0.88,-7.81,M,7.81,M,,*60
$GPRMC,080536,A,3000.00000,N,11955.86125,E,32.074,270.000,010720,0.000,E,A,V*58
$GPGGA,080537,3000.00000,N,11955.85107,E,3,16,0.88,-7.81,M,7.81,M,,*62
$GPRMC,080537,A,3000.00000,N,11955.85107,E,31.588,270.000,010720,0.000,E,A,V*5F
$GPGGA,080538,3000.00000,N,11955.84104,E,3,16,0.88,-7.81,M,7.81,M,,*6F
$GPRMC,080538,A,3000.00000,N,11955.84104,E,31.102,270.000,010720,0.000,E,A,V*54
$GPGGA,080539,3000.00000,N,11955.83117,E,3,16,0.88,-7.81,M,7.81,M,,*6B
$GPRMC,080539,A,3000.00000,N,11955.83117,E,30.616,270.000,010720,0.000,E,A,V*53
$GPGGA,080540,3000.00000,N,11955.82146,E,3,16,0.88,-7.81,M,7.81,M,,*60
$GPRMC,080540,A,3000.00000,N,11955.82146,E,30.130,270.000,010720,0.000,E,A,V*5B
$GPGGA,080541,3000.00000,N,11955.81189,E,3,16,0.88,-7.81,M,7.81,M,,*61
$GPRMC,080541,A,3000.00000,N,11955.81189,E,29.644,270.000,010720,0.000,E,A,V*56
$GPGGA,080542,3000.00000,N,11955.80249,E,3,16,0.88,-7.81,M,7.81,M,,*6C
$GPRMC,080542,A,3000.00000,N,11955.80249,E,29.158,270.000,010720,0.000,E,A,V*51
$GPGGA,080543,3000.00000,N,11955.79324,E,3,16,0.88,-7.81,M,7.81,M,,*61
$GPRMC,080543,A,3000.00000,N,11955.79324,E,28.672,270.000,010720,0.000,E,A,V*52
$GPGGA,080544,3000.00000,N,11955.78414,E,3,16,0.88,-7.81,M,7.81,M,,*63
$GPRMC,080544,A,3000.00000,N,11955.78414,E,28.186,270.000,010720,0.000,E,A,V*5C
$GPGGA,080545,3000.00000,N,11955.77521,E,3,16,0.88,-7.81,M,7.81,M,,*6A
$GPRMC,080545,A,3000.00000,N,11955.77521,E,27.700,270.000,010720,0.000,E,A,V*52
$GPGGA,080546,3000.00000,N,11955.76642,E,3,16,0.88,-7.81,M,7.81,M,,*6E
$GPRMC,080546,A,3000.00000,N,11955.76642,E,27.214,270.000,010720,0.000,E,A,V*56
$GPGGA,080547,3000.00000,N,11955.75779,E,3,16,0.88,-7.81,M,7.81,M,,*65
$GPRMC,080547,A,3000.00000,N,11955.75779,E,26.728,270.000,010720,0.000,E,A,V*56
$GPGGA,080548,3000.00000,N,11955.74932,E,3,16,0.88,-7.81,M,7.81,M,,*6A
$GPRMC,080548,A,3000.00000,N,11955.74932,E,26.242,270.000,010720,0.000,E,A,V*50
$GPGGA,080549,3000.00000,N,11955.74100,E,3,16,0.88,-7.81,M,7.81,M,,*62
$GPRMC,080549,A,3000.00000,N,11955.74100,E,25.756,270.000,010720,0.000,E,A,V*5B
$GPGGA,080550,3000.00000,N,11955.73284,E,3,16,0.88,-7.81,M,7.81,M,,*62
$GPRMC,080550,A,3000.00000,N,11955.73284,E,25.270,270.000,010720,0.000,E,A,V*5A
$GPGGA,080551,3000.00000,N,11955.72484,E,3,16,0.88,-7.81,M,7.81,M,,*64
$GPRMC,080551,A,3000.00000,N,11955.72484,E,24.784,270.000,010720,0.000,E,A,V*53
$GPGGA,080552,3000.00000,N,11955.71699,E,3,16,0.88,-7.81,M,7.81,M,,*6A
$GPRMC,080552,A,3000.00000,N,11955.71699,E,24.298,270.000,010720,0.000,E,A,V*55
$GPGGA,080553,3000.00000,N,11955.70929,E,3,16,0.88,-7.81,M,7.81,M,,*6E
$GPRMC,080553,A,3000.00000,N,11955.70929,E,23.812,270.000,010720,0.000,E,A,V*5E
$GPGGA,080554,3000.00000,N,11955.70175,E,3,16,0.88,-7.81,M,7.81,M,,*68
$GPRMC,080554,A,3000.00000,N,11955.70175,E,23.326,270.000,010720,0.000,E,A,V*54
$GPGGA,080555,3000.00000,N,11955.69437,E,3,16,0.88,-7.81,M,7.81,M,,*62
$GPRMC,080555,A,3000.00000,N,11955.69437,E,22.840,270.000,010720,0.000,E,A,V*54
$GPGGA,080556,3000.00000,N,11955.68714,E,3,16,0.88,-7.81,M,7.81,M,,*62
$GPRMC,080556,A,3000.00000,N,11955.68714,E,22.354,270.000,010720,0.000,E,A,V*5A
$GPGGA,080557,3000.00000,N,11955.68006,E,3,16,0.88,-7.81,M,7.81,M,,*67
$GPRMC,080557,A,3000.00000,N,11955.68006,E,21.868,270.000,010720,0.000,E,A,V*58
$GPGGA,080558,3000.00000,N,11955.67315,E,3,16,0.88,-7.81,M,7.81,M,,*66
$GPRMC,080558,A,3000.00000,N,11955.67315,E,21.382,270.000,010720,0.000,E,A,V*56
$GPGGA,080559,3000.00000,N,11955.66638,E,3,16,0.88,-7.81,M,7.81,M,,*6C
$GPRMC,080559,A,3000.00000,N,11955.66638,E,20.896,270.000,010720,0.000,E,A,V*53
$GPGGA,080600,3000.00000,N,11955.65978,E,3,16,0.88,-7.81,M,7.81,M,,*6B
$GPRMC,080600,A,3000.00000,N,11955.65978,E,20.410,270.000,010720,0.000,E,A,V*56
$GPGGA,080601,3000.00000,N,11955.65332,E,3,16,0.88,-7.81,M,7.81,M,,*6E
$GPRMC,080601,A,3000.00000,N,11955.65332,E,19.924,270.000,010720,0.000,E,A,V*53
$GPGGA,080602,3000.00000,N,11955.64703,E,3,16,0.88,-7.81,M,7.81,M,,*6A
$GPRMC,080602,A,3000.00000,N,11955.64703,E,19.438,270.000,010720,0.000,E,A,V*57
$GPGGA,080603,3000.00000,N,11955.64089,E,3,16,0.88,-7.81,M,7.81,M,,*6E
$GPRMC,080603,A,3000.00000,N,11955.64089,E,18.952,270.000,010720,0.000,E,A,V*53
$GPGGA,080604,3000.00000,N,11955.63490,E,3,16,0.88,-7.81,M,7.81,M,,*62
$GPRMC,080604,A,3000.00000,N,11955.63490,E,18.466,270.000,010720,0.000,E,A,V*55
$GPGGA,080605,3000.00000,N,11955.62907,E,3,16,0.88,-7.81,M,7.81,M,,*61
$GPRMC,080605,A,3000.00000,N,11955.62907,E,17.980,270.000,010720,0.000,E,A,V*5C
$GPGGA,080606,3000.00000,N,11955.62340,E,3,16,0.88,-7.81,M,7.81,M,,*6B
$GPRMC,080606,A,3000.00000,N,11955.62340,E,17.494,270.000,010720,0.000,E,A,V*5E
$GPGGA,080607,3000.00000,N,11955.61788,E,3,16,0.88,-7.81,M,7.81,M,,*69
$GPRMC,080607,A,3000.00000,N,11955.61788,E,17.008,270.000,010720,0.000,E,A,V*5D
$GPGGA,080608,3000.00000,N,11955.61252,E,3,16,0.88,-7.81,M,7.81,M,,*64
$GPRMC,080608,A,3000.00000,N,11955.61252,E,16.522,270.000,010720,0.000,E,A,V*5C
$GPGGA,080609,3000.00000,N,11955.60731,E,3,16,0.88,-7.81,M,7.81,M,,*64
$GPRMC,080609,A,3000.00000,N,11955.60731,E,16.036,270.000,010720,0.000,E,A,V*5C
$GPGGA,080610,3000.00000,N,11955.60226,E,3,16,0.88,-7.81,M,7.81,M,,*6F
$GPRMC,080610,A,3000.00000,N,11955.60226,E,15.550,270.000,010720,0.000,E,A,V*51
$GPGGA,080611,3000.00000,N,11955.59736,E,3,16,0.88,-7.81,M,7.81,M,,*60
$GPRMC,080611,A,3000.00000,N,11955.59736,E,15.064,270.000,010720,0.000,E,A,V*5C
$GPGGA,080612,3000.00000,N,11955.59262,E,3,16,0.88,-7.81,M,7.81,M,,*67
$GPRMC,080612,A,3000.00000,N,11955.59262,E,14.578,270.000,010720,0.000,E,A,V*52
$GPGGA,080613,3000.00000,N,11955.58803,E,3,16,0.88,-7.81,M,7.81,M,,*6A
$GPRMC,080613,A,3000.00000,N,11955.58803,E,14.092,270.000,010720,0.000,E,A,V*5E
$GPGGA,080614,3000.00000,N,11955.58360,E,3,16,0.88,-7.81,M,7.81,M,,*63
$GPRMC,080614,A,3000.00000,N,11955.58360,E,13.606,270.000,010720,0.000,E,A,V*5B
$GPGGA,080615,3000.00000,N,11955.57933,E,3,16,0.88,-7.81,M,7.81,M,,*61
$GPRMC,080615,A,3000.00000,N,11955.57933,E,13.120,270.000,010720,0.000,E,A,V*5A
$GPGGA,080616,3000.00000,N,11955.57521,E,3,16,0.88,-7.81,M,7.81,M,,*6D
$GPRMC,080616,A,3000.00000,N,11955.57521,E,12.634,270.000,010720,0.000,E,A,V*55
$GPGGA,080617,3000.00000,N,11955.57125,E,3,16,0.88,-7.81,M,7.81,M,,*6C
$GPRMC,080617,A,3000.00000,N,11955.57125,E,12.148,270.000,010720,0.000,E,A,V*58
$GPGGA,080618,3000.00000,N,11955.56744,E,3,16,0.88,-7.81,M,7.81,M,,*63
